{"data": {"bikes": [{"is_reserved": 0, "is_disabled": 0, "fusion_lat": 0.0, "name": "7130e2a6793cc2dd83b51183f49673f5", "lat": 38.90977133333333, "lon": -77.08815816666667, "bike_id": "7130e2a6793cc2dd83b51183f49673f5", "rental_uris": {"ios": "https://dc.lft.to/lastmile_qr_scan", "android": "https://dc.lft.to/lastmile_qr_scan"}, "type": "electric_bike", "fusion_lon": 0.0}, {"is_reserved": 0, "is_disabled": 0, "fusion_lat": 0.0, "name": "3fe6008c6317e6286741dac6a3c9e849", "lat": 38.89738716666667, "lon": -77.04146716666666, "bike_id": "3fe6008c6317e6286741dac6a3c9e849", "rental_uris": {"ios": "https://dc.lft.to/lastmile_qr_scan", "android": "https://dc.lft.to/lastmile_qr_scan"}, "type": "electric_scooter", "fusion_lon": 0.0}, {"is_reserved": 0, "is_disabled": 0, "fusion_lat": 0.0, "name": "19f86b3832408a8cc84779612a02ce49", "lat": 38.9475505, "lon": -77.03284183333334, "bike_id": "19f86b3832408a8cc84779612a02ce49", "rental_uris": {"ios": "https://dc.lft.to/lastmile_qr_scan", "android": "https://dc.lft.to/lastmile_qr_scan"}, "type": "electric_scooter", "fusion_lon": 0.0}, {"is_reserved": 0, "is_disabled": 0, "fusion_lat": 0.0, "name": "478d128c0250f2bc00d0ceef3261a3c0", "lat": 38.92012066666667, "lon": -77.07140716666666, "bike_id": "478d128c0250f2bc00d0ceef3261a3c0", "rental_uris": {"ios": "https://dc.lft.to/lastmile_qr_scan", "android": "https://dc.lft.to/lastmile_qr_scan"}, "type": "electric_scooter", "fusion_lon": 0.0}, {"is_reserved": 0, "is_disabled": 0, "fusion_lat": 0.0, "name": "b57d20821b99dd67c7838166b7e0ab1f", "lat": 38.87845816666667, "lon": -77.00573666666666, "bike_id": "b57d20821b99dd67c7838166b7e0ab1f", "rental_uris": {"ios": "https://dc.lft.to/lastmile_qr_scan", "android": "https://dc.lft.to/lastmile_qr_scan"}, "type": "electric_scooter", "fusion_lon": 0.0}, {"is_reserved": 0, "is_disabled": 0, "fusion_lat": 0.0, "name": "beef349795c445a2f03a6342362500a7", "lat": 38.9097245, "lon": -77.0321885, "bike_id": "beef349795c445a2f03a6342362500a7", "rental_uris": {"ios": "https://dc.lft.to/lastmile_qr_scan", "android": "https://dc.lft.to/lastmile_qr_scan"}, "type": "electric_scooter", "fusion_lon": 0.0}, {"is_reserved": 0, "is_disabled": 0, "fusion_lat": 0.0, "name": "01eee3aab0187c7658359300b76e6003", "lat": 38.920599833333334, "lon": -77.04402066666667, "bike_id": "01eee3aab0187c7658359300b76e6003", "rental_uris": {"ios": "https://dc.lft.to/lastmile_qr_scan", "android": "https://dc.lft.to/lastmile_qr_scan"}, "type": "electric_scooter", "fusion_lon": 0.0}, {"is_reserved": 0, "is_disabled": 0, "fusion_lat": 0.0, "name": "72fe0477639f5f0666dff9a43885384c", "lat": 38.924242666666665, "lon": -77.02133583333334, "bike_id": "72fe0477639f5f0666dff9a43885384c", "rental_uris": {"ios": "https://dc.lft.to/lastmile_qr_scan", "android": "https://dc.lft.to/lastmile_qr_scan"}, "type": "electric_scooter", "fusion_lon": 0.0}, {"is_reserved": 0, "is_disabled": 0, "fusion_lat": 0.0, "name": "1ed62ff49e54608fa148814666609ecc", "lat": 38.876527, "lon": -77.0079975, "bike_id": "1ed62ff49e54608fa148814666609ecc", "rental_uris": {"ios": "https://dc.lft.to/lastmile_qr_scan", "android": "https://dc.lft.to/lastmile_qr_scan"}, "type": "electric_scooter", "fusion_lon": 0.0}, {"is_reserved": 0, "is_disabled": 0, "fusion_lat": 0.0, "name": "069a2d779f7bff9193ea7b16a886cef7", "lat": 38.885316833333334, "lon": -76.98056333333334, "bike_id": "069a2d779f7bff9193ea7b16a886cef7", "rental_uris": {"ios": "https://dc.lft.to/lastmile_qr_scan", "android": "https://dc.lft.to/lastmile_qr_scan"}, "type": "electric_scooter", "fusion_lon": 0.0}, {"is_reserved": 0, "is_disabled": 0, "fusion_lat": 0.0, "name": "c068bc19ccebbbf90f200f6418b3510e", "lat": 38.921315, "lon": -77.04415716666666, "bike_id": "c068bc19ccebbbf90f200f6418b3510e", "rental_uris": {"ios": "https://dc.lft.to/lastmile_qr_scan", "android": "https://dc.lft.to/lastmile_qr_scan"}, "type": "electric_scooter", "fusion_lon": 0.0}, {"is_reserved": 0, "is_disabled": 0, "fusion_lat": 0.0, "name": "ec1519777d81ef28022351b81353198c", "lat": 38.91564616666667, "lon": -77.04093983333334, "bike_id": "ec1519777d81ef28022351b81353198c", "rental_uris": {"ios": "https://dc.lft.to/lastmile_qr_scan", "android": "https://dc.lft.to/lastmile_qr_scan"}, "type": "electric_scooter", "fusion_lon": 0.0}, {"is_reserved": 0, "is_disabled": 0, "fusion_lat": 0.0, "name": "c2fd1562aa35722810f331d4f15efbc3", "lat": 38.90379316666667, "lon": -76.9376335, "bike_id": "c2fd1562aa35722810f331d4f15efbc3", "rental_uris": {"ios": "https://dc.lft.to/lastmile_qr_scan", "android": "https://dc.lft.to/lastmile_qr_scan"}, "type": "electric_bike", "fusion_lon": 0.0}, {"is_reserved": 0, "is_disabled": 0, "fusion_lat": 0.0, "name": "bcdfdd147b5e6fb11fe91f381cc1d6b2", "lat": 38.83864483333333, "lon": -76.99706816666666, "bike_id": "bcdfdd147b5e6fb11fe91f381cc1d6b2", "rental_uris": {"ios": "https://dc.lft.to/lastmile_qr_scan", "android": "https://dc.lft.to/lastmile_qr_scan"}, "type": "electric_bike", "fusion_lon": 0.0}, {"is_reserved": 0, "is_disabled": 0, "fusion_lat": 0.0, "name": "eec37433a916e62c21d8dfae702d534d", "lat": 38.89938183333334, "lon": -77.0539705, "bike_id": "eec37433a916e62c21d8dfae702d534d", "rental_uris": {"ios": "https://dc.lft.to/lastmile_qr_scan", "android": "https://dc.lft.to/lastmile_qr_scan"}, "type": "electric_scooter", "fusion_lon": 0.0}, {"is_reserved": 0, "is_disabled": 0, "fusion_lat": 0.0, "name": "4bf7f79b56feb0f3978dd5cebab154b8", "lat": 38.936054, "lon": -77.055995, "bike_id": "4bf7f79b56feb0f3978dd5cebab154b8", "rental_uris": {"ios": "https://dc.lft.to/lastmile_qr_scan", "android": "https://dc.lft.to/lastmile_qr_scan"}, "type": "electric_scooter", "fusion_lon": 0.0}, {"is_reserved": 0, "is_disabled": 0, "fusion_lat": 0.0, "name": "cfebe964485612616f92e457a2fa6fc9", "lat": 38.903593, "lon": -77.06014166666667, "bike_id": "cfebe964485612616f92e457a2fa6fc9", "rental_uris": {"ios": "https://dc.lft.to/lastmile_qr_scan", "android": "https://dc.lft.to/lastmile_qr_scan"}, "type": "electric_scooter", "fusion_lon": 0.0}, {"is_reserved": 0, "is_disabled": 0, "fusion_lat": 0.0, "name": "134f43445c4dcf7cefcc5453f60c7524", "lat": 38.914282166666666, "lon": -77.03193233333333, "bike_id": "134f43445c4dcf7cefcc5453f60c7524", "rental_uris": {"ios": "https://dc.lft.to/lastmile_qr_scan", "android": "https://dc.lft.to/lastmile_qr_scan"}, "type": "electric_scooter", "fusion_lon": 0.0}, {"is_reserved": 0, "is_disabled": 0, "fusion_lat": 0.0, "name": "d47d73b952447f8311efb9901d94a236", "lat": 38.919911166666665, "lon": -76.97302733333333, "bike_id": "d47d73b952447f8311efb9901d94a236", "rental_uris": {"ios": "https://dc.lft.to/lastmile_qr_scan", "android": "https://dc.lft.to/lastmile_qr_scan"}, "type": "electric_scooter", "fusion_lon": 0.0}, {"is_reserved": 0, "is_disabled": 0, "fusion_lat": 0.0, "name": "5de7483101e9f1f1080eb80423fa233d", "lat": 38.943237833333335, "lon": -77.07325433333334, "bike_id": "5de7483101e9f1f1080eb80423fa233d", "rental_uris": {"ios": "https://dc.lft.to/lastmile_qr_scan", "android": "https://dc.lft.to/lastmile_qr_scan"}, "type": "electric_scooter", "fusion_lon": 0.0}, {"is_reserved": 0, "is_disabled": 0, "fusion_lat": 0.0, "name": "349417c4d7bacb14c150b3741dee7dfa", "lat": 38.900337, "lon": -77.0115585, "bike_id": "349417c4d7bacb14c150b3741dee7dfa", "rental_uris": {"ios": "https://dc.lft.to/lastmile_qr_scan", "android": "https://dc.lft.to/lastmile_qr_scan"}, "type": "electric_scooter", "fusion_lon": 0.0}, {"is_reserved": 0, "is_disabled": 0, "fusion_lat": 0.0, "name": "81a5151d76afe821b783db17b963f0c3", "lat": 38.916412, "lon": -77.04811933333333, "bike_id": "81a5151d76afe821b783db17b963f0c3", "rental_uris": {"ios": "https://dc.lft.to/lastmile_qr_scan", "android": "https://dc.lft.to/lastmile_qr_scan"}, "type": "electric_scooter", "fusion_lon": 0.0}, {"is_reserved": 0, "is_disabled": 0, "fusion_lat": 0.0, "name": "f6b5bdf2d09388d16f16fc5d5d6884fd", "lat": 38.90227133333333, "lon": -77.02709133333333, "bike_id": "f6b5bdf2d09388d16f16fc5d5d6884fd", "rental_uris": {"ios": "https://dc.lft.to/lastmile_qr_scan", "android": "https://dc.lft.to/lastmile_qr_scan"}, "type": "electric_scooter", "fusion_lon": 0.0}, {"is_reserved": 0, "is_disabled": 0, "fusion_lat": 0.0, "name": "daccc0ac955401bb9e6e80dc1ba7e8c4", "lat": 38.905749166666666, "lon": -77.01719666666666, "bike_id": "daccc0ac955401bb9e6e80dc1ba7e8c4", "rental_uris": {"ios": "https://dc.lft.to/lastmile_qr_scan", "android": "https://dc.lft.to/lastmile_qr_scan"}, "type": "electric_scooter", "fusion_lon": 0.0}, {"is_reserved": 0, "is_disabled": 0, "fusion_lat": 0.0, "name": "744a2123608ba285a06dd1f865b9b266", "lat": 38.91598533333333, "lon": -76.98389116666667, "bike_id": "744a2123608ba285a06dd1f865b9b266", "rental_uris": {"ios": "https://dc.lft.to/lastmile_qr_scan", "android": "https://dc.lft.to/lastmile_qr_scan"}, "type": "electric_scooter", "fusion_lon": 0.0}, {"is_reserved": 0, "is_disabled": 0, "fusion_lat": 0.0, "name": "fc3b0c864b04f0e59c2e5543a8a4e673", "lat": 38.909515999999996, "lon": -76.98538433333333, "bike_id": "fc3b0c864b04f0e59c2e5543a8a4e673", "rental_uris": {"ios": "https://dc.lft.to/lastmile_qr_scan", "android": "https://dc.lft.to/lastmile_qr_scan"}, "type": "electric_scooter", "fusion_lon": 0.0}, {"is_reserved": 0, "is_disabled": 0, "fusion_lat": 0.0, "name": "29a9c6d0ba86c4ea88f3febb7afb26f8", "lat": 38.915424, "lon": -77.02405966666667, "bike_id": "29a9c6d0ba86c4ea88f3febb7afb26f8", "rental_uris": {"ios": "https://dc.lft.to/lastmile_qr_scan", "android": "https://dc.lft.to/lastmile_qr_scan"}, "type": "electric_scooter", "fusion_lon": 0.0}, {"is_reserved": 0, "is_disabled": 0, "fusion_lat": 0.0, "name": "8a8567a1dd072b71db10dff0e4fe9b49", "lat": 38.897424666666666, "lon": -77.032236, "bike_id": "8a8567a1dd072b71db10dff0e4fe9b49", "rental_uris": {"ios": "https://dc.lft.to/lastmile_qr_scan", "android": "https://dc.lft.to/lastmile_qr_scan"}, "type": "electric_scooter", "fusion_lon": 0.0}, {"is_reserved": 0, "is_disabled": 0, "fusion_lat": 0.0, "name": "e8cf16303941afd2670accc092e69b69", "lat": 38.91076916666667, "lon": -77.0272365, "bike_id": "e8cf16303941afd2670accc092e69b69", "rental_uris": {"ios": "https://dc.lft.to/lastmile_qr_scan", "android": "https://dc.lft.to/lastmile_qr_scan"}, "type": "electric_scooter", "fusion_lon": 0.0}, {"is_reserved": 0, "is_disabled": 0, "fusion_lat": 0.0, "name": "2a8786f53efdb5f5c1ed01dc33c522b5", "lat": 38.91843516666667, "lon": -77.0228815, "bike_id": "2a8786f53efdb5f5c1ed01dc33c522b5", "rental_uris": {"ios": "https://dc.lft.to/lastmile_qr_scan", "android": "https://dc.lft.to/lastmile_qr_scan"}, "type": "electric_scooter", "fusion_lon": 0.0}, {"is_reserved": 0, "is_disabled": 0, "fusion_lat": 0.0, "name": "ca4e0697762b5c5d99ab3c25a8706c14", "lat": 38.9375255, "lon": -77.03264233333333, "bike_id": "ca4e0697762b5c5d99ab3c25a8706c14", "rental_uris": {"ios": "https://dc.lft.to/lastmile_qr_scan", "android": "https://dc.lft.to/lastmile_qr_scan"}, "type": "electric_scooter", "fusion_lon": 0.0}, {"is_reserved": 0, "is_disabled": 0, "fusion_lat": 0.0, "name": "873f9e6afd3dac7726f1ba9c61096417", "lat": 38.909697333333334, "lon": -77.0111025, "bike_id": "873f9e6afd3dac7726f1ba9c61096417", "rental_uris": {"ios": "https://dc.lft.to/lastmile_qr_scan", "android": "https://dc.lft.to/lastmile_qr_scan"}, "type": "electric_scooter", "fusion_lon": 0.0}, {"is_reserved": 0, "is_disabled": 0, "fusion_lat": 0.0, "name": "d2a016ac7d8ea155f96ddf1aae134208", "lat": 38.908676166666666, "lon": -77.031873, "bike_id": "d2a016ac7d8ea155f96ddf1aae134208", "rental_uris": {"ios": "https://dc.lft.to/lastmile_qr_scan", "android": "https://dc.lft.to/lastmile_qr_scan"}, "type": "electric_scooter", "fusion_lon": 0.0}, {"is_reserved": 0, "is_disabled": 0, "fusion_lat": 0.0, "name": "7dd99cd32f5aa46255e921e172a78578", "lat": 38.91984083333333, "lon": -77.02202, "bike_id": "7dd99cd32f5aa46255e921e172a78578", "rental_uris": {"ios": "https://dc.lft.to/lastmile_qr_scan", "android": "https://dc.lft.to/lastmile_qr_scan"}, "type": "electric_scooter", "fusion_lon": 0.0}, {"is_reserved": 0, "is_disabled": 0, "fusion_lat": 0.0, "name": "75715061dca9220b0a8f158cd858ed96", "lat": 38.89824466666666, "lon": -77.0296625, "bike_id": "75715061dca9220b0a8f158cd858ed96", "rental_uris": {"ios": "https://dc.lft.to/lastmile_qr_scan", "android": "https://dc.lft.to/lastmile_qr_scan"}, "type": "electric_scooter", "fusion_lon": 0.0}, {"is_reserved": 0, "is_disabled": 0, "fusion_lat": 0.0, "name": "85daadb8998b015dcfaf6e327238b2c3", "lat": 38.91014783333333, "lon": -76.9939065, "bike_id": "85daadb8998b015dcfaf6e327238b2c3", "rental_uris": {"ios": "https://dc.lft.to/lastmile_qr_scan", "android": "https://dc.lft.to/lastmile_qr_scan"}, "type": "electric_scooter", "fusion_lon": 0.0}, {"is_reserved": 0, "is_disabled": 0, "fusion_lat": 0.0, "name": "f1c24c283ab9291f4c1c7ac8533ae20e", "lat": 38.90073833333334, "lon": -77.02705283333333, "bike_id": "f1c24c283ab9291f4c1c7ac8533ae20e", "rental_uris": {"ios": "https://dc.lft.to/lastmile_qr_scan", "android": "https://dc.lft.to/lastmile_qr_scan"}, "type": "electric_scooter", "fusion_lon": 0.0}, {"is_reserved": 0, "is_disabled": 0, "fusion_lat": 0.0, "name": "f5f6cdb5a223e7b0f51c672db67fd956", "lat": 38.903096166666664, "lon": -77.02112433333333, "bike_id": "f5f6cdb5a223e7b0f51c672db67fd956", "rental_uris": {"ios": "https://dc.lft.to/lastmile_qr_scan", "android": "https://dc.lft.to/lastmile_qr_scan"}, "type": "electric_scooter", "fusion_lon": 0.0}, {"is_reserved": 0, "is_disabled": 0, "fusion_lat": 0.0, "name": "7f57b589cb678d64ed619db0f01ca743", "lat": 38.89956883333333, "lon": -77.01509883333334, "bike_id": "7f57b589cb678d64ed619db0f01ca743", "rental_uris": {"ios": "https://dc.lft.to/lastmile_qr_scan", "android": "https://dc.lft.to/lastmile_qr_scan"}, "type": "electric_scooter", "fusion_lon": 0.0}, {"is_reserved": 0, "is_disabled": 0, "fusion_lat": 0.0, "name": "94744eafa0db2e1b5e67de7055d8d026", "lat": 38.92214383333334, "lon": -77.018245, "bike_id": "94744eafa0db2e1b5e67de7055d8d026", "rental_uris": {"ios": "https://dc.lft.to/lastmile_qr_scan", "android": "https://dc.lft.to/lastmile_qr_scan"}, "type": "electric_scooter", "fusion_lon": 0.0}, {"is_reserved": 0, "is_disabled": 0, "fusion_lat": 0.0, "name": "cec0d1e1689af154da30ef91b1d19057", "lat": 38.89616816666667, "lon": -76.90743216666667, "bike_id": "cec0d1e1689af154da30ef91b1d19057", "rental_uris": {"ios": "https://dc.lft.to/lastmile_qr_scan", "android": "https://dc.lft.to/lastmile_qr_scan"}, "type": "electric_bike", "fusion_lon": 0.0}, {"is_reserved": 0, "is_disabled": 0, "fusion_lat": 0.0, "name": "05c4cf0ee3030d4989c7eb1574163355", "lat": 38.885119, "lon": -76.92440866666666, "bike_id": "05c4cf0ee3030d4989c7eb1574163355", "rental_uris": {"ios": "https://dc.lft.to/lastmile_qr_scan", "android": "https://dc.lft.to/lastmile_qr_scan"}, "type": "electric_scooter", "fusion_lon": 0.0}, {"is_reserved": 0, "is_disabled": 0, "fusion_lat": 0.0, "name": "609c89064a18402a0fd985924f9f53d5", "lat": 38.8853, "lon": -76.98056433333333, "bike_id": "609c89064a18402a0fd985924f9f53d5", "rental_uris": {"ios": "https://dc.lft.to/lastmile_qr_scan", "android": "https://dc.lft.to/lastmile_qr_scan"}, "type": "electric_scooter", "fusion_lon": 0.0}, {"is_reserved": 0, "is_disabled": 0, "fusion_lat": 0.0, "name": "270b5563ea4b82410db88055eda8d792", "lat": 38.90253233333333, "lon": -76.977015, "bike_id": "270b5563ea4b82410db88055eda8d792", "rental_uris": {"ios": "https://dc.lft.to/lastmile_qr_scan", "android": "https://dc.lft.to/lastmile_qr_scan"}, "type": "electric_scooter", "fusion_lon": 0.0}, {"is_reserved": 0, "is_disabled": 0, "fusion_lat": 0.0, "name": "d363ffe7aa8745decabee2a368c9c119", "lat": 38.935384166666665, "lon": -77.03486716666667, "bike_id": "d363ffe7aa8745decabee2a368c9c119", "rental_uris": {"ios": "https://dc.lft.to/lastmile_qr_scan", "android": "https://dc.lft.to/lastmile_qr_scan"}, "type": "electric_scooter", "fusion_lon": 0.0}, {"is_reserved": 0, "is_disabled": 0, "fusion_lat": 0.0, "name": "6b394359687ddda1235b81216c8970dc", "lat": 38.9575435, "lon": -77.0221645, "bike_id": "6b394359687ddda1235b81216c8970dc", "rental_uris": {"ios": "https://dc.lft.to/lastmile_qr_scan", "android": "https://dc.lft.to/lastmile_qr_scan"}, "type": "electric_scooter", "fusion_lon": 0.0}, {"is_reserved": 0, "is_disabled": 0, "fusion_lat": 0.0, "name": "4439a586d78456ab90f0f349f535dbb6", "lat": 38.9241785, "lon": -77.02009883333334, "bike_id": "4439a586d78456ab90f0f349f535dbb6", "rental_uris": {"ios": "https://dc.lft.to/lastmile_qr_scan", "android": "https://dc.lft.to/lastmile_qr_scan"}, "type": "electric_scooter", "fusion_lon": 0.0}, {"is_reserved": 0, "is_disabled": 0, "fusion_lat": 0.0, "name": "98e4304fc27942a14264d049f3263fdd", "lat": 38.911106, "lon": -77.033668, "bike_id": "98e4304fc27942a14264d049f3263fdd", "rental_uris": {"ios": "https://dc.lft.to/lastmile_qr_scan", "android": "https://dc.lft.to/lastmile_qr_scan"}, "type": "electric_scooter", "fusion_lon": 0.0}, {"is_reserved": 0, "is_disabled": 0, "fusion_lat": 0.0, "name": "ab1f92e27630206c1f179ae5706dccf8", "lat": 38.9109755, "lon": -77.03181133333334, "bike_id": "ab1f92e27630206c1f179ae5706dccf8", "rental_uris": {"ios": "https://dc.lft.to/lastmile_qr_scan", "android": "https://dc.lft.to/lastmile_qr_scan"}, "type": "electric_scooter", "fusion_lon": 0.0}, {"is_reserved": 0, "is_disabled": 0, "fusion_lat": 0.0, "name": "d95a75b8b855ad5210f94ed46a98e2cd", "lat": 38.90463033333333, "lon": -77.05328533333333, "bike_id": "d95a75b8b855ad5210f94ed46a98e2cd", "rental_uris": {"ios": "https://dc.lft.to/lastmile_qr_scan", "android": "https://dc.lft.to/lastmile_qr_scan"}, "type": "electric_scooter", "fusion_lon": 0.0}, {"is_reserved": 0, "is_disabled": 0, "fusion_lat": 0.0, "name": "06643f77ce3f3755d92ef881279f0237", "lat": 38.90167183333333, "lon": -77.02234166666666, "bike_id": "06643f77ce3f3755d92ef881279f0237", "rental_uris": {"ios": "https://dc.lft.to/lastmile_qr_scan", "android": "https://dc.lft.to/lastmile_qr_scan"}, "type": "electric_scooter", "fusion_lon": 0.0}, {"is_reserved": 0, "is_disabled": 0, "fusion_lat": 0.0, "name": "f28e709c522171ba4ce3fb57e3482119", "lat": 38.899576833333334, "lon": -77.01501916666666, "bike_id": "f28e709c522171ba4ce3fb57e3482119", "rental_uris": {"ios": "https://dc.lft.to/lastmile_qr_scan", "android": "https://dc.lft.to/lastmile_qr_scan"}, "type": "electric_scooter", "fusion_lon": 0.0}, {"is_reserved": 0, "is_disabled": 0, "fusion_lat": 0.0, "name": "ebfc74fdaed71edfe528f87fa6cd153c", "lat": 38.8838435, "lon": -77.02967666666666, "bike_id": "ebfc74fdaed71edfe528f87fa6cd153c", "rental_uris": {"ios": "https://dc.lft.to/lastmile_qr_scan", "android": "https://dc.lft.to/lastmile_qr_scan"}, "type": "electric_scooter", "fusion_lon": 0.0}, {"is_reserved": 0, "is_disabled": 0, "fusion_lat": 0.0, "name": "bf75902cebd2a1851b03c82710f834a9", "lat": 38.9046855, "lon": -77.04193966666666, "bike_id": "bf75902cebd2a1851b03c82710f834a9", "rental_uris": {"ios": "https://dc.lft.to/lastmile_qr_scan", "android": "https://dc.lft.to/lastmile_qr_scan"}, "type": "electric_scooter", "fusion_lon": 0.0}, {"is_reserved": 0, "is_disabled": 0, "fusion_lat": 0.0, "name": "fcf1e8049024dcf3aa67d8f7525b6af4", "lat": 38.93845116666667, "lon": -76.94335283333334, "bike_id": "fcf1e8049024dcf3aa67d8f7525b6af4", "rental_uris": {"ios": "https://dc.lft.to/lastmile_qr_scan", "android": "https://dc.lft.to/lastmile_qr_scan"}, "type": "electric_bike", "fusion_lon": 0.0}, {"is_reserved": 0, "is_disabled": 0, "fusion_lat": 0.0, "name": "51bf34d7d79fb3c173210b470411cf5a", "lat": 38.90274, "lon": -77.040887, "bike_id": "51bf34d7d79fb3c173210b470411cf5a", "rental_uris": {"ios": "https://dc.lft.to/lastmile_qr_scan", "android": "https://dc.lft.to/lastmile_qr_scan"}, "type": "electric_scooter", "fusion_lon": 0.0}, {"is_reserved": 0, "is_disabled": 0, "fusion_lat": 0.0, "name": "d2adca43f289f588f8573c118ad392a7", "lat": 38.90132766666667, "lon": -77.00298866666667, "bike_id": "d2adca43f289f588f8573c118ad392a7", "rental_uris": {"ios": "https://dc.lft.to/lastmile_qr_scan", "android": "https://dc.lft.to/lastmile_qr_scan"}, "type": "electric_scooter", "fusion_lon": 0.0}, {"is_reserved": 0, "is_disabled": 0, "fusion_lat": 0.0, "name": "61d52662816ab7237c5d4d8f9a8df9bc", "lat": 38.919514166666666, "lon": -77.04174233333333, "bike_id": "61d52662816ab7237c5d4d8f9a8df9bc", "rental_uris": {"ios": "https://dc.lft.to/lastmile_qr_scan", "android": "https://dc.lft.to/lastmile_qr_scan"}, "type": "electric_scooter", "fusion_lon": 0.0}, {"is_reserved": 0, "is_disabled": 0, "fusion_lat": 0.0, "name": "f5cbd2d0e8f7a0d9300a8395845d9601", "lat": 38.8930115, "lon": -77.01511083333334, "bike_id": "f5cbd2d0e8f7a0d9300a8395845d9601", "rental_uris": {"ios": "https://dc.lft.to/lastmile_qr_scan", "android": "https://dc.lft.to/lastmile_qr_scan"}, "type": "electric_scooter", "fusion_lon": 0.0}, {"is_reserved": 0, "is_disabled": 0, "fusion_lat": 0.0, "name": "faddef85567f4fa7397146cbb4a72366", "lat": 38.9888715, "lon": -76.98803133333334, "bike_id": "faddef85567f4fa7397146cbb4a72366", "rental_uris": {"ios": "https://dc.lft.to/lastmile_qr_scan", "android": "https://dc.lft.to/lastmile_qr_scan"}, "type": "electric_bike", "fusion_lon": 0.0}, {"is_reserved": 0, "is_disabled": 0, "fusion_lat": 0.0, "name": "3a9ae06e63c8c667d059bb5a88efd674", "lat": 38.89556866666667, "lon": -77.00923583333334, "bike_id": "3a9ae06e63c8c667d059bb5a88efd674", "rental_uris": {"ios": "https://dc.lft.to/lastmile_qr_scan", "android": "https://dc.lft.to/lastmile_qr_scan"}, "type": "electric_scooter", "fusion_lon": 0.0}, {"is_reserved": 0, "is_disabled": 0, "fusion_lat": 0.0, "name": "545629d76a60f27a5b26370e68f4c210", "lat": 38.9344945, "lon": -77.0210385, "bike_id": "545629d76a60f27a5b26370e68f4c210", "rental_uris": {"ios": "https://dc.lft.to/lastmile_qr_scan", "android": "https://dc.lft.to/lastmile_qr_scan"}, "type": "electric_scooter", "fusion_lon": 0.0}, {"is_reserved": 0, "is_disabled": 0, "fusion_lat": 0.0, "name": "f5ba79af9e2f934ce5b92303ea7f084c", "lat": 38.916787666666664, "lon": -77.03457833333333, "bike_id": "f5ba79af9e2f934ce5b92303ea7f084c", "rental_uris": {"ios": "https://dc.lft.to/lastmile_qr_scan", "android": "https://dc.lft.to/lastmile_qr_scan"}, "type": "electric_scooter", "fusion_lon": 0.0}, {"is_reserved": 0, "is_disabled": 0, "fusion_lat": 0.0, "name": "ca8cb5c69cc791fb6216b176cbee048d", "lat": 38.974635, "lon": -77.01405116666666, "bike_id": "ca8cb5c69cc791fb6216b176cbee048d", "rental_uris": {"ios": "https://dc.lft.to/lastmile_qr_scan", "android": "https://dc.lft.to/lastmile_qr_scan"}, "type": "electric_scooter", "fusion_lon": 0.0}, {"is_reserved": 0, "is_disabled": 0, "fusion_lat": 0.0, "name": "76596957c53fd84d456c5b478c12ef27", "lat": 38.8962905, "lon": -77.0265305, "bike_id": "76596957c53fd84d456c5b478c12ef27", "rental_uris": {"ios": "https://dc.lft.to/lastmile_qr_scan", "android": "https://dc.lft.to/lastmile_qr_scan"}, "type": "electric_scooter", "fusion_lon": 0.0}, {"is_reserved": 0, "is_disabled": 0, "fusion_lat": 0.0, "name": "898a9d0df6b59f3c4fd996bef2b2a067", "lat": 38.918187, "lon": -77.04156483333334, "bike_id": "898a9d0df6b59f3c4fd996bef2b2a067", "rental_uris": {"ios": "https://dc.lft.to/lastmile_qr_scan", "android": "https://dc.lft.to/lastmile_qr_scan"}, "type": "electric_scooter", "fusion_lon": 0.0}, {"is_reserved": 0, "is_disabled": 0, "fusion_lat": 0.0, "name": "4b5696e934d5e5df152229b532bd260a", "lat": 38.9053345, "lon": -77.04742483333334, "bike_id": "4b5696e934d5e5df152229b532bd260a", "rental_uris": {"ios": "https://dc.lft.to/lastmile_qr_scan", "android": "https://dc.lft.to/lastmile_qr_scan"}, "type": "electric_scooter", "fusion_lon": 0.0}, {"is_reserved": 0, "is_disabled": 0, "fusion_lat": 0.0, "name": "17294577b4932dfc78f4fe9f88013bb1", "lat": 38.88774266666667, "lon": -76.93259483333334, "bike_id": "17294577b4932dfc78f4fe9f88013bb1", "rental_uris": {"ios": "https://dc.lft.to/lastmile_qr_scan", "android": "https://dc.lft.to/lastmile_qr_scan"}, "type": "electric_scooter", "fusion_lon": 0.0}, {"is_reserved": 0, "is_disabled": 0, "fusion_lat": 0.0, "name": "564aea293985f326ba08bb3d431ae812", "lat": 38.93700466666667, "lon": -77.0241945, "bike_id": "564aea293985f326ba08bb3d431ae812", "rental_uris": {"ios": "https://dc.lft.to/lastmile_qr_scan", "android": "https://dc.lft.to/lastmile_qr_scan"}, "type": "electric_scooter", "fusion_lon": 0.0}, {"is_reserved": 0, "is_disabled": 0, "fusion_lat": 0.0, "name": "1705956dd3c5ddeedca8095098ef850b", "lat": 38.884331333333336, "lon": -77.03038166666667, "bike_id": "1705956dd3c5ddeedca8095098ef850b", "rental_uris": {"ios": "https://dc.lft.to/lastmile_qr_scan", "android": "https://dc.lft.to/lastmile_qr_scan"}, "type": "electric_scooter", "fusion_lon": 0.0}, {"is_reserved": 0, "is_disabled": 0, "fusion_lat": 0.0, "name": "7caa8e36aa9156a5381f0ff369f166f8", "lat": 38.894331, "lon": -77.0317925, "bike_id": "7caa8e36aa9156a5381f0ff369f166f8", "rental_uris": {"ios": "https://dc.lft.to/lastmile_qr_scan", "android": "https://dc.lft.to/lastmile_qr_scan"}, "type": "electric_scooter", "fusion_lon": 0.0}, {"is_reserved": 0, "is_disabled": 0, "fusion_lat": 0.0, "name": "23538b08de8d2cf1211fe3ac32e14723", "lat": 38.92867916666667, "lon": -77.01403066666667, "bike_id": "23538b08de8d2cf1211fe3ac32e14723", "rental_uris": {"ios": "https://dc.lft.to/lastmile_qr_scan", "android": "https://dc.lft.to/lastmile_qr_scan"}, "type": "electric_scooter", "fusion_lon": 0.0}, {"is_reserved": 0, "is_disabled": 0, "fusion_lat": 0.0, "name": "a5cdb97c3fd5f5ed419835dceb7a149b", "lat": 38.95186616666667, "lon": -76.93546483333333, "bike_id": "a5cdb97c3fd5f5ed419835dceb7a149b", "rental_uris": {"ios": "https://dc.lft.to/lastmile_qr_scan", "android": "https://dc.lft.to/lastmile_qr_scan"}, "type": "electric_bike", "fusion_lon": 0.0}, {"is_reserved": 0, "is_disabled": 0, "fusion_lat": 0.0, "name": "568f0b2df54e59f2355ec339751baa10", "lat": 38.895466166666665, "lon": -76.98336133333333, "bike_id": "568f0b2df54e59f2355ec339751baa10", "rental_uris": {"ios": "https://dc.lft.to/lastmile_qr_scan", "android": "https://dc.lft.to/lastmile_qr_scan"}, "type": "electric_scooter", "fusion_lon": 0.0}, {"is_reserved": 0, "is_disabled": 0, "fusion_lat": 0.0, "name": "345d53b619d946a4ede6237815432171", "lat": 38.9234365, "lon": -77.0403275, "bike_id": "345d53b619d946a4ede6237815432171", "rental_uris": {"ios": "https://dc.lft.to/lastmile_qr_scan", "android": "https://dc.lft.to/lastmile_qr_scan"}, "type": "electric_scooter", "fusion_lon": 0.0}, {"is_reserved": 0, "is_disabled": 0, "fusion_lat": 0.0, "name": "07f1eb4584d03d37e734d1b67aeafe49", "lat": 38.91898616666667, "lon": -77.03191783333334, "bike_id": "07f1eb4584d03d37e734d1b67aeafe49", "rental_uris": {"ios": "https://dc.lft.to/lastmile_qr_scan", "android": "https://dc.lft.to/lastmile_qr_scan"}, "type": "electric_scooter", "fusion_lon": 0.0}, {"is_reserved": 0, "is_disabled": 0, "fusion_lat": 0.0, "name": "51ad56337f5fc0979a414834a8b212f5", "lat": 38.91636183333333, "lon": -77.04052766666666, "bike_id": "51ad56337f5fc0979a414834a8b212f5", "rental_uris": {"ios": "https://dc.lft.to/lastmile_qr_scan", "android": "https://dc.lft.to/lastmile_qr_scan"}, "type": "electric_scooter", "fusion_lon": 0.0}, {"is_reserved": 0, "is_disabled": 0, "fusion_lat": 0.0, "name": "dc2e1acb6417d5b6626a16bd152d3b91", "lat": 38.9237735, "lon": -77.08057816666667, "bike_id": "dc2e1acb6417d5b6626a16bd152d3b91", "rental_uris": {"ios": "https://dc.lft.to/lastmile_qr_scan", "android": "https://dc.lft.to/lastmile_qr_scan"}, "type": "electric_scooter", "fusion_lon": 0.0}, {"is_reserved": 0, "is_disabled": 0, "fusion_lat": 0.0, "name": "fbd46f609e15cb369a3aebb133cd8690", "lat": 38.91693933333333, "lon": -77.04106733333333, "bike_id": "fbd46f609e15cb369a3aebb133cd8690", "rental_uris": {"ios": "https://dc.lft.to/lastmile_qr_scan", "android": "https://dc.lft.to/lastmile_qr_scan"}, "type": "electric_scooter", "fusion_lon": 0.0}, {"is_reserved": 0, "is_disabled": 0, "fusion_lat": 0.0, "name": "1cff2a946249340d3158317cda584c09", "lat": 38.93637566666666, "lon": -76.954628, "bike_id": "1cff2a946249340d3158317cda584c09", "rental_uris": {"ios": "https://dc.lft.to/lastmile_qr_scan", "android": "https://dc.lft.to/lastmile_qr_scan"}, "type": "electric_bike", "fusion_lon": 0.0}, {"is_reserved": 0, "is_disabled": 0, "fusion_lat": 0.0, "name": "a6a74e5a8c5a88393a879ff0ec80c5cd", "lat": 38.903597500000004, "lon": -77.0601085, "bike_id": "a6a74e5a8c5a88393a879ff0ec80c5cd", "rental_uris": {"ios": "https://dc.lft.to/lastmile_qr_scan", "android": "https://dc.lft.to/lastmile_qr_scan"}, "type": "electric_scooter", "fusion_lon": 0.0}, {"is_reserved": 0, "is_disabled": 0, "fusion_lat": 0.0, "name": "0ea14420e6621a5130720d4ed331fe5f", "lat": 38.89828816666667, "lon": -76.9300265, "bike_id": "0ea14420e6621a5130720d4ed331fe5f", "rental_uris": {"ios": "https://dc.lft.to/lastmile_qr_scan", "android": "https://dc.lft.to/lastmile_qr_scan"}, "type": "electric_scooter", "fusion_lon": 0.0}, {"is_reserved": 0, "is_disabled": 0, "fusion_lat": 0.0, "name": "0cccbce739d8183cd3a201038db1d3d7", "lat": 38.906769833333335, "lon": -77.04188083333334, "bike_id": "0cccbce739d8183cd3a201038db1d3d7", "rental_uris": {"ios": "https://dc.lft.to/lastmile_qr_scan", "android": "https://dc.lft.to/lastmile_qr_scan"}, "type": "electric_scooter", "fusion_lon": 0.0}, {"is_reserved": 0, "is_disabled": 0, "fusion_lat": 0.0, "name": "f4699152fd5ff626ea0f5bba3a13746b", "lat": 38.9448525, "lon": -77.0950525, "bike_id": "f4699152fd5ff626ea0f5bba3a13746b", "rental_uris": {"ios": "https://dc.lft.to/lastmile_qr_scan", "android": "https://dc.lft.to/lastmile_qr_scan"}, "type": "electric_scooter", "fusion_lon": 0.0}, {"is_reserved": 0, "is_disabled": 0, "fusion_lat": 0.0, "name": "2bff6d85c46327401ab15bd554f7a6ea", "lat": 38.89735566666667, "lon": -77.019072, "bike_id": "2bff6d85c46327401ab15bd554f7a6ea", "rental_uris": {"ios": "https://dc.lft.to/lastmile_qr_scan", "android": "https://dc.lft.to/lastmile_qr_scan"}, "type": "electric_scooter", "fusion_lon": 0.0}, {"is_reserved": 0, "is_disabled": 0, "fusion_lat": 0.0, "name": "79b0254f1cfcce8f05eed8a4cfa0d718", "lat": 38.9170935, "lon": -77.02413416666667, "bike_id": "79b0254f1cfcce8f05eed8a4cfa0d718", "rental_uris": {"ios": "https://dc.lft.to/lastmile_qr_scan", "android": "https://dc.lft.to/lastmile_qr_scan"}, "type": "electric_scooter", "fusion_lon": 0.0}, {"is_reserved": 0, "is_disabled": 0, "fusion_lat": 0.0, "name": "80978108f065aa63ef050f14e66155f7", "lat": 38.924100833333334, "lon": -77.0213405, "bike_id": "80978108f065aa63ef050f14e66155f7", "rental_uris": {"ios": "https://dc.lft.to/lastmile_qr_scan", "android": "https://dc.lft.to/lastmile_qr_scan"}, "type": "electric_scooter", "fusion_lon": 0.0}, {"is_reserved": 0, "is_disabled": 0, "fusion_lat": 0.0, "name": "4ebad0dc46d4280cdc1f5273650473b8", "lat": 38.915585666666665, "lon": -77.020423, "bike_id": "4ebad0dc46d4280cdc1f5273650473b8", "rental_uris": {"ios": "https://dc.lft.to/lastmile_qr_scan", "android": "https://dc.lft.to/lastmile_qr_scan"}, "type": "electric_scooter", "fusion_lon": 0.0}, {"is_reserved": 0, "is_disabled": 0, "fusion_lat": 0.0, "name": "0590a79c66083c9b57a08671da5237f4", "lat": 38.921193833333334, "lon": -77.01210383333333, "bike_id": "0590a79c66083c9b57a08671da5237f4", "rental_uris": {"ios": "https://dc.lft.to/lastmile_qr_scan", "android": "https://dc.lft.to/lastmile_qr_scan"}, "type": "electric_scooter", "fusion_lon": 0.0}, {"is_reserved": 0, "is_disabled": 0, "fusion_lat": 0.0, "name": "5cf01b6040b9c655b39b47a3d6b4cc1c", "lat": 38.809787166666666, "lon": -77.07662583333334, "bike_id": "5cf01b6040b9c655b39b47a3d6b4cc1c", "rental_uris": {"ios": "https://dc.lft.to/lastmile_qr_scan", "android": "https://dc.lft.to/lastmile_qr_scan"}, "type": "electric_bike", "fusion_lon": 0.0}, {"is_reserved": 0, "is_disabled": 0, "fusion_lat": 0.0, "name": "efb7a9fdff9de56292fa1bf00139d07c", "lat": 38.912410333333334, "lon": -77.03310816666666, "bike_id": "efb7a9fdff9de56292fa1bf00139d07c", "rental_uris": {"ios": "https://dc.lft.to/lastmile_qr_scan", "android": "https://dc.lft.to/lastmile_qr_scan"}, "type": "electric_scooter", "fusion_lon": 0.0}, {"is_reserved": 0, "is_disabled": 0, "fusion_lat": 0.0, "name": "e9ff18509cd9befca1e347872690f5c5", "lat": 38.922132833333336, "lon": -77.04241616666667, "bike_id": "e9ff18509cd9befca1e347872690f5c5", "rental_uris": {"ios": "https://dc.lft.to/lastmile_qr_scan", "android": "https://dc.lft.to/lastmile_qr_scan"}, "type": "electric_scooter", "fusion_lon": 0.0}, {"is_reserved": 0, "is_disabled": 0, "fusion_lat": 0.0, "name": "7ba0818febcafabf5bf93d29b6543c47", "lat": 38.919266, "lon": -77.03359983333333, "bike_id": "7ba0818febcafabf5bf93d29b6543c47", "rental_uris": {"ios": "https://dc.lft.to/lastmile_qr_scan", "android": "https://dc.lft.to/lastmile_qr_scan"}, "type": "electric_scooter", "fusion_lon": 0.0}, {"is_reserved": 0, "is_disabled": 0, "fusion_lat": 0.0, "name": "91152785edf416204f982e4a9f7931d4", "lat": 38.92465033333333, "lon": -77.02242783333334, "bike_id": "91152785edf416204f982e4a9f7931d4", "rental_uris": {"ios": "https://dc.lft.to/lastmile_qr_scan", "android": "https://dc.lft.to/lastmile_qr_scan"}, "type": "electric_scooter", "fusion_lon": 0.0}, {"is_reserved": 0, "is_disabled": 0, "fusion_lat": 0.0, "name": "d9aa419e00bd547af1f45ac0b9588fd5", "lat": 38.8981845, "lon": -77.0126915, "bike_id": "d9aa419e00bd547af1f45ac0b9588fd5", "rental_uris": {"ios": "https://dc.lft.to/lastmile_qr_scan", "android": "https://dc.lft.to/lastmile_qr_scan"}, "type": "electric_scooter", "fusion_lon": 0.0}, {"is_reserved": 0, "is_disabled": 0, "fusion_lat": 0.0, "name": "003d13519cb30e5b2ecacd2e3cb133ef", "lat": 38.896328833333335, "lon": -77.02855016666666, "bike_id": "003d13519cb30e5b2ecacd2e3cb133ef", "rental_uris": {"ios": "https://dc.lft.to/lastmile_qr_scan", "android": "https://dc.lft.to/lastmile_qr_scan"}, "type": "electric_scooter", "fusion_lon": 0.0}, {"is_reserved": 0, "is_disabled": 0, "fusion_lat": 0.0, "name": "8bbfca148564a7b4d333d0c63db507f8", "lat": 38.90972566666667, "lon": -77.02463233333333, "bike_id": "8bbfca148564a7b4d333d0c63db507f8", "rental_uris": {"ios": "https://dc.lft.to/lastmile_qr_scan", "android": "https://dc.lft.to/lastmile_qr_scan"}, "type": "electric_scooter", "fusion_lon": 0.0}, {"is_reserved": 0, "is_disabled": 0, "fusion_lat": 0.0, "name": "ef2928a798f4d09624f13032eadc7505", "lat": 38.922911166666665, "lon": -76.997692, "bike_id": "ef2928a798f4d09624f13032eadc7505", "rental_uris": {"ios": "https://dc.lft.to/lastmile_qr_scan", "android": "https://dc.lft.to/lastmile_qr_scan"}, "type": "electric_bike", "fusion_lon": 0.0}, {"is_reserved": 0, "is_disabled": 0, "fusion_lat": 0.0, "name": "c8020102e144afd36ded995ddba9c7c7", "lat": 38.90096283333333, "lon": -77.0230355, "bike_id": "c8020102e144afd36ded995ddba9c7c7", "rental_uris": {"ios": "https://dc.lft.to/lastmile_qr_scan", "android": "https://dc.lft.to/lastmile_qr_scan"}, "type": "electric_scooter", "fusion_lon": 0.0}, {"is_reserved": 0, "is_disabled": 0, "fusion_lat": 0.0, "name": "4469fccdfe413944bcf66bca645976c6", "lat": 38.895480166666665, "lon": -76.98338516666666, "bike_id": "4469fccdfe413944bcf66bca645976c6", "rental_uris": {"ios": "https://dc.lft.to/lastmile_qr_scan", "android": "https://dc.lft.to/lastmile_qr_scan"}, "type": "electric_scooter", "fusion_lon": 0.0}, {"is_reserved": 0, "is_disabled": 0, "fusion_lat": 0.0, "name": "102f6aaa1655155d5326759fbed05239", "lat": 38.9184265, "lon": -77.0454465, "bike_id": "102f6aaa1655155d5326759fbed05239", "rental_uris": {"ios": "https://dc.lft.to/lastmile_qr_scan", "android": "https://dc.lft.to/lastmile_qr_scan"}, "type": "electric_scooter", "fusion_lon": 0.0}, {"is_reserved": 0, "is_disabled": 0, "fusion_lat": 0.0, "name": "04e81c24893c5f0045f703252c7a450a", "lat": 38.8972785, "lon": -77.03145616666667, "bike_id": "04e81c24893c5f0045f703252c7a450a", "rental_uris": {"ios": "https://dc.lft.to/lastmile_qr_scan", "android": "https://dc.lft.to/lastmile_qr_scan"}, "type": "electric_scooter", "fusion_lon": 0.0}, {"is_reserved": 0, "is_disabled": 0, "fusion_lat": 0.0, "name": "ee069476727f4933e4fc62e9f80eadcb", "lat": 38.905033, "lon": -77.02956966666666, "bike_id": "ee069476727f4933e4fc62e9f80eadcb", "rental_uris": {"ios": "https://dc.lft.to/lastmile_qr_scan", "android": "https://dc.lft.to/lastmile_qr_scan"}, "type": "electric_scooter", "fusion_lon": 0.0}, {"is_reserved": 0, "is_disabled": 0, "fusion_lat": 0.0, "name": "a03e61b8ed1f890055047fae9933a297", "lat": 38.918267, "lon": -77.02717466666667, "bike_id": "a03e61b8ed1f890055047fae9933a297", "rental_uris": {"ios": "https://dc.lft.to/lastmile_qr_scan", "android": "https://dc.lft.to/lastmile_qr_scan"}, "type": "electric_scooter", "fusion_lon": 0.0}, {"is_reserved": 0, "is_disabled": 0, "fusion_lat": 0.0, "name": "663f8605b695695cbe01cf35c36fc2bc", "lat": 38.9170565, "lon": -77.0317755, "bike_id": "663f8605b695695cbe01cf35c36fc2bc", "rental_uris": {"ios": "https://dc.lft.to/lastmile_qr_scan", "android": "https://dc.lft.to/lastmile_qr_scan"}, "type": "electric_scooter", "fusion_lon": 0.0}, {"is_reserved": 0, "is_disabled": 0, "fusion_lat": 0.0, "name": "a5b78af05a40022a9c21e875e2b1b8f4", "lat": 38.90268483333333, "lon": -77.03213983333333, "bike_id": "a5b78af05a40022a9c21e875e2b1b8f4", "rental_uris": {"ios": "https://dc.lft.to/lastmile_qr_scan", "android": "https://dc.lft.to/lastmile_qr_scan"}, "type": "electric_scooter", "fusion_lon": 0.0}, {"is_reserved": 0, "is_disabled": 0, "fusion_lat": 0.0, "name": "c41b603c353df6f769f4bf6e1fdf212f", "lat": 38.90006116666667, "lon": -77.04182316666666, "bike_id": "c41b603c353df6f769f4bf6e1fdf212f", "rental_uris": {"ios": "https://dc.lft.to/lastmile_qr_scan", "android": "https://dc.lft.to/lastmile_qr_scan"}, "type": "electric_scooter", "fusion_lon": 0.0}, {"is_reserved": 0, "is_disabled": 0, "fusion_lat": 0.0, "name": "ef0473ff112727d6fff797e9e8f60da1", "lat": 38.92040816666667, "lon": -77.01679466666667, "bike_id": "ef0473ff112727d6fff797e9e8f60da1", "rental_uris": {"ios": "https://dc.lft.to/lastmile_qr_scan", "android": "https://dc.lft.to/lastmile_qr_scan"}, "type": "electric_scooter", "fusion_lon": 0.0}, {"is_reserved": 0, "is_disabled": 0, "fusion_lat": 0.0, "name": "b696e999bfaa1f0fb0973ca4f18b333a", "lat": 38.907473, "lon": -76.99918883333333, "bike_id": "b696e999bfaa1f0fb0973ca4f18b333a", "rental_uris": {"ios": "https://dc.lft.to/lastmile_qr_scan", "android": "https://dc.lft.to/lastmile_qr_scan"}, "type": "electric_scooter", "fusion_lon": 0.0}, {"is_reserved": 0, "is_disabled": 0, "fusion_lat": 0.0, "name": "cc595287d4f15c26e54fa952f6fd47d9", "lat": 38.93551216666667, "lon": -77.05441133333333, "bike_id": "cc595287d4f15c26e54fa952f6fd47d9", "rental_uris": {"ios": "https://dc.lft.to/lastmile_qr_scan", "android": "https://dc.lft.to/lastmile_qr_scan"}, "type": "electric_scooter", "fusion_lon": 0.0}, {"is_reserved": 0, "is_disabled": 0, "fusion_lat": 0.0, "name": "114af618d5271e9d2d7dab5835a248a1", "lat": 38.87645783333333, "lon": -77.005214, "bike_id": "114af618d5271e9d2d7dab5835a248a1", "rental_uris": {"ios": "https://dc.lft.to/lastmile_qr_scan", "android": "https://dc.lft.to/lastmile_qr_scan"}, "type": "electric_scooter", "fusion_lon": 0.0}, {"is_reserved": 0, "is_disabled": 0, "fusion_lat": 0.0, "name": "2a13a48b7dd3d7fdd9a582c09f6c05c8", "lat": 38.899536499999996, "lon": -77.04845383333334, "bike_id": "2a13a48b7dd3d7fdd9a582c09f6c05c8", "rental_uris": {"ios": "https://dc.lft.to/lastmile_qr_scan", "android": "https://dc.lft.to/lastmile_qr_scan"}, "type": "electric_scooter", "fusion_lon": 0.0}, {"is_reserved": 0, "is_disabled": 0, "fusion_lat": 0.0, "name": "ae0ba699970806b9f6811c372692a021", "lat": 38.89323433333333, "lon": -77.01990916666666, "bike_id": "ae0ba699970806b9f6811c372692a021", "rental_uris": {"ios": "https://dc.lft.to/lastmile_qr_scan", "android": "https://dc.lft.to/lastmile_qr_scan"}, "type": "electric_scooter", "fusion_lon": 0.0}, {"is_reserved": 0, "is_disabled": 0, "fusion_lat": 0.0, "name": "a1d2c42d14ef73797130a92cbd86e4d9", "lat": 38.922355333333336, "lon": -77.028189, "bike_id": "a1d2c42d14ef73797130a92cbd86e4d9", "rental_uris": {"ios": "https://dc.lft.to/lastmile_qr_scan", "android": "https://dc.lft.to/lastmile_qr_scan"}, "type": "electric_scooter", "fusion_lon": 0.0}, {"is_reserved": 0, "is_disabled": 0, "fusion_lat": 0.0, "name": "8b114f4f73d9ce3b961f7892eeb9cba7", "lat": 38.898928, "lon": -77.02205216666667, "bike_id": "8b114f4f73d9ce3b961f7892eeb9cba7", "rental_uris": {"ios": "https://dc.lft.to/lastmile_qr_scan", "android": "https://dc.lft.to/lastmile_qr_scan"}, "type": "electric_scooter", "fusion_lon": 0.0}, {"is_reserved": 0, "is_disabled": 0, "fusion_lat": 0.0, "name": "4aba0c3c982b9a815acb975c7a0831d8", "lat": 38.914196, "lon": -77.03174166666666, "bike_id": "4aba0c3c982b9a815acb975c7a0831d8", "rental_uris": {"ios": "https://dc.lft.to/lastmile_qr_scan", "android": "https://dc.lft.to/lastmile_qr_scan"}, "type": "electric_scooter", "fusion_lon": 0.0}, {"is_reserved": 0, "is_disabled": 0, "fusion_lat": 0.0, "name": "0fd90d950e303290a0c5884f3476e01b", "lat": 38.84637033333333, "lon": -77.06933366666667, "bike_id": "0fd90d950e303290a0c5884f3476e01b", "rental_uris": {"ios": "https://dc.lft.to/lastmile_qr_scan", "android": "https://dc.lft.to/lastmile_qr_scan"}, "type": "electric_bike", "fusion_lon": 0.0}, {"is_reserved": 0, "is_disabled": 0, "fusion_lat": 0.0, "name": "ebc11bf2314c7c26284c29fbbecf4782", "lat": 38.830477333333334, "lon": -77.00828466666667, "bike_id": "ebc11bf2314c7c26284c29fbbecf4782", "rental_uris": {"ios": "https://dc.lft.to/lastmile_qr_scan", "android": "https://dc.lft.to/lastmile_qr_scan"}, "type": "electric_bike", "fusion_lon": 0.0}, {"is_reserved": 0, "is_disabled": 0, "fusion_lat": 0.0, "name": "9534ffdb2d800fc121b7376fdf030b32", "lat": 38.91412166666667, "lon": -77.03816966666666, "bike_id": "9534ffdb2d800fc121b7376fdf030b32", "rental_uris": {"ios": "https://dc.lft.to/lastmile_qr_scan", "android": "https://dc.lft.to/lastmile_qr_scan"}, "type": "electric_scooter", "fusion_lon": 0.0}, {"is_reserved": 0, "is_disabled": 0, "fusion_lat": 0.0, "name": "1266d05c54e238925ef6e7ad1a643a6f", "lat": 38.89966, "lon": -77.0471705, "bike_id": "1266d05c54e238925ef6e7ad1a643a6f", "rental_uris": {"ios": "https://dc.lft.to/lastmile_qr_scan", "android": "https://dc.lft.to/lastmile_qr_scan"}, "type": "electric_scooter", "fusion_lon": 0.0}, {"is_reserved": 0, "is_disabled": 0, "fusion_lat": 0.0, "name": "b43684b92b0ae2c5bc9c8057531e80d7", "lat": 38.918103, "lon": -77.0379845, "bike_id": "b43684b92b0ae2c5bc9c8057531e80d7", "rental_uris": {"ios": "https://dc.lft.to/lastmile_qr_scan", "android": "https://dc.lft.to/lastmile_qr_scan"}, "type": "electric_scooter", "fusion_lon": 0.0}, {"is_reserved": 0, "is_disabled": 0, "fusion_lat": 0.0, "name": "cfc42647114989d8b3149d285adceba9", "lat": 38.89827366666667, "lon": -77.04814816666666, "bike_id": "cfc42647114989d8b3149d285adceba9", "rental_uris": {"ios": "https://dc.lft.to/lastmile_qr_scan", "android": "https://dc.lft.to/lastmile_qr_scan"}, "type": "electric_scooter", "fusion_lon": 0.0}, {"is_reserved": 0, "is_disabled": 0, "fusion_lat": 0.0, "name": "9ed681f1c725469befda01cd7513aacc", "lat": 38.9056715, "lon": -77.0453065, "bike_id": "9ed681f1c725469befda01cd7513aacc", "rental_uris": {"ios": "https://dc.lft.to/lastmile_qr_scan", "android": "https://dc.lft.to/lastmile_qr_scan"}, "type": "electric_scooter", "fusion_lon": 0.0}, {"is_reserved": 0, "is_disabled": 0, "fusion_lat": 0.0, "name": "8e0555a5956a591cb8f6a19683eb68eb", "lat": 38.904207666666665, "lon": -77.04013033333334, "bike_id": "8e0555a5956a591cb8f6a19683eb68eb", "rental_uris": {"ios": "https://dc.lft.to/lastmile_qr_scan", "android": "https://dc.lft.to/lastmile_qr_scan"}, "type": "electric_scooter", "fusion_lon": 0.0}, {"is_reserved": 0, "is_disabled": 0, "fusion_lat": 0.0, "name": "7a11dfa6534bdf753fc94741e3c51c87", "lat": 38.88641283333333, "lon": -77.01227316666666, "bike_id": "7a11dfa6534bdf753fc94741e3c51c87", "rental_uris": {"ios": "https://dc.lft.to/lastmile_qr_scan", "android": "https://dc.lft.to/lastmile_qr_scan"}, "type": "electric_scooter", "fusion_lon": 0.0}, {"is_reserved": 0, "is_disabled": 0, "fusion_lat": 0.0, "name": "491018fd97b55be5278b7d522e583727", "lat": 38.907196, "lon": -77.0150445, "bike_id": "491018fd97b55be5278b7d522e583727", "rental_uris": {"ios": "https://dc.lft.to/lastmile_qr_scan", "android": "https://dc.lft.to/lastmile_qr_scan"}, "type": "electric_scooter", "fusion_lon": 0.0}, {"is_reserved": 0, "is_disabled": 0, "fusion_lat": 0.0, "name": "c59bc5672751cae6d4a9511cca8dee99", "lat": 38.90349366666667, "lon": -77.01110816666667, "bike_id": "c59bc5672751cae6d4a9511cca8dee99", "rental_uris": {"ios": "https://dc.lft.to/lastmile_qr_scan", "android": "https://dc.lft.to/lastmile_qr_scan"}, "type": "electric_scooter", "fusion_lon": 0.0}, {"is_reserved": 0, "is_disabled": 0, "fusion_lat": 0.0, "name": "cb373c08c0ea31288982d433ed5112b8", "lat": 38.909542333333334, "lon": -77.02386983333334, "bike_id": "cb373c08c0ea31288982d433ed5112b8", "rental_uris": {"ios": "https://dc.lft.to/lastmile_qr_scan", "android": "https://dc.lft.to/lastmile_qr_scan"}, "type": "electric_scooter", "fusion_lon": 0.0}, {"is_reserved": 0, "is_disabled": 0, "fusion_lat": 0.0, "name": "64f4e756a960ede38f434876a19c9f18", "lat": 38.898294166666666, "lon": -77.02852916666667, "bike_id": "64f4e756a960ede38f434876a19c9f18", "rental_uris": {"ios": "https://dc.lft.to/lastmile_qr_scan", "android": "https://dc.lft.to/lastmile_qr_scan"}, "type": "electric_scooter", "fusion_lon": 0.0}, {"is_reserved": 0, "is_disabled": 0, "fusion_lat": 0.0, "name": "ac8406f407e29a2b9d3b695d43f246e2", "lat": 38.877110333333334, "lon": -76.99505916666666, "bike_id": "ac8406f407e29a2b9d3b695d43f246e2", "rental_uris": {"ios": "https://dc.lft.to/lastmile_qr_scan", "android": "https://dc.lft.to/lastmile_qr_scan"}, "type": "electric_scooter", "fusion_lon": 0.0}, {"is_reserved": 0, "is_disabled": 0, "fusion_lat": 0.0, "name": "2a0a30d7d89f518bcb07d0f89e2c6b10", "lat": 38.90730283333333, "lon": -77.025061, "bike_id": "2a0a30d7d89f518bcb07d0f89e2c6b10", "rental_uris": {"ios": "https://dc.lft.to/lastmile_qr_scan", "android": "https://dc.lft.to/lastmile_qr_scan"}, "type": "electric_scooter", "fusion_lon": 0.0}, {"is_reserved": 0, "is_disabled": 0, "fusion_lat": 0.0, "name": "ad6c4843509129cde9b1c6b88a9ffd92", "lat": 38.908533, "lon": -76.999694, "bike_id": "ad6c4843509129cde9b1c6b88a9ffd92", "rental_uris": {"ios": "https://dc.lft.to/lastmile_qr_scan", "android": "https://dc.lft.to/lastmile_qr_scan"}, "type": "electric_scooter", "fusion_lon": 0.0}, {"is_reserved": 0, "is_disabled": 0, "fusion_lat": 0.0, "name": "f571524a89049aa20b8baa6c36dc73d6", "lat": 38.91108166666667, "lon": -77.01280266666667, "bike_id": "f571524a89049aa20b8baa6c36dc73d6", "rental_uris": {"ios": "https://dc.lft.to/lastmile_qr_scan", "android": "https://dc.lft.to/lastmile_qr_scan"}, "type": "electric_scooter", "fusion_lon": 0.0}, {"is_reserved": 0, "is_disabled": 0, "fusion_lat": 0.0, "name": "561532b8ebbae60ec92ebb4d88f1836a", "lat": 38.89970733333333, "lon": -76.93765383333333, "bike_id": "561532b8ebbae60ec92ebb4d88f1836a", "rental_uris": {"ios": "https://dc.lft.to/lastmile_qr_scan", "android": "https://dc.lft.to/lastmile_qr_scan"}, "type": "electric_scooter", "fusion_lon": 0.0}, {"is_reserved": 0, "is_disabled": 0, "fusion_lat": 0.0, "name": "58855739200df6a8f939b7a838226db8", "lat": 38.8966845, "lon": -76.94916783333333, "bike_id": "58855739200df6a8f939b7a838226db8", "rental_uris": {"ios": "https://dc.lft.to/lastmile_qr_scan", "android": "https://dc.lft.to/lastmile_qr_scan"}, "type": "electric_scooter", "fusion_lon": 0.0}, {"is_reserved": 0, "is_disabled": 0, "fusion_lat": 0.0, "name": "2f81ea5c14573895894a9cbe821d5f39", "lat": 38.90795333333333, "lon": -77.032086, "bike_id": "2f81ea5c14573895894a9cbe821d5f39", "rental_uris": {"ios": "https://dc.lft.to/lastmile_qr_scan", "android": "https://dc.lft.to/lastmile_qr_scan"}, "type": "electric_scooter", "fusion_lon": 0.0}, {"is_reserved": 0, "is_disabled": 0, "fusion_lat": 0.0, "name": "34b9b8962de6455cbf8de23e0c697b05", "lat": 38.91912133333334, "lon": -77.04650233333334, "bike_id": "34b9b8962de6455cbf8de23e0c697b05", "rental_uris": {"ios": "https://dc.lft.to/lastmile_qr_scan", "android": "https://dc.lft.to/lastmile_qr_scan"}, "type": "electric_scooter", "fusion_lon": 0.0}, {"is_reserved": 0, "is_disabled": 0, "fusion_lat": 0.0, "name": "5773a69642430985d8df9358478eda46", "lat": 38.928722, "lon": -77.028247, "bike_id": "5773a69642430985d8df9358478eda46", "rental_uris": {"ios": "https://dc.lft.to/lastmile_qr_scan", "android": "https://dc.lft.to/lastmile_qr_scan"}, "type": "electric_scooter", "fusion_lon": 0.0}, {"is_reserved": 0, "is_disabled": 0, "fusion_lat": 0.0, "name": "0a7e29b3519c411af6fa8509b00704d3", "lat": 38.916953666666664, "lon": -77.03770533333334, "bike_id": "0a7e29b3519c411af6fa8509b00704d3", "rental_uris": {"ios": "https://dc.lft.to/lastmile_qr_scan", "android": "https://dc.lft.to/lastmile_qr_scan"}, "type": "electric_scooter", "fusion_lon": 0.0}, {"is_reserved": 0, "is_disabled": 0, "fusion_lat": 0.0, "name": "3c9a931642efb1409509862ee022827a", "lat": 38.9491795, "lon": -77.01852983333333, "bike_id": "3c9a931642efb1409509862ee022827a", "rental_uris": {"ios": "https://dc.lft.to/lastmile_qr_scan", "android": "https://dc.lft.to/lastmile_qr_scan"}, "type": "electric_scooter", "fusion_lon": 0.0}, {"is_reserved": 0, "is_disabled": 0, "fusion_lat": 0.0, "name": "6df9679fd02c69ff179208dbe4f4f6a2", "lat": 38.897465833333335, "lon": -77.00076433333334, "bike_id": "6df9679fd02c69ff179208dbe4f4f6a2", "rental_uris": {"ios": "https://dc.lft.to/lastmile_qr_scan", "android": "https://dc.lft.to/lastmile_qr_scan"}, "type": "electric_scooter", "fusion_lon": 0.0}, {"is_reserved": 0, "is_disabled": 0, "fusion_lat": 0.0, "name": "cde5b7028825fa461c4c210ffbccd2dc", "lat": 38.910936166666666, "lon": -77.03859133333333, "bike_id": "cde5b7028825fa461c4c210ffbccd2dc", "rental_uris": {"ios": "https://dc.lft.to/lastmile_qr_scan", "android": "https://dc.lft.to/lastmile_qr_scan"}, "type": "electric_scooter", "fusion_lon": 0.0}, {"is_reserved": 0, "is_disabled": 0, "fusion_lat": 0.0, "name": "44acbf07345c1a921b17c3a358812be7", "lat": 38.91053433333333, "lon": -77.052928, "bike_id": "44acbf07345c1a921b17c3a358812be7", "rental_uris": {"ios": "https://dc.lft.to/lastmile_qr_scan", "android": "https://dc.lft.to/lastmile_qr_scan"}, "type": "electric_scooter", "fusion_lon": 0.0}, {"is_reserved": 0, "is_disabled": 0, "fusion_lat": 0.0, "name": "bcebea5495e8d60a69c558a744d39e13", "lat": 38.911984333333336, "lon": -77.0386635, "bike_id": "bcebea5495e8d60a69c558a744d39e13", "rental_uris": {"ios": "https://dc.lft.to/lastmile_qr_scan", "android": "https://dc.lft.to/lastmile_qr_scan"}, "type": "electric_scooter", "fusion_lon": 0.0}, {"is_reserved": 0, "is_disabled": 0, "fusion_lat": 0.0, "name": "d6a09c788d4de3f57dab2b2469500fae", "lat": 38.9030295, "lon": -76.99839366666667, "bike_id": "d6a09c788d4de3f57dab2b2469500fae", "rental_uris": {"ios": "https://dc.lft.to/lastmile_qr_scan", "android": "https://dc.lft.to/lastmile_qr_scan"}, "type": "electric_scooter", "fusion_lon": 0.0}, {"is_reserved": 0, "is_disabled": 0, "fusion_lat": 0.0, "name": "69f91a192870d66221f2d83c1546a984", "lat": 38.88612716666667, "lon": -77.02206366666667, "bike_id": "69f91a192870d66221f2d83c1546a984", "rental_uris": {"ios": "https://dc.lft.to/lastmile_qr_scan", "android": "https://dc.lft.to/lastmile_qr_scan"}, "type": "electric_scooter", "fusion_lon": 0.0}, {"is_reserved": 0, "is_disabled": 0, "fusion_lat": 0.0, "name": "48c2ef8dcaf3b11dd8e1c6bd82fe50c2", "lat": 38.921535666666664, "lon": -77.04363283333333, "bike_id": "48c2ef8dcaf3b11dd8e1c6bd82fe50c2", "rental_uris": {"ios": "https://dc.lft.to/lastmile_qr_scan", "android": "https://dc.lft.to/lastmile_qr_scan"}, "type": "electric_scooter", "fusion_lon": 0.0}, {"is_reserved": 0, "is_disabled": 0, "fusion_lat": 0.0, "name": "422970e278d343d95adfd4a2d995a1fb", "lat": 38.912714, "lon": -77.0220965, "bike_id": "422970e278d343d95adfd4a2d995a1fb", "rental_uris": {"ios": "https://dc.lft.to/lastmile_qr_scan", "android": "https://dc.lft.to/lastmile_qr_scan"}, "type": "electric_scooter", "fusion_lon": 0.0}, {"is_reserved": 0, "is_disabled": 0, "fusion_lat": 0.0, "name": "e8e6301c80e80639b5ab34fe7a2eefc0", "lat": 38.905650666666666, "lon": -77.02674916666666, "bike_id": "e8e6301c80e80639b5ab34fe7a2eefc0", "rental_uris": {"ios": "https://dc.lft.to/lastmile_qr_scan", "android": "https://dc.lft.to/lastmile_qr_scan"}, "type": "electric_scooter", "fusion_lon": 0.0}, {"is_reserved": 0, "is_disabled": 0, "fusion_lat": 0.0, "name": "3e9f941ccecdd4b51cdc2396dfbf90ab", "lat": 38.87178483333334, "lon": -77.00614233333333, "bike_id": "3e9f941ccecdd4b51cdc2396dfbf90ab", "rental_uris": {"ios": "https://dc.lft.to/lastmile_qr_scan", "android": "https://dc.lft.to/lastmile_qr_scan"}, "type": "electric_bike", "fusion_lon": 0.0}, {"is_reserved": 0, "is_disabled": 0, "fusion_lat": 0.0, "name": "9f9e5d4d1ae27d1523e88e9fd5eacc13", "lat": 38.92849566666666, "lon": -77.03615316666667, "bike_id": "9f9e5d4d1ae27d1523e88e9fd5eacc13", "rental_uris": {"ios": "https://dc.lft.to/lastmile_qr_scan", "android": "https://dc.lft.to/lastmile_qr_scan"}, "type": "electric_scooter", "fusion_lon": 0.0}, {"is_reserved": 0, "is_disabled": 0, "fusion_lat": 0.0, "name": "fe12eee3a08f84cf457ae7a8d01c8505", "lat": 38.920476666666666, "lon": -77.0237445, "bike_id": "fe12eee3a08f84cf457ae7a8d01c8505", "rental_uris": {"ios": "https://dc.lft.to/lastmile_qr_scan", "android": "https://dc.lft.to/lastmile_qr_scan"}, "type": "electric_scooter", "fusion_lon": 0.0}, {"is_reserved": 0, "is_disabled": 0, "fusion_lat": 0.0, "name": "23094d05e30ab1c3bd0be0acc9d218ef", "lat": 38.887148333333336, "lon": -76.98382283333333, "bike_id": "23094d05e30ab1c3bd0be0acc9d218ef", "rental_uris": {"ios": "https://dc.lft.to/lastmile_qr_scan", "android": "https://dc.lft.to/lastmile_qr_scan"}, "type": "electric_scooter", "fusion_lon": 0.0}, {"is_reserved": 0, "is_disabled": 0, "fusion_lat": 0.0, "name": "f5383c0c224767a640905dedc0ca083c", "lat": 38.91558, "lon": -77.03326083333333, "bike_id": "f5383c0c224767a640905dedc0ca083c", "rental_uris": {"ios": "https://dc.lft.to/lastmile_qr_scan", "android": "https://dc.lft.to/lastmile_qr_scan"}, "type": "electric_scooter", "fusion_lon": 0.0}, {"is_reserved": 0, "is_disabled": 0, "fusion_lat": 0.0, "name": "dd9133ec62e98dfbc9229a34f15822b2", "lat": 38.90223183333333, "lon": -77.04573283333333, "bike_id": "dd9133ec62e98dfbc9229a34f15822b2", "rental_uris": {"ios": "https://dc.lft.to/lastmile_qr_scan", "android": "https://dc.lft.to/lastmile_qr_scan"}, "type": "electric_scooter", "fusion_lon": 0.0}, {"is_reserved": 0, "is_disabled": 0, "fusion_lat": 0.0, "name": "7b93bbf0a24b23447a910995a69123e3", "lat": 38.9252925, "lon": -77.03862716666667, "bike_id": "7b93bbf0a24b23447a910995a69123e3", "rental_uris": {"ios": "https://dc.lft.to/lastmile_qr_scan", "android": "https://dc.lft.to/lastmile_qr_scan"}, "type": "electric_scooter", "fusion_lon": 0.0}, {"is_reserved": 0, "is_disabled": 0, "fusion_lat": 0.0, "name": "b20d87ad836cd68a56c0f50110051bde", "lat": 38.92025683333333, "lon": -77.04086116666667, "bike_id": "b20d87ad836cd68a56c0f50110051bde", "rental_uris": {"ios": "https://dc.lft.to/lastmile_qr_scan", "android": "https://dc.lft.to/lastmile_qr_scan"}, "type": "electric_scooter", "fusion_lon": 0.0}, {"is_reserved": 0, "is_disabled": 0, "fusion_lat": 0.0, "name": "1342b01a403ccbd0f136ca91b6a1dd5b", "lat": 38.9078685, "lon": -77.07253416666667, "bike_id": "1342b01a403ccbd0f136ca91b6a1dd5b", "rental_uris": {"ios": "https://dc.lft.to/lastmile_qr_scan", "android": "https://dc.lft.to/lastmile_qr_scan"}, "type": "electric_scooter", "fusion_lon": 0.0}, {"is_reserved": 0, "is_disabled": 0, "fusion_lat": 0.0, "name": "9974cb9915718270b5989390c3ea59de", "lat": 38.846469, "lon": -77.00371566666666, "bike_id": "9974cb9915718270b5989390c3ea59de", "rental_uris": {"ios": "https://dc.lft.to/lastmile_qr_scan", "android": "https://dc.lft.to/lastmile_qr_scan"}, "type": "electric_scooter", "fusion_lon": 0.0}, {"is_reserved": 0, "is_disabled": 0, "fusion_lat": 0.0, "name": "07ecd6c01ac3867b8e329413b1776a93", "lat": 38.926666833333336, "lon": -77.01502416666666, "bike_id": "07ecd6c01ac3867b8e329413b1776a93", "rental_uris": {"ios": "https://dc.lft.to/lastmile_qr_scan", "android": "https://dc.lft.to/lastmile_qr_scan"}, "type": "electric_scooter", "fusion_lon": 0.0}, {"is_reserved": 0, "is_disabled": 0, "fusion_lat": 0.0, "name": "defc3b76e43bc77abff88e716956a1c7", "lat": 38.896820166666664, "lon": -77.0325785, "bike_id": "defc3b76e43bc77abff88e716956a1c7", "rental_uris": {"ios": "https://dc.lft.to/lastmile_qr_scan", "android": "https://dc.lft.to/lastmile_qr_scan"}, "type": "electric_scooter", "fusion_lon": 0.0}, {"is_reserved": 0, "is_disabled": 0, "fusion_lat": 0.0, "name": "a74030d09bf7ec4679ec97d27b492912", "lat": 38.923345166666664, "lon": -77.04467316666667, "bike_id": "a74030d09bf7ec4679ec97d27b492912", "rental_uris": {"ios": "https://dc.lft.to/lastmile_qr_scan", "android": "https://dc.lft.to/lastmile_qr_scan"}, "type": "electric_scooter", "fusion_lon": 0.0}, {"is_reserved": 0, "is_disabled": 0, "fusion_lat": 0.0, "name": "ac1b1e7fb27fc2bf9cf2451f444f7e32", "lat": 38.906830166666666, "lon": -77.0101605, "bike_id": "ac1b1e7fb27fc2bf9cf2451f444f7e32", "rental_uris": {"ios": "https://dc.lft.to/lastmile_qr_scan", "android": "https://dc.lft.to/lastmile_qr_scan"}, "type": "electric_scooter", "fusion_lon": 0.0}, {"is_reserved": 0, "is_disabled": 0, "fusion_lat": 0.0, "name": "2b44d2daf04405f9dd3f303defafdee6", "lat": 38.90228116666667, "lon": -77.0236945, "bike_id": "2b44d2daf04405f9dd3f303defafdee6", "rental_uris": {"ios": "https://dc.lft.to/lastmile_qr_scan", "android": "https://dc.lft.to/lastmile_qr_scan"}, "type": "electric_scooter", "fusion_lon": 0.0}, {"is_reserved": 0, "is_disabled": 0, "fusion_lat": 0.0, "name": "0c196b978ce42252918486a9922c8ecc", "lat": 38.90048316666667, "lon": -77.04355633333333, "bike_id": "0c196b978ce42252918486a9922c8ecc", "rental_uris": {"ios": "https://dc.lft.to/lastmile_qr_scan", "android": "https://dc.lft.to/lastmile_qr_scan"}, "type": "electric_scooter", "fusion_lon": 0.0}, {"is_reserved": 0, "is_disabled": 0, "fusion_lat": 0.0, "name": "1d0ac3dd13ddb67c9d29c5de340c7dd1", "lat": 38.855489666666664, "lon": -76.986589, "bike_id": "1d0ac3dd13ddb67c9d29c5de340c7dd1", "rental_uris": {"ios": "https://dc.lft.to/lastmile_qr_scan", "android": "https://dc.lft.to/lastmile_qr_scan"}, "type": "electric_scooter", "fusion_lon": 0.0}, {"is_reserved": 0, "is_disabled": 0, "fusion_lat": 0.0, "name": "a2306c26b04ff1e78ba47304500e49fe", "lat": 38.9171135, "lon": -77.03224, "bike_id": "a2306c26b04ff1e78ba47304500e49fe", "rental_uris": {"ios": "https://dc.lft.to/lastmile_qr_scan", "android": "https://dc.lft.to/lastmile_qr_scan"}, "type": "electric_scooter", "fusion_lon": 0.0}, {"is_reserved": 0, "is_disabled": 0, "fusion_lat": 0.0, "name": "b9ccda5942138e71d1e14402c4683997", "lat": 38.9744245, "lon": -77.0961755, "bike_id": "b9ccda5942138e71d1e14402c4683997", "rental_uris": {"ios": "https://dc.lft.to/lastmile_qr_scan", "android": "https://dc.lft.to/lastmile_qr_scan"}, "type": "electric_bike", "fusion_lon": 0.0}, {"is_reserved": 0, "is_disabled": 0, "fusion_lat": 0.0, "name": "c9e5d2075c95b41d218fcebef91edc0b", "lat": 38.90976083333334, "lon": -77.03215333333333, "bike_id": "c9e5d2075c95b41d218fcebef91edc0b", "rental_uris": {"ios": "https://dc.lft.to/lastmile_qr_scan", "android": "https://dc.lft.to/lastmile_qr_scan"}, "type": "electric_scooter", "fusion_lon": 0.0}, {"is_reserved": 0, "is_disabled": 0, "fusion_lat": 0.0, "name": "b98c70ac6a79b389a02308ae5fe5ec04", "lat": 38.91115633333333, "lon": -77.0386605, "bike_id": "b98c70ac6a79b389a02308ae5fe5ec04", "rental_uris": {"ios": "https://dc.lft.to/lastmile_qr_scan", "android": "https://dc.lft.to/lastmile_qr_scan"}, "type": "electric_scooter", "fusion_lon": 0.0}, {"is_reserved": 0, "is_disabled": 0, "fusion_lat": 0.0, "name": "2ebaf80b7d27f14edd7df45e06b2fe1e", "lat": 38.9124735, "lon": -77.04773866666666, "bike_id": "2ebaf80b7d27f14edd7df45e06b2fe1e", "rental_uris": {"ios": "https://dc.lft.to/lastmile_qr_scan", "android": "https://dc.lft.to/lastmile_qr_scan"}, "type": "electric_scooter", "fusion_lon": 0.0}, {"is_reserved": 0, "is_disabled": 0, "fusion_lat": 0.0, "name": "f1a988615e7441f897e3f2cab99724a3", "lat": 38.91985433333333, "lon": -77.03255016666667, "bike_id": "f1a988615e7441f897e3f2cab99724a3", "rental_uris": {"ios": "https://dc.lft.to/lastmile_qr_scan", "android": "https://dc.lft.to/lastmile_qr_scan"}, "type": "electric_scooter", "fusion_lon": 0.0}, {"is_reserved": 0, "is_disabled": 0, "fusion_lat": 0.0, "name": "46e965846adbeac42592a7d5f834c712", "lat": 38.91339333333333, "lon": -77.03173683333333, "bike_id": "46e965846adbeac42592a7d5f834c712", "rental_uris": {"ios": "https://dc.lft.to/lastmile_qr_scan", "android": "https://dc.lft.to/lastmile_qr_scan"}, "type": "electric_scooter", "fusion_lon": 0.0}, {"is_reserved": 0, "is_disabled": 0, "fusion_lat": 0.0, "name": "c0a2e9441db9f458c113f4d311be5908", "lat": 38.924821666666666, "lon": -77.02235133333333, "bike_id": "c0a2e9441db9f458c113f4d311be5908", "rental_uris": {"ios": "https://dc.lft.to/lastmile_qr_scan", "android": "https://dc.lft.to/lastmile_qr_scan"}, "type": "electric_scooter", "fusion_lon": 0.0}, {"is_reserved": 0, "is_disabled": 0, "fusion_lat": 0.0, "name": "ed773a94cd682631480f18063d1392cb", "lat": 38.90966866666667, "lon": -77.04828583333334, "bike_id": "ed773a94cd682631480f18063d1392cb", "rental_uris": {"ios": "https://dc.lft.to/lastmile_qr_scan", "android": "https://dc.lft.to/lastmile_qr_scan"}, "type": "electric_scooter", "fusion_lon": 0.0}, {"is_reserved": 0, "is_disabled": 0, "fusion_lat": 0.0, "name": "edd0a7a36cdbdb82e8e7a92a1dd1d759", "lat": 38.829285666666664, "lon": -77.0688455, "bike_id": "edd0a7a36cdbdb82e8e7a92a1dd1d759", "rental_uris": {"ios": "https://dc.lft.to/lastmile_qr_scan", "android": "https://dc.lft.to/lastmile_qr_scan"}, "type": "electric_bike", "fusion_lon": 0.0}, {"is_reserved": 0, "is_disabled": 0, "fusion_lat": 0.0, "name": "afba043319a84b3f11e9fa71ded3e4d9", "lat": 38.91020483333333, "lon": -77.0344565, "bike_id": "afba043319a84b3f11e9fa71ded3e4d9", "rental_uris": {"ios": "https://dc.lft.to/lastmile_qr_scan", "android": "https://dc.lft.to/lastmile_qr_scan"}, "type": "electric_scooter", "fusion_lon": 0.0}, {"is_reserved": 0, "is_disabled": 0, "fusion_lat": 0.0, "name": "85cb873e36d79d9e5b4326ded7ee421c", "lat": 38.902874, "lon": -77.027661, "bike_id": "85cb873e36d79d9e5b4326ded7ee421c", "rental_uris": {"ios": "https://dc.lft.to/lastmile_qr_scan", "android": "https://dc.lft.to/lastmile_qr_scan"}, "type": "electric_scooter", "fusion_lon": 0.0}, {"is_reserved": 0, "is_disabled": 0, "fusion_lat": 0.0, "name": "9b428d72778eed994b8880ba49feb23f", "lat": 38.922252666666665, "lon": -77.04307316666667, "bike_id": "9b428d72778eed994b8880ba49feb23f", "rental_uris": {"ios": "https://dc.lft.to/lastmile_qr_scan", "android": "https://dc.lft.to/lastmile_qr_scan"}, "type": "electric_scooter", "fusion_lon": 0.0}, {"is_reserved": 0, "is_disabled": 0, "fusion_lat": 0.0, "name": "8a47df90bc6a980b4fc68b8a95107459", "lat": 38.8991275, "lon": -76.9339795, "bike_id": "8a47df90bc6a980b4fc68b8a95107459", "rental_uris": {"ios": "https://dc.lft.to/lastmile_qr_scan", "android": "https://dc.lft.to/lastmile_qr_scan"}, "type": "electric_scooter", "fusion_lon": 0.0}, {"is_reserved": 0, "is_disabled": 0, "fusion_lat": 0.0, "name": "accb760a7df914b4bd91831a6eed4dbf", "lat": 38.92497, "lon": -77.0252705, "bike_id": "accb760a7df914b4bd91831a6eed4dbf", "rental_uris": {"ios": "https://dc.lft.to/lastmile_qr_scan", "android": "https://dc.lft.to/lastmile_qr_scan"}, "type": "electric_bike", "fusion_lon": 0.0}, {"is_reserved": 0, "is_disabled": 0, "fusion_lat": 0.0, "name": "34a96397db7d446daead4bec16b4f947", "lat": 39.02297816666667, "lon": -77.02105116666667, "bike_id": "34a96397db7d446daead4bec16b4f947", "rental_uris": {"ios": "https://dc.lft.to/lastmile_qr_scan", "android": "https://dc.lft.to/lastmile_qr_scan"}, "type": "electric_bike", "fusion_lon": 0.0}, {"is_reserved": 0, "is_disabled": 0, "fusion_lat": 0.0, "name": "c4da5ea4b7ed434b794a25a77196efd9", "lat": 38.909730333333336, "lon": -77.04232633333334, "bike_id": "c4da5ea4b7ed434b794a25a77196efd9", "rental_uris": {"ios": "https://dc.lft.to/lastmile_qr_scan", "android": "https://dc.lft.to/lastmile_qr_scan"}, "type": "electric_scooter", "fusion_lon": 0.0}, {"is_reserved": 0, "is_disabled": 0, "fusion_lat": 0.0, "name": "20babc186b27aff1389f1c2a5ece59db", "lat": 38.907013, "lon": -77.02191433333333, "bike_id": "20babc186b27aff1389f1c2a5ece59db", "rental_uris": {"ios": "https://dc.lft.to/lastmile_qr_scan", "android": "https://dc.lft.to/lastmile_qr_scan"}, "type": "electric_scooter", "fusion_lon": 0.0}, {"is_reserved": 0, "is_disabled": 0, "fusion_lat": 0.0, "name": "2f8c344df2f8ebfffbf4c7049ea7800d", "lat": 38.974764, "lon": -76.9867085, "bike_id": "2f8c344df2f8ebfffbf4c7049ea7800d", "rental_uris": {"ios": "https://dc.lft.to/lastmile_qr_scan", "android": "https://dc.lft.to/lastmile_qr_scan"}, "type": "electric_bike", "fusion_lon": 0.0}, {"is_reserved": 0, "is_disabled": 0, "fusion_lat": 0.0, "name": "314f8a2a8881f74e84dea551cfee725a", "lat": 38.89423016666667, "lon": -77.09444133333334, "bike_id": "314f8a2a8881f74e84dea551cfee725a", "rental_uris": {"ios": "https://dc.lft.to/lastmile_qr_scan", "android": "https://dc.lft.to/lastmile_qr_scan"}, "type": "electric_bike", "fusion_lon": 0.0}, {"is_reserved": 0, "is_disabled": 0, "fusion_lat": 0.0, "name": "3aadcfbb45a67eaf74b8ad09db825047", "lat": 38.927907, "lon": -77.036388, "bike_id": "3aadcfbb45a67eaf74b8ad09db825047", "rental_uris": {"ios": "https://dc.lft.to/lastmile_qr_scan", "android": "https://dc.lft.to/lastmile_qr_scan"}, "type": "electric_scooter", "fusion_lon": 0.0}, {"is_reserved": 0, "is_disabled": 0, "fusion_lat": 0.0, "name": "b797f5599fa3efbdd5ea0915ff9209f4", "lat": 38.89978583333333, "lon": -77.0217705, "bike_id": "b797f5599fa3efbdd5ea0915ff9209f4", "rental_uris": {"ios": "https://dc.lft.to/lastmile_qr_scan", "android": "https://dc.lft.to/lastmile_qr_scan"}, "type": "electric_scooter", "fusion_lon": 0.0}, {"is_reserved": 0, "is_disabled": 0, "fusion_lat": 0.0, "name": "b670a499656b9fcc5a1597df34bd3e0a", "lat": 38.913314666666665, "lon": -77.022183, "bike_id": "b670a499656b9fcc5a1597df34bd3e0a", "rental_uris": {"ios": "https://dc.lft.to/lastmile_qr_scan", "android": "https://dc.lft.to/lastmile_qr_scan"}, "type": "electric_scooter", "fusion_lon": 0.0}, {"is_reserved": 0, "is_disabled": 0, "fusion_lat": 0.0, "name": "7a58d46fc05c9c21a33020f22dae4600", "lat": 38.917692333333335, "lon": -77.0405815, "bike_id": "7a58d46fc05c9c21a33020f22dae4600", "rental_uris": {"ios": "https://dc.lft.to/lastmile_qr_scan", "android": "https://dc.lft.to/lastmile_qr_scan"}, "type": "electric_scooter", "fusion_lon": 0.0}, {"is_reserved": 0, "is_disabled": 0, "fusion_lat": 0.0, "name": "936dea2d1fa75021015ac497ac7d4599", "lat": 38.865557, "lon": -76.95218583333333, "bike_id": "936dea2d1fa75021015ac497ac7d4599", "rental_uris": {"ios": "https://dc.lft.to/lastmile_qr_scan", "android": "https://dc.lft.to/lastmile_qr_scan"}, "type": "electric_bike", "fusion_lon": 0.0}, {"is_reserved": 0, "is_disabled": 0, "fusion_lat": 0.0, "name": "094bbbe5c5693eb54845e5ac1122e068", "lat": 38.89623783333333, "lon": -77.0036605, "bike_id": "094bbbe5c5693eb54845e5ac1122e068", "rental_uris": {"ios": "https://dc.lft.to/lastmile_qr_scan", "android": "https://dc.lft.to/lastmile_qr_scan"}, "type": "electric_scooter", "fusion_lon": 0.0}, {"is_reserved": 0, "is_disabled": 0, "fusion_lat": 0.0, "name": "c6e9584a8905562b8702361d697cdb6b", "lat": 38.8923475, "lon": -77.04999916666667, "bike_id": "c6e9584a8905562b8702361d697cdb6b", "rental_uris": {"ios": "https://dc.lft.to/lastmile_qr_scan", "android": "https://dc.lft.to/lastmile_qr_scan"}, "type": "electric_scooter", "fusion_lon": 0.0}, {"is_reserved": 0, "is_disabled": 0, "fusion_lat": 0.0, "name": "c9d60f7cfcad85db05bb46d636815d51", "lat": 38.89200266666667, "lon": -77.01548533333333, "bike_id": "c9d60f7cfcad85db05bb46d636815d51", "rental_uris": {"ios": "https://dc.lft.to/lastmile_qr_scan", "android": "https://dc.lft.to/lastmile_qr_scan"}, "type": "electric_scooter", "fusion_lon": 0.0}, {"is_reserved": 0, "is_disabled": 0, "fusion_lat": 0.0, "name": "1206556e9a9fafc8c956b29750834880", "lat": 38.920719, "lon": -77.07169666666667, "bike_id": "1206556e9a9fafc8c956b29750834880", "rental_uris": {"ios": "https://dc.lft.to/lastmile_qr_scan", "android": "https://dc.lft.to/lastmile_qr_scan"}, "type": "electric_scooter", "fusion_lon": 0.0}, {"is_reserved": 0, "is_disabled": 0, "fusion_lat": 0.0, "name": "5ada869a146c659e86478a3e66928dd4", "lat": 38.903455, "lon": -76.9814075, "bike_id": "5ada869a146c659e86478a3e66928dd4", "rental_uris": {"ios": "https://dc.lft.to/lastmile_qr_scan", "android": "https://dc.lft.to/lastmile_qr_scan"}, "type": "electric_scooter", "fusion_lon": 0.0}, {"is_reserved": 0, "is_disabled": 0, "fusion_lat": 0.0, "name": "9a8fa3159e0df9bbe2ef283ccdd7b380", "lat": 38.91794983333333, "lon": -77.0444225, "bike_id": "9a8fa3159e0df9bbe2ef283ccdd7b380", "rental_uris": {"ios": "https://dc.lft.to/lastmile_qr_scan", "android": "https://dc.lft.to/lastmile_qr_scan"}, "type": "electric_scooter", "fusion_lon": 0.0}, {"is_reserved": 0, "is_disabled": 0, "fusion_lat": 0.0, "name": "1ca6d74a93acf68c680dfbd5fc45b1e2", "lat": 38.873355333333336, "lon": -77.0006025, "bike_id": "1ca6d74a93acf68c680dfbd5fc45b1e2", "rental_uris": {"ios": "https://dc.lft.to/lastmile_qr_scan", "android": "https://dc.lft.to/lastmile_qr_scan"}, "type": "electric_scooter", "fusion_lon": 0.0}, {"is_reserved": 0, "is_disabled": 0, "fusion_lat": 0.0, "name": "9ac253e7c7bd05dda45be1f2a4b1c421", "lat": 38.88520883333333, "lon": -76.97713166666666, "bike_id": "9ac253e7c7bd05dda45be1f2a4b1c421", "rental_uris": {"ios": "https://dc.lft.to/lastmile_qr_scan", "android": "https://dc.lft.to/lastmile_qr_scan"}, "type": "electric_scooter", "fusion_lon": 0.0}, {"is_reserved": 0, "is_disabled": 0, "fusion_lat": 0.0, "name": "9435482399632de2ecff9fa2abe01557", "lat": 38.896693, "lon": -77.0119975, "bike_id": "9435482399632de2ecff9fa2abe01557", "rental_uris": {"ios": "https://dc.lft.to/lastmile_qr_scan", "android": "https://dc.lft.to/lastmile_qr_scan"}, "type": "electric_scooter", "fusion_lon": 0.0}, {"is_reserved": 0, "is_disabled": 0, "fusion_lat": 0.0, "name": "aa6a08539735a637503597dbe9eb682f", "lat": 38.91409066666667, "lon": -77.03270433333333, "bike_id": "aa6a08539735a637503597dbe9eb682f", "rental_uris": {"ios": "https://dc.lft.to/lastmile_qr_scan", "android": "https://dc.lft.to/lastmile_qr_scan"}, "type": "electric_scooter", "fusion_lon": 0.0}, {"is_reserved": 0, "is_disabled": 0, "fusion_lat": 0.0, "name": "c7915a7f8fa30430379f28e8b066e9e8", "lat": 38.92378216666667, "lon": -77.04316216666666, "bike_id": "c7915a7f8fa30430379f28e8b066e9e8", "rental_uris": {"ios": "https://dc.lft.to/lastmile_qr_scan", "android": "https://dc.lft.to/lastmile_qr_scan"}, "type": "electric_scooter", "fusion_lon": 0.0}, {"is_reserved": 0, "is_disabled": 0, "fusion_lat": 0.0, "name": "fa2687724040365cd600d302d3f58383", "lat": 38.8827085, "lon": -76.99524766666667, "bike_id": "fa2687724040365cd600d302d3f58383", "rental_uris": {"ios": "https://dc.lft.to/lastmile_qr_scan", "android": "https://dc.lft.to/lastmile_qr_scan"}, "type": "electric_scooter", "fusion_lon": 0.0}, {"is_reserved": 0, "is_disabled": 0, "fusion_lat": 0.0, "name": "a811259b59fbd93b002a6d044bf90fa5", "lat": 38.90569216666667, "lon": -77.02682733333333, "bike_id": "a811259b59fbd93b002a6d044bf90fa5", "rental_uris": {"ios": "https://dc.lft.to/lastmile_qr_scan", "android": "https://dc.lft.to/lastmile_qr_scan"}, "type": "electric_scooter", "fusion_lon": 0.0}, {"is_reserved": 0, "is_disabled": 0, "fusion_lat": 0.0, "name": "8556732afc7c0d311213afd183c32cc1", "lat": 38.92042283333333, "lon": -77.02438183333334, "bike_id": "8556732afc7c0d311213afd183c32cc1", "rental_uris": {"ios": "https://dc.lft.to/lastmile_qr_scan", "android": "https://dc.lft.to/lastmile_qr_scan"}, "type": "electric_scooter", "fusion_lon": 0.0}, {"is_reserved": 0, "is_disabled": 0, "fusion_lat": 0.0, "name": "38c6fbcf31615b393186d109c200ec73", "lat": 38.9240645, "lon": -77.02976866666667, "bike_id": "38c6fbcf31615b393186d109c200ec73", "rental_uris": {"ios": "https://dc.lft.to/lastmile_qr_scan", "android": "https://dc.lft.to/lastmile_qr_scan"}, "type": "electric_scooter", "fusion_lon": 0.0}, {"is_reserved": 0, "is_disabled": 0, "fusion_lat": 0.0, "name": "f4b56dbb4e20befb79984a2c90e33eb9", "lat": 38.904558, "lon": -77.0167825, "bike_id": "f4b56dbb4e20befb79984a2c90e33eb9", "rental_uris": {"ios": "https://dc.lft.to/lastmile_qr_scan", "android": "https://dc.lft.to/lastmile_qr_scan"}, "type": "electric_scooter", "fusion_lon": 0.0}, {"is_reserved": 0, "is_disabled": 0, "fusion_lat": 0.0, "name": "d4f47dbd72a144b132b441a9b1c88c1d", "lat": 38.9164665, "lon": -77.02277983333333, "bike_id": "d4f47dbd72a144b132b441a9b1c88c1d", "rental_uris": {"ios": "https://dc.lft.to/lastmile_qr_scan", "android": "https://dc.lft.to/lastmile_qr_scan"}, "type": "electric_scooter", "fusion_lon": 0.0}, {"is_reserved": 0, "is_disabled": 0, "fusion_lat": 0.0, "name": "715f45632cff668aff0d8044d6625354", "lat": 38.900759, "lon": -77.05051783333333, "bike_id": "715f45632cff668aff0d8044d6625354", "rental_uris": {"ios": "https://dc.lft.to/lastmile_qr_scan", "android": "https://dc.lft.to/lastmile_qr_scan"}, "type": "electric_scooter", "fusion_lon": 0.0}, {"is_reserved": 0, "is_disabled": 0, "fusion_lat": 0.0, "name": "b7807fefa07eb0ec106da56cfd92b39f", "lat": 38.9086475, "lon": -77.04067116666667, "bike_id": "b7807fefa07eb0ec106da56cfd92b39f", "rental_uris": {"ios": "https://dc.lft.to/lastmile_qr_scan", "android": "https://dc.lft.to/lastmile_qr_scan"}, "type": "electric_scooter", "fusion_lon": 0.0}, {"is_reserved": 0, "is_disabled": 0, "fusion_lat": 0.0, "name": "35d1e1dfc560201d9dc724463543a87e", "lat": 38.90209216666667, "lon": -77.0231815, "bike_id": "35d1e1dfc560201d9dc724463543a87e", "rental_uris": {"ios": "https://dc.lft.to/lastmile_qr_scan", "android": "https://dc.lft.to/lastmile_qr_scan"}, "type": "electric_scooter", "fusion_lon": 0.0}, {"is_reserved": 0, "is_disabled": 0, "fusion_lat": 0.0, "name": "7bc7abb728409f67216531661a56b964", "lat": 38.868108166666666, "lon": -76.98028116666667, "bike_id": "7bc7abb728409f67216531661a56b964", "rental_uris": {"ios": "https://dc.lft.to/lastmile_qr_scan", "android": "https://dc.lft.to/lastmile_qr_scan"}, "type": "electric_bike", "fusion_lon": 0.0}, {"is_reserved": 0, "is_disabled": 0, "fusion_lat": 0.0, "name": "f3dfbdf979ecd459f6567662d447e8ba", "lat": 38.94306916666667, "lon": -77.025318, "bike_id": "f3dfbdf979ecd459f6567662d447e8ba", "rental_uris": {"ios": "https://dc.lft.to/lastmile_qr_scan", "android": "https://dc.lft.to/lastmile_qr_scan"}, "type": "electric_scooter", "fusion_lon": 0.0}, {"is_reserved": 0, "is_disabled": 0, "fusion_lat": 0.0, "name": "7852be359440a54ae08f2e96fd6e2e5f", "lat": 38.89961483333333, "lon": -77.0450915, "bike_id": "7852be359440a54ae08f2e96fd6e2e5f", "rental_uris": {"ios": "https://dc.lft.to/lastmile_qr_scan", "android": "https://dc.lft.to/lastmile_qr_scan"}, "type": "electric_scooter", "fusion_lon": 0.0}, {"is_reserved": 0, "is_disabled": 0, "fusion_lat": 0.0, "name": "5e43d9e5cdbf351591995dd1882d3435", "lat": 38.920611666666666, "lon": -77.04198716666667, "bike_id": "5e43d9e5cdbf351591995dd1882d3435", "rental_uris": {"ios": "https://dc.lft.to/lastmile_qr_scan", "android": "https://dc.lft.to/lastmile_qr_scan"}, "type": "electric_scooter", "fusion_lon": 0.0}, {"is_reserved": 0, "is_disabled": 0, "fusion_lat": 0.0, "name": "fde21586a3a5f31c41795cb1700c164e", "lat": 38.92627266666667, "lon": -77.039222, "bike_id": "fde21586a3a5f31c41795cb1700c164e", "rental_uris": {"ios": "https://dc.lft.to/lastmile_qr_scan", "android": "https://dc.lft.to/lastmile_qr_scan"}, "type": "electric_scooter", "fusion_lon": 0.0}, {"is_reserved": 0, "is_disabled": 0, "fusion_lat": 0.0, "name": "09141392d313f8ef8b52c067deb6c8f7", "lat": 38.89727933333333, "lon": -77.00932483333334, "bike_id": "09141392d313f8ef8b52c067deb6c8f7", "rental_uris": {"ios": "https://dc.lft.to/lastmile_qr_scan", "android": "https://dc.lft.to/lastmile_qr_scan"}, "type": "electric_scooter", "fusion_lon": 0.0}, {"is_reserved": 0, "is_disabled": 0, "fusion_lat": 0.0, "name": "91c10e3319691509ea77c943dc5739c8", "lat": 38.88672833333333, "lon": -77.12809583333333, "bike_id": "91c10e3319691509ea77c943dc5739c8", "rental_uris": {"ios": "https://dc.lft.to/lastmile_qr_scan", "android": "https://dc.lft.to/lastmile_qr_scan"}, "type": "electric_bike", "fusion_lon": 0.0}, {"is_reserved": 0, "is_disabled": 0, "fusion_lat": 0.0, "name": "4d397d5e8ddfc1cc16962799d4bc1238", "lat": 38.89672316666667, "lon": -76.93210133333334, "bike_id": "4d397d5e8ddfc1cc16962799d4bc1238", "rental_uris": {"ios": "https://dc.lft.to/lastmile_qr_scan", "android": "https://dc.lft.to/lastmile_qr_scan"}, "type": "electric_scooter", "fusion_lon": 0.0}, {"is_reserved": 0, "is_disabled": 0, "fusion_lat": 0.0, "name": "9bad2a3fc4b023cd752622366bf45d4a", "lat": 38.91958533333333, "lon": -77.04158183333334, "bike_id": "9bad2a3fc4b023cd752622366bf45d4a", "rental_uris": {"ios": "https://dc.lft.to/lastmile_qr_scan", "android": "https://dc.lft.to/lastmile_qr_scan"}, "type": "electric_scooter", "fusion_lon": 0.0}, {"is_reserved": 0, "is_disabled": 0, "fusion_lat": 0.0, "name": "68abda51f4ff377f457cfe91557027c4", "lat": 38.95503183333334, "lon": -77.06998316666666, "bike_id": "68abda51f4ff377f457cfe91557027c4", "rental_uris": {"ios": "https://dc.lft.to/lastmile_qr_scan", "android": "https://dc.lft.to/lastmile_qr_scan"}, "type": "electric_scooter", "fusion_lon": 0.0}, {"is_reserved": 0, "is_disabled": 0, "fusion_lat": 0.0, "name": "3cdf2c97df24715b13166c3956a61ea6", "lat": 38.91161266666667, "lon": -77.04479316666666, "bike_id": "3cdf2c97df24715b13166c3956a61ea6", "rental_uris": {"ios": "https://dc.lft.to/lastmile_qr_scan", "android": "https://dc.lft.to/lastmile_qr_scan"}, "type": "electric_scooter", "fusion_lon": 0.0}, {"is_reserved": 0, "is_disabled": 0, "fusion_lat": 0.0, "name": "842f9d3826bec6a5a1d4687ef90c047b", "lat": 38.91603383333333, "lon": -77.0121525, "bike_id": "842f9d3826bec6a5a1d4687ef90c047b", "rental_uris": {"ios": "https://dc.lft.to/lastmile_qr_scan", "android": "https://dc.lft.to/lastmile_qr_scan"}, "type": "electric_scooter", "fusion_lon": 0.0}, {"is_reserved": 0, "is_disabled": 0, "fusion_lat": 0.0, "name": "3135c5609c7ef8815241f04ad8384a56", "lat": 38.907227, "lon": -77.04866116666666, "bike_id": "3135c5609c7ef8815241f04ad8384a56", "rental_uris": {"ios": "https://dc.lft.to/lastmile_qr_scan", "android": "https://dc.lft.to/lastmile_qr_scan"}, "type": "electric_scooter", "fusion_lon": 0.0}, {"is_reserved": 0, "is_disabled": 0, "fusion_lat": 0.0, "name": "e1798195d8089c4a1147f0b215458def", "lat": 38.92787633333333, "lon": -76.97626883333334, "bike_id": "e1798195d8089c4a1147f0b215458def", "rental_uris": {"ios": "https://dc.lft.to/lastmile_qr_scan", "android": "https://dc.lft.to/lastmile_qr_scan"}, "type": "electric_scooter", "fusion_lon": 0.0}, {"is_reserved": 0, "is_disabled": 0, "fusion_lat": 0.0, "name": "b089c0806900a1e8d38a7cd0501e98c0", "lat": 38.9171275, "lon": -77.00890983333333, "bike_id": "b089c0806900a1e8d38a7cd0501e98c0", "rental_uris": {"ios": "https://dc.lft.to/lastmile_qr_scan", "android": "https://dc.lft.to/lastmile_qr_scan"}, "type": "electric_scooter", "fusion_lon": 0.0}, {"is_reserved": 0, "is_disabled": 0, "fusion_lat": 0.0, "name": "9248f46f0b5f1e96f45373e34e64433f", "lat": 38.91986516666667, "lon": -76.9731165, "bike_id": "9248f46f0b5f1e96f45373e34e64433f", "rental_uris": {"ios": "https://dc.lft.to/lastmile_qr_scan", "android": "https://dc.lft.to/lastmile_qr_scan"}, "type": "electric_scooter", "fusion_lon": 0.0}, {"is_reserved": 0, "is_disabled": 0, "fusion_lat": 0.0, "name": "4889011b35124a2650b1e26eca757891", "lat": 38.9061435, "lon": -77.05640833333334, "bike_id": "4889011b35124a2650b1e26eca757891", "rental_uris": {"ios": "https://dc.lft.to/lastmile_qr_scan", "android": "https://dc.lft.to/lastmile_qr_scan"}, "type": "electric_scooter", "fusion_lon": 0.0}, {"is_reserved": 0, "is_disabled": 0, "fusion_lat": 0.0, "name": "7f00ae19f7b1d077f4a6ebe214d85f84", "lat": 38.89771733333333, "lon": -77.02757266666667, "bike_id": "7f00ae19f7b1d077f4a6ebe214d85f84", "rental_uris": {"ios": "https://dc.lft.to/lastmile_qr_scan", "android": "https://dc.lft.to/lastmile_qr_scan"}, "type": "electric_scooter", "fusion_lon": 0.0}, {"is_reserved": 0, "is_disabled": 0, "fusion_lat": 0.0, "name": "381b3cefd3c1898640c20d102253db7e", "lat": 38.873862333333335, "lon": -77.00127766666667, "bike_id": "381b3cefd3c1898640c20d102253db7e", "rental_uris": {"ios": "https://dc.lft.to/lastmile_qr_scan", "android": "https://dc.lft.to/lastmile_qr_scan"}, "type": "electric_scooter", "fusion_lon": 0.0}, {"is_reserved": 0, "is_disabled": 0, "fusion_lat": 0.0, "name": "17d9630575258532d5cbaf797647620c", "lat": 38.91762116666666, "lon": -77.01601716666667, "bike_id": "17d9630575258532d5cbaf797647620c", "rental_uris": {"ios": "https://dc.lft.to/lastmile_qr_scan", "android": "https://dc.lft.to/lastmile_qr_scan"}, "type": "electric_scooter", "fusion_lon": 0.0}, {"is_reserved": 0, "is_disabled": 0, "fusion_lat": 0.0, "name": "0d7b129087c24aade4581c6b57adeeb6", "lat": 38.9103565, "lon": -77.0439125, "bike_id": "0d7b129087c24aade4581c6b57adeeb6", "rental_uris": {"ios": "https://dc.lft.to/lastmile_qr_scan", "android": "https://dc.lft.to/lastmile_qr_scan"}, "type": "electric_scooter", "fusion_lon": 0.0}, {"is_reserved": 0, "is_disabled": 0, "fusion_lat": 0.0, "name": "a8f18cc6fd93b02ec7af9d4350551947", "lat": 38.9169365, "lon": -77.037828, "bike_id": "a8f18cc6fd93b02ec7af9d4350551947", "rental_uris": {"ios": "https://dc.lft.to/lastmile_qr_scan", "android": "https://dc.lft.to/lastmile_qr_scan"}, "type": "electric_scooter", "fusion_lon": 0.0}, {"is_reserved": 0, "is_disabled": 0, "fusion_lat": 0.0, "name": "eb204589ee109a52a0a50b4203c96d77", "lat": 38.9035115, "lon": -77.03327083333333, "bike_id": "eb204589ee109a52a0a50b4203c96d77", "rental_uris": {"ios": "https://dc.lft.to/lastmile_qr_scan", "android": "https://dc.lft.to/lastmile_qr_scan"}, "type": "electric_scooter", "fusion_lon": 0.0}, {"is_reserved": 0, "is_disabled": 0, "fusion_lat": 0.0, "name": "dc71d18db913b00c814608232a3c5931", "lat": 38.91997283333333, "lon": -77.032635, "bike_id": "dc71d18db913b00c814608232a3c5931", "rental_uris": {"ios": "https://dc.lft.to/lastmile_qr_scan", "android": "https://dc.lft.to/lastmile_qr_scan"}, "type": "electric_scooter", "fusion_lon": 0.0}, {"is_reserved": 0, "is_disabled": 0, "fusion_lat": 0.0, "name": "e3f7153322fe374f68c563d5a2ce7457", "lat": 39.005369333333334, "lon": -77.10404266666667, "bike_id": "e3f7153322fe374f68c563d5a2ce7457", "rental_uris": {"ios": "https://dc.lft.to/lastmile_qr_scan", "android": "https://dc.lft.to/lastmile_qr_scan"}, "type": "electric_bike", "fusion_lon": 0.0}, {"is_reserved": 0, "is_disabled": 0, "fusion_lat": 0.0, "name": "ad37a5b6d7e4e0db859343b77961f3f2", "lat": 38.88516533333333, "lon": -76.99615083333333, "bike_id": "ad37a5b6d7e4e0db859343b77961f3f2", "rental_uris": {"ios": "https://dc.lft.to/lastmile_qr_scan", "android": "https://dc.lft.to/lastmile_qr_scan"}, "type": "electric_scooter", "fusion_lon": 0.0}, {"is_reserved": 0, "is_disabled": 0, "fusion_lat": 0.0, "name": "73fae0fffbf26eb55c5305aaa43ccf5d", "lat": 38.92642633333333, "lon": -77.01447433333334, "bike_id": "73fae0fffbf26eb55c5305aaa43ccf5d", "rental_uris": {"ios": "https://dc.lft.to/lastmile_qr_scan", "android": "https://dc.lft.to/lastmile_qr_scan"}, "type": "electric_scooter", "fusion_lon": 0.0}, {"is_reserved": 0, "is_disabled": 0, "fusion_lat": 0.0, "name": "b31dfbea2ae9ad653838214d9c4748d4", "lat": 38.90762566666667, "lon": -77.016973, "bike_id": "b31dfbea2ae9ad653838214d9c4748d4", "rental_uris": {"ios": "https://dc.lft.to/lastmile_qr_scan", "android": "https://dc.lft.to/lastmile_qr_scan"}, "type": "electric_scooter", "fusion_lon": 0.0}, {"is_reserved": 0, "is_disabled": 0, "fusion_lat": 0.0, "name": "87d4d4ac402ca381dfb0fe4eea2427b6", "lat": 38.865123, "lon": -76.973346, "bike_id": "87d4d4ac402ca381dfb0fe4eea2427b6", "rental_uris": {"ios": "https://dc.lft.to/lastmile_qr_scan", "android": "https://dc.lft.to/lastmile_qr_scan"}, "type": "electric_bike", "fusion_lon": 0.0}, {"is_reserved": 0, "is_disabled": 0, "fusion_lat": 0.0, "name": "9994e303e38b92c262628e4a991ab25d", "lat": 38.920556, "lon": -77.03183783333333, "bike_id": "9994e303e38b92c262628e4a991ab25d", "rental_uris": {"ios": "https://dc.lft.to/lastmile_qr_scan", "android": "https://dc.lft.to/lastmile_qr_scan"}, "type": "electric_scooter", "fusion_lon": 0.0}, {"is_reserved": 0, "is_disabled": 0, "fusion_lat": 0.0, "name": "da7955317b3c4acd2726e70f812af6f7", "lat": 38.8955545, "lon": -77.00918883333334, "bike_id": "da7955317b3c4acd2726e70f812af6f7", "rental_uris": {"ios": "https://dc.lft.to/lastmile_qr_scan", "android": "https://dc.lft.to/lastmile_qr_scan"}, "type": "electric_scooter", "fusion_lon": 0.0}, {"is_reserved": 0, "is_disabled": 0, "fusion_lat": 0.0, "name": "9270e781d43cc9ca5727e98de31e2834", "lat": 38.926884666666666, "lon": -77.0323395, "bike_id": "9270e781d43cc9ca5727e98de31e2834", "rental_uris": {"ios": "https://dc.lft.to/lastmile_qr_scan", "android": "https://dc.lft.to/lastmile_qr_scan"}, "type": "electric_scooter", "fusion_lon": 0.0}, {"is_reserved": 0, "is_disabled": 0, "fusion_lat": 0.0, "name": "b911f4f4c148358d899f92ad18c729ad", "lat": 38.877396, "lon": -77.14873283333333, "bike_id": "b911f4f4c148358d899f92ad18c729ad", "rental_uris": {"ios": "https://dc.lft.to/lastmile_qr_scan", "android": "https://dc.lft.to/lastmile_qr_scan"}, "type": "electric_bike", "fusion_lon": 0.0}, {"is_reserved": 0, "is_disabled": 0, "fusion_lat": 0.0, "name": "27d17ec821ebd1eb172dc2251bc6ba68", "lat": 38.9229175, "lon": -77.029809, "bike_id": "27d17ec821ebd1eb172dc2251bc6ba68", "rental_uris": {"ios": "https://dc.lft.to/lastmile_qr_scan", "android": "https://dc.lft.to/lastmile_qr_scan"}, "type": "electric_scooter", "fusion_lon": 0.0}, {"is_reserved": 0, "is_disabled": 0, "fusion_lat": 0.0, "name": "de74811e01cf42095a5f808ad9606b56", "lat": 38.90397, "lon": -77.02478883333333, "bike_id": "de74811e01cf42095a5f808ad9606b56", "rental_uris": {"ios": "https://dc.lft.to/lastmile_qr_scan", "android": "https://dc.lft.to/lastmile_qr_scan"}, "type": "electric_scooter", "fusion_lon": 0.0}, {"is_reserved": 0, "is_disabled": 0, "fusion_lat": 0.0, "name": "c97fdab57847c9d711195625a48a0bbd", "lat": 38.92053033333333, "lon": -77.02301933333334, "bike_id": "c97fdab57847c9d711195625a48a0bbd", "rental_uris": {"ios": "https://dc.lft.to/lastmile_qr_scan", "android": "https://dc.lft.to/lastmile_qr_scan"}, "type": "electric_scooter", "fusion_lon": 0.0}, {"is_reserved": 0, "is_disabled": 0, "fusion_lat": 0.0, "name": "cc5954bb9ed048d1ab0601986388cec5", "lat": 38.915631833333336, "lon": -77.03265566666667, "bike_id": "cc5954bb9ed048d1ab0601986388cec5", "rental_uris": {"ios": "https://dc.lft.to/lastmile_qr_scan", "android": "https://dc.lft.to/lastmile_qr_scan"}, "type": "electric_scooter", "fusion_lon": 0.0}, {"is_reserved": 0, "is_disabled": 0, "fusion_lat": 0.0, "name": "3481a18deb9675f79268cffae5178a05", "lat": 38.9047215, "lon": -77.043597, "bike_id": "3481a18deb9675f79268cffae5178a05", "rental_uris": {"ios": "https://dc.lft.to/lastmile_qr_scan", "android": "https://dc.lft.to/lastmile_qr_scan"}, "type": "electric_scooter", "fusion_lon": 0.0}, {"is_reserved": 0, "is_disabled": 0, "fusion_lat": 0.0, "name": "5570f331ebde85f4da6a35e293199aac", "lat": 38.88577133333333, "lon": -77.01213416666667, "bike_id": "5570f331ebde85f4da6a35e293199aac", "rental_uris": {"ios": "https://dc.lft.to/lastmile_qr_scan", "android": "https://dc.lft.to/lastmile_qr_scan"}, "type": "electric_scooter", "fusion_lon": 0.0}, {"is_reserved": 0, "is_disabled": 0, "fusion_lat": 0.0, "name": "39b7583b35e766c7a07ba187713ae843", "lat": 38.916032, "lon": -76.98385533333334, "bike_id": "39b7583b35e766c7a07ba187713ae843", "rental_uris": {"ios": "https://dc.lft.to/lastmile_qr_scan", "android": "https://dc.lft.to/lastmile_qr_scan"}, "type": "electric_scooter", "fusion_lon": 0.0}, {"is_reserved": 0, "is_disabled": 0, "fusion_lat": 0.0, "name": "b747b9c30cd59be335128be15e2bb5dd", "lat": 38.88708183333333, "lon": -76.98345066666667, "bike_id": "b747b9c30cd59be335128be15e2bb5dd", "rental_uris": {"ios": "https://dc.lft.to/lastmile_qr_scan", "android": "https://dc.lft.to/lastmile_qr_scan"}, "type": "electric_scooter", "fusion_lon": 0.0}, {"is_reserved": 0, "is_disabled": 0, "fusion_lat": 0.0, "name": "43190d8573aa6c137d2c3076eea83f1f", "lat": 38.899558999999996, "lon": -77.01613116666667, "bike_id": "43190d8573aa6c137d2c3076eea83f1f", "rental_uris": {"ios": "https://dc.lft.to/lastmile_qr_scan", "android": "https://dc.lft.to/lastmile_qr_scan"}, "type": "electric_scooter", "fusion_lon": 0.0}, {"is_reserved": 0, "is_disabled": 0, "fusion_lat": 0.0, "name": "4288f163197d19e6028db3d53f984b86", "lat": 38.909934, "lon": -77.021976, "bike_id": "4288f163197d19e6028db3d53f984b86", "rental_uris": {"ios": "https://dc.lft.to/lastmile_qr_scan", "android": "https://dc.lft.to/lastmile_qr_scan"}, "type": "electric_scooter", "fusion_lon": 0.0}, {"is_reserved": 0, "is_disabled": 0, "fusion_lat": 0.0, "name": "4cf64af34a8a2e59dd9354ab1bd36ee7", "lat": 38.925919, "lon": -77.024965, "bike_id": "4cf64af34a8a2e59dd9354ab1bd36ee7", "rental_uris": {"ios": "https://dc.lft.to/lastmile_qr_scan", "android": "https://dc.lft.to/lastmile_qr_scan"}, "type": "electric_scooter", "fusion_lon": 0.0}, {"is_reserved": 0, "is_disabled": 0, "fusion_lat": 0.0, "name": "13e82c760859732560c0ea2586a02a5a", "lat": 38.91131166666667, "lon": -77.0221035, "bike_id": "13e82c760859732560c0ea2586a02a5a", "rental_uris": {"ios": "https://dc.lft.to/lastmile_qr_scan", "android": "https://dc.lft.to/lastmile_qr_scan"}, "type": "electric_scooter", "fusion_lon": 0.0}, {"is_reserved": 0, "is_disabled": 0, "fusion_lat": 0.0, "name": "d3a6df6be02522a8895700a469ffa4b3", "lat": 38.846206, "lon": -76.97838383333334, "bike_id": "d3a6df6be02522a8895700a469ffa4b3", "rental_uris": {"ios": "https://dc.lft.to/lastmile_qr_scan", "android": "https://dc.lft.to/lastmile_qr_scan"}, "type": "electric_bike", "fusion_lon": 0.0}, {"is_reserved": 0, "is_disabled": 0, "fusion_lat": 0.0, "name": "11713e7b6a026a1529ff2b63df4c232b", "lat": 38.908171833333334, "lon": -77.08423116666667, "bike_id": "11713e7b6a026a1529ff2b63df4c232b", "rental_uris": {"ios": "https://dc.lft.to/lastmile_qr_scan", "android": "https://dc.lft.to/lastmile_qr_scan"}, "type": "electric_scooter", "fusion_lon": 0.0}, {"is_reserved": 0, "is_disabled": 0, "fusion_lat": 0.0, "name": "adbea01bb4bf614e6c9ae76cebeefc2e", "lat": 38.933483, "lon": -77.028567, "bike_id": "adbea01bb4bf614e6c9ae76cebeefc2e", "rental_uris": {"ios": "https://dc.lft.to/lastmile_qr_scan", "android": "https://dc.lft.to/lastmile_qr_scan"}, "type": "electric_scooter", "fusion_lon": 0.0}, {"is_reserved": 0, "is_disabled": 0, "fusion_lat": 0.0, "name": "df2b47996d6055ace478ae2b0b558815", "lat": 38.924746999999996, "lon": -77.02215616666666, "bike_id": "df2b47996d6055ace478ae2b0b558815", "rental_uris": {"ios": "https://dc.lft.to/lastmile_qr_scan", "android": "https://dc.lft.to/lastmile_qr_scan"}, "type": "electric_scooter", "fusion_lon": 0.0}, {"is_reserved": 0, "is_disabled": 0, "fusion_lat": 0.0, "name": "9f8175d5b69e96182a75adf1a38ff3eb", "lat": 38.902836666666666, "lon": -77.01799066666666, "bike_id": "9f8175d5b69e96182a75adf1a38ff3eb", "rental_uris": {"ios": "https://dc.lft.to/lastmile_qr_scan", "android": "https://dc.lft.to/lastmile_qr_scan"}, "type": "electric_bike", "fusion_lon": 0.0}, {"is_reserved": 0, "is_disabled": 0, "fusion_lat": 0.0, "name": "28064782e68ff9ddddc9ad7fe2c52930", "lat": 38.921582666666666, "lon": -77.04238233333334, "bike_id": "28064782e68ff9ddddc9ad7fe2c52930", "rental_uris": {"ios": "https://dc.lft.to/lastmile_qr_scan", "android": "https://dc.lft.to/lastmile_qr_scan"}, "type": "electric_scooter", "fusion_lon": 0.0}, {"is_reserved": 0, "is_disabled": 0, "fusion_lat": 0.0, "name": "603b114466781974bb73494d916c847a", "lat": 38.8919975, "lon": -77.01551683333334, "bike_id": "603b114466781974bb73494d916c847a", "rental_uris": {"ios": "https://dc.lft.to/lastmile_qr_scan", "android": "https://dc.lft.to/lastmile_qr_scan"}, "type": "electric_scooter", "fusion_lon": 0.0}, {"is_reserved": 0, "is_disabled": 0, "fusion_lat": 0.0, "name": "41436f8907518aa799aeae4f5927da52", "lat": 38.9149215, "lon": -77.0344085, "bike_id": "41436f8907518aa799aeae4f5927da52", "rental_uris": {"ios": "https://dc.lft.to/lastmile_qr_scan", "android": "https://dc.lft.to/lastmile_qr_scan"}, "type": "electric_scooter", "fusion_lon": 0.0}, {"is_reserved": 0, "is_disabled": 0, "fusion_lat": 0.0, "name": "74e28eaaab9413bcf450b6a9ff9ade54", "lat": 38.93323016666667, "lon": -77.0236915, "bike_id": "74e28eaaab9413bcf450b6a9ff9ade54", "rental_uris": {"ios": "https://dc.lft.to/lastmile_qr_scan", "android": "https://dc.lft.to/lastmile_qr_scan"}, "type": "electric_scooter", "fusion_lon": 0.0}, {"is_reserved": 0, "is_disabled": 0, "fusion_lat": 0.0, "name": "c55f7a2b9bec44439456578e626682a0", "lat": 38.934563833333335, "lon": -77.02917833333333, "bike_id": "c55f7a2b9bec44439456578e626682a0", "rental_uris": {"ios": "https://dc.lft.to/lastmile_qr_scan", "android": "https://dc.lft.to/lastmile_qr_scan"}, "type": "electric_scooter", "fusion_lon": 0.0}, {"is_reserved": 0, "is_disabled": 0, "fusion_lat": 0.0, "name": "835578923cd7e5e11a6335dc4d5ccadd", "lat": 38.91141316666667, "lon": -77.01522016666667, "bike_id": "835578923cd7e5e11a6335dc4d5ccadd", "rental_uris": {"ios": "https://dc.lft.to/lastmile_qr_scan", "android": "https://dc.lft.to/lastmile_qr_scan"}, "type": "electric_scooter", "fusion_lon": 0.0}, {"is_reserved": 0, "is_disabled": 0, "fusion_lat": 0.0, "name": "f79032efcf85db21b041bab4c5d38aba", "lat": 38.909806, "lon": -77.06488183333333, "bike_id": "f79032efcf85db21b041bab4c5d38aba", "rental_uris": {"ios": "https://dc.lft.to/lastmile_qr_scan", "android": "https://dc.lft.to/lastmile_qr_scan"}, "type": "electric_scooter", "fusion_lon": 0.0}, {"is_reserved": 0, "is_disabled": 0, "fusion_lat": 0.0, "name": "846aab583150b1831fec7a9cedf5fdc5", "lat": 38.8999835, "lon": -77.0525495, "bike_id": "846aab583150b1831fec7a9cedf5fdc5", "rental_uris": {"ios": "https://dc.lft.to/lastmile_qr_scan", "android": "https://dc.lft.to/lastmile_qr_scan"}, "type": "electric_scooter", "fusion_lon": 0.0}, {"is_reserved": 0, "is_disabled": 0, "fusion_lat": 0.0, "name": "539b7683ae77a51e3885ca09966ce2a6", "lat": 38.841031, "lon": -77.08946483333334, "bike_id": "539b7683ae77a51e3885ca09966ce2a6", "rental_uris": {"ios": "https://dc.lft.to/lastmile_qr_scan", "android": "https://dc.lft.to/lastmile_qr_scan"}, "type": "electric_bike", "fusion_lon": 0.0}, {"is_reserved": 0, "is_disabled": 0, "fusion_lat": 0.0, "name": "2b0fcdeb8ef53907bbcdeeb92077f8a7", "lat": 38.8329555, "lon": -77.08408183333333, "bike_id": "2b0fcdeb8ef53907bbcdeeb92077f8a7", "rental_uris": {"ios": "https://dc.lft.to/lastmile_qr_scan", "android": "https://dc.lft.to/lastmile_qr_scan"}, "type": "electric_bike", "fusion_lon": 0.0}, {"is_reserved": 0, "is_disabled": 0, "fusion_lat": 0.0, "name": "9ac8195a384ac53a686d2d1915d42186", "lat": 38.8973505, "lon": -77.04365583333333, "bike_id": "9ac8195a384ac53a686d2d1915d42186", "rental_uris": {"ios": "https://dc.lft.to/lastmile_qr_scan", "android": "https://dc.lft.to/lastmile_qr_scan"}, "type": "electric_scooter", "fusion_lon": 0.0}, {"is_reserved": 0, "is_disabled": 0, "fusion_lat": 0.0, "name": "549c6d0c7c231fa585ac9e28b83a7a13", "lat": 38.89850783333333, "lon": -76.9275325, "bike_id": "549c6d0c7c231fa585ac9e28b83a7a13", "rental_uris": {"ios": "https://dc.lft.to/lastmile_qr_scan", "android": "https://dc.lft.to/lastmile_qr_scan"}, "type": "electric_scooter", "fusion_lon": 0.0}, {"is_reserved": 0, "is_disabled": 0, "fusion_lat": 0.0, "name": "fe80cc1644acf5f88677b83d92262109", "lat": 38.90435433333333, "lon": -76.9722915, "bike_id": "fe80cc1644acf5f88677b83d92262109", "rental_uris": {"ios": "https://dc.lft.to/lastmile_qr_scan", "android": "https://dc.lft.to/lastmile_qr_scan"}, "type": "electric_bike", "fusion_lon": 0.0}, {"is_reserved": 0, "is_disabled": 0, "fusion_lat": 0.0, "name": "d34148b417b44f8888ab67c013b3e3cf", "lat": 38.8799475, "lon": -76.98511583333334, "bike_id": "d34148b417b44f8888ab67c013b3e3cf", "rental_uris": {"ios": "https://dc.lft.to/lastmile_qr_scan", "android": "https://dc.lft.to/lastmile_qr_scan"}, "type": "electric_scooter", "fusion_lon": 0.0}, {"is_reserved": 0, "is_disabled": 0, "fusion_lat": 0.0, "name": "6381c98e56e604466f2bf76c2186b494", "lat": 38.8559355, "lon": -76.97282116666666, "bike_id": "6381c98e56e604466f2bf76c2186b494", "rental_uris": {"ios": "https://dc.lft.to/lastmile_qr_scan", "android": "https://dc.lft.to/lastmile_qr_scan"}, "type": "electric_bike", "fusion_lon": 0.0}, {"is_reserved": 0, "is_disabled": 0, "fusion_lat": 0.0, "name": "eff78d506db7a082b3991ba3de87aa81", "lat": 38.9318285, "lon": -77.02354483333333, "bike_id": "eff78d506db7a082b3991ba3de87aa81", "rental_uris": {"ios": "https://dc.lft.to/lastmile_qr_scan", "android": "https://dc.lft.to/lastmile_qr_scan"}, "type": "electric_scooter", "fusion_lon": 0.0}, {"is_reserved": 0, "is_disabled": 0, "fusion_lat": 0.0, "name": "d044a90bd873091570080655131bae48", "lat": 38.906885333333335, "lon": -77.010133, "bike_id": "d044a90bd873091570080655131bae48", "rental_uris": {"ios": "https://dc.lft.to/lastmile_qr_scan", "android": "https://dc.lft.to/lastmile_qr_scan"}, "type": "electric_scooter", "fusion_lon": 0.0}, {"is_reserved": 0, "is_disabled": 0, "fusion_lat": 0.0, "name": "07b4235e5ff44b8edb16e73b3c95ca62", "lat": 38.8232295, "lon": -77.056125, "bike_id": "07b4235e5ff44b8edb16e73b3c95ca62", "rental_uris": {"ios": "https://dc.lft.to/lastmile_qr_scan", "android": "https://dc.lft.to/lastmile_qr_scan"}, "type": "electric_bike", "fusion_lon": 0.0}, {"is_reserved": 0, "is_disabled": 0, "fusion_lat": 0.0, "name": "942d12d7f23b7b6132964bd97c39f5dd", "lat": 38.92906683333333, "lon": -77.021663, "bike_id": "942d12d7f23b7b6132964bd97c39f5dd", "rental_uris": {"ios": "https://dc.lft.to/lastmile_qr_scan", "android": "https://dc.lft.to/lastmile_qr_scan"}, "type": "electric_scooter", "fusion_lon": 0.0}, {"is_reserved": 0, "is_disabled": 0, "fusion_lat": 0.0, "name": "ab25c91e6e8c53f6b4133764a675fbeb", "lat": 38.80407916666667, "lon": -77.11331883333334, "bike_id": "ab25c91e6e8c53f6b4133764a675fbeb", "rental_uris": {"ios": "https://dc.lft.to/lastmile_qr_scan", "android": "https://dc.lft.to/lastmile_qr_scan"}, "type": "electric_bike", "fusion_lon": 0.0}, {"is_reserved": 0, "is_disabled": 0, "fusion_lat": 0.0, "name": "f3476515ab4f828e3ce5e403e4dad325", "lat": 38.876198333333335, "lon": -77.005943, "bike_id": "f3476515ab4f828e3ce5e403e4dad325", "rental_uris": {"ios": "https://dc.lft.to/lastmile_qr_scan", "android": "https://dc.lft.to/lastmile_qr_scan"}, "type": "electric_scooter", "fusion_lon": 0.0},