{"data": {"bikes": [{"name": "f184a7c08784ff41051b3352dc80b2de", "type": "electric_scooter", "lat": 38.906750333333335, "is_reserved": 0, "lon": -77.038092, "fusion_lon": 0.0, "is_disabled": 0, "fusion_lat": 0.0, "bike_id": "f184a7c08784ff41051b3352dc80b2de", "rental_uris": {"ios": "https://dc.lft.to/lastmile_qr_scan", "android": "https://dc.lft.to/lastmile_qr_scan"}}, {"name": "535c4ba1328d299df9a403e9e358bdfe", "type": "electric_scooter", "lat": 38.905171833333334, "is_reserved": 0, "lon": -77.03451933333334, "fusion_lon": 0.0, "is_disabled": 0, "fusion_lat": 0.0, "bike_id": "535c4ba1328d299df9a403e9e358bdfe", "rental_uris": {"ios": "https://dc.lft.to/lastmile_qr_scan", "android": "https://dc.lft.to/lastmile_qr_scan"}}, {"name": "627dfa3c3ffbbf1c73b6abe520a70278", "type": "electric_scooter", "lat": 38.899919, "is_reserved": 0, "lon": -77.01014883333333, "fusion_lon": 0.0, "is_disabled": 0, "fusion_lat": 0.0, "bike_id": "627dfa3c3ffbbf1c73b6abe520a70278", "rental_uris": {"ios": "https://dc.lft.to/lastmile_qr_scan", "android": "https://dc.lft.to/lastmile_qr_scan"}}, {"name": "51851f58506c2ad0ac6f78febff4ee5e", "type": "electric_scooter", "lat": 38.9314365, "is_reserved": 0, "lon": -77.038506, "fusion_lon": 0.0, "is_disabled": 0, "fusion_lat": 0.0, "bike_id": "51851f58506c2ad0ac6f78febff4ee5e", "rental_uris": {"ios": "https://dc.lft.to/lastmile_qr_scan", "android": "https://dc.lft.to/lastmile_qr_scan"}}, {"name": "ba01371c895c9f6601a5583f6d7755b4", "type": "electric_scooter", "lat": 38.9388735, "is_reserved": 0, "lon": -77.02468116666667, "fusion_lon": 0.0, "is_disabled": 0, "fusion_lat": 0.0, "bike_id": "ba01371c895c9f6601a5583f6d7755b4", "rental_uris": {"ios": "https://dc.lft.to/lastmile_qr_scan", "android": "https://dc.lft.to/lastmile_qr_scan"}}, {"name": "de2301789f0d27ca540a41611443b093", "type": "electric_scooter", "lat": 38.902527666666664, "is_reserved": 0, "lon": -77.04609616666667, "fusion_lon": 0.0, "is_disabled": 0, "fusion_lat": 0.0, "bike_id": "de2301789f0d27ca540a41611443b093", "rental_uris": {"ios": "https://dc.lft.to/lastmile_qr_scan", "android": "https://dc.lft.to/lastmile_qr_scan"}}, {"name": "39bb801c90ddd1ca605522541ba96348", "type": "electric_scooter", "lat": 38.89896383333333, "is_reserved": 0, "lon": -77.03277816666667, "fusion_lon": 0.0, "is_disabled": 0, "fusion_lat": 0.0, "bike_id": "39bb801c90ddd1ca605522541ba96348", "rental_uris": {"ios": "https://dc.lft.to/lastmile_qr_scan", "android": "https://dc.lft.to/lastmile_qr_scan"}}, {"name": "120d57b6a8558fbb0d87fdfa71530d19", "type": "electric_scooter", "lat": 38.895115833333335, "is_reserved": 0, "lon": -77.01121683333334, "fusion_lon": 0.0, "is_disabled": 0, "fusion_lat": 0.0, "bike_id": "120d57b6a8558fbb0d87fdfa71530d19", "rental_uris": {"ios": "https://dc.lft.to/lastmile_qr_scan", "android": "https://dc.lft.to/lastmile_qr_scan"}}, {"name": "23d93154787d20129ffdb32bce86fa12", "type": "electric_scooter", "lat": 38.90393533333334, "is_reserved": 0, "lon": -76.98946983333333, "fusion_lon": 0.0, "is_disabled": 0, "fusion_lat": 0.0, "bike_id": "23d93154787d20129ffdb32bce86fa12", "rental_uris": {"ios": "https://dc.lft.to/lastmile_qr_scan", "android": "https://dc.lft.to/lastmile_qr_scan"}}, {"name": "9747947a5d28b5f1a95bf9d6bf1051e4", "type": "electric_scooter", "lat": 38.926216333333336, "is_reserved": 0, "lon": -77.0378485, "fusion_lon": 0.0, "is_disabled": 0, "fusion_lat": 0.0, "bike_id": "9747947a5d28b5f1a95bf9d6bf1051e4", "rental_uris": {"ios": "https://dc.lft.to/lastmile_qr_scan", "android": "https://dc.lft.to/lastmile_qr_scan"}}, {"name": "e637d47201791eb7290aef14a4ca4913", "type": "electric_scooter", "lat": 38.877106, "is_reserved": 0, "lon": -76.9938495, "fusion_lon": 0.0, "is_disabled": 0, "fusion_lat": 0.0, "bike_id": "e637d47201791eb7290aef14a4ca4913", "rental_uris": {"ios": "https://dc.lft.to/lastmile_qr_scan", "android": "https://dc.lft.to/lastmile_qr_scan"}}, {"name": "3a0316dc0526fb482743ca45a75c076f", "type": "electric_scooter", "lat": 38.90385666666667, "is_reserved": 0, "lon": -77.04010966666667, "fusion_lon": 0.0, "is_disabled": 0, "fusion_lat": 0.0, "bike_id": "3a0316dc0526fb482743ca45a75c076f", "rental_uris": {"ios": "https://dc.lft.to/lastmile_qr_scan", "android": "https://dc.lft.to/lastmile_qr_scan"}}, {"name": "484cac730edf8035c2f99019f6ad18ab", "type": "electric_scooter", "lat": 38.91328, "is_reserved": 0, "lon": -77.04873383333333, "fusion_lon": 0.0, "is_disabled": 0, "fusion_lat": 0.0, "bike_id": "484cac730edf8035c2f99019f6ad18ab", "rental_uris": {"ios": "https://dc.lft.to/lastmile_qr_scan", "android": "https://dc.lft.to/lastmile_qr_scan"}}, {"name": "306c9e5c55624e10619f0b089b24e459", "type": "electric_scooter", "lat": 38.887676, "is_reserved": 0, "lon": -76.92713166666667, "fusion_lon": 0.0, "is_disabled": 0, "fusion_lat": 0.0, "bike_id": "306c9e5c55624e10619f0b089b24e459", "rental_uris": {"ios": "https://dc.lft.to/lastmile_qr_scan", "android": "https://dc.lft.to/lastmile_qr_scan"}}, {"name": "0b8da319d2e7b392a4dd7930616e81db", "type": "electric_scooter", "lat": 38.900867, "is_reserved": 0, "lon": -77.04900666666667, "fusion_lon": 0.0, "is_disabled": 0, "fusion_lat": 0.0, "bike_id": "0b8da319d2e7b392a4dd7930616e81db", "rental_uris": {"ios": "https://dc.lft.to/lastmile_qr_scan", "android": "https://dc.lft.to/lastmile_qr_scan"}}, {"name": "cdb1eb90bc21d3a12c477b674e36e363", "type": "electric_scooter", "lat": 38.9208465, "is_reserved": 0, "lon": -77.02388516666667, "fusion_lon": 0.0, "is_disabled": 0, "fusion_lat": 0.0, "bike_id": "cdb1eb90bc21d3a12c477b674e36e363", "rental_uris": {"ios": "https://dc.lft.to/lastmile_qr_scan", "android": "https://dc.lft.to/lastmile_qr_scan"}}, {"name": "c082d4c5766c8f4c0402b427829488a6", "type": "electric_scooter", "lat": 38.8923305, "is_reserved": 0, "lon": -77.032086, "fusion_lon": 0.0, "is_disabled": 0, "fusion_lat": 0.0, "bike_id": "c082d4c5766c8f4c0402b427829488a6", "rental_uris": {"ios": "https://dc.lft.to/lastmile_qr_scan", "android": "https://dc.lft.to/lastmile_qr_scan"}}, {"name": "17bf984a8ed5d50c02b567ff67d3385e", "type": "electric_scooter", "lat": 38.922385166666665, "is_reserved": 0, "lon": -77.03088933333333, "fusion_lon": 0.0, "is_disabled": 0, "fusion_lat": 0.0, "bike_id": "17bf984a8ed5d50c02b567ff67d3385e", "rental_uris": {"ios": "https://dc.lft.to/lastmile_qr_scan", "android": "https://dc.lft.to/lastmile_qr_scan"}}, {"name": "8f7885886f93afb5752432c391d8e723", "type": "electric_scooter", "lat": 38.91499133333333, "is_reserved": 0, "lon": -77.032081, "fusion_lon": 0.0, "is_disabled": 0, "fusion_lat": 0.0, "bike_id": "8f7885886f93afb5752432c391d8e723", "rental_uris": {"ios": "https://dc.lft.to/lastmile_qr_scan", "android": "https://dc.lft.to/lastmile_qr_scan"}}, {"name": "049110b06a78e98ae70cb6accddf3273", "type": "electric_scooter", "lat": 38.942105833333336, "is_reserved": 0, "lon": -77.01498983333333, "fusion_lon": 0.0, "is_disabled": 0, "fusion_lat": 0.0, "bike_id": "049110b06a78e98ae70cb6accddf3273", "rental_uris": {"ios": "https://dc.lft.to/lastmile_qr_scan", "android": "https://dc.lft.to/lastmile_qr_scan"}}, {"name": "32dd8704a2a45fdaef313d83b113ad0f", "type": "electric_scooter", "lat": 38.92317083333333, "is_reserved": 0, "lon": -77.03952633333333, "fusion_lon": 0.0, "is_disabled": 0, "fusion_lat": 0.0, "bike_id": "32dd8704a2a45fdaef313d83b113ad0f", "rental_uris": {"ios": "https://dc.lft.to/lastmile_qr_scan", "android": "https://dc.lft.to/lastmile_qr_scan"}}, {"name": "fb79daac8d3f333e7afeb098cd9795a2", "type": "electric_scooter", "lat": 38.90518266666667, "is_reserved": 0, "lon": -77.0693905, "fusion_lon": 0.0, "is_disabled": 0, "fusion_lat": 0.0, "bike_id": "fb79daac8d3f333e7afeb098cd9795a2", "rental_uris": {"ios": "https://dc.lft.to/lastmile_qr_scan", "android": "https://dc.lft.to/lastmile_qr_scan"}}, {"name": "2557f623cd19f67464ed63a7cae89cd0", "type": "electric_bike", "lat": 38.879158, "is_reserved": 0, "lon": -77.005467, "fusion_lon": 0.0, "is_disabled": 0, "fusion_lat": 0.0, "bike_id": "2557f623cd19f67464ed63a7cae89cd0", "rental_uris": {"ios": "https://dc.lft.to/lastmile_qr_scan", "android": "https://dc.lft.to/lastmile_qr_scan"}}, {"name": "4b34c6974709882bb8b0f5566aa33ac6", "type": "electric_scooter", "lat": 38.92040266666667, "is_reserved": 0, "lon": -77.0342245, "fusion_lon": 0.0, "is_disabled": 0, "fusion_lat": 0.0, "bike_id": "4b34c6974709882bb8b0f5566aa33ac6", "rental_uris": {"ios": "https://dc.lft.to/lastmile_qr_scan", "android": "https://dc.lft.to/lastmile_qr_scan"}}, {"name": "279dd30d479bb320d1d4fc61f37c89c2", "type": "electric_scooter", "lat": 38.92976616666667, "is_reserved": 0, "lon": -77.01655466666666, "fusion_lon": 0.0, "is_disabled": 0, "fusion_lat": 0.0, "bike_id": "279dd30d479bb320d1d4fc61f37c89c2", "rental_uris": {"ios": "https://dc.lft.to/lastmile_qr_scan", "android": "https://dc.lft.to/lastmile_qr_scan"}}, {"name": "ed147ffe8eb37abcddcb9af48f1bac5a", "type": "electric_scooter", "lat": 38.911022, "is_reserved": 0, "lon": -77.01058716666667, "fusion_lon": 0.0, "is_disabled": 0, "fusion_lat": 0.0, "bike_id": "ed147ffe8eb37abcddcb9af48f1bac5a", "rental_uris": {"ios": "https://dc.lft.to/lastmile_qr_scan", "android": "https://dc.lft.to/lastmile_qr_scan"}}, {"name": "7bea9452d60676aa6619a9e2fc6be8ea", "type": "electric_scooter", "lat": 38.91012116666667, "is_reserved": 0, "lon": -77.05285183333334, "fusion_lon": 0.0, "is_disabled": 0, "fusion_lat": 0.0, "bike_id": "7bea9452d60676aa6619a9e2fc6be8ea", "rental_uris": {"ios": "https://dc.lft.to/lastmile_qr_scan", "android": "https://dc.lft.to/lastmile_qr_scan"}}, {"name": "1027e89496d1035d3326b6176ced5423", "type": "electric_scooter", "lat": 38.909168333333334, "is_reserved": 0, "lon": -77.022891, "fusion_lon": 0.0, "is_disabled": 0, "fusion_lat": 0.0, "bike_id": "1027e89496d1035d3326b6176ced5423", "rental_uris": {"ios": "https://dc.lft.to/lastmile_qr_scan", "android": "https://dc.lft.to/lastmile_qr_scan"}}, {"name": "ba09bfb9ab9ebe47142a59e28a5df744", "type": "electric_scooter", "lat": 38.92054483333333, "is_reserved": 0, "lon": -77.0243225, "fusion_lon": 0.0, "is_disabled": 0, "fusion_lat": 0.0, "bike_id": "ba09bfb9ab9ebe47142a59e28a5df744", "rental_uris": {"ios": "https://dc.lft.to/lastmile_qr_scan", "android": "https://dc.lft.to/lastmile_qr_scan"}}, {"name": "fa865df33e562eecfb6c697df1f02df5", "type": "electric_scooter", "lat": 38.911608, "is_reserved": 0, "lon": -77.01573083333334, "fusion_lon": 0.0, "is_disabled": 0, "fusion_lat": 0.0, "bike_id": "fa865df33e562eecfb6c697df1f02df5", "rental_uris": {"ios": "https://dc.lft.to/lastmile_qr_scan", "android": "https://dc.lft.to/lastmile_qr_scan"}}, {"name": "aeadc679210551dae8c0bda14c759b3b", "type": "electric_scooter", "lat": 38.865207166666664, "is_reserved": 0, "lon": -76.99034966666666, "fusion_lon": 0.0, "is_disabled": 0, "fusion_lat": 0.0, "bike_id": "aeadc679210551dae8c0bda14c759b3b", "rental_uris": {"ios": "https://dc.lft.to/lastmile_qr_scan", "android": "https://dc.lft.to/lastmile_qr_scan"}}, {"name": "247eb39c4033ddc2531218020f376992", "type": "electric_scooter", "lat": 38.86375233333333, "is_reserved": 0, "lon": -76.99058966666666, "fusion_lon": 0.0, "is_disabled": 0, "fusion_lat": 0.0, "bike_id": "247eb39c4033ddc2531218020f376992", "rental_uris": {"ios": "https://dc.lft.to/lastmile_qr_scan", "android": "https://dc.lft.to/lastmile_qr_scan"}}, {"name": "85143cfd3001a6bc679f5b3e7a8a37a1", "type": "electric_scooter", "lat": 38.9127215, "is_reserved": 0, "lon": -77.03901266666666, "fusion_lon": 0.0, "is_disabled": 0, "fusion_lat": 0.0, "bike_id": "85143cfd3001a6bc679f5b3e7a8a37a1", "rental_uris": {"ios": "https://dc.lft.to/lastmile_qr_scan", "android": "https://dc.lft.to/lastmile_qr_scan"}}, {"name": "0d4549751e88c0c6087e8fe272c40088", "type": "electric_scooter", "lat": 38.8665375, "is_reserved": 0, "lon": -76.98887516666667, "fusion_lon": 0.0, "is_disabled": 0, "fusion_lat": 0.0, "bike_id": "0d4549751e88c0c6087e8fe272c40088", "rental_uris": {"ios": "https://dc.lft.to/lastmile_qr_scan", "android": "https://dc.lft.to/lastmile_qr_scan"}}, {"name": "a387edabefc5104330f5788d1de50c96", "type": "electric_scooter", "lat": 38.89374333333333, "is_reserved": 0, "lon": -77.0299535, "fusion_lon": 0.0, "is_disabled": 0, "fusion_lat": 0.0, "bike_id": "a387edabefc5104330f5788d1de50c96", "rental_uris": {"ios": "https://dc.lft.to/lastmile_qr_scan", "android": "https://dc.lft.to/lastmile_qr_scan"}}, {"name": "fb7e73cc2ce78daedd54b0be0ee42faa", "type": "electric_scooter", "lat": 38.91022566666667, "is_reserved": 0, "lon": -77.03441116666667, "fusion_lon": 0.0, "is_disabled": 0, "fusion_lat": 0.0, "bike_id": "fb7e73cc2ce78daedd54b0be0ee42faa", "rental_uris": {"ios": "https://dc.lft.to/lastmile_qr_scan", "android": "https://dc.lft.to/lastmile_qr_scan"}}, {"name": "682021af5adcc4441682b23ea668ace5", "type": "electric_bike", "lat": 38.95268016666667, "is_reserved": 0, "lon": -77.06983466666667, "fusion_lon": 0.0, "is_disabled": 0, "fusion_lat": 0.0, "bike_id": "682021af5adcc4441682b23ea668ace5", "rental_uris": {"ios": "https://dc.lft.to/lastmile_qr_scan", "android": "https://dc.lft.to/lastmile_qr_scan"}}, {"name": "f8220686d400c46e8ba34d74c9ffae8b", "type": "electric_bike", "lat": 38.85850583333333, "is_reserved": 0, "lon": -77.09751133333333, "fusion_lon": 0.0, "is_disabled": 0, "fusion_lat": 0.0, "bike_id": "f8220686d400c46e8ba34d74c9ffae8b", "rental_uris": {"ios": "https://dc.lft.to/lastmile_qr_scan", "android": "https://dc.lft.to/lastmile_qr_scan"}}, {"name": "83929185ad540c0070b1e6d4e31084b0", "type": "electric_scooter", "lat": 38.911216, "is_reserved": 0, "lon": -77.03848633333334, "fusion_lon": 0.0, "is_disabled": 0, "fusion_lat": 0.0, "bike_id": "83929185ad540c0070b1e6d4e31084b0", "rental_uris": {"ios": "https://dc.lft.to/lastmile_qr_scan", "android": "https://dc.lft.to/lastmile_qr_scan"}}, {"name": "6aa6e127c8a0c71bdf5aa91d35faa9fa", "type": "electric_scooter", "lat": 38.91265716666667, "is_reserved": 0, "lon": -77.03145816666667, "fusion_lon": 0.0, "is_disabled": 0, "fusion_lat": 0.0, "bike_id": "6aa6e127c8a0c71bdf5aa91d35faa9fa", "rental_uris": {"ios": "https://dc.lft.to/lastmile_qr_scan", "android": "https://dc.lft.to/lastmile_qr_scan"}}, {"name": "1cb230ce7864e235c39f9115e5bc6641", "type": "electric_scooter", "lat": 38.916071333333335, "is_reserved": 0, "lon": -77.03846616666667, "fusion_lon": 0.0, "is_disabled": 0, "fusion_lat": 0.0, "bike_id": "1cb230ce7864e235c39f9115e5bc6641", "rental_uris": {"ios": "https://dc.lft.to/lastmile_qr_scan", "android": "https://dc.lft.to/lastmile_qr_scan"}}, {"name": "c1e46954473803279198dfc0b0f3929f", "type": "electric_scooter", "lat": 38.8621335, "is_reserved": 0, "lon": -76.994952, "fusion_lon": 0.0, "is_disabled": 0, "fusion_lat": 0.0, "bike_id": "c1e46954473803279198dfc0b0f3929f", "rental_uris": {"ios": "https://dc.lft.to/lastmile_qr_scan", "android": "https://dc.lft.to/lastmile_qr_scan"}}, {"name": "6e01c7d7748f03d824a4ceca8af5ea84", "type": "electric_scooter", "lat": 38.9033055, "is_reserved": 0, "lon": -77.0382635, "fusion_lon": 0.0, "is_disabled": 0, "fusion_lat": 0.0, "bike_id": "6e01c7d7748f03d824a4ceca8af5ea84", "rental_uris": {"ios": "https://dc.lft.to/lastmile_qr_scan", "android": "https://dc.lft.to/lastmile_qr_scan"}}, {"name": "b443bc4e658b3f154161e05852e5f40a", "type": "electric_scooter", "lat": 38.959232, "is_reserved": 0, "lon": -77.033244, "fusion_lon": 0.0, "is_disabled": 0, "fusion_lat": 0.0, "bike_id": "b443bc4e658b3f154161e05852e5f40a", "rental_uris": {"ios": "https://dc.lft.to/lastmile_qr_scan", "android": "https://dc.lft.to/lastmile_qr_scan"}}, {"name": "f1995dffeda86316b8f28fe227d43946", "type": "electric_scooter", "lat": 38.90116716666667, "is_reserved": 0, "lon": -77.05158533333334, "fusion_lon": 0.0, "is_disabled": 0, "fusion_lat": 0.0, "bike_id": "f1995dffeda86316b8f28fe227d43946", "rental_uris": {"ios": "https://dc.lft.to/lastmile_qr_scan", "android": "https://dc.lft.to/lastmile_qr_scan"}}, {"name": "558fede314e3564781c7d9885ee6fa99", "type": "electric_scooter", "lat": 38.92347866666667, "is_reserved": 0, "lon": -77.05098466666666, "fusion_lon": 0.0, "is_disabled": 0, "fusion_lat": 0.0, "bike_id": "558fede314e3564781c7d9885ee6fa99", "rental_uris": {"ios": "https://dc.lft.to/lastmile_qr_scan", "android": "https://dc.lft.to/lastmile_qr_scan"}}, {"name": "b4185ba16cde45e11dbf4d4fcebb0754", "type": "electric_scooter", "lat": 38.898030166666665, "is_reserved": 0, "lon": -76.9950125, "fusion_lon": 0.0, "is_disabled": 0, "fusion_lat": 0.0, "bike_id": "b4185ba16cde45e11dbf4d4fcebb0754", "rental_uris": {"ios": "https://dc.lft.to/lastmile_qr_scan", "android": "https://dc.lft.to/lastmile_qr_scan"}}, {"name": "92e66e093f888b1ec9a34f166b0ad628", "type": "electric_scooter", "lat": 38.9040315, "is_reserved": 0, "lon": -77.02094933333333, "fusion_lon": 0.0, "is_disabled": 0, "fusion_lat": 0.0, "bike_id": "92e66e093f888b1ec9a34f166b0ad628", "rental_uris": {"ios": "https://dc.lft.to/lastmile_qr_scan", "android": "https://dc.lft.to/lastmile_qr_scan"}}, {"name": "8c05c77eec9e244c283402a8c2cd6452", "type": "electric_scooter", "lat": 38.9147275, "is_reserved": 0, "lon": -77.0083635, "fusion_lon": 0.0, "is_disabled": 0, "fusion_lat": 0.0, "bike_id": "8c05c77eec9e244c283402a8c2cd6452", "rental_uris": {"ios": "https://dc.lft.to/lastmile_qr_scan", "android": "https://dc.lft.to/lastmile_qr_scan"}}, {"name": "0f018e9e349c6312fd6344c84a5243c7", "type": "electric_scooter", "lat": 38.915682, "is_reserved": 0, "lon": -77.02941766666666, "fusion_lon": 0.0, "is_disabled": 0, "fusion_lat": 0.0, "bike_id": "0f018e9e349c6312fd6344c84a5243c7", "rental_uris": {"ios": "https://dc.lft.to/lastmile_qr_scan", "android": "https://dc.lft.to/lastmile_qr_scan"}}, {"name": "df0529098a3541de8463d652c729b09f", "type": "electric_scooter", "lat": 38.89898783333334, "is_reserved": 0, "lon": -77.03270216666667, "fusion_lon": 0.0, "is_disabled": 0, "fusion_lat": 0.0, "bike_id": "df0529098a3541de8463d652c729b09f", "rental_uris": {"ios": "https://dc.lft.to/lastmile_qr_scan", "android": "https://dc.lft.to/lastmile_qr_scan"}}, {"name": "c57f66011a0f4bc91d39b2a4922e7e76", "type": "electric_scooter", "lat": 38.91119233333333, "is_reserved": 0, "lon": -77.04471666666667, "fusion_lon": 0.0, "is_disabled": 0, "fusion_lat": 0.0, "bike_id": "c57f66011a0f4bc91d39b2a4922e7e76", "rental_uris": {"ios": "https://dc.lft.to/lastmile_qr_scan", "android": "https://dc.lft.to/lastmile_qr_scan"}}, {"name": "a856acfc452755549d9edbb7536d33e4", "type": "electric_scooter", "lat": 38.928683666666664, "is_reserved": 0, "lon": -77.03229683333333, "fusion_lon": 0.0, "is_disabled": 0, "fusion_lat": 0.0, "bike_id": "a856acfc452755549d9edbb7536d33e4", "rental_uris": {"ios": "https://dc.lft.to/lastmile_qr_scan", "android": "https://dc.lft.to/lastmile_qr_scan"}}, {"name": "29ca7a06cf3fc374bb1d29c3db6bbd7d", "type": "electric_scooter", "lat": 38.919143166666665, "is_reserved": 0, "lon": -77.03181116666667, "fusion_lon": 0.0, "is_disabled": 0, "fusion_lat": 0.0, "bike_id": "29ca7a06cf3fc374bb1d29c3db6bbd7d", "rental_uris": {"ios": "https://dc.lft.to/lastmile_qr_scan", "android": "https://dc.lft.to/lastmile_qr_scan"}}, {"name": "5b03a27d43e12088698232835aa5451b", "type": "electric_bike", "lat": 39.058113, "is_reserved": 0, "lon": -77.1262495, "fusion_lon": 0.0, "is_disabled": 0, "fusion_lat": 0.0, "bike_id": "5b03a27d43e12088698232835aa5451b", "rental_uris": {"ios": "https://dc.lft.to/lastmile_qr_scan", "android": "https://dc.lft.to/lastmile_qr_scan"}}, {"name": "b77006c58136569d505277f1a276ba30", "type": "electric_bike", "lat": 38.846117, "is_reserved": 0, "lon": -76.97828016666666, "fusion_lon": 0.0, "is_disabled": 0, "fusion_lat": 0.0, "bike_id": "b77006c58136569d505277f1a276ba30", "rental_uris": {"ios": "https://dc.lft.to/lastmile_qr_scan", "android": "https://dc.lft.to/lastmile_qr_scan"}}, {"name": "4c960264e2773ca42f6d0ccc3de90e01", "type": "electric_scooter", "lat": 38.890153833333336, "is_reserved": 0, "lon": -76.9373455, "fusion_lon": 0.0, "is_disabled": 0, "fusion_lat": 0.0, "bike_id": "4c960264e2773ca42f6d0ccc3de90e01", "rental_uris": {"ios": "https://dc.lft.to/lastmile_qr_scan", "android": "https://dc.lft.to/lastmile_qr_scan"}}, {"name": "3f4058a8860451527bedd7365f1a9c54", "type": "electric_scooter", "lat": 38.8997035, "is_reserved": 0, "lon": -76.98711783333333, "fusion_lon": 0.0, "is_disabled": 0, "fusion_lat": 0.0, "bike_id": "3f4058a8860451527bedd7365f1a9c54", "rental_uris": {"ios": "https://dc.lft.to/lastmile_qr_scan", "android": "https://dc.lft.to/lastmile_qr_scan"}}, {"name": "cdafff130f58f638c1939931cdb5c817", "type": "electric_bike", "lat": 38.952926166666664, "is_reserved": 0, "lon": -76.97806566666667, "fusion_lon": 0.0, "is_disabled": 0, "fusion_lat": 0.0, "bike_id": "cdafff130f58f638c1939931cdb5c817", "rental_uris": {"ios": "https://dc.lft.to/lastmile_qr_scan", "android": "https://dc.lft.to/lastmile_qr_scan"}}, {"name": "4248f17f79194dd8adac6bf4b8f25824", "type": "electric_scooter", "lat": 38.908605, "is_reserved": 0, "lon": -77.05480833333333, "fusion_lon": 0.0, "is_disabled": 0, "fusion_lat": 0.0, "bike_id": "4248f17f79194dd8adac6bf4b8f25824", "rental_uris": {"ios": "https://dc.lft.to/lastmile_qr_scan", "android": "https://dc.lft.to/lastmile_qr_scan"}}, {"name": "a82f30ae5772f8762a8091701ebaccd5", "type": "electric_scooter", "lat": 38.9346065, "is_reserved": 0, "lon": -77.030505, "fusion_lon": 0.0, "is_disabled": 0, "fusion_lat": 0.0, "bike_id": "a82f30ae5772f8762a8091701ebaccd5", "rental_uris": {"ios": "https://dc.lft.to/lastmile_qr_scan", "android": "https://dc.lft.to/lastmile_qr_scan"}}, {"name": "41405e01f9d04a7dd91a0e02f53c776e", "type": "electric_scooter", "lat": 38.9279095, "is_reserved": 0, "lon": -77.03983633333333, "fusion_lon": 0.0, "is_disabled": 0, "fusion_lat": 0.0, "bike_id": "41405e01f9d04a7dd91a0e02f53c776e", "rental_uris": {"ios": "https://dc.lft.to/lastmile_qr_scan", "android": "https://dc.lft.to/lastmile_qr_scan"}}, {"name": "906a106c1433d914921b864e31e0c349", "type": "electric_scooter", "lat": 38.906592833333335, "is_reserved": 0, "lon": -77.008967, "fusion_lon": 0.0, "is_disabled": 0, "fusion_lat": 0.0, "bike_id": "906a106c1433d914921b864e31e0c349", "rental_uris": {"ios": "https://dc.lft.to/lastmile_qr_scan", "android": "https://dc.lft.to/lastmile_qr_scan"}}, {"name": "f1375228aaae2dc1f585ae718bc5f7bf", "type": "electric_bike", "lat": 38.95958533333334, "is_reserved": 0, "lon": -77.10093716666667, "fusion_lon": 0.0, "is_disabled": 0, "fusion_lat": 0.0, "bike_id": "f1375228aaae2dc1f585ae718bc5f7bf", "rental_uris": {"ios": "https://dc.lft.to/lastmile_qr_scan", "android": "https://dc.lft.to/lastmile_qr_scan"}}, {"name": "9156b9cf6d960c58b2788f6413053a3b", "type": "electric_scooter", "lat": 38.90026233333333, "is_reserved": 0, "lon": -76.998274, "fusion_lon": 0.0, "is_disabled": 0, "fusion_lat": 0.0, "bike_id": "9156b9cf6d960c58b2788f6413053a3b", "rental_uris": {"ios": "https://dc.lft.to/lastmile_qr_scan", "android": "https://dc.lft.to/lastmile_qr_scan"}}, {"name": "0ba337808229c08ec4d3787188dda503", "type": "electric_scooter", "lat": 38.929916166666665, "is_reserved": 0, "lon": -77.02483783333334, "fusion_lon": 0.0, "is_disabled": 0, "fusion_lat": 0.0, "bike_id": "0ba337808229c08ec4d3787188dda503", "rental_uris": {"ios": "https://dc.lft.to/lastmile_qr_scan", "android": "https://dc.lft.to/lastmile_qr_scan"}}, {"name": "06a6d23ae5648fe23502e503c48c89de", "type": "electric_scooter", "lat": 38.918704, "is_reserved": 0, "lon": -77.037584, "fusion_lon": 0.0, "is_disabled": 0, "fusion_lat": 0.0, "bike_id": "06a6d23ae5648fe23502e503c48c89de", "rental_uris": {"ios": "https://dc.lft.to/lastmile_qr_scan", "android": "https://dc.lft.to/lastmile_qr_scan"}}, {"name": "ffc6775e8bf3e299eb9c587140a11163", "type": "electric_scooter", "lat": 38.904006333333335, "is_reserved": 0, "lon": -77.043556, "fusion_lon": 0.0, "is_disabled": 0, "fusion_lat": 0.0, "bike_id": "ffc6775e8bf3e299eb9c587140a11163", "rental_uris": {"ios": "https://dc.lft.to/lastmile_qr_scan", "android": "https://dc.lft.to/lastmile_qr_scan"}}, {"name": "63d2956440b0108f2de41698c823e885", "type": "electric_scooter", "lat": 38.902398, "is_reserved": 0, "lon": -77.026927, "fusion_lon": 0.0, "is_disabled": 0, "fusion_lat": 0.0, "bike_id": "63d2956440b0108f2de41698c823e885", "rental_uris": {"ios": "https://dc.lft.to/lastmile_qr_scan", "android": "https://dc.lft.to/lastmile_qr_scan"}}, {"name": "65a23ab39d99fe04c89a754db66c0a1b", "type": "electric_bike", "lat": 38.857923666666665, "is_reserved": 0, "lon": -76.98743183333333, "fusion_lon": 0.0, "is_disabled": 0, "fusion_lat": 0.0, "bike_id": "65a23ab39d99fe04c89a754db66c0a1b", "rental_uris": {"ios": "https://dc.lft.to/lastmile_qr_scan", "android": "https://dc.lft.to/lastmile_qr_scan"}}, {"name": "752724d9dbbbe2b91a96095919429fbc", "type": "electric_scooter", "lat": 38.928474, "is_reserved": 0, "lon": -77.05437916666666, "fusion_lon": 0.0, "is_disabled": 0, "fusion_lat": 0.0, "bike_id": "752724d9dbbbe2b91a96095919429fbc", "rental_uris": {"ios": "https://dc.lft.to/lastmile_qr_scan", "android": "https://dc.lft.to/lastmile_qr_scan"}}, {"name": "088b7903cf3ef2c7162d3f96c39d2200", "type": "electric_scooter", "lat": 38.92959616666667, "is_reserved": 0, "lon": -77.02342083333333, "fusion_lon": 0.0, "is_disabled": 0, "fusion_lat": 0.0, "bike_id": "088b7903cf3ef2c7162d3f96c39d2200", "rental_uris": {"ios": "https://dc.lft.to/lastmile_qr_scan", "android": "https://dc.lft.to/lastmile_qr_scan"}}, {"name": "4f730b75258a6bffc63d335a76c402c1", "type": "electric_scooter", "lat": 38.90459833333333, "is_reserved": 0, "lon": -77.01430616666667, "fusion_lon": 0.0, "is_disabled": 0, "fusion_lat": 0.0, "bike_id": "4f730b75258a6bffc63d335a76c402c1", "rental_uris": {"ios": "https://dc.lft.to/lastmile_qr_scan", "android": "https://dc.lft.to/lastmile_qr_scan"}}, {"name": "cadfb31a3b083eed01895356dad655db", "type": "electric_bike", "lat": 38.911662666666665, "is_reserved": 0, "lon": -77.00272783333334, "fusion_lon": 0.0, "is_disabled": 0, "fusion_lat": 0.0, "bike_id": "cadfb31a3b083eed01895356dad655db", "rental_uris": {"ios": "https://dc.lft.to/lastmile_qr_scan", "android": "https://dc.lft.to/lastmile_qr_scan"}}, {"name": "0230baf7e58f7893f46152dcd1df5042", "type": "electric_scooter", "lat": 38.92496633333333, "is_reserved": 0, "lon": -77.03568333333334, "fusion_lon": 0.0, "is_disabled": 0, "fusion_lat": 0.0, "bike_id": "0230baf7e58f7893f46152dcd1df5042", "rental_uris": {"ios": "https://dc.lft.to/lastmile_qr_scan", "android": "https://dc.lft.to/lastmile_qr_scan"}}, {"name": "736223cdccd06da232751bdf53fb3627", "type": "electric_bike", "lat": 38.85157, "is_reserved": 0, "lon": -77.12877183333333, "fusion_lon": 0.0, "is_disabled": 0, "fusion_lat": 0.0, "bike_id": "736223cdccd06da232751bdf53fb3627", "rental_uris": {"ios": "https://dc.lft.to/lastmile_qr_scan", "android": "https://dc.lft.to/lastmile_qr_scan"}}, {"name": "7b85fd7d33d7b43a7ae8ae49ef54c187", "type": "electric_scooter", "lat": 38.89472283333333, "is_reserved": 0, "lon": -76.984032, "fusion_lon": 0.0, "is_disabled": 0, "fusion_lat": 0.0, "bike_id": "7b85fd7d33d7b43a7ae8ae49ef54c187", "rental_uris": {"ios": "https://dc.lft.to/lastmile_qr_scan", "android": "https://dc.lft.to/lastmile_qr_scan"}}, {"name": "56bfbad83e7d292a7da72936556cbf22", "type": "electric_scooter", "lat": 38.90242766666667, "is_reserved": 0, "lon": -77.00198316666666, "fusion_lon": 0.0, "is_disabled": 0, "fusion_lat": 0.0, "bike_id": "56bfbad83e7d292a7da72936556cbf22", "rental_uris": {"ios": "https://dc.lft.to/lastmile_qr_scan", "android": "https://dc.lft.to/lastmile_qr_scan"}}, {"name": "01a7bebcb8042b78412dcc30ce15a565", "type": "electric_scooter", "lat": 38.943112166666666, "is_reserved": 0, "lon": -77.05917516666666, "fusion_lon": 0.0, "is_disabled": 0, "fusion_lat": 0.0, "bike_id": "01a7bebcb8042b78412dcc30ce15a565", "rental_uris": {"ios": "https://dc.lft.to/lastmile_qr_scan", "android": "https://dc.lft.to/lastmile_qr_scan"}}, {"name": "3fddf1b68dcdf9e8062e9275801070a5", "type": "electric_scooter", "lat": 38.869448, "is_reserved": 0, "lon": -76.97857266666666, "fusion_lon": 0.0, "is_disabled": 0, "fusion_lat": 0.0, "bike_id": "3fddf1b68dcdf9e8062e9275801070a5", "rental_uris": {"ios": "https://dc.lft.to/lastmile_qr_scan", "android": "https://dc.lft.to/lastmile_qr_scan"}}, {"name": "876d19e05d978d62234e35f8c2b9f68e", "type": "electric_scooter", "lat": 38.936015166666664, "is_reserved": 0, "lon": -77.03652366666667, "fusion_lon": 0.0, "is_disabled": 0, "fusion_lat": 0.0, "bike_id": "876d19e05d978d62234e35f8c2b9f68e", "rental_uris": {"ios": "https://dc.lft.to/lastmile_qr_scan", "android": "https://dc.lft.to/lastmile_qr_scan"}}, {"name": "9a9986dc3fa44c8b5afa38ea73ff702d", "type": "electric_scooter", "lat": 38.901289, "is_reserved": 0, "lon": -77.04482583333333, "fusion_lon": 0.0, "is_disabled": 0, "fusion_lat": 0.0, "bike_id": "9a9986dc3fa44c8b5afa38ea73ff702d", "rental_uris": {"ios": "https://dc.lft.to/lastmile_qr_scan", "android": "https://dc.lft.to/lastmile_qr_scan"}}, {"name": "108fcb9376a492c8c772b1466146b855", "type": "electric_scooter", "lat": 38.865720833333334, "is_reserved": 0, "lon": -76.989555, "fusion_lon": 0.0, "is_disabled": 0, "fusion_lat": 0.0, "bike_id": "108fcb9376a492c8c772b1466146b855", "rental_uris": {"ios": "https://dc.lft.to/lastmile_qr_scan", "android": "https://dc.lft.to/lastmile_qr_scan"}}, {"name": "7795dbde75a93aa668e26d718303b6e7", "type": "electric_bike", "lat": 38.87260883333333, "is_reserved": 0, "lon": -77.01702516666667, "fusion_lon": 0.0, "is_disabled": 0, "fusion_lat": 0.0, "bike_id": "7795dbde75a93aa668e26d718303b6e7", "rental_uris": {"ios": "https://dc.lft.to/lastmile_qr_scan", "android": "https://dc.lft.to/lastmile_qr_scan"}}, {"name": "9e273d5d7bb4ea4b32b4d734ec9e8d5c", "type": "electric_scooter", "lat": 38.936725333333335, "is_reserved": 0, "lon": -77.03591716666666, "fusion_lon": 0.0, "is_disabled": 0, "fusion_lat": 0.0, "bike_id": "9e273d5d7bb4ea4b32b4d734ec9e8d5c", "rental_uris": {"ios": "https://dc.lft.to/lastmile_qr_scan", "android": "https://dc.lft.to/lastmile_qr_scan"}}, {"name": "c84cca40ad9448542dc0f58841abe5d0", "type": "electric_scooter", "lat": 38.90081566666667, "is_reserved": 0, "lon": -77.059085, "fusion_lon": 0.0, "is_disabled": 0, "fusion_lat": 0.0, "bike_id": "c84cca40ad9448542dc0f58841abe5d0", "rental_uris": {"ios": "https://dc.lft.to/lastmile_qr_scan", "android": "https://dc.lft.to/lastmile_qr_scan"}}, {"name": "e9993df67bedba0c2b3d09d1eed05de1", "type": "electric_scooter", "lat": 38.924859166666664, "is_reserved": 0, "lon": -77.02714533333334, "fusion_lon": 0.0, "is_disabled": 0, "fusion_lat": 0.0, "bike_id": "e9993df67bedba0c2b3d09d1eed05de1", "rental_uris": {"ios": "https://dc.lft.to/lastmile_qr_scan", "android": "https://dc.lft.to/lastmile_qr_scan"}}, {"name": "c8da338e9bbf811b6c6eb9a4c71c0c99", "type": "electric_scooter", "lat": 38.899218, "is_reserved": 0, "lon": -76.933845, "fusion_lon": 0.0, "is_disabled": 0, "fusion_lat": 0.0, "bike_id": "c8da338e9bbf811b6c6eb9a4c71c0c99", "rental_uris": {"ios": "https://dc.lft.to/lastmile_qr_scan", "android": "https://dc.lft.to/lastmile_qr_scan"}}, {"name": "e8c1120e104d3be41db0c4046f50822e", "type": "electric_bike", "lat": 38.880415166666666, "is_reserved": 0, "lon": -77.0252165, "fusion_lon": 0.0, "is_disabled": 0, "fusion_lat": 0.0, "bike_id": "e8c1120e104d3be41db0c4046f50822e", "rental_uris": {"ios": "https://dc.lft.to/lastmile_qr_scan", "android": "https://dc.lft.to/lastmile_qr_scan"}}, {"name": "85209c7a2d4940862afce27c12089986", "type": "electric_scooter", "lat": 38.90312133333333, "is_reserved": 0, "lon": -76.97647566666667, "fusion_lon": 0.0, "is_disabled": 0, "fusion_lat": 0.0, "bike_id": "85209c7a2d4940862afce27c12089986", "rental_uris": {"ios": "https://dc.lft.to/lastmile_qr_scan", "android": "https://dc.lft.to/lastmile_qr_scan"}}, {"name": "0e02d80bcfb34693d9b39bdfbfd82226", "type": "electric_scooter", "lat": 38.957326, "is_reserved": 0, "lon": -77.02403066666666, "fusion_lon": 0.0, "is_disabled": 0, "fusion_lat": 0.0, "bike_id": "0e02d80bcfb34693d9b39bdfbfd82226", "rental_uris": {"ios": "https://dc.lft.to/lastmile_qr_scan", "android": "https://dc.lft.to/lastmile_qr_scan"}}, {"name": "888a191b4a683fa2a5cb250326b8ea84", "type": "electric_scooter", "lat": 38.93154716666667, "is_reserved": 0, "lon": -77.03892583333334, "fusion_lon": 0.0, "is_disabled": 0, "fusion_lat": 0.0, "bike_id": "888a191b4a683fa2a5cb250326b8ea84", "rental_uris": {"ios": "https://dc.lft.to/lastmile_qr_scan", "android": "https://dc.lft.to/lastmile_qr_scan"}}, {"name": "dee1c8b878a882a14455a53dea5510d1", "type": "electric_scooter", "lat": 38.892241166666665, "is_reserved": 0, "lon": -77.043309, "fusion_lon": 0.0, "is_disabled": 0, "fusion_lat": 0.0, "bike_id": "dee1c8b878a882a14455a53dea5510d1", "rental_uris": {"ios": "https://dc.lft.to/lastmile_qr_scan", "android": "https://dc.lft.to/lastmile_qr_scan"}}, {"name": "aafb275e7e5282c5535fe5f21830ae14", "type": "electric_scooter", "lat": 38.892356666666664, "is_reserved": 0, "lon": -77.02801166666667, "fusion_lon": 0.0, "is_disabled": 0, "fusion_lat": 0.0, "bike_id": "aafb275e7e5282c5535fe5f21830ae14", "rental_uris": {"ios": "https://dc.lft.to/lastmile_qr_scan", "android": "https://dc.lft.to/lastmile_qr_scan"}}, {"name": "e6081577cefe0000eb181b70a561e3f0", "type": "electric_scooter", "lat": 38.892323166666664, "is_reserved": 0, "lon": -77.05002816666666, "fusion_lon": 0.0, "is_disabled": 0, "fusion_lat": 0.0, "bike_id": "e6081577cefe0000eb181b70a561e3f0", "rental_uris": {"ios": "https://dc.lft.to/lastmile_qr_scan", "android": "https://dc.lft.to/lastmile_qr_scan"}}, {"name": "6372b9059f915e468fb0b76e3a2ebd45", "type": "electric_scooter", "lat": 38.87407116666667, "is_reserved": 0, "lon": -77.00053683333333, "fusion_lon": 0.0, "is_disabled": 0, "fusion_lat": 0.0, "bike_id": "6372b9059f915e468fb0b76e3a2ebd45", "rental_uris": {"ios": "https://dc.lft.to/lastmile_qr_scan", "android": "https://dc.lft.to/lastmile_qr_scan"}}, {"name": "dbced88f9f6cd69020846019cfaa7567", "type": "electric_scooter", "lat": 38.883608333333335, "is_reserved": 0, "lon": -77.0317515, "fusion_lon": 0.0, "is_disabled": 0, "fusion_lat": 0.0, "bike_id": "dbced88f9f6cd69020846019cfaa7567", "rental_uris": {"ios": "https://dc.lft.to/lastmile_qr_scan", "android": "https://dc.lft.to/lastmile_qr_scan"}}, {"name": "0619e0d3282cb7ef6304aadd234953c7", "type": "electric_bike", "lat": 38.893539833333335, "is_reserved": 0, "lon": -77.187397, "fusion_lon": 0.0, "is_disabled": 0, "fusion_lat": 0.0, "bike_id": "0619e0d3282cb7ef6304aadd234953c7", "rental_uris": {"ios": "https://dc.lft.to/lastmile_qr_scan", "android": "https://dc.lft.to/lastmile_qr_scan"}}, {"name": "8d3e7d2f26205295b4f5e416c2f6891d", "type": "electric_scooter", "lat": 38.90663283333333, "is_reserved": 0, "lon": -77.075468, "fusion_lon": 0.0, "is_disabled": 0, "fusion_lat": 0.0, "bike_id": "8d3e7d2f26205295b4f5e416c2f6891d", "rental_uris": {"ios": "https://dc.lft.to/lastmile_qr_scan", "android": "https://dc.lft.to/lastmile_qr_scan"}}, {"name": "ad423661bcccacb80f69e02263dc3eae", "type": "electric_scooter", "lat": 38.9086665, "is_reserved": 0, "lon": -77.03225016666667, "fusion_lon": 0.0, "is_disabled": 0, "fusion_lat": 0.0, "bike_id": "ad423661bcccacb80f69e02263dc3eae", "rental_uris": {"ios": "https://dc.lft.to/lastmile_qr_scan", "android": "https://dc.lft.to/lastmile_qr_scan"}}, {"name": "14f452505bbf536d99e5afd400a07da6", "type": "electric_bike", "lat": 38.950840166666666, "is_reserved": 0, "lon": -77.0123035, "fusion_lon": 0.0, "is_disabled": 0, "fusion_lat": 0.0, "bike_id": "14f452505bbf536d99e5afd400a07da6", "rental_uris": {"ios": "https://dc.lft.to/lastmile_qr_scan", "android": "https://dc.lft.to/lastmile_qr_scan"}}, {"name": "9507b5c301b6c83b2b69083aed5c37a3", "type": "electric_scooter", "lat": 38.93529383333333, "is_reserved": 0, "lon": -77.02858766666667, "fusion_lon": 0.0, "is_disabled": 0, "fusion_lat": 0.0, "bike_id": "9507b5c301b6c83b2b69083aed5c37a3", "rental_uris": {"ios": "https://dc.lft.to/lastmile_qr_scan", "android": "https://dc.lft.to/lastmile_qr_scan"}}, {"name": "b4e2e5389d6760e870d33c9ef864345b", "type": "electric_scooter", "lat": 38.91256833333333, "is_reserved": 0, "lon": -77.00958516666667, "fusion_lon": 0.0, "is_disabled": 0, "fusion_lat": 0.0, "bike_id": "b4e2e5389d6760e870d33c9ef864345b", "rental_uris": {"ios": "https://dc.lft.to/lastmile_qr_scan", "android": "https://dc.lft.to/lastmile_qr_scan"}}, {"name": "9c367dfe7c98fcd0759c45f66939024a", "type": "electric_scooter", "lat": 38.92343233333333, "is_reserved": 0, "lon": -77.05082233333333, "fusion_lon": 0.0, "is_disabled": 0, "fusion_lat": 0.0, "bike_id": "9c367dfe7c98fcd0759c45f66939024a", "rental_uris": {"ios": "https://dc.lft.to/lastmile_qr_scan", "android": "https://dc.lft.to/lastmile_qr_scan"}}, {"name": "dca0d4ebb7823668d7ddd7a0e9bf604f", "type": "electric_scooter", "lat": 38.91810516666666, "is_reserved": 0, "lon": -77.03442766666667, "fusion_lon": 0.0, "is_disabled": 0, "fusion_lat": 0.0, "bike_id": "dca0d4ebb7823668d7ddd7a0e9bf604f", "rental_uris": {"ios": "https://dc.lft.to/lastmile_qr_scan", "android": "https://dc.lft.to/lastmile_qr_scan"}}, {"name": "6e1159d0e6faa8a7ac3872781f4d8711", "type": "electric_scooter", "lat": 38.926359833333336, "is_reserved": 0, "lon": -77.0346665, "fusion_lon": 0.0, "is_disabled": 0, "fusion_lat": 0.0, "bike_id": "6e1159d0e6faa8a7ac3872781f4d8711", "rental_uris": {"ios": "https://dc.lft.to/lastmile_qr_scan", "android": "https://dc.lft.to/lastmile_qr_scan"}}, {"name": "275afd3343c53fef372e8f4486b42b62", "type": "electric_scooter", "lat": 38.89671, "is_reserved": 0, "lon": -77.02608383333333, "fusion_lon": 0.0, "is_disabled": 0, "fusion_lat": 0.0, "bike_id": "275afd3343c53fef372e8f4486b42b62", "rental_uris": {"ios": "https://dc.lft.to/lastmile_qr_scan", "android": "https://dc.lft.to/lastmile_qr_scan"}}, {"name": "ee25cb36e5fedfe38019b5d2a0fd56d3", "type": "electric_scooter", "lat": 38.92966, "is_reserved": 0, "lon": -77.00540416666666, "fusion_lon": 0.0, "is_disabled": 0, "fusion_lat": 0.0, "bike_id": "ee25cb36e5fedfe38019b5d2a0fd56d3", "rental_uris": {"ios": "https://dc.lft.to/lastmile_qr_scan", "android": "https://dc.lft.to/lastmile_qr_scan"}}, {"name": "dd214df8911444da8f8d8d49f088ffc2", "type": "electric_scooter", "lat": 38.887771, "is_reserved": 0, "lon": -76.9326345, "fusion_lon": 0.0, "is_disabled": 0, "fusion_lat": 0.0, "bike_id": "dd214df8911444da8f8d8d49f088ffc2", "rental_uris": {"ios": "https://dc.lft.to/lastmile_qr_scan", "android": "https://dc.lft.to/lastmile_qr_scan"}}, {"name": "86b343ca7b95e9467b11e0cb548e2e0e", "type": "electric_scooter", "lat": 38.922495833333336, "is_reserved": 0, "lon": -77.03473283333334, "fusion_lon": 0.0, "is_disabled": 0, "fusion_lat": 0.0, "bike_id": "86b343ca7b95e9467b11e0cb548e2e0e", "rental_uris": {"ios": "https://dc.lft.to/lastmile_qr_scan", "android": "https://dc.lft.to/lastmile_qr_scan"}}, {"name": "8e54daf0b86cbcb06f8bdd3a257c6cd7", "type": "electric_scooter", "lat": 38.939674333333336, "is_reserved": 0, "lon": -77.027525, "fusion_lon": 0.0, "is_disabled": 0, "fusion_lat": 0.0, "bike_id": "8e54daf0b86cbcb06f8bdd3a257c6cd7", "rental_uris": {"ios": "https://dc.lft.to/lastmile_qr_scan", "android": "https://dc.lft.to/lastmile_qr_scan"}}, {"name": "252000de021fa45dfdc305f691af5b1d", "type": "electric_bike", "lat": 38.83234516666667, "is_reserved": 0, "lon": -76.94621316666667, "fusion_lon": 0.0, "is_disabled": 0, "fusion_lat": 0.0, "bike_id": "252000de021fa45dfdc305f691af5b1d", "rental_uris": {"ios": "https://dc.lft.to/lastmile_qr_scan", "android": "https://dc.lft.to/lastmile_qr_scan"}}, {"name": "0e9bcf058337b1fd9c7e0036c5c83738", "type": "electric_scooter", "lat": 38.9448245, "is_reserved": 0, "lon": -77.06383816666667, "fusion_lon": 0.0, "is_disabled": 0, "fusion_lat": 0.0, "bike_id": "0e9bcf058337b1fd9c7e0036c5c83738", "rental_uris": {"ios": "https://dc.lft.to/lastmile_qr_scan", "android": "https://dc.lft.to/lastmile_qr_scan"}}, {"name": "a0a34facb6afc9d2458f73f0bfcaea1b", "type": "electric_scooter", "lat": 38.931119, "is_reserved": 0, "lon": -77.03810633333333, "fusion_lon": 0.0, "is_disabled": 0, "fusion_lat": 0.0, "bike_id": "a0a34facb6afc9d2458f73f0bfcaea1b", "rental_uris": {"ios": "https://dc.lft.to/lastmile_qr_scan", "android": "https://dc.lft.to/lastmile_qr_scan"}}, {"name": "ba5711a59aa9d57e6ad4ac63c2bb2370", "type": "electric_scooter", "lat": 38.9088415, "is_reserved": 0, "lon": -77.03845216666667, "fusion_lon": 0.0, "is_disabled": 0, "fusion_lat": 0.0, "bike_id": "ba5711a59aa9d57e6ad4ac63c2bb2370", "rental_uris": {"ios": "https://dc.lft.to/lastmile_qr_scan", "android": "https://dc.lft.to/lastmile_qr_scan"}}, {"name": "a2375eadec20854b7b454e55d8f71872", "type": "electric_scooter", "lat": 38.86522333333333, "is_reserved": 0, "lon": -76.9903105, "fusion_lon": 0.0, "is_disabled": 0, "fusion_lat": 0.0, "bike_id": "a2375eadec20854b7b454e55d8f71872", "rental_uris": {"ios": "https://dc.lft.to/lastmile_qr_scan", "android": "https://dc.lft.to/lastmile_qr_scan"}}, {"name": "b3a22b39242d65b6d80dfa24a5981e67", "type": "electric_scooter", "lat": 38.89557933333333, "is_reserved": 0, "lon": -77.050045, "fusion_lon": 0.0, "is_disabled": 0, "fusion_lat": 0.0, "bike_id": "b3a22b39242d65b6d80dfa24a5981e67", "rental_uris": {"ios": "https://dc.lft.to/lastmile_qr_scan", "android": "https://dc.lft.to/lastmile_qr_scan"}}, {"name": "ac25c7cecd6eeed950d4e8ab5cbc74cd", "type": "electric_scooter", "lat": 38.9552585, "is_reserved": 0, "lon": -77.06983616666666, "fusion_lon": 0.0, "is_disabled": 0, "fusion_lat": 0.0, "bike_id": "ac25c7cecd6eeed950d4e8ab5cbc74cd", "rental_uris": {"ios": "https://dc.lft.to/lastmile_qr_scan", "android": "https://dc.lft.to/lastmile_qr_scan"}}, {"name": "c947d496a615e864a6c0178284d7db00", "type": "electric_scooter", "lat": 38.921259166666665, "is_reserved": 0, "lon": -77.03892933333333, "fusion_lon": 0.0, "is_disabled": 0, "fusion_lat": 0.0, "bike_id": "c947d496a615e864a6c0178284d7db00", "rental_uris": {"ios": "https://dc.lft.to/lastmile_qr_scan", "android": "https://dc.lft.to/lastmile_qr_scan"}}, {"name": "3c1fd8be3244128dfaf66778e7816c7d", "type": "electric_scooter", "lat": 38.89935416666667, "is_reserved": 0, "lon": -77.02968366666667, "fusion_lon": 0.0, "is_disabled": 0, "fusion_lat": 0.0, "bike_id": "3c1fd8be3244128dfaf66778e7816c7d", "rental_uris": {"ios": "https://dc.lft.to/lastmile_qr_scan", "android": "https://dc.lft.to/lastmile_qr_scan"}}, {"name": "644ad7e0e4ff6692d8ce315a6faccf6c", "type": "electric_scooter", "lat": 38.919437, "is_reserved": 0, "lon": -77.04553983333334, "fusion_lon": 0.0, "is_disabled": 0, "fusion_lat": 0.0, "bike_id": "644ad7e0e4ff6692d8ce315a6faccf6c", "rental_uris": {"ios": "https://dc.lft.to/lastmile_qr_scan", "android": "https://dc.lft.to/lastmile_qr_scan"}}, {"name": "d6a7134e36ab2804fd35fe9f01b18ee1", "type": "electric_scooter", "lat": 38.93356766666667, "is_reserved": 0, "lon": -77.033698, "fusion_lon": 0.0, "is_disabled": 0, "fusion_lat": 0.0, "bike_id": "d6a7134e36ab2804fd35fe9f01b18ee1", "rental_uris": {"ios": "https://dc.lft.to/lastmile_qr_scan", "android": "https://dc.lft.to/lastmile_qr_scan"}}, {"name": "b680fa0720d30dc8b6842375af12ea82", "type": "electric_scooter", "lat": 38.89982233333333, "is_reserved": 0, "lon": -77.02966466666666, "fusion_lon": 0.0, "is_disabled": 0, "fusion_lat": 0.0, "bike_id": "b680fa0720d30dc8b6842375af12ea82", "rental_uris": {"ios": "https://dc.lft.to/lastmile_qr_scan", "android": "https://dc.lft.to/lastmile_qr_scan"}}, {"name": "a1ac3fca297e4583d2f171411cc08172", "type": "electric_scooter", "lat": 38.9137975, "is_reserved": 0, "lon": -77.04657283333333, "fusion_lon": 0.0, "is_disabled": 0, "fusion_lat": 0.0, "bike_id": "a1ac3fca297e4583d2f171411cc08172", "rental_uris": {"ios": "https://dc.lft.to/lastmile_qr_scan", "android": "https://dc.lft.to/lastmile_qr_scan"}}, {"name": "b9a1e3459383e7f526f41bbcc3d249d2", "type": "electric_scooter", "lat": 38.90246966666667, "is_reserved": 0, "lon": -77.04479933333333, "fusion_lon": 0.0, "is_disabled": 0, "fusion_lat": 0.0, "bike_id": "b9a1e3459383e7f526f41bbcc3d249d2", "rental_uris": {"ios": "https://dc.lft.to/lastmile_qr_scan", "android": "https://dc.lft.to/lastmile_qr_scan"}}, {"name": "7c5ca8bc8c1194a9d9c6e7a8b3b79d38", "type": "electric_scooter", "lat": 38.91258366666667, "is_reserved": 0, "lon": -77.03869916666666, "fusion_lon": 0.0, "is_disabled": 0, "fusion_lat": 0.0, "bike_id": "7c5ca8bc8c1194a9d9c6e7a8b3b79d38", "rental_uris": {"ios": "https://dc.lft.to/lastmile_qr_scan", "android": "https://dc.lft.to/lastmile_qr_scan"}}, {"name": "575bc0290a8f072df1c772c87ae7d902", "type": "electric_scooter", "lat": 38.94277533333333, "is_reserved": 0, "lon": -77.02504616666667, "fusion_lon": 0.0, "is_disabled": 0, "fusion_lat": 0.0, "bike_id": "575bc0290a8f072df1c772c87ae7d902", "rental_uris": {"ios": "https://dc.lft.to/lastmile_qr_scan", "android": "https://dc.lft.to/lastmile_qr_scan"}}, {"name": "c48b8e7fcde441d6339769480ef5c62d", "type": "electric_scooter", "lat": 38.923658333333336, "is_reserved": 0, "lon": -77.05027366666667, "fusion_lon": 0.0, "is_disabled": 0, "fusion_lat": 0.0, "bike_id": "c48b8e7fcde441d6339769480ef5c62d", "rental_uris": {"ios": "https://dc.lft.to/lastmile_qr_scan", "android": "https://dc.lft.to/lastmile_qr_scan"}}, {"name": "c5d26d35d87e24bff28dd418f7eb4212", "type": "electric_scooter", "lat": 38.86650366666667, "is_reserved": 0, "lon": -76.98888583333333, "fusion_lon": 0.0, "is_disabled": 0, "fusion_lat": 0.0, "bike_id": "c5d26d35d87e24bff28dd418f7eb4212", "rental_uris": {"ios": "https://dc.lft.to/lastmile_qr_scan", "android": "https://dc.lft.to/lastmile_qr_scan"}}, {"name": "205653f36b5cafbc338104d588547d63", "type": "electric_scooter", "lat": 38.926231333333334, "is_reserved": 0, "lon": -77.0370555, "fusion_lon": 0.0, "is_disabled": 0, "fusion_lat": 0.0, "bike_id": "205653f36b5cafbc338104d588547d63", "rental_uris": {"ios": "https://dc.lft.to/lastmile_qr_scan", "android": "https://dc.lft.to/lastmile_qr_scan"}}, {"name": "f071a643ea1793c2c5e35e12f0fd3546", "type": "electric_scooter", "lat": 38.88564316666667, "is_reserved": 0, "lon": -77.00576883333333, "fusion_lon": 0.0, "is_disabled": 0, "fusion_lat": 0.0, "bike_id": "f071a643ea1793c2c5e35e12f0fd3546", "rental_uris": {"ios": "https://dc.lft.to/lastmile_qr_scan", "android": "https://dc.lft.to/lastmile_qr_scan"}}, {"name": "7f9fb993d66bc48a761f4c1b1f89ccc3", "type": "electric_scooter", "lat": 38.89630783333333, "is_reserved": 0, "lon": -77.0323965, "fusion_lon": 0.0, "is_disabled": 0, "fusion_lat": 0.0, "bike_id": "7f9fb993d66bc48a761f4c1b1f89ccc3", "rental_uris": {"ios": "https://dc.lft.to/lastmile_qr_scan", "android": "https://dc.lft.to/lastmile_qr_scan"}}, {"name": "e468f2df0fa755182073a6505c4a30d4", "type": "electric_scooter", "lat": 38.895994, "is_reserved": 0, "lon": -77.0270825, "fusion_lon": 0.0, "is_disabled": 0, "fusion_lat": 0.0, "bike_id": "e468f2df0fa755182073a6505c4a30d4", "rental_uris": {"ios": "https://dc.lft.to/lastmile_qr_scan", "android": "https://dc.lft.to/lastmile_qr_scan"}}, {"name": "e2453f3f334bd1c400ac25e7e63f9d4a", "type": "electric_scooter", "lat": 38.925635166666666, "is_reserved": 0, "lon": -77.02281166666667, "fusion_lon": 0.0, "is_disabled": 0, "fusion_lat": 0.0, "bike_id": "e2453f3f334bd1c400ac25e7e63f9d4a", "rental_uris": {"ios": "https://dc.lft.to/lastmile_qr_scan", "android": "https://dc.lft.to/lastmile_qr_scan"}}, {"name": "41ea37d8043fc7a50713787d1f4d8295", "type": "electric_scooter", "lat": 38.90565866666667, "is_reserved": 0, "lon": -77.02221783333333, "fusion_lon": 0.0, "is_disabled": 0, "fusion_lat": 0.0, "bike_id": "41ea37d8043fc7a50713787d1f4d8295", "rental_uris": {"ios": "https://dc.lft.to/lastmile_qr_scan", "android": "https://dc.lft.to/lastmile_qr_scan"}}, {"name": "614502aa89f4816e2276ecdb048a74b8", "type": "electric_scooter", "lat": 38.947834, "is_reserved": 0, "lon": -77.067647, "fusion_lon": 0.0, "is_disabled": 0, "fusion_lat": 0.0, "bike_id": "614502aa89f4816e2276ecdb048a74b8", "rental_uris": {"ios": "https://dc.lft.to/lastmile_qr_scan", "android": "https://dc.lft.to/lastmile_qr_scan"}}, {"name": "526f23542f9a5463a5f1d7118181f188", "type": "electric_bike", "lat": 38.89576616666667, "is_reserved": 0, "lon": -77.12710333333334, "fusion_lon": 0.0, "is_disabled": 0, "fusion_lat": 0.0, "bike_id": "526f23542f9a5463a5f1d7118181f188", "rental_uris": {"ios": "https://dc.lft.to/lastmile_qr_scan", "android": "https://dc.lft.to/lastmile_qr_scan"}}, {"name": "6a2cae3d9faf283a650406b4a890b529", "type": "electric_bike", "lat": 38.97344283333334, "is_reserved": 0, "lon": -77.10041516666666, "fusion_lon": 0.0, "is_disabled": 0, "fusion_lat": 0.0, "bike_id": "6a2cae3d9faf283a650406b4a890b529", "rental_uris": {"ios": "https://dc.lft.to/lastmile_qr_scan", "android": "https://dc.lft.to/lastmile_qr_scan"}}, {"name": "79b0e3479b438576b05cfa0c8dde71b8", "type": "electric_scooter", "lat": 38.9171995, "is_reserved": 0, "lon": -77.01863583333333, "fusion_lon": 0.0, "is_disabled": 0, "fusion_lat": 0.0, "bike_id": "79b0e3479b438576b05cfa0c8dde71b8", "rental_uris": {"ios": "https://dc.lft.to/lastmile_qr_scan", "android": "https://dc.lft.to/lastmile_qr_scan"}}, {"name": "7b5693c66c717532a749d9fa4fe6cf9c", "type": "electric_scooter", "lat": 38.90960783333333, "is_reserved": 0, "lon": -77.0479395, "fusion_lon": 0.0, "is_disabled": 0, "fusion_lat": 0.0, "bike_id": "7b5693c66c717532a749d9fa4fe6cf9c", "rental_uris": {"ios": "https://dc.lft.to/lastmile_qr_scan", "android": "https://dc.lft.to/lastmile_qr_scan"}}, {"name": "1781ac5bace0172f52c26d5d60632514", "type": "electric_scooter", "lat": 38.92170216666667, "is_reserved": 0, "lon": -77.03848983333333, "fusion_lon": 0.0, "is_disabled": 0, "fusion_lat": 0.0, "bike_id": "1781ac5bace0172f52c26d5d60632514", "rental_uris": {"ios": "https://dc.lft.to/lastmile_qr_scan", "android": "https://dc.lft.to/lastmile_qr_scan"}}, {"name": "a1f13c35a02885c2c163702f61348465", "type": "electric_scooter", "lat": 38.89725516666667, "is_reserved": 0, "lon": -77.00977316666666, "fusion_lon": 0.0, "is_disabled": 0, "fusion_lat": 0.0, "bike_id": "a1f13c35a02885c2c163702f61348465", "rental_uris": {"ios": "https://dc.lft.to/lastmile_qr_scan", "android": "https://dc.lft.to/lastmile_qr_scan"}}, {"name": "1a9ee6e60ce3ffb1327b6449f7916e08", "type": "electric_bike", "lat": 38.902961166666664, "is_reserved": 0, "lon": -76.94441383333333, "fusion_lon": 0.0, "is_disabled": 0, "fusion_lat": 0.0, "bike_id": "1a9ee6e60ce3ffb1327b6449f7916e08", "rental_uris": {"ios": "https://dc.lft.to/lastmile_qr_scan", "android": "https://dc.lft.to/lastmile_qr_scan"}}, {"name": "227f70cc01400cbb6dcd5a6df3c58f63", "type": "electric_scooter", "lat": 38.9214805, "is_reserved": 0, "lon": -77.03510733333333, "fusion_lon": 0.0, "is_disabled": 0, "fusion_lat": 0.0, "bike_id": "227f70cc01400cbb6dcd5a6df3c58f63", "rental_uris": {"ios": "https://dc.lft.to/lastmile_qr_scan", "android": "https://dc.lft.to/lastmile_qr_scan"}}, {"name": "e307b59f346f19f932154ad7f1f08b9e", "type": "electric_scooter", "lat": 38.912124166666665, "is_reserved": 0, "lon": -77.07597733333333, "fusion_lon": 0.0, "is_disabled": 0, "fusion_lat": 0.0, "bike_id": "e307b59f346f19f932154ad7f1f08b9e", "rental_uris": {"ios": "https://dc.lft.to/lastmile_qr_scan", "android": "https://dc.lft.to/lastmile_qr_scan"}}, {"name": "a19d1d9e93d81e2a56c28060743df323", "type": "electric_scooter", "lat": 38.90571966666667, "is_reserved": 0, "lon": -77.05703233333334, "fusion_lon": 0.0, "is_disabled": 0, "fusion_lat": 0.0, "bike_id": "a19d1d9e93d81e2a56c28060743df323", "rental_uris": {"ios": "https://dc.lft.to/lastmile_qr_scan", "android": "https://dc.lft.to/lastmile_qr_scan"}}, {"name": "2b8090160f05335d2d79527821db152a", "type": "electric_scooter", "lat": 38.974746, "is_reserved": 0, "lon": -77.018996, "fusion_lon": 0.0, "is_disabled": 0, "fusion_lat": 0.0, "bike_id": "2b8090160f05335d2d79527821db152a", "rental_uris": {"ios": "https://dc.lft.to/lastmile_qr_scan", "android": "https://dc.lft.to/lastmile_qr_scan"}}, {"name": "4526e3bf67539b8a3465fd520c6e72b1", "type": "electric_scooter", "lat": 38.9444645, "is_reserved": 0, "lon": -77.063528, "fusion_lon": 0.0, "is_disabled": 0, "fusion_lat": 0.0, "bike_id": "4526e3bf67539b8a3465fd520c6e72b1", "rental_uris": {"ios": "https://dc.lft.to/lastmile_qr_scan", "android": "https://dc.lft.to/lastmile_qr_scan"}}, {"name": "3a9c89074a0552d3094b42213f0e68e3", "type": "electric_scooter", "lat": 38.842942666666666, "is_reserved": 0, "lon": -76.99947616666667, "fusion_lon": 0.0, "is_disabled": 0, "fusion_lat": 0.0, "bike_id": "3a9c89074a0552d3094b42213f0e68e3", "rental_uris": {"ios": "https://dc.lft.to/lastmile_qr_scan", "android": "https://dc.lft.to/lastmile_qr_scan"}}, {"name": "7705bce1633668a8ad3acc19dfc82977", "type": "electric_scooter", "lat": 38.90132966666667, "is_reserved": 0, "lon": -77.04443483333333, "fusion_lon": 0.0, "is_disabled": 0, "fusion_lat": 0.0, "bike_id": "7705bce1633668a8ad3acc19dfc82977", "rental_uris": {"ios": "https://dc.lft.to/lastmile_qr_scan", "android": "https://dc.lft.to/lastmile_qr_scan"}}, {"name": "9ff16ee5b087134504ad0b1ea11d311b", "type": "electric_scooter", "lat": 38.9056905, "is_reserved": 0, "lon": -77.02494433333334, "fusion_lon": 0.0, "is_disabled": 0, "fusion_lat": 0.0, "bike_id": "9ff16ee5b087134504ad0b1ea11d311b", "rental_uris": {"ios": "https://dc.lft.to/lastmile_qr_scan", "android": "https://dc.lft.to/lastmile_qr_scan"}}, {"name": "364f4a273ebe1297aee7af8e061d2332", "type": "electric_scooter", "lat": 38.8973575, "is_reserved": 0, "lon": -76.9471675, "fusion_lon": 0.0, "is_disabled": 0, "fusion_lat": 0.0, "bike_id": "364f4a273ebe1297aee7af8e061d2332", "rental_uris": {"ios": "https://dc.lft.to/lastmile_qr_scan", "android": "https://dc.lft.to/lastmile_qr_scan"}}, {"name": "d09d8512010999282784deca1812284b", "type": "electric_scooter", "lat": 38.92033833333333, "is_reserved": 0, "lon": -77.011167, "fusion_lon": 0.0, "is_disabled": 0, "fusion_lat": 0.0, "bike_id": "d09d8512010999282784deca1812284b", "rental_uris": {"ios": "https://dc.lft.to/lastmile_qr_scan", "android": "https://dc.lft.to/lastmile_qr_scan"}}, {"name": "c357fc064bd730c70db34b3c0f4d37a4", "type": "electric_scooter", "lat": 38.905254166666666, "is_reserved": 0, "lon": -77.050447, "fusion_lon": 0.0, "is_disabled": 0, "fusion_lat": 0.0, "bike_id": "c357fc064bd730c70db34b3c0f4d37a4", "rental_uris": {"ios": "https://dc.lft.to/lastmile_qr_scan", "android": "https://dc.lft.to/lastmile_qr_scan"}}, {"name": "5779e7b1fd39be051a856ecb997019af", "type": "electric_scooter", "lat": 38.90243533333334, "is_reserved": 0, "lon": -77.03163816666667, "fusion_lon": 0.0, "is_disabled": 0, "fusion_lat": 0.0, "bike_id": "5779e7b1fd39be051a856ecb997019af", "rental_uris": {"ios": "https://dc.lft.to/lastmile_qr_scan", "android": "https://dc.lft.to/lastmile_qr_scan"}}, {"name": "1a56ba6bee39c7ed8c9ed1450b81873e", "type": "electric_scooter", "lat": 38.89907683333333, "is_reserved": 0, "lon": -76.9334715, "fusion_lon": 0.0, "is_disabled": 0, "fusion_lat": 0.0, "bike_id": "1a56ba6bee39c7ed8c9ed1450b81873e", "rental_uris": {"ios": "https://dc.lft.to/lastmile_qr_scan", "android": "https://dc.lft.to/lastmile_qr_scan"}}, {"name": "437d702fae8f4778bf5c07a02ea2f210", "type": "electric_bike", "lat": 38.857875, "is_reserved": 0, "lon": -77.09962633333333, "fusion_lon": 0.0, "is_disabled": 0, "fusion_lat": 0.0, "bike_id": "437d702fae8f4778bf5c07a02ea2f210", "rental_uris": {"ios": "https://dc.lft.to/lastmile_qr_scan", "android": "https://dc.lft.to/lastmile_qr_scan"}}, {"name": "b6b11da14b26d7b44c910aea4375460f", "type": "electric_bike", "lat": 38.8753035, "is_reserved": 0, "lon": -77.19907883333333, "fusion_lon": 0.0, "is_disabled": 0, "fusion_lat": 0.0, "bike_id": "b6b11da14b26d7b44c910aea4375460f", "rental_uris": {"ios": "https://dc.lft.to/lastmile_qr_scan", "android": "https://dc.lft.to/lastmile_qr_scan"}}, {"name": "d9819d28d90f870d1e9137467742cafe", "type": "electric_scooter", "lat": 38.92727633333333, "is_reserved": 0, "lon": -77.00567316666667, "fusion_lon": 0.0, "is_disabled": 0, "fusion_lat": 0.0, "bike_id": "d9819d28d90f870d1e9137467742cafe", "rental_uris": {"ios": "https://dc.lft.to/lastmile_qr_scan", "android": "https://dc.lft.to/lastmile_qr_scan"}}, {"name": "03adf2e2f035995d3ff46d58634ea7fe", "type": "electric_bike", "lat": 39.094604833333335, "is_reserved": 0, "lon": -77.14992333333333, "fusion_lon": 0.0, "is_disabled": 0, "fusion_lat": 0.0, "bike_id": "03adf2e2f035995d3ff46d58634ea7fe", "rental_uris": {"ios": "https://dc.lft.to/lastmile_qr_scan", "android": "https://dc.lft.to/lastmile_qr_scan"}}, {"name": "5f10dd4f98775ce731c1e789cee4fee2", "type": "electric_scooter", "lat": 38.923481, "is_reserved": 0, "lon": -77.03396316666667, "fusion_lon": 0.0, "is_disabled": 0, "fusion_lat": 0.0, "bike_id": "5f10dd4f98775ce731c1e789cee4fee2", "rental_uris": {"ios": "https://dc.lft.to/lastmile_qr_scan", "android": "https://dc.lft.to/lastmile_qr_scan"}}, {"name": "ff387f476d6e7d45758c721193e43bcc", "type": "electric_bike", "lat": 38.9149175, "is_reserved": 0, "lon": -77.01858466666667, "fusion_lon": 0.0, "is_disabled": 0, "fusion_lat": 0.0, "bike_id": "ff387f476d6e7d45758c721193e43bcc", "rental_uris": {"ios": "https://dc.lft.to/lastmile_qr_scan", "android": "https://dc.lft.to/lastmile_qr_scan"}}, {"name": "f294d2196318d1ee64e4a7871d5854dd", "type": "electric_scooter", "lat": 38.89014916666667, "is_reserved": 0, "lon": -76.93730783333334, "fusion_lon": 0.0, "is_disabled": 0, "fusion_lat": 0.0, "bike_id": "f294d2196318d1ee64e4a7871d5854dd", "rental_uris": {"ios": "https://dc.lft.to/lastmile_qr_scan", "android": "https://dc.lft.to/lastmile_qr_scan"}}, {"name": "c25ec071999288e77a3eef4e432be141", "type": "electric_scooter", "lat": 38.8963525, "is_reserved": 0, "lon": -77.039706, "fusion_lon": 0.0, "is_disabled": 0, "fusion_lat": 0.0, "bike_id": "c25ec071999288e77a3eef4e432be141", "rental_uris": {"ios": "https://dc.lft.to/lastmile_qr_scan", "android": "https://dc.lft.to/lastmile_qr_scan"}}, {"name": "b8b18d736bb1d7ea370dd6b222b7238a", "type": "electric_bike", "lat": 38.840691166666666, "is_reserved": 0, "lon": -77.06400666666667, "fusion_lon": 0.0, "is_disabled": 0, "fusion_lat": 0.0, "bike_id": "b8b18d736bb1d7ea370dd6b222b7238a", "rental_uris": {"ios": "https://dc.lft.to/lastmile_qr_scan", "android": "https://dc.lft.to/lastmile_qr_scan"}}, {"name": "16d9a493346d7b15597827658db31344", "type": "electric_scooter", "lat": 38.8949875, "is_reserved": 0, "lon": -77.00215516666667, "fusion_lon": 0.0, "is_disabled": 0, "fusion_lat": 0.0, "bike_id": "16d9a493346d7b15597827658db31344", "rental_uris": {"ios": "https://dc.lft.to/lastmile_qr_scan", "android": "https://dc.lft.to/lastmile_qr_scan"}}, {"name": "c398ef8d3e3d295e05da18980283a5f5", "type": "electric_scooter", "lat": 38.862463166666664, "is_reserved": 0, "lon": -76.99497716666667, "fusion_lon": 0.0, "is_disabled": 0, "fusion_lat": 0.0, "bike_id": "c398ef8d3e3d295e05da18980283a5f5", "rental_uris": {"ios": "https://dc.lft.to/lastmile_qr_scan", "android": "https://dc.lft.to/lastmile_qr_scan"}}, {"name": "a236d004f64dbda16c455967cfe8ed89", "type": "electric_scooter", "lat": 38.928833833333336, "is_reserved": 0, "lon": -77.03230066666667, "fusion_lon": 0.0, "is_disabled": 0, "fusion_lat": 0.0, "bike_id": "a236d004f64dbda16c455967cfe8ed89", "rental_uris": {"ios": "https://dc.lft.to/lastmile_qr_scan", "android": "https://dc.lft.to/lastmile_qr_scan"}}, {"name": "d97fa823403fa264bd2fd0e24425a30e", "type": "electric_bike", "lat": 38.942714333333335, "is_reserved": 0, "lon": -76.98071183333333, "fusion_lon": 0.0, "is_disabled": 0, "fusion_lat": 0.0, "bike_id": "d97fa823403fa264bd2fd0e24425a30e", "rental_uris": {"ios": "https://dc.lft.to/lastmile_qr_scan", "android": "https://dc.lft.to/lastmile_qr_scan"}}, {"name": "86992a9d817de98bd0d5b1264cce2ba5", "type": "electric_scooter", "lat": 38.8988505, "is_reserved": 0, "lon": -76.93175133333334, "fusion_lon": 0.0, "is_disabled": 0, "fusion_lat": 0.0, "bike_id": "86992a9d817de98bd0d5b1264cce2ba5", "rental_uris": {"ios": "https://dc.lft.to/lastmile_qr_scan", "android": "https://dc.lft.to/lastmile_qr_scan"}}, {"name": "f7a3880f37641060febb992ceca04146", "type": "electric_scooter", "lat": 38.94633566666667, "is_reserved": 0, "lon": -77.01922416666666, "fusion_lon": 0.0, "is_disabled": 0, "fusion_lat": 0.0, "bike_id": "f7a3880f37641060febb992ceca04146", "rental_uris": {"ios": "https://dc.lft.to/lastmile_qr_scan", "android": "https://dc.lft.to/lastmile_qr_scan"}}, {"name": "d87e3806ca1d82f1947f5ed80afdfe2c", "type": "electric_scooter", "lat": 38.8666535, "is_reserved": 0, "lon": -76.988895, "fusion_lon": 0.0, "is_disabled": 0, "fusion_lat": 0.0, "bike_id": "d87e3806ca1d82f1947f5ed80afdfe2c", "rental_uris": {"ios": "https://dc.lft.to/lastmile_qr_scan", "android": "https://dc.lft.to/lastmile_qr_scan"}}, {"name": "290f12c00bb781027653c75cb3bf9002", "type": "electric_scooter", "lat": 38.91009666666667, "is_reserved": 0, "lon": -76.99388933333333, "fusion_lon": 0.0, "is_disabled": 0, "fusion_lat": 0.0, "bike_id": "290f12c00bb781027653c75cb3bf9002", "rental_uris": {"ios": "https://dc.lft.to/lastmile_qr_scan", "android": "https://dc.lft.to/lastmile_qr_scan"}}, {"name": "9322f43e40968dca08b02721788b461c", "type": "electric_scooter", "lat": 38.911105666666664, "is_reserved": 0, "lon": -77.01187233333333, "fusion_lon": 0.0, "is_disabled": 0, "fusion_lat": 0.0, "bike_id": "9322f43e40968dca08b02721788b461c", "rental_uris": {"ios": "https://dc.lft.to/lastmile_qr_scan", "android": "https://dc.lft.to/lastmile_qr_scan"}}, {"name": "1fc75d2cd99e82a4ee32d979a476ccfa", "type": "electric_scooter", "lat": 38.926456, "is_reserved": 0, "lon": -77.03702866666667, "fusion_lon": 0.0, "is_disabled": 0, "fusion_lat": 0.0, "bike_id": "1fc75d2cd99e82a4ee32d979a476ccfa", "rental_uris": {"ios": "https://dc.lft.to/lastmile_qr_scan", "android": "https://dc.lft.to/lastmile_qr_scan"}}, {"name": "15b6de839c723d902244ed9dd1e2f89e", "type": "electric_scooter", "lat": 38.91680916666667, "is_reserved": 0, "lon": -77.03602333333333, "fusion_lon": 0.0, "is_disabled": 0, "fusion_lat": 0.0, "bike_id": "15b6de839c723d902244ed9dd1e2f89e", "rental_uris": {"ios": "https://dc.lft.to/lastmile_qr_scan", "android": "https://dc.lft.to/lastmile_qr_scan"}}, {"name": "8bd3ba0f6acfcefb153346c017f849e5", "type": "electric_scooter", "lat": 38.884595833333336, "is_reserved": 0, "lon": -76.99314116666666, "fusion_lon": 0.0, "is_disabled": 0, "fusion_lat": 0.0, "bike_id": "8bd3ba0f6acfcefb153346c017f849e5", "rental_uris": {"ios": "https://dc.lft.to/lastmile_qr_scan", "android": "https://dc.lft.to/lastmile_qr_scan"}}, {"name": "33dbe35d7acdf463f8714b4898de284d", "type": "electric_scooter", "lat": 38.8960585, "is_reserved": 0, "lon": -77.0101515, "fusion_lon": 0.0, "is_disabled": 0, "fusion_lat": 0.0, "bike_id": "33dbe35d7acdf463f8714b4898de284d", "rental_uris": {"ios": "https://dc.lft.to/lastmile_qr_scan", "android": "https://dc.lft.to/lastmile_qr_scan"}}, {"name": "78e8f23ea41a0626d5402fb418f62281", "type": "electric_scooter", "lat": 38.9082685, "is_reserved": 0, "lon": -77.04346233333334, "fusion_lon": 0.0, "is_disabled": 0, "fusion_lat": 0.0, "bike_id": "78e8f23ea41a0626d5402fb418f62281", "rental_uris": {"ios": "https://dc.lft.to/lastmile_qr_scan", "android": "https://dc.lft.to/lastmile_qr_scan"}}, {"name": "ae5f7b71d9d508c5d76fea8af6d08abc", "type": "electric_scooter", "lat": 38.91551883333333, "is_reserved": 0, "lon": -77.03125583333333, "fusion_lon": 0.0, "is_disabled": 0, "fusion_lat": 0.0, "bike_id": "ae5f7b71d9d508c5d76fea8af6d08abc", "rental_uris": {"ios": "https://dc.lft.to/lastmile_qr_scan", "android": "https://dc.lft.to/lastmile_qr_scan"}}, {"name": "47ea66fa035f553cd2cfa20f2226900e", "type": "electric_scooter", "lat": 38.914842166666666, "is_reserved": 0, "lon": -77.04081566666666, "fusion_lon": 0.0, "is_disabled": 0, "fusion_lat": 0.0, "bike_id": "47ea66fa035f553cd2cfa20f2226900e", "rental_uris": {"ios": "https://dc.lft.to/lastmile_qr_scan", "android": "https://dc.lft.to/lastmile_qr_scan"}}, {"name": "8414f5ebc9f6538c93dc4c83175cd3e3", "type": "electric_scooter", "lat": 38.905619, "is_reserved": 0, "lon": -77.00594583333333, "fusion_lon": 0.0, "is_disabled": 0, "fusion_lat": 0.0, "bike_id": "8414f5ebc9f6538c93dc4c83175cd3e3", "rental_uris": {"ios": "https://dc.lft.to/lastmile_qr_scan", "android": "https://dc.lft.to/lastmile_qr_scan"}}, {"name": "cb22f2b63e2e5394d48bcbdb62694199", "type": "electric_scooter", "lat": 38.911075333333336, "is_reserved": 0, "lon": -77.04228366666666, "fusion_lon": 0.0, "is_disabled": 0, "fusion_lat": 0.0, "bike_id": "cb22f2b63e2e5394d48bcbdb62694199", "rental_uris": {"ios": "https://dc.lft.to/lastmile_qr_scan", "android": "https://dc.lft.to/lastmile_qr_scan"}}, {"name": "a4ee6b91e7e27783a884fca3b5b29e77", "type": "electric_scooter", "lat": 38.9071895, "is_reserved": 0, "lon": -77.02506633333333, "fusion_lon": 0.0, "is_disabled": 0, "fusion_lat": 0.0, "bike_id": "a4ee6b91e7e27783a884fca3b5b29e77", "rental_uris": {"ios": "https://dc.lft.to/lastmile_qr_scan", "android": "https://dc.lft.to/lastmile_qr_scan"}}, {"name": "a3173196b6172511708a938d919648d3", "type": "electric_scooter", "lat": 38.91549083333334, "is_reserved": 0, "lon": -77.02449033333333, "fusion_lon": 0.0, "is_disabled": 0, "fusion_lat": 0.0, "bike_id": "a3173196b6172511708a938d919648d3", "rental_uris": {"ios": "https://dc.lft.to/lastmile_qr_scan", "android": "https://dc.lft.to/lastmile_qr_scan"}}, {"name": "fa68c3fa4db164b0b5604cc1d05b6c7e", "type": "electric_scooter", "lat": 38.93451666666667, "is_reserved": 0, "lon": -77.07236983333334, "fusion_lon": 0.0, "is_disabled": 0, "fusion_lat": 0.0, "bike_id": "fa68c3fa4db164b0b5604cc1d05b6c7e", "rental_uris": {"ios": "https://dc.lft.to/lastmile_qr_scan", "android": "https://dc.lft.to/lastmile_qr_scan"}}, {"name": "9f4533173becf03aed97bb53c7a502d7", "type": "electric_scooter", "lat": 38.90524716666667, "is_reserved": 0, "lon": -77.06626583333333, "fusion_lon": 0.0, "is_disabled": 0, "fusion_lat": 0.0, "bike_id": "9f4533173becf03aed97bb53c7a502d7", "rental_uris": {"ios": "https://dc.lft.to/lastmile_qr_scan", "android": "https://dc.lft.to/lastmile_qr_scan"}}, {"name": "112a0b8ee1353271550435f3d05d0046", "type": "electric_bike", "lat": 38.895432166666666, "is_reserved": 0, "lon": -76.98491433333334, "fusion_lon": 0.0, "is_disabled": 0, "fusion_lat": 0.0, "bike_id": "112a0b8ee1353271550435f3d05d0046", "rental_uris": {"ios": "https://dc.lft.to/lastmile_qr_scan", "android": "https://dc.lft.to/lastmile_qr_scan"}}, {"name": "10d0246af848a80b76b5778dcbf023e2", "type": "electric_scooter", "lat": 38.86538266666667, "is_reserved": 0, "lon": -76.9870465, "fusion_lon": 0.0, "is_disabled": 0, "fusion_lat": 0.0, "bike_id": "10d0246af848a80b76b5778dcbf023e2", "rental_uris": {"ios": "https://dc.lft.to/lastmile_qr_scan", "android": "https://dc.lft.to/lastmile_qr_scan"}}, {"name": "89fedfaba8f6fb6cba2af947dec44bb9", "type": "electric_scooter", "lat": 38.92741066666667, "is_reserved": 0, "lon": -77.012008, "fusion_lon": 0.0, "is_disabled": 0, "fusion_lat": 0.0, "bike_id": "89fedfaba8f6fb6cba2af947dec44bb9", "rental_uris": {"ios": "https://dc.lft.to/lastmile_qr_scan", "android": "https://dc.lft.to/lastmile_qr_scan"}}, {"name": "d1dbac6d5c06a7b5424e65e66dc5a038", "type": "electric_bike", "lat": 38.935221, "is_reserved": 0, "lon": -76.95061716666666, "fusion_lon": 0.0, "is_disabled": 0, "fusion_lat": 0.0, "bike_id": "d1dbac6d5c06a7b5424e65e66dc5a038", "rental_uris": {"ios": "https://dc.lft.to/lastmile_qr_scan", "android": "https://dc.lft.to/lastmile_qr_scan"}}, {"name": "ec7256dbd42f085b25692e42baa0a3e7", "type": "electric_scooter", "lat": 38.8624595, "is_reserved": 0, "lon": -76.99498683333333, "fusion_lon": 0.0, "is_disabled": 0, "fusion_lat": 0.0, "bike_id": "ec7256dbd42f085b25692e42baa0a3e7", "rental_uris": {"ios": "https://dc.lft.to/lastmile_qr_scan", "android": "https://dc.lft.to/lastmile_qr_scan"}}, {"name": "a8f1fabe82c191852067702209a8cca5", "type": "electric_scooter", "lat": 38.901404, "is_reserved": 0, "lon": -77.040136, "fusion_lon": 0.0, "is_disabled": 0, "fusion_lat": 0.0, "bike_id": "a8f1fabe82c191852067702209a8cca5", "rental_uris": {"ios": "https://dc.lft.to/lastmile_qr_scan", "android": "https://dc.lft.to/lastmile_qr_scan"}}, {"name": "04c3a07f9751c048180f5d3686e8e68b", "type": "electric_bike", "lat": 39.08854216666667, "is_reserved": 0, "lon": -77.17843783333333, "fusion_lon": 0.0, "is_disabled": 0, "fusion_lat": 0.0, "bike_id": "04c3a07f9751c048180f5d3686e8e68b", "rental_uris": {"ios": "https://dc.lft.to/lastmile_qr_scan", "android": "https://dc.lft.to/lastmile_qr_scan"}}, {"name": "907d36f735b1034420e96765ec0a2709", "type": "electric_scooter", "lat": 38.956514166666665, "is_reserved": 0, "lon": -77.03291, "fusion_lon": 0.0, "is_disabled": 0, "fusion_lat": 0.0, "bike_id": "907d36f735b1034420e96765ec0a2709", "rental_uris": {"ios": "https://dc.lft.to/lastmile_qr_scan", "android": "https://dc.lft.to/lastmile_qr_scan"}}, {"name": "69b42fa84757fccb5fc96cf1387fe162", "type": "electric_scooter", "lat": 38.906891, "is_reserved": 0, "lon": -77.03261983333333, "fusion_lon": 0.0, "is_disabled": 0, "fusion_lat": 0.0, "bike_id": "69b42fa84757fccb5fc96cf1387fe162", "rental_uris": {"ios": "https://dc.lft.to/lastmile_qr_scan", "android": "https://dc.lft.to/lastmile_qr_scan"}}, {"name": "7e32e3813be52ac19089741522827dd2", "type": "electric_scooter", "lat": 38.900688833333334, "is_reserved": 0, "lon": -77.050213, "fusion_lon": 0.0, "is_disabled": 0, "fusion_lat": 0.0, "bike_id": "7e32e3813be52ac19089741522827dd2", "rental_uris": {"ios": "https://dc.lft.to/lastmile_qr_scan", "android": "https://dc.lft.to/lastmile_qr_scan"}}, {"name": "237ae2ed128157e90781e5d4cd08c0b8", "type": "electric_scooter", "lat": 38.906682833333335, "is_reserved": 0, "lon": -77.0272235, "fusion_lon": 0.0, "is_disabled": 0, "fusion_lat": 0.0, "bike_id": "237ae2ed128157e90781e5d4cd08c0b8", "rental_uris": {"ios": "https://dc.lft.to/lastmile_qr_scan", "android": "https://dc.lft.to/lastmile_qr_scan"}}, {"name": "6c4cfeca0128f523ede9929c969b9e4a", "type": "electric_scooter", "lat": 38.901104333333336, "is_reserved": 0, "lon": -77.0422005, "fusion_lon": 0.0, "is_disabled": 0, "fusion_lat": 0.0, "bike_id": "6c4cfeca0128f523ede9929c969b9e4a", "rental_uris": {"ios": "https://dc.lft.to/lastmile_qr_scan", "android": "https://dc.lft.to/lastmile_qr_scan"}}, {"name": "0960070d196ff51531857eb6eca99bd2", "type": "electric_bike", "lat": 38.90555066666667, "is_reserved": 0, "lon": -77.0570635, "fusion_lon": 0.0, "is_disabled": 0, "fusion_lat": 0.0, "bike_id": "0960070d196ff51531857eb6eca99bd2", "rental_uris": {"ios": "https://dc.lft.to/lastmile_qr_scan", "android": "https://dc.lft.to/lastmile_qr_scan"}}, {"name": "a84561785f61724bdfc4ed9302d11b13", "type": "electric_scooter", "lat": 38.89773016666667, "is_reserved": 0, "lon": -77.0281215, "fusion_lon": 0.0, "is_disabled": 0, "fusion_lat": 0.0, "bike_id": "a84561785f61724bdfc4ed9302d11b13", "rental_uris": {"ios": "https://dc.lft.to/lastmile_qr_scan", "android": "https://dc.lft.to/lastmile_qr_scan"}}, {"name": "72a37bca6d53f158a2aa946b56a35b94", "type": "electric_bike", "lat": 38.928493, "is_reserved": 0, "lon": -77.222177, "fusion_lon": 0.0, "is_disabled": 0, "fusion_lat": 0.0, "bike_id": "72a37bca6d53f158a2aa946b56a35b94", "rental_uris": {"ios": "https://dc.lft.to/lastmile_qr_scan", "android": "https://dc.lft.to/lastmile_qr_scan"}}, {"name": "e7f605bb53aa0a33e07d81adc87d276a", "type": "electric_scooter", "lat": 38.933515166666666, "is_reserved": 0, "lon": -77.06936033333334, "fusion_lon": 0.0, "is_disabled": 0, "fusion_lat": 0.0, "bike_id": "e7f605bb53aa0a33e07d81adc87d276a", "rental_uris": {"ios": "https://dc.lft.to/lastmile_qr_scan", "android": "https://dc.lft.to/lastmile_qr_scan"}}, {"name": "1e2cf4a9ea460207b1d2c6979beffd46", "type": "electric_scooter", "lat": 38.937665, "is_reserved": 0, "lon": -77.0328455, "fusion_lon": 0.0, "is_disabled": 0, "fusion_lat": 0.0, "bike_id": "1e2cf4a9ea460207b1d2c6979beffd46", "rental_uris": {"ios": "https://dc.lft.to/lastmile_qr_scan", "android": "https://dc.lft.to/lastmile_qr_scan"}}, {"name": "ece9f0c8e7ecefdf49fe9ff483a33aec", "type": "electric_scooter", "lat": 38.89368283333334, "is_reserved": 0, "lon": -76.94997666666667, "fusion_lon": 0.0, "is_disabled": 0, "fusion_lat": 0.0, "bike_id": "ece9f0c8e7ecefdf49fe9ff483a33aec", "rental_uris": {"ios": "https://dc.lft.to/lastmile_qr_scan", "android": "https://dc.lft.to/lastmile_qr_scan"}}, {"name": "b905cf692e33dcbcb2e92693227826f8", "type": "electric_scooter", "lat": 38.90266116666667, "is_reserved": 0, "lon": -77.03848883333333, "fusion_lon": 0.0, "is_disabled": 0, "fusion_lat": 0.0, "bike_id": "b905cf692e33dcbcb2e92693227826f8", "rental_uris": {"ios": "https://dc.lft.to/lastmile_qr_scan", "android": "https://dc.lft.to/lastmile_qr_scan"}}, {"name": "90a706c491035516cbcc5f77c392fefc", "type": "electric_scooter", "lat": 38.919872166666664, "is_reserved": 0, "lon": -77.034846, "fusion_lon": 0.0, "is_disabled": 0, "fusion_lat": 0.0, "bike_id": "90a706c491035516cbcc5f77c392fefc", "rental_uris": {"ios": "https://dc.lft.to/lastmile_qr_scan", "android": "https://dc.lft.to/lastmile_qr_scan"}}, {"name": "6c0f38d00147780e9f738d428611f25c", "type": "electric_scooter", "lat": 38.90378883333333, "is_reserved": 0, "lon": -77.01640816666666, "fusion_lon": 0.0, "is_disabled": 0, "fusion_lat": 0.0, "bike_id": "6c0f38d00147780e9f738d428611f25c", "rental_uris": {"ios": "https://dc.lft.to/lastmile_qr_scan", "android": "https://dc.lft.to/lastmile_qr_scan"}}, {"name": "cc7fd0f76041ae3672bfa7f4be12ce0f", "type": "electric_scooter", "lat": 38.91185333333333, "is_reserved": 0, "lon": -77.045378, "fusion_lon": 0.0, "is_disabled": 0, "fusion_lat": 0.0, "bike_id": "cc7fd0f76041ae3672bfa7f4be12ce0f", "rental_uris": {"ios": "https://dc.lft.to/lastmile_qr_scan", "android": "https://dc.lft.to/lastmile_qr_scan"}}, {"name": "55fdf6773eb79fa94a030147b22ba6b5", "type": "electric_scooter", "lat": 38.892016166666664, "is_reserved": 0, "lon": -77.00235166666667, "fusion_lon": 0.0, "is_disabled": 0, "fusion_lat": 0.0, "bike_id": "55fdf6773eb79fa94a030147b22ba6b5", "rental_uris": {"ios": "https://dc.lft.to/lastmile_qr_scan", "android": "https://dc.lft.to/lastmile_qr_scan"}}, {"name": "03cf91f3c3aa067126587e84f83c7376", "type": "electric_scooter", "lat": 38.95649816666667, "is_reserved": 0, "lon": -77.03284016666667, "fusion_lon": 0.0, "is_disabled": 0, "fusion_lat": 0.0, "bike_id": "03cf91f3c3aa067126587e84f83c7376", "rental_uris": {"ios": "https://dc.lft.to/lastmile_qr_scan", "android": "https://dc.lft.to/lastmile_qr_scan"}}, {"name": "ea75eec48d502fe70fb3ecbd087d68ab", "type": "electric_scooter", "lat": 38.92484016666667, "is_reserved": 0, "lon": -77.05211383333334, "fusion_lon": 0.0, "is_disabled": 0, "fusion_lat": 0.0, "bike_id": "ea75eec48d502fe70fb3ecbd087d68ab", "rental_uris": {"ios": "https://dc.lft.to/lastmile_qr_scan", "android": "https://dc.lft.to/lastmile_qr_scan"}}, {"name": "b6a99ce04f84dcff6c2aba1050357716", "type": "electric_scooter", "lat": 38.902808, "is_reserved": 0, "lon": -77.036516, "fusion_lon": 0.0, "is_disabled": 0, "fusion_lat": 0.0, "bike_id": "b6a99ce04f84dcff6c2aba1050357716", "rental_uris": {"ios": "https://dc.lft.to/lastmile_qr_scan", "android": "https://dc.lft.to/lastmile_qr_scan"}}, {"name": "951357c1496f46e17b74ae83fbbd4c49", "type": "electric_scooter", "lat": 38.90260116666666, "is_reserved": 0, "lon": -77.03853733333334, "fusion_lon": 0.0, "is_disabled": 0, "fusion_lat": 0.0, "bike_id": "951357c1496f46e17b74ae83fbbd4c49", "rental_uris": {"ios": "https://dc.lft.to/lastmile_qr_scan", "android": "https://dc.lft.to/lastmile_qr_scan"}}, {"name": "91a57d60a325097023f258031007af1e", "type": "electric_bike", "lat": 39.003758, "is_reserved": 0, "lon": -77.01289183333333, "fusion_lon": 0.0, "is_disabled": 0, "fusion_lat": 0.0, "bike_id": "91a57d60a325097023f258031007af1e", "rental_uris": {"ios": "https://dc.lft.to/lastmile_qr_scan", "android": "https://dc.lft.to/lastmile_qr_scan"}}, {"name": "f47bfef38c22c9ce00d67b5ed1be4d21", "type": "electric_scooter", "lat": 38.858048833333335, "is_reserved": 0, "lon": -76.99122066666666, "fusion_lon": 0.0, "is_disabled": 0, "fusion_lat": 0.0, "bike_id": "f47bfef38c22c9ce00d67b5ed1be4d21", "rental_uris": {"ios": "https://dc.lft.to/lastmile_qr_scan", "android": "https://dc.lft.to/lastmile_qr_scan"}}, {"name": "9e77bf802ebc056d1f95fbfc7e0468bf", "type": "electric_scooter", "lat": 38.91572466666667, "is_reserved": 0, "lon": -77.03192783333333, "fusion_lon": 0.0, "is_disabled": 0, "fusion_lat": 0.0, "bike_id": "9e77bf802ebc056d1f95fbfc7e0468bf", "rental_uris": {"ios": "https://dc.lft.to/lastmile_qr_scan", "android": "https://dc.lft.to/lastmile_qr_scan"}}, {"name": "fe60fc3b7741f47009c06b6cabb50d41", "type": "electric_scooter", "lat": 38.89428683333333, "is_reserved": 0, "lon": -76.93259983333333, "fusion_lon": 0.0, "is_disabled": 0, "fusion_lat": 0.0, "bike_id": "fe60fc3b7741f47009c06b6cabb50d41", "rental_uris": {"ios": "https://dc.lft.to/lastmile_qr_scan", "android": "https://dc.lft.to/lastmile_qr_scan"}}, {"name": "f4ae27d071a565459f4a23feb5cd9aae", "type": "electric_scooter", "lat": 38.901463166666666, "is_reserved": 0, "lon": -77.043891, "fusion_lon": 0.0, "is_disabled": 0, "fusion_lat": 0.0, "bike_id": "f4ae27d071a565459f4a23feb5cd9aae", "rental_uris": {"ios": "https://dc.lft.to/lastmile_qr_scan", "android": "https://dc.lft.to/lastmile_qr_scan"}}, {"name": "0c3340424dfe74d5d7ecc85af7246449", "type": "electric_scooter", "lat": 38.934241, "is_reserved": 0, "lon": -77.04423883333334, "fusion_lon": 0.0, "is_disabled": 0, "fusion_lat": 0.0, "bike_id": "0c3340424dfe74d5d7ecc85af7246449", "rental_uris": {"ios": "https://dc.lft.to/lastmile_qr_scan", "android": "https://dc.lft.to/lastmile_qr_scan"}}, {"name": "bce46bc93e4c72ddaa8fe4c44f654a57", "type": "electric_scooter", "lat": 38.919086166666666, "is_reserved": 0, "lon": -77.03106816666667, "fusion_lon": 0.0, "is_disabled": 0, "fusion_lat": 0.0, "bike_id": "bce46bc93e4c72ddaa8fe4c44f654a57", "rental_uris": {"ios": "https://dc.lft.to/lastmile_qr_scan", "android": "https://dc.lft.to/lastmile_qr_scan"}}, {"name": "718f6d159342e97fc716338b568162be", "type": "electric_scooter", "lat": 38.91262666666667, "is_reserved": 0, "lon": -77.037295, "fusion_lon": 0.0, "is_disabled": 0, "fusion_lat": 0.0, "bike_id": "718f6d159342e97fc716338b568162be", "rental_uris": {"ios": "https://dc.lft.to/lastmile_qr_scan", "android": "https://dc.lft.to/lastmile_qr_scan"}}, {"name": "4a0a60e6846fc51007c4ecac8361d0b0", "type": "electric_scooter", "lat": 38.91807933333333, "is_reserved": 0, "lon": -77.02494316666667, "fusion_lon": 0.0, "is_disabled": 0, "fusion_lat": 0.0, "bike_id": "4a0a60e6846fc51007c4ecac8361d0b0", "rental_uris": {"ios": "https://dc.lft.to/lastmile_qr_scan", "android": "https://dc.lft.to/lastmile_qr_scan"}}, {"name": "3ff740f64c903095f46bfd75db069090", "type": "electric_scooter", "lat": 38.883731166666664, "is_reserved": 0, "lon": -76.9237175, "fusion_lon": 0.0, "is_disabled": 0, "fusion_lat": 0.0, "bike_id": "3ff740f64c903095f46bfd75db069090", "rental_uris": {"ios": "https://dc.lft.to/lastmile_qr_scan", "android": "https://dc.lft.to/lastmile_qr_scan"}}, {"name": "51e469d9232da59c43c55bee92dec0a0", "type": "electric_scooter", "lat": 38.86653866666666, "is_reserved": 0, "lon": -76.98886666666667, "fusion_lon": 0.0, "is_disabled": 0, "fusion_lat": 0.0, "bike_id": "51e469d9232da59c43c55bee92dec0a0", "rental_uris": {"ios": "https://dc.lft.to/lastmile_qr_scan", "android": "https://dc.lft.to/lastmile_qr_scan"}}, {"name": "cec4345efae52c3bf9b3373a07c25b38", "type": "electric_scooter", "lat": 38.92512833333333, "is_reserved": 0, "lon": -77.0332705, "fusion_lon": 0.0, "is_disabled": 0, "fusion_lat": 0.0, "bike_id": "cec4345efae52c3bf9b3373a07c25b38", "rental_uris": {"ios": "https://dc.lft.to/lastmile_qr_scan", "android": "https://dc.lft.to/lastmile_qr_scan"}}, {"name": "91403fd565f3cc3c085e8ae70dd14950", "type": "electric_scooter", "lat": 38.923603166666666, "is_reserved": 0, "lon": -77.05836816666667, "fusion_lon": 0.0, "is_disabled": 0, "fusion_lat": 0.0, "bike_id": "91403fd565f3cc3c085e8ae70dd14950", "rental_uris": {"ios": "https://dc.lft.to/lastmile_qr_scan", "android": "https://dc.lft.to/lastmile_qr_scan"}}, {"name": "e0afe51ede29031612209f2a54a2ddcc", "type": "electric_scooter", "lat": 38.925171, "is_reserved": 0, "lon": -77.00176833333333, "fusion_lon": 0.0, "is_disabled": 0, "fusion_lat": 0.0, "bike_id": "e0afe51ede29031612209f2a54a2ddcc", "rental_uris": {"ios": "https://dc.lft.to/lastmile_qr_scan", "android": "https://dc.lft.to/lastmile_qr_scan"}}, {"name": "5bccd1f53f1e890ed1d1640c0353cfa1", "type": "electric_scooter", "lat": 38.920032166666665, "is_reserved": 0, "lon": -77.03156916666667, "fusion_lon": 0.0, "is_disabled": 0, "fusion_lat": 0.0, "bike_id": "5bccd1f53f1e890ed1d1640c0353cfa1", "rental_uris": {"ios": "https://dc.lft.to/lastmile_qr_scan", "android": "https://dc.lft.to/lastmile_qr_scan"}}, {"name": "1db3dbd75d572a2380eb7d20c6620ab9", "type": "electric_scooter", "lat": 38.895109166666664, "is_reserved": 0, "lon": -77.01130733333333, "fusion_lon": 0.0, "is_disabled": 0, "fusion_lat": 0.0, "bike_id": "1db3dbd75d572a2380eb7d20c6620ab9", "rental_uris": {"ios": "https://dc.lft.to/lastmile_qr_scan", "android": "https://dc.lft.to/lastmile_qr_scan"}}, {"name": "ac4ed4b21befa0398f560e7d6587411f", "type": "electric_scooter", "lat": 38.905251666666665, "is_reserved": 0, "lon": -77.05332816666666, "fusion_lon": 0.0, "is_disabled": 0, "fusion_lat": 0.0, "bike_id": "ac4ed4b21befa0398f560e7d6587411f", "rental_uris": {"ios": "https://dc.lft.to/lastmile_qr_scan", "android": "https://dc.lft.to/lastmile_qr_scan"}}, {"name": "2ac7eb97f4463818247e9a5247abf81c", "type": "electric_scooter", "lat": 38.91438616666667, "is_reserved": 0, "lon": -77.02211433333333, "fusion_lon": 0.0, "is_disabled": 0, "fusion_lat": 0.0, "bike_id": "2ac7eb97f4463818247e9a5247abf81c", "rental_uris": {"ios": "https://dc.lft.to/lastmile_qr_scan", "android": "https://dc.lft.to/lastmile_qr_scan"}}, {"name": "3f13035809728d6c9fdd13eb6a3b509f", "type": "electric_scooter", "lat": 38.86245016666667, "is_reserved": 0, "lon": -76.99493933333333, "fusion_lon": 0.0, "is_disabled": 0, "fusion_lat": 0.0, "bike_id": "3f13035809728d6c9fdd13eb6a3b509f", "rental_uris": {"ios": "https://dc.lft.to/lastmile_qr_scan", "android": "https://dc.lft.to/lastmile_qr_scan"}}, {"name": "56e3682c58964e266ca1b3004b6954df", "type": "electric_scooter", "lat": 38.917074, "is_reserved": 0, "lon": -77.0288565, "fusion_lon": 0.0, "is_disabled": 0, "fusion_lat": 0.0, "bike_id": "56e3682c58964e266ca1b3004b6954df", "rental_uris": {"ios": "https://dc.lft.to/lastmile_qr_scan", "android": "https://dc.lft.to/lastmile_qr_scan"}}, {"name": "91be2266de179aa849c269f3e72ea6c8", "type": "electric_bike", "lat": 38.9590955, "is_reserved": 0, "lon": -77.0015345, "fusion_lon": 0.0, "is_disabled": 0, "fusion_lat": 0.0, "bike_id": "91be2266de179aa849c269f3e72ea6c8", "rental_uris": {"ios": "https://dc.lft.to/lastmile_qr_scan", "android": "https://dc.lft.to/lastmile_qr_scan"}}, {"name": "b2c349f898f52995838ae1cd13acc299", "type": "electric_scooter", "lat": 38.87712766666667, "is_reserved": 0, "lon": -77.01753466666666, "fusion_lon": 0.0, "is_disabled": 0, "fusion_lat": 0.0, "bike_id": "b2c349f898f52995838ae1cd13acc299", "rental_uris": {"ios": "https://dc.lft.to/lastmile_qr_scan", "android": "https://dc.lft.to/lastmile_qr_scan"}}, {"name": "1ff8eaecb8f0075b8c5ef5ef4d5bae77", "type": "electric_scooter", "lat": 38.898312833333335, "is_reserved": 0, "lon": -77.02502333333334, "fusion_lon": 0.0, "is_disabled": 0, "fusion_lat": 0.0, "bike_id": "1ff8eaecb8f0075b8c5ef5ef4d5bae77", "rental_uris": {"ios": "https://dc.lft.to/lastmile_qr_scan", "android": "https://dc.lft.to/lastmile_qr_scan"}}, {"name": "11c1ffbf1428393b53b9e907f1e6cbfb", "type": "electric_scooter", "lat": 38.897004333333335, "is_reserved": 0, "lon": -77.03255533333333, "fusion_lon": 0.0, "is_disabled": 0, "fusion_lat": 0.0, "bike_id": "11c1ffbf1428393b53b9e907f1e6cbfb", "rental_uris": {"ios": "https://dc.lft.to/lastmile_qr_scan", "android": "https://dc.lft.to/lastmile_qr_scan"}}, {"name": "067c2762b0d317f5515e36991b2804dd", "type": "electric_scooter", "lat": 38.932208833333334, "is_reserved": 0, "lon": -77.028474, "fusion_lon": 0.0, "is_disabled": 0, "fusion_lat": 0.0, "bike_id": "067c2762b0d317f5515e36991b2804dd", "rental_uris": {"ios": "https://dc.lft.to/lastmile_qr_scan", "android": "https://dc.lft.to/lastmile_qr_scan"}}, {"name": "95ff56744be3da34749bd035e4aa28a4", "type": "electric_scooter", "lat": 38.8994135, "is_reserved": 0, "lon": -77.03107833333334, "fusion_lon": 0.0, "is_disabled": 0, "fusion_lat": 0.0, "bike_id": "95ff56744be3da34749bd035e4aa28a4", "rental_uris": {"ios": "https://dc.lft.to/lastmile_qr_scan", "android": "https://dc.lft.to/lastmile_qr_scan"}}, {"name": "df4084187637a4eb92fd808b8f6a6e07", "type": "electric_scooter", "lat": 38.8935115, "is_reserved": 0, "lon": -76.949507, "fusion_lon": 0.0, "is_disabled": 0, "fusion_lat": 0.0, "bike_id": "df4084187637a4eb92fd808b8f6a6e07", "rental_uris": {"ios": "https://dc.lft.to/lastmile_qr_scan", "android": "https://dc.lft.to/lastmile_qr_scan"}}, {"name": "de782071e437f9f7209c28c7dbea0ae3", "type": "electric_bike", "lat": 38.96750016666667, "is_reserved": 0, "lon": -77.0335205, "fusion_lon": 0.0, "is_disabled": 0, "fusion_lat": 0.0, "bike_id": "de782071e437f9f7209c28c7dbea0ae3", "rental_uris": {"ios": "https://dc.lft.to/lastmile_qr_scan", "android": "https://dc.lft.to/lastmile_qr_scan"}}, {"name": "b12a0ecf9a1d09738ff6fa9e80570ca3", "type": "electric_scooter", "lat": 38.90103716666667, "is_reserved": 0, "lon": -77.04021066666667, "fusion_lon": 0.0, "is_disabled": 0, "fusion_lat": 0.0, "bike_id": "b12a0ecf9a1d09738ff6fa9e80570ca3", "rental_uris": {"ios": "https://dc.lft.to/lastmile_qr_scan", "android": "https://dc.lft.to/lastmile_qr_scan"}}, {"name": "4e3e6160bde4fb5e9045a9e46bd71213", "type": "electric_scooter", "lat": 38.901651, "is_reserved": 0, "lon": -77.02520533333333, "fusion_lon": 0.0, "is_disabled": 0, "fusion_lat": 0.0, "bike_id": "4e3e6160bde4fb5e9045a9e46bd71213", "rental_uris": {"ios": "https://dc.lft.to/lastmile_qr_scan", "android": "https://dc.lft.to/lastmile_qr_scan"}}, {"name": "cdf7407e32256aa77d1c76e751781020", "type": "electric_scooter", "lat": 38.91869783333333, "is_reserved": 0, "lon": -77.04351233333334, "fusion_lon": 0.0, "is_disabled": 0, "fusion_lat": 0.0, "bike_id": "cdf7407e32256aa77d1c76e751781020", "rental_uris": {"ios": "https://dc.lft.to/lastmile_qr_scan", "android": "https://dc.lft.to/lastmile_qr_scan"}}, {"name": "a1637f7e0ba7d71cce7c6e34cd6e875c", "type": "electric_scooter", "lat": 38.90268833333333, "is_reserved": 0, "lon": -77.03838583333334, "fusion_lon": 0.0, "is_disabled": 0, "fusion_lat": 0.0, "bike_id": "a1637f7e0ba7d71cce7c6e34cd6e875c", "rental_uris": {"ios": "https://dc.lft.to/lastmile_qr_scan", "android": "https://dc.lft.to/lastmile_qr_scan"}}, {"name": "67226f5d319a8c89f13f02afa0d8172f", "type": "electric_scooter", "lat": 38.887537, "is_reserved": 0, "lon": -76.97981516666667, "fusion_lon": 0.0, "is_disabled": 0, "fusion_lat": 0.0, "bike_id": "67226f5d319a8c89f13f02afa0d8172f", "rental_uris": {"ios": "https://dc.lft.to/lastmile_qr_scan", "android": "https://dc.lft.to/lastmile_qr_scan"}}, {"name": "11b87fa1ab0591fa90638fc50386b0ae", "type": "electric_scooter", "lat": 38.93887983333333, "is_reserved": 0, "lon": -77.02461783333334, "fusion_lon": 0.0, "is_disabled": 0, "fusion_lat": 0.0, "bike_id": "11b87fa1ab0591fa90638fc50386b0ae", "rental_uris": {"ios": "https://dc.lft.to/lastmile_qr_scan", "android": "https://dc.lft.to/lastmile_qr_scan"}}, {"name": "bb9ee9b0c83fae0ffb1d3b31659a0a0c", "type": "electric_scooter", "lat": 38.91916, "is_reserved": 0, "lon": -77.03391316666666, "fusion_lon": 0.0, "is_disabled": 0, "fusion_lat": 0.0, "bike_id": "bb9ee9b0c83fae0ffb1d3b31659a0a0c", "rental_uris": {"ios": "https://dc.lft.to/lastmile_qr_scan", "android": "https://dc.lft.to/lastmile_qr_scan"}}, {"name": "3ccb9e8d2bcf4091991da8fa79eb4997", "type": "electric_scooter", "lat": 38.919129166666664, "is_reserved": 0, "lon": -77.02616766666667, "fusion_lon": 0.0, "is_disabled": 0, "fusion_lat": 0.0, "bike_id": "3ccb9e8d2bcf4091991da8fa79eb4997", "rental_uris": {"ios": "https://dc.lft.to/lastmile_qr_scan", "android": "https://dc.lft.to/lastmile_qr_scan"}}, {"name": "b5f40965810ec951d48fec316a7731c0", "type": "electric_scooter", "lat": 38.89627216666667, "is_reserved": 0, "lon": -77.032267, "fusion_lon": 0.0, "is_disabled": 0, "fusion_lat": 0.0, "bike_id": "b5f40965810ec951d48fec316a7731c0", "rental_uris": {"ios": "https://dc.lft.to/lastmile_qr_scan", "android": "https://dc.lft.to/lastmile_qr_scan"}}, {"name": "ea9e0f52e1166bad7fb667a4d12e7dce", "type": "electric_scooter", "lat": 38.88395083333333, "is_reserved": 0, "lon": -76.93045783333334, "fusion_lon": 0.0, "is_disabled": 0, "fusion_lat": 0.0, "bike_id": "ea9e0f52e1166bad7fb667a4d12e7dce", "rental_uris": {"ios": "https://dc.lft.to/lastmile_qr_scan", "android": "https://dc.lft.to/lastmile_qr_scan"}}, {"name": "bb9060707d56e75f5299246482b3df90", "type": "electric_scooter", "lat": 38.9037645, "is_reserved": 0, "lon": -77.03187216666667, "fusion_lon": 0.0, "is_disabled": 0, "fusion_lat": 0.0, "bike_id": "bb9060707d56e75f5299246482b3df90", "rental_uris": {"ios": "https://dc.lft.to/lastmile_qr_scan", "android": "https://dc.lft.to/lastmile_qr_scan"}}, {"name": "1400199b2e692250f65f13270dda03ff", "type": "electric_scooter", "lat": 38.89487583333333, "is_reserved": 0, "lon": -77.01017516666667, "fusion_lon": 0.0, "is_disabled": 0, "fusion_lat": 0.0, "bike_id": "1400199b2e692250f65f13270dda03ff", "rental_uris": {"ios": "https://dc.lft.to/lastmile_qr_scan", "android": "https://dc.lft.to/lastmile_qr_scan"}}, {"name": "ce9fbc92dde97830243089ade048a4db", "type": "electric_scooter", "lat": 38.903152666666664, "is_reserved": 0, "lon": -77.0498755, "fusion_lon": 0.0, "is_disabled": 0, "fusion_lat": 0.0, "bike_id": "ce9fbc92dde97830243089ade048a4db", "rental_uris": {"ios": "https://dc.lft.to/lastmile_qr_scan", "android": "https://dc.lft.to/lastmile_qr_scan"}}, {"name": "c2eac2b252d6b4d9b8449caaddf45f25", "type": "electric_bike", "lat": 38.886163, "is_reserved": 0, "lon": -77.107525, "fusion_lon": 0.0, "is_disabled": 0, "fusion_lat": 0.0, "bike_id": "c2eac2b252d6b4d9b8449caaddf45f25", "rental_uris": {"ios": "https://dc.lft.to/lastmile_qr_scan", "android": "https://dc.lft.to/lastmile_qr_scan"}}, {"name": "2f7dd1fb46ff92df682360e394cf024b", "type": "electric_bike", "lat": 38.9221245, "is_reserved": 0, "lon": -76.987973, "fusion_lon": 0.0, "is_disabled": 0, "fusion_lat": 0.0, "bike_id": "2f7dd1fb46ff92df682360e394cf024b", "rental_uris": {"ios": "https://dc.lft.to/lastmile_qr_scan", "android": "https://dc.lft.to/lastmile_qr_scan"}}, {"name": "261d1960091f550ed71f5f9a2025157b", "type": "electric_scooter", "lat": 38.86700366666667, "is_reserved": 0, "lon": -76.98711683333333, "fusion_lon": 0.0, "is_disabled": 0, "fusion_lat": 0.0, "bike_id": "261d1960091f550ed71f5f9a2025157b", "rental_uris": {"ios": "https://dc.lft.to/lastmile_qr_scan", "android": "https://dc.lft.to/lastmile_qr_scan"}}, {"name": "a155d434c917e94721a2e9af764e433e", "type": "electric_scooter", "lat": 38.908665166666665, "is_reserved": 0, "lon": -77.02715433333333, "fusion_lon": 0.0, "is_disabled": 0, "fusion_lat": 0.0, "bike_id": "a155d434c917e94721a2e9af764e433e", "rental_uris": {"ios": "https://dc.lft.to/lastmile_qr_scan", "android": "https://dc.lft.to/lastmile_qr_scan"}}, {"name": "4ceb5d0823a7d4e56163bc6c2bbd8bb8", "type": "electric_scooter", "lat": 38.91617383333333, "is_reserved": 0, "lon": -77.031672, "fusion_lon": 0.0, "is_disabled": 0, "fusion_lat": 0.0, "bike_id": "4ceb5d0823a7d4e56163bc6c2bbd8bb8", "rental_uris": {"ios": "https://dc.lft.to/lastmile_qr_scan", "android": "https://dc.lft.to/lastmile_qr_scan"}}, {"name": "f21ae862d6b420be2c66dec95e0cc9ec", "type": "electric_bike", "lat": 38.99090366666667, "is_reserved": 0, "lon": -76.8749765, "fusion_lon": 0.0, "is_disabled": 0, "fusion_lat": 0.0, "bike_id": "f21ae862d6b420be2c66dec95e0cc9ec", "rental_uris": {"ios": "https://dc.lft.to/lastmile_qr_scan", "android": "https://dc.lft.to/lastmile_qr_scan"}}, {"name": "8501565fc7d34d3a46a24361ba3e34b3", "type": "electric_scooter", "lat": 38.92290116666667, "is_reserved": 0, "lon": -77.02070883333333, "fusion_lon": 0.0, "is_disabled": 0, "fusion_lat": 0.0, "bike_id": "8501565fc7d34d3a46a24361ba3e34b3", "rental_uris": {"ios": "https://dc.lft.to/lastmile_qr_scan", "android": "https://dc.lft.to/lastmile_qr_scan"}}, {"name": "74a8b6e84fee6f640286b82529a51feb", "type": "electric_scooter", "lat": 38.898948833333336, "is_reserved": 0, "lon": -76.9317735, "fusion_lon": 0.0, "is_disabled": 0, "fusion_lat": 0.0, "bike_id": "74a8b6e84fee6f640286b82529a51feb", "rental_uris": {"ios": "https://dc.lft.to/lastmile_qr_scan", "android": "https://dc.lft.to/lastmile_qr_scan"}}, {"name": "366d5784c924604be53c0616c7327b1e", "type": "electric_scooter", "lat": 38.9371585, "is_reserved": 0, "lon": -77.03655383333333, "fusion_lon": 0.0, "is_disabled": 0, "fusion_lat": 0.0, "bike_id": "366d5784c924604be53c0616c7327b1e", "rental_uris": {"ios": "https://dc.lft.to/lastmile_qr_scan", "android": "https://dc.lft.to/lastmile_qr_scan"}}, {"name": "b61a319c0e0c499a04714b5b4f047e81", "type": "electric_scooter", "lat": 38.913349333333336, "is_reserved": 0, "lon": -77.03044166666666, "fusion_lon": 0.0, "is_disabled": 0, "fusion_lat": 0.0, "bike_id": "b61a319c0e0c499a04714b5b4f047e81", "rental_uris": {"ios": "https://dc.lft.to/lastmile_qr_scan", "android": "https://dc.lft.to/lastmile_qr_scan"}}, {"name": "d11a68ec49df875eb42433defb29d1dc", "type": "electric_scooter", "lat": 38.918641, "is_reserved": 0, "lon": -77.04442816666666, "fusion_lon": 0.0, "is_disabled": 0, "fusion_lat": 0.0, "bike_id": "d11a68ec49df875eb42433defb29d1dc", "rental_uris": {"ios": "https://dc.lft.to/lastmile_qr_scan", "android": "https://dc.lft.to/lastmile_qr_scan"}}, {"name": "2d7a5d681a4ceef11f94946c0bf70bc8", "type": "electric_scooter", "lat": 38.907298, "is_reserved": 0, "lon": -77.04376216666667, "fusion_lon": 0.0, "is_disabled": 0, "fusion_lat": 0.0, "bike_id": "2d7a5d681a4ceef11f94946c0bf70bc8", "rental_uris": {"ios": "https://dc.lft.to/lastmile_qr_scan", "android": "https://dc.lft.to/lastmile_qr_scan"}}, {"name": "9d7fe3039abc8c1bfc58ec8f72df920d", "type": "electric_scooter", "lat": 38.90977683333333, "is_reserved": 0, "lon": -77.041827, "fusion_lon": 0.0, "is_disabled": 0, "fusion_lat": 0.0, "bike_id": "9d7fe3039abc8c1bfc58ec8f72df920d", "rental_uris": {"ios": "https://dc.lft.to/lastmile_qr_scan", "android": "https://dc.lft.to/lastmile_qr_scan"}}, {"name": "51480a19d8b2edc61be54bdcefdae0e9", "type": "electric_bike", "lat": 38.90528033333333, "is_reserved": 0, "lon": -76.99804116666667, "fusion_lon": 0.0, "is_disabled": 0, "fusion_lat": 0.0, "bike_id": "51480a19d8b2edc61be54bdcefdae0e9", "rental_uris": {"ios": "https://dc.lft.to/lastmile_qr_scan", "android": "https://dc.lft.to/lastmile_qr_scan"}}, {"name": "b43b50a78996127712d05498292b8f69", "type": "electric_scooter", "lat": 38.915374, "is_reserved": 0, "lon": -77.04432266666667, "fusion_lon": 0.0, "is_disabled": 0, "fusion_lat": 0.0, "bike_id": "b43b50a78996127712d05498292b8f69", "rental_uris": {"ios": "https://dc.lft.to/lastmile_qr_scan", "android": "https://dc.lft.to/lastmile_qr_scan"}}, {"name": "5e724a8c75c0a8e6a8857970ba31ec3e", "type": "electric_scooter", "lat": 38.9095685, "is_reserved": 0, "lon": -76.98539283333334, "fusion_lon": 0.0, "is_disabled": 0, "fusion_lat": 0.0, "bike_id": "5e724a8c75c0a8e6a8857970ba31ec3e", "rental_uris": {"ios": "https://dc.lft.to/lastmile_qr_scan", "android": "https://dc.lft.to/lastmile_qr_scan"}}, {"name": "84783ecbd84d412c4921ba9ff291554f", "type": "electric_scooter", "lat": 38.920255, "is_reserved": 0, "lon": -77.026096, "fusion_lon": 0.0, "is_disabled": 0, "fusion_lat": 0.0, "bike_id": "84783ecbd84d412c4921ba9ff291554f", "rental_uris": {"ios": "https://dc.lft.to/lastmile_qr_scan", "android": "https://dc.lft.to/lastmile_qr_scan"}}, {"name": "d62a8cfab433b872ae5d2fe9ed51739c", "type": "electric_scooter", "lat": 38.929097166666665, "is_reserved": 0, "lon": -77.01232333333333, "fusion_lon": 0.0, "is_disabled": 0, "fusion_lat": 0.0, "bike_id": "d62a8cfab433b872ae5d2fe9ed51739c", "rental_uris": {"ios": "https://dc.lft.to/lastmile_qr_scan", "android": "https://dc.lft.to/lastmile_qr_scan"}}, {"name": "64ac2e8b240dcfbc3464638784233fef", "type": "electric_scooter", "lat": 38.92014483333333, "is_reserved": 0, "lon": -77.03884766666667, "fusion_lon": 0.0, "is_disabled": 0, "fusion_lat": 0.0, "bike_id": "64ac2e8b240dcfbc3464638784233fef", "rental_uris": {"ios": "https://dc.lft.to/lastmile_qr_scan", "android": "https://dc.lft.to/lastmile_qr_scan"}}, {"name": "c626708a91a43bf4521fb347bbd5f255", "type": "electric_scooter", "lat": 38.8768265, "is_reserved": 0, "lon": -77.00077083333333, "fusion_lon": 0.0, "is_disabled": 0, "fusion_lat": 0.0, "bike_id": "c626708a91a43bf4521fb347bbd5f255", "rental_uris": {"ios": "https://dc.lft.to/lastmile_qr_scan", "android": "https://dc.lft.to/lastmile_qr_scan"}}, {"name": "b32a2224cca97617d76d7b6c1ee6aac4", "type": "electric_bike", "lat": 38.96537583333333, "is_reserved": 0, "lon": -77.035163, "fusion_lon": 0.0, "is_disabled": 0, "fusion_lat": 0.0, "bike_id": "b32a2224cca97617d76d7b6c1ee6aac4", "rental_uris": {"ios": "https://dc.lft.to/lastmile_qr_scan", "android": "https://dc.lft.to/lastmile_qr_scan"}}, {"name": "2671428a6195a7a41d356cc6ac86acdf", "type": "electric_scooter", "lat": 38.90615833333333, "is_reserved": 0, "lon": -77.01286716666667, "fusion_lon": 0.0, "is_disabled": 0, "fusion_lat": 0.0, "bike_id": "2671428a6195a7a41d356cc6ac86acdf", "rental_uris": {"ios": "https://dc.lft.to/lastmile_qr_scan", "android": "https://dc.lft.to/lastmile_qr_scan"}}, {"name": "5530ca144b6a0d9ea6daf101f4f527e1", "type": "electric_scooter", "lat": 38.923862166666666, "is_reserved": 0, "lon": -77.034027, "fusion_lon": 0.0, "is_disabled": 0, "fusion_lat": 0.0, "bike_id": "5530ca144b6a0d9ea6daf101f4f527e1", "rental_uris": {"ios": "https://dc.lft.to/lastmile_qr_scan", "android": "https://dc.lft.to/lastmile_qr_scan"}}, {"name": "3383ef1419d757a99148768856ff96ff", "type": "electric_scooter", "lat": 38.842939, "is_reserved": 0, "lon": -76.99950183333333, "fusion_lon": 0.0, "is_disabled": 0, "fusion_lat": 0.0, "bike_id": "3383ef1419d757a99148768856ff96ff", "rental_uris": {"ios": "https://dc.lft.to/lastmile_qr_scan", "android": "https://dc.lft.to/lastmile_qr_scan"}}, {"name": "79e3b1f6e2011369ff8b601494f3706a", "type": "electric_scooter", "lat": 38.90393533333334, "is_reserved": 0, "lon": -77.06369916666667, "fusion_lon": 0.0, "is_disabled": 0, "fusion_lat": 0.0, "bike_id": "79e3b1f6e2011369ff8b601494f3706a", "rental_uris": {"ios": "https://dc.lft.to/lastmile_qr_scan", "android": "https://dc.lft.to/lastmile_qr_scan"}}, {"name": "7f04eb5f0e3ca307635359ade2d388c7", "type": "electric_scooter", "lat": 38.866977, "is_reserved": 0, "lon": -76.9871355, "fusion_lon": 0.0, "is_disabled": 0, "fusion_lat": 0.0, "bike_id": "7f04eb5f0e3ca307635359ade2d388c7", "rental_uris": {"ios": "https://dc.lft.to/lastmile_qr_scan", "android": "https://dc.lft.to/lastmile_qr_scan"}}, {"name": "c02026c3e47329ee0984c8ae65a7822c", "type": "electric_scooter", "lat": 38.933625166666666, "is_reserved": 0, "lon": -77.07266183333333, "fusion_lon": 0.0, "is_disabled": 0, "fusion_lat": 0.0, "bike_id": "c02026c3e47329ee0984c8ae65a7822c", "rental_uris": {"ios": "https://dc.lft.to/lastmile_qr_scan", "android": "https://dc.lft.to/lastmile_qr_scan"}},