{"data": {"bikes": [{"is_reserved": 0, "type": "electric_scooter", "bike_id": "2e8213de3e72956ad075f2c0112b15c5", "lat": 38.92372866666667, "lon": -77.03056266666667, "rental_uris": {"android": "https://dc.lft.to/lastmile_qr_scan", "ios": "https://dc.lft.to/lastmile_qr_scan"}, "is_disabled": 0, "fusion_lat": 0.0, "name": "2e8213de3e72956ad075f2c0112b15c5", "fusion_lon": 0.0}, {"is_reserved": 0, "type": "electric_scooter", "bike_id": "9a8d6b97dd8ea8b078a79469ad47cb26", "lat": 38.89916383333333, "lon": -77.0319895, "rental_uris": {"android": "https://dc.lft.to/lastmile_qr_scan", "ios": "https://dc.lft.to/lastmile_qr_scan"}, "is_disabled": 0, "fusion_lat": 0.0, "name": "9a8d6b97dd8ea8b078a79469ad47cb26", "fusion_lon": 0.0}, {"is_reserved": 0, "type": "electric_scooter", "bike_id": "2769b20702d8d99479f2b1bb158efcc8", "lat": 38.88162466666667, "lon": -76.99484233333334, "rental_uris": {"android": "https://dc.lft.to/lastmile_qr_scan", "ios": "https://dc.lft.to/lastmile_qr_scan"}, "is_disabled": 0, "fusion_lat": 0.0, "name": "2769b20702d8d99479f2b1bb158efcc8", "fusion_lon": 0.0}, {"is_reserved": 0, "type": "electric_scooter", "bike_id": "f338c43e26f812ea9fd3f8cfdfb72da9", "lat": 38.89225183333333, "lon": -77.03186983333333, "rental_uris": {"android": "https://dc.lft.to/lastmile_qr_scan", "ios": "https://dc.lft.to/lastmile_qr_scan"}, "is_disabled": 0, "fusion_lat": 0.0, "name": "f338c43e26f812ea9fd3f8cfdfb72da9", "fusion_lon": 0.0}, {"is_reserved": 0, "type": "electric_scooter", "bike_id": "93acde93858e5ea7bdffaa23d7de4b8e", "lat": 38.875078, "lon": -77.00349316666667, "rental_uris": {"android": "https://dc.lft.to/lastmile_qr_scan", "ios": "https://dc.lft.to/lastmile_qr_scan"}, "is_disabled": 0, "fusion_lat": 0.0, "name": "93acde93858e5ea7bdffaa23d7de4b8e", "fusion_lon": 0.0}, {"is_reserved": 0, "type": "electric_scooter", "bike_id": "ac1d96aa665ab04e26e47f2078d4e530", "lat": 38.877620666666665, "lon": -77.01877383333333, "rental_uris": {"android": "https://dc.lft.to/lastmile_qr_scan", "ios": "https://dc.lft.to/lastmile_qr_scan"}, "is_disabled": 0, "fusion_lat": 0.0, "name": "ac1d96aa665ab04e26e47f2078d4e530", "fusion_lon": 0.0}, {"is_reserved": 0, "type": "electric_scooter", "bike_id": "1fd268271e5c7c1f0d86005e19b6ca96", "lat": 38.92452266666667, "lon": -77.03291983333334, "rental_uris": {"android": "https://dc.lft.to/lastmile_qr_scan", "ios": "https://dc.lft.to/lastmile_qr_scan"}, "is_disabled": 0, "fusion_lat": 0.0, "name": "1fd268271e5c7c1f0d86005e19b6ca96", "fusion_lon": 0.0}, {"is_reserved": 0, "type": "electric_scooter", "bike_id": "2a04814e041513ead95bfcee0e50a824", "lat": 38.889707666666666, "lon": -76.99940766666667, "rental_uris": {"android": "https://dc.lft.to/lastmile_qr_scan", "ios": "https://dc.lft.to/lastmile_qr_scan"}, "is_disabled": 0, "fusion_lat": 0.0, "name": "2a04814e041513ead95bfcee0e50a824", "fusion_lon": 0.0}, {"is_reserved": 0, "type": "electric_scooter", "bike_id": "fafcc1d7bbb49181d88d628467cf5514", "lat": 38.892382, "lon": -77.04484933333333, "rental_uris": {"android": "https://dc.lft.to/lastmile_qr_scan", "ios": "https://dc.lft.to/lastmile_qr_scan"}, "is_disabled": 0, "fusion_lat": 0.0, "name": "fafcc1d7bbb49181d88d628467cf5514", "fusion_lon": 0.0}, {"is_reserved": 0, "type": "electric_scooter", "bike_id": "963d14314bc5c0ff3052f49738302dff", "lat": 38.900002, "lon": -76.998522, "rental_uris": {"android": "https://dc.lft.to/lastmile_qr_scan", "ios": "https://dc.lft.to/lastmile_qr_scan"}, "is_disabled": 0, "fusion_lat": 0.0, "name": "963d14314bc5c0ff3052f49738302dff", "fusion_lon": 0.0}, {"is_reserved": 0, "type": "electric_scooter", "bike_id": "c9dc4e389d771b7a65b22f068b90e543", "lat": 38.91550866666667, "lon": -77.0330975, "rental_uris": {"android": "https://dc.lft.to/lastmile_qr_scan", "ios": "https://dc.lft.to/lastmile_qr_scan"}, "is_disabled": 0, "fusion_lat": 0.0, "name": "c9dc4e389d771b7a65b22f068b90e543", "fusion_lon": 0.0}, {"is_reserved": 0, "type": "electric_scooter", "bike_id": "46f101807f121d5054c53bf6d4822990", "lat": 38.90541533333333, "lon": -77.05695066666667, "rental_uris": {"android": "https://dc.lft.to/lastmile_qr_scan", "ios": "https://dc.lft.to/lastmile_qr_scan"}, "is_disabled": 0, "fusion_lat": 0.0, "name": "46f101807f121d5054c53bf6d4822990", "fusion_lon": 0.0}, {"is_reserved": 0, "type": "electric_scooter", "bike_id": "872dbe336023ee3468fa6481441a9a03", "lat": 38.899471, "lon": -76.97912216666667, "rental_uris": {"android": "https://dc.lft.to/lastmile_qr_scan", "ios": "https://dc.lft.to/lastmile_qr_scan"}, "is_disabled": 0, "fusion_lat": 0.0, "name": "872dbe336023ee3468fa6481441a9a03", "fusion_lon": 0.0}, {"is_reserved": 0, "type": "electric_scooter", "bike_id": "0dc2046d83042e0f8856824272567a6b", "lat": 38.915550333333336, "lon": -77.03831533333333, "rental_uris": {"android": "https://dc.lft.to/lastmile_qr_scan", "ios": "https://dc.lft.to/lastmile_qr_scan"}, "is_disabled": 0, "fusion_lat": 0.0, "name": "0dc2046d83042e0f8856824272567a6b", "fusion_lon": 0.0}, {"is_reserved": 0, "type": "electric_scooter", "bike_id": "9400388833f11201fab39aafed38a21d", "lat": 38.87210733333333, "lon": -77.01353033333334, "rental_uris": {"android": "https://dc.lft.to/lastmile_qr_scan", "ios": "https://dc.lft.to/lastmile_qr_scan"}, "is_disabled": 0, "fusion_lat": 0.0, "name": "9400388833f11201fab39aafed38a21d", "fusion_lon": 0.0}, {"is_reserved": 0, "type": "electric_scooter", "bike_id": "27cacab1d48954ab2c1c23f02871dc83", "lat": 38.90727116666667, "lon": -77.01429566666667, "rental_uris": {"android": "https://dc.lft.to/lastmile_qr_scan", "ios": "https://dc.lft.to/lastmile_qr_scan"}, "is_disabled": 0, "fusion_lat": 0.0, "name": "27cacab1d48954ab2c1c23f02871dc83", "fusion_lon": 0.0}, {"is_reserved": 0, "type": "electric_scooter", "bike_id": "332d7d584a8404a10c331498aa848272", "lat": 38.90928516666666, "lon": -76.996309, "rental_uris": {"android": "https://dc.lft.to/lastmile_qr_scan", "ios": "https://dc.lft.to/lastmile_qr_scan"}, "is_disabled": 0, "fusion_lat": 0.0, "name": "332d7d584a8404a10c331498aa848272", "fusion_lon": 0.0}, {"is_reserved": 0, "type": "electric_scooter", "bike_id": "23e59bf0d14d6e0c9f0950a5ddcb444e", "lat": 38.9351985, "lon": -77.019394, "rental_uris": {"android": "https://dc.lft.to/lastmile_qr_scan", "ios": "https://dc.lft.to/lastmile_qr_scan"}, "is_disabled": 0, "fusion_lat": 0.0, "name": "23e59bf0d14d6e0c9f0950a5ddcb444e", "fusion_lon": 0.0}, {"is_reserved": 0, "type": "electric_scooter", "bike_id": "585d6a407433780ab6848da03411df6d", "lat": 38.90649616666666, "lon": -76.98374366666667, "rental_uris": {"android": "https://dc.lft.to/lastmile_qr_scan", "ios": "https://dc.lft.to/lastmile_qr_scan"}, "is_disabled": 0, "fusion_lat": 0.0, "name": "585d6a407433780ab6848da03411df6d", "fusion_lon": 0.0}, {"is_reserved": 0, "type": "electric_scooter", "bike_id": "f50626dd18d8553b7667605575dbff89", "lat": 38.91631783333333, "lon": -77.0389885, "rental_uris": {"android": "https://dc.lft.to/lastmile_qr_scan", "ios": "https://dc.lft.to/lastmile_qr_scan"}, "is_disabled": 0, "fusion_lat": 0.0, "name": "f50626dd18d8553b7667605575dbff89", "fusion_lon": 0.0}, {"is_reserved": 0, "type": "electric_scooter", "bike_id": "a980c2f2446297f256dd4e2e96ce1457", "lat": 38.9095865, "lon": -77.0325105, "rental_uris": {"android": "https://dc.lft.to/lastmile_qr_scan", "ios": "https://dc.lft.to/lastmile_qr_scan"}, "is_disabled": 0, "fusion_lat": 0.0, "name": "a980c2f2446297f256dd4e2e96ce1457", "fusion_lon": 0.0}, {"is_reserved": 0, "type": "electric_bike", "bike_id": "08368f4a8d71530668e29459fb21360c", "lat": 38.874225, "lon": -77.08570333333333, "rental_uris": {"android": "https://dc.lft.to/lastmile_qr_scan", "ios": "https://dc.lft.to/lastmile_qr_scan"}, "is_disabled": 0, "fusion_lat": 0.0, "name": "08368f4a8d71530668e29459fb21360c", "fusion_lon": 0.0}, {"is_reserved": 0, "type": "electric_scooter", "bike_id": "9941fdb6cf354d2cd66da67b453a184d", "lat": 38.90382783333333, "lon": -77.03029, "rental_uris": {"android": "https://dc.lft.to/lastmile_qr_scan", "ios": "https://dc.lft.to/lastmile_qr_scan"}, "is_disabled": 0, "fusion_lat": 0.0, "name": "9941fdb6cf354d2cd66da67b453a184d", "fusion_lon": 0.0}, {"is_reserved": 0, "type": "electric_bike", "bike_id": "ebbb10254f58572ed3984bec1d8ba369", "lat": 38.927367, "lon": -76.9936215, "rental_uris": {"android": "https://dc.lft.to/lastmile_qr_scan", "ios": "https://dc.lft.to/lastmile_qr_scan"}, "is_disabled": 0, "fusion_lat": 0.0, "name": "ebbb10254f58572ed3984bec1d8ba369", "fusion_lon": 0.0}, {"is_reserved": 0, "type": "electric_scooter", "bike_id": "37a3246b5e32e9b2a019438f89e75d3d", "lat": 38.918128333333335, "lon": -77.03206016666667, "rental_uris": {"android": "https://dc.lft.to/lastmile_qr_scan", "ios": "https://dc.lft.to/lastmile_qr_scan"}, "is_disabled": 0, "fusion_lat": 0.0, "name": "37a3246b5e32e9b2a019438f89e75d3d", "fusion_lon": 0.0}, {"is_reserved": 0, "type": "electric_bike", "bike_id": "b96488d90979216b0f8bc792da788554", "lat": 38.863300833333334, "lon": -76.9872415, "rental_uris": {"android": "https://dc.lft.to/lastmile_qr_scan", "ios": "https://dc.lft.to/lastmile_qr_scan"}, "is_disabled": 0, "fusion_lat": 0.0, "name": "b96488d90979216b0f8bc792da788554", "fusion_lon": 0.0}, {"is_reserved": 0, "type": "electric_scooter", "bike_id": "09d0229d2a87ea301fe9062ead0337bc", "lat": 38.929813, "lon": -77.03792366666667, "rental_uris": {"android": "https://dc.lft.to/lastmile_qr_scan", "ios": "https://dc.lft.to/lastmile_qr_scan"}, "is_disabled": 0, "fusion_lat": 0.0, "name": "09d0229d2a87ea301fe9062ead0337bc", "fusion_lon": 0.0}, {"is_reserved": 0, "type": "electric_bike", "bike_id": "2cb0b5e61ca56e035e5f34124bd14416", "lat": 39.010901833333335, "lon": -77.04955483333333, "rental_uris": {"android": "https://dc.lft.to/lastmile_qr_scan", "ios": "https://dc.lft.to/lastmile_qr_scan"}, "is_disabled": 0, "fusion_lat": 0.0, "name": "2cb0b5e61ca56e035e5f34124bd14416", "fusion_lon": 0.0}, {"is_reserved": 0, "type": "electric_scooter", "bike_id": "40a25d38c6944ab95a90530adfaa10fc", "lat": 38.9049765, "lon": -77.029522, "rental_uris": {"android": "https://dc.lft.to/lastmile_qr_scan", "ios": "https://dc.lft.to/lastmile_qr_scan"}, "is_disabled": 0, "fusion_lat": 0.0, "name": "40a25d38c6944ab95a90530adfaa10fc", "fusion_lon": 0.0}, {"is_reserved": 0, "type": "electric_bike", "bike_id": "bb4ceef0fe9789bd03d0c8d0d476c62c", "lat": 38.99997316666666, "lon": -76.91804633333334, "rental_uris": {"android": "https://dc.lft.to/lastmile_qr_scan", "ios": "https://dc.lft.to/lastmile_qr_scan"}, "is_disabled": 0, "fusion_lat": 0.0, "name": "bb4ceef0fe9789bd03d0c8d0d476c62c", "fusion_lon": 0.0}, {"is_reserved": 0, "type": "electric_scooter", "bike_id": "0d0985e87392247da977d04b3d0d8704", "lat": 38.943091833333334, "lon": -77.06172316666667, "rental_uris": {"android": "https://dc.lft.to/lastmile_qr_scan", "ios": "https://dc.lft.to/lastmile_qr_scan"}, "is_disabled": 0, "fusion_lat": 0.0, "name": "0d0985e87392247da977d04b3d0d8704", "fusion_lon": 0.0}, {"is_reserved": 0, "type": "electric_scooter", "bike_id": "72b9f4eb9571a30034ce9ee796a820ab", "lat": 38.934073, "lon": -77.04550066666667, "rental_uris": {"android": "https://dc.lft.to/lastmile_qr_scan", "ios": "https://dc.lft.to/lastmile_qr_scan"}, "is_disabled": 0, "fusion_lat": 0.0, "name": "72b9f4eb9571a30034ce9ee796a820ab", "fusion_lon": 0.0}, {"is_reserved": 0, "type": "electric_scooter", "bike_id": "50376652c296d1a55ffa0a79ef29315f", "lat": 38.920581166666665, "lon": -77.02946533333333, "rental_uris": {"android": "https://dc.lft.to/lastmile_qr_scan", "ios": "https://dc.lft.to/lastmile_qr_scan"}, "is_disabled": 0, "fusion_lat": 0.0, "name": "50376652c296d1a55ffa0a79ef29315f", "fusion_lon": 0.0}, {"is_reserved": 0, "type": "electric_scooter", "bike_id": "6012dce231db3bb2ee39e8bf61ed4a61", "lat": 38.94510416666667, "lon": -77.03365016666666, "rental_uris": {"android": "https://dc.lft.to/lastmile_qr_scan", "ios": "https://dc.lft.to/lastmile_qr_scan"}, "is_disabled": 0, "fusion_lat": 0.0, "name": "6012dce231db3bb2ee39e8bf61ed4a61", "fusion_lon": 0.0}, {"is_reserved": 0, "type": "electric_scooter", "bike_id": "d3c964c5e84346ff38e8d545d691c890", "lat": 38.89896016666667, "lon": -77.03959883333333, "rental_uris": {"android": "https://dc.lft.to/lastmile_qr_scan", "ios": "https://dc.lft.to/lastmile_qr_scan"}, "is_disabled": 0, "fusion_lat": 0.0, "name": "d3c964c5e84346ff38e8d545d691c890", "fusion_lon": 0.0}, {"is_reserved": 0, "type": "electric_scooter", "bike_id": "708bec73de049ad8c2af5343cfd55760", "lat": 38.89525783333333, "lon": -77.0110055, "rental_uris": {"android": "https://dc.lft.to/lastmile_qr_scan", "ios": "https://dc.lft.to/lastmile_qr_scan"}, "is_disabled": 0, "fusion_lat": 0.0, "name": "708bec73de049ad8c2af5343cfd55760", "fusion_lon": 0.0}, {"is_reserved": 0, "type": "electric_scooter", "bike_id": "0bdf8480d931604ecc4ccc7763c1db58", "lat": 38.92236316666666, "lon": -77.04010933333333, "rental_uris": {"android": "https://dc.lft.to/lastmile_qr_scan", "ios": "https://dc.lft.to/lastmile_qr_scan"}, "is_disabled": 0, "fusion_lat": 0.0, "name": "0bdf8480d931604ecc4ccc7763c1db58", "fusion_lon": 0.0}, {"is_reserved": 0, "type": "electric_bike", "bike_id": "7dbc8a9685ec6b899a895685dd625873", "lat": 38.962398666666665, "lon": -76.996822, "rental_uris": {"android": "https://dc.lft.to/lastmile_qr_scan", "ios": "https://dc.lft.to/lastmile_qr_scan"}, "is_disabled": 0, "fusion_lat": 0.0, "name": "7dbc8a9685ec6b899a895685dd625873", "fusion_lon": 0.0}, {"is_reserved": 0, "type": "electric_scooter", "bike_id": "9b2c501d011b99b8d8b6155dc1695e91", "lat": 38.9327835, "lon": -77.039417, "rental_uris": {"android": "https://dc.lft.to/lastmile_qr_scan", "ios": "https://dc.lft.to/lastmile_qr_scan"}, "is_disabled": 0, "fusion_lat": 0.0, "name": "9b2c501d011b99b8d8b6155dc1695e91", "fusion_lon": 0.0}, {"is_reserved": 0, "type": "electric_scooter", "bike_id": "d81079fb42906131ff876c869fcb6e91", "lat": 38.93102533333333, "lon": -77.02551866666667, "rental_uris": {"android": "https://dc.lft.to/lastmile_qr_scan", "ios": "https://dc.lft.to/lastmile_qr_scan"}, "is_disabled": 0, "fusion_lat": 0.0, "name": "d81079fb42906131ff876c869fcb6e91", "fusion_lon": 0.0}, {"is_reserved": 0, "type": "electric_scooter", "bike_id": "079e5d06ff4ff80ed4715072936c6b37", "lat": 38.87947583333333, "lon": -77.00382583333334, "rental_uris": {"android": "https://dc.lft.to/lastmile_qr_scan", "ios": "https://dc.lft.to/lastmile_qr_scan"}, "is_disabled": 0, "fusion_lat": 0.0, "name": "079e5d06ff4ff80ed4715072936c6b37", "fusion_lon": 0.0}, {"is_reserved": 0, "type": "electric_scooter", "bike_id": "d9caa8d5864d59a29c919a8275997e45", "lat": 38.8950325, "lon": -77.02204016666667, "rental_uris": {"android": "https://dc.lft.to/lastmile_qr_scan", "ios": "https://dc.lft.to/lastmile_qr_scan"}, "is_disabled": 0, "fusion_lat": 0.0, "name": "d9caa8d5864d59a29c919a8275997e45", "fusion_lon": 0.0}, {"is_reserved": 0, "type": "electric_bike", "bike_id": "68f22e8e4eaac5b8d749c562f3684adc", "lat": 38.94920116666667, "lon": -77.00798233333333, "rental_uris": {"android": "https://dc.lft.to/lastmile_qr_scan", "ios": "https://dc.lft.to/lastmile_qr_scan"}, "is_disabled": 0, "fusion_lat": 0.0, "name": "68f22e8e4eaac5b8d749c562f3684adc", "fusion_lon": 0.0}, {"is_reserved": 0, "type": "electric_scooter", "bike_id": "907e0a2339cb15b60af1d416e55a8523", "lat": 38.9078345, "lon": -77.01082833333334, "rental_uris": {"android": "https://dc.lft.to/lastmile_qr_scan", "ios": "https://dc.lft.to/lastmile_qr_scan"}, "is_disabled": 0, "fusion_lat": 0.0, "name": "907e0a2339cb15b60af1d416e55a8523", "fusion_lon": 0.0}, {"is_reserved": 0, "type": "electric_scooter", "bike_id": "219b608bcb1261f2365ea9e3fdeb126d", "lat": 38.9347705, "lon": -77.05648833333333, "rental_uris": {"android": "https://dc.lft.to/lastmile_qr_scan", "ios": "https://dc.lft.to/lastmile_qr_scan"}, "is_disabled": 0, "fusion_lat": 0.0, "name": "219b608bcb1261f2365ea9e3fdeb126d", "fusion_lon": 0.0}, {"is_reserved": 0, "type": "electric_scooter", "bike_id": "18628815ecf17165118e355c28f919f1", "lat": 38.8990595, "lon": -77.00359016666667, "rental_uris": {"android": "https://dc.lft.to/lastmile_qr_scan", "ios": "https://dc.lft.to/lastmile_qr_scan"}, "is_disabled": 0, "fusion_lat": 0.0, "name": "18628815ecf17165118e355c28f919f1", "fusion_lon": 0.0}, {"is_reserved": 0, "type": "electric_scooter", "bike_id": "3ce31229e5a99fe7ba6e3689c3b218f5", "lat": 38.92637883333333, "lon": -77.05320416666666, "rental_uris": {"android": "https://dc.lft.to/lastmile_qr_scan", "ios": "https://dc.lft.to/lastmile_qr_scan"}, "is_disabled": 0, "fusion_lat": 0.0, "name": "3ce31229e5a99fe7ba6e3689c3b218f5", "fusion_lon": 0.0}, {"is_reserved": 0, "type": "electric_scooter", "bike_id": "76eaf01526c886dff4dd3b30d6c1f653", "lat": 38.934094333333334, "lon": -77.02039416666666, "rental_uris": {"android": "https://dc.lft.to/lastmile_qr_scan", "ios": "https://dc.lft.to/lastmile_qr_scan"}, "is_disabled": 0, "fusion_lat": 0.0, "name": "76eaf01526c886dff4dd3b30d6c1f653", "fusion_lon": 0.0}, {"is_reserved": 0, "type": "electric_scooter", "bike_id": "7c6c335aed8474fc306b8877fcf418f8", "lat": 38.898992, "lon": -77.01611383333334, "rental_uris": {"android": "https://dc.lft.to/lastmile_qr_scan", "ios": "https://dc.lft.to/lastmile_qr_scan"}, "is_disabled": 0, "fusion_lat": 0.0, "name": "7c6c335aed8474fc306b8877fcf418f8", "fusion_lon": 0.0}, {"is_reserved": 0, "type": "electric_scooter", "bike_id": "1adeab83388975da82df50dc0d8998aa", "lat": 38.925868333333334, "lon": -77.0410785, "rental_uris": {"android": "https://dc.lft.to/lastmile_qr_scan", "ios": "https://dc.lft.to/lastmile_qr_scan"}, "is_disabled": 0, "fusion_lat": 0.0, "name": "1adeab83388975da82df50dc0d8998aa", "fusion_lon": 0.0}, {"is_reserved": 0, "type": "electric_scooter", "bike_id": "5acec128d45f6c7a81e04b58fbc36745", "lat": 38.9188135, "lon": -77.034871, "rental_uris": {"android": "https://dc.lft.to/lastmile_qr_scan", "ios": "https://dc.lft.to/lastmile_qr_scan"}, "is_disabled": 0, "fusion_lat": 0.0, "name": "5acec128d45f6c7a81e04b58fbc36745", "fusion_lon": 0.0}, {"is_reserved": 0, "type": "electric_scooter", "bike_id": "55bafd8056ff917febe77a79626df1a6", "lat": 38.91117466666667, "lon": -77.020873, "rental_uris": {"android": "https://dc.lft.to/lastmile_qr_scan", "ios": "https://dc.lft.to/lastmile_qr_scan"}, "is_disabled": 0, "fusion_lat": 0.0, "name": "55bafd8056ff917febe77a79626df1a6", "fusion_lon": 0.0}, {"is_reserved": 0, "type": "electric_scooter", "bike_id": "b97dbb5f41d44917fb1caa2112a94188", "lat": 38.86589683333333, "lon": -76.97452433333333, "rental_uris": {"android": "https://dc.lft.to/lastmile_qr_scan", "ios": "https://dc.lft.to/lastmile_qr_scan"}, "is_disabled": 0, "fusion_lat": 0.0, "name": "b97dbb5f41d44917fb1caa2112a94188", "fusion_lon": 0.0}, {"is_reserved": 0, "type": "electric_scooter", "bike_id": "0d4c86f077430143c395201077957538", "lat": 38.88765566666667, "lon": -76.9831875, "rental_uris": {"android": "https://dc.lft.to/lastmile_qr_scan", "ios": "https://dc.lft.to/lastmile_qr_scan"}, "is_disabled": 0, "fusion_lat": 0.0, "name": "0d4c86f077430143c395201077957538", "fusion_lon": 0.0}, {"is_reserved": 0, "type": "electric_scooter", "bike_id": "86d963b8d30fcbcf377cf21c01eaf0c9", "lat": 38.91566366666667, "lon": -77.022887, "rental_uris": {"android": "https://dc.lft.to/lastmile_qr_scan", "ios": "https://dc.lft.to/lastmile_qr_scan"}, "is_disabled": 0, "fusion_lat": 0.0, "name": "86d963b8d30fcbcf377cf21c01eaf0c9", "fusion_lon": 0.0}, {"is_reserved": 0, "type": "electric_scooter", "bike_id": "50e38adbd1fba507743850bb65916c27", "lat": 38.90572983333333, "lon": -77.03070733333334, "rental_uris": {"android": "https://dc.lft.to/lastmile_qr_scan", "ios": "https://dc.lft.to/lastmile_qr_scan"}, "is_disabled": 0, "fusion_lat": 0.0, "name": "50e38adbd1fba507743850bb65916c27", "fusion_lon": 0.0}, {"is_reserved": 0, "type": "electric_bike", "bike_id": "0ad3e1b72c100ffa18b6b19dad351005", "lat": 38.895883166666664, "lon": -76.90690766666667, "rental_uris": {"android": "https://dc.lft.to/lastmile_qr_scan", "ios": "https://dc.lft.to/lastmile_qr_scan"}, "is_disabled": 0, "fusion_lat": 0.0, "name": "0ad3e1b72c100ffa18b6b19dad351005", "fusion_lon": 0.0}, {"is_reserved": 0, "type": "electric_scooter", "bike_id": "837e126c19dc52ebba8bab11fca8ea86", "lat": 38.8975665, "lon": -77.0268995, "rental_uris": {"android": "https://dc.lft.to/lastmile_qr_scan", "ios": "https://dc.lft.to/lastmile_qr_scan"}, "is_disabled": 0, "fusion_lat": 0.0, "name": "837e126c19dc52ebba8bab11fca8ea86", "fusion_lon": 0.0}, {"is_reserved": 0, "type": "electric_scooter", "bike_id": "fc1c0b65b13f328ec0bcf376b40dccaf", "lat": 38.8980825, "lon": -76.996905, "rental_uris": {"android": "https://dc.lft.to/lastmile_qr_scan", "ios": "https://dc.lft.to/lastmile_qr_scan"}, "is_disabled": 0, "fusion_lat": 0.0, "name": "fc1c0b65b13f328ec0bcf376b40dccaf", "fusion_lon": 0.0}, {"is_reserved": 0, "type": "electric_bike", "bike_id": "cdbb06b448a7712833552d1d9411bdbc", "lat": 38.9563845, "lon": -77.03296333333333, "rental_uris": {"android": "https://dc.lft.to/lastmile_qr_scan", "ios": "https://dc.lft.to/lastmile_qr_scan"}, "is_disabled": 0, "fusion_lat": 0.0, "name": "cdbb06b448a7712833552d1d9411bdbc", "fusion_lon": 0.0}, {"is_reserved": 0, "type": "electric_scooter", "bike_id": "d5e3e8d69b574db41d194951d4c4d7bb", "lat": 38.91958133333333, "lon": -77.04358483333333, "rental_uris": {"android": "https://dc.lft.to/lastmile_qr_scan", "ios": "https://dc.lft.to/lastmile_qr_scan"}, "is_disabled": 0, "fusion_lat": 0.0, "name": "d5e3e8d69b574db41d194951d4c4d7bb", "fusion_lon": 0.0}, {"is_reserved": 0, "type": "electric_scooter", "bike_id": "dfcf12c7fd4cd350ffdff1860b0c18e4", "lat": 38.867177833333336, "lon": -76.980752, "rental_uris": {"android": "https://dc.lft.to/lastmile_qr_scan", "ios": "https://dc.lft.to/lastmile_qr_scan"}, "is_disabled": 0, "fusion_lat": 0.0, "name": "dfcf12c7fd4cd350ffdff1860b0c18e4", "fusion_lon": 0.0}, {"is_reserved": 0, "type": "electric_scooter", "bike_id": "a219d39d13f39bb3d7e994a938f3d2b0", "lat": 38.911105, "lon": -77.02081016666666, "rental_uris": {"android": "https://dc.lft.to/lastmile_qr_scan", "ios": "https://dc.lft.to/lastmile_qr_scan"}, "is_disabled": 0, "fusion_lat": 0.0, "name": "a219d39d13f39bb3d7e994a938f3d2b0", "fusion_lon": 0.0}, {"is_reserved": 0, "type": "electric_scooter", "bike_id": "cb28352c06ceeaefe1f40b8735d7d7c6", "lat": 38.892248333333335, "lon": -77.0318635, "rental_uris": {"android": "https://dc.lft.to/lastmile_qr_scan", "ios": "https://dc.lft.to/lastmile_qr_scan"}, "is_disabled": 0, "fusion_lat": 0.0, "name": "cb28352c06ceeaefe1f40b8735d7d7c6", "fusion_lon": 0.0}, {"is_reserved": 0, "type": "electric_scooter", "bike_id": "5306c434cc05024af97aae332756d992", "lat": 38.90854933333333, "lon": -77.003642, "rental_uris": {"android": "https://dc.lft.to/lastmile_qr_scan", "ios": "https://dc.lft.to/lastmile_qr_scan"}, "is_disabled": 0, "fusion_lat": 0.0, "name": "5306c434cc05024af97aae332756d992", "fusion_lon": 0.0}, {"is_reserved": 0, "type": "electric_scooter", "bike_id": "97ea9e89721ef159bf4634b4dfaeb0b3", "lat": 38.91940133333333, "lon": -77.01880166666666, "rental_uris": {"android": "https://dc.lft.to/lastmile_qr_scan", "ios": "https://dc.lft.to/lastmile_qr_scan"}, "is_disabled": 0, "fusion_lat": 0.0, "name": "97ea9e89721ef159bf4634b4dfaeb0b3", "fusion_lon": 0.0}, {"is_reserved": 0, "type": "electric_scooter", "bike_id": "a6191af4f65ab006958ec3f0d0e0dfbc", "lat": 38.909660833333334, "lon": -77.02408866666667, "rental_uris": {"android": "https://dc.lft.to/lastmile_qr_scan", "ios": "https://dc.lft.to/lastmile_qr_scan"}, "is_disabled": 0, "fusion_lat": 0.0, "name": "a6191af4f65ab006958ec3f0d0e0dfbc", "fusion_lon": 0.0}, {"is_reserved": 0, "type": "electric_scooter", "bike_id": "115a1fea1a68702f873795ebd6ec5196", "lat": 38.88764333333334, "lon": -76.98329283333334, "rental_uris": {"android": "https://dc.lft.to/lastmile_qr_scan", "ios": "https://dc.lft.to/lastmile_qr_scan"}, "is_disabled": 0, "fusion_lat": 0.0, "name": "115a1fea1a68702f873795ebd6ec5196", "fusion_lon": 0.0}, {"is_reserved": 0, "type": "electric_scooter", "bike_id": "52072a099a26c8fb00553d13c94ccc9e", "lat": 38.919708166666666, "lon": -77.0271505, "rental_uris": {"android": "https://dc.lft.to/lastmile_qr_scan", "ios": "https://dc.lft.to/lastmile_qr_scan"}, "is_disabled": 0, "fusion_lat": 0.0, "name": "52072a099a26c8fb00553d13c94ccc9e", "fusion_lon": 0.0}, {"is_reserved": 0, "type": "electric_scooter", "bike_id": "aa2e60a3c6f686e64fdbe1b167c541db", "lat": 38.92458116666667, "lon": -77.00851933333334, "rental_uris": {"android": "https://dc.lft.to/lastmile_qr_scan", "ios": "https://dc.lft.to/lastmile_qr_scan"}, "is_disabled": 0, "fusion_lat": 0.0, "name": "aa2e60a3c6f686e64fdbe1b167c541db", "fusion_lon": 0.0}, {"is_reserved": 0, "type": "electric_scooter", "bike_id": "607b3a4ec6aeded8d9694130e556a6af", "lat": 38.905901666666665, "lon": -77.06418416666666, "rental_uris": {"android": "https://dc.lft.to/lastmile_qr_scan", "ios": "https://dc.lft.to/lastmile_qr_scan"}, "is_disabled": 0, "fusion_lat": 0.0, "name": "607b3a4ec6aeded8d9694130e556a6af", "fusion_lon": 0.0}, {"is_reserved": 0, "type": "electric_scooter", "bike_id": "4dc1afe6410a2980e01870222428dc27", "lat": 38.8937275, "lon": -77.0297365, "rental_uris": {"android": "https://dc.lft.to/lastmile_qr_scan", "ios": "https://dc.lft.to/lastmile_qr_scan"}, "is_disabled": 0, "fusion_lat": 0.0, "name": "4dc1afe6410a2980e01870222428dc27", "fusion_lon": 0.0}, {"is_reserved": 0, "type": "electric_scooter", "bike_id": "7bb65b6ca56132fede0cce02ceacd62d", "lat": 38.90836066666667, "lon": -77.0027585, "rental_uris": {"android": "https://dc.lft.to/lastmile_qr_scan", "ios": "https://dc.lft.to/lastmile_qr_scan"}, "is_disabled": 0, "fusion_lat": 0.0, "name": "7bb65b6ca56132fede0cce02ceacd62d", "fusion_lon": 0.0}, {"is_reserved": 0, "type": "electric_scooter", "bike_id": "f858ca9f0ae3975788e852a66cc653a6", "lat": 38.920877833333336, "lon": -77.07183, "rental_uris": {"android": "https://dc.lft.to/lastmile_qr_scan", "ios": "https://dc.lft.to/lastmile_qr_scan"}, "is_disabled": 0, "fusion_lat": 0.0, "name": "f858ca9f0ae3975788e852a66cc653a6", "fusion_lon": 0.0}, {"is_reserved": 0, "type": "electric_scooter", "bike_id": "5c81ac8c3cfda6c164db8f05d847782d", "lat": 38.87765183333333, "lon": -76.99541066666667, "rental_uris": {"android": "https://dc.lft.to/lastmile_qr_scan", "ios": "https://dc.lft.to/lastmile_qr_scan"}, "is_disabled": 0, "fusion_lat": 0.0, "name": "5c81ac8c3cfda6c164db8f05d847782d", "fusion_lon": 0.0}, {"is_reserved": 0, "type": "electric_scooter", "bike_id": "fe938e56482b7d7ab862ac1c2f3fa339", "lat": 38.9160445, "lon": -77.00266866666666, "rental_uris": {"android": "https://dc.lft.to/lastmile_qr_scan", "ios": "https://dc.lft.to/lastmile_qr_scan"}, "is_disabled": 0, "fusion_lat": 0.0, "name": "fe938e56482b7d7ab862ac1c2f3fa339", "fusion_lon": 0.0}, {"is_reserved": 0, "type": "electric_scooter", "bike_id": "4d523fb4cdf66faebe58d37fec0e1233", "lat": 38.952837333333335, "lon": -77.06851733333333, "rental_uris": {"android": "https://dc.lft.to/lastmile_qr_scan", "ios": "https://dc.lft.to/lastmile_qr_scan"}, "is_disabled": 0, "fusion_lat": 0.0, "name": "4d523fb4cdf66faebe58d37fec0e1233", "fusion_lon": 0.0}, {"is_reserved": 0, "type": "electric_scooter", "bike_id": "2b7704f322fc38b34b97c424c4adc53d", "lat": 38.914138333333334, "lon": -77.0211975, "rental_uris": {"android": "https://dc.lft.to/lastmile_qr_scan", "ios": "https://dc.lft.to/lastmile_qr_scan"}, "is_disabled": 0, "fusion_lat": 0.0, "name": "2b7704f322fc38b34b97c424c4adc53d", "fusion_lon": 0.0}, {"is_reserved": 0, "type": "electric_bike", "bike_id": "9810206f4fed409485e97b08d7b78765", "lat": 38.867497, "lon": -76.945345, "rental_uris": {"android": "https://dc.lft.to/lastmile_qr_scan", "ios": "https://dc.lft.to/lastmile_qr_scan"}, "is_disabled": 0, "fusion_lat": 0.0, "name": "9810206f4fed409485e97b08d7b78765", "fusion_lon": 0.0}, {"is_reserved": 0, "type": "electric_scooter", "bike_id": "2fbf757f1af10c5a94d2fd853e3455f4", "lat": 38.91913016666667, "lon": -77.00991433333333, "rental_uris": {"android": "https://dc.lft.to/lastmile_qr_scan", "ios": "https://dc.lft.to/lastmile_qr_scan"}, "is_disabled": 0, "fusion_lat": 0.0, "name": "2fbf757f1af10c5a94d2fd853e3455f4", "fusion_lon": 0.0}, {"is_reserved": 0, "type": "electric_scooter", "bike_id": "581d6d23363ecf3b9b77401f9bb6ca74", "lat": 38.90571466666667, "lon": -77.01850666666667, "rental_uris": {"android": "https://dc.lft.to/lastmile_qr_scan", "ios": "https://dc.lft.to/lastmile_qr_scan"}, "is_disabled": 0, "fusion_lat": 0.0, "name": "581d6d23363ecf3b9b77401f9bb6ca74", "fusion_lon": 0.0}, {"is_reserved": 0, "type": "electric_scooter", "bike_id": "8a745eb055fe1c663541a07e1ead98c5", "lat": 38.912649, "lon": -77.01839016666666, "rental_uris": {"android": "https://dc.lft.to/lastmile_qr_scan", "ios": "https://dc.lft.to/lastmile_qr_scan"}, "is_disabled": 0, "fusion_lat": 0.0, "name": "8a745eb055fe1c663541a07e1ead98c5", "fusion_lon": 0.0}, {"is_reserved": 0, "type": "electric_bike", "bike_id": "f33f668279cbd0fe6b0ce58ee04b7b54", "lat": 38.8920175, "lon": -77.0700165, "rental_uris": {"android": "https://dc.lft.to/lastmile_qr_scan", "ios": "https://dc.lft.to/lastmile_qr_scan"}, "is_disabled": 0, "fusion_lat": 0.0, "name": "f33f668279cbd0fe6b0ce58ee04b7b54", "fusion_lon": 0.0}, {"is_reserved": 0, "type": "electric_scooter", "bike_id": "7af98cf19b81822bf726273caad74bcd", "lat": 38.8922225, "lon": -77.02424266666667, "rental_uris": {"android": "https://dc.lft.to/lastmile_qr_scan", "ios": "https://dc.lft.to/lastmile_qr_scan"}, "is_disabled": 0, "fusion_lat": 0.0, "name": "7af98cf19b81822bf726273caad74bcd", "fusion_lon": 0.0}, {"is_reserved": 0, "type": "electric_scooter", "bike_id": "25ae4ff5216ebbe70208f6ede2aaae4f", "lat": 38.881212, "lon": -77.019754, "rental_uris": {"android": "https://dc.lft.to/lastmile_qr_scan", "ios": "https://dc.lft.to/lastmile_qr_scan"}, "is_disabled": 0, "fusion_lat": 0.0, "name": "25ae4ff5216ebbe70208f6ede2aaae4f", "fusion_lon": 0.0}, {"is_reserved": 0, "type": "electric_bike", "bike_id": "1605dc6f520f590716b75eb8fe8a0655", "lat": 38.925044, "lon": -76.9822545, "rental_uris": {"android": "https://dc.lft.to/lastmile_qr_scan", "ios": "https://dc.lft.to/lastmile_qr_scan"}, "is_disabled": 0, "fusion_lat": 0.0, "name": "1605dc6f520f590716b75eb8fe8a0655", "fusion_lon": 0.0}, {"is_reserved": 0, "type": "electric_scooter", "bike_id": "2b353b085a07246215b42cd74d3c4b18", "lat": 38.8877035, "lon": -76.93263466666667, "rental_uris": {"android": "https://dc.lft.to/lastmile_qr_scan", "ios": "https://dc.lft.to/lastmile_qr_scan"}, "is_disabled": 0, "fusion_lat": 0.0, "name": "2b353b085a07246215b42cd74d3c4b18", "fusion_lon": 0.0}, {"is_reserved": 0, "type": "electric_scooter", "bike_id": "6d1835b87e13614cdb0aa4aee27ded18", "lat": 38.91638016666667, "lon": -77.04264566666667, "rental_uris": {"android": "https://dc.lft.to/lastmile_qr_scan", "ios": "https://dc.lft.to/lastmile_qr_scan"}, "is_disabled": 0, "fusion_lat": 0.0, "name": "6d1835b87e13614cdb0aa4aee27ded18", "fusion_lon": 0.0}, {"is_reserved": 0, "type": "electric_scooter", "bike_id": "ea098593a9db8f313b6539dde61c5bf1", "lat": 38.949771166666665, "lon": -77.02446183333333, "rental_uris": {"android": "https://dc.lft.to/lastmile_qr_scan", "ios": "https://dc.lft.to/lastmile_qr_scan"}, "is_disabled": 0, "fusion_lat": 0.0, "name": "ea098593a9db8f313b6539dde61c5bf1", "fusion_lon": 0.0}, {"is_reserved": 0, "type": "electric_scooter", "bike_id": "f51ad1f1523803282bae1fb0ff5da74e", "lat": 38.90779416666667, "lon": -77.0095735, "rental_uris": {"android": "https://dc.lft.to/lastmile_qr_scan", "ios": "https://dc.lft.to/lastmile_qr_scan"}, "is_disabled": 0, "fusion_lat": 0.0, "name": "f51ad1f1523803282bae1fb0ff5da74e", "fusion_lon": 0.0}, {"is_reserved": 0, "type": "electric_scooter", "bike_id": "9e168da7362bf52defc7c67026f25a6a", "lat": 38.87981816666667, "lon": -77.00830233333333, "rental_uris": {"android": "https://dc.lft.to/lastmile_qr_scan", "ios": "https://dc.lft.to/lastmile_qr_scan"}, "is_disabled": 0, "fusion_lat": 0.0, "name": "9e168da7362bf52defc7c67026f25a6a", "fusion_lon": 0.0}, {"is_reserved": 0, "type": "electric_scooter", "bike_id": "384d3d1e24633d98ace152e81fd06f47", "lat": 38.902401833333336, "lon": -77.01632116666667, "rental_uris": {"android": "https://dc.lft.to/lastmile_qr_scan", "ios": "https://dc.lft.to/lastmile_qr_scan"}, "is_disabled": 0, "fusion_lat": 0.0, "name": "384d3d1e24633d98ace152e81fd06f47", "fusion_lon": 0.0}, {"is_reserved": 0, "type": "electric_scooter", "bike_id": "3c4a21724c44f40d6d6b56852fdb938d", "lat": 38.908041, "lon": -77.04883333333333, "rental_uris": {"android": "https://dc.lft.to/lastmile_qr_scan", "ios": "https://dc.lft.to/lastmile_qr_scan"}, "is_disabled": 0, "fusion_lat": 0.0, "name": "3c4a21724c44f40d6d6b56852fdb938d", "fusion_lon": 0.0}, {"is_reserved": 0, "type": "electric_bike", "bike_id": "a03c17e0825553772155e4f1f2ef8633", "lat": 38.9213175, "lon": -77.00403183333333, "rental_uris": {"android": "https://dc.lft.to/lastmile_qr_scan", "ios": "https://dc.lft.to/lastmile_qr_scan"}, "is_disabled": 0, "fusion_lat": 0.0, "name": "a03c17e0825553772155e4f1f2ef8633", "fusion_lon": 0.0}, {"is_reserved": 0, "type": "electric_scooter", "bike_id": "947fdea6188a757ea468ab3ad7c36822", "lat": 38.91145233333334, "lon": -77.0217915, "rental_uris": {"android": "https://dc.lft.to/lastmile_qr_scan", "ios": "https://dc.lft.to/lastmile_qr_scan"}, "is_disabled": 0, "fusion_lat": 0.0, "name": "947fdea6188a757ea468ab3ad7c36822", "fusion_lon": 0.0}, {"is_reserved": 0, "type": "electric_bike", "bike_id": "7b404dc32e69ab7ba4463dd2708ac313", "lat": 38.891896333333335, "lon": -76.98560733333333, "rental_uris": {"android": "https://dc.lft.to/lastmile_qr_scan", "ios": "https://dc.lft.to/lastmile_qr_scan"}, "is_disabled": 0, "fusion_lat": 0.0, "name": "7b404dc32e69ab7ba4463dd2708ac313", "fusion_lon": 0.0}, {"is_reserved": 0, "type": "electric_scooter", "bike_id": "0e265092fe3d31d4dccdec6ab6bc0ca1", "lat": 38.917624333333336, "lon": -77.00447433333333, "rental_uris": {"android": "https://dc.lft.to/lastmile_qr_scan", "ios": "https://dc.lft.to/lastmile_qr_scan"}, "is_disabled": 0, "fusion_lat": 0.0, "name": "0e265092fe3d31d4dccdec6ab6bc0ca1", "fusion_lon": 0.0}, {"is_reserved": 0, "type": "electric_scooter", "bike_id": "3bec782fa864c1f210ffe12fdaae24dd", "lat": 38.93335483333333, "lon": -77.029153, "rental_uris": {"android": "https://dc.lft.to/lastmile_qr_scan", "ios": "https://dc.lft.to/lastmile_qr_scan"}, "is_disabled": 0, "fusion_lat": 0.0, "name": "3bec782fa864c1f210ffe12fdaae24dd", "fusion_lon": 0.0}, {"is_reserved": 0, "type": "electric_scooter", "bike_id": "6fefdd2660653dc163df3e26b1d01bb9", "lat": 38.9308, "lon": -77.02808766666666, "rental_uris": {"android": "https://dc.lft.to/lastmile_qr_scan", "ios": "https://dc.lft.to/lastmile_qr_scan"}, "is_disabled": 0, "fusion_lat": 0.0, "name": "6fefdd2660653dc163df3e26b1d01bb9", "fusion_lon": 0.0}, {"is_reserved": 0, "type": "electric_scooter", "bike_id": "5d8e29043e427b1d0b5cc00252437f4d", "lat": 38.91866566666667, "lon": -77.03553616666666, "rental_uris": {"android": "https://dc.lft.to/lastmile_qr_scan", "ios": "https://dc.lft.to/lastmile_qr_scan"}, "is_disabled": 0, "fusion_lat": 0.0, "name": "5d8e29043e427b1d0b5cc00252437f4d", "fusion_lon": 0.0}, {"is_reserved": 0, "type": "electric_scooter", "bike_id": "c4395c7386b9e389683d5bd2fb471fe8", "lat": 38.89816733333333, "lon": -77.024829, "rental_uris": {"android": "https://dc.lft.to/lastmile_qr_scan", "ios": "https://dc.lft.to/lastmile_qr_scan"}, "is_disabled": 0, "fusion_lat": 0.0, "name": "c4395c7386b9e389683d5bd2fb471fe8", "fusion_lon": 0.0}, {"is_reserved": 0, "type": "electric_scooter", "bike_id": "90dfe1a77d532a2e6718b6a5217c3301", "lat": 38.91552933333333, "lon": -77.03681583333334, "rental_uris": {"android": "https://dc.lft.to/lastmile_qr_scan", "ios": "https://dc.lft.to/lastmile_qr_scan"}, "is_disabled": 0, "fusion_lat": 0.0, "name": "90dfe1a77d532a2e6718b6a5217c3301", "fusion_lon": 0.0}, {"is_reserved": 0, "type": "electric_scooter", "bike_id": "28fa22a38ea7c14e5641bd8306c600e5", "lat": 38.93404866666667, "lon": -77.03996166666667, "rental_uris": {"android": "https://dc.lft.to/lastmile_qr_scan", "ios": "https://dc.lft.to/lastmile_qr_scan"}, "is_disabled": 0, "fusion_lat": 0.0, "name": "28fa22a38ea7c14e5641bd8306c600e5", "fusion_lon": 0.0}, {"is_reserved": 0, "type": "electric_scooter", "bike_id": "0b3f35125e29ceb66af05a3f2710c5fa", "lat": 38.909703, "lon": -77.00770083333333, "rental_uris": {"android": "https://dc.lft.to/lastmile_qr_scan", "ios": "https://dc.lft.to/lastmile_qr_scan"}, "is_disabled": 0, "fusion_lat": 0.0, "name": "0b3f35125e29ceb66af05a3f2710c5fa", "fusion_lon": 0.0}, {"is_reserved": 0, "type": "electric_scooter", "bike_id": "95b34c8f0099fc07ac107edbd5bd2471", "lat": 38.91939383333333, "lon": -77.04793466666666, "rental_uris": {"android": "https://dc.lft.to/lastmile_qr_scan", "ios": "https://dc.lft.to/lastmile_qr_scan"}, "is_disabled": 0, "fusion_lat": 0.0, "name": "95b34c8f0099fc07ac107edbd5bd2471", "fusion_lon": 0.0}, {"is_reserved": 0, "type": "electric_scooter", "bike_id": "7c3bf81a56a276fc20e3d755a55f653c", "lat": 38.88722966666667, "lon": -76.98377616666667, "rental_uris": {"android": "https://dc.lft.to/lastmile_qr_scan", "ios": "https://dc.lft.to/lastmile_qr_scan"}, "is_disabled": 0, "fusion_lat": 0.0, "name": "7c3bf81a56a276fc20e3d755a55f653c", "fusion_lon": 0.0}, {"is_reserved": 0, "type": "electric_scooter", "bike_id": "58fc439c18ff38d6089f0ff8d35efd43", "lat": 38.892697, "lon": -76.92924816666667, "rental_uris": {"android": "https://dc.lft.to/lastmile_qr_scan", "ios": "https://dc.lft.to/lastmile_qr_scan"}, "is_disabled": 0, "fusion_lat": 0.0, "name": "58fc439c18ff38d6089f0ff8d35efd43", "fusion_lon": 0.0}, {"is_reserved": 0, "type": "electric_scooter", "bike_id": "807afbd919c0c7ce18024f4dab115c79", "lat": 38.92367, "lon": -77.02795766666667, "rental_uris": {"android": "https://dc.lft.to/lastmile_qr_scan", "ios": "https://dc.lft.to/lastmile_qr_scan"}, "is_disabled": 0, "fusion_lat": 0.0, "name": "807afbd919c0c7ce18024f4dab115c79", "fusion_lon": 0.0}, {"is_reserved": 0, "type": "electric_scooter", "bike_id": "c616454239bfa72297701faa3ba8bab5", "lat": 38.92146066666667, "lon": -77.03509916666667, "rental_uris": {"android": "https://dc.lft.to/lastmile_qr_scan", "ios": "https://dc.lft.to/lastmile_qr_scan"}, "is_disabled": 0, "fusion_lat": 0.0, "name": "c616454239bfa72297701faa3ba8bab5", "fusion_lon": 0.0}, {"is_reserved": 0, "type": "electric_scooter", "bike_id": "0437f3e1ae302ad1047b07de87622e63", "lat": 38.910824, "lon": -77.042438, "rental_uris": {"android": "https://dc.lft.to/lastmile_qr_scan", "ios": "https://dc.lft.to/lastmile_qr_scan"}, "is_disabled": 0, "fusion_lat": 0.0, "name": "0437f3e1ae302ad1047b07de87622e63", "fusion_lon": 0.0}, {"is_reserved": 0, "type": "electric_scooter", "bike_id": "d8a1de171b0babc1f6996e070a24ccc6", "lat": 38.9209585, "lon": -77.03249633333333, "rental_uris": {"android": "https://dc.lft.to/lastmile_qr_scan", "ios": "https://dc.lft.to/lastmile_qr_scan"}, "is_disabled": 0, "fusion_lat": 0.0, "name": "d8a1de171b0babc1f6996e070a24ccc6", "fusion_lon": 0.0}, {"is_reserved": 0, "type": "electric_scooter", "bike_id": "0bdf7e9afff4467bc9bf0f6e37d8e80e", "lat": 38.8729805, "lon": -77.015593, "rental_uris": {"android": "https://dc.lft.to/lastmile_qr_scan", "ios": "https://dc.lft.to/lastmile_qr_scan"}, "is_disabled": 0, "fusion_lat": 0.0, "name": "0bdf7e9afff4467bc9bf0f6e37d8e80e", "fusion_lon": 0.0}, {"is_reserved": 0, "type": "electric_scooter", "bike_id": "add8990dc6fde96d909467a3725bd88c", "lat": 38.8860905, "lon": -76.99654583333333, "rental_uris": {"android": "https://dc.lft.to/lastmile_qr_scan", "ios": "https://dc.lft.to/lastmile_qr_scan"}, "is_disabled": 0, "fusion_lat": 0.0, "name": "add8990dc6fde96d909467a3725bd88c", "fusion_lon": 0.0}, {"is_reserved": 0, "type": "electric_scooter", "bike_id": "9ad5ab3d9ae261fd94124bc95a3a700f", "lat": 38.92857516666667, "lon": -77.02992883333333, "rental_uris": {"android": "https://dc.lft.to/lastmile_qr_scan", "ios": "https://dc.lft.to/lastmile_qr_scan"}, "is_disabled": 0, "fusion_lat": 0.0, "name": "9ad5ab3d9ae261fd94124bc95a3a700f", "fusion_lon": 0.0}, {"is_reserved": 0, "type": "electric_scooter", "bike_id": "003834cd06d8ad36b3fcbcc147302010", "lat": 38.907182666666664, "lon": -77.02443566666666, "rental_uris": {"android": "https://dc.lft.to/lastmile_qr_scan", "ios": "https://dc.lft.to/lastmile_qr_scan"}, "is_disabled": 0, "fusion_lat": 0.0, "name": "003834cd06d8ad36b3fcbcc147302010", "fusion_lon": 0.0}, {"is_reserved": 0, "type": "electric_scooter", "bike_id": "2664a06204cbb2e110b9c1c6e96b3972", "lat": 38.896673666666665, "lon": -77.04337133333334, "rental_uris": {"android": "https://dc.lft.to/lastmile_qr_scan", "ios": "https://dc.lft.to/lastmile_qr_scan"}, "is_disabled": 0, "fusion_lat": 0.0, "name": "2664a06204cbb2e110b9c1c6e96b3972", "fusion_lon": 0.0}, {"is_reserved": 0, "type": "electric_scooter", "bike_id": "9dec502e8f7327ca1210ca1ed0e5f2f7", "lat": 38.9199025, "lon": -77.034799, "rental_uris": {"android": "https://dc.lft.to/lastmile_qr_scan", "ios": "https://dc.lft.to/lastmile_qr_scan"}, "is_disabled": 0, "fusion_lat": 0.0, "name": "9dec502e8f7327ca1210ca1ed0e5f2f7", "fusion_lon": 0.0}, {"is_reserved": 0, "type": "electric_scooter", "bike_id": "30ad5549877113558b1784c136584551", "lat": 38.926140833333335, "lon": -77.05651133333333, "rental_uris": {"android": "https://dc.lft.to/lastmile_qr_scan", "ios": "https://dc.lft.to/lastmile_qr_scan"}, "is_disabled": 0, "fusion_lat": 0.0, "name": "30ad5549877113558b1784c136584551", "fusion_lon": 0.0}, {"is_reserved": 0, "type": "electric_scooter", "bike_id": "2c55bfffb9f239dbc897bed1b129d1dd", "lat": 38.896081, "lon": -77.0320115, "rental_uris": {"android": "https://dc.lft.to/lastmile_qr_scan", "ios": "https://dc.lft.to/lastmile_qr_scan"}, "is_disabled": 0, "fusion_lat": 0.0, "name": "2c55bfffb9f239dbc897bed1b129d1dd", "fusion_lon": 0.0}, {"is_reserved": 0, "type": "electric_scooter", "bike_id": "71a5cfdc06c1933c48357d4dc4339266", "lat": 38.93275583333333, "lon": -76.9853075, "rental_uris": {"android": "https://dc.lft.to/lastmile_qr_scan", "ios": "https://dc.lft.to/lastmile_qr_scan"}, "is_disabled": 0, "fusion_lat": 0.0, "name": "71a5cfdc06c1933c48357d4dc4339266", "fusion_lon": 0.0}, {"is_reserved": 0, "type": "electric_bike", "bike_id": "0b1ef50bccf35aba33aa72e7d835188b", "lat": 38.86921233333333, "lon": -76.959637, "rental_uris": {"android": "https://dc.lft.to/lastmile_qr_scan", "ios": "https://dc.lft.to/lastmile_qr_scan"}, "is_disabled": 0, "fusion_lat": 0.0, "name": "0b1ef50bccf35aba33aa72e7d835188b", "fusion_lon": 0.0}, {"is_reserved": 0, "type": "electric_scooter", "bike_id": "932dd39bbce16773d6cb0625a7ca1f2c", "lat": 38.916238, "lon": -77.04873916666666, "rental_uris": {"android": "https://dc.lft.to/lastmile_qr_scan", "ios": "https://dc.lft.to/lastmile_qr_scan"}, "is_disabled": 0, "fusion_lat": 0.0, "name": "932dd39bbce16773d6cb0625a7ca1f2c", "fusion_lon": 0.0}, {"is_reserved": 0, "type": "electric_scooter", "bike_id": "6c6f2e22807ba671a687cc5f7e1eaccc", "lat": 38.937014166666664, "lon": -77.0559675, "rental_uris": {"android": "https://dc.lft.to/lastmile_qr_scan", "ios": "https://dc.lft.to/lastmile_qr_scan"}, "is_disabled": 0, "fusion_lat": 0.0, "name": "6c6f2e22807ba671a687cc5f7e1eaccc", "fusion_lon": 0.0}, {"is_reserved": 0, "type": "electric_scooter", "bike_id": "363689b079db6c5b22c671707c68f751", "lat": 38.895202166666664, "lon": -76.9921915, "rental_uris": {"android": "https://dc.lft.to/lastmile_qr_scan", "ios": "https://dc.lft.to/lastmile_qr_scan"}, "is_disabled": 0, "fusion_lat": 0.0, "name": "363689b079db6c5b22c671707c68f751", "fusion_lon": 0.0}, {"is_reserved": 0, "type": "electric_scooter", "bike_id": "ed17e3afce8c534db5601436a66fb81e", "lat": 38.910731166666665, "lon": -77.0162, "rental_uris": {"android": "https://dc.lft.to/lastmile_qr_scan", "ios": "https://dc.lft.to/lastmile_qr_scan"}, "is_disabled": 0, "fusion_lat": 0.0, "name": "ed17e3afce8c534db5601436a66fb81e", "fusion_lon": 0.0}, {"is_reserved": 0, "type": "electric_scooter", "bike_id": "f325dd0fad85c0c5d1e01caaaf0e7897", "lat": 38.901058666666664, "lon": -77.049905, "rental_uris": {"android": "https://dc.lft.to/lastmile_qr_scan", "ios": "https://dc.lft.to/lastmile_qr_scan"}, "is_disabled": 0, "fusion_lat": 0.0, "name": "f325dd0fad85c0c5d1e01caaaf0e7897", "fusion_lon": 0.0}, {"is_reserved": 0, "type": "electric_scooter", "bike_id": "be71743118eb202262be1af4247e7523", "lat": 38.90059683333333, "lon": -76.9865665, "rental_uris": {"android": "https://dc.lft.to/lastmile_qr_scan", "ios": "https://dc.lft.to/lastmile_qr_scan"}, "is_disabled": 0, "fusion_lat": 0.0, "name": "be71743118eb202262be1af4247e7523", "fusion_lon": 0.0}, {"is_reserved": 0, "type": "electric_scooter", "bike_id": "054c5961ce79a9176c7cbdeb6eea5cc9", "lat": 38.89241066666666, "lon": -77.0448925, "rental_uris": {"android": "https://dc.lft.to/lastmile_qr_scan", "ios": "https://dc.lft.to/lastmile_qr_scan"}, "is_disabled": 0, "fusion_lat": 0.0, "name": "054c5961ce79a9176c7cbdeb6eea5cc9", "fusion_lon": 0.0}, {"is_reserved": 0, "type": "electric_bike", "bike_id": "1d8bff1c6715afd26565922450ccc3e5", "lat": 38.8956375, "lon": -77.1273595, "rental_uris": {"android": "https://dc.lft.to/lastmile_qr_scan", "ios": "https://dc.lft.to/lastmile_qr_scan"}, "is_disabled": 0, "fusion_lat": 0.0, "name": "1d8bff1c6715afd26565922450ccc3e5", "fusion_lon": 0.0}, {"is_reserved": 0, "type": "electric_scooter", "bike_id": "9790436cc57f5368b7b04c55aaae4b0f", "lat": 38.937532833333336, "lon": -77.0315245, "rental_uris": {"android": "https://dc.lft.to/lastmile_qr_scan", "ios": "https://dc.lft.to/lastmile_qr_scan"}, "is_disabled": 0, "fusion_lat": 0.0, "name": "9790436cc57f5368b7b04c55aaae4b0f", "fusion_lon": 0.0}, {"is_reserved": 0, "type": "electric_scooter", "bike_id": "e2f6439a08e3f17576c38db26cd846c5", "lat": 38.9035565, "lon": -77.01104216666667, "rental_uris": {"android": "https://dc.lft.to/lastmile_qr_scan", "ios": "https://dc.lft.to/lastmile_qr_scan"}, "is_disabled": 0, "fusion_lat": 0.0, "name": "e2f6439a08e3f17576c38db26cd846c5", "fusion_lon": 0.0}, {"is_reserved": 0, "type": "electric_scooter", "bike_id": "40eb264c16fc95c5e749e3a0bb08572a", "lat": 38.940293, "lon": -77.02643183333333, "rental_uris": {"android": "https://dc.lft.to/lastmile_qr_scan", "ios": "https://dc.lft.to/lastmile_qr_scan"}, "is_disabled": 0, "fusion_lat": 0.0, "name": "40eb264c16fc95c5e749e3a0bb08572a", "fusion_lon": 0.0}, {"is_reserved": 0, "type": "electric_scooter", "bike_id": "6d00fe9ce51d7c8fcfb71d4854020c6d", "lat": 38.9208925, "lon": -77.01792416666666, "rental_uris": {"android": "https://dc.lft.to/lastmile_qr_scan", "ios": "https://dc.lft.to/lastmile_qr_scan"}, "is_disabled": 0, "fusion_lat": 0.0, "name": "6d00fe9ce51d7c8fcfb71d4854020c6d", "fusion_lon": 0.0}, {"is_reserved": 0, "type": "electric_scooter", "bike_id": "1509d897ff27ef1906c21217dd3147a7", "lat": 38.89630666666667, "lon": -77.02605133333333, "rental_uris": {"android": "https://dc.lft.to/lastmile_qr_scan", "ios": "https://dc.lft.to/lastmile_qr_scan"}, "is_disabled": 0, "fusion_lat": 0.0, "name": "1509d897ff27ef1906c21217dd3147a7", "fusion_lon": 0.0}, {"is_reserved": 0, "type": "electric_scooter", "bike_id": "99e3afea3e8f4f4a433b58338289eddd", "lat": 38.898343833333335, "lon": -77.01297, "rental_uris": {"android": "https://dc.lft.to/lastmile_qr_scan", "ios": "https://dc.lft.to/lastmile_qr_scan"}, "is_disabled": 0, "fusion_lat": 0.0, "name": "99e3afea3e8f4f4a433b58338289eddd", "fusion_lon": 0.0}, {"is_reserved": 0, "type": "electric_scooter", "bike_id": "307e7d4f942add03c9e6cc8d5e441fc7", "lat": 38.906273666666664, "lon": -77.0315825, "rental_uris": {"android": "https://dc.lft.to/lastmile_qr_scan", "ios": "https://dc.lft.to/lastmile_qr_scan"}, "is_disabled": 0, "fusion_lat": 0.0, "name": "307e7d4f942add03c9e6cc8d5e441fc7", "fusion_lon": 0.0}, {"is_reserved": 0, "type": "electric_scooter", "bike_id": "a04d81db9d9baffcce98792737451f9a", "lat": 38.91886866666667, "lon": -77.0345715, "rental_uris": {"android": "https://dc.lft.to/lastmile_qr_scan", "ios": "https://dc.lft.to/lastmile_qr_scan"}, "is_disabled": 0, "fusion_lat": 0.0, "name": "a04d81db9d9baffcce98792737451f9a", "fusion_lon": 0.0}, {"is_reserved": 0, "type": "electric_scooter", "bike_id": "872896631fca3d433bbc2974609459ca", "lat": 38.8746585, "lon": -77.00335916666667, "rental_uris": {"android": "https://dc.lft.to/lastmile_qr_scan", "ios": "https://dc.lft.to/lastmile_qr_scan"}, "is_disabled": 0, "fusion_lat": 0.0, "name": "872896631fca3d433bbc2974609459ca", "fusion_lon": 0.0}, {"is_reserved": 0, "type": "electric_scooter", "bike_id": "68694f87dd68feaf2e4872b435b9a449", "lat": 38.892193, "lon": -77.04363966666666, "rental_uris": {"android": "https://dc.lft.to/lastmile_qr_scan", "ios": "https://dc.lft.to/lastmile_qr_scan"}, "is_disabled": 0, "fusion_lat": 0.0, "name": "68694f87dd68feaf2e4872b435b9a449", "fusion_lon": 0.0}, {"is_reserved": 0, "type": "electric_scooter", "bike_id": "7d456a69a1b4601857b67ef7cddf3b9a", "lat": 38.911029666666664, "lon": -77.04973516666666, "rental_uris": {"android": "https://dc.lft.to/lastmile_qr_scan", "ios": "https://dc.lft.to/lastmile_qr_scan"}, "is_disabled": 0, "fusion_lat": 0.0, "name": "7d456a69a1b4601857b67ef7cddf3b9a", "fusion_lon": 0.0}, {"is_reserved": 0, "type": "electric_bike", "bike_id": "9d6212e47634f8644646f9ebd5af5620", "lat": 38.97262833333333, "lon": -77.1496965, "rental_uris": {"android": "https://dc.lft.to/lastmile_qr_scan", "ios": "https://dc.lft.to/lastmile_qr_scan"}, "is_disabled": 0, "fusion_lat": 0.0, "name": "9d6212e47634f8644646f9ebd5af5620", "fusion_lon": 0.0}, {"is_reserved": 0, "type": "electric_scooter", "bike_id": "a08ece22148024a9b2b0f988df65f786", "lat": 38.897341, "lon": -77.04422633333333, "rental_uris": {"android": "https://dc.lft.to/lastmile_qr_scan", "ios": "https://dc.lft.to/lastmile_qr_scan"}, "is_disabled": 0, "fusion_lat": 0.0, "name": "a08ece22148024a9b2b0f988df65f786", "fusion_lon": 0.0}, {"is_reserved": 0, "type": "electric_scooter", "bike_id": "952b2228a8d6e288fa0dac9de0966c7e", "lat": 38.91577483333333, "lon": -77.012287, "rental_uris": {"android": "https://dc.lft.to/lastmile_qr_scan", "ios": "https://dc.lft.to/lastmile_qr_scan"}, "is_disabled": 0, "fusion_lat": 0.0, "name": "952b2228a8d6e288fa0dac9de0966c7e", "fusion_lon": 0.0}, {"is_reserved": 0, "type": "electric_scooter", "bike_id": "dbcfc3ae7be1d0d61614678a51732cd1", "lat": 38.90540283333333, "lon": -77.05698933333333, "rental_uris": {"android": "https://dc.lft.to/lastmile_qr_scan", "ios": "https://dc.lft.to/lastmile_qr_scan"}, "is_disabled": 0, "fusion_lat": 0.0, "name": "dbcfc3ae7be1d0d61614678a51732cd1", "fusion_lon": 0.0}, {"is_reserved": 0, "type": "electric_scooter", "bike_id": "e6dd68c44136b1461127c201141e01a8", "lat": 38.90751566666667, "lon": -77.03446233333334, "rental_uris": {"android": "https://dc.lft.to/lastmile_qr_scan", "ios": "https://dc.lft.to/lastmile_qr_scan"}, "is_disabled": 0, "fusion_lat": 0.0, "name": "e6dd68c44136b1461127c201141e01a8", "fusion_lon": 0.0}, {"is_reserved": 0, "type": "electric_scooter", "bike_id": "3d36fe341805e41095520184dcf757e1", "lat": 38.900354666666665, "lon": -76.991519, "rental_uris": {"android": "https://dc.lft.to/lastmile_qr_scan", "ios": "https://dc.lft.to/lastmile_qr_scan"}, "is_disabled": 0, "fusion_lat": 0.0, "name": "3d36fe341805e41095520184dcf757e1", "fusion_lon": 0.0}, {"is_reserved": 0, "type": "electric_bike", "bike_id": "fcda80801a64f9a3bf78706d40bc191b", "lat": 38.9993585, "lon": -77.051336, "rental_uris": {"android": "https://dc.lft.to/lastmile_qr_scan", "ios": "https://dc.lft.to/lastmile_qr_scan"}, "is_disabled": 0, "fusion_lat": 0.0, "name": "fcda80801a64f9a3bf78706d40bc191b", "fusion_lon": 0.0}, {"is_reserved": 0, "type": "electric_scooter", "bike_id": "97dafdbec4289b029b85a3292d2e9878", "lat": 38.9234615, "lon": -77.01893683333333, "rental_uris": {"android": "https://dc.lft.to/lastmile_qr_scan", "ios": "https://dc.lft.to/lastmile_qr_scan"}, "is_disabled": 0, "fusion_lat": 0.0, "name": "97dafdbec4289b029b85a3292d2e9878", "fusion_lon": 0.0}, {"is_reserved": 0, "type": "electric_scooter", "bike_id": "3152b6d159b77d6d74de3e332e3fd577", "lat": 38.89645183333333, "lon": -77.03306166666667, "rental_uris": {"android": "https://dc.lft.to/lastmile_qr_scan", "ios": "https://dc.lft.to/lastmile_qr_scan"}, "is_disabled": 0, "fusion_lat": 0.0, "name": "3152b6d159b77d6d74de3e332e3fd577", "fusion_lon": 0.0}, {"is_reserved": 0, "type": "electric_scooter", "bike_id": "d7ab160e01b3d15e21cbff77961eb964", "lat": 38.959550666666665, "lon": -77.0726395, "rental_uris": {"android": "https://dc.lft.to/lastmile_qr_scan", "ios": "https://dc.lft.to/lastmile_qr_scan"}, "is_disabled": 0, "fusion_lat": 0.0, "name": "d7ab160e01b3d15e21cbff77961eb964", "fusion_lon": 0.0}, {"is_reserved": 0, "type": "electric_scooter", "bike_id": "03a759199afa7231b39396a502c27e6d", "lat": 38.889154166666664, "lon": -76.99379183333333, "rental_uris": {"android": "https://dc.lft.to/lastmile_qr_scan", "ios": "https://dc.lft.to/lastmile_qr_scan"}, "is_disabled": 0, "fusion_lat": 0.0, "name": "03a759199afa7231b39396a502c27e6d", "fusion_lon": 0.0}, {"is_reserved": 0, "type": "electric_scooter", "bike_id": "2d48c066e7d44a7a7ac513fdd8fe3d9c", "lat": 38.9003425, "lon": -77.01189116666667, "rental_uris": {"android": "https://dc.lft.to/lastmile_qr_scan", "ios": "https://dc.lft.to/lastmile_qr_scan"}, "is_disabled": 0, "fusion_lat": 0.0, "name": "2d48c066e7d44a7a7ac513fdd8fe3d9c", "fusion_lon": 0.0}, {"is_reserved": 0, "type": "electric_scooter", "bike_id": "84677f721ebcc80cfe50f4f99955415e", "lat": 38.881988, "lon": -77.006053, "rental_uris": {"android": "https://dc.lft.to/lastmile_qr_scan", "ios": "https://dc.lft.to/lastmile_qr_scan"}, "is_disabled": 0, "fusion_lat": 0.0, "name": "84677f721ebcc80cfe50f4f99955415e", "fusion_lon": 0.0}, {"is_reserved": 0, "type": "electric_scooter", "bike_id": "caec4593e570636d1d6c8b458ba79329", "lat": 38.9209375, "lon": -77.03912216666667, "rental_uris": {"android": "https://dc.lft.to/lastmile_qr_scan", "ios": "https://dc.lft.to/lastmile_qr_scan"}, "is_disabled": 0, "fusion_lat": 0.0, "name": "caec4593e570636d1d6c8b458ba79329", "fusion_lon": 0.0}, {"is_reserved": 0, "type": "electric_scooter", "bike_id": "e95be49d07cee26ca771c7982fdf77c1", "lat": 38.9228695, "lon": -77.03192933333334, "rental_uris": {"android": "https://dc.lft.to/lastmile_qr_scan", "ios": "https://dc.lft.to/lastmile_qr_scan"}, "is_disabled": 0, "fusion_lat": 0.0, "name": "e95be49d07cee26ca771c7982fdf77c1", "fusion_lon": 0.0}, {"is_reserved": 0, "type": "electric_scooter", "bike_id": "828951e50ecaf7b13120d1c5f14f9237", "lat": 38.86612483333333, "lon": -76.98216033333334, "rental_uris": {"android": "https://dc.lft.to/lastmile_qr_scan", "ios": "https://dc.lft.to/lastmile_qr_scan"}, "is_disabled": 0, "fusion_lat": 0.0, "name": "828951e50ecaf7b13120d1c5f14f9237", "fusion_lon": 0.0}, {"is_reserved": 0, "type": "electric_scooter", "bike_id": "2f637ebf002a8c3f200b5e72b1cd29ae", "lat": 38.923828, "lon": -77.03657416666667, "rental_uris": {"android": "https://dc.lft.to/lastmile_qr_scan", "ios": "https://dc.lft.to/lastmile_qr_scan"}, "is_disabled": 0, "fusion_lat": 0.0, "name": "2f637ebf002a8c3f200b5e72b1cd29ae", "fusion_lon": 0.0}, {"is_reserved": 0, "type": "electric_scooter", "bike_id": "601a644da47a10a5ef2e30d3e6fba3db", "lat": 38.928378333333335, "lon": -77.006046, "rental_uris": {"android": "https://dc.lft.to/lastmile_qr_scan", "ios": "https://dc.lft.to/lastmile_qr_scan"}, "is_disabled": 0, "fusion_lat": 0.0, "name": "601a644da47a10a5ef2e30d3e6fba3db", "fusion_lon": 0.0}, {"is_reserved": 0, "type": "electric_scooter", "bike_id": "fb0cb19ee588c777e3c529a40f19e5ba", "lat": 38.886063166666666, "lon": -76.98816516666666, "rental_uris": {"android": "https://dc.lft.to/lastmile_qr_scan", "ios": "https://dc.lft.to/lastmile_qr_scan"}, "is_disabled": 0, "fusion_lat": 0.0, "name": "fb0cb19ee588c777e3c529a40f19e5ba", "fusion_lon": 0.0}, {"is_reserved": 0, "type": "electric_scooter", "bike_id": "2791931238355a8af3b539a3056fb70a", "lat": 38.901710666666666, "lon": -77.02485483333334, "rental_uris": {"android": "https://dc.lft.to/lastmile_qr_scan", "ios": "https://dc.lft.to/lastmile_qr_scan"}, "is_disabled": 0, "fusion_lat": 0.0, "name": "2791931238355a8af3b539a3056fb70a", "fusion_lon": 0.0}, {"is_reserved": 0, "type": "electric_scooter", "bike_id": "41fa5208f1b44ff38cc0ff9b99b50df2", "lat": 38.91819533333334, "lon": -77.02876783333333, "rental_uris": {"android": "https://dc.lft.to/lastmile_qr_scan", "ios": "https://dc.lft.to/lastmile_qr_scan"}, "is_disabled": 0, "fusion_lat": 0.0, "name": "41fa5208f1b44ff38cc0ff9b99b50df2", "fusion_lon": 0.0}, {"is_reserved": 0, "type": "electric_scooter", "bike_id": "262ce862cca8e2803fc61d76cb468d47", "lat": 38.9352265, "lon": -77.01934116666666, "rental_uris": {"android": "https://dc.lft.to/lastmile_qr_scan", "ios": "https://dc.lft.to/lastmile_qr_scan"}, "is_disabled": 0, "fusion_lat": 0.0, "name": "262ce862cca8e2803fc61d76cb468d47", "fusion_lon": 0.0}, {"is_reserved": 0, "type": "electric_bike", "bike_id": "fd8f27077ebc3fcf0e9205f1f3c9f028", "lat": 38.83297183333333, "lon": -77.084102, "rental_uris": {"android": "https://dc.lft.to/lastmile_qr_scan", "ios": "https://dc.lft.to/lastmile_qr_scan"}, "is_disabled": 0, "fusion_lat": 0.0, "name": "fd8f27077ebc3fcf0e9205f1f3c9f028", "fusion_lon": 0.0}, {"is_reserved": 0, "type": "electric_bike", "bike_id": "4d09b7a73e2f66229e4633b2aa2a0805", "lat": 38.959489, "lon": -77.01988883333334, "rental_uris": {"android": "https://dc.lft.to/lastmile_qr_scan", "ios": "https://dc.lft.to/lastmile_qr_scan"}, "is_disabled": 0, "fusion_lat": 0.0, "name": "4d09b7a73e2f66229e4633b2aa2a0805", "fusion_lon": 0.0}, {"is_reserved": 0, "type": "electric_scooter", "bike_id": "dbaa7fe7ff834984e7c4de56ed0fa4ba", "lat": 38.884389, "lon": -76.957652, "rental_uris": {"android": "https://dc.lft.to/lastmile_qr_scan", "ios": "https://dc.lft.to/lastmile_qr_scan"}, "is_disabled": 0, "fusion_lat": 0.0, "name": "dbaa7fe7ff834984e7c4de56ed0fa4ba", "fusion_lon": 0.0}, {"is_reserved": 0, "type": "electric_scooter", "bike_id": "3966322dd1e0e1564ae6d6cb18919d56", "lat": 38.929256, "lon": -77.02007183333333, "rental_uris": {"android": "https://dc.lft.to/lastmile_qr_scan", "ios": "https://dc.lft.to/lastmile_qr_scan"}, "is_disabled": 0, "fusion_lat": 0.0, "name": "3966322dd1e0e1564ae6d6cb18919d56", "fusion_lon": 0.0}, {"is_reserved": 0, "type": "electric_scooter", "bike_id": "127bbc3e349b21a9d254a07fef417c0c", "lat": 38.89747833333333, "lon": -77.00776716666667, "rental_uris": {"android": "https://dc.lft.to/lastmile_qr_scan", "ios": "https://dc.lft.to/lastmile_qr_scan"}, "is_disabled": 0, "fusion_lat": 0.0, "name": "127bbc3e349b21a9d254a07fef417c0c", "fusion_lon": 0.0}, {"is_reserved": 0, "type": "electric_scooter", "bike_id": "e874f01762bbf7c2202a7a804524b933", "lat": 38.90000666666667, "lon": -77.04032866666667, "rental_uris": {"android": "https://dc.lft.to/lastmile_qr_scan", "ios": "https://dc.lft.to/lastmile_qr_scan"}, "is_disabled": 0, "fusion_lat": 0.0, "name": "e874f01762bbf7c2202a7a804524b933", "fusion_lon": 0.0}, {"is_reserved": 0, "type": "electric_scooter", "bike_id": "302f726ed19db2b07fad40a7092ef1bf", "lat": 38.928151166666666, "lon": -77.02849833333333, "rental_uris": {"android": "https://dc.lft.to/lastmile_qr_scan", "ios": "https://dc.lft.to/lastmile_qr_scan"}, "is_disabled": 0, "fusion_lat": 0.0, "name": "302f726ed19db2b07fad40a7092ef1bf", "fusion_lon": 0.0}, {"is_reserved": 0, "type": "electric_scooter", "bike_id": "878ff79654ac99bebef02f81d6230cce", "lat": 38.91413516666667, "lon": -77.03166466666667, "rental_uris": {"android": "https://dc.lft.to/lastmile_qr_scan", "ios": "https://dc.lft.to/lastmile_qr_scan"}, "is_disabled": 0, "fusion_lat": 0.0, "name": "878ff79654ac99bebef02f81d6230cce", "fusion_lon": 0.0}, {"is_reserved": 0, "type": "electric_bike", "bike_id": "68e26937aa8b0eb415e4fa8097d59c83", "lat": 39.004406333333336, "lon": -76.90134, "rental_uris": {"android": "https://dc.lft.to/lastmile_qr_scan", "ios": "https://dc.lft.to/lastmile_qr_scan"}, "is_disabled": 0, "fusion_lat": 0.0, "name": "68e26937aa8b0eb415e4fa8097d59c83", "fusion_lon": 0.0}, {"is_reserved": 0, "type": "electric_scooter", "bike_id": "e74220548a1ecc42b9345c1bc7d464c8", "lat": 38.913666, "lon": -77.02737533333334, "rental_uris": {"android": "https://dc.lft.to/lastmile_qr_scan", "ios": "https://dc.lft.to/lastmile_qr_scan"}, "is_disabled": 0, "fusion_lat": 0.0, "name": "e74220548a1ecc42b9345c1bc7d464c8", "fusion_lon": 0.0}, {"is_reserved": 0, "type": "electric_scooter", "bike_id": "6764877b4870a7f94607c0b480375a0f", "lat": 38.93195433333333, "lon": -77.0195815, "rental_uris": {"android": "https://dc.lft.to/lastmile_qr_scan", "ios": "https://dc.lft.to/lastmile_qr_scan"}, "is_disabled": 0, "fusion_lat": 0.0, "name": "6764877b4870a7f94607c0b480375a0f", "fusion_lon": 0.0}, {"is_reserved": 0, "type": "electric_scooter", "bike_id": "49540ae00dddb37154788b80f71b2c29", "lat": 38.923897, "lon": -77.025827, "rental_uris": {"android": "https://dc.lft.to/lastmile_qr_scan", "ios": "https://dc.lft.to/lastmile_qr_scan"}, "is_disabled": 0, "fusion_lat": 0.0, "name": "49540ae00dddb37154788b80f71b2c29", "fusion_lon": 0.0}, {"is_reserved": 0, "type": "electric_bike", "bike_id": "82ac33c35b40367853b39e40d58528c1", "lat": 38.85415716666667, "lon": -77.083659, "rental_uris": {"android": "https://dc.lft.to/lastmile_qr_scan", "ios": "https://dc.lft.to/lastmile_qr_scan"}, "is_disabled": 0, "fusion_lat": 0.0, "name": "82ac33c35b40367853b39e40d58528c1", "fusion_lon": 0.0}, {"is_reserved": 0, "type": "electric_scooter", "bike_id": "da4d48181f753216f48541841b5cdbdb", "lat": 38.8938435, "lon": -76.923069, "rental_uris": {"android": "https://dc.lft.to/lastmile_qr_scan", "ios": "https://dc.lft.to/lastmile_qr_scan"}, "is_disabled": 0, "fusion_lat": 0.0, "name": "da4d48181f753216f48541841b5cdbdb", "fusion_lon": 0.0}, {"is_reserved": 0, "type": "electric_bike", "bike_id": "971d07f0d6575f9e325fdcf1510c5702", "lat": 38.87037266666667, "lon": -77.22909516666667, "rental_uris": {"android": "https://dc.lft.to/lastmile_qr_scan", "ios": "https://dc.lft.to/lastmile_qr_scan"}, "is_disabled": 0, "fusion_lat": 0.0, "name": "971d07f0d6575f9e325fdcf1510c5702", "fusion_lon": 0.0}, {"is_reserved": 0, "type": "electric_scooter", "bike_id": "6422a2fec8a7b25f02de57cf28de47f8", "lat": 38.940448, "lon": -77.0250555, "rental_uris": {"android": "https://dc.lft.to/lastmile_qr_scan", "ios": "https://dc.lft.to/lastmile_qr_scan"}, "is_disabled": 0, "fusion_lat": 0.0, "name": "6422a2fec8a7b25f02de57cf28de47f8", "fusion_lon": 0.0}, {"is_reserved": 0, "type": "electric_scooter", "bike_id": "11ed0cd4a8d5e52aa3e22e5734f41d76", "lat": 38.8859765, "lon": -77.019683, "rental_uris": {"android": "https://dc.lft.to/lastmile_qr_scan", "ios": "https://dc.lft.to/lastmile_qr_scan"}, "is_disabled": 0, "fusion_lat": 0.0, "name": "11ed0cd4a8d5e52aa3e22e5734f41d76", "fusion_lon": 0.0}, {"is_reserved": 0, "type": "electric_scooter", "bike_id": "ac3e4b42ebea3a82e46a31a2578b899a", "lat": 38.892196166666665, "lon": -77.02226333333333, "rental_uris": {"android": "https://dc.lft.to/lastmile_qr_scan", "ios": "https://dc.lft.to/lastmile_qr_scan"}, "is_disabled": 0, "fusion_lat": 0.0, "name": "ac3e4b42ebea3a82e46a31a2578b899a", "fusion_lon": 0.0}, {"is_reserved": 0, "type": "electric_scooter", "bike_id": "c094d1c5d8df3e2b8ddbed31c286988b", "lat": 38.92443033333333, "lon": -77.02035883333333, "rental_uris": {"android": "https://dc.lft.to/lastmile_qr_scan", "ios": "https://dc.lft.to/lastmile_qr_scan"}, "is_disabled": 0, "fusion_lat": 0.0, "name": "c094d1c5d8df3e2b8ddbed31c286988b", "fusion_lon": 0.0}, {"is_reserved": 0, "type": "electric_bike", "bike_id": "2b3038775e05701beeb7123e84890bf5", "lat": 38.925969, "lon": -77.02433016666667, "rental_uris": {"android": "https://dc.lft.to/lastmile_qr_scan", "ios": "https://dc.lft.to/lastmile_qr_scan"}, "is_disabled": 0, "fusion_lat": 0.0, "name": "2b3038775e05701beeb7123e84890bf5", "fusion_lon": 0.0}, {"is_reserved": 0, "type": "electric_scooter", "bike_id": "088427e18662202ffa031ff8084bada9", "lat": 38.93140133333333, "lon": -77.02985466666667, "rental_uris": {"android": "https://dc.lft.to/lastmile_qr_scan", "ios": "https://dc.lft.to/lastmile_qr_scan"}, "is_disabled": 0, "fusion_lat": 0.0, "name": "088427e18662202ffa031ff8084bada9", "fusion_lon": 0.0}, {"is_reserved": 0, "type": "electric_scooter", "bike_id": "349cc60b24988cc64b6dfb7f3d6a817d", "lat": 38.899291833333336, "lon": -77.00355483333334, "rental_uris": {"android": "https://dc.lft.to/lastmile_qr_scan", "ios": "https://dc.lft.to/lastmile_qr_scan"}, "is_disabled": 0, "fusion_lat": 0.0, "name": "349cc60b24988cc64b6dfb7f3d6a817d", "fusion_lon": 0.0}, {"is_reserved": 0, "type": "electric_scooter", "bike_id": "8d63f3bd59f34a6933c6078a7aadc6e2", "lat": 38.884116166666665, "lon": -77.01930316666666, "rental_uris": {"android": "https://dc.lft.to/lastmile_qr_scan", "ios": "https://dc.lft.to/lastmile_qr_scan"}, "is_disabled": 0, "fusion_lat": 0.0, "name": "8d63f3bd59f34a6933c6078a7aadc6e2", "fusion_lon": 0.0}, {"is_reserved": 0, "type": "electric_scooter", "bike_id": "d86c63fa111b1318ade4602ec5e36140", "lat": 38.920914333333336, "lon": -77.031729, "rental_uris": {"android": "https://dc.lft.to/lastmile_qr_scan", "ios": "https://dc.lft.to/lastmile_qr_scan"}, "is_disabled": 0, "fusion_lat": 0.0, "name": "d86c63fa111b1318ade4602ec5e36140", "fusion_lon": 0.0}, {"is_reserved": 0, "type": "electric_scooter", "bike_id": "6687bb84189ee9c6eaa9b3e285e1934c", "lat": 38.928622833333336, "lon": -77.0371255, "rental_uris": {"android": "https://dc.lft.to/lastmile_qr_scan", "ios": "https://dc.lft.to/lastmile_qr_scan"}, "is_disabled": 0, "fusion_lat": 0.0, "name": "6687bb84189ee9c6eaa9b3e285e1934c", "fusion_lon": 0.0}, {"is_reserved": 0, "type": "electric_bike", "bike_id": "db775655d22f7cd20451a04ee847dcb3", "lat": 38.947944666666665, "lon": -76.942495, "rental_uris": {"android": "https://dc.lft.to/lastmile_qr_scan", "ios": "https://dc.lft.to/lastmile_qr_scan"}, "is_disabled": 0, "fusion_lat": 0.0, "name": "db775655d22f7cd20451a04ee847dcb3", "fusion_lon": 0.0}, {"is_reserved": 0, "type": "electric_scooter", "bike_id": "d586adf83232a86abbd8cef9f0cc3a0f", "lat": 38.91252866666667, "lon": -77.03712683333333, "rental_uris": {"android": "https://dc.lft.to/lastmile_qr_scan", "ios": "https://dc.lft.to/lastmile_qr_scan"}, "is_disabled": 0, "fusion_lat": 0.0, "name": "d586adf83232a86abbd8cef9f0cc3a0f", "fusion_lon": 0.0}, {"is_reserved": 0, "type": "electric_scooter", "bike_id": "8ee8a46875ecf12a205d21ddadfe984d", "lat": 38.903451833333335, "lon": -77.02201666666667, "rental_uris": {"android": "https://dc.lft.to/lastmile_qr_scan", "ios": "https://dc.lft.to/lastmile_qr_scan"}, "is_disabled": 0, "fusion_lat": 0.0, "name": "8ee8a46875ecf12a205d21ddadfe984d", "fusion_lon": 0.0}, {"is_reserved": 0, "type": "electric_bike", "bike_id": "642b0c0d21ea77073d61c974eee3048f", "lat": 38.805583166666665, "lon": -77.13227516666667, "rental_uris": {"android": "https://dc.lft.to/lastmile_qr_scan", "ios": "https://dc.lft.to/lastmile_qr_scan"}, "is_disabled": 0, "fusion_lat": 0.0, "name": "642b0c0d21ea77073d61c974eee3048f", "fusion_lon": 0.0}, {"is_reserved": 0, "type": "electric_bike", "bike_id": "d9a038cf729ac63788f0f87827be0145", "lat": 38.98714666666667, "lon": -76.945835, "rental_uris": {"android": "https://dc.lft.to/lastmile_qr_scan", "ios": "https://dc.lft.to/lastmile_qr_scan"}, "is_disabled": 0, "fusion_lat": 0.0, "name": "d9a038cf729ac63788f0f87827be0145", "fusion_lon": 0.0}, {"is_reserved": 0, "type": "electric_scooter", "bike_id": "e5742cb2ffcd41c20df9dd1b89b965a2", "lat": 38.89544766666667, "lon": -76.98338983333333, "rental_uris": {"android": "https://dc.lft.to/lastmile_qr_scan", "ios": "https://dc.lft.to/lastmile_qr_scan"}, "is_disabled": 0, "fusion_lat": 0.0, "name": "e5742cb2ffcd41c20df9dd1b89b965a2", "fusion_lon": 0.0}, {"is_reserved": 0, "type": "electric_scooter", "bike_id": "24742636ffefe7a4a605f42697b77399", "lat": 38.886439833333334, "lon": -76.99611016666667, "rental_uris": {"android": "https://dc.lft.to/lastmile_qr_scan", "ios": "https://dc.lft.to/lastmile_qr_scan"}, "is_disabled": 0, "fusion_lat": 0.0, "name": "24742636ffefe7a4a605f42697b77399", "fusion_lon": 0.0}, {"is_reserved": 0, "type": "electric_scooter", "bike_id": "485f1152324881cfcae19452505e78e0", "lat": 38.93614916666667, "lon": -77.0815265, "rental_uris": {"android": "https://dc.lft.to/lastmile_qr_scan", "ios": "https://dc.lft.to/lastmile_qr_scan"}, "is_disabled": 0, "fusion_lat": 0.0, "name": "485f1152324881cfcae19452505e78e0", "fusion_lon": 0.0}, {"is_reserved": 0, "type": "electric_scooter", "bike_id": "f35e977b33e3f1243a419e48a6f0318e", "lat": 38.918142333333336, "lon": -77.03129766666666, "rental_uris": {"android": "https://dc.lft.to/lastmile_qr_scan", "ios": "https://dc.lft.to/lastmile_qr_scan"}, "is_disabled": 0, "fusion_lat": 0.0, "name": "f35e977b33e3f1243a419e48a6f0318e", "fusion_lon": 0.0}, {"is_reserved": 0, "type": "electric_scooter", "bike_id": "1c725cf6a2b577733ba15f35a07460e5", "lat": 38.88450016666667, "lon": -77.02509033333334, "rental_uris": {"android": "https://dc.lft.to/lastmile_qr_scan", "ios": "https://dc.lft.to/lastmile_qr_scan"}, "is_disabled": 0, "fusion_lat": 0.0, "name": "1c725cf6a2b577733ba15f35a07460e5", "fusion_lon": 0.0}, {"is_reserved": 0, "type": "electric_scooter", "bike_id": "ebf36d2e6dfe9f31603e7ff9a8c9d306", "lat": 38.87496133333333, "lon": -77.003262, "rental_uris": {"android": "https://dc.lft.to/lastmile_qr_scan", "ios": "https://dc.lft.to/lastmile_qr_scan"}, "is_disabled": 0, "fusion_lat": 0.0, "name": "ebf36d2e6dfe9f31603e7ff9a8c9d306", "fusion_lon": 0.0}, {"is_reserved": 0, "type": "electric_scooter", "bike_id": "27e12f6976b30575d6148fa9c507eb06", "lat": 38.917347666666664, "lon": -77.01709683333333, "rental_uris": {"android": "https://dc.lft.to/lastmile_qr_scan", "ios": "https://dc.lft.to/lastmile_qr_scan"}, "is_disabled": 0, "fusion_lat": 0.0, "name": "27e12f6976b30575d6148fa9c507eb06", "fusion_lon": 0.0}, {"is_reserved": 0, "type": "electric_scooter", "bike_id": "35cacdf926817d549fcc2e0f8dd51577", "lat": 38.902779333333335, "lon": -77.03643116666667, "rental_uris": {"android": "https://dc.lft.to/lastmile_qr_scan", "ios": "https://dc.lft.to/lastmile_qr_scan"}, "is_disabled": 0, "fusion_lat": 0.0, "name": "35cacdf926817d549fcc2e0f8dd51577", "fusion_lon": 0.0}, {"is_reserved": 0, "type": "electric_scooter", "bike_id": "45560fe725a728160b81d6e17ac4485c", "lat": 38.9274675, "lon": -77.053701, "rental_uris": {"android": "https://dc.lft.to/lastmile_qr_scan", "ios": "https://dc.lft.to/lastmile_qr_scan"}, "is_disabled": 0, "fusion_lat": 0.0, "name": "45560fe725a728160b81d6e17ac4485c", "fusion_lon": 0.0}, {"is_reserved": 0, "type": "electric_scooter", "bike_id": "dd91d414605256eefd000c704d6acc21", "lat": 38.93371916666667, "lon": -77.05730933333334, "rental_uris": {"android": "https://dc.lft.to/lastmile_qr_scan", "ios": "https://dc.lft.to/lastmile_qr_scan"}, "is_disabled": 0, "fusion_lat": 0.0, "name": "dd91d414605256eefd000c704d6acc21", "fusion_lon": 0.0}, {"is_reserved": 0, "type": "electric_scooter", "bike_id": "d69ec86ec674d66cd4b368334d4210c7", "lat": 38.92238116666667, "lon": -77.02120566666666, "rental_uris": {"android": "https://dc.lft.to/lastmile_qr_scan", "ios": "https://dc.lft.to/lastmile_qr_scan"}, "is_disabled": 0, "fusion_lat": 0.0, "name": "d69ec86ec674d66cd4b368334d4210c7", "fusion_lon": 0.0}, {"is_reserved": 0, "type": "electric_scooter", "bike_id": "a9525d7f582944a37a563ceb5c141b40", "lat": 38.8999885, "lon": -77.0229855, "rental_uris": {"android": "https://dc.lft.to/lastmile_qr_scan", "ios": "https://dc.lft.to/lastmile_qr_scan"}, "is_disabled": 0, "fusion_lat": 0.0, "name": "a9525d7f582944a37a563ceb5c141b40", "fusion_lon": 0.0}, {"is_reserved": 0, "type": "electric_scooter", "bike_id": "153576c10d00327ecfe52df0e68234dd", "lat": 38.911774333333334, "lon": -77.00489216666666, "rental_uris": {"android": "https://dc.lft.to/lastmile_qr_scan", "ios": "https://dc.lft.to/lastmile_qr_scan"}, "is_disabled": 0, "fusion_lat": 0.0, "name": "153576c10d00327ecfe52df0e68234dd", "fusion_lon": 0.0}, {"is_reserved": 0, "type": "electric_scooter", "bike_id": "4efb53a2e7cc8a0c31c260317d35e84c", "lat": 38.9256285, "lon": -76.9700685, "rental_uris": {"android": "https://dc.lft.to/lastmile_qr_scan", "ios": "https://dc.lft.to/lastmile_qr_scan"}, "is_disabled": 0, "fusion_lat": 0.0, "name": "4efb53a2e7cc8a0c31c260317d35e84c", "fusion_lon": 0.0}, {"is_reserved": 0, "type": "electric_scooter", "bike_id": "732c1a5764451cd7120d622bf205990b", "lat": 38.900334, "lon": -76.991549, "rental_uris": {"android": "https://dc.lft.to/lastmile_qr_scan", "ios": "https://dc.lft.to/lastmile_qr_scan"}, "is_disabled": 0, "fusion_lat": 0.0, "name": "732c1a5764451cd7120d622bf205990b", "fusion_lon": 0.0}, {"is_reserved": 0, "type": "electric_scooter", "bike_id": "fce01154711b6975560fb7b4dfac1144", "lat": 38.892196166666665, "lon": -77.02312533333334, "rental_uris": {"android": "https://dc.lft.to/lastmile_qr_scan", "ios": "https://dc.lft.to/lastmile_qr_scan"}, "is_disabled": 0, "fusion_lat": 0.0, "name": "fce01154711b6975560fb7b4dfac1144", "fusion_lon": 0.0}, {"is_reserved": 0, "type": "electric_scooter", "bike_id": "5d45b187e408372bc39f9191a0b240cf", "lat": 38.93089766666667, "lon": -77.034442, "rental_uris": {"android": "https://dc.lft.to/lastmile_qr_scan", "ios": "https://dc.lft.to/lastmile_qr_scan"}, "is_disabled": 0, "fusion_lat": 0.0, "name": "5d45b187e408372bc39f9191a0b240cf", "fusion_lon": 0.0}, {"is_reserved": 0, "type": "electric_bike", "bike_id": "af0dfcc0a88dcabc2c2fe23b3726ff23", "lat": 38.951303, "lon": -76.96596316666667, "rental_uris": {"android": "https://dc.lft.to/lastmile_qr_scan", "ios": "https://dc.lft.to/lastmile_qr_scan"}, "is_disabled": 0, "fusion_lat": 0.0, "name": "af0dfcc0a88dcabc2c2fe23b3726ff23", "fusion_lon": 0.0}, {"is_reserved": 0, "type": "electric_scooter", "bike_id": "ce8ad6f4ffe0c47bdcb580ed30149e82", "lat": 38.893621833333334, "lon": -76.94105483333334, "rental_uris": {"android": "https://dc.lft.to/lastmile_qr_scan", "ios": "https://dc.lft.to/lastmile_qr_scan"}, "is_disabled": 0, "fusion_lat": 0.0, "name": "ce8ad6f4ffe0c47bdcb580ed30149e82", "fusion_lon": 0.0}, {"is_reserved": 0, "type": "electric_scooter", "bike_id": "63e3c74f872230f568ed9f3301735c29", "lat": 38.8990745, "lon": -77.0318185, "rental_uris": {"android": "https://dc.lft.to/lastmile_qr_scan", "ios": "https://dc.lft.to/lastmile_qr_scan"}, "is_disabled": 0, "fusion_lat": 0.0, "name": "63e3c74f872230f568ed9f3301735c29", "fusion_lon": 0.0}, {"is_reserved": 0, "type": "electric_scooter", "bike_id": "7984042cc917d25377efb31836ccf3b8", "lat": 38.92269233333333, "lon": -76.99761083333334, "rental_uris": {"android": "https://dc.lft.to/lastmile_qr_scan", "ios": "https://dc.lft.to/lastmile_qr_scan"}, "is_disabled": 0, "fusion_lat": 0.0, "name": "7984042cc917d25377efb31836ccf3b8", "fusion_lon": 0.0}, {"is_reserved": 0, "type": "electric_scooter", "bike_id": "36a40cac09b5708e506a8b6ce5560beb", "lat": 38.92963016666667, "lon": -77.02344383333333, "rental_uris": {"android": "https://dc.lft.to/lastmile_qr_scan", "ios": "https://dc.lft.to/lastmile_qr_scan"}, "is_disabled": 0, "fusion_lat": 0.0, "name": "36a40cac09b5708e506a8b6ce5560beb", "fusion_lon": 0.0}, {"is_reserved": 0, "type": "electric_scooter", "bike_id": "3a7c89b1451519e5d1ed2ca9cd663179", "lat": 38.94727566666667, "lon": -77.02458883333334, "rental_uris": {"android": "https://dc.lft.to/lastmile_qr_scan", "ios": "https://dc.lft.to/lastmile_qr_scan"}, "is_disabled": 0, "fusion_lat": 0.0, "name": "3a7c89b1451519e5d1ed2ca9cd663179", "fusion_lon": 0.0}, {"is_reserved": 0, "type": "electric_scooter", "bike_id": "f744539cacf7d708bfac5417b2826abc", "lat": 38.923657666666664, "lon": -77.03657316666667, "rental_uris": {"android": "https://dc.lft.to/lastmile_qr_scan", "ios": "https://dc.lft.to/lastmile_qr_scan"}, "is_disabled": 0, "fusion_lat": 0.0, "name": "f744539cacf7d708bfac5417b2826abc", "fusion_lon": 0.0}, {"is_reserved": 0, "type": "electric_scooter", "bike_id": "9caa63bec55ef3b4bf5b2a81594d8828", "lat": 38.92150516666667, "lon": -77.03508866666667, "rental_uris": {"android": "https://dc.lft.to/lastmile_qr_scan", "ios": "https://dc.lft.to/lastmile_qr_scan"}, "is_disabled": 0, "fusion_lat": 0.0, "name": "9caa63bec55ef3b4bf5b2a81594d8828", "fusion_lon": 0.0}, {"is_reserved": 0, "type": "electric_scooter", "bike_id": "59be0d33fb511dbc710001fd7b20aeea", "lat": 38.93564816666667, "lon": -77.03261966666666, "rental_uris": {"android": "https://dc.lft.to/lastmile_qr_scan", "ios": "https://dc.lft.to/lastmile_qr_scan"}, "is_disabled": 0, "fusion_lat": 0.0, "name": "59be0d33fb511dbc710001fd7b20aeea", "fusion_lon": 0.0}, {"is_reserved": 0, "type": "electric_scooter", "bike_id": "c73dafa7b0065ecdff4f5dcf1afa60fa", "lat": 38.925847833333336, "lon": -77.01221733333334, "rental_uris": {"android": "https://dc.lft.to/lastmile_qr_scan", "ios": "https://dc.lft.to/lastmile_qr_scan"}, "is_disabled": 0, "fusion_lat": 0.0, "name": "c73dafa7b0065ecdff4f5dcf1afa60fa", "fusion_lon": 0.0}, {"is_reserved": 0, "type": "electric_scooter", "bike_id": "a28a4899af5845a0583e813015b9b6ed", "lat": 38.899206, "lon": -77.03195883333333, "rental_uris": {"android": "https://dc.lft.to/lastmile_qr_scan", "ios": "https://dc.lft.to/lastmile_qr_scan"}, "is_disabled": 0, "fusion_lat": 0.0, "name": "a28a4899af5845a0583e813015b9b6ed", "fusion_lon": 0.0}, {"is_reserved": 0, "type": "electric_bike", "bike_id": "8bf99b7a5a05d2489c8ee8b8cad9c6bc", "lat": 38.840506166666664, "lon": -77.0560035, "rental_uris": {"android": "https://dc.lft.to/lastmile_qr_scan", "ios": "https://dc.lft.to/lastmile_qr_scan"}, "is_disabled": 0, "fusion_lat": 0.0, "name": "8bf99b7a5a05d2489c8ee8b8cad9c6bc", "fusion_lon": 0.0}, {"is_reserved": 0, "type": "electric_scooter", "bike_id": "820a8659cbe55a951c0eb020e451d3ce", "lat": 38.9202205, "lon": -77.03978966666666, "rental_uris": {"android": "https://dc.lft.to/lastmile_qr_scan", "ios": "https://dc.lft.to/lastmile_qr_scan"}, "is_disabled": 0, "fusion_lat": 0.0, "name": "820a8659cbe55a951c0eb020e451d3ce", "fusion_lon": 0.0}, {"is_reserved": 0, "type": "electric_scooter", "bike_id": "f9ac71ee85ac78a321ce7a655997bbdd", "lat": 38.90827266666667, "lon": -77.0008, "rental_uris": {"android": "https://dc.lft.to/lastmile_qr_scan", "ios": "https://dc.lft.to/lastmile_qr_scan"}, "is_disabled": 0, "fusion_lat": 0.0, "name": "f9ac71ee85ac78a321ce7a655997bbdd", "fusion_lon": 0.0}, {"is_reserved": 0, "type": "electric_scooter", "bike_id": "a891610b164f1b27b175754b0aadd8f7", "lat": 38.92148133333333, "lon": -77.03389633333333, "rental_uris": {"android": "https://dc.lft.to/lastmile_qr_scan", "ios": "https://dc.lft.to/lastmile_qr_scan"}, "is_disabled": 0, "fusion_lat": 0.0, "name": "a891610b164f1b27b175754b0aadd8f7", "fusion_lon": 0.0}, {"is_reserved": 0, "type": "electric_scooter", "bike_id": "0314b59151d6b993adae2cd3717e4181", "lat": 38.90711966666667, "lon": -77.04612116666667, "rental_uris": {"android": "https://dc.lft.to/lastmile_qr_scan", "ios": "https://dc.lft.to/lastmile_qr_scan"}, "is_disabled": 0, "fusion_lat": 0.0, "name": "0314b59151d6b993adae2cd3717e4181", "fusion_lon": 0.0}, {"is_reserved": 0, "type": "electric_scooter", "bike_id": "6ada9d4c0766fa53cfbb18e1450c8352", "lat": 38.85455316666667, "lon": -76.9723185, "rental_uris": {"android": "https://dc.lft.to/lastmile_qr_scan", "ios": "https://dc.lft.to/lastmile_qr_scan"}, "is_disabled": 0, "fusion_lat": 0.0, "name": "6ada9d4c0766fa53cfbb18e1450c8352", "fusion_lon": 0.0}, {"is_reserved": 0, "type": "electric_bike", "bike_id": "44fbae7a671acbdc154bfb0d84455094", "lat": 38.88930216666667, "lon": -76.91325816666667, "rental_uris": {"android": "https://dc.lft.to/lastmile_qr_scan", "ios": "https://dc.lft.to/lastmile_qr_scan"}, "is_disabled": 0, "fusion_lat": 0.0, "name": "44fbae7a671acbdc154bfb0d84455094", "fusion_lon": 0.0}, {"is_reserved": 0, "type": "electric_scooter", "bike_id": "856494dde0a90c412eb24860546c96ca", "lat": 38.901313333333334, "lon": -77.05109666666667, "rental_uris": {"android": "https://dc.lft.to/lastmile_qr_scan", "ios": "https://dc.lft.to/lastmile_qr_scan"}, "is_disabled": 0, "fusion_lat": 0.0, "name": "856494dde0a90c412eb24860546c96ca", "fusion_lon": 0.0}, {"is_reserved": 0, "type": "electric_scooter", "bike_id": "ea82df78edf6bbc4c90658eb18bdbfc1", "lat": 38.907209333333334, "lon": -77.02542783333334, "rental_uris": {"android": "https://dc.lft.to/lastmile_qr_scan", "ios": "https://dc.lft.to/lastmile_qr_scan"}, "is_disabled": 0, "fusion_lat": 0.0, "name": "ea82df78edf6bbc4c90658eb18bdbfc1", "fusion_lon": 0.0}, {"is_reserved": 0, "type": "electric_scooter", "bike_id": "07ff3eb31e0c6565bae86e4f8038f6ad", "lat": 38.927535166666665, "lon": -77.023044, "rental_uris": {"android": "https://dc.lft.to/lastmile_qr_scan", "ios": "https://dc.lft.to/lastmile_qr_scan"}, "is_disabled": 0, "fusion_lat": 0.0, "name": "07ff3eb31e0c6565bae86e4f8038f6ad", "fusion_lon": 0.0}, {"is_reserved": 0, "type": "electric_scooter", "bike_id": "d62c43ce09b5ba158c7a70d25455369b", "lat": 38.90395783333334, "lon": -77.02742883333333, "rental_uris": {"android": "https://dc.lft.to/lastmile_qr_scan", "ios": "https://dc.lft.to/lastmile_qr_scan"}, "is_disabled": 0, "fusion_lat": 0.0, "name": "d62c43ce09b5ba158c7a70d25455369b", "fusion_lon": 0.0}, {"is_reserved": 0, "type": "electric_scooter", "bike_id": "af4af07901fc32788bc63c4030d8c41e", "lat": 38.92399016666667, "lon": -76.95151683333333, "rental_uris": {"android": "https://dc.lft.to/lastmile_qr_scan", "ios": "https://dc.lft.to/lastmile_qr_scan"}, "is_disabled": 0, "fusion_lat": 0.0, "name": "af4af07901fc32788bc63c4030d8c41e", "fusion_lon": 0.0}, {"is_reserved": 0, "type": "electric_scooter", "bike_id": "3140f3f34a3b3abee7e8aec50a853067", "lat": 38.90036816666667, "lon": -76.990367, "rental_uris": {"android": "https://dc.lft.to/lastmile_qr_scan", "ios": "https://dc.lft.to/lastmile_qr_scan"}, "is_disabled": 0, "fusion_lat": 0.0, "name": "3140f3f34a3b3abee7e8aec50a853067", "fusion_lon": 0.0}, {"is_reserved": 0, "type": "electric_scooter", "bike_id": "c3670321408792b06a1819563d2c18d9", "lat": 38.90968066666667, "lon": -77.024076, "rental_uris": {"android": "https://dc.lft.to/lastmile_qr_scan", "ios": "https://dc.lft.to/lastmile_qr_scan"}, "is_disabled": 0, "fusion_lat": 0.0, "name": "c3670321408792b06a1819563d2c18d9", "fusion_lon": 0.0}, {"is_reserved": 0, "type": "electric_scooter", "bike_id": "25d7e289225511c1e1f14f780a4ba03c", "lat": 38.870880166666666, "lon": -77.013745, "rental_uris": {"android": "https://dc.lft.to/lastmile_qr_scan", "ios": "https://dc.lft.to/lastmile_qr_scan"}, "is_disabled": 0, "fusion_lat": 0.0, "name": "25d7e289225511c1e1f14f780a4ba03c", "fusion_lon": 0.0}, {"is_reserved": 0, "type": "electric_scooter", "bike_id": "5e6002fa6d7319930ccf7994cc141c79", "lat": 38.89220483333333, "lon": -77.01603, "rental_uris": {"android": "https://dc.lft.to/lastmile_qr_scan", "ios": "https://dc.lft.to/lastmile_qr_scan"}, "is_disabled": 0, "fusion_lat": 0.0, "name": "5e6002fa6d7319930ccf7994cc141c79", "fusion_lon": 0.0}, {"is_reserved": 0, "type": "electric_scooter", "bike_id": "b494ed98917589efa12747168dff3397", "lat": 38.89923566666667, "lon": -77.019096, "rental_uris": {"android": "https://dc.lft.to/lastmile_qr_scan", "ios": "https://dc.lft.to/lastmile_qr_scan"}, "is_disabled": 0, "fusion_lat": 0.0, "name": "b494ed98917589efa12747168dff3397", "fusion_lon": 0.0}, {"is_reserved": 0, "type": "electric_bike", "bike_id": "a515eb0b7d25c9e6269d33407d1bf852", "lat": 38.912244666666666, "lon": -77.04775, "rental_uris": {"android": "https://dc.lft.to/lastmile_qr_scan", "ios": "https://dc.lft.to/lastmile_qr_scan"}, "is_disabled": 0, "fusion_lat": 0.0, "name": "a515eb0b7d25c9e6269d33407d1bf852", "fusion_lon": 0.0}, {"is_reserved": 0, "type": "electric_scooter", "bike_id": "bf4ab629e6bba413c84fa07acedd53d0", "lat": 38.8988125, "lon": -77.04882683333334, "rental_uris": {"android": "https://dc.lft.to/lastmile_qr_scan", "ios": "https://dc.lft.to/lastmile_qr_scan"}, "is_disabled": 0, "fusion_lat": 0.0, "name": "bf4ab629e6bba413c84fa07acedd53d0", "fusion_lon": 0.0}, {"is_reserved": 0, "type": "electric_scooter", "bike_id": "17ad57e66aaeb8ae553f1bf02c923c5a", "lat": 38.899928333333335, "lon": -77.02893383333334, "rental_uris": {"android": "https://dc.lft.to/lastmile_qr_scan", "ios": "https://dc.lft.to/lastmile_qr_scan"}, "is_disabled": 0, "fusion_lat": 0.0, "name": "17ad57e66aaeb8ae553f1bf02c923c5a", "fusion_lon": 0.0}, {"is_reserved": 0, "type": "electric_scooter", "bike_id": "e0fd004ac022a9123e7d41bf46814547", "lat": 38.903696, "lon": -77.02849566666667, "rental_uris": {"android": "https://dc.lft.to/lastmile_qr_scan", "ios": "https://dc.lft.to/lastmile_qr_scan"}, "is_disabled": 0, "fusion_lat": 0.0, "name": "e0fd004ac022a9123e7d41bf46814547", "fusion_lon": 0.0}, {"is_reserved": 0, "type": "electric_scooter", "bike_id": "f14a92e1fe40b54334eb97d52fc9ba52", "lat": 38.92443316666667, "lon": -77.04032533333333, "rental_uris": {"android": "https://dc.lft.to/lastmile_qr_scan", "ios": "https://dc.lft.to/lastmile_qr_scan"}, "is_disabled": 0, "fusion_lat": 0.0, "name": "f14a92e1fe40b54334eb97d52fc9ba52", "fusion_lon": 0.0}, {"is_reserved": 0, "type": "electric_scooter", "bike_id": "5dd334fd3b825abe74493585c25fcce3", "lat": 38.89750683333333, "lon": -77.002066, "rental_uris": {"android": "https://dc.lft.to/lastmile_qr_scan", "ios": "https://dc.lft.to/lastmile_qr_scan"}, "is_disabled": 0, "fusion_lat": 0.0, "name": "5dd334fd3b825abe74493585c25fcce3", "fusion_lon": 0.0}, {"is_reserved": 0, "type": "electric_scooter", "bike_id": "67a3f5bf59c6e7d67f7fc2fc68635a42", "lat": 38.899186666666665, "lon": -76.978382, "rental_uris": {"android": "https://dc.lft.to/lastmile_qr_scan", "ios": "https://dc.lft.to/lastmile_qr_scan"}, "is_disabled": 0, "fusion_lat": 0.0, "name": "67a3f5bf59c6e7d67f7fc2fc68635a42", "fusion_lon": 0.0}, {"is_reserved": 0, "type": "electric_scooter", "bike_id": "a6a1c853530f21a29c55c96552514ff4", "lat": 38.89219966666667, "lon": -77.02219833333334, "rental_uris": {"android": "https://dc.lft.to/lastmile_qr_scan", "ios": "https://dc.lft.to/lastmile_qr_scan"}, "is_disabled": 0, "fusion_lat": 0.0, "name": "a6a1c853530f21a29c55c96552514ff4", "fusion_lon": 0.0}, {"is_reserved": 0, "type": "electric_scooter", "bike_id": "f0788c105ad42acc77f06e2e29175c27", "lat": 38.9111365, "lon": -77.0450065, "rental_uris": {"android": "https://dc.lft.to/lastmile_qr_scan", "ios": "https://dc.lft.to/lastmile_qr_scan"}, "is_disabled": 0, "fusion_lat": 0.0, "name": "f0788c105ad42acc77f06e2e29175c27", "fusion_lon": 0.0}, {"is_reserved": 0, "type": "electric_scooter", "bike_id": "7e0a5ab6beef8b3272b92b5aeb28ee2f", "lat": 38.89603483333333, "lon": -77.0468085, "rental_uris": {"android": "https://dc.lft.to/lastmile_qr_scan", "ios": "https://dc.lft.to/lastmile_qr_scan"}, "is_disabled": 0, "fusion_lat": 0.0, "name": "7e0a5ab6beef8b3272b92b5aeb28ee2f", "fusion_lon": 0.0}, {"is_reserved": 0, "type": "electric_scooter", "bike_id": "93b2d32ad6d6395fa85ee1a4bf39f8ae", "lat": 38.92574116666667, "lon": -76.99494733333333, "rental_uris": {"android": "https://dc.lft.to/lastmile_qr_scan", "ios": "https://dc.lft.to/lastmile_qr_scan"}, "is_disabled": 0, "fusion_lat": 0.0, "name": "93b2d32ad6d6395fa85ee1a4bf39f8ae", "fusion_lon": 0.0}, {"is_reserved": 0, "type": "electric_scooter", "bike_id": "b739b7b4459a1549365583b58811ed2e", "lat": 38.94978783333333, "lon": -77.020159, "rental_uris": {"android": "https://dc.lft.to/lastmile_qr_scan", "ios": "https://dc.lft.to/lastmile_qr_scan"}, "is_disabled": 0, "fusion_lat": 0.0, "name": "b739b7b4459a1549365583b58811ed2e", "fusion_lon": 0.0}, {"is_reserved": 0, "type": "electric_scooter", "bike_id": "7b734283d7dec553e40247609592c8f3", "lat": 38.892261833333336, "lon": -77.04901783333334, "rental_uris": {"android": "https://dc.lft.to/lastmile_qr_scan", "ios": "https://dc.lft.to/lastmile_qr_scan"}, "is_disabled": 0, "fusion_lat": 0.0, "name": "7b734283d7dec553e40247609592c8f3", "fusion_lon": 0.0}, {"is_reserved": 0, "type": "electric_scooter", "bike_id": "5572ffbeb3524743b75d8431e01c0f39", "lat": 38.92191566666666, "lon": -77.04238083333334, "rental_uris": {"android": "https://dc.lft.to/lastmile_qr_scan", "ios": "https://dc.lft.to/lastmile_qr_scan"}, "is_disabled": 0, "fusion_lat": 0.0, "name": "5572ffbeb3524743b75d8431e01c0f39", "fusion_lon": 0.0}, {"is_reserved": 0, "type": "electric_scooter", "bike_id": "27acccdb9cd053eeffc66cb06c236a4c", "lat": 38.907670333333336, "lon": -76.999902, "rental_uris": {"android": "https://dc.lft.to/lastmile_qr_scan", "ios": "https://dc.lft.to/lastmile_qr_scan"}, "is_disabled": 0, "fusion_lat": 0.0, "name": "27acccdb9cd053eeffc66cb06c236a4c", "fusion_lon": 0.0}, {"is_reserved": 0, "type": "electric_scooter", "bike_id": "b77b621166ba9d56a71c68d6e0db17b4", "lat": 38.920227833333335, "lon": -77.0187685, "rental_uris": {"android": "https://dc.lft.to/lastmile_qr_scan", "ios": "https://dc.lft.to/lastmile_qr_scan"}, "is_disabled": 0, "fusion_lat": 0.0, "name": "b77b621166ba9d56a71c68d6e0db17b4", "fusion_lon": 0.0}, {"is_reserved": 0, "type": "electric_scooter", "bike_id": "3f01d5dd46200fa5fb560badd5065b70", "lat": 38.93068066666667, "lon": -77.02972633333333, "rental_uris": {"android": "https://dc.lft.to/lastmile_qr_scan", "ios": "https://dc.lft.to/lastmile_qr_scan"}, "is_disabled": 0, "fusion_lat": 0.0, "name": "3f01d5dd46200fa5fb560badd5065b70", "fusion_lon": 0.0}, {"is_reserved": 0, "type": "electric_scooter", "bike_id": "0302d509a063da140729a2d795ea2a96", "lat": 38.927309, "lon": -77.05251, "rental_uris": {"android": "https://dc.lft.to/lastmile_qr_scan", "ios": "https://dc.lft.to/lastmile_qr_scan"}, "is_disabled": 0, "fusion_lat": 0.0, "name": "0302d509a063da140729a2d795ea2a96", "fusion_lon": 0.0}, {"is_reserved": 0, "type": "electric_scooter", "bike_id": "3dada2b5b12275d590c7abbe7b082ddc", "lat": 38.945160666666666, "lon": -77.02980333333333, "rental_uris": {"android": "https://dc.lft.to/lastmile_qr_scan", "ios": "https://dc.lft.to/lastmile_qr_scan"}, "is_disabled": 0, "fusion_lat": 0.0, "name": "3dada2b5b12275d590c7abbe7b082ddc", "fusion_lon": 0.0}, {"is_reserved": 0, "type": "electric_scooter", "bike_id": "80e82dcb93c3ab7315b9066025bac462", "lat": 38.89543616666667, "lon": -76.98337366666667, "rental_uris": {"android": "https://dc.lft.to/lastmile_qr_scan", "ios": "https://dc.lft.to/lastmile_qr_scan"}, "is_disabled": 0, "fusion_lat": 0.0, "name": "80e82dcb93c3ab7315b9066025bac462", "fusion_lon": 0.0}, {"is_reserved": 0, "type": "electric_scooter", "bike_id": "122b5f037c31f40ec2132b6ed8423acb", "lat": 38.8749615, "lon": -77.000473, "rental_uris": {"android": "https://dc.lft.to/lastmile_qr_scan", "ios": "https://dc.lft.to/lastmile_qr_scan"}, "is_disabled": 0, "fusion_lat": 0.0, "name": "122b5f037c31f40ec2132b6ed8423acb", "fusion_lon": 0.0}, {"is_reserved": 0, "type": "electric_scooter", "bike_id": "ecd4578b1dd63678a2c9d6de0a27ed2a", "lat": 38.919499, "lon": -77.0288655, "rental_uris": {"android": "https://dc.lft.to/lastmile_qr_scan", "ios": "https://dc.lft.to/lastmile_qr_scan"}, "is_disabled": 0, "fusion_lat": 0.0, "name": "ecd4578b1dd63678a2c9d6de0a27ed2a", "fusion_lon": 0.0}, {"is_reserved": 0, "type": "electric_scooter", "bike_id": "b6363f69a4f97da760db91463444efbc", "lat": 38.9212905, "lon": -77.03188933333334, "rental_uris": {"android": "https://dc.lft.to/lastmile_qr_scan", "ios": "https://dc.lft.to/lastmile_qr_scan"}, "is_disabled": 0, "fusion_lat": 0.0, "name": "b6363f69a4f97da760db91463444efbc", "fusion_lon": 0.0}, {"is_reserved": 0, "type": "electric_bike", "bike_id": "4e0d9f6fba4543f24b177c84af2636bf", "lat": 38.906936333333334, "lon": -76.95253966666667, "rental_uris": {"android": "https://dc.lft.to/lastmile_qr_scan", "ios": "https://dc.lft.to/lastmile_qr_scan"}, "is_disabled": 0, "fusion_lat": 0.0, "name": "4e0d9f6fba4543f24b177c84af2636bf", "fusion_lon": 0.0}, {"is_reserved": 0, "type": "electric_scooter", "bike_id": "4dcefe9a2d2ba00b3999512a7d5d4d3f", "lat": 38.9402885, "lon": -77.0252045, "rental_uris": {"android": "https://dc.lft.to/lastmile_qr_scan", "ios": "https://dc.lft.to/lastmile_qr_scan"}, "is_disabled": 0, "fusion_lat": 0.0, "name": "4dcefe9a2d2ba00b3999512a7d5d4d3f", "fusion_lon": 0.0}, {"is_reserved": 0, "type": "electric_scooter", "bike_id": "baed2b71b73105a97b396cffb06a1af2", "lat": 38.916659833333334, "lon": -77.03192683333333, "rental_uris": {"android": "https://dc.lft.to/lastmile_qr_scan", "ios": "https://dc.lft.to/lastmile_qr_scan"}, "is_disabled": 0, "fusion_lat": 0.0, "name": "baed2b71b73105a97b396cffb06a1af2", "fusion_lon": 0.0}, {"is_reserved": 0, "type": "electric_scooter", "bike_id": "40f4c25e71c2d65c4b53fed02b2332ca", "lat": 38.939757166666666, "lon": -77.05472333333333, "rental_uris": {"android": "https://dc.lft.to/lastmile_qr_scan", "ios": "https://dc.lft.to/lastmile_qr_scan"}, "is_disabled": 0, "fusion_lat": 0.0, "name": "40f4c25e71c2d65c4b53fed02b2332ca", "fusion_lon": 0.0}, {"is_reserved": 0, "type": "electric_scooter", "bike_id": "c2b0dbe21564f9b624b5fb4110a27631", "lat": 38.9171475, "lon": -77.03859033333333, "rental_uris": {"android": "https://dc.lft.to/lastmile_qr_scan", "ios": "https://dc.lft.to/lastmile_qr_scan"}, "is_disabled": 0, "fusion_lat": 0.0, "name": "c2b0dbe21564f9b624b5fb4110a27631", "fusion_lon": 0.0}, {"is_reserved": 0, "type": "electric_scooter", "bike_id": "b7007ca048e477d9e335e67183c569a2", "lat": 38.91797733333333, "lon": -77.0270935, "rental_uris": {"android": "https://dc.lft.to/lastmile_qr_scan", "ios": "https://dc.lft.to/lastmile_qr_scan"}, "is_disabled": 0, "fusion_lat": 0.0, "name": "b7007ca048e477d9e335e67183c569a2", "fusion_lon": 0.0}, {"is_reserved": 0, "type": "electric_scooter", "bike_id": "85582939daed0c9ab8f2bc3581e94290", "lat": 38.928665333333335, "lon": -77.056583, "rental_uris": {"android": "https://dc.lft.to/lastmile_qr_scan", "ios": "https://dc.lft.to/lastmile_qr_scan"}, "is_disabled": 0, "fusion_lat": 0.0, "name": "85582939daed0c9ab8f2bc3581e94290", "fusion_lon": 0.0}, {"is_reserved": 0, "type": "electric_scooter", "bike_id": "8a16d4b64af4880084d55c45c964c559", "lat": 38.92650316666667, "lon": -77.02707366666667, "rental_uris": {"android": "https://dc.lft.to/lastmile_qr_scan", "ios": "https://dc.lft.to/lastmile_qr_scan"}, "is_disabled": 0, "fusion_lat": 0.0, "name": "8a16d4b64af4880084d55c45c964c559", "fusion_lon": 0.0}, {"is_reserved": 0, "type": "electric_scooter", "bike_id": "396d33e1ad1b2f92f4534eba212ce24e", "lat": 38.919909, "lon": -77.01782816666666, "rental_uris": {"android": "https://dc.lft.to/lastmile_qr_scan", "ios": "https://dc.lft.to/lastmile_qr_scan"}, "is_disabled": 0, "fusion_lat": 0.0, "name": "396d33e1ad1b2f92f4534eba212ce24e", "fusion_lon": 0.0}, {"is_reserved": 0, "type": "electric_scooter", "bike_id": "5c9d1a052c3a36a9eee0b0bb97d7c201", "lat": 38.90549716666666, "lon": -77.0060425, "rental_uris": {"android": "https://dc.lft.to/lastmile_qr_scan", "ios": "https://dc.lft.to/lastmile_qr_scan"}, "is_disabled": 0, "fusion_lat": 0.0, "name": "5c9d1a052c3a36a9eee0b0bb97d7c201", "fusion_lon": 0.0}, {"is_reserved": 0, "type": "electric_scooter", "bike_id": "0966d4ef8aa4c7dbb39ac3b32003e9ea", "lat": 38.91913666666667, "lon": -77.04802733333334, "rental_uris": {"android": "https://dc.lft.to/lastmile_qr_scan", "ios": "https://dc.lft.to/lastmile_qr_scan"}, "is_disabled": 0, "fusion_lat": 0.0, "name": "0966d4ef8aa4c7dbb39ac3b32003e9ea", "fusion_lon": 0.0}, {"is_reserved": 0, "type": "electric_scooter", "bike_id": "3dd88efac2d20cd69fe81b1d619f0a29", "lat": 38.9335225, "lon": -77.03425766666666, "rental_uris": {"android": "https://dc.lft.to/lastmile_qr_scan", "ios": "https://dc.lft.to/lastmile_qr_scan"}, "is_disabled": 0, "fusion_lat": 0.0, "name": "3dd88efac2d20cd69fe81b1d619f0a29", "fusion_lon": 0.0}, {"is_reserved": 0, "type": "electric_bike", "bike_id": "9aefcebc6bf24fd404625861f2b388bf", "lat": 38.944722666666664, "lon": -76.98688083333333, "rental_uris": {"android": "https://dc.lft.to/lastmile_qr_scan", "ios": "https://dc.lft.to/lastmile_qr_scan"}, "is_disabled": 0, "fusion_lat": 0.0, "name": "9aefcebc6bf24fd404625861f2b388bf", "fusion_lon": 0.0}, {"is_reserved": 0, "type": "electric_scooter", "bike_id": "ecab85d67018d121abe6f7c97dcd5312", "lat": 38.93129416666667, "lon": -77.023089, "rental_uris": {"android": "https://dc.lft.to/lastmile_qr_scan", "ios": "https://dc.lft.to/lastmile_qr_scan"}, "is_disabled": 0, "fusion_lat": 0.0, "name": "ecab85d67018d121abe6f7c97dcd5312", "fusion_lon": 0.0}, {"is_reserved": 0, "type": "electric_scooter", "bike_id": "2e9eee83de6b0fe3f2173dcbb06cc1cb", "lat": 38.96028583333333, "lon": -77.071552, "rental_uris": {"android": "https://dc.lft.to/lastmile_qr_scan", "ios": "https://dc.lft.to/lastmile_qr_scan"}, "is_disabled": 0, "fusion_lat": 0.0, "name": "2e9eee83de6b0fe3f2173dcbb06cc1cb", "fusion_lon": 0.0}, {"is_reserved": 0, "type": "electric_scooter", "bike_id": "8e89b9b72776d643217de5008a295d0d", "lat": 38.903888, "lon": -77.01621283333333, "rental_uris": {"android": "https://dc.lft.to/lastmile_qr_scan", "ios": "https://dc.lft.to/lastmile_qr_scan"}, "is_disabled": 0, "fusion_lat": 0.0, "name": "8e89b9b72776d643217de5008a295d0d", "fusion_lon": 0.0}, {"is_reserved": 0, "type": "electric_scooter", "bike_id": "8a9d465925d7416bbe312d870ddae949", "lat": 38.92331383333333, "lon": -77.056794, "rental_uris": {"android": "https://dc.lft.to/lastmile_qr_scan", "ios": "https://dc.lft.to/lastmile_qr_scan"}, "is_disabled": 0, "fusion_lat": 0.0, "name": "8a9d465925d7416bbe312d870ddae949", "fusion_lon": 0.0}, {"is_reserved": 0, "type": "electric_bike", "bike_id": "a302ffa4653180b00e67b29f0258ea05", "lat": 38.83626833333334, "lon": -77.00283183333333, "rental_uris": {"android": "https://dc.lft.to/lastmile_qr_scan", "ios": "https://dc.lft.to/lastmile_qr_scan"}, "is_disabled": 0, "fusion_lat": 0.0, "name": "a302ffa4653180b00e67b29f0258ea05", "fusion_lon": 0.0}, {"is_reserved": 0, "type": "electric_scooter", "bike_id": "df8ed7fcca8fd33149e9b6efd088878e", "lat": 38.89808683333333, "lon": -77.02373933333334, "rental_uris": {"android": "https://dc.lft.to/lastmile_qr_scan", "ios": "https://dc.lft.to/lastmile_qr_scan"}, "is_disabled": 0, "fusion_lat": 0.0, "name": "df8ed7fcca8fd33149e9b6efd088878e", "fusion_lon": 0.0}, {"is_reserved": 0, "type": "electric_scooter", "bike_id": "05ecac96d81c9400250ca0e9334ef430", "lat": 38.88984133333334, "lon": -76.99301733333333, "rental_uris": {"android": "https://dc.lft.to/lastmile_qr_scan", "ios": "https://dc.lft.to/lastmile_qr_scan"}, "is_disabled": 0, "fusion_lat": 0.0, "name": "05ecac96d81c9400250ca0e9334ef430", "fusion_lon": 0.0}, {"is_reserved": 0, "type": "electric_scooter", "bike_id": "d7fb9f9b4efb84d776f6f03a098a527c", "lat": 38.882812666666666, "lon": -76.994855, "rental_uris": {"android": "https://dc.lft.to/lastmile_qr_scan", "ios": "https://dc.lft.to/lastmile_qr_scan"}, "is_disabled": 0, "fusion_lat": 0.0, "name": "d7fb9f9b4efb84d776f6f03a098a527c", "fusion_lon": 0.0}, {"is_reserved": 0, "type": "electric_bike", "bike_id": "067fed8ce0cfb046a041a893d0cd7729", "lat": 38.945367, "lon": -77.34460583333333, "rental_uris": {"android": "https://dc.lft.to/lastmile_qr_scan", "ios": "https://dc.lft.to/lastmile_qr_scan"}, "is_disabled": 0, "fusion_lat": 0.0, "name": "067fed8ce0cfb046a041a893d0cd7729", "fusion_lon": 0.0}, {"is_reserved": 0, "type": "electric_bike", "bike_id": "735ff8db1bf10381f2e6549986fe40ab", "lat": 39.084317, "lon": -76.95147083333333, "rental_uris": {"android": "https://dc.lft.to/lastmile_qr_scan", "ios": "https://dc.lft.to/lastmile_qr_scan"},