{"data": {"bikes": [{"bike_id": "2efd42e60233c1603c5202d5c6e6630e", "type": "electric_bike", "is_disabled": 0, "lat": 38.931439833333336, "rental_uris": {"ios": "https://dc.lft.to/lastmile_qr_scan", "android": "https://dc.lft.to/lastmile_qr_scan"}, "is_reserved": 0, "fusion_lon": 0.0, "fusion_lat": 0.0, "lon": -77.00075083333333, "name": "2efd42e60233c1603c5202d5c6e6630e"}, {"bike_id": "bfb501cf08339c108ae11f572bc73106", "type": "electric_scooter", "is_disabled": 0, "lat": 38.9002515, "rental_uris": {"ios": "https://dc.lft.to/lastmile_qr_scan", "android": "https://dc.lft.to/lastmile_qr_scan"}, "is_reserved": 0, "fusion_lon": 0.0, "fusion_lat": 0.0, "lon": -77.0021485, "name": "bfb501cf08339c108ae11f572bc73106"}, {"bike_id": "06abcb296f7e5f59f2c86fa8344056ea", "type": "electric_scooter", "is_disabled": 0, "lat": 38.90263616666667, "rental_uris": {"ios": "https://dc.lft.to/lastmile_qr_scan", "android": "https://dc.lft.to/lastmile_qr_scan"}, "is_reserved": 0, "fusion_lon": 0.0, "fusion_lat": 0.0, "lon": -77.0176265, "name": "06abcb296f7e5f59f2c86fa8344056ea"}, {"bike_id": "4dd1c3a5f3c3af7e5d903b1f86649ae7", "type": "electric_scooter", "is_disabled": 0, "lat": 38.905450333333334, "rental_uris": {"ios": "https://dc.lft.to/lastmile_qr_scan", "android": "https://dc.lft.to/lastmile_qr_scan"}, "is_reserved": 0, "fusion_lon": 0.0, "fusion_lat": 0.0, "lon": -77.03029883333333, "name": "4dd1c3a5f3c3af7e5d903b1f86649ae7"}, {"bike_id": "469e3f2c8e8a8a7992e4d124e76446fa", "type": "electric_scooter", "is_disabled": 0, "lat": 38.917228333333334, "rental_uris": {"ios": "https://dc.lft.to/lastmile_qr_scan", "android": "https://dc.lft.to/lastmile_qr_scan"}, "is_reserved": 0, "fusion_lon": 0.0, "fusion_lat": 0.0, "lon": -77.03165, "name": "469e3f2c8e8a8a7992e4d124e76446fa"}, {"bike_id": "8d3e73dc4c755918c346a0828dd1eb91", "type": "electric_scooter", "is_disabled": 0, "lat": 38.911420166666666, "rental_uris": {"ios": "https://dc.lft.to/lastmile_qr_scan", "android": "https://dc.lft.to/lastmile_qr_scan"}, "is_reserved": 0, "fusion_lon": 0.0, "fusion_lat": 0.0, "lon": -76.9901325, "name": "8d3e73dc4c755918c346a0828dd1eb91"}, {"bike_id": "d08aeeb344a69d547c7bbdd8bbc67d86", "type": "electric_scooter", "is_disabled": 0, "lat": 38.87545516666667, "rental_uris": {"ios": "https://dc.lft.to/lastmile_qr_scan", "android": "https://dc.lft.to/lastmile_qr_scan"}, "is_reserved": 0, "fusion_lon": 0.0, "fusion_lat": 0.0, "lon": -77.00559616666666, "name": "d08aeeb344a69d547c7bbdd8bbc67d86"}, {"bike_id": "acad9bcb150ebbdb84d33e6b0521afb9", "type": "electric_scooter", "is_disabled": 0, "lat": 38.92768383333333, "rental_uris": {"ios": "https://dc.lft.to/lastmile_qr_scan", "android": "https://dc.lft.to/lastmile_qr_scan"}, "is_reserved": 0, "fusion_lon": 0.0, "fusion_lat": 0.0, "lon": -77.0274045, "name": "acad9bcb150ebbdb84d33e6b0521afb9"}, {"bike_id": "54c0813c985333b940a552128f91babd", "type": "electric_scooter", "is_disabled": 0, "lat": 38.9231575, "rental_uris": {"ios": "https://dc.lft.to/lastmile_qr_scan", "android": "https://dc.lft.to/lastmile_qr_scan"}, "is_reserved": 0, "fusion_lon": 0.0, "fusion_lat": 0.0, "lon": -77.0212885, "name": "54c0813c985333b940a552128f91babd"}, {"bike_id": "8814f4663aa5135bdb79f34c2899b018", "type": "electric_scooter", "is_disabled": 0, "lat": 38.896012666666664, "rental_uris": {"ios": "https://dc.lft.to/lastmile_qr_scan", "android": "https://dc.lft.to/lastmile_qr_scan"}, "is_reserved": 0, "fusion_lon": 0.0, "fusion_lat": 0.0, "lon": -77.04483033333334, "name": "8814f4663aa5135bdb79f34c2899b018"}, {"bike_id": "22bf4b47de3ad3b9e5d30e63c9793c5d", "type": "electric_scooter", "is_disabled": 0, "lat": 38.89632983333333, "rental_uris": {"ios": "https://dc.lft.to/lastmile_qr_scan", "android": "https://dc.lft.to/lastmile_qr_scan"}, "is_reserved": 0, "fusion_lon": 0.0, "fusion_lat": 0.0, "lon": -77.0220705, "name": "22bf4b47de3ad3b9e5d30e63c9793c5d"}, {"bike_id": "82a27b8bc0d4734767aacac268f86350", "type": "electric_scooter", "is_disabled": 0, "lat": 38.91759916666667, "rental_uris": {"ios": "https://dc.lft.to/lastmile_qr_scan", "android": "https://dc.lft.to/lastmile_qr_scan"}, "is_reserved": 0, "fusion_lon": 0.0, "fusion_lat": 0.0, "lon": -77.02303416666666, "name": "82a27b8bc0d4734767aacac268f86350"}, {"bike_id": "dd34f311d974917c78a437b4d0eeecf2", "type": "electric_scooter", "is_disabled": 0, "lat": 38.871787833333336, "rental_uris": {"ios": "https://dc.lft.to/lastmile_qr_scan", "android": "https://dc.lft.to/lastmile_qr_scan"}, "is_reserved": 0, "fusion_lon": 0.0, "fusion_lat": 0.0, "lon": -77.00628283333333, "name": "dd34f311d974917c78a437b4d0eeecf2"}, {"bike_id": "6957a7e095ee55c885d3fd71da3efdd7", "type": "electric_bike", "is_disabled": 0, "lat": 38.873010666666666, "rental_uris": {"ios": "https://dc.lft.to/lastmile_qr_scan", "android": "https://dc.lft.to/lastmile_qr_scan"}, "is_reserved": 0, "fusion_lon": 0.0, "fusion_lat": 0.0, "lon": -77.1392195, "name": "6957a7e095ee55c885d3fd71da3efdd7"}, {"bike_id": "e4d12ec82d24f88631982589323ebb23", "type": "electric_scooter", "is_disabled": 0, "lat": 38.90801366666667, "rental_uris": {"ios": "https://dc.lft.to/lastmile_qr_scan", "android": "https://dc.lft.to/lastmile_qr_scan"}, "is_reserved": 0, "fusion_lon": 0.0, "fusion_lat": 0.0, "lon": -76.996998, "name": "e4d12ec82d24f88631982589323ebb23"}, {"bike_id": "b1d9ad13952525f934afb36c9bc59a79", "type": "electric_scooter", "is_disabled": 0, "lat": 38.930288833333336, "rental_uris": {"ios": "https://dc.lft.to/lastmile_qr_scan", "android": "https://dc.lft.to/lastmile_qr_scan"}, "is_reserved": 0, "fusion_lon": 0.0, "fusion_lat": 0.0, "lon": -77.0378975, "name": "b1d9ad13952525f934afb36c9bc59a79"}, {"bike_id": "87dc45561e145febcdd12d472c77aa68", "type": "electric_scooter", "is_disabled": 0, "lat": 38.91037033333333, "rental_uris": {"ios": "https://dc.lft.to/lastmile_qr_scan", "android": "https://dc.lft.to/lastmile_qr_scan"}, "is_reserved": 0, "fusion_lon": 0.0, "fusion_lat": 0.0, "lon": -77.0379775, "name": "87dc45561e145febcdd12d472c77aa68"}, {"bike_id": "e7c95e6e1bb34f780adb5d22261e3267", "type": "electric_scooter", "is_disabled": 0, "lat": 38.896113, "rental_uris": {"ios": "https://dc.lft.to/lastmile_qr_scan", "android": "https://dc.lft.to/lastmile_qr_scan"}, "is_reserved": 0, "fusion_lon": 0.0, "fusion_lat": 0.0, "lon": -77.026303, "name": "e7c95e6e1bb34f780adb5d22261e3267"}, {"bike_id": "d8334460386e772225b65486e32089c2", "type": "electric_scooter", "is_disabled": 0, "lat": 38.894976, "rental_uris": {"ios": "https://dc.lft.to/lastmile_qr_scan", "android": "https://dc.lft.to/lastmile_qr_scan"}, "is_reserved": 0, "fusion_lon": 0.0, "fusion_lat": 0.0, "lon": -77.01113016666666, "name": "d8334460386e772225b65486e32089c2"}, {"bike_id": "ba2467d76fd6e95fdd2d38c33294a1ed", "type": "electric_scooter", "is_disabled": 0, "lat": 38.928004, "rental_uris": {"ios": "https://dc.lft.to/lastmile_qr_scan", "android": "https://dc.lft.to/lastmile_qr_scan"}, "is_reserved": 0, "fusion_lon": 0.0, "fusion_lat": 0.0, "lon": -77.05359483333334, "name": "ba2467d76fd6e95fdd2d38c33294a1ed"}, {"bike_id": "995070b7ba02e3596a7f439ff0c0f849", "type": "electric_scooter", "is_disabled": 0, "lat": 38.91116533333334, "rental_uris": {"ios": "https://dc.lft.to/lastmile_qr_scan", "android": "https://dc.lft.to/lastmile_qr_scan"}, "is_reserved": 0, "fusion_lon": 0.0, "fusion_lat": 0.0, "lon": -77.03283033333334, "name": "995070b7ba02e3596a7f439ff0c0f849"}, {"bike_id": "799b630781342090d9e162d13fd97913", "type": "electric_scooter", "is_disabled": 0, "lat": 38.92301333333333, "rental_uris": {"ios": "https://dc.lft.to/lastmile_qr_scan", "android": "https://dc.lft.to/lastmile_qr_scan"}, "is_reserved": 0, "fusion_lon": 0.0, "fusion_lat": 0.0, "lon": -77.04461983333333, "name": "799b630781342090d9e162d13fd97913"}, {"bike_id": "e7a1b5578e4002ec02be20673083e7da", "type": "electric_scooter", "is_disabled": 0, "lat": 38.890794, "rental_uris": {"ios": "https://dc.lft.to/lastmile_qr_scan", "android": "https://dc.lft.to/lastmile_qr_scan"}, "is_reserved": 0, "fusion_lon": 0.0, "fusion_lat": 0.0, "lon": -76.98826416666667, "name": "e7a1b5578e4002ec02be20673083e7da"}, {"bike_id": "e8b364302023548f5f6e59b1a6e5723e", "type": "electric_scooter", "is_disabled": 0, "lat": 38.88716433333333, "rental_uris": {"ios": "https://dc.lft.to/lastmile_qr_scan", "android": "https://dc.lft.to/lastmile_qr_scan"}, "is_reserved": 0, "fusion_lon": 0.0, "fusion_lat": 0.0, "lon": -76.9963065, "name": "e8b364302023548f5f6e59b1a6e5723e"}, {"bike_id": "6429d8b72d7c1c436952f57deaa878ab", "type": "electric_scooter", "is_disabled": 0, "lat": 38.9097915, "rental_uris": {"ios": "https://dc.lft.to/lastmile_qr_scan", "android": "https://dc.lft.to/lastmile_qr_scan"}, "is_reserved": 0, "fusion_lon": 0.0, "fusion_lat": 0.0, "lon": -77.03845416666667, "name": "6429d8b72d7c1c436952f57deaa878ab"}, {"bike_id": "7275a66d0cbcded75d84748cf9fc66f5", "type": "electric_scooter", "is_disabled": 0, "lat": 38.90726733333333, "rental_uris": {"ios": "https://dc.lft.to/lastmile_qr_scan", "android": "https://dc.lft.to/lastmile_qr_scan"}, "is_reserved": 0, "fusion_lon": 0.0, "fusion_lat": 0.0, "lon": -77.0407985, "name": "7275a66d0cbcded75d84748cf9fc66f5"}, {"bike_id": "34fe8bd92775e4b41acebd60d588ef2f", "type": "electric_bike", "is_disabled": 0, "lat": 38.897385666666665, "rental_uris": {"ios": "https://dc.lft.to/lastmile_qr_scan", "android": "https://dc.lft.to/lastmile_qr_scan"}, "is_reserved": 0, "fusion_lon": 0.0, "fusion_lat": 0.0, "lon": -76.94241083333333, "name": "34fe8bd92775e4b41acebd60d588ef2f"}, {"bike_id": "d6646daa79c60c17d03f643b398931ba", "type": "electric_scooter", "is_disabled": 0, "lat": 38.942917333333334, "rental_uris": {"ios": "https://dc.lft.to/lastmile_qr_scan", "android": "https://dc.lft.to/lastmile_qr_scan"}, "is_reserved": 0, "fusion_lon": 0.0, "fusion_lat": 0.0, "lon": -77.02169216666667, "name": "d6646daa79c60c17d03f643b398931ba"}, {"bike_id": "94accb0aedbffa191f1fa0347bc6d01d", "type": "electric_scooter", "is_disabled": 0, "lat": 38.9078195, "rental_uris": {"ios": "https://dc.lft.to/lastmile_qr_scan", "android": "https://dc.lft.to/lastmile_qr_scan"}, "is_reserved": 0, "fusion_lon": 0.0, "fusion_lat": 0.0, "lon": -77.0417645, "name": "94accb0aedbffa191f1fa0347bc6d01d"}, {"bike_id": "5ae01289c917def29031a38ca20fd938", "type": "electric_scooter", "is_disabled": 0, "lat": 38.89856783333333, "rental_uris": {"ios": "https://dc.lft.to/lastmile_qr_scan", "android": "https://dc.lft.to/lastmile_qr_scan"}, "is_reserved": 0, "fusion_lon": 0.0, "fusion_lat": 0.0, "lon": -77.02890266666667, "name": "5ae01289c917def29031a38ca20fd938"}, {"bike_id": "21a303818a3b69728a642a583b135fc4", "type": "electric_scooter", "is_disabled": 0, "lat": 38.9258155, "rental_uris": {"ios": "https://dc.lft.to/lastmile_qr_scan", "android": "https://dc.lft.to/lastmile_qr_scan"}, "is_reserved": 0, "fusion_lon": 0.0, "fusion_lat": 0.0, "lon": -77.02875766666666, "name": "21a303818a3b69728a642a583b135fc4"}, {"bike_id": "2cd74df21763a6444401ff7473736fb3", "type": "electric_scooter", "is_disabled": 0, "lat": 38.98696133333333, "rental_uris": {"ios": "https://dc.lft.to/lastmile_qr_scan", "android": "https://dc.lft.to/lastmile_qr_scan"}, "is_reserved": 0, "fusion_lon": 0.0, "fusion_lat": 0.0, "lon": -77.02981483333333, "name": "2cd74df21763a6444401ff7473736fb3"}, {"bike_id": "6dce00b67e7617a3c057e72ba779dfc1", "type": "electric_scooter", "is_disabled": 0, "lat": 38.887272333333335, "rental_uris": {"ios": "https://dc.lft.to/lastmile_qr_scan", "android": "https://dc.lft.to/lastmile_qr_scan"}, "is_reserved": 0, "fusion_lon": 0.0, "fusion_lat": 0.0, "lon": -77.021781, "name": "6dce00b67e7617a3c057e72ba779dfc1"}, {"bike_id": "29af71de14934f4f50588b55b10d4958", "type": "electric_scooter", "is_disabled": 0, "lat": 38.910176, "rental_uris": {"ios": "https://dc.lft.to/lastmile_qr_scan", "android": "https://dc.lft.to/lastmile_qr_scan"}, "is_reserved": 0, "fusion_lon": 0.0, "fusion_lat": 0.0, "lon": -77.02850966666666, "name": "29af71de14934f4f50588b55b10d4958"}, {"bike_id": "b9a3e118236dbcffd393ce13932a9e62", "type": "electric_scooter", "is_disabled": 0, "lat": 38.932419833333334, "rental_uris": {"ios": "https://dc.lft.to/lastmile_qr_scan", "android": "https://dc.lft.to/lastmile_qr_scan"}, "is_reserved": 0, "fusion_lon": 0.0, "fusion_lat": 0.0, "lon": -76.99515066666666, "name": "b9a3e118236dbcffd393ce13932a9e62"}, {"bike_id": "9b572466288f02122446be1e48fd25d8", "type": "electric_scooter", "is_disabled": 0, "lat": 38.91551116666667, "rental_uris": {"ios": "https://dc.lft.to/lastmile_qr_scan", "android": "https://dc.lft.to/lastmile_qr_scan"}, "is_reserved": 0, "fusion_lon": 0.0, "fusion_lat": 0.0, "lon": -77.02430133333333, "name": "9b572466288f02122446be1e48fd25d8"}, {"bike_id": "432b10954aa13862e1e64a1ed0c7a9b0", "type": "electric_scooter", "is_disabled": 0, "lat": 38.92059033333334, "rental_uris": {"ios": "https://dc.lft.to/lastmile_qr_scan", "android": "https://dc.lft.to/lastmile_qr_scan"}, "is_reserved": 0, "fusion_lon": 0.0, "fusion_lat": 0.0, "lon": -77.08047683333334, "name": "432b10954aa13862e1e64a1ed0c7a9b0"}, {"bike_id": "02723c6398fe13f2d4561d35ece9c441", "type": "electric_scooter", "is_disabled": 0, "lat": 38.88657083333333, "rental_uris": {"ios": "https://dc.lft.to/lastmile_qr_scan", "android": "https://dc.lft.to/lastmile_qr_scan"}, "is_reserved": 0, "fusion_lon": 0.0, "fusion_lat": 0.0, "lon": -77.02831416666666, "name": "02723c6398fe13f2d4561d35ece9c441"}, {"bike_id": "2eb6e8c5783cd0a3de94672bc9378559", "type": "electric_scooter", "is_disabled": 0, "lat": 38.906588166666666, "rental_uris": {"ios": "https://dc.lft.to/lastmile_qr_scan", "android": "https://dc.lft.to/lastmile_qr_scan"}, "is_reserved": 0, "fusion_lon": 0.0, "fusion_lat": 0.0, "lon": -77.00971683333333, "name": "2eb6e8c5783cd0a3de94672bc9378559"}, {"bike_id": "3c6c6a6b33ed37f98b902917d62a8c5d", "type": "electric_scooter", "is_disabled": 0, "lat": 38.906961333333335, "rental_uris": {"ios": "https://dc.lft.to/lastmile_qr_scan", "android": "https://dc.lft.to/lastmile_qr_scan"}, "is_reserved": 0, "fusion_lon": 0.0, "fusion_lat": 0.0, "lon": -77.01547783333334, "name": "3c6c6a6b33ed37f98b902917d62a8c5d"}, {"bike_id": "da68f77a22d0905e5a6df5304e3a25b1", "type": "electric_scooter", "is_disabled": 0, "lat": 38.92119016666667, "rental_uris": {"ios": "https://dc.lft.to/lastmile_qr_scan", "android": "https://dc.lft.to/lastmile_qr_scan"}, "is_reserved": 0, "fusion_lon": 0.0, "fusion_lat": 0.0, "lon": -77.012111, "name": "da68f77a22d0905e5a6df5304e3a25b1"}, {"bike_id": "4ba37648498be60b7729f09a59fd872b", "type": "electric_scooter", "is_disabled": 0, "lat": 38.90171016666667, "rental_uris": {"ios": "https://dc.lft.to/lastmile_qr_scan", "android": "https://dc.lft.to/lastmile_qr_scan"}, "is_reserved": 0, "fusion_lon": 0.0, "fusion_lat": 0.0, "lon": -77.02481433333334, "name": "4ba37648498be60b7729f09a59fd872b"}, {"bike_id": "39827c3d577872f20f7e284f63346f7f", "type": "electric_scooter", "is_disabled": 0, "lat": 38.93733866666667, "rental_uris": {"ios": "https://dc.lft.to/lastmile_qr_scan", "android": "https://dc.lft.to/lastmile_qr_scan"}, "is_reserved": 0, "fusion_lon": 0.0, "fusion_lat": 0.0, "lon": -77.032654, "name": "39827c3d577872f20f7e284f63346f7f"}, {"bike_id": "db6c42c66863429139aa214fa36dea9b", "type": "electric_bike", "is_disabled": 0, "lat": 38.92924333333333, "rental_uris": {"ios": "https://dc.lft.to/lastmile_qr_scan", "android": "https://dc.lft.to/lastmile_qr_scan"}, "is_reserved": 0, "fusion_lon": 0.0, "fusion_lat": 0.0, "lon": -77.03263133333333, "name": "db6c42c66863429139aa214fa36dea9b"}, {"bike_id": "996edd9ea9561c071431ce92558d7cb6", "type": "electric_scooter", "is_disabled": 0, "lat": 38.93706866666667, "rental_uris": {"ios": "https://dc.lft.to/lastmile_qr_scan", "android": "https://dc.lft.to/lastmile_qr_scan"}, "is_reserved": 0, "fusion_lon": 0.0, "fusion_lat": 0.0, "lon": -77.02401716666667, "name": "996edd9ea9561c071431ce92558d7cb6"}, {"bike_id": "8a011816190047774cafd2b273ce3218", "type": "electric_scooter", "is_disabled": 0, "lat": 38.918449, "rental_uris": {"ios": "https://dc.lft.to/lastmile_qr_scan", "android": "https://dc.lft.to/lastmile_qr_scan"}, "is_reserved": 0, "fusion_lon": 0.0, "fusion_lat": 0.0, "lon": -77.03215633333333, "name": "8a011816190047774cafd2b273ce3218"}, {"bike_id": "34471bbf175b7de5327465bc56a3dd07", "type": "electric_scooter", "is_disabled": 0, "lat": 38.899409666666664, "rental_uris": {"ios": "https://dc.lft.to/lastmile_qr_scan", "android": "https://dc.lft.to/lastmile_qr_scan"}, "is_reserved": 0, "fusion_lon": 0.0, "fusion_lat": 0.0, "lon": -77.01451366666667, "name": "34471bbf175b7de5327465bc56a3dd07"}, {"bike_id": "64c43cb94a8f811779ffaf8cf683a0c8", "type": "electric_scooter", "is_disabled": 0, "lat": 38.931966333333335, "rental_uris": {"ios": "https://dc.lft.to/lastmile_qr_scan", "android": "https://dc.lft.to/lastmile_qr_scan"}, "is_reserved": 0, "fusion_lon": 0.0, "fusion_lat": 0.0, "lon": -77.02398266666667, "name": "64c43cb94a8f811779ffaf8cf683a0c8"}, {"bike_id": "cda6a3b89c2a404fb9f2656d2a2751b1", "type": "electric_scooter", "is_disabled": 0, "lat": 38.900655, "rental_uris": {"ios": "https://dc.lft.to/lastmile_qr_scan", "android": "https://dc.lft.to/lastmile_qr_scan"}, "is_reserved": 0, "fusion_lon": 0.0, "fusion_lat": 0.0, "lon": -76.92743183333333, "name": "cda6a3b89c2a404fb9f2656d2a2751b1"}, {"bike_id": "fed97a7573fbc435119de48dba590cae", "type": "electric_scooter", "is_disabled": 0, "lat": 38.9017155, "rental_uris": {"ios": "https://dc.lft.to/lastmile_qr_scan", "android": "https://dc.lft.to/lastmile_qr_scan"}, "is_reserved": 0, "fusion_lon": 0.0, "fusion_lat": 0.0, "lon": -77.02040583333333, "name": "fed97a7573fbc435119de48dba590cae"}, {"bike_id": "23586248fb59c5c3c8637356e5d4d768", "type": "electric_scooter", "is_disabled": 0, "lat": 38.900501166666665, "rental_uris": {"ios": "https://dc.lft.to/lastmile_qr_scan", "android": "https://dc.lft.to/lastmile_qr_scan"}, "is_reserved": 0, "fusion_lon": 0.0, "fusion_lat": 0.0, "lon": -77.01296083333334, "name": "23586248fb59c5c3c8637356e5d4d768"}, {"bike_id": "0ac4bc952c3a52080221a4a8e0761511", "type": "electric_scooter", "is_disabled": 0, "lat": 38.923147166666666, "rental_uris": {"ios": "https://dc.lft.to/lastmile_qr_scan", "android": "https://dc.lft.to/lastmile_qr_scan"}, "is_reserved": 0, "fusion_lon": 0.0, "fusion_lat": 0.0, "lon": -77.044449, "name": "0ac4bc952c3a52080221a4a8e0761511"}, {"bike_id": "df21b059b39513ad6ee0cb5e3b920884", "type": "electric_bike", "is_disabled": 0, "lat": 38.93294783333333, "rental_uris": {"ios": "https://dc.lft.to/lastmile_qr_scan", "android": "https://dc.lft.to/lastmile_qr_scan"}, "is_reserved": 0, "fusion_lon": 0.0, "fusion_lat": 0.0, "lon": -77.0205665, "name": "df21b059b39513ad6ee0cb5e3b920884"}, {"bike_id": "0b79878e29a4b54f8e18e09b9f0f126e", "type": "electric_scooter", "is_disabled": 0, "lat": 38.90575483333333, "rental_uris": {"ios": "https://dc.lft.to/lastmile_qr_scan", "android": "https://dc.lft.to/lastmile_qr_scan"}, "is_reserved": 0, "fusion_lon": 0.0, "fusion_lat": 0.0, "lon": -77.05136283333333, "name": "0b79878e29a4b54f8e18e09b9f0f126e"}, {"bike_id": "bce55c47a4241dbb67caa480b04952fa", "type": "electric_scooter", "is_disabled": 0, "lat": 38.949942166666666, "rental_uris": {"ios": "https://dc.lft.to/lastmile_qr_scan", "android": "https://dc.lft.to/lastmile_qr_scan"}, "is_reserved": 0, "fusion_lon": 0.0, "fusion_lat": 0.0, "lon": -77.01825733333334, "name": "bce55c47a4241dbb67caa480b04952fa"}, {"bike_id": "9e7cae2b64917df4b11b4e1e97369770", "type": "electric_scooter", "is_disabled": 0, "lat": 38.876815, "rental_uris": {"ios": "https://dc.lft.to/lastmile_qr_scan", "android": "https://dc.lft.to/lastmile_qr_scan"}, "is_reserved": 0, "fusion_lon": 0.0, "fusion_lat": 0.0, "lon": -77.00058516666667, "name": "9e7cae2b64917df4b11b4e1e97369770"}, {"bike_id": "362b8bf7f10b15ba51c4c903eded6480", "type": "electric_scooter", "is_disabled": 0, "lat": 38.91763566666667, "rental_uris": {"ios": "https://dc.lft.to/lastmile_qr_scan", "android": "https://dc.lft.to/lastmile_qr_scan"}, "is_reserved": 0, "fusion_lon": 0.0, "fusion_lat": 0.0, "lon": -77.04037833333334, "name": "362b8bf7f10b15ba51c4c903eded6480"}, {"bike_id": "5cde4d5fcced3c9562d032e204a25b70", "type": "electric_scooter", "is_disabled": 0, "lat": 38.87623883333333, "rental_uris": {"ios": "https://dc.lft.to/lastmile_qr_scan", "android": "https://dc.lft.to/lastmile_qr_scan"}, "is_reserved": 0, "fusion_lon": 0.0, "fusion_lat": 0.0, "lon": -76.965248, "name": "5cde4d5fcced3c9562d032e204a25b70"}, {"bike_id": "b6d7d8bd5eecc90adb32c14705641b52", "type": "electric_scooter", "is_disabled": 0, "lat": 38.91111133333333, "rental_uris": {"ios": "https://dc.lft.to/lastmile_qr_scan", "android": "https://dc.lft.to/lastmile_qr_scan"}, "is_reserved": 0, "fusion_lon": 0.0, "fusion_lat": 0.0, "lon": -77.02767966666667, "name": "b6d7d8bd5eecc90adb32c14705641b52"}, {"bike_id": "935c55b3f1be39f1b82a8e958bd75ee2", "type": "electric_bike", "is_disabled": 0, "lat": 38.89564633333333, "rental_uris": {"ios": "https://dc.lft.to/lastmile_qr_scan", "android": "https://dc.lft.to/lastmile_qr_scan"}, "is_reserved": 0, "fusion_lon": 0.0, "fusion_lat": 0.0, "lon": -77.127326, "name": "935c55b3f1be39f1b82a8e958bd75ee2"}, {"bike_id": "4a405e59738ef39e22334261ed8078fd", "type": "electric_scooter", "is_disabled": 0, "lat": 38.93925383333333, "rental_uris": {"ios": "https://dc.lft.to/lastmile_qr_scan", "android": "https://dc.lft.to/lastmile_qr_scan"}, "is_reserved": 0, "fusion_lon": 0.0, "fusion_lat": 0.0, "lon": -77.0368675, "name": "4a405e59738ef39e22334261ed8078fd"}, {"bike_id": "25cbb4170829b1ff4523e3e0d1a758a3", "type": "electric_bike", "is_disabled": 0, "lat": 38.94064, "rental_uris": {"ios": "https://dc.lft.to/lastmile_qr_scan", "android": "https://dc.lft.to/lastmile_qr_scan"}, "is_reserved": 0, "fusion_lon": 0.0, "fusion_lat": 0.0, "lon": -77.03018, "name": "25cbb4170829b1ff4523e3e0d1a758a3"}, {"bike_id": "c4723edaf6f5070c87cc151ba7745adc", "type": "electric_scooter", "is_disabled": 0, "lat": 38.91383316666667, "rental_uris": {"ios": "https://dc.lft.to/lastmile_qr_scan", "android": "https://dc.lft.to/lastmile_qr_scan"}, "is_reserved": 0, "fusion_lon": 0.0, "fusion_lat": 0.0, "lon": -77.03214616666666, "name": "c4723edaf6f5070c87cc151ba7745adc"}, {"bike_id": "79ec58c30d235e934e9caa96ea74c99a", "type": "electric_scooter", "is_disabled": 0, "lat": 38.92262316666667, "rental_uris": {"ios": "https://dc.lft.to/lastmile_qr_scan", "android": "https://dc.lft.to/lastmile_qr_scan"}, "is_reserved": 0, "fusion_lon": 0.0, "fusion_lat": 0.0, "lon": -77.02040133333334, "name": "79ec58c30d235e934e9caa96ea74c99a"}, {"bike_id": "33e40529c0077622cd2600f8f806406b", "type": "electric_scooter", "is_disabled": 0, "lat": 38.896074666666664, "rental_uris": {"ios": "https://dc.lft.to/lastmile_qr_scan", "android": "https://dc.lft.to/lastmile_qr_scan"}, "is_reserved": 0, "fusion_lon": 0.0, "fusion_lat": 0.0, "lon": -77.00930966666667, "name": "33e40529c0077622cd2600f8f806406b"}, {"bike_id": "5e2270be064d0f87d05e9791b3c71c09", "type": "electric_bike", "is_disabled": 0, "lat": 38.92150783333334, "rental_uris": {"ios": "https://dc.lft.to/lastmile_qr_scan", "android": "https://dc.lft.to/lastmile_qr_scan"}, "is_reserved": 0, "fusion_lon": 0.0, "fusion_lat": 0.0, "lon": -77.0364655, "name": "5e2270be064d0f87d05e9791b3c71c09"}, {"bike_id": "164626d5d99328de020f401a4e668dd5", "type": "electric_scooter", "is_disabled": 0, "lat": 38.91773666666667, "rental_uris": {"ios": "https://dc.lft.to/lastmile_qr_scan", "android": "https://dc.lft.to/lastmile_qr_scan"}, "is_reserved": 0, "fusion_lon": 0.0, "fusion_lat": 0.0, "lon": -77.02962016666666, "name": "164626d5d99328de020f401a4e668dd5"}, {"bike_id": "889de19cb6881c05a63d46d1b22afa8a", "type": "electric_scooter", "is_disabled": 0, "lat": 38.88542783333333, "rental_uris": {"ios": "https://dc.lft.to/lastmile_qr_scan", "android": "https://dc.lft.to/lastmile_qr_scan"}, "is_reserved": 0, "fusion_lon": 0.0, "fusion_lat": 0.0, "lon": -77.005807, "name": "889de19cb6881c05a63d46d1b22afa8a"}, {"bike_id": "b630e2838d12df29c8394b8b883f4ca6", "type": "electric_scooter", "is_disabled": 0, "lat": 38.923983, "rental_uris": {"ios": "https://dc.lft.to/lastmile_qr_scan", "android": "https://dc.lft.to/lastmile_qr_scan"}, "is_reserved": 0, "fusion_lon": 0.0, "fusion_lat": 0.0, "lon": -76.993883, "name": "b630e2838d12df29c8394b8b883f4ca6"}, {"bike_id": "9f1042a56dfe73c0b10da1e6ec69eb2b", "type": "electric_scooter", "is_disabled": 0, "lat": 38.91420133333333, "rental_uris": {"ios": "https://dc.lft.to/lastmile_qr_scan", "android": "https://dc.lft.to/lastmile_qr_scan"}, "is_reserved": 0, "fusion_lon": 0.0, "fusion_lat": 0.0, "lon": -77.01988066666667, "name": "9f1042a56dfe73c0b10da1e6ec69eb2b"}, {"bike_id": "a14da1da00e5f68281f3e4ddf1a9c13d", "type": "electric_scooter", "is_disabled": 0, "lat": 38.91120166666666, "rental_uris": {"ios": "https://dc.lft.to/lastmile_qr_scan", "android": "https://dc.lft.to/lastmile_qr_scan"}, "is_reserved": 0, "fusion_lon": 0.0, "fusion_lat": 0.0, "lon": -77.04224416666666, "name": "a14da1da00e5f68281f3e4ddf1a9c13d"}, {"bike_id": "9cf70f8762faf1fa38a0380ffcaf8ca1", "type": "electric_scooter", "is_disabled": 0, "lat": 38.9210565, "rental_uris": {"ios": "https://dc.lft.to/lastmile_qr_scan", "android": "https://dc.lft.to/lastmile_qr_scan"}, "is_reserved": 0, "fusion_lon": 0.0, "fusion_lat": 0.0, "lon": -77.04170183333333, "name": "9cf70f8762faf1fa38a0380ffcaf8ca1"}, {"bike_id": "77d6c2e4b088cc16a50a65b9e46264d9", "type": "electric_scooter", "is_disabled": 0, "lat": 38.88709633333333, "rental_uris": {"ios": "https://dc.lft.to/lastmile_qr_scan", "android": "https://dc.lft.to/lastmile_qr_scan"}, "is_reserved": 0, "fusion_lon": 0.0, "fusion_lat": 0.0, "lon": -77.01774766666666, "name": "77d6c2e4b088cc16a50a65b9e46264d9"}, {"bike_id": "689133e4cf0de4ea3146e8088a807895", "type": "electric_scooter", "is_disabled": 0, "lat": 38.91701183333333, "rental_uris": {"ios": "https://dc.lft.to/lastmile_qr_scan", "android": "https://dc.lft.to/lastmile_qr_scan"}, "is_reserved": 0, "fusion_lon": 0.0, "fusion_lat": 0.0, "lon": -77.02399766666667, "name": "689133e4cf0de4ea3146e8088a807895"}, {"bike_id": "2390d3196e46acc18011bfe13935bbf4", "type": "electric_bike", "is_disabled": 0, "lat": 39.013686166666666, "rental_uris": {"ios": "https://dc.lft.to/lastmile_qr_scan", "android": "https://dc.lft.to/lastmile_qr_scan"}, "is_reserved": 0, "fusion_lon": 0.0, "fusion_lat": 0.0, "lon": -76.92136816666667, "name": "2390d3196e46acc18011bfe13935bbf4"}, {"bike_id": "ba07ab5ee35524d8b6026e25f913de4b", "type": "electric_scooter", "is_disabled": 0, "lat": 38.90819033333333, "rental_uris": {"ios": "https://dc.lft.to/lastmile_qr_scan", "android": "https://dc.lft.to/lastmile_qr_scan"}, "is_reserved": 0, "fusion_lon": 0.0, "fusion_lat": 0.0, "lon": -76.99707583333333, "name": "ba07ab5ee35524d8b6026e25f913de4b"}, {"bike_id": "c0211f5cf9b1e0c305dd53112e69129c", "type": "electric_scooter", "is_disabled": 0, "lat": 38.90500316666667, "rental_uris": {"ios": "https://dc.lft.to/lastmile_qr_scan", "android": "https://dc.lft.to/lastmile_qr_scan"}, "is_reserved": 0, "fusion_lon": 0.0, "fusion_lat": 0.0, "lon": -77.068863, "name": "c0211f5cf9b1e0c305dd53112e69129c"}, {"bike_id": "15c452492df1732d906e8cd6bd9ebe9a", "type": "electric_scooter", "is_disabled": 0, "lat": 38.920437, "rental_uris": {"ios": "https://dc.lft.to/lastmile_qr_scan", "android": "https://dc.lft.to/lastmile_qr_scan"}, "is_reserved": 0, "fusion_lon": 0.0, "fusion_lat": 0.0, "lon": -77.03412733333333, "name": "15c452492df1732d906e8cd6bd9ebe9a"}, {"bike_id": "584dd3e969e5b00ec115fa297814b4cd", "type": "electric_scooter", "is_disabled": 0, "lat": 38.887098333333334, "rental_uris": {"ios": "https://dc.lft.to/lastmile_qr_scan", "android": "https://dc.lft.to/lastmile_qr_scan"}, "is_reserved": 0, "fusion_lon": 0.0, "fusion_lat": 0.0, "lon": -77.01772583333333, "name": "584dd3e969e5b00ec115fa297814b4cd"}, {"bike_id": "9d01177d630798bae5f886f0ec7d803e", "type": "electric_scooter", "is_disabled": 0, "lat": 38.899163, "rental_uris": {"ios": "https://dc.lft.to/lastmile_qr_scan", "android": "https://dc.lft.to/lastmile_qr_scan"}, "is_reserved": 0, "fusion_lon": 0.0, "fusion_lat": 0.0, "lon": -76.93368116666667, "name": "9d01177d630798bae5f886f0ec7d803e"}, {"bike_id": "1236103bae4d6dfa436762081660ef90", "type": "electric_scooter", "is_disabled": 0, "lat": 38.90583983333333, "rental_uris": {"ios": "https://dc.lft.to/lastmile_qr_scan", "android": "https://dc.lft.to/lastmile_qr_scan"}, "is_reserved": 0, "fusion_lon": 0.0, "fusion_lat": 0.0, "lon": -77.00536483333333, "name": "1236103bae4d6dfa436762081660ef90"}, {"bike_id": "2ec86023a5d796287238401b3bcec9e7", "type": "electric_scooter", "is_disabled": 0, "lat": 38.90110133333334, "rental_uris": {"ios": "https://dc.lft.to/lastmile_qr_scan", "android": "https://dc.lft.to/lastmile_qr_scan"}, "is_reserved": 0, "fusion_lon": 0.0, "fusion_lat": 0.0, "lon": -77.01221333333334, "name": "2ec86023a5d796287238401b3bcec9e7"}, {"bike_id": "01b70d27915f16e107125297c26775a2", "type": "electric_scooter", "is_disabled": 0, "lat": 38.91678916666667, "rental_uris": {"ios": "https://dc.lft.to/lastmile_qr_scan", "android": "https://dc.lft.to/lastmile_qr_scan"}, "is_reserved": 0, "fusion_lon": 0.0, "fusion_lat": 0.0, "lon": -77.02314266666667, "name": "01b70d27915f16e107125297c26775a2"}, {"bike_id": "6efd8320b349c5bf9869403d01ad0be4", "type": "electric_scooter", "is_disabled": 0, "lat": 38.90965083333333, "rental_uris": {"ios": "https://dc.lft.to/lastmile_qr_scan", "android": "https://dc.lft.to/lastmile_qr_scan"}, "is_reserved": 0, "fusion_lon": 0.0, "fusion_lat": 0.0, "lon": -77.04542883333333, "name": "6efd8320b349c5bf9869403d01ad0be4"}, {"bike_id": "d98cee9950ccc7693797ba787880473d", "type": "electric_scooter", "is_disabled": 0, "lat": 38.91105183333333, "rental_uris": {"ios": "https://dc.lft.to/lastmile_qr_scan", "android": "https://dc.lft.to/lastmile_qr_scan"}, "is_reserved": 0, "fusion_lon": 0.0, "fusion_lat": 0.0, "lon": -77.04474716666667, "name": "d98cee9950ccc7693797ba787880473d"}, {"bike_id": "d096828e3c510359c9837c3509c396f1", "type": "electric_bike", "is_disabled": 0, "lat": 38.9370215, "rental_uris": {"ios": "https://dc.lft.to/lastmile_qr_scan", "android": "https://dc.lft.to/lastmile_qr_scan"}, "is_reserved": 0, "fusion_lon": 0.0, "fusion_lat": 0.0, "lon": -77.05602533333334, "name": "d096828e3c510359c9837c3509c396f1"}, {"bike_id": "23cf85da3b94401f4304c1b898ea3654", "type": "electric_bike", "is_disabled": 0, "lat": 38.83159966666667, "rental_uris": {"ios": "https://dc.lft.to/lastmile_qr_scan", "android": "https://dc.lft.to/lastmile_qr_scan"}, "is_reserved": 0, "fusion_lon": 0.0, "fusion_lat": 0.0, "lon": -76.99543483333333, "name": "23cf85da3b94401f4304c1b898ea3654"}, {"bike_id": "e395f2551ac8494031f8fe102e2b4868", "type": "electric_scooter", "is_disabled": 0, "lat": 38.9073145, "rental_uris": {"ios": "https://dc.lft.to/lastmile_qr_scan", "android": "https://dc.lft.to/lastmile_qr_scan"}, "is_reserved": 0, "fusion_lon": 0.0, "fusion_lat": 0.0, "lon": -77.029622, "name": "e395f2551ac8494031f8fe102e2b4868"}, {"bike_id": "66539d84d36810f670dbe9252f59b1c1", "type": "electric_scooter", "is_disabled": 0, "lat": 38.89712433333333, "rental_uris": {"ios": "https://dc.lft.to/lastmile_qr_scan", "android": "https://dc.lft.to/lastmile_qr_scan"}, "is_reserved": 0, "fusion_lon": 0.0, "fusion_lat": 0.0, "lon": -77.02736683333333, "name": "66539d84d36810f670dbe9252f59b1c1"}, {"bike_id": "167c3c280c1097f07d983248f421c89c", "type": "electric_scooter", "is_disabled": 0, "lat": 38.93549983333333, "rental_uris": {"ios": "https://dc.lft.to/lastmile_qr_scan", "android": "https://dc.lft.to/lastmile_qr_scan"}, "is_reserved": 0, "fusion_lon": 0.0, "fusion_lat": 0.0, "lon": -77.0250765, "name": "167c3c280c1097f07d983248f421c89c"}, {"bike_id": "0cb3004f0826ababbe1abd257315e38f", "type": "electric_scooter", "is_disabled": 0, "lat": 38.904692, "rental_uris": {"ios": "https://dc.lft.to/lastmile_qr_scan", "android": "https://dc.lft.to/lastmile_qr_scan"}, "is_reserved": 0, "fusion_lon": 0.0, "fusion_lat": 0.0, "lon": -76.97611416666666, "name": "0cb3004f0826ababbe1abd257315e38f"}, {"bike_id": "d85373a891752c7a0d7dca587c711fdf", "type": "electric_scooter", "is_disabled": 0, "lat": 38.906795833333334, "rental_uris": {"ios": "https://dc.lft.to/lastmile_qr_scan", "android": "https://dc.lft.to/lastmile_qr_scan"}, "is_reserved": 0, "fusion_lon": 0.0, "fusion_lat": 0.0, "lon": -76.9800745, "name": "d85373a891752c7a0d7dca587c711fdf"}, {"bike_id": "a2b0dba4323a6144bcba4b097c5fe85e", "type": "electric_scooter", "is_disabled": 0, "lat": 38.911962833333334, "rental_uris": {"ios": "https://dc.lft.to/lastmile_qr_scan", "android": "https://dc.lft.to/lastmile_qr_scan"}, "is_reserved": 0, "fusion_lon": 0.0, "fusion_lat": 0.0, "lon": -77.0447375, "name": "a2b0dba4323a6144bcba4b097c5fe85e"}, {"bike_id": "8a3e231acea495a7ceffcb94c004381e", "type": "electric_scooter", "is_disabled": 0, "lat": 38.90349766666667, "rental_uris": {"ios": "https://dc.lft.to/lastmile_qr_scan", "android": "https://dc.lft.to/lastmile_qr_scan"}, "is_reserved": 0, "fusion_lon": 0.0, "fusion_lat": 0.0, "lon": -76.9747945, "name": "8a3e231acea495a7ceffcb94c004381e"}, {"bike_id": "efdde1d8576cb8b5f4d56b7fca401f09", "type": "electric_scooter", "is_disabled": 0, "lat": 38.929663833333336, "rental_uris": {"ios": "https://dc.lft.to/lastmile_qr_scan", "android": "https://dc.lft.to/lastmile_qr_scan"}, "is_reserved": 0, "fusion_lon": 0.0, "fusion_lat": 0.0, "lon": -77.04371366666666, "name": "efdde1d8576cb8b5f4d56b7fca401f09"}, {"bike_id": "bd291fac6a2772ba8caa3d9b803bca60", "type": "electric_scooter", "is_disabled": 0, "lat": 38.91622, "rental_uris": {"ios": "https://dc.lft.to/lastmile_qr_scan", "android": "https://dc.lft.to/lastmile_qr_scan"}, "is_reserved": 0, "fusion_lon": 0.0, "fusion_lat": 0.0, "lon": -77.04881966666666, "name": "bd291fac6a2772ba8caa3d9b803bca60"}, {"bike_id": "011f30932d4733706e380ed596bcdcce", "type": "electric_bike", "is_disabled": 0, "lat": 38.93231183333333, "rental_uris": {"ios": "https://dc.lft.to/lastmile_qr_scan", "android": "https://dc.lft.to/lastmile_qr_scan"}, "is_reserved": 0, "fusion_lon": 0.0, "fusion_lat": 0.0, "lon": -77.18124333333333, "name": "011f30932d4733706e380ed596bcdcce"}, {"bike_id": "fa95b0ecf62a07e4c5706ed862a4507c", "type": "electric_scooter", "is_disabled": 0, "lat": 38.92155, "rental_uris": {"ios": "https://dc.lft.to/lastmile_qr_scan", "android": "https://dc.lft.to/lastmile_qr_scan"}, "is_reserved": 0, "fusion_lon": 0.0, "fusion_lat": 0.0, "lon": -77.03383683333334, "name": "fa95b0ecf62a07e4c5706ed862a4507c"}, {"bike_id": "f9eba4e6ed6e21fa90a87f0770c3201b", "type": "electric_bike", "is_disabled": 0, "lat": 38.883249, "rental_uris": {"ios": "https://dc.lft.to/lastmile_qr_scan", "android": "https://dc.lft.to/lastmile_qr_scan"}, "is_reserved": 0, "fusion_lon": 0.0, "fusion_lat": 0.0, "lon": -76.96060433333334, "name": "f9eba4e6ed6e21fa90a87f0770c3201b"}, {"bike_id": "9ff80a4ff14382ee892e4560080424dc", "type": "electric_scooter", "is_disabled": 0, "lat": 38.92880483333333, "rental_uris": {"ios": "https://dc.lft.to/lastmile_qr_scan", "android": "https://dc.lft.to/lastmile_qr_scan"}, "is_reserved": 0, "fusion_lon": 0.0, "fusion_lat": 0.0, "lon": -77.02777533333334, "name": "9ff80a4ff14382ee892e4560080424dc"}, {"bike_id": "10b9e09b659c6c3797b3320671236f57", "type": "electric_scooter", "is_disabled": 0, "lat": 38.9046845, "rental_uris": {"ios": "https://dc.lft.to/lastmile_qr_scan", "android": "https://dc.lft.to/lastmile_qr_scan"}, "is_reserved": 0, "fusion_lon": 0.0, "fusion_lat": 0.0, "lon": -77.04357716666667, "name": "10b9e09b659c6c3797b3320671236f57"}, {"bike_id": "11b2b7539dc726d6345e00815e56334c", "type": "electric_scooter", "is_disabled": 0, "lat": 38.88100266666667, "rental_uris": {"ios": "https://dc.lft.to/lastmile_qr_scan", "android": "https://dc.lft.to/lastmile_qr_scan"}, "is_reserved": 0, "fusion_lon": 0.0, "fusion_lat": 0.0, "lon": -77.01659983333333, "name": "11b2b7539dc726d6345e00815e56334c"}, {"bike_id": "8c22c7b3a0b73b7d541ffd11fd6a3128", "type": "electric_scooter", "is_disabled": 0, "lat": 38.90966233333333, "rental_uris": {"ios": "https://dc.lft.to/lastmile_qr_scan", "android": "https://dc.lft.to/lastmile_qr_scan"}, "is_reserved": 0, "fusion_lon": 0.0, "fusion_lat": 0.0, "lon": -77.02174583333333, "name": "8c22c7b3a0b73b7d541ffd11fd6a3128"}, {"bike_id": "33a6931d8111e64561abda5ed8809c8a", "type": "electric_scooter", "is_disabled": 0, "lat": 38.9171655, "rental_uris": {"ios": "https://dc.lft.to/lastmile_qr_scan", "android": "https://dc.lft.to/lastmile_qr_scan"}, "is_reserved": 0, "fusion_lon": 0.0, "fusion_lat": 0.0, "lon": -77.032018, "name": "33a6931d8111e64561abda5ed8809c8a"}, {"bike_id": "ba649391b021435449bebb296e423f72", "type": "electric_scooter", "is_disabled": 0, "lat": 38.892236, "rental_uris": {"ios": "https://dc.lft.to/lastmile_qr_scan", "android": "https://dc.lft.to/lastmile_qr_scan"}, "is_reserved": 0, "fusion_lon": 0.0, "fusion_lat": 0.0, "lon": -77.03022333333334, "name": "ba649391b021435449bebb296e423f72"}, {"bike_id": "aaad29d0a56b1968cd1d0ed6b89324e6", "type": "electric_scooter", "is_disabled": 0, "lat": 38.873746, "rental_uris": {"ios": "https://dc.lft.to/lastmile_qr_scan", "android": "https://dc.lft.to/lastmile_qr_scan"}, "is_reserved": 0, "fusion_lon": 0.0, "fusion_lat": 0.0, "lon": -77.00104166666667, "name": "aaad29d0a56b1968cd1d0ed6b89324e6"}, {"bike_id": "9a4038ddc61330c6d119139586e92bda", "type": "electric_scooter", "is_disabled": 0, "lat": 38.9246845, "rental_uris": {"ios": "https://dc.lft.to/lastmile_qr_scan", "android": "https://dc.lft.to/lastmile_qr_scan"}, "is_reserved": 0, "fusion_lon": 0.0, "fusion_lat": 0.0, "lon": -77.02715516666666, "name": "9a4038ddc61330c6d119139586e92bda"}, {"bike_id": "d956eed83a4cf10907e49484771139f2", "type": "electric_scooter", "is_disabled": 0, "lat": 38.872933833333335, "rental_uris": {"ios": "https://dc.lft.to/lastmile_qr_scan", "android": "https://dc.lft.to/lastmile_qr_scan"}, "is_reserved": 0, "fusion_lon": 0.0, "fusion_lat": 0.0, "lon": -77.00985, "name": "d956eed83a4cf10907e49484771139f2"}, {"bike_id": "d3cdb8b5fbf4d71accbda49bf006a544", "type": "electric_scooter", "is_disabled": 0, "lat": 38.87831033333333, "rental_uris": {"ios": "https://dc.lft.to/lastmile_qr_scan", "android": "https://dc.lft.to/lastmile_qr_scan"}, "is_reserved": 0, "fusion_lon": 0.0, "fusion_lat": 0.0, "lon": -77.008044, "name": "d3cdb8b5fbf4d71accbda49bf006a544"}, {"bike_id": "35ba97860eb992acc2c288934063a2b8", "type": "electric_scooter", "is_disabled": 0, "lat": 38.91812866666667, "rental_uris": {"ios": "https://dc.lft.to/lastmile_qr_scan", "android": "https://dc.lft.to/lastmile_qr_scan"}, "is_reserved": 0, "fusion_lon": 0.0, "fusion_lat": 0.0, "lon": -77.0270655, "name": "35ba97860eb992acc2c288934063a2b8"}, {"bike_id": "8d50c54ee2636988135c2fe1658d7084", "type": "electric_scooter", "is_disabled": 0, "lat": 38.923922833333336, "rental_uris": {"ios": "https://dc.lft.to/lastmile_qr_scan", "android": "https://dc.lft.to/lastmile_qr_scan"}, "is_reserved": 0, "fusion_lon": 0.0, "fusion_lat": 0.0, "lon": -77.04451166666666, "name": "8d50c54ee2636988135c2fe1658d7084"}, {"bike_id": "664289afdb8dccb4570aabeae769e658", "type": "electric_scooter", "is_disabled": 0, "lat": 38.923499, "rental_uris": {"ios": "https://dc.lft.to/lastmile_qr_scan", "android": "https://dc.lft.to/lastmile_qr_scan"}, "is_reserved": 0, "fusion_lon": 0.0, "fusion_lat": 0.0, "lon": -77.05426183333333, "name": "664289afdb8dccb4570aabeae769e658"}, {"bike_id": "4e569601f26f0609ecaff754d31ea215", "type": "electric_bike", "is_disabled": 0, "lat": 38.81509716666667, "rental_uris": {"ios": "https://dc.lft.to/lastmile_qr_scan", "android": "https://dc.lft.to/lastmile_qr_scan"}, "is_reserved": 0, "fusion_lon": 0.0, "fusion_lat": 0.0, "lon": -77.126543, "name": "4e569601f26f0609ecaff754d31ea215"}, {"bike_id": "43c55e161ce2717d73a7d415d6530195", "type": "electric_scooter", "is_disabled": 0, "lat": 38.904179666666664, "rental_uris": {"ios": "https://dc.lft.to/lastmile_qr_scan", "android": "https://dc.lft.to/lastmile_qr_scan"}, "is_reserved": 0, "fusion_lon": 0.0, "fusion_lat": 0.0, "lon": -77.0249015, "name": "43c55e161ce2717d73a7d415d6530195"}, {"bike_id": "347e4d7b2552e5a9e8008a8ad5dcc3f5", "type": "electric_scooter", "is_disabled": 0, "lat": 38.924510166666664, "rental_uris": {"ios": "https://dc.lft.to/lastmile_qr_scan", "android": "https://dc.lft.to/lastmile_qr_scan"}, "is_reserved": 0, "fusion_lon": 0.0, "fusion_lat": 0.0, "lon": -77.03345066666667, "name": "347e4d7b2552e5a9e8008a8ad5dcc3f5"}, {"bike_id": "7eb41eccd2df90aeb760fae8e38cafb5", "type": "electric_bike", "is_disabled": 0, "lat": 38.796054833333336, "rental_uris": {"ios": "https://dc.lft.to/lastmile_qr_scan", "android": "https://dc.lft.to/lastmile_qr_scan"}, "is_reserved": 0, "fusion_lon": 0.0, "fusion_lat": 0.0, "lon": -76.997432, "name": "7eb41eccd2df90aeb760fae8e38cafb5"}, {"bike_id": "ec1fa29e64eea563f297d501cb6ec871", "type": "electric_scooter", "is_disabled": 0, "lat": 38.9141665, "rental_uris": {"ios": "https://dc.lft.to/lastmile_qr_scan", "android": "https://dc.lft.to/lastmile_qr_scan"}, "is_reserved": 0, "fusion_lon": 0.0, "fusion_lat": 0.0, "lon": -77.01799383333334, "name": "ec1fa29e64eea563f297d501cb6ec871"}, {"bike_id": "50f50cf823c4fed9043aa73a6693a8e8", "type": "electric_scooter", "is_disabled": 0, "lat": 38.93051116666667, "rental_uris": {"ios": "https://dc.lft.to/lastmile_qr_scan", "android": "https://dc.lft.to/lastmile_qr_scan"}, "is_reserved": 0, "fusion_lon": 0.0, "fusion_lat": 0.0, "lon": -77.02350133333333, "name": "50f50cf823c4fed9043aa73a6693a8e8"}, {"bike_id": "9e5233bd26b0312b7a2aee928696bec6", "type": "electric_scooter", "is_disabled": 0, "lat": 38.91267533333333, "rental_uris": {"ios": "https://dc.lft.to/lastmile_qr_scan", "android": "https://dc.lft.to/lastmile_qr_scan"}, "is_reserved": 0, "fusion_lon": 0.0, "fusion_lat": 0.0, "lon": -77.04505366666666, "name": "9e5233bd26b0312b7a2aee928696bec6"}, {"bike_id": "af0d294b94ca0b3ab37ced51f4c17ee4", "type": "electric_scooter", "is_disabled": 0, "lat": 38.897115166666666, "rental_uris": {"ios": "https://dc.lft.to/lastmile_qr_scan", "android": "https://dc.lft.to/lastmile_qr_scan"}, "is_reserved": 0, "fusion_lon": 0.0, "fusion_lat": 0.0, "lon": -77.02718666666667, "name": "af0d294b94ca0b3ab37ced51f4c17ee4"}, {"bike_id": "94ac25f7733ecf29fa7a778d57383286", "type": "electric_scooter", "is_disabled": 0, "lat": 38.8984275, "rental_uris": {"ios": "https://dc.lft.to/lastmile_qr_scan", "android": "https://dc.lft.to/lastmile_qr_scan"}, "is_reserved": 0, "fusion_lon": 0.0, "fusion_lat": 0.0, "lon": -76.94632683333333, "name": "94ac25f7733ecf29fa7a778d57383286"}, {"bike_id": "6570c1ed7486fb879f601dd75d12d5da", "type": "electric_scooter", "is_disabled": 0, "lat": 38.90737633333333, "rental_uris": {"ios": "https://dc.lft.to/lastmile_qr_scan", "android": "https://dc.lft.to/lastmile_qr_scan"}, "is_reserved": 0, "fusion_lon": 0.0, "fusion_lat": 0.0, "lon": -77.02182666666667, "name": "6570c1ed7486fb879f601dd75d12d5da"}, {"bike_id": "d3a2050ce91166177d18f45fc0170968", "type": "electric_bike", "is_disabled": 0, "lat": 38.909067666666665, "rental_uris": {"ios": "https://dc.lft.to/lastmile_qr_scan", "android": "https://dc.lft.to/lastmile_qr_scan"}, "is_reserved": 0, "fusion_lon": 0.0, "fusion_lat": 0.0, "lon": -76.9911105, "name": "d3a2050ce91166177d18f45fc0170968"}, {"bike_id": "fcb6608b2a84f0aa0c475b2bb2b096eb", "type": "electric_scooter", "is_disabled": 0, "lat": 38.910592333333334, "rental_uris": {"ios": "https://dc.lft.to/lastmile_qr_scan", "android": "https://dc.lft.to/lastmile_qr_scan"}, "is_reserved": 0, "fusion_lon": 0.0, "fusion_lat": 0.0, "lon": -77.02171416666667, "name": "fcb6608b2a84f0aa0c475b2bb2b096eb"}, {"bike_id": "64893fd5ce65d310def5a86f22c0241c", "type": "electric_scooter", "is_disabled": 0, "lat": 38.92825333333333, "rental_uris": {"ios": "https://dc.lft.to/lastmile_qr_scan", "android": "https://dc.lft.to/lastmile_qr_scan"}, "is_reserved": 0, "fusion_lon": 0.0, "fusion_lat": 0.0, "lon": -77.014178, "name": "64893fd5ce65d310def5a86f22c0241c"}, {"bike_id": "23ba8b981fbdb741b00eb27378fbd453", "type": "electric_scooter", "is_disabled": 0, "lat": 38.91558066666666, "rental_uris": {"ios": "https://dc.lft.to/lastmile_qr_scan", "android": "https://dc.lft.to/lastmile_qr_scan"}, "is_reserved": 0, "fusion_lon": 0.0, "fusion_lat": 0.0, "lon": -77.0333285, "name": "23ba8b981fbdb741b00eb27378fbd453"}, {"bike_id": "85f5e8815f4c4717e1c5858a60d99561", "type": "electric_scooter", "is_disabled": 0, "lat": 38.876514, "rental_uris": {"ios": "https://dc.lft.to/lastmile_qr_scan", "android": "https://dc.lft.to/lastmile_qr_scan"}, "is_reserved": 0, "fusion_lon": 0.0, "fusion_lat": 0.0, "lon": -76.965075, "name": "85f5e8815f4c4717e1c5858a60d99561"}, {"bike_id": "aa05bb863901db020e2976f680900c3e", "type": "electric_scooter", "is_disabled": 0, "lat": 38.92834033333333, "rental_uris": {"ios": "https://dc.lft.to/lastmile_qr_scan", "android": "https://dc.lft.to/lastmile_qr_scan"}, "is_reserved": 0, "fusion_lon": 0.0, "fusion_lat": 0.0, "lon": -77.01406666666666, "name": "aa05bb863901db020e2976f680900c3e"}, {"bike_id": "942b65cee2107db45a58440c42b8312f", "type": "electric_scooter", "is_disabled": 0, "lat": 38.902361666666664, "rental_uris": {"ios": "https://dc.lft.to/lastmile_qr_scan", "android": "https://dc.lft.to/lastmile_qr_scan"}, "is_reserved": 0, "fusion_lon": 0.0, "fusion_lat": 0.0, "lon": -77.0019735, "name": "942b65cee2107db45a58440c42b8312f"}, {"bike_id": "ee0ed2d289c084942b47de4c29bccbc4", "type": "electric_scooter", "is_disabled": 0, "lat": 38.91664133333333, "rental_uris": {"ios": "https://dc.lft.to/lastmile_qr_scan", "android": "https://dc.lft.to/lastmile_qr_scan"}, "is_reserved": 0, "fusion_lon": 0.0, "fusion_lat": 0.0, "lon": -77.038493, "name": "ee0ed2d289c084942b47de4c29bccbc4"}, {"bike_id": "91a574f14f211355115cabb7b16d6fda", "type": "electric_scooter", "is_disabled": 0, "lat": 38.880282, "rental_uris": {"ios": "https://dc.lft.to/lastmile_qr_scan", "android": "https://dc.lft.to/lastmile_qr_scan"}, "is_reserved": 0, "fusion_lon": 0.0, "fusion_lat": 0.0, "lon": -77.01006983333333, "name": "91a574f14f211355115cabb7b16d6fda"}, {"bike_id": "64b38952e2cf2070c405f8d758b60474", "type": "electric_scooter", "is_disabled": 0, "lat": 38.90556866666667, "rental_uris": {"ios": "https://dc.lft.to/lastmile_qr_scan", "android": "https://dc.lft.to/lastmile_qr_scan"}, "is_reserved": 0, "fusion_lon": 0.0, "fusion_lat": 0.0, "lon": -77.02718516666667, "name": "64b38952e2cf2070c405f8d758b60474"}, {"bike_id": "f56d8a09c31555fae82a0323427a4dd8", "type": "electric_scooter", "is_disabled": 0, "lat": 38.91385983333333, "rental_uris": {"ios": "https://dc.lft.to/lastmile_qr_scan", "android": "https://dc.lft.to/lastmile_qr_scan"}, "is_reserved": 0, "fusion_lon": 0.0, "fusion_lat": 0.0, "lon": -77.01704216666667, "name": "f56d8a09c31555fae82a0323427a4dd8"}, {"bike_id": "1ae7fee374ebeef7b927457ac0e60192", "type": "electric_scooter", "is_disabled": 0, "lat": 38.927295, "rental_uris": {"ios": "https://dc.lft.to/lastmile_qr_scan", "android": "https://dc.lft.to/lastmile_qr_scan"}, "is_reserved": 0, "fusion_lon": 0.0, "fusion_lat": 0.0, "lon": -77.03424066666666, "name": "1ae7fee374ebeef7b927457ac0e60192"}, {"bike_id": "929b7d95c2dbc1bfbf9d4822bf1226ce", "type": "electric_scooter", "is_disabled": 0, "lat": 38.9128685, "rental_uris": {"ios": "https://dc.lft.to/lastmile_qr_scan", "android": "https://dc.lft.to/lastmile_qr_scan"}, "is_reserved": 0, "fusion_lon": 0.0, "fusion_lat": 0.0, "lon": -77.031963, "name": "929b7d95c2dbc1bfbf9d4822bf1226ce"}, {"bike_id": "d411cb5d85abb854f6a8db0ebf19a9a1", "type": "electric_bike", "is_disabled": 0, "lat": 38.91550133333333, "rental_uris": {"ios": "https://dc.lft.to/lastmile_qr_scan", "android": "https://dc.lft.to/lastmile_qr_scan"}, "is_reserved": 0, "fusion_lon": 0.0, "fusion_lat": 0.0, "lon": -77.06674083333333, "name": "d411cb5d85abb854f6a8db0ebf19a9a1"}, {"bike_id": "4dcb1e2831bb9034664ec3e23e124f17", "type": "electric_scooter", "is_disabled": 0, "lat": 38.9119015, "rental_uris": {"ios": "https://dc.lft.to/lastmile_qr_scan", "android": "https://dc.lft.to/lastmile_qr_scan"}, "is_reserved": 0, "fusion_lon": 0.0, "fusion_lat": 0.0, "lon": -77.03834666666667, "name": "4dcb1e2831bb9034664ec3e23e124f17"}, {"bike_id": "87b0ec2fdb7d4a51b2c73adb94b27b55", "type": "electric_scooter", "is_disabled": 0, "lat": 38.90956583333333, "rental_uris": {"ios": "https://dc.lft.to/lastmile_qr_scan", "android": "https://dc.lft.to/lastmile_qr_scan"}, "is_reserved": 0, "fusion_lon": 0.0, "fusion_lat": 0.0, "lon": -77.04871516666667, "name": "87b0ec2fdb7d4a51b2c73adb94b27b55"}, {"bike_id": "fb512f9dc8d10ed4f5b91824f8323f0b", "type": "electric_scooter", "is_disabled": 0, "lat": 38.949229333333335, "rental_uris": {"ios": "https://dc.lft.to/lastmile_qr_scan", "android": "https://dc.lft.to/lastmile_qr_scan"}, "is_reserved": 0, "fusion_lon": 0.0, "fusion_lat": 0.0, "lon": -77.01861666666667, "name": "fb512f9dc8d10ed4f5b91824f8323f0b"}, {"bike_id": "2f74e2d018dd0c195df247e1c1ea951b", "type": "electric_scooter", "is_disabled": 0, "lat": 38.915575833333335, "rental_uris": {"ios": "https://dc.lft.to/lastmile_qr_scan", "android": "https://dc.lft.to/lastmile_qr_scan"}, "is_reserved": 0, "fusion_lon": 0.0, "fusion_lat": 0.0, "lon": -77.0104555, "name": "2f74e2d018dd0c195df247e1c1ea951b"}, {"bike_id": "c7df39b15bfcc73393c8daadf1d65139", "type": "electric_scooter", "is_disabled": 0, "lat": 38.920886833333334, "rental_uris": {"ios": "https://dc.lft.to/lastmile_qr_scan", "android": "https://dc.lft.to/lastmile_qr_scan"}, "is_reserved": 0, "fusion_lon": 0.0, "fusion_lat": 0.0, "lon": -77.03168883333333, "name": "c7df39b15bfcc73393c8daadf1d65139"}, {"bike_id": "43e29ef09c42c165ba60bf3484aef0a6", "type": "electric_scooter", "is_disabled": 0, "lat": 38.920836, "rental_uris": {"ios": "https://dc.lft.to/lastmile_qr_scan", "android": "https://dc.lft.to/lastmile_qr_scan"}, "is_reserved": 0, "fusion_lon": 0.0, "fusion_lat": 0.0, "lon": -77.02304733333334, "name": "43e29ef09c42c165ba60bf3484aef0a6"}, {"bike_id": "c328c68503a88c21609b7257a32ea6b5", "type": "electric_scooter", "is_disabled": 0, "lat": 38.892389333333334, "rental_uris": {"ios": "https://dc.lft.to/lastmile_qr_scan", "android": "https://dc.lft.to/lastmile_qr_scan"}, "is_reserved": 0, "fusion_lon": 0.0, "fusion_lat": 0.0, "lon": -77.0450005, "name": "c328c68503a88c21609b7257a32ea6b5"}, {"bike_id": "70ecf357b21355b2f2b273c8cd3936d6", "type": "electric_scooter", "is_disabled": 0, "lat": 38.901352833333334, "rental_uris": {"ios": "https://dc.lft.to/lastmile_qr_scan", "android": "https://dc.lft.to/lastmile_qr_scan"}, "is_reserved": 0, "fusion_lon": 0.0, "fusion_lat": 0.0, "lon": -77.01823483333334, "name": "70ecf357b21355b2f2b273c8cd3936d6"}, {"bike_id": "01fb4be8a9ce07edd87ed9d9d1f1c2ba", "type": "electric_scooter", "is_disabled": 0, "lat": 38.92323583333334, "rental_uris": {"ios": "https://dc.lft.to/lastmile_qr_scan", "android": "https://dc.lft.to/lastmile_qr_scan"}, "is_reserved": 0, "fusion_lon": 0.0, "fusion_lat": 0.0, "lon": -77.03752066666667, "name": "01fb4be8a9ce07edd87ed9d9d1f1c2ba"}, {"bike_id": "1ad7ff323627b92a3eaf293f92370326", "type": "electric_scooter", "is_disabled": 0, "lat": 38.9308025, "rental_uris": {"ios": "https://dc.lft.to/lastmile_qr_scan", "android": "https://dc.lft.to/lastmile_qr_scan"}, "is_reserved": 0, "fusion_lon": 0.0, "fusion_lat": 0.0, "lon": -77.0279565, "name": "1ad7ff323627b92a3eaf293f92370326"}, {"bike_id": "c3f1fd95ca6283bf85672fea14f98040", "type": "electric_scooter", "is_disabled": 0, "lat": 38.9150425, "rental_uris": {"ios": "https://dc.lft.to/lastmile_qr_scan", "android": "https://dc.lft.to/lastmile_qr_scan"}, "is_reserved": 0, "fusion_lon": 0.0, "fusion_lat": 0.0, "lon": -77.0178365, "name": "c3f1fd95ca6283bf85672fea14f98040"}, {"bike_id": "f19348e8db7ff22b73bca09e706749a1", "type": "electric_scooter", "is_disabled": 0, "lat": 38.915509166666666, "rental_uris": {"ios": "https://dc.lft.to/lastmile_qr_scan", "android": "https://dc.lft.to/lastmile_qr_scan"}, "is_reserved": 0, "fusion_lon": 0.0, "fusion_lat": 0.0, "lon": -77.01230933333333, "name": "f19348e8db7ff22b73bca09e706749a1"}, {"bike_id": "2098d5e83109b47bdc50c25f969e6ddb", "type": "electric_scooter", "is_disabled": 0, "lat": 38.902217, "rental_uris": {"ios": "https://dc.lft.to/lastmile_qr_scan", "android": "https://dc.lft.to/lastmile_qr_scan"}, "is_reserved": 0, "fusion_lon": 0.0, "fusion_lat": 0.0, "lon": -77.0328415, "name": "2098d5e83109b47bdc50c25f969e6ddb"}, {"bike_id": "7cd45dd07c3b8b63bbdb68ec09346378", "type": "electric_scooter", "is_disabled": 0, "lat": 38.89322416666667, "rental_uris": {"ios": "https://dc.lft.to/lastmile_qr_scan", "android": "https://dc.lft.to/lastmile_qr_scan"}, "is_reserved": 0, "fusion_lon": 0.0, "fusion_lat": 0.0, "lon": -77.031822, "name": "7cd45dd07c3b8b63bbdb68ec09346378"}, {"bike_id": "950df2ea4819a20118bc7908b9a08cd2", "type": "electric_scooter", "is_disabled": 0, "lat": 38.9047825, "rental_uris": {"ios": "https://dc.lft.to/lastmile_qr_scan", "android": "https://dc.lft.to/lastmile_qr_scan"}, "is_reserved": 0, "fusion_lon": 0.0, "fusion_lat": 0.0, "lon": -76.99623216666667, "name": "950df2ea4819a20118bc7908b9a08cd2"}, {"bike_id": "f56ebf3c59281a81ca9eaf9015d7fb24", "type": "electric_scooter", "is_disabled": 0, "lat": 38.9222255, "rental_uris": {"ios": "https://dc.lft.to/lastmile_qr_scan", "android": "https://dc.lft.to/lastmile_qr_scan"}, "is_reserved": 0, "fusion_lon": 0.0, "fusion_lat": 0.0, "lon": -77.04340633333334, "name": "f56ebf3c59281a81ca9eaf9015d7fb24"}, {"bike_id": "b5394d2d54fd36443e0a4144044fa925", "type": "electric_scooter", "is_disabled": 0, "lat": 38.9478995, "rental_uris": {"ios": "https://dc.lft.to/lastmile_qr_scan", "android": "https://dc.lft.to/lastmile_qr_scan"}, "is_reserved": 0, "fusion_lon": 0.0, "fusion_lat": 0.0, "lon": -77.0214125, "name": "b5394d2d54fd36443e0a4144044fa925"}, {"bike_id": "d13ad3f465e2da69b1907a420586ae0c", "type": "electric_scooter", "is_disabled": 0, "lat": 38.89223366666667, "rental_uris": {"ios": "https://dc.lft.to/lastmile_qr_scan", "android": "https://dc.lft.to/lastmile_qr_scan"}, "is_reserved": 0, "fusion_lon": 0.0, "fusion_lat": 0.0, "lon": -77.04011833333334, "name": "d13ad3f465e2da69b1907a420586ae0c"}, {"bike_id": "765f60b3cdc0de6e52ee10167a660eb1", "type": "electric_scooter", "is_disabled": 0, "lat": 38.917814166666666, "rental_uris": {"ios": "https://dc.lft.to/lastmile_qr_scan", "android": "https://dc.lft.to/lastmile_qr_scan"}, "is_reserved": 0, "fusion_lon": 0.0, "fusion_lat": 0.0, "lon": -77.02310216666666, "name": "765f60b3cdc0de6e52ee10167a660eb1"}, {"bike_id": "a243923340f615fb64f9b2425fdf7bc1", "type": "electric_scooter", "is_disabled": 0, "lat": 38.9261245, "rental_uris": {"ios": "https://dc.lft.to/lastmile_qr_scan", "android": "https://dc.lft.to/lastmile_qr_scan"}, "is_reserved": 0, "fusion_lon": 0.0, "fusion_lat": 0.0, "lon": -77.02160883333333, "name": "a243923340f615fb64f9b2425fdf7bc1"}, {"bike_id": "2d45bdf9e37201643f36347b89a45b4c", "type": "electric_bike", "is_disabled": 0, "lat": 38.845289333333334, "rental_uris": {"ios": "https://dc.lft.to/lastmile_qr_scan", "android": "https://dc.lft.to/lastmile_qr_scan"}, "is_reserved": 0, "fusion_lon": 0.0, "fusion_lat": 0.0, "lon": -76.97397766666667, "name": "2d45bdf9e37201643f36347b89a45b4c"}, {"bike_id": "4f6b5e9cd3e95f0934eafff98732223d", "type": "electric_scooter", "is_disabled": 0, "lat": 38.92522316666667, "rental_uris": {"ios": "https://dc.lft.to/lastmile_qr_scan", "android": "https://dc.lft.to/lastmile_qr_scan"}, "is_reserved": 0, "fusion_lon": 0.0, "fusion_lat": 0.0, "lon": -77.07625683333333, "name": "4f6b5e9cd3e95f0934eafff98732223d"}, {"bike_id": "42d550a000471c4afca4766ad3d95149", "type": "electric_scooter", "is_disabled": 0, "lat": 38.91681, "rental_uris": {"ios": "https://dc.lft.to/lastmile_qr_scan", "android": "https://dc.lft.to/lastmile_qr_scan"}, "is_reserved": 0, "fusion_lon": 0.0, "fusion_lat": 0.0, "lon": -77.023134, "name": "42d550a000471c4afca4766ad3d95149"}, {"bike_id": "c999d51c48238da6cec7b5728547030c", "type": "electric_scooter", "is_disabled": 0, "lat": 38.920195, "rental_uris": {"ios": "https://dc.lft.to/lastmile_qr_scan", "android": "https://dc.lft.to/lastmile_qr_scan"}, "is_reserved": 0, "fusion_lon": 0.0, "fusion_lat": 0.0, "lon": -77.0313075, "name": "c999d51c48238da6cec7b5728547030c"}, {"bike_id": "eb233ad59e3833b45016bc24409b8616", "type": "electric_scooter", "is_disabled": 0, "lat": 38.91236883333333, "rental_uris": {"ios": "https://dc.lft.to/lastmile_qr_scan", "android": "https://dc.lft.to/lastmile_qr_scan"}, "is_reserved": 0, "fusion_lon": 0.0, "fusion_lat": 0.0, "lon": -77.04472816666667, "name": "eb233ad59e3833b45016bc24409b8616"}, {"bike_id": "135b0107c8ce71a5b07d5b409d8f0eb2", "type": "electric_scooter", "is_disabled": 0, "lat": 38.917055, "rental_uris": {"ios": "https://dc.lft.to/lastmile_qr_scan", "android": "https://dc.lft.to/lastmile_qr_scan"}, "is_reserved": 0, "fusion_lon": 0.0, "fusion_lat": 0.0, "lon": -77.03211, "name": "135b0107c8ce71a5b07d5b409d8f0eb2"}, {"bike_id": "f4e341627b2480936ed849dec27a76cb", "type": "electric_scooter", "is_disabled": 0, "lat": 38.90532066666667, "rental_uris": {"ios": "https://dc.lft.to/lastmile_qr_scan", "android": "https://dc.lft.to/lastmile_qr_scan"}, "is_reserved": 0, "fusion_lon": 0.0, "fusion_lat": 0.0, "lon": -77.0467205, "name": "f4e341627b2480936ed849dec27a76cb"}, {"bike_id": "ac7228e19aeee41b47b0449a7e49cdf1", "type": "electric_scooter", "is_disabled": 0, "lat": 38.88744033333333, "rental_uris": {"ios": "https://dc.lft.to/lastmile_qr_scan", "android": "https://dc.lft.to/lastmile_qr_scan"}, "is_reserved": 0, "fusion_lon": 0.0, "fusion_lat": 0.0, "lon": -77.01724966666667, "name": "ac7228e19aeee41b47b0449a7e49cdf1"}, {"bike_id": "c5a73f712002764b4999d66db34d8f45", "type": "electric_scooter", "is_disabled": 0, "lat": 38.928958, "rental_uris": {"ios": "https://dc.lft.to/lastmile_qr_scan", "android": "https://dc.lft.to/lastmile_qr_scan"}, "is_reserved": 0, "fusion_lon": 0.0, "fusion_lat": 0.0, "lon": -77.03326483333333, "name": "c5a73f712002764b4999d66db34d8f45"}, {"bike_id": "fc3f89de3a87f89928b3bf4b6ed787a2", "type": "electric_scooter", "is_disabled": 0, "lat": 38.902574, "rental_uris": {"ios": "https://dc.lft.to/lastmile_qr_scan", "android": "https://dc.lft.to/lastmile_qr_scan"}, "is_reserved": 0, "fusion_lon": 0.0, "fusion_lat": 0.0, "lon": -77.01759666666666, "name": "fc3f89de3a87f89928b3bf4b6ed787a2"}, {"bike_id": "84379759a2b7ec08fc7797c516b55ce7", "type": "electric_scooter", "is_disabled": 0, "lat": 38.86530233333333, "rental_uris": {"ios": "https://dc.lft.to/lastmile_qr_scan", "android": "https://dc.lft.to/lastmile_qr_scan"}, "is_reserved": 0, "fusion_lon": 0.0, "fusion_lat": 0.0, "lon": -76.9732685, "name": "84379759a2b7ec08fc7797c516b55ce7"}, {"bike_id": "15e4214c7c075ff79dbf907de0b484f9", "type": "electric_scooter", "is_disabled": 0, "lat": 38.909803333333336, "rental_uris": {"ios": "https://dc.lft.to/lastmile_qr_scan", "android": "https://dc.lft.to/lastmile_qr_scan"}, "is_reserved": 0, "fusion_lon": 0.0, "fusion_lat": 0.0, "lon": -77.03855983333334, "name": "15e4214c7c075ff79dbf907de0b484f9"}, {"bike_id": "ad95431a6c16e502f9fad791505cc771", "type": "electric_scooter", "is_disabled": 0, "lat": 38.92072116666667, "rental_uris": {"ios": "https://dc.lft.to/lastmile_qr_scan", "android": "https://dc.lft.to/lastmile_qr_scan"}, "is_reserved": 0, "fusion_lon": 0.0, "fusion_lat": 0.0, "lon": -77.02209166666667, "name": "ad95431a6c16e502f9fad791505cc771"}, {"bike_id": "9d79eea4fb7f1f1b36e5dce055a127f9", "type": "electric_scooter", "is_disabled": 0, "lat": 38.93110883333333, "rental_uris": {"ios": "https://dc.lft.to/lastmile_qr_scan", "android": "https://dc.lft.to/lastmile_qr_scan"}, "is_reserved": 0, "fusion_lon": 0.0, "fusion_lat": 0.0, "lon": -77.0383855, "name": "9d79eea4fb7f1f1b36e5dce055a127f9"}, {"bike_id": "dbe5931bb8f0e01e7dbd5de62309d99c", "type": "electric_scooter", "is_disabled": 0, "lat": 38.892228, "rental_uris": {"ios": "https://dc.lft.to/lastmile_qr_scan", "android": "https://dc.lft.to/lastmile_qr_scan"}, "is_reserved": 0, "fusion_lon": 0.0, "fusion_lat": 0.0, "lon": -77.03218, "name": "dbe5931bb8f0e01e7dbd5de62309d99c"}, {"bike_id": "e95480352762b2b76f8b12ce5a6824c0", "type": "electric_scooter", "is_disabled": 0, "lat": 38.90532533333333, "rental_uris": {"ios": "https://dc.lft.to/lastmile_qr_scan", "android": "https://dc.lft.to/lastmile_qr_scan"}, "is_reserved": 0, "fusion_lon": 0.0, "fusion_lat": 0.0, "lon": -77.04459016666667, "name": "e95480352762b2b76f8b12ce5a6824c0"}, {"bike_id": "01b63557214052713648b80b49ad0702", "type": "electric_scooter", "is_disabled": 0, "lat": 38.922318, "rental_uris": {"ios": "https://dc.lft.to/lastmile_qr_scan", "android": "https://dc.lft.to/lastmile_qr_scan"}, "is_reserved": 0, "fusion_lon": 0.0, "fusion_lat": 0.0, "lon": -77.04375666666667, "name": "01b63557214052713648b80b49ad0702"}, {"bike_id": "c371eac01c3be4d8c6066102fdb83aa8", "type": "electric_scooter", "is_disabled": 0, "lat": 38.90568833333333, "rental_uris": {"ios": "https://dc.lft.to/lastmile_qr_scan", "android": "https://dc.lft.to/lastmile_qr_scan"}, "is_reserved": 0, "fusion_lon": 0.0, "fusion_lat": 0.0, "lon": -77.00608666666666, "name": "c371eac01c3be4d8c6066102fdb83aa8"}, {"bike_id": "89c7e525f568675f19e08c3e6b58a165", "type": "electric_scooter", "is_disabled": 0, "lat": 38.9185895, "rental_uris": {"ios": "https://dc.lft.to/lastmile_qr_scan", "android": "https://dc.lft.to/lastmile_qr_scan"}, "is_reserved": 0, "fusion_lon": 0.0, "fusion_lat": 0.0, "lon": -76.96113016666666, "name": "89c7e525f568675f19e08c3e6b58a165"}, {"bike_id": "ed2a18369a2b05b9f2fbe437d4f0ff88", "type": "electric_scooter", "is_disabled": 0, "lat": 38.900071833333335, "rental_uris": {"ios": "https://dc.lft.to/lastmile_qr_scan", "android": "https://dc.lft.to/lastmile_qr_scan"}, "is_reserved": 0, "fusion_lon": 0.0, "fusion_lat": 0.0, "lon": -77.02707983333333, "name": "ed2a18369a2b05b9f2fbe437d4f0ff88"}, {"bike_id": "f8a43248d84e611f3a0c74c2679e58fc", "type": "electric_scooter", "is_disabled": 0, "lat": 38.88467216666667, "rental_uris": {"ios": "https://dc.lft.to/lastmile_qr_scan", "android": "https://dc.lft.to/lastmile_qr_scan"}, "is_reserved": 0, "fusion_lon": 0.0, "fusion_lat": 0.0, "lon": -77.00050833333333, "name": "f8a43248d84e611f3a0c74c2679e58fc"}, {"bike_id": "708ccef656b11d52abd8181b5fe21ccd", "type": "electric_scooter", "is_disabled": 0, "lat": 38.920259333333334, "rental_uris": {"ios": "https://dc.lft.to/lastmile_qr_scan", "android": "https://dc.lft.to/lastmile_qr_scan"}, "is_reserved": 0, "fusion_lon": 0.0, "fusion_lat": 0.0, "lon": -77.03401483333333, "name": "708ccef656b11d52abd8181b5fe21ccd"}, {"bike_id": "c96d7c65e6da2de0623eba29880d4311", "type": "electric_scooter", "is_disabled": 0, "lat": 38.918046833333335, "rental_uris": {"ios": "https://dc.lft.to/lastmile_qr_scan", "android": "https://dc.lft.to/lastmile_qr_scan"}, "is_reserved": 0, "fusion_lon": 0.0, "fusion_lat": 0.0, "lon": -77.03075, "name": "c96d7c65e6da2de0623eba29880d4311"}, {"bike_id": "e92a76e5c057620e7f4cd4684dd7c1b9", "type": "electric_scooter", "is_disabled": 0, "lat": 38.921035333333336, "rental_uris": {"ios": "https://dc.lft.to/lastmile_qr_scan", "android": "https://dc.lft.to/lastmile_qr_scan"}, "is_reserved": 0, "fusion_lon": 0.0, "fusion_lat": 0.0, "lon": -77.03171333333333, "name": "e92a76e5c057620e7f4cd4684dd7c1b9"}, {"bike_id": "8b70e2d52be49a82dba68c1ea98042fb", "type": "electric_scooter", "is_disabled": 0, "lat": 38.891933, "rental_uris": {"ios": "https://dc.lft.to/lastmile_qr_scan", "android": "https://dc.lft.to/lastmile_qr_scan"}, "is_reserved": 0, "fusion_lon": 0.0, "fusion_lat": 0.0, "lon": -77.0240265, "name": "8b70e2d52be49a82dba68c1ea98042fb"}, {"bike_id": "b6160c71915c41fbe02ada02f10befdb", "type": "electric_scooter", "is_disabled": 0, "lat": 38.89561033333333, "rental_uris": {"ios": "https://dc.lft.to/lastmile_qr_scan", "android": "https://dc.lft.to/lastmile_qr_scan"}, "is_reserved": 0, "fusion_lon": 0.0, "fusion_lat": 0.0, "lon": -76.9296555, "name": "b6160c71915c41fbe02ada02f10befdb"}, {"bike_id": "0ea6ff42e635577ee3aeb886d137521a", "type": "electric_scooter", "is_disabled": 0, "lat": 38.94001566666667, "rental_uris": {"ios": "https://dc.lft.to/lastmile_qr_scan", "android": "https://dc.lft.to/lastmile_qr_scan"}, "is_reserved": 0, "fusion_lon": 0.0, "fusion_lat": 0.0, "lon": -77.03805116666666, "name": "0ea6ff42e635577ee3aeb886d137521a"}, {"bike_id": "34585848a6c5c4470f49e9656cc037d7", "type": "electric_scooter", "is_disabled": 0, "lat": 38.91242116666667, "rental_uris": {"ios": "https://dc.lft.to/lastmile_qr_scan", "android": "https://dc.lft.to/lastmile_qr_scan"}, "is_reserved": 0, "fusion_lon": 0.0, "fusion_lat": 0.0, "lon": -77.03854383333334, "name": "34585848a6c5c4470f49e9656cc037d7"}, {"bike_id": "bf8c2670ebcdf7340f15a7377b3c1e4c", "type": "electric_bike", "is_disabled": 0, "lat": 38.83425183333333, "rental_uris": {"ios": "https://dc.lft.to/lastmile_qr_scan", "android": "https://dc.lft.to/lastmile_qr_scan"}, "is_reserved": 0, "fusion_lon": 0.0, "fusion_lat": 0.0, "lon": -77.058791, "name": "bf8c2670ebcdf7340f15a7377b3c1e4c"}, {"bike_id": "043d826f7ea6d1c5cd5446dc6bdc601b", "type": "electric_scooter", "is_disabled": 0, "lat": 38.92826133333333, "rental_uris": {"ios": "https://dc.lft.to/lastmile_qr_scan", "android": "https://dc.lft.to/lastmile_qr_scan"}, "is_reserved": 0, "fusion_lon": 0.0, "fusion_lat": 0.0, "lon": -77.02260616666666, "name": "043d826f7ea6d1c5cd5446dc6bdc601b"}, {"bike_id": "f7a34b56a135cdb562bdedb839b1586e", "type": "electric_scooter", "is_disabled": 0, "lat": 38.91918183333333, "rental_uris": {"ios": "https://dc.lft.to/lastmile_qr_scan", "android": "https://dc.lft.to/lastmile_qr_scan"}, "is_reserved": 0, "fusion_lon": 0.0, "fusion_lat": 0.0, "lon": -77.02403933333333, "name": "f7a34b56a135cdb562bdedb839b1586e"}, {"bike_id": "c1df048529d7f1b13c8d73b60d13bfd8", "type": "electric_scooter", "is_disabled": 0, "lat": 38.90089033333334, "rental_uris": {"ios": "https://dc.lft.to/lastmile_qr_scan", "android": "https://dc.lft.to/lastmile_qr_scan"}, "is_reserved": 0, "fusion_lon": 0.0, "fusion_lat": 0.0, "lon": -76.98339316666667, "name": "c1df048529d7f1b13c8d73b60d13bfd8"}, {"bike_id": "413ff281d51b4b3ea77022981f2d7ec8", "type": "electric_scooter", "is_disabled": 0, "lat": 38.92822483333333, "rental_uris": {"ios": "https://dc.lft.to/lastmile_qr_scan", "android": "https://dc.lft.to/lastmile_qr_scan"}, "is_reserved": 0, "fusion_lon": 0.0, "fusion_lat": 0.0, "lon": -77.054333, "name": "413ff281d51b4b3ea77022981f2d7ec8"}, {"bike_id": "7292c5b60d847b57c37f4e8a5042eda3", "type": "electric_scooter", "is_disabled": 0, "lat": 38.893326, "rental_uris": {"ios": "https://dc.lft.to/lastmile_qr_scan", "android": "https://dc.lft.to/lastmile_qr_scan"}, "is_reserved": 0, "fusion_lon": 0.0, "fusion_lat": 0.0, "lon": -76.950519, "name": "7292c5b60d847b57c37f4e8a5042eda3"}, {"bike_id": "ae12fc4a53d80a246d2a3999082c7b2a", "type": "electric_scooter", "is_disabled": 0, "lat": 38.8739305, "rental_uris": {"ios": "https://dc.lft.to/lastmile_qr_scan", "android": "https://dc.lft.to/lastmile_qr_scan"}, "is_reserved": 0, "fusion_lon": 0.0, "fusion_lat": 0.0, "lon": -77.0434465, "name": "ae12fc4a53d80a246d2a3999082c7b2a"}, {"bike_id": "354361d95fa4a41f032e8b6935f80dbc", "type": "electric_scooter", "is_disabled": 0, "lat": 38.91855533333333, "rental_uris": {"ios": "https://dc.lft.to/lastmile_qr_scan", "android": "https://dc.lft.to/lastmile_qr_scan"}, "is_reserved": 0, "fusion_lon": 0.0, "fusion_lat": 0.0, "lon": -77.04101266666666, "name": "354361d95fa4a41f032e8b6935f80dbc"}, {"bike_id": "a7b304ef57398e815126592f66495bcd", "type": "electric_scooter", "is_disabled": 0, "lat": 38.901791, "rental_uris": {"ios": "https://dc.lft.to/lastmile_qr_scan", "android": "https://dc.lft.to/lastmile_qr_scan"}, "is_reserved": 0, "fusion_lon": 0.0, "fusion_lat": 0.0, "lon": -77.02087416666667, "name": "a7b304ef57398e815126592f66495bcd"}, {"bike_id": "0bbfc710c9b3754571f54bffef3682e2", "type": "electric_scooter", "is_disabled": 0, "lat": 38.887490166666666, "rental_uris": {"ios": "https://dc.lft.to/lastmile_qr_scan", "android": "https://dc.lft.to/lastmile_qr_scan"}, "is_reserved": 0, "fusion_lon": 0.0, "fusion_lat": 0.0, "lon": -77.0284875, "name": "0bbfc710c9b3754571f54bffef3682e2"}, {"bike_id": "b7969ed973b79895352f3ef558909f4e", "type": "electric_scooter", "is_disabled": 0, "lat": 38.90607133333334, "rental_uris": {"ios": "https://dc.lft.to/lastmile_qr_scan", "android": "https://dc.lft.to/lastmile_qr_scan"}, "is_reserved": 0, "fusion_lon": 0.0, "fusion_lat": 0.0, "lon": -77.02573016666666, "name": "b7969ed973b79895352f3ef558909f4e"}, {"bike_id": "ea7c91650a0027cc6470f497c4acdf46", "type": "electric_scooter", "is_disabled": 0, "lat": 38.90138783333333, "rental_uris": {"ios": "https://dc.lft.to/lastmile_qr_scan", "android": "https://dc.lft.to/lastmile_qr_scan"}, "is_reserved": 0, "fusion_lon": 0.0, "fusion_lat": 0.0, "lon": -77.06079916666667, "name": "ea7c91650a0027cc6470f497c4acdf46"}, {"bike_id": "0363e18927b103752c4b733bc2ad7876", "type": "electric_scooter", "is_disabled": 0, "lat": 38.89599666666667, "rental_uris": {"ios": "https://dc.lft.to/lastmile_qr_scan", "android": "https://dc.lft.to/lastmile_qr_scan"}, "is_reserved": 0, "fusion_lon": 0.0, "fusion_lat": 0.0, "lon": -77.04446066666667, "name": "0363e18927b103752c4b733bc2ad7876"}, {"bike_id": "3cc2e122c53fc6417df09f4b0044f345", "type": "electric_scooter", "is_disabled": 0, "lat": 38.90004616666667, "rental_uris": {"ios": "https://dc.lft.to/lastmile_qr_scan", "android": "https://dc.lft.to/lastmile_qr_scan"}, "is_reserved": 0, "fusion_lon": 0.0, "fusion_lat": 0.0, "lon": -77.011776, "name": "3cc2e122c53fc6417df09f4b0044f345"}, {"bike_id": "d53cc574e9f2cc6c2072638c5f8a9d78", "type": "electric_scooter", "is_disabled": 0, "lat": 38.86244683333334, "rental_uris": {"ios": "https://dc.lft.to/lastmile_qr_scan", "android": "https://dc.lft.to/lastmile_qr_scan"}, "is_reserved": 0, "fusion_lon": 0.0, "fusion_lat": 0.0, "lon": -76.99496316666666, "name": "d53cc574e9f2cc6c2072638c5f8a9d78"}, {"bike_id": "a7da4bf4d3c95aceb843d9b4a19ad8db", "type": "electric_bike", "is_disabled": 0, "lat": 38.9953095, "rental_uris": {"ios": "https://dc.lft.to/lastmile_qr_scan", "android": "https://dc.lft.to/lastmile_qr_scan"}, "is_reserved": 0, "fusion_lon": 0.0, "fusion_lat": 0.0, "lon": -77.06945866666666, "name": "a7da4bf4d3c95aceb843d9b4a19ad8db"}, {"bike_id": "225d906dac2dc9cc1c328ff91dfc30e0", "type": "electric_scooter", "is_disabled": 0, "lat": 38.92459316666667, "rental_uris": {"ios": "https://dc.lft.to/lastmile_qr_scan", "android": "https://dc.lft.to/lastmile_qr_scan"}, "is_reserved": 0, "fusion_lon": 0.0, "fusion_lat": 0.0, "lon": -77.052307, "name": "225d906dac2dc9cc1c328ff91dfc30e0"}, {"bike_id": "99d4a2cc11784e9020b4683581f65242", "type": "electric_scooter", "is_disabled": 0, "lat": 38.900273, "rental_uris": {"ios": "https://dc.lft.to/lastmile_qr_scan", "android": "https://dc.lft.to/lastmile_qr_scan"}, "is_reserved": 0, "fusion_lon": 0.0, "fusion_lat": 0.0, "lon": -77.002102, "name": "99d4a2cc11784e9020b4683581f65242"}, {"bike_id": "9ba9563c85822b8d82df5baefb1a2019", "type": "electric_scooter", "is_disabled": 0, "lat": 38.968518, "rental_uris": {"ios": "https://dc.lft.to/lastmile_qr_scan", "android": "https://dc.lft.to/lastmile_qr_scan"}, "is_reserved": 0, "fusion_lon": 0.0, "fusion_lat": 0.0, "lon": -77.02725683333334, "name": "9ba9563c85822b8d82df5baefb1a2019"}, {"bike_id": "a68a0dd973f1134623e560fba03de462", "type": "electric_scooter", "is_disabled": 0, "lat": 38.896302, "rental_uris": {"ios": "https://dc.lft.to/lastmile_qr_scan", "android": "https://dc.lft.to/lastmile_qr_scan"}, "is_reserved": 0, "fusion_lon": 0.0, "fusion_lat": 0.0, "lon": -77.022103, "name": "a68a0dd973f1134623e560fba03de462"}, {"bike_id": "9afd789099d9c5265bd30c73ae45774b", "type": "electric_scooter", "is_disabled": 0, "lat": 38.900305333333336, "rental_uris": {"ios": "https://dc.lft.to/lastmile_qr_scan", "android": "https://dc.lft.to/lastmile_qr_scan"}, "is_reserved": 0, "fusion_lon": 0.0, "fusion_lat": 0.0, "lon": -76.98858016666667, "name": "9afd789099d9c5265bd30c73ae45774b"}, {"bike_id": "cef68004219fb75241cf703873d0d403", "type": "electric_scooter", "is_disabled": 0, "lat": 38.92221716666667, "rental_uris": {"ios": "https://dc.lft.to/lastmile_qr_scan", "android": "https://dc.lft.to/lastmile_qr_scan"}, "is_reserved": 0, "fusion_lon": 0.0, "fusion_lat": 0.0, "lon": -77.04336116666667, "name": "cef68004219fb75241cf703873d0d403"}, {"bike_id": "237150512e2ccf9c5f112c3d2421aebb", "type": "electric_scooter", "is_disabled": 0, "lat": 38.876482833333334, "rental_uris": {"ios": "https://dc.lft.to/lastmile_qr_scan", "android": "https://dc.lft.to/lastmile_qr_scan"}, "is_reserved": 0, "fusion_lon": 0.0, "fusion_lat": 0.0, "lon": -76.9650715, "name": "237150512e2ccf9c5f112c3d2421aebb"}, {"bike_id": "3ceda8ee3801dbdcb0d6f01ea1d880b0", "type": "electric_scooter", "is_disabled": 0, "lat": 38.913470833333335, "rental_uris": {"ios": "https://dc.lft.to/lastmile_qr_scan", "android": "https://dc.lft.to/lastmile_qr_scan"}, "is_reserved": 0, "fusion_lon": 0.0, "fusion_lat": 0.0, "lon": -77.07118366666667, "name": "3ceda8ee3801dbdcb0d6f01ea1d880b0"}, {"bike_id": "85de2e5b52d8f6bb551802b63b921683", "type": "electric_scooter", "is_disabled": 0, "lat": 38.861908666666665, "rental_uris": {"ios": "https://dc.lft.to/lastmile_qr_scan", "android": "https://dc.lft.to/lastmile_qr_scan"}, "is_reserved": 0, "fusion_lon": 0.0, "fusion_lat": 0.0, "lon": -76.95951233333334, "name": "85de2e5b52d8f6bb551802b63b921683"}, {"bike_id": "428fafa1119afeff88c2f53febf8159e", "type": "electric_scooter", "is_disabled": 0, "lat": 38.901478166666664, "rental_uris": {"ios": "https://dc.lft.to/lastmile_qr_scan", "android": "https://dc.lft.to/lastmile_qr_scan"}, "is_reserved": 0, "fusion_lon": 0.0, "fusion_lat": 0.0, "lon": -77.0180775, "name": "428fafa1119afeff88c2f53febf8159e"}, {"bike_id": "e708cc3dc7e116a414adb8bb8d3b7d21", "type": "electric_scooter", "is_disabled": 0, "lat": 38.92252033333333, "rental_uris": {"ios": "https://dc.lft.to/lastmile_qr_scan", "android": "https://dc.lft.to/lastmile_qr_scan"}, "is_reserved": 0, "fusion_lon": 0.0, "fusion_lat": 0.0, "lon": -77.030234, "name": "e708cc3dc7e116a414adb8bb8d3b7d21"}, {"bike_id": "7fea8c5f1b848578afc9d778cf92ded6", "type": "electric_scooter", "is_disabled": 0, "lat": 38.90494016666667, "rental_uris": {"ios": "https://dc.lft.to/lastmile_qr_scan", "android": "https://dc.lft.to/lastmile_qr_scan"}, "is_reserved": 0, "fusion_lon": 0.0, "fusion_lat": 0.0, "lon": -77.02963583333333, "name": "7fea8c5f1b848578afc9d778cf92ded6"}, {"bike_id": "b702983d13b7de6466eda4b99da6f53f", "type": "electric_scooter", "is_disabled": 0, "lat": 38.900266333333335, "rental_uris": {"ios": "https://dc.lft.to/lastmile_qr_scan", "android": "https://dc.lft.to/lastmile_qr_scan"}, "is_reserved": 0, "fusion_lon": 0.0, "fusion_lat": 0.0, "lon": -77.002152, "name": "b702983d13b7de6466eda4b99da6f53f"}, {"bike_id": "34349ade5a87ee518b130c86cecb7e6a", "type": "electric_scooter", "is_disabled": 0, "lat": 38.89762116666667, "rental_uris": {"ios": "https://dc.lft.to/lastmile_qr_scan", "android": "https://dc.lft.to/lastmile_qr_scan"}, "is_reserved": 0, "fusion_lon": 0.0, "fusion_lat": 0.0, "lon": -76.94705666666667, "name": "34349ade5a87ee518b130c86cecb7e6a"}, {"bike_id": "b76030efa89b4ba1e0baae47640fbd2e", "type": "electric_scooter", "is_disabled": 0, "lat": 38.91444, "rental_uris": {"ios": "https://dc.lft.to/lastmile_qr_scan", "android": "https://dc.lft.to/lastmile_qr_scan"}, "is_reserved": 0, "fusion_lon": 0.0, "fusion_lat": 0.0, "lon": -77.02593316666666, "name": "b76030efa89b4ba1e0baae47640fbd2e"}, {"bike_id": "4e92e37ac0e3dfb29ad9106d31f8bd06", "type": "electric_scooter", "is_disabled": 0, "lat": 38.914667666666666, "rental_uris": {"ios": "https://dc.lft.to/lastmile_qr_scan", "android": "https://dc.lft.to/lastmile_qr_scan"}, "is_reserved": 0, "fusion_lon": 0.0, "fusion_lat": 0.0, "lon": -77.04590233333333, "name": "4e92e37ac0e3dfb29ad9106d31f8bd06"}, {"bike_id": "308241ee24cdf2036dac74205697bf8b", "type": "electric_scooter", "is_disabled": 0, "lat": 38.91574883333333, "rental_uris": {"ios": "https://dc.lft.to/lastmile_qr_scan", "android": "https://dc.lft.to/lastmile_qr_scan"}, "is_reserved": 0, "fusion_lon": 0.0, "fusion_lat": 0.0, "lon": -77.041585, "name": "308241ee24cdf2036dac74205697bf8b"}, {"bike_id": "2962e511b94eabc7b9f8db926c1c611e", "type": "electric_scooter", "is_disabled": 0, "lat": 38.915804666666666, "rental_uris": {"ios": "https://dc.lft.to/lastmile_qr_scan", "android": "https://dc.lft.to/lastmile_qr_scan"}, "is_reserved": 0, "fusion_lon": 0.0, "fusion_lat": 0.0, "lon": -77.01229866666667, "name": "2962e511b94eabc7b9f8db926c1c611e"}, {"bike_id": "82060f0d1572f3dcf1331cbddf4663c6", "type": "electric_scooter", "is_disabled": 0, "lat": 38.90378416666667, "rental_uris": {"ios": "https://dc.lft.to/lastmile_qr_scan", "android": "https://dc.lft.to/lastmile_qr_scan"}, "is_reserved": 0, "fusion_lon": 0.0, "fusion_lat": 0.0, "lon": -77.03190916666667, "name": "82060f0d1572f3dcf1331cbddf4663c6"}, {"bike_id": "c13131df62d1676e8cdbfb924f45e9d4", "type": "electric_scooter", "is_disabled": 0, "lat": 38.91034966666667, "rental_uris": {"ios": "https://dc.lft.to/lastmile_qr_scan", "android": "https://dc.lft.to/lastmile_qr_scan"}, "is_reserved": 0, "fusion_lon": 0.0, "fusion_lat": 0.0, "lon": -77.0379925, "name": "c13131df62d1676e8cdbfb924f45e9d4"}, {"bike_id": "2553f584d9095e2d6a01beb08f873894", "type": "electric_scooter", "is_disabled": 0, "lat": 38.884312333333334, "rental_uris": {"ios": "https://dc.lft.to/lastmile_qr_scan", "android": "https://dc.lft.to/lastmile_qr_scan"}, "is_reserved": 0, "fusion_lon": 0.0, "fusion_lat": 0.0, "lon": -76.95755916666667, "name": "2553f584d9095e2d6a01beb08f873894"}, {"bike_id": "5fc02e87c2cb08a1471b52758d1aab1d", "type": "electric_scooter", "is_disabled": 0, "lat": 38.88741133333333, "rental_uris": {"ios": "https://dc.lft.to/lastmile_qr_scan", "android": "https://dc.lft.to/lastmile_qr_scan"}, "is_reserved": 0, "fusion_lon": 0.0, "fusion_lat": 0.0, "lon": -77.02939316666667, "name": "5fc02e87c2cb08a1471b52758d1aab1d"}, {"bike_id": "3307a446f38ad7fe8b624c8c9a8e406f", "type": "electric_scooter", "is_disabled": 0, "lat": 38.933903, "rental_uris": {"ios": "https://dc.lft.to/lastmile_qr_scan", "android": "https://dc.lft.to/lastmile_qr_scan"}, "is_reserved": 0, "fusion_lon": 0.0, "fusion_lat": 0.0, "lon": -77.05743666666666, "name": "3307a446f38ad7fe8b624c8c9a8e406f"}, {"bike_id": "cbc8c29a4b56e769286f712c46f4ecf8", "type": "electric_scooter", "is_disabled": 0, "lat": 38.914544666666664, "rental_uris": {"ios": "https://dc.lft.to/lastmile_qr_scan", "android": "https://dc.lft.to/lastmile_qr_scan"}, "is_reserved": 0, "fusion_lon": 0.0, "fusion_lat": 0.0, "lon": -77.031774, "name": "cbc8c29a4b56e769286f712c46f4ecf8"}, {"bike_id": "553dc181691c535cd6c0dbc5f5997fa2", "type": "electric_scooter", "is_disabled": 0, "lat": 38.900352833333336, "rental_uris": {"ios": "https://dc.lft.to/lastmile_qr_scan", "android": "https://dc.lft.to/lastmile_qr_scan"}, "is_reserved": 0, "fusion_lon": 0.0, "fusion_lat": 0.0, "lon": -76.99831833333333, "name": "553dc181691c535cd6c0dbc5f5997fa2"}, {"bike_id": "8223616d8f19086def499ed9b1a0e3c0", "type": "electric_scooter", "is_disabled": 0, "lat": 38.90724383333333, "rental_uris": {"ios": "https://dc.lft.to/lastmile_qr_scan", "android": "https://dc.lft.to/lastmile_qr_scan"}, "is_reserved": 0, "fusion_lon": 0.0, "fusion_lat": 0.0, "lon": -77.04021866666666, "name": "8223616d8f19086def499ed9b1a0e3c0"}, {"bike_id": "77c3db6953e91da81ed477b6eaed6bd6", "type": "electric_scooter", "is_disabled": 0, "lat": 38.92495816666667, "rental_uris": {"ios": "https://dc.lft.to/lastmile_qr_scan", "android": "https://dc.lft.to/lastmile_qr_scan"}, "is_reserved": 0, "fusion_lon": 0.0, "fusion_lat": 0.0, "lon": -77.0512045, "name": "77c3db6953e91da81ed477b6eaed6bd6"}, {"bike_id": "8af9a7a25e17f51d57596d02ddd3c5e3", "type": "electric_scooter", "is_disabled": 0, "lat": 38.907413166666664, "rental_uris": {"ios": "https://dc.lft.to/lastmile_qr_scan", "android": "https://dc.lft.to/lastmile_qr_scan"}, "is_reserved": 0, "fusion_lon": 0.0, "fusion_lat": 0.0, "lon": -77.02180566666667, "name": "8af9a7a25e17f51d57596d02ddd3c5e3"}, {"bike_id": "1c77ce9afda03f4c169f7b3dfca6c829", "type": "electric_scooter", "is_disabled": 0, "lat": 38.907491666666665, "rental_uris": {"ios": "https://dc.lft.to/lastmile_qr_scan", "android": "https://dc.lft.to/lastmile_qr_scan"}, "is_reserved": 0, "fusion_lon": 0.0, "fusion_lat": 0.0, "lon": -77.03196433333333, "name": "1c77ce9afda03f4c169f7b3dfca6c829"}, {"bike_id": "933cef7d130e4f502b77133a75422683", "type": "electric_scooter", "is_disabled": 0, "lat": 38.92158883333333, "rental_uris": {"ios": "https://dc.lft.to/lastmile_qr_scan", "android": "https://dc.lft.to/lastmile_qr_scan"}, "is_reserved": 0, "fusion_lon": 0.0, "fusion_lat": 0.0, "lon": -77.033941, "name": "933cef7d130e4f502b77133a75422683"}, {"bike_id": "6a42aa7eda8ac8d628665e06b4b24027", "type": "electric_scooter", "is_disabled": 0, "lat": 38.8974555, "rental_uris": {"ios": "https://dc.lft.to/lastmile_qr_scan", "android": "https://dc.lft.to/lastmile_qr_scan"}, "is_reserved": 0, "fusion_lon": 0.0, "fusion_lat": 0.0, "lon": -76.97974483333333, "name": "6a42aa7eda8ac8d628665e06b4b24027"}, {"bike_id": "5cb7bec5a8aaefec6b12c64c38fe34ad", "type": "electric_scooter", "is_disabled": 0, "lat": 38.91119233333333, "rental_uris": {"ios": "https://dc.lft.to/lastmile_qr_scan", "android": "https://dc.lft.to/lastmile_qr_scan"}, "is_reserved": 0, "fusion_lon": 0.0, "fusion_lat": 0.0, "lon": -77.04720816666666, "name": "5cb7bec5a8aaefec6b12c64c38fe34ad"}, {"bike_id": "be04f99dd5083f412cc1ccd97335bf1f", "type": "electric_scooter", "is_disabled": 0, "lat": 38.8928645, "rental_uris": {"ios": "https://dc.lft.to/lastmile_qr_scan", "android": "https://dc.lft.to/lastmile_qr_scan"}, "is_reserved": 0, "fusion_lon": 0.0, "fusion_lat": 0.0, "lon": -77.0334335, "name": "be04f99dd5083f412cc1ccd97335bf1f"}, {"bike_id": "e46c364d11291b8e686bcf47d3f7b694", "type": "electric_scooter", "is_disabled": 0, "lat": 38.94183666666667, "rental_uris": {"ios": "https://dc.lft.to/lastmile_qr_scan", "android": "https://dc.lft.to/lastmile_qr_scan"}, "is_reserved": 0, "fusion_lon": 0.0, "fusion_lat": 0.0, "lon": -77.02490433333334, "name": "e46c364d11291b8e686bcf47d3f7b694"}, {"bike_id": "6a9df157236bb888b7b5817938b2e12b", "type": "electric_scooter", "is_disabled": 0, "lat": 38.942941, "rental_uris": {"ios": "https://dc.lft.to/lastmile_qr_scan", "android": "https://dc.lft.to/lastmile_qr_scan"}, "is_reserved": 0, "fusion_lon": 0.0, "fusion_lat": 0.0, "lon": -77.02170083333333, "name": "6a9df157236bb888b7b5817938b2e12b"}, {"bike_id": "7427a1eda6567f916c1acb59c1cbf5e9", "type": "electric_scooter", "is_disabled": 0, "lat": 38.920652, "rental_uris": {"ios": "https://dc.lft.to/lastmile_qr_scan", "android": "https://dc.lft.to/lastmile_qr_scan"}, "is_reserved": 0, "fusion_lon": 0.0, "fusion_lat": 0.0, "lon": -77.04259916666666, "name": "7427a1eda6567f916c1acb59c1cbf5e9"}, {"bike_id": "fac280ab4a82733e4e6d83dd5af9e7a7", "type": "electric_bike", "is_disabled": 0, "lat": 38.8535425, "rental_uris": {"ios": "https://dc.lft.to/lastmile_qr_scan", "android": "https://dc.lft.to/lastmile_qr_scan"}, "is_reserved": 0, "fusion_lon": 0.0, "fusion_lat": 0.0, "lon": -77.13466416666667, "name": "fac280ab4a82733e4e6d83dd5af9e7a7"}, {"bike_id": "6811416855b9124546df8f4693291630", "type": "electric_scooter", "is_disabled": 0, "lat": 38.930899333333336, "rental_uris": {"ios": "https://dc.lft.to/lastmile_qr_scan", "android": "https://dc.lft.to/lastmile_qr_scan"}, "is_reserved": 0, "fusion_lon": 0.0, "fusion_lat": 0.0, "lon": -77.02357066666667, "name": "6811416855b9124546df8f4693291630"}, {"bike_id": "8878f457ea9b4f9bc689216ec929fe41", "type": "electric_scooter", "is_disabled": 0, "lat": 38.9274835, "rental_uris": {"ios": "https://dc.lft.to/lastmile_qr_scan", "android": "https://dc.lft.to/lastmile_qr_scan"}, "is_reserved": 0, "fusion_lon": 0.0, "fusion_lat": 0.0, "lon": -77.02535133333333, "name": "8878f457ea9b4f9bc689216ec929fe41"}, {"bike_id": "98e2a6f21291551e6e0a50d6b43eccf4", "type": "electric_scooter", "is_disabled": 0, "lat": 38.866821, "rental_uris": {"ios": "https://dc.lft.to/lastmile_qr_scan", "android": "https://dc.lft.to/lastmile_qr_scan"}, "is_reserved": 0, "fusion_lon": 0.0, "fusion_lat": 0.0, "lon": -76.98568066666667, "name": "98e2a6f21291551e6e0a50d6b43eccf4"}, {"bike_id": "cb71eb27b5c72572c3de7dcb00bac6df", "type": "electric_scooter", "is_disabled": 0, "lat": 38.892247166666664, "rental_uris": {"ios": "https://dc.lft.to/lastmile_qr_scan", "android": "https://dc.lft.to/lastmile_qr_scan"}, "is_reserved": 0, "fusion_lon": 0.0, "fusion_lat": 0.0, "lon": -77.0321735, "name": "cb71eb27b5c72572c3de7dcb00bac6df"}, {"bike_id": "08438ff9470e18969b009c5a49c639e3", "type": "electric_scooter", "is_disabled": 0, "lat": 38.90199033333333, "rental_uris": {"ios": "https://dc.lft.to/lastmile_qr_scan", "android": "https://dc.lft.to/lastmile_qr_scan"}, "is_reserved": 0, "fusion_lon": 0.0, "fusion_lat": 0.0, "lon": -77.02130433333333, "name": "08438ff9470e18969b009c5a49c639e3"}, {"bike_id": "f2f92b3272e3559f4943388b740d7ad9", "type": "electric_scooter", "is_disabled": 0, "lat": 38.8775935, "rental_uris": {"ios": "https://dc.lft.to/lastmile_qr_scan", "android": "https://dc.lft.to/lastmile_qr_scan"}, "is_reserved": 0, "fusion_lon": 0.0, "fusion_lat": 0.0, "lon": -76.98684566666667, "name": "f2f92b3272e3559f4943388b740d7ad9"}, {"bike_id": "c6fee7c1bb5203c9992404db30f735f6", "type": "electric_scooter", "is_disabled": 0, "lat": 38.91104383333333, "rental_uris": {"ios": "https://dc.lft.to/lastmile_qr_scan", "android": "https://dc.lft.to/lastmile_qr_scan"}, "is_reserved": 0, "fusion_lon": 0.0, "fusion_lat": 0.0, "lon": -77.04206116666667, "name": "c6fee7c1bb5203c9992404db30f735f6"}, {"bike_id": "313b3ed3042a0028b32fe74a8ed12cf7", "type": "electric_scooter", "is_disabled": 0, "lat": 38.8957065, "rental_uris": {"ios": "https://dc.lft.to/lastmile_qr_scan", "android": "https://dc.lft.to/lastmile_qr_scan"}, "is_reserved": 0, "fusion_lon": 0.0, "fusion_lat": 0.0, "lon": -76.93030616666667, "name": "313b3ed3042a0028b32fe74a8ed12cf7"}, {"bike_id": "5f763d3bf854c15719237c57886cf260", "type": "electric_scooter", "is_disabled": 0, "lat": 38.920170666666664, "rental_uris": {"ios": "https://dc.lft.to/lastmile_qr_scan", "android": "https://dc.lft.to/lastmile_qr_scan"}, "is_reserved": 0, "fusion_lon": 0.0, "fusion_lat": 0.0, "lon": -77.03209266666667, "name": "5f763d3bf854c15719237c57886cf260"}, {"bike_id": "8fcb81f7f04c8f98138c52bc9957d32a", "type": "electric_scooter", "is_disabled": 0, "lat": 38.90019, "rental_uris": {"ios": "https://dc.lft.to/lastmile_qr_scan", "android": "https://dc.lft.to/lastmile_qr_scan"}, "is_reserved": 0, "fusion_lon": 0.0, "fusion_lat": 0.0, "lon": -77.0379895, "name": "8fcb81f7f04c8f98138c52bc9957d32a"}, {"bike_id": "fb64ff7a2bc1178c7aab34146c3adcbf", "type": "electric_scooter", "is_disabled": 0, "lat": 38.91419533333333, "rental_uris": {"ios": "https://dc.lft.to/lastmile_qr_scan", "android": "https://dc.lft.to/lastmile_qr_scan"}, "is_reserved": 0, "fusion_lon": 0.0, "fusion_lat": 0.0, "lon": -77.02410033333334, "name": "fb64ff7a2bc1178c7aab34146c3adcbf"}, {"bike_id": "aa3968c7082b70f6b148509db18a54d5", "type": "electric_scooter", "is_disabled": 0, "lat": 38.92178833333333, "rental_uris": {"ios": "https://dc.lft.to/lastmile_qr_scan", "android": "https://dc.lft.to/lastmile_qr_scan"}, "is_reserved": 0, "fusion_lon": 0.0, "fusion_lat": 0.0, "lon": -77.02639816666667, "name": "aa3968c7082b70f6b148509db18a54d5"}, {"bike_id": "3a93255c8fab6863599b8ad7cc8a22bc", "type": "electric_scooter", "is_disabled": 0, "lat": 38.939925333333335, "rental_uris": {"ios": "https://dc.lft.to/lastmile_qr_scan", "android": "https://dc.lft.to/lastmile_qr_scan"}, "is_reserved": 0, "fusion_lon": 0.0, "fusion_lat": 0.0, "lon": -77.0169525, "name": "3a93255c8fab6863599b8ad7cc8a22bc"}, {"bike_id": "c160c57608451e678948113f8d959c2e", "type": "electric_scooter", "is_disabled": 0, "lat": 38.92005483333333, "rental_uris": {"ios": "https://dc.lft.to/lastmile_qr_scan", "android": "https://dc.lft.to/lastmile_qr_scan"}, "is_reserved": 0, "fusion_lon": 0.0, "fusion_lat": 0.0, "lon": -77.031719, "name": "c160c57608451e678948113f8d959c2e"}, {"bike_id": "35fb240bbf039ae16fbf06d90ea6f3cd", "type": "electric_scooter", "is_disabled": 0, "lat": 38.90024833333333, "rental_uris": {"ios": "https://dc.lft.to/lastmile_qr_scan", "android": "https://dc.lft.to/lastmile_qr_scan"}, "is_reserved": 0, "fusion_lon": 0.0, "fusion_lat": 0.0, "lon": -77.0021455, "name": "35fb240bbf039ae16fbf06d90ea6f3cd"}, {"bike_id": "35d743660313464bb44fc06f57aba89c", "type": "electric_scooter", "is_disabled": 0, "lat": 38.8983695, "rental_uris": {"ios": "https://dc.lft.to/lastmile_qr_scan", "android": "https://dc.lft.to/lastmile_qr_scan"}, "is_reserved": 0, "fusion_lon": 0.0, "fusion_lat": 0.0, "lon": -77.030457, "name": "35d743660313464bb44fc06f57aba89c"}, {"bike_id": "e3206180c54df9994811c16a65f80749", "type": "electric_scooter", "is_disabled": 0, "lat": 38.91483683333333, "rental_uris": {"ios": "https://dc.lft.to/lastmile_qr_scan", "android": "https://dc.lft.to/lastmile_qr_scan"}, "is_reserved": 0, "fusion_lon": 0.0, "fusion_lat": 0.0, "lon": -77.02182733333333, "name": "e3206180c54df9994811c16a65f80749"}, {"bike_id": "4eac2f0c886a3357158ebe25ff2350a7", "type": "electric_scooter", "is_disabled": 0, "lat": 38.92711216666667, "rental_uris": {"ios": "https://dc.lft.to/lastmile_qr_scan", "android": "https://dc.lft.to/lastmile_qr_scan"}, "is_reserved": 0, "fusion_lon": 0.0, "fusion_lat": 0.0, "lon": -77.02088766666667, "name": "4eac2f0c886a3357158ebe25ff2350a7"}, {"bike_id": "b710dccc531fa79b729d5c3b35a85ef3", "type": "electric_bike", "is_disabled": 0, "lat": 38.83246583333333, "rental_uris": {"ios": "https://dc.lft.to/lastmile_qr_scan", "android": "https://dc.lft.to/lastmile_qr_scan"}, "is_reserved": 0, "fusion_lon": 0.0, "fusion_lat": 0.0, "lon": -76.94628383333334, "name": "b710dccc531fa79b729d5c3b35a85ef3"}, {"bike_id": "46f5eb6cab4b773c608fa97eabf63b2f", "type": "electric_scooter", "is_disabled": 0, "lat": 38.905677, "rental_uris": {"ios": "https://dc.lft.to/lastmile_qr_scan", "android": "https://dc.lft.to/lastmile_qr_scan"}, "is_reserved": 0, "fusion_lon": 0.0, "fusion_lat": 0.0, "lon": -77.00588083333334, "name": "46f5eb6cab4b773c608fa97eabf63b2f"}, {"bike_id": "3ca33c3f093ccef2758ba9a9e26fee78", "type": "electric_bike", "is_disabled": 0, "lat": 39.03429, "rental_uris": {"ios": "https://dc.lft.to/lastmile_qr_scan", "android": "https://dc.lft.to/lastmile_qr_scan"}, "is_reserved": 0, "fusion_lon": 0.0, "fusion_lat": 0.0, "lon": -77.04300566666667, "name": "3ca33c3f093ccef2758ba9a9e26fee78"}, {"bike_id": "17ec6ca12801d2345d0b88159478d558", "type": "electric_scooter", "is_disabled": 0, "lat": 38.915508833333334, "rental_uris": {"ios": "https://dc.lft.to/lastmile_qr_scan", "android": "https://dc.lft.to/lastmile_qr_scan"}, "is_reserved": 0, "fusion_lon": 0.0, "fusion_lat": 0.0, "lon": -77.03839683333334, "name": "17ec6ca12801d2345d0b88159478d558"}, {"bike_id": "c11c8b6226a27159d4c369acc6f360ef", "type": "electric_scooter", "is_disabled": 0, "lat": 38.9056935, "rental_uris": {"ios": "https://dc.lft.to/lastmile_qr_scan", "android": "https://dc.lft.to/lastmile_qr_scan"}, "is_reserved": 0, "fusion_lon": 0.0, "fusion_lat": 0.0, "lon": -76.97782616666667, "name": "c11c8b6226a27159d4c369acc6f360ef"}, {"bike_id": "77d1405326f6a3ff07bf89fff963c444", "type": "electric_scooter", "is_disabled": 0, "lat": 38.935567666666664, "rental_uris": {"ios": "https://dc.lft.to/lastmile_qr_scan", "android": "https://dc.lft.to/lastmile_qr_scan"}, "is_reserved": 0, "fusion_lon": 0.0, "fusion_lat": 0.0, "lon": -77.032735, "name": "77d1405326f6a3ff07bf89fff963c444"}, {"bike_id": "6b8e1231589cb3c3dd330051b78cb6dc", "type": "electric_scooter", "is_disabled": 0, "lat": 38.8921745, "rental_uris": {"ios": "https://dc.lft.to/lastmile_qr_scan", "android": "https://dc.lft.to/lastmile_qr_scan"}, "is_reserved": 0, "fusion_lon": 0.0, "fusion_lat": 0.0, "lon": -77.0226105, "name": "6b8e1231589cb3c3dd330051b78cb6dc"}, {"bike_id": "bc387d1de822b6dab7e086017564368a", "type": "electric_scooter", "is_disabled": 0, "lat": 38.92823383333333, "rental_uris": {"ios": "https://dc.lft.to/lastmile_qr_scan", "android": "https://dc.lft.to/lastmile_qr_scan"}, "is_reserved": 0, "fusion_lon": 0.0, "fusion_lat": 0.0, "lon": -77.02258816666667, "name": "bc387d1de822b6dab7e086017564368a"}, {"bike_id": "781ec4afc076971a6827fbc4cd7ef659", "type": "electric_scooter", "is_disabled": 0, "lat": 38.866995, "rental_uris": {"ios": "https://dc.lft.to/lastmile_qr_scan", "android": "https://dc.lft.to/lastmile_qr_scan"}, "is_reserved": 0, "fusion_lon": 0.0, "fusion_lat": 0.0, "lon": -76.98714466666667, "name": "781ec4afc076971a6827fbc4cd7ef659"}, {"bike_id": "eca650bf7540f39a3ce925211b7e87a6", "type": "electric_scooter", "is_disabled": 0, "lat": 38.90295866666666, "rental_uris": {"ios": "https://dc.lft.to/lastmile_qr_scan", "android": "https://dc.lft.to/lastmile_qr_scan"}, "is_reserved": 0, "fusion_lon": 0.0, "fusion_lat": 0.0, "lon": -77.0336755, "name": "eca650bf7540f39a3ce925211b7e87a6"}, {"bike_id": "26bd7dcde678a8602b16489461114a26", "type": "electric_scooter", "is_disabled": 0, "lat": 38.9126655, "rental_uris": {"ios": "https://dc.lft.to/lastmile_qr_scan", "android": "https://dc.lft.to/lastmile_qr_scan"}, "is_reserved": 0, "fusion_lon": 0.0, "fusion_lat": 0.0, "lon": -77.04499383333334, "name": "26bd7dcde678a8602b16489461114a26"}, {"bike_id": "27a5b4ee235700c03fed38ee01c8f2c3", "type": "electric_scooter", "is_disabled": 0, "lat": 38.92144416666667, "rental_uris": {"ios": "https://dc.lft.to/lastmile_qr_scan", "android": "https://dc.lft.to/lastmile_qr_scan"}, "is_reserved": 0, "fusion_lon": 0.0, "fusion_lat": 0.0, "lon": -77.043544, "name": "27a5b4ee235700c03fed38ee01c8f2c3"}, {"bike_id": "5f044866caa74a0ce59ad947ebeec012", "type": "electric_scooter", "is_disabled": 0, "lat": 38.91013, "rental_uris": {"ios": "https://dc.lft.to/lastmile_qr_scan", "android": "https://dc.lft.to/lastmile_qr_scan"}, "is_reserved": 0, "fusion_lon": 0.0, "fusion_lat": 0.0, "lon": -77.03186633333334, "name": "5f044866caa74a0ce59ad947ebeec012"}, {"bike_id": "a465886d5ad81e407f22726916d51808", "type": "electric_scooter", "is_disabled": 0, "lat": 38.866994166666665, "rental_uris": {"ios": "https://dc.lft.to/lastmile_qr_scan", "android": "https://dc.lft.to/lastmile_qr_scan"}, "is_reserved": 0, "fusion_lon": 0.0, "fusion_lat": 0.0, "lon": -76.98709033333333, "name": "a465886d5ad81e407f22726916d51808"}, {"bike_id": "e6d564dfa22d9d0958d6eda8c924b716", "type": "electric_bike", "is_disabled": 0, "lat": 38.97860933333333, "rental_uris": {"ios": "https://dc.lft.to/lastmile_qr_scan", "android": "https://dc.lft.to/lastmile_qr_scan"}, "is_reserved": 0, "fusion_lon": 0.0, "fusion_lat": 0.0, "lon": -76.94046583333333, "name": "e6d564dfa22d9d0958d6eda8c924b716"}, {"bike_id": "a3c9597cbb2a4f46f45f4eb0e2a20d7e", "type": "electric_scooter", "is_disabled": 0, "lat": 38.87872933333333, "rental_uris": {"ios": "https://dc.lft.to/lastmile_qr_scan", "android": "https://dc.lft.to/lastmile_qr_scan"}, "is_reserved": 0, "fusion_lon": 0.0, "fusion_lat": 0.0, "lon": -77.01913, "name": "a3c9597cbb2a4f46f45f4eb0e2a20d7e"}, {"bike_id": "48c1e99f2cb973498eb6df24065424f2", "type": "electric_scooter", "is_disabled": 0, "lat": 38.89867266666667, "rental_uris": {"ios": "https://dc.lft.to/lastmile_qr_scan", "android": "https://dc.lft.to/lastmile_qr_scan"}, "is_reserved": 0, "fusion_lon": 0.0, "fusion_lat": 0.0, "lon": -76.94638733333333, "name": "48c1e99f2cb973498eb6df24065424f2"}, {"bike_id": "a520d5d8329402595cb1a9912a7bd61e", "type": "electric_scooter", "is_disabled": 0, "lat": 38.917650333333334, "rental_uris": {"ios": "https://dc.lft.to/lastmile_qr_scan", "android": "https://dc.lft.to/lastmile_qr_scan"}, "is_reserved": 0, "fusion_lon": 0.0, "fusion_lat": 0.0, "lon": -77.04773533333334, "name": "a520d5d8329402595cb1a9912a7bd61e"}, {"bike_id": "b2d54ae3a948512a175c8b2606d5421d", "type": "electric_scooter", "is_disabled": 0, "lat": 38.930776, "rental_uris": {"ios": "https://dc.lft.to/lastmile_qr_scan", "android": "https://dc.lft.to/lastmile_qr_scan"}, "is_reserved": 0, "fusion_lon": 0.0, "fusion_lat": 0.0, "lon": -77.02793533333333, "name": "b2d54ae3a948512a175c8b2606d5421d"}, {"bike_id": "52a072ab8afa871dbd44b9321ff953ac", "type": "electric_scooter", "is_disabled": 0, "lat": 38.905039333333335, "rental_uris": {"ios": "https://dc.lft.to/lastmile_qr_scan", "android": "https://dc.lft.to/lastmile_qr_scan"}, "is_reserved": 0, "fusion_lon": 0.0, "fusion_lat": 0.0, "lon": -76.99954216666667, "name": "52a072ab8afa871dbd44b9321ff953ac"}, {"bike_id": "07383d191e988c67cca3dccc01816264", "type": "electric_bike", "is_disabled": 0, "lat": 38.878836, "rental_uris": {"ios": "https://dc.lft.to/lastmile_qr_scan", "android": "https://dc.lft.to/lastmile_qr_scan"}, "is_reserved": 0, "fusion_lon": 0.0, "fusion_lat": 0.0, "lon": -77.09612333333334, "name": "07383d191e988c67cca3dccc01816264"}, {"bike_id": "52e3786992bb556a569b839f5b6bf0f5", "type": "electric_scooter", "is_disabled": 0, "lat": 38.89886933333333, "rental_uris": {"ios": "https://dc.lft.to/lastmile_qr_scan", "android": "https://dc.lft.to/lastmile_qr_scan"}, "is_reserved": 0, "fusion_lon": 0.0, "fusion_lat": 0.0, "lon": -76.93172283333334, "name": "52e3786992bb556a569b839f5b6bf0f5"}, {"bike_id": "e5883600fc07203820bde9489cf76cab", "type": "electric_scooter", "is_disabled": 0, "lat": 38.92381183333333, "rental_uris": {"ios": "https://dc.lft.to/lastmile_qr_scan", "android": "https://dc.lft.to/lastmile_qr_scan"}, "is_reserved": 0, "fusion_lon": 0.0, "fusion_lat": 0.0, "lon": -77.0413055, "name": "e5883600fc07203820bde9489cf76cab"}, {"bike_id": "37dc9d17d8e45e08c8d65201e53ea46d", "type": "electric_scooter", "is_disabled": 0, "lat": 38.90310866666667, "rental_uris": {"ios": "https://dc.lft.to/lastmile_qr_scan", "android": "https://dc.lft.to/lastmile_qr_scan"}, "is_reserved": 0, "fusion_lon": 0.0, "fusion_lat": 0.0, "lon": -77.0288125, "name": "37dc9d17d8e45e08c8d65201e53ea46d"}, {"bike_id": "a461815b61cf5c8107e6052564397a4f", "type": "electric_scooter", "is_disabled": 0, "lat": 38.902629, "rental_uris": {"ios": "https://dc.lft.to/lastmile_qr_scan", "android": "https://dc.lft.to/lastmile_qr_scan"}, "is_reserved": 0, "fusion_lon": 0.0, "fusion_lat": 0.0, "lon": -77.01762016666666, "name": "a461815b61cf5c8107e6052564397a4f"}, {"bike_id": "02076847edea6c1eb399941f555185f0", "type": "electric_scooter", "is_disabled": 0, "lat": 38.933243166666664, "rental_uris": {"ios": "https://dc.lft.to/lastmile_qr_scan", "android": "https://dc.lft.to/lastmile_qr_scan"}, "is_reserved": 0, "fusion_lon": 0.0, "fusion_lat": 0.0, "lon": -77.02937833333333, "name": "02076847edea6c1eb399941f555185f0"}, {"bike_id": "8c4bff6c6b38230130f4a3c9eee6443b", "type": "electric_scooter", "is_disabled": 0, "lat": 38.90747833333333, "rental_uris": {"ios": "https://dc.lft.to/lastmile_qr_scan", "android": "https://dc.lft.to/lastmile_qr_scan"}, "is_reserved": 0, "fusion_lon": 0.0, "fusion_lat": 0.0, "lon": -77.03196733333333, "name": "8c4bff6c6b38230130f4a3c9eee6443b"},