{"data": {"bikes": [{"bike_id": "952550ee719e0f98e6f20c37f7b7ec7b", "type": "electric_scooter", "is_disabled": 0, "lat": 38.8988875, "rental_uris": {"ios": "https://dc.lft.to/lastmile_qr_scan", "android": "https://dc.lft.to/lastmile_qr_scan"}, "is_reserved": 0, "fusion_lon": 0.0, "fusion_lat": 0.0, "lon": -77.015066, "name": "952550ee719e0f98e6f20c37f7b7ec7b"}, {"bike_id": "5fe592246dc5e592a4d2ecfda7e35215", "type": "electric_scooter", "is_disabled": 0, "lat": 38.89326283333333, "rental_uris": {"ios": "https://dc.lft.to/lastmile_qr_scan", "android": "https://dc.lft.to/lastmile_qr_scan"}, "is_reserved": 0, "fusion_lon": 0.0, "fusion_lat": 0.0, "lon": -77.04878366666667, "name": "5fe592246dc5e592a4d2ecfda7e35215"}, {"bike_id": "e9f65dc0820a5c1c24e7ee570e4e2282", "type": "electric_scooter", "is_disabled": 0, "lat": 38.95150983333333, "rental_uris": {"ios": "https://dc.lft.to/lastmile_qr_scan", "android": "https://dc.lft.to/lastmile_qr_scan"}, "is_reserved": 0, "fusion_lon": 0.0, "fusion_lat": 0.0, "lon": -77.01870433333333, "name": "e9f65dc0820a5c1c24e7ee570e4e2282"}, {"bike_id": "2804c280f5967ed87d82172723390c98", "type": "electric_scooter", "is_disabled": 0, "lat": 38.886097, "rental_uris": {"ios": "https://dc.lft.to/lastmile_qr_scan", "android": "https://dc.lft.to/lastmile_qr_scan"}, "is_reserved": 0, "fusion_lon": 0.0, "fusion_lat": 0.0, "lon": -77.01251733333334, "name": "2804c280f5967ed87d82172723390c98"}, {"bike_id": "0f41185f68b019e284032f476ecb345e", "type": "electric_scooter", "is_disabled": 0, "lat": 38.895312833333335, "rental_uris": {"ios": "https://dc.lft.to/lastmile_qr_scan", "android": "https://dc.lft.to/lastmile_qr_scan"}, "is_reserved": 0, "fusion_lon": 0.0, "fusion_lat": 0.0, "lon": -76.948933, "name": "0f41185f68b019e284032f476ecb345e"}, {"bike_id": "02a64af3efeae512a2a7ad3ee18b13b1", "type": "electric_scooter", "is_disabled": 0, "lat": 38.890080833333336, "rental_uris": {"ios": "https://dc.lft.to/lastmile_qr_scan", "android": "https://dc.lft.to/lastmile_qr_scan"}, "is_reserved": 0, "fusion_lon": 0.0, "fusion_lat": 0.0, "lon": -76.93745633333333, "name": "02a64af3efeae512a2a7ad3ee18b13b1"}, {"bike_id": "9101cf6d37383e5da2aca64d9d914656", "type": "electric_scooter", "is_disabled": 0, "lat": 38.914246166666665, "rental_uris": {"ios": "https://dc.lft.to/lastmile_qr_scan", "android": "https://dc.lft.to/lastmile_qr_scan"}, "is_reserved": 0, "fusion_lon": 0.0, "fusion_lat": 0.0, "lon": -77.03270533333334, "name": "9101cf6d37383e5da2aca64d9d914656"}, {"bike_id": "6df0f15862b5a4e2113de4b5df6e4ec7", "type": "electric_scooter", "is_disabled": 0, "lat": 38.918961333333336, "rental_uris": {"ios": "https://dc.lft.to/lastmile_qr_scan", "android": "https://dc.lft.to/lastmile_qr_scan"}, "is_reserved": 0, "fusion_lon": 0.0, "fusion_lat": 0.0, "lon": -77.00320483333333, "name": "6df0f15862b5a4e2113de4b5df6e4ec7"}, {"bike_id": "ba2e1b473b4538d7cc14a7127e1cd002", "type": "electric_scooter", "is_disabled": 0, "lat": 38.91881216666667, "rental_uris": {"ios": "https://dc.lft.to/lastmile_qr_scan", "android": "https://dc.lft.to/lastmile_qr_scan"}, "is_reserved": 0, "fusion_lon": 0.0, "fusion_lat": 0.0, "lon": -77.03487, "name": "ba2e1b473b4538d7cc14a7127e1cd002"}, {"bike_id": "986afaec1f6ba163ba32c6e6361cb5f9", "type": "electric_scooter", "is_disabled": 0, "lat": 38.9169445, "rental_uris": {"ios": "https://dc.lft.to/lastmile_qr_scan", "android": "https://dc.lft.to/lastmile_qr_scan"}, "is_reserved": 0, "fusion_lon": 0.0, "fusion_lat": 0.0, "lon": -77.01049383333333, "name": "986afaec1f6ba163ba32c6e6361cb5f9"}, {"bike_id": "36eab0c9335e4813b8d22780474a35cf", "type": "electric_scooter", "is_disabled": 0, "lat": 38.90206366666666, "rental_uris": {"ios": "https://dc.lft.to/lastmile_qr_scan", "android": "https://dc.lft.to/lastmile_qr_scan"}, "is_reserved": 0, "fusion_lon": 0.0, "fusion_lat": 0.0, "lon": -77.05126266666667, "name": "36eab0c9335e4813b8d22780474a35cf"}, {"bike_id": "988fc2911c04ef95820ad26795d775e7", "type": "electric_scooter", "is_disabled": 0, "lat": 38.915525833333334, "rental_uris": {"ios": "https://dc.lft.to/lastmile_qr_scan", "android": "https://dc.lft.to/lastmile_qr_scan"}, "is_reserved": 0, "fusion_lon": 0.0, "fusion_lat": 0.0, "lon": -77.032532, "name": "988fc2911c04ef95820ad26795d775e7"}, {"bike_id": "1fa5af521df44e11a967e6936597297b", "type": "electric_scooter", "is_disabled": 0, "lat": 38.9284555, "rental_uris": {"ios": "https://dc.lft.to/lastmile_qr_scan", "android": "https://dc.lft.to/lastmile_qr_scan"}, "is_reserved": 0, "fusion_lon": 0.0, "fusion_lat": 0.0, "lon": -77.03283966666666, "name": "1fa5af521df44e11a967e6936597297b"}, {"bike_id": "7f7a15f78268cce414ae4079f060965f", "type": "electric_scooter", "is_disabled": 0, "lat": 38.909675166666666, "rental_uris": {"ios": "https://dc.lft.to/lastmile_qr_scan", "android": "https://dc.lft.to/lastmile_qr_scan"}, "is_reserved": 0, "fusion_lon": 0.0, "fusion_lat": 0.0, "lon": -77.04520216666667, "name": "7f7a15f78268cce414ae4079f060965f"}, {"bike_id": "2bb6bafa7951b7f8fb0cb969d9aaf696", "type": "electric_scooter", "is_disabled": 0, "lat": 38.923636, "rental_uris": {"ios": "https://dc.lft.to/lastmile_qr_scan", "android": "https://dc.lft.to/lastmile_qr_scan"}, "is_reserved": 0, "fusion_lon": 0.0, "fusion_lat": 0.0, "lon": -77.05128666666667, "name": "2bb6bafa7951b7f8fb0cb969d9aaf696"}, {"bike_id": "83dd5905331e4843110a7f245bf33a6f", "type": "electric_scooter", "is_disabled": 0, "lat": 38.922202, "rental_uris": {"ios": "https://dc.lft.to/lastmile_qr_scan", "android": "https://dc.lft.to/lastmile_qr_scan"}, "is_reserved": 0, "fusion_lon": 0.0, "fusion_lat": 0.0, "lon": -77.02669933333334, "name": "83dd5905331e4843110a7f245bf33a6f"}, {"bike_id": "1de261283da4a10784784371a4b93334", "type": "electric_scooter", "is_disabled": 0, "lat": 38.94321333333333, "rental_uris": {"ios": "https://dc.lft.to/lastmile_qr_scan", "android": "https://dc.lft.to/lastmile_qr_scan"}, "is_reserved": 0, "fusion_lon": 0.0, "fusion_lat": 0.0, "lon": -77.06123683333334, "name": "1de261283da4a10784784371a4b93334"}, {"bike_id": "143f32b3a457f489bf91c90acc43ef3e", "type": "electric_bike", "is_disabled": 0, "lat": 38.94262966666667, "rental_uris": {"ios": "https://dc.lft.to/lastmile_qr_scan", "android": "https://dc.lft.to/lastmile_qr_scan"}, "is_reserved": 0, "fusion_lon": 0.0, "fusion_lat": 0.0, "lon": -76.9907365, "name": "143f32b3a457f489bf91c90acc43ef3e"}, {"bike_id": "74a242690936bd771a3d4aee0bcf838a", "type": "electric_scooter", "is_disabled": 0, "lat": 38.925464833333336, "rental_uris": {"ios": "https://dc.lft.to/lastmile_qr_scan", "android": "https://dc.lft.to/lastmile_qr_scan"}, "is_reserved": 0, "fusion_lon": 0.0, "fusion_lat": 0.0, "lon": -77.0335895, "name": "74a242690936bd771a3d4aee0bcf838a"}, {"bike_id": "350faf72bd88fa42afa8f648c87ae170", "type": "electric_scooter", "is_disabled": 0, "lat": 38.951133, "rental_uris": {"ios": "https://dc.lft.to/lastmile_qr_scan", "android": "https://dc.lft.to/lastmile_qr_scan"}, "is_reserved": 0, "fusion_lon": 0.0, "fusion_lat": 0.0, "lon": -77.01432333333334, "name": "350faf72bd88fa42afa8f648c87ae170"}, {"bike_id": "b02ed84dd93d7541921ddbe0660e3cdb", "type": "electric_scooter", "is_disabled": 0, "lat": 38.92621066666667, "rental_uris": {"ios": "https://dc.lft.to/lastmile_qr_scan", "android": "https://dc.lft.to/lastmile_qr_scan"}, "is_reserved": 0, "fusion_lon": 0.0, "fusion_lat": 0.0, "lon": -77.04320616666666, "name": "b02ed84dd93d7541921ddbe0660e3cdb"}, {"bike_id": "9592433d187d2112e448b0f6b60bce53", "type": "electric_scooter", "is_disabled": 0, "lat": 38.900654, "rental_uris": {"ios": "https://dc.lft.to/lastmile_qr_scan", "android": "https://dc.lft.to/lastmile_qr_scan"}, "is_reserved": 0, "fusion_lon": 0.0, "fusion_lat": 0.0, "lon": -77.051273, "name": "9592433d187d2112e448b0f6b60bce53"}, {"bike_id": "1397257996b8ed3a4a2221246cfb5c28", "type": "electric_scooter", "is_disabled": 0, "lat": 38.900622, "rental_uris": {"ios": "https://dc.lft.to/lastmile_qr_scan", "android": "https://dc.lft.to/lastmile_qr_scan"}, "is_reserved": 0, "fusion_lon": 0.0, "fusion_lat": 0.0, "lon": -77.01891516666667, "name": "1397257996b8ed3a4a2221246cfb5c28"}, {"bike_id": "4963dd30abedeec9fae7c9e5b693577d", "type": "electric_scooter", "is_disabled": 0, "lat": 38.895039833333335, "rental_uris": {"ios": "https://dc.lft.to/lastmile_qr_scan", "android": "https://dc.lft.to/lastmile_qr_scan"}, "is_reserved": 0, "fusion_lon": 0.0, "fusion_lat": 0.0, "lon": -76.93477116666666, "name": "4963dd30abedeec9fae7c9e5b693577d"}, {"bike_id": "3d682418f8aea63a36b6e0e8b4a8a3f9", "type": "electric_scooter", "is_disabled": 0, "lat": 38.897459833333336, "rental_uris": {"ios": "https://dc.lft.to/lastmile_qr_scan", "android": "https://dc.lft.to/lastmile_qr_scan"}, "is_reserved": 0, "fusion_lon": 0.0, "fusion_lat": 0.0, "lon": -77.046704, "name": "3d682418f8aea63a36b6e0e8b4a8a3f9"}, {"bike_id": "dfd71b529219efb261d4117b57bfc65e", "type": "electric_bike", "is_disabled": 0, "lat": 38.848318166666665, "rental_uris": {"ios": "https://dc.lft.to/lastmile_qr_scan", "android": "https://dc.lft.to/lastmile_qr_scan"}, "is_reserved": 0, "fusion_lon": 0.0, "fusion_lat": 0.0, "lon": -77.07918616666667, "name": "dfd71b529219efb261d4117b57bfc65e"}, {"bike_id": "aeb200ed7bef3a5dd2a4535c566f6cc9", "type": "electric_scooter", "is_disabled": 0, "lat": 38.86688016666667, "rental_uris": {"ios": "https://dc.lft.to/lastmile_qr_scan", "android": "https://dc.lft.to/lastmile_qr_scan"}, "is_reserved": 0, "fusion_lon": 0.0, "fusion_lat": 0.0, "lon": -76.98560166666667, "name": "aeb200ed7bef3a5dd2a4535c566f6cc9"}, {"bike_id": "d38c40c0e9e11b88264f31e214b2ea21", "type": "electric_scooter", "is_disabled": 0, "lat": 38.91510183333333, "rental_uris": {"ios": "https://dc.lft.to/lastmile_qr_scan", "android": "https://dc.lft.to/lastmile_qr_scan"}, "is_reserved": 0, "fusion_lon": 0.0, "fusion_lat": 0.0, "lon": -77.02291033333333, "name": "d38c40c0e9e11b88264f31e214b2ea21"}, {"bike_id": "26d725ee6e453b301a69117e71f761ad", "type": "electric_scooter", "is_disabled": 0, "lat": 38.8667505, "rental_uris": {"ios": "https://dc.lft.to/lastmile_qr_scan", "android": "https://dc.lft.to/lastmile_qr_scan"}, "is_reserved": 0, "fusion_lon": 0.0, "fusion_lat": 0.0, "lon": -76.98534433333333, "name": "26d725ee6e453b301a69117e71f761ad"}, {"bike_id": "908219004e4fe4116d4961c20887b33e", "type": "electric_scooter", "is_disabled": 0, "lat": 38.874211333333335, "rental_uris": {"ios": "https://dc.lft.to/lastmile_qr_scan", "android": "https://dc.lft.to/lastmile_qr_scan"}, "is_reserved": 0, "fusion_lon": 0.0, "fusion_lat": 0.0, "lon": -76.96907783333333, "name": "908219004e4fe4116d4961c20887b33e"}, {"bike_id": "b6168e431a26cf8787574bf058922f57", "type": "electric_scooter", "is_disabled": 0, "lat": 38.9050585, "rental_uris": {"ios": "https://dc.lft.to/lastmile_qr_scan", "android": "https://dc.lft.to/lastmile_qr_scan"}, "is_reserved": 0, "fusion_lon": 0.0, "fusion_lat": 0.0, "lon": -77.06007083333333, "name": "b6168e431a26cf8787574bf058922f57"}, {"bike_id": "ea8cd3a4749cf3cae5d949bfd8cc2ae2", "type": "electric_bike", "is_disabled": 0, "lat": 38.952304, "rental_uris": {"ios": "https://dc.lft.to/lastmile_qr_scan", "android": "https://dc.lft.to/lastmile_qr_scan"}, "is_reserved": 0, "fusion_lon": 0.0, "fusion_lat": 0.0, "lon": -76.97009883333334, "name": "ea8cd3a4749cf3cae5d949bfd8cc2ae2"}, {"bike_id": "cf3d760aecaf3da4af4dda158e8e4f5b", "type": "electric_bike", "is_disabled": 0, "lat": 38.96302, "rental_uris": {"ios": "https://dc.lft.to/lastmile_qr_scan", "android": "https://dc.lft.to/lastmile_qr_scan"}, "is_reserved": 0, "fusion_lon": 0.0, "fusion_lat": 0.0, "lon": -77.01106016666667, "name": "cf3d760aecaf3da4af4dda158e8e4f5b"}, {"bike_id": "5f39beaa6e662f871f3ebbc8465c9f34", "type": "electric_scooter", "is_disabled": 0, "lat": 38.903696833333335, "rental_uris": {"ios": "https://dc.lft.to/lastmile_qr_scan", "android": "https://dc.lft.to/lastmile_qr_scan"}, "is_reserved": 0, "fusion_lon": 0.0, "fusion_lat": 0.0, "lon": -77.00760416666667, "name": "5f39beaa6e662f871f3ebbc8465c9f34"}, {"bike_id": "c5a69cb8c6dead841c37f1b1907be06a", "type": "electric_scooter", "is_disabled": 0, "lat": 38.900685833333334, "rental_uris": {"ios": "https://dc.lft.to/lastmile_qr_scan", "android": "https://dc.lft.to/lastmile_qr_scan"}, "is_reserved": 0, "fusion_lon": 0.0, "fusion_lat": 0.0, "lon": -77.05141066666667, "name": "c5a69cb8c6dead841c37f1b1907be06a"}, {"bike_id": "779616931bfcc2c2698c86751573652e", "type": "electric_scooter", "is_disabled": 0, "lat": 38.912235833333334, "rental_uris": {"ios": "https://dc.lft.to/lastmile_qr_scan", "android": "https://dc.lft.to/lastmile_qr_scan"}, "is_reserved": 0, "fusion_lon": 0.0, "fusion_lat": 0.0, "lon": -77.02716333333333, "name": "779616931bfcc2c2698c86751573652e"}, {"bike_id": "4167593268166e517c5cef63ae4df58b", "type": "electric_scooter", "is_disabled": 0, "lat": 38.897112, "rental_uris": {"ios": "https://dc.lft.to/lastmile_qr_scan", "android": "https://dc.lft.to/lastmile_qr_scan"}, "is_reserved": 0, "fusion_lon": 0.0, "fusion_lat": 0.0, "lon": -77.008552, "name": "4167593268166e517c5cef63ae4df58b"}, {"bike_id": "061bae852044281c353b89abcce9a7a9", "type": "electric_bike", "is_disabled": 0, "lat": 38.963220666666665, "rental_uris": {"ios": "https://dc.lft.to/lastmile_qr_scan", "android": "https://dc.lft.to/lastmile_qr_scan"}, "is_reserved": 0, "fusion_lon": 0.0, "fusion_lat": 0.0, "lon": -76.97362983333333, "name": "061bae852044281c353b89abcce9a7a9"}, {"bike_id": "0f9e95f425e88bcb7589e8cb6ee9586d", "type": "electric_scooter", "is_disabled": 0, "lat": 38.899241833333335, "rental_uris": {"ios": "https://dc.lft.to/lastmile_qr_scan", "android": "https://dc.lft.to/lastmile_qr_scan"}, "is_reserved": 0, "fusion_lon": 0.0, "fusion_lat": 0.0, "lon": -77.05367966666667, "name": "0f9e95f425e88bcb7589e8cb6ee9586d"}, {"bike_id": "22d5fad664989a61a4aea1ee1c494cad", "type": "electric_scooter", "is_disabled": 0, "lat": 38.9097165, "rental_uris": {"ios": "https://dc.lft.to/lastmile_qr_scan", "android": "https://dc.lft.to/lastmile_qr_scan"}, "is_reserved": 0, "fusion_lon": 0.0, "fusion_lat": 0.0, "lon": -77.03178483333333, "name": "22d5fad664989a61a4aea1ee1c494cad"}, {"bike_id": "7ef1ad6374319ab3c0eead17969c91e0", "type": "electric_scooter", "is_disabled": 0, "lat": 38.92344, "rental_uris": {"ios": "https://dc.lft.to/lastmile_qr_scan", "android": "https://dc.lft.to/lastmile_qr_scan"}, "is_reserved": 0, "fusion_lon": 0.0, "fusion_lat": 0.0, "lon": -77.0417635, "name": "7ef1ad6374319ab3c0eead17969c91e0"}, {"bike_id": "b8f1e9870a26e1861f1fef66e1559431", "type": "electric_scooter", "is_disabled": 0, "lat": 38.908424333333336, "rental_uris": {"ios": "https://dc.lft.to/lastmile_qr_scan", "android": "https://dc.lft.to/lastmile_qr_scan"}, "is_reserved": 0, "fusion_lon": 0.0, "fusion_lat": 0.0, "lon": -77.02188933333333, "name": "b8f1e9870a26e1861f1fef66e1559431"}, {"bike_id": "23c1df37ac7b3235533f0fee0a72379c", "type": "electric_scooter", "is_disabled": 0, "lat": 38.9039945, "rental_uris": {"ios": "https://dc.lft.to/lastmile_qr_scan", "android": "https://dc.lft.to/lastmile_qr_scan"}, "is_reserved": 0, "fusion_lon": 0.0, "fusion_lat": 0.0, "lon": -77.00582483333334, "name": "23c1df37ac7b3235533f0fee0a72379c"}, {"bike_id": "039eb149c2716e0112b9e4379e2c7f74", "type": "electric_bike", "is_disabled": 0, "lat": 39.05496816666667, "rental_uris": {"ios": "https://dc.lft.to/lastmile_qr_scan", "android": "https://dc.lft.to/lastmile_qr_scan"}, "is_reserved": 0, "fusion_lon": 0.0, "fusion_lat": 0.0, "lon": -77.11787933333333, "name": "039eb149c2716e0112b9e4379e2c7f74"}, {"bike_id": "c5b3e26c682b61f3f62321f7fab06470", "type": "electric_scooter", "is_disabled": 0, "lat": 38.905413, "rental_uris": {"ios": "https://dc.lft.to/lastmile_qr_scan", "android": "https://dc.lft.to/lastmile_qr_scan"}, "is_reserved": 0, "fusion_lon": 0.0, "fusion_lat": 0.0, "lon": -77.06888666666667, "name": "c5b3e26c682b61f3f62321f7fab06470"}, {"bike_id": "65479fe4ce71f710420dae1ec93f0988", "type": "electric_scooter", "is_disabled": 0, "lat": 38.88747466666667, "rental_uris": {"ios": "https://dc.lft.to/lastmile_qr_scan", "android": "https://dc.lft.to/lastmile_qr_scan"}, "is_reserved": 0, "fusion_lon": 0.0, "fusion_lat": 0.0, "lon": -76.9962645, "name": "65479fe4ce71f710420dae1ec93f0988"}, {"bike_id": "9eca3cf7c4f5af0e7629ee48a6028ea9", "type": "electric_scooter", "is_disabled": 0, "lat": 38.9288025, "rental_uris": {"ios": "https://dc.lft.to/lastmile_qr_scan", "android": "https://dc.lft.to/lastmile_qr_scan"}, "is_reserved": 0, "fusion_lon": 0.0, "fusion_lat": 0.0, "lon": -77.0136215, "name": "9eca3cf7c4f5af0e7629ee48a6028ea9"}, {"bike_id": "2f21299a4ab972d1ac723e25ffa3f43b", "type": "electric_bike", "is_disabled": 0, "lat": 38.908293666666665, "rental_uris": {"ios": "https://dc.lft.to/lastmile_qr_scan", "android": "https://dc.lft.to/lastmile_qr_scan"}, "is_reserved": 0, "fusion_lon": 0.0, "fusion_lat": 0.0, "lon": -76.941551, "name": "2f21299a4ab972d1ac723e25ffa3f43b"}, {"bike_id": "d3cff0572079cd7421924a5468acd76e", "type": "electric_bike", "is_disabled": 0, "lat": 39.037399666666666, "rental_uris": {"ios": "https://dc.lft.to/lastmile_qr_scan", "android": "https://dc.lft.to/lastmile_qr_scan"}, "is_reserved": 0, "fusion_lon": 0.0, "fusion_lat": 0.0, "lon": -77.0548395, "name": "d3cff0572079cd7421924a5468acd76e"}, {"bike_id": "ab893d1cd44936d636807232a27ff08e", "type": "electric_scooter", "is_disabled": 0, "lat": 38.90712516666667, "rental_uris": {"ios": "https://dc.lft.to/lastmile_qr_scan", "android": "https://dc.lft.to/lastmile_qr_scan"}, "is_reserved": 0, "fusion_lon": 0.0, "fusion_lat": 0.0, "lon": -77.04166583333334, "name": "ab893d1cd44936d636807232a27ff08e"}, {"bike_id": "8d43616f03ad3b45a96f3208de288bf7", "type": "electric_scooter", "is_disabled": 0, "lat": 38.90573583333333, "rental_uris": {"ios": "https://dc.lft.to/lastmile_qr_scan", "android": "https://dc.lft.to/lastmile_qr_scan"}, "is_reserved": 0, "fusion_lon": 0.0, "fusion_lat": 0.0, "lon": -77.030292, "name": "8d43616f03ad3b45a96f3208de288bf7"}, {"bike_id": "f1d41c929057fa47e0372ca44a7e84fb", "type": "electric_scooter", "is_disabled": 0, "lat": 38.928854, "rental_uris": {"ios": "https://dc.lft.to/lastmile_qr_scan", "android": "https://dc.lft.to/lastmile_qr_scan"}, "is_reserved": 0, "fusion_lon": 0.0, "fusion_lat": 0.0, "lon": -77.0325045, "name": "f1d41c929057fa47e0372ca44a7e84fb"}, {"bike_id": "088a5d9505fb7e9dc538708bf03ea21e", "type": "electric_scooter", "is_disabled": 0, "lat": 38.90274266666667, "rental_uris": {"ios": "https://dc.lft.to/lastmile_qr_scan", "android": "https://dc.lft.to/lastmile_qr_scan"}, "is_reserved": 0, "fusion_lon": 0.0, "fusion_lat": 0.0, "lon": -77.038405, "name": "088a5d9505fb7e9dc538708bf03ea21e"}, {"bike_id": "8eb26830275fb2e937af37c27203c794", "type": "electric_scooter", "is_disabled": 0, "lat": 38.8925475, "rental_uris": {"ios": "https://dc.lft.to/lastmile_qr_scan", "android": "https://dc.lft.to/lastmile_qr_scan"}, "is_reserved": 0, "fusion_lon": 0.0, "fusion_lat": 0.0, "lon": -77.046757, "name": "8eb26830275fb2e937af37c27203c794"}, {"bike_id": "7e6fe063b989b0c0d3dd05eaf3f6e95e", "type": "electric_scooter", "is_disabled": 0, "lat": 38.92262783333334, "rental_uris": {"ios": "https://dc.lft.to/lastmile_qr_scan", "android": "https://dc.lft.to/lastmile_qr_scan"}, "is_reserved": 0, "fusion_lon": 0.0, "fusion_lat": 0.0, "lon": -77.0339305, "name": "7e6fe063b989b0c0d3dd05eaf3f6e95e"}, {"bike_id": "880f543361920ebdef2432fc555550de", "type": "electric_scooter", "is_disabled": 0, "lat": 38.90040583333333, "rental_uris": {"ios": "https://dc.lft.to/lastmile_qr_scan", "android": "https://dc.lft.to/lastmile_qr_scan"}, "is_reserved": 0, "fusion_lon": 0.0, "fusion_lat": 0.0, "lon": -77.03521333333333, "name": "880f543361920ebdef2432fc555550de"}, {"bike_id": "c52b79846c78e01a2d48d38ff780331e", "type": "electric_scooter", "is_disabled": 0, "lat": 38.901256333333336, "rental_uris": {"ios": "https://dc.lft.to/lastmile_qr_scan", "android": "https://dc.lft.to/lastmile_qr_scan"}, "is_reserved": 0, "fusion_lon": 0.0, "fusion_lat": 0.0, "lon": -77.04056983333334, "name": "c52b79846c78e01a2d48d38ff780331e"}, {"bike_id": "9b4ab2176653420af6805fbfb53be9ab", "type": "electric_scooter", "is_disabled": 0, "lat": 38.900211666666664, "rental_uris": {"ios": "https://dc.lft.to/lastmile_qr_scan", "android": "https://dc.lft.to/lastmile_qr_scan"}, "is_reserved": 0, "fusion_lon": 0.0, "fusion_lat": 0.0, "lon": -77.0220155, "name": "9b4ab2176653420af6805fbfb53be9ab"}, {"bike_id": "6a28dfd830cd3c3060f808e6fe8d8344", "type": "electric_scooter", "is_disabled": 0, "lat": 38.91193233333333, "rental_uris": {"ios": "https://dc.lft.to/lastmile_qr_scan", "android": "https://dc.lft.to/lastmile_qr_scan"}, "is_reserved": 0, "fusion_lon": 0.0, "fusion_lat": 0.0, "lon": -77.02985283333334, "name": "6a28dfd830cd3c3060f808e6fe8d8344"}, {"bike_id": "a9ba830f281f5b1696d65b014c9fe8dc", "type": "electric_scooter", "is_disabled": 0, "lat": 38.92870816666667, "rental_uris": {"ios": "https://dc.lft.to/lastmile_qr_scan", "android": "https://dc.lft.to/lastmile_qr_scan"}, "is_reserved": 0, "fusion_lon": 0.0, "fusion_lat": 0.0, "lon": -77.03438433333334, "name": "a9ba830f281f5b1696d65b014c9fe8dc"}, {"bike_id": "3ced57938d63d2dcf350d237d5dbaada", "type": "electric_scooter", "is_disabled": 0, "lat": 38.906013, "rental_uris": {"ios": "https://dc.lft.to/lastmile_qr_scan", "android": "https://dc.lft.to/lastmile_qr_scan"}, "is_reserved": 0, "fusion_lon": 0.0, "fusion_lat": 0.0, "lon": -77.06296966666666, "name": "3ced57938d63d2dcf350d237d5dbaada"}, {"bike_id": "66e431b5209a82a74bd058cebb1f0d8e", "type": "electric_scooter", "is_disabled": 0, "lat": 38.91414566666667, "rental_uris": {"ios": "https://dc.lft.to/lastmile_qr_scan", "android": "https://dc.lft.to/lastmile_qr_scan"}, "is_reserved": 0, "fusion_lon": 0.0, "fusion_lat": 0.0, "lon": -77.0225065, "name": "66e431b5209a82a74bd058cebb1f0d8e"}, {"bike_id": "bf746e116937c461af74a36baf995aea", "type": "electric_scooter", "is_disabled": 0, "lat": 38.9225495, "rental_uris": {"ios": "https://dc.lft.to/lastmile_qr_scan", "android": "https://dc.lft.to/lastmile_qr_scan"}, "is_reserved": 0, "fusion_lon": 0.0, "fusion_lat": 0.0, "lon": -77.03296666666667, "name": "bf746e116937c461af74a36baf995aea"}, {"bike_id": "949fb9a1224fb9a90258fb772dbae0b6", "type": "electric_scooter", "is_disabled": 0, "lat": 38.92806733333333, "rental_uris": {"ios": "https://dc.lft.to/lastmile_qr_scan", "android": "https://dc.lft.to/lastmile_qr_scan"}, "is_reserved": 0, "fusion_lon": 0.0, "fusion_lat": 0.0, "lon": -77.02693333333333, "name": "949fb9a1224fb9a90258fb772dbae0b6"}, {"bike_id": "92cbd50d1a64833b8f675932c617b71b", "type": "electric_scooter", "is_disabled": 0, "lat": 38.89078033333333, "rental_uris": {"ios": "https://dc.lft.to/lastmile_qr_scan", "android": "https://dc.lft.to/lastmile_qr_scan"}, "is_reserved": 0, "fusion_lon": 0.0, "fusion_lat": 0.0, "lon": -77.015054, "name": "92cbd50d1a64833b8f675932c617b71b"}, {"bike_id": "1813c47fa02922741d215441f464052d", "type": "electric_scooter", "is_disabled": 0, "lat": 38.926064, "rental_uris": {"ios": "https://dc.lft.to/lastmile_qr_scan", "android": "https://dc.lft.to/lastmile_qr_scan"}, "is_reserved": 0, "fusion_lon": 0.0, "fusion_lat": 0.0, "lon": -77.10237833333333, "name": "1813c47fa02922741d215441f464052d"}, {"bike_id": "6fd77578146f852996d084b31f430a3b", "type": "electric_scooter", "is_disabled": 0, "lat": 38.8922445, "rental_uris": {"ios": "https://dc.lft.to/lastmile_qr_scan", "android": "https://dc.lft.to/lastmile_qr_scan"}, "is_reserved": 0, "fusion_lon": 0.0, "fusion_lat": 0.0, "lon": -77.02630883333333, "name": "6fd77578146f852996d084b31f430a3b"}, {"bike_id": "add50a01ad99a24c6c7dd859d2c7e0e5", "type": "electric_scooter", "is_disabled": 0, "lat": 38.8984215, "rental_uris": {"ios": "https://dc.lft.to/lastmile_qr_scan", "android": "https://dc.lft.to/lastmile_qr_scan"}, "is_reserved": 0, "fusion_lon": 0.0, "fusion_lat": 0.0, "lon": -76.94635483333333, "name": "add50a01ad99a24c6c7dd859d2c7e0e5"}, {"bike_id": "a6ad690b9c9ae9a09a5e7b77ef847ed9", "type": "electric_scooter", "is_disabled": 0, "lat": 38.917086833333336, "rental_uris": {"ios": "https://dc.lft.to/lastmile_qr_scan", "android": "https://dc.lft.to/lastmile_qr_scan"}, "is_reserved": 0, "fusion_lon": 0.0, "fusion_lat": 0.0, "lon": -77.02414316666666, "name": "a6ad690b9c9ae9a09a5e7b77ef847ed9"}, {"bike_id": "4ace315ea06ec11efa32772265658794", "type": "electric_scooter", "is_disabled": 0, "lat": 38.87716116666667, "rental_uris": {"ios": "https://dc.lft.to/lastmile_qr_scan", "android": "https://dc.lft.to/lastmile_qr_scan"}, "is_reserved": 0, "fusion_lon": 0.0, "fusion_lat": 0.0, "lon": -77.0176765, "name": "4ace315ea06ec11efa32772265658794"}, {"bike_id": "24f9fb38b6b6e0ba515c8fc9fcfc945e", "type": "electric_scooter", "is_disabled": 0, "lat": 38.91518683333334, "rental_uris": {"ios": "https://dc.lft.to/lastmile_qr_scan", "android": "https://dc.lft.to/lastmile_qr_scan"}, "is_reserved": 0, "fusion_lon": 0.0, "fusion_lat": 0.0, "lon": -77.04175116666667, "name": "24f9fb38b6b6e0ba515c8fc9fcfc945e"}, {"bike_id": "1632eea37f1b2134f18f86db1059c2aa", "type": "electric_scooter", "is_disabled": 0, "lat": 38.917540333333335, "rental_uris": {"ios": "https://dc.lft.to/lastmile_qr_scan", "android": "https://dc.lft.to/lastmile_qr_scan"}, "is_reserved": 0, "fusion_lon": 0.0, "fusion_lat": 0.0, "lon": -77.0366185, "name": "1632eea37f1b2134f18f86db1059c2aa"}, {"bike_id": "7166895648aada67326364c115c3e8cf", "type": "electric_scooter", "is_disabled": 0, "lat": 38.904000333333336, "rental_uris": {"ios": "https://dc.lft.to/lastmile_qr_scan", "android": "https://dc.lft.to/lastmile_qr_scan"}, "is_reserved": 0, "fusion_lon": 0.0, "fusion_lat": 0.0, "lon": -77.06513033333333, "name": "7166895648aada67326364c115c3e8cf"}, {"bike_id": "76ab5526acaba560b32c7fb30bd7cd30", "type": "electric_scooter", "is_disabled": 0, "lat": 38.9429045, "rental_uris": {"ios": "https://dc.lft.to/lastmile_qr_scan", "android": "https://dc.lft.to/lastmile_qr_scan"}, "is_reserved": 0, "fusion_lon": 0.0, "fusion_lat": 0.0, "lon": -77.0048505, "name": "76ab5526acaba560b32c7fb30bd7cd30"}, {"bike_id": "ff10ea21701ae40dc5fcd760106bf631", "type": "electric_scooter", "is_disabled": 0, "lat": 38.90856083333333, "rental_uris": {"ios": "https://dc.lft.to/lastmile_qr_scan", "android": "https://dc.lft.to/lastmile_qr_scan"}, "is_reserved": 0, "fusion_lon": 0.0, "fusion_lat": 0.0, "lon": -77.026525, "name": "ff10ea21701ae40dc5fcd760106bf631"}, {"bike_id": "51cd791c26b82e337d1fd44b0f6fc286", "type": "electric_scooter", "is_disabled": 0, "lat": 38.910126, "rental_uris": {"ios": "https://dc.lft.to/lastmile_qr_scan", "android": "https://dc.lft.to/lastmile_qr_scan"}, "is_reserved": 0, "fusion_lon": 0.0, "fusion_lat": 0.0, "lon": -77.0526365, "name": "51cd791c26b82e337d1fd44b0f6fc286"}, {"bike_id": "a635e955584ba9c87854f91b0293bbf3", "type": "electric_scooter", "is_disabled": 0, "lat": 38.914850333333334, "rental_uris": {"ios": "https://dc.lft.to/lastmile_qr_scan", "android": "https://dc.lft.to/lastmile_qr_scan"}, "is_reserved": 0, "fusion_lon": 0.0, "fusion_lat": 0.0, "lon": -77.0184875, "name": "a635e955584ba9c87854f91b0293bbf3"}, {"bike_id": "a2f15996eaca5369e450813041d6b462", "type": "electric_scooter", "is_disabled": 0, "lat": 38.8932425, "rental_uris": {"ios": "https://dc.lft.to/lastmile_qr_scan", "android": "https://dc.lft.to/lastmile_qr_scan"}, "is_reserved": 0, "fusion_lon": 0.0, "fusion_lat": 0.0, "lon": -77.04877, "name": "a2f15996eaca5369e450813041d6b462"}, {"bike_id": "5958cede08670c495ecf005aa6bf25eb", "type": "electric_scooter", "is_disabled": 0, "lat": 38.87349316666667, "rental_uris": {"ios": "https://dc.lft.to/lastmile_qr_scan", "android": "https://dc.lft.to/lastmile_qr_scan"}, "is_reserved": 0, "fusion_lon": 0.0, "fusion_lat": 0.0, "lon": -77.00055066666667, "name": "5958cede08670c495ecf005aa6bf25eb"}, {"bike_id": "832dac0ced5bcf4cf65efd5b604a7b0c", "type": "electric_scooter", "is_disabled": 0, "lat": 38.93193466666666, "rental_uris": {"ios": "https://dc.lft.to/lastmile_qr_scan", "android": "https://dc.lft.to/lastmile_qr_scan"}, "is_reserved": 0, "fusion_lon": 0.0, "fusion_lat": 0.0, "lon": -77.0201975, "name": "832dac0ced5bcf4cf65efd5b604a7b0c"}, {"bike_id": "3151853f7019b92c483833123f6b4c1e", "type": "electric_scooter", "is_disabled": 0, "lat": 38.8887785, "rental_uris": {"ios": "https://dc.lft.to/lastmile_qr_scan", "android": "https://dc.lft.to/lastmile_qr_scan"}, "is_reserved": 0, "fusion_lon": 0.0, "fusion_lat": 0.0, "lon": -76.99031833333333, "name": "3151853f7019b92c483833123f6b4c1e"}, {"bike_id": "3e0f80bcb4300f010985651e17b6de25", "type": "electric_scooter", "is_disabled": 0, "lat": 38.89753416666667, "rental_uris": {"ios": "https://dc.lft.to/lastmile_qr_scan", "android": "https://dc.lft.to/lastmile_qr_scan"}, "is_reserved": 0, "fusion_lon": 0.0, "fusion_lat": 0.0, "lon": -77.02936633333333, "name": "3e0f80bcb4300f010985651e17b6de25"}, {"bike_id": "dc5e2ae40a0314ecfb5f59dd9e0d9e51", "type": "electric_scooter", "is_disabled": 0, "lat": 38.90958916666666, "rental_uris": {"ios": "https://dc.lft.to/lastmile_qr_scan", "android": "https://dc.lft.to/lastmile_qr_scan"}, "is_reserved": 0, "fusion_lon": 0.0, "fusion_lat": 0.0, "lon": -77.02298966666666, "name": "dc5e2ae40a0314ecfb5f59dd9e0d9e51"}, {"bike_id": "fe7ccfd10dc47ba2bc8b5b2eb54eae76", "type": "electric_scooter", "is_disabled": 0, "lat": 38.892312833333335, "rental_uris": {"ios": "https://dc.lft.to/lastmile_qr_scan", "android": "https://dc.lft.to/lastmile_qr_scan"}, "is_reserved": 0, "fusion_lon": 0.0, "fusion_lat": 0.0, "lon": -77.04995733333334, "name": "fe7ccfd10dc47ba2bc8b5b2eb54eae76"}, {"bike_id": "19e1e010e5959e82e816054fe2e04623", "type": "electric_scooter", "is_disabled": 0, "lat": 38.89731866666666, "rental_uris": {"ios": "https://dc.lft.to/lastmile_qr_scan", "android": "https://dc.lft.to/lastmile_qr_scan"}, "is_reserved": 0, "fusion_lon": 0.0, "fusion_lat": 0.0, "lon": -77.00370416666667, "name": "19e1e010e5959e82e816054fe2e04623"}, {"bike_id": "be78f4c46a4a821d5e112bc01b9ef462", "type": "electric_scooter", "is_disabled": 0, "lat": 38.843148666666664, "rental_uris": {"ios": "https://dc.lft.to/lastmile_qr_scan", "android": "https://dc.lft.to/lastmile_qr_scan"}, "is_reserved": 0, "fusion_lon": 0.0, "fusion_lat": 0.0, "lon": -76.99926183333334, "name": "be78f4c46a4a821d5e112bc01b9ef462"}, {"bike_id": "9fbcbc0f5ba085475ce322d640dcca86", "type": "electric_scooter", "is_disabled": 0, "lat": 38.9050485, "rental_uris": {"ios": "https://dc.lft.to/lastmile_qr_scan", "android": "https://dc.lft.to/lastmile_qr_scan"}, "is_reserved": 0, "fusion_lon": 0.0, "fusion_lat": 0.0, "lon": -77.06008433333334, "name": "9fbcbc0f5ba085475ce322d640dcca86"}, {"bike_id": "f0d3d017c79e87cb76974376e4c7620b", "type": "electric_scooter", "is_disabled": 0, "lat": 38.9197655, "rental_uris": {"ios": "https://dc.lft.to/lastmile_qr_scan", "android": "https://dc.lft.to/lastmile_qr_scan"}, "is_reserved": 0, "fusion_lon": 0.0, "fusion_lat": 0.0, "lon": -77.02519566666666, "name": "f0d3d017c79e87cb76974376e4c7620b"}, {"bike_id": "c19d7cfbbed7c4c32c36fe23bd98c4f3", "type": "electric_scooter", "is_disabled": 0, "lat": 38.919960333333336, "rental_uris": {"ios": "https://dc.lft.to/lastmile_qr_scan", "android": "https://dc.lft.to/lastmile_qr_scan"}, "is_reserved": 0, "fusion_lon": 0.0, "fusion_lat": 0.0, "lon": -77.02397183333333, "name": "c19d7cfbbed7c4c32c36fe23bd98c4f3"}, {"bike_id": "8bc4dd4fc1b8a9f656bf22662c28be81", "type": "electric_bike", "is_disabled": 0, "lat": 38.9909015, "rental_uris": {"ios": "https://dc.lft.to/lastmile_qr_scan", "android": "https://dc.lft.to/lastmile_qr_scan"}, "is_reserved": 0, "fusion_lon": 0.0, "fusion_lat": 0.0, "lon": -76.8749555, "name": "8bc4dd4fc1b8a9f656bf22662c28be81"}, {"bike_id": "10aff59c1d20c24474acaa50b5cbc936", "type": "electric_scooter", "is_disabled": 0, "lat": 38.89999816666667, "rental_uris": {"ios": "https://dc.lft.to/lastmile_qr_scan", "android": "https://dc.lft.to/lastmile_qr_scan"}, "is_reserved": 0, "fusion_lon": 0.0, "fusion_lat": 0.0, "lon": -76.98158583333333, "name": "10aff59c1d20c24474acaa50b5cbc936"}, {"bike_id": "917ff20ec860ce3eb904cdc67b53bd31", "type": "electric_scooter", "is_disabled": 0, "lat": 38.925344333333335, "rental_uris": {"ios": "https://dc.lft.to/lastmile_qr_scan", "android": "https://dc.lft.to/lastmile_qr_scan"}, "is_reserved": 0, "fusion_lon": 0.0, "fusion_lat": 0.0, "lon": -77.0772415, "name": "917ff20ec860ce3eb904cdc67b53bd31"}, {"bike_id": "8d87680c9ecfdab670a11ac00bcf54c3", "type": "electric_scooter", "is_disabled": 0, "lat": 38.917145833333336, "rental_uris": {"ios": "https://dc.lft.to/lastmile_qr_scan", "android": "https://dc.lft.to/lastmile_qr_scan"}, "is_reserved": 0, "fusion_lon": 0.0, "fusion_lat": 0.0, "lon": -77.0311485, "name": "8d87680c9ecfdab670a11ac00bcf54c3"}, {"bike_id": "c4352cac156e14324e78288f4455f31e", "type": "electric_scooter", "is_disabled": 0, "lat": 38.927171666666666, "rental_uris": {"ios": "https://dc.lft.to/lastmile_qr_scan", "android": "https://dc.lft.to/lastmile_qr_scan"}, "is_reserved": 0, "fusion_lon": 0.0, "fusion_lat": 0.0, "lon": -77.02082866666667, "name": "c4352cac156e14324e78288f4455f31e"}, {"bike_id": "35038800e7c86414e8f755494df0bf6b", "type": "electric_scooter", "is_disabled": 0, "lat": 38.895931, "rental_uris": {"ios": "https://dc.lft.to/lastmile_qr_scan", "android": "https://dc.lft.to/lastmile_qr_scan"}, "is_reserved": 0, "fusion_lon": 0.0, "fusion_lat": 0.0, "lon": -77.00504733333334, "name": "35038800e7c86414e8f755494df0bf6b"}, {"bike_id": "9febd46ef861a7cb03084a486c6352ad", "type": "electric_scooter", "is_disabled": 0, "lat": 38.93786466666667, "rental_uris": {"ios": "https://dc.lft.to/lastmile_qr_scan", "android": "https://dc.lft.to/lastmile_qr_scan"}, "is_reserved": 0, "fusion_lon": 0.0, "fusion_lat": 0.0, "lon": -77.032945, "name": "9febd46ef861a7cb03084a486c6352ad"}, {"bike_id": "bd8a78d40e47f11e7d8c32b7f5fc2680", "type": "electric_scooter", "is_disabled": 0, "lat": 38.90017683333333, "rental_uris": {"ios": "https://dc.lft.to/lastmile_qr_scan", "android": "https://dc.lft.to/lastmile_qr_scan"}, "is_reserved": 0, "fusion_lon": 0.0, "fusion_lat": 0.0, "lon": -77.0450815, "name": "bd8a78d40e47f11e7d8c32b7f5fc2680"}, {"bike_id": "13cfd40e21d9c8731253ce7de603b025", "type": "electric_scooter", "is_disabled": 0, "lat": 38.903972833333334, "rental_uris": {"ios": "https://dc.lft.to/lastmile_qr_scan", "android": "https://dc.lft.to/lastmile_qr_scan"}, "is_reserved": 0, "fusion_lon": 0.0, "fusion_lat": 0.0, "lon": -77.0187125, "name": "13cfd40e21d9c8731253ce7de603b025"}, {"bike_id": "826d667496e72be036425c8f51345848", "type": "electric_scooter", "is_disabled": 0, "lat": 38.905097833333336, "rental_uris": {"ios": "https://dc.lft.to/lastmile_qr_scan", "android": "https://dc.lft.to/lastmile_qr_scan"}, "is_reserved": 0, "fusion_lon": 0.0, "fusion_lat": 0.0, "lon": -77.0620355, "name": "826d667496e72be036425c8f51345848"}, {"bike_id": "5996634b1fe78d93a8e2cc15588467c4", "type": "electric_scooter", "is_disabled": 0, "lat": 38.89873266666667, "rental_uris": {"ios": "https://dc.lft.to/lastmile_qr_scan", "android": "https://dc.lft.to/lastmile_qr_scan"}, "is_reserved": 0, "fusion_lon": 0.0, "fusion_lat": 0.0, "lon": -76.93183633333334, "name": "5996634b1fe78d93a8e2cc15588467c4"}, {"bike_id": "30a0da269e5ed4b1aaf28bb5a6a18e8d", "type": "electric_scooter", "is_disabled": 0, "lat": 38.937269, "rental_uris": {"ios": "https://dc.lft.to/lastmile_qr_scan", "android": "https://dc.lft.to/lastmile_qr_scan"}, "is_reserved": 0, "fusion_lon": 0.0, "fusion_lat": 0.0, "lon": -77.03294433333333, "name": "30a0da269e5ed4b1aaf28bb5a6a18e8d"}, {"bike_id": "a9a5903476e1385b827ecd774833ebc8", "type": "electric_scooter", "is_disabled": 0, "lat": 38.9360735, "rental_uris": {"ios": "https://dc.lft.to/lastmile_qr_scan", "android": "https://dc.lft.to/lastmile_qr_scan"}, "is_reserved": 0, "fusion_lon": 0.0, "fusion_lat": 0.0, "lon": -77.03659083333334, "name": "a9a5903476e1385b827ecd774833ebc8"}, {"bike_id": "e9fb36e97a472d27d3059374f42bb9b6", "type": "electric_scooter", "is_disabled": 0, "lat": 38.88410916666667, "rental_uris": {"ios": "https://dc.lft.to/lastmile_qr_scan", "android": "https://dc.lft.to/lastmile_qr_scan"}, "is_reserved": 0, "fusion_lon": 0.0, "fusion_lat": 0.0, "lon": -77.02621066666667, "name": "e9fb36e97a472d27d3059374f42bb9b6"}, {"bike_id": "4de439fca57c157124c982ce34107f8d", "type": "electric_scooter", "is_disabled": 0, "lat": 38.938493666666666, "rental_uris": {"ios": "https://dc.lft.to/lastmile_qr_scan", "android": "https://dc.lft.to/lastmile_qr_scan"}, "is_reserved": 0, "fusion_lon": 0.0, "fusion_lat": 0.0, "lon": -77.03263633333333, "name": "4de439fca57c157124c982ce34107f8d"}, {"bike_id": "1656ad3f2549e93fa5979f908126bb89", "type": "electric_scooter", "is_disabled": 0, "lat": 38.901514166666665, "rental_uris": {"ios": "https://dc.lft.to/lastmile_qr_scan", "android": "https://dc.lft.to/lastmile_qr_scan"}, "is_reserved": 0, "fusion_lon": 0.0, "fusion_lat": 0.0, "lon": -77.00853133333334, "name": "1656ad3f2549e93fa5979f908126bb89"}, {"bike_id": "e563c69f8d7aa536d34a62d4e2afe9af", "type": "electric_scooter", "is_disabled": 0, "lat": 38.90685633333333, "rental_uris": {"ios": "https://dc.lft.to/lastmile_qr_scan", "android": "https://dc.lft.to/lastmile_qr_scan"}, "is_reserved": 0, "fusion_lon": 0.0, "fusion_lat": 0.0, "lon": -77.026915, "name": "e563c69f8d7aa536d34a62d4e2afe9af"}, {"bike_id": "1934d0caa33b57cd30ef119a72eee747", "type": "electric_bike", "is_disabled": 0, "lat": 38.86190633333333, "rental_uris": {"ios": "https://dc.lft.to/lastmile_qr_scan", "android": "https://dc.lft.to/lastmile_qr_scan"}, "is_reserved": 0, "fusion_lon": 0.0, "fusion_lat": 0.0, "lon": -76.94802116666666, "name": "1934d0caa33b57cd30ef119a72eee747"}, {"bike_id": "5038778be5695ac4f7a002cba34cad6b", "type": "electric_scooter", "is_disabled": 0, "lat": 38.92263666666667, "rental_uris": {"ios": "https://dc.lft.to/lastmile_qr_scan", "android": "https://dc.lft.to/lastmile_qr_scan"}, "is_reserved": 0, "fusion_lon": 0.0, "fusion_lat": 0.0, "lon": -77.00049433333334, "name": "5038778be5695ac4f7a002cba34cad6b"}, {"bike_id": "aa3e4e8d325c88536b9dc3169b7cd99b", "type": "electric_scooter", "is_disabled": 0, "lat": 38.911517, "rental_uris": {"ios": "https://dc.lft.to/lastmile_qr_scan", "android": "https://dc.lft.to/lastmile_qr_scan"}, "is_reserved": 0, "fusion_lon": 0.0, "fusion_lat": 0.0, "lon": -77.03837, "name": "aa3e4e8d325c88536b9dc3169b7cd99b"}, {"bike_id": "7be6776a6e4266ee8bd4bcaad00b86f6", "type": "electric_bike", "is_disabled": 0, "lat": 38.8830825, "rental_uris": {"ios": "https://dc.lft.to/lastmile_qr_scan", "android": "https://dc.lft.to/lastmile_qr_scan"}, "is_reserved": 0, "fusion_lon": 0.0, "fusion_lat": 0.0, "lon": -76.9961955, "name": "7be6776a6e4266ee8bd4bcaad00b86f6"}, {"bike_id": "e314ab9c97715945fef3cf111f49852c", "type": "electric_scooter", "is_disabled": 0, "lat": 38.92401983333333, "rental_uris": {"ios": "https://dc.lft.to/lastmile_qr_scan", "android": "https://dc.lft.to/lastmile_qr_scan"}, "is_reserved": 0, "fusion_lon": 0.0, "fusion_lat": 0.0, "lon": -77.0226055, "name": "e314ab9c97715945fef3cf111f49852c"}, {"bike_id": "d1bcfb91c9a4a02527d345cd4b3eb872", "type": "electric_scooter", "is_disabled": 0, "lat": 38.9140985, "rental_uris": {"ios": "https://dc.lft.to/lastmile_qr_scan", "android": "https://dc.lft.to/lastmile_qr_scan"}, "is_reserved": 0, "fusion_lon": 0.0, "fusion_lat": 0.0, "lon": -77.034511, "name": "d1bcfb91c9a4a02527d345cd4b3eb872"}, {"bike_id": "0786e52c88500fa55088759af94e62d4", "type": "electric_scooter", "is_disabled": 0, "lat": 38.865035666666664, "rental_uris": {"ios": "https://dc.lft.to/lastmile_qr_scan", "android": "https://dc.lft.to/lastmile_qr_scan"}, "is_reserved": 0, "fusion_lon": 0.0, "fusion_lat": 0.0, "lon": -76.99004416666666, "name": "0786e52c88500fa55088759af94e62d4"}, {"bike_id": "740fa2da08f1dfb814d81c4713e7561e", "type": "electric_scooter", "is_disabled": 0, "lat": 38.91877366666667, "rental_uris": {"ios": "https://dc.lft.to/lastmile_qr_scan", "android": "https://dc.lft.to/lastmile_qr_scan"}, "is_reserved": 0, "fusion_lon": 0.0, "fusion_lat": 0.0, "lon": -77.03477233333334, "name": "740fa2da08f1dfb814d81c4713e7561e"}, {"bike_id": "7de28e48aba0168acc2d9494fbd39eea", "type": "electric_scooter", "is_disabled": 0, "lat": 38.923419833333334, "rental_uris": {"ios": "https://dc.lft.to/lastmile_qr_scan", "android": "https://dc.lft.to/lastmile_qr_scan"}, "is_reserved": 0, "fusion_lon": 0.0, "fusion_lat": 0.0, "lon": -77.035368, "name": "7de28e48aba0168acc2d9494fbd39eea"}, {"bike_id": "9542c9b97d6236f6ed9db0dc13090d84", "type": "electric_bike", "is_disabled": 0, "lat": 38.807602333333335, "rental_uris": {"ios": "https://dc.lft.to/lastmile_qr_scan", "android": "https://dc.lft.to/lastmile_qr_scan"}, "is_reserved": 0, "fusion_lon": 0.0, "fusion_lat": 0.0, "lon": -77.0947075, "name": "9542c9b97d6236f6ed9db0dc13090d84"}, {"bike_id": "0104da66c688247c90708978f3c475cb", "type": "electric_scooter", "is_disabled": 0, "lat": 38.923174833333334, "rental_uris": {"ios": "https://dc.lft.to/lastmile_qr_scan", "android": "https://dc.lft.to/lastmile_qr_scan"}, "is_reserved": 0, "fusion_lon": 0.0, "fusion_lat": 0.0, "lon": -77.0404025, "name": "0104da66c688247c90708978f3c475cb"}, {"bike_id": "a65e947fe3a9d4d6f7ac9954bddced6f", "type": "electric_bike", "is_disabled": 0, "lat": 38.99341166666667, "rental_uris": {"ios": "https://dc.lft.to/lastmile_qr_scan", "android": "https://dc.lft.to/lastmile_qr_scan"}, "is_reserved": 0, "fusion_lon": 0.0, "fusion_lat": 0.0, "lon": -77.11572066666666, "name": "a65e947fe3a9d4d6f7ac9954bddced6f"}, {"bike_id": "f882c3be5a2bc0b0f4b4219730910f75", "type": "electric_scooter", "is_disabled": 0, "lat": 38.92081233333333, "rental_uris": {"ios": "https://dc.lft.to/lastmile_qr_scan", "android": "https://dc.lft.to/lastmile_qr_scan"}, "is_reserved": 0, "fusion_lon": 0.0, "fusion_lat": 0.0, "lon": -77.02406516666667, "name": "f882c3be5a2bc0b0f4b4219730910f75"}, {"bike_id": "6dd9b29bfb278438b5722be5d20ea4b4", "type": "electric_scooter", "is_disabled": 0, "lat": 38.916099333333335, "rental_uris": {"ios": "https://dc.lft.to/lastmile_qr_scan", "android": "https://dc.lft.to/lastmile_qr_scan"}, "is_reserved": 0, "fusion_lon": 0.0, "fusion_lat": 0.0, "lon": -77.03393083333333, "name": "6dd9b29bfb278438b5722be5d20ea4b4"}, {"bike_id": "910083972ea5b72ee4c9b5f8a401d881", "type": "electric_scooter", "is_disabled": 0, "lat": 38.877944166666666, "rental_uris": {"ios": "https://dc.lft.to/lastmile_qr_scan", "android": "https://dc.lft.to/lastmile_qr_scan"}, "is_reserved": 0, "fusion_lon": 0.0, "fusion_lat": 0.0, "lon": -77.01745, "name": "910083972ea5b72ee4c9b5f8a401d881"}, {"bike_id": "c9b58e9215c87fcb46bf07b006d269be", "type": "electric_scooter", "is_disabled": 0, "lat": 38.9239365, "rental_uris": {"ios": "https://dc.lft.to/lastmile_qr_scan", "android": "https://dc.lft.to/lastmile_qr_scan"}, "is_reserved": 0, "fusion_lon": 0.0, "fusion_lat": 0.0, "lon": -77.04472016666666, "name": "c9b58e9215c87fcb46bf07b006d269be"}, {"bike_id": "a2fd968ade5732f936f75d474cd302f0", "type": "electric_scooter", "is_disabled": 0, "lat": 38.884834, "rental_uris": {"ios": "https://dc.lft.to/lastmile_qr_scan", "android": "https://dc.lft.to/lastmile_qr_scan"}, "is_reserved": 0, "fusion_lon": 0.0, "fusion_lat": 0.0, "lon": -77.01508066666666, "name": "a2fd968ade5732f936f75d474cd302f0"}, {"bike_id": "cf61ec18e77a992c6a9b4d74e9432ea2", "type": "electric_scooter", "is_disabled": 0, "lat": 38.91708833333333, "rental_uris": {"ios": "https://dc.lft.to/lastmile_qr_scan", "android": "https://dc.lft.to/lastmile_qr_scan"}, "is_reserved": 0, "fusion_lon": 0.0, "fusion_lat": 0.0, "lon": -77.04126733333334, "name": "cf61ec18e77a992c6a9b4d74e9432ea2"}, {"bike_id": "4c81429908632083cdfcad2ff5d385d0", "type": "electric_scooter", "is_disabled": 0, "lat": 38.91665883333334, "rental_uris": {"ios": "https://dc.lft.to/lastmile_qr_scan", "android": "https://dc.lft.to/lastmile_qr_scan"}, "is_reserved": 0, "fusion_lon": 0.0, "fusion_lat": 0.0, "lon": -77.03858883333334, "name": "4c81429908632083cdfcad2ff5d385d0"}, {"bike_id": "1a28564ce25bc5d9826e3c4e8dcb3dbb", "type": "electric_scooter", "is_disabled": 0, "lat": 38.95686933333333, "rental_uris": {"ios": "https://dc.lft.to/lastmile_qr_scan", "android": "https://dc.lft.to/lastmile_qr_scan"}, "is_reserved": 0, "fusion_lon": 0.0, "fusion_lat": 0.0, "lon": -77.023987, "name": "1a28564ce25bc5d9826e3c4e8dcb3dbb"}, {"bike_id": "7a3cb55bc4170b4e0844bd89a1e626c6", "type": "electric_scooter", "is_disabled": 0, "lat": 38.9072975, "rental_uris": {"ios": "https://dc.lft.to/lastmile_qr_scan", "android": "https://dc.lft.to/lastmile_qr_scan"}, "is_reserved": 0, "fusion_lon": 0.0, "fusion_lat": 0.0, "lon": -77.05324316666666, "name": "7a3cb55bc4170b4e0844bd89a1e626c6"}, {"bike_id": "9aecefd0ce613d429f79007c7d77a98e", "type": "electric_scooter", "is_disabled": 0, "lat": 38.92686416666667, "rental_uris": {"ios": "https://dc.lft.to/lastmile_qr_scan", "android": "https://dc.lft.to/lastmile_qr_scan"}, "is_reserved": 0, "fusion_lon": 0.0, "fusion_lat": 0.0, "lon": -77.0215915, "name": "9aecefd0ce613d429f79007c7d77a98e"}, {"bike_id": "0420b122d177da532bed8915356882cf", "type": "electric_scooter", "is_disabled": 0, "lat": 38.920637666666664, "rental_uris": {"ios": "https://dc.lft.to/lastmile_qr_scan", "android": "https://dc.lft.to/lastmile_qr_scan"}, "is_reserved": 0, "fusion_lon": 0.0, "fusion_lat": 0.0, "lon": -77.0346055, "name": "0420b122d177da532bed8915356882cf"}, {"bike_id": "1489ea541b309365826ca04963004928", "type": "electric_scooter", "is_disabled": 0, "lat": 38.9110885, "rental_uris": {"ios": "https://dc.lft.to/lastmile_qr_scan", "android": "https://dc.lft.to/lastmile_qr_scan"}, "is_reserved": 0, "fusion_lon": 0.0, "fusion_lat": 0.0, "lon": -77.04480933333333, "name": "1489ea541b309365826ca04963004928"}, {"bike_id": "a728fb2a9cccc99d21e57fd8b925963a", "type": "electric_scooter", "is_disabled": 0, "lat": 38.91578833333333, "rental_uris": {"ios": "https://dc.lft.to/lastmile_qr_scan", "android": "https://dc.lft.to/lastmile_qr_scan"}, "is_reserved": 0, "fusion_lon": 0.0, "fusion_lat": 0.0, "lon": -77.03204216666667, "name": "a728fb2a9cccc99d21e57fd8b925963a"}, {"bike_id": "93fdedbad44aa46a7464d628689d31e8", "type": "electric_scooter", "is_disabled": 0, "lat": 38.89179133333333, "rental_uris": {"ios": "https://dc.lft.to/lastmile_qr_scan", "android": "https://dc.lft.to/lastmile_qr_scan"}, "is_reserved": 0, "fusion_lon": 0.0, "fusion_lat": 0.0, "lon": -77.02204933333333, "name": "93fdedbad44aa46a7464d628689d31e8"}, {"bike_id": "afbc9656a2831f8db9df58a23b6b5a98", "type": "electric_scooter", "is_disabled": 0, "lat": 38.916614833333334, "rental_uris": {"ios": "https://dc.lft.to/lastmile_qr_scan", "android": "https://dc.lft.to/lastmile_qr_scan"}, "is_reserved": 0, "fusion_lon": 0.0, "fusion_lat": 0.0, "lon": -77.0269765, "name": "afbc9656a2831f8db9df58a23b6b5a98"}, {"bike_id": "b95714bc85ee9eb64196b221902907f5", "type": "electric_scooter", "is_disabled": 0, "lat": 38.907203, "rental_uris": {"ios": "https://dc.lft.to/lastmile_qr_scan", "android": "https://dc.lft.to/lastmile_qr_scan"}, "is_reserved": 0, "fusion_lon": 0.0, "fusion_lat": 0.0, "lon": -77.014645, "name": "b95714bc85ee9eb64196b221902907f5"}, {"bike_id": "58b36abd0405c2ef73caaa91132377e1", "type": "electric_scooter", "is_disabled": 0, "lat": 38.900392333333336, "rental_uris": {"ios": "https://dc.lft.to/lastmile_qr_scan", "android": "https://dc.lft.to/lastmile_qr_scan"}, "is_reserved": 0, "fusion_lon": 0.0, "fusion_lat": 0.0, "lon": -77.00196066666666, "name": "58b36abd0405c2ef73caaa91132377e1"}, {"bike_id": "2f1b2993034767e548c9bfeff23d8720", "type": "electric_scooter", "is_disabled": 0, "lat": 38.8843105, "rental_uris": {"ios": "https://dc.lft.to/lastmile_qr_scan", "android": "https://dc.lft.to/lastmile_qr_scan"}, "is_reserved": 0, "fusion_lon": 0.0, "fusion_lat": 0.0, "lon": -76.9575725, "name": "2f1b2993034767e548c9bfeff23d8720"}, {"bike_id": "68e3999aba0c224ae090319ad4ad3865", "type": "electric_scooter", "is_disabled": 0, "lat": 38.903142, "rental_uris": {"ios": "https://dc.lft.to/lastmile_qr_scan", "android": "https://dc.lft.to/lastmile_qr_scan"}, "is_reserved": 0, "fusion_lon": 0.0, "fusion_lat": 0.0, "lon": -77.02878583333333, "name": "68e3999aba0c224ae090319ad4ad3865"}, {"bike_id": "84a18021372a41b41f00091d172fdfb2", "type": "electric_scooter", "is_disabled": 0, "lat": 38.914175, "rental_uris": {"ios": "https://dc.lft.to/lastmile_qr_scan", "android": "https://dc.lft.to/lastmile_qr_scan"}, "is_reserved": 0, "fusion_lon": 0.0, "fusion_lat": 0.0, "lon": -77.02286383333333, "name": "84a18021372a41b41f00091d172fdfb2"}, {"bike_id": "a25e0100957f866a7ecdc9201d53704c", "type": "electric_scooter", "is_disabled": 0, "lat": 38.942011666666666, "rental_uris": {"ios": "https://dc.lft.to/lastmile_qr_scan", "android": "https://dc.lft.to/lastmile_qr_scan"}, "is_reserved": 0, "fusion_lon": 0.0, "fusion_lat": 0.0, "lon": -77.02351683333333, "name": "a25e0100957f866a7ecdc9201d53704c"}, {"bike_id": "d3548e2d6d4ddee9ac9ca64441b29d6b", "type": "electric_scooter", "is_disabled": 0, "lat": 38.9266715, "rental_uris": {"ios": "https://dc.lft.to/lastmile_qr_scan", "android": "https://dc.lft.to/lastmile_qr_scan"}, "is_reserved": 0, "fusion_lon": 0.0, "fusion_lat": 0.0, "lon": -77.01475066666667, "name": "d3548e2d6d4ddee9ac9ca64441b29d6b"}, {"bike_id": "86e0e2d2980f00930f13d8357eb7761e", "type": "electric_scooter", "is_disabled": 0, "lat": 38.93532366666667, "rental_uris": {"ios": "https://dc.lft.to/lastmile_qr_scan", "android": "https://dc.lft.to/lastmile_qr_scan"}, "is_reserved": 0, "fusion_lon": 0.0, "fusion_lat": 0.0, "lon": -77.023548, "name": "86e0e2d2980f00930f13d8357eb7761e"}, {"bike_id": "5d299acd915814782800f1cb2917a3ad", "type": "electric_scooter", "is_disabled": 0, "lat": 38.93463233333333, "rental_uris": {"ios": "https://dc.lft.to/lastmile_qr_scan", "android": "https://dc.lft.to/lastmile_qr_scan"}, "is_reserved": 0, "fusion_lon": 0.0, "fusion_lat": 0.0, "lon": -77.02929766666666, "name": "5d299acd915814782800f1cb2917a3ad"}, {"bike_id": "345ab0c473ad7e57f90d4b2a091a6934", "type": "electric_scooter", "is_disabled": 0, "lat": 38.927585666666666, "rental_uris": {"ios": "https://dc.lft.to/lastmile_qr_scan", "android": "https://dc.lft.to/lastmile_qr_scan"}, "is_reserved": 0, "fusion_lon": 0.0, "fusion_lat": 0.0, "lon": -77.0243005, "name": "345ab0c473ad7e57f90d4b2a091a6934"}, {"bike_id": "c91cb06c0b00983eb6d4d152e89f9a0e", "type": "electric_scooter", "is_disabled": 0, "lat": 38.9154645, "rental_uris": {"ios": "https://dc.lft.to/lastmile_qr_scan", "android": "https://dc.lft.to/lastmile_qr_scan"}, "is_reserved": 0, "fusion_lon": 0.0, "fusion_lat": 0.0, "lon": -77.01272283333333, "name": "c91cb06c0b00983eb6d4d152e89f9a0e"}, {"bike_id": "e0f85d7ab07ee29f5575142c5d76f977", "type": "electric_scooter", "is_disabled": 0, "lat": 38.9361815, "rental_uris": {"ios": "https://dc.lft.to/lastmile_qr_scan", "android": "https://dc.lft.to/lastmile_qr_scan"}, "is_reserved": 0, "fusion_lon": 0.0, "fusion_lat": 0.0, "lon": -77.067587, "name": "e0f85d7ab07ee29f5575142c5d76f977"}, {"bike_id": "6690311a811e4489265d3b778cbfa1f7", "type": "electric_scooter", "is_disabled": 0, "lat": 38.936834833333336, "rental_uris": {"ios": "https://dc.lft.to/lastmile_qr_scan", "android": "https://dc.lft.to/lastmile_qr_scan"}, "is_reserved": 0, "fusion_lon": 0.0, "fusion_lat": 0.0, "lon": -77.01941833333333, "name": "6690311a811e4489265d3b778cbfa1f7"}, {"bike_id": "afd67bb7e88198ebca5b7c8f8e3b5388", "type": "electric_scooter", "is_disabled": 0, "lat": 38.936083333333336, "rental_uris": {"ios": "https://dc.lft.to/lastmile_qr_scan", "android": "https://dc.lft.to/lastmile_qr_scan"}, "is_reserved": 0, "fusion_lon": 0.0, "fusion_lat": 0.0, "lon": -77.03805983333334, "name": "afd67bb7e88198ebca5b7c8f8e3b5388"}, {"bike_id": "c993aaa48eda9a5dd6487b4ad07c9945", "type": "electric_scooter", "is_disabled": 0, "lat": 38.9161305, "rental_uris": {"ios": "https://dc.lft.to/lastmile_qr_scan", "android": "https://dc.lft.to/lastmile_qr_scan"}, "is_reserved": 0, "fusion_lon": 0.0, "fusion_lat": 0.0, "lon": -77.02309283333334, "name": "c993aaa48eda9a5dd6487b4ad07c9945"}, {"bike_id": "f1e21df0e5c4145553a161f2d3f99226", "type": "electric_scooter", "is_disabled": 0, "lat": 38.924168, "rental_uris": {"ios": "https://dc.lft.to/lastmile_qr_scan", "android": "https://dc.lft.to/lastmile_qr_scan"}, "is_reserved": 0, "fusion_lon": 0.0, "fusion_lat": 0.0, "lon": -77.0200575, "name": "f1e21df0e5c4145553a161f2d3f99226"}, {"bike_id": "ead86231de184db73f6ab7dac3b0579d", "type": "electric_scooter", "is_disabled": 0, "lat": 38.898947666666665, "rental_uris": {"ios": "https://dc.lft.to/lastmile_qr_scan", "android": "https://dc.lft.to/lastmile_qr_scan"}, "is_reserved": 0, "fusion_lon": 0.0, "fusion_lat": 0.0, "lon": -77.02170733333334, "name": "ead86231de184db73f6ab7dac3b0579d"}, {"bike_id": "f30862dc25b94fb4094af017b24a1a34", "type": "electric_scooter", "is_disabled": 0, "lat": 38.90553283333333, "rental_uris": {"ios": "https://dc.lft.to/lastmile_qr_scan", "android": "https://dc.lft.to/lastmile_qr_scan"}, "is_reserved": 0, "fusion_lon": 0.0, "fusion_lat": 0.0, "lon": -77.00554683333333, "name": "f30862dc25b94fb4094af017b24a1a34"}, {"bike_id": "b43e3c58dd05dc6bb05f623c8a31cab9", "type": "electric_bike", "is_disabled": 0, "lat": 38.87289883333333, "rental_uris": {"ios": "https://dc.lft.to/lastmile_qr_scan", "android": "https://dc.lft.to/lastmile_qr_scan"}, "is_reserved": 0, "fusion_lon": 0.0, "fusion_lat": 0.0, "lon": -77.139206, "name": "b43e3c58dd05dc6bb05f623c8a31cab9"}, {"bike_id": "7242e88a2c00c75dd2826fe01d7394b4", "type": "electric_scooter", "is_disabled": 0, "lat": 38.944855, "rental_uris": {"ios": "https://dc.lft.to/lastmile_qr_scan", "android": "https://dc.lft.to/lastmile_qr_scan"}, "is_reserved": 0, "fusion_lon": 0.0, "fusion_lat": 0.0, "lon": -77.06384633333333, "name": "7242e88a2c00c75dd2826fe01d7394b4"}, {"bike_id": "10559a5df9e1ea06bf8d6ac918b27fc6", "type": "electric_scooter", "is_disabled": 0, "lat": 38.909693833333336, "rental_uris": {"ios": "https://dc.lft.to/lastmile_qr_scan", "android": "https://dc.lft.to/lastmile_qr_scan"}, "is_reserved": 0, "fusion_lon": 0.0, "fusion_lat": 0.0, "lon": -77.03372133333333, "name": "10559a5df9e1ea06bf8d6ac918b27fc6"}, {"bike_id": "149ad57286661fbe4958e2581a3a482c", "type": "electric_scooter", "is_disabled": 0, "lat": 38.90310183333333, "rental_uris": {"ios": "https://dc.lft.to/lastmile_qr_scan", "android": "https://dc.lft.to/lastmile_qr_scan"}, "is_reserved": 0, "fusion_lon": 0.0, "fusion_lat": 0.0, "lon": -76.983561, "name": "149ad57286661fbe4958e2581a3a482c"}, {"bike_id": "fa49ed26ee696cf1fa09973b63f7143b", "type": "electric_scooter", "is_disabled": 0, "lat": 38.90650933333333, "rental_uris": {"ios": "https://dc.lft.to/lastmile_qr_scan", "android": "https://dc.lft.to/lastmile_qr_scan"}, "is_reserved": 0, "fusion_lon": 0.0, "fusion_lat": 0.0, "lon": -77.01417833333333, "name": "fa49ed26ee696cf1fa09973b63f7143b"}, {"bike_id": "d3525d02f680cba7c6fb0b13062f2a50", "type": "electric_scooter", "is_disabled": 0, "lat": 38.91203616666667, "rental_uris": {"ios": "https://dc.lft.to/lastmile_qr_scan", "android": "https://dc.lft.to/lastmile_qr_scan"}, "is_reserved": 0, "fusion_lon": 0.0, "fusion_lat": 0.0, "lon": -77.03211766666666, "name": "d3525d02f680cba7c6fb0b13062f2a50"}, {"bike_id": "a9bf4d9069d21a3fe539ea5457357851", "type": "electric_scooter", "is_disabled": 0, "lat": 38.89982366666667, "rental_uris": {"ios": "https://dc.lft.to/lastmile_qr_scan", "android": "https://dc.lft.to/lastmile_qr_scan"}, "is_reserved": 0, "fusion_lon": 0.0, "fusion_lat": 0.0, "lon": -76.98831466666667, "name": "a9bf4d9069d21a3fe539ea5457357851"}, {"bike_id": "7c692771243a4593999cf3215348aa10", "type": "electric_scooter", "is_disabled": 0, "lat": 38.92998583333333, "rental_uris": {"ios": "https://dc.lft.to/lastmile_qr_scan", "android": "https://dc.lft.to/lastmile_qr_scan"}, "is_reserved": 0, "fusion_lon": 0.0, "fusion_lat": 0.0, "lon": -77.0234965, "name": "7c692771243a4593999cf3215348aa10"}, {"bike_id": "ff9c58a2b5474c8ac7214543920c38ba", "type": "electric_scooter", "is_disabled": 0, "lat": 38.89008166666667, "rental_uris": {"ios": "https://dc.lft.to/lastmile_qr_scan", "android": "https://dc.lft.to/lastmile_qr_scan"}, "is_reserved": 0, "fusion_lon": 0.0, "fusion_lat": 0.0, "lon": -76.93743033333334, "name": "ff9c58a2b5474c8ac7214543920c38ba"}, {"bike_id": "46373b037bbf55dfa05cf755fd98f40d", "type": "electric_bike", "is_disabled": 0, "lat": 38.946545666666665, "rental_uris": {"ios": "https://dc.lft.to/lastmile_qr_scan", "android": "https://dc.lft.to/lastmile_qr_scan"}, "is_reserved": 0, "fusion_lon": 0.0, "fusion_lat": 0.0, "lon": -76.9949085, "name": "46373b037bbf55dfa05cf755fd98f40d"}, {"bike_id": "bf142eecec144badac67be2a7076081c", "type": "electric_scooter", "is_disabled": 0, "lat": 38.911442666666666, "rental_uris": {"ios": "https://dc.lft.to/lastmile_qr_scan", "android": "https://dc.lft.to/lastmile_qr_scan"}, "is_reserved": 0, "fusion_lon": 0.0, "fusion_lat": 0.0, "lon": -77.02808033333334, "name": "bf142eecec144badac67be2a7076081c"}, {"bike_id": "888c5508fc6477a81fabeabb56f8419f", "type": "electric_scooter", "is_disabled": 0, "lat": 38.91161116666667, "rental_uris": {"ios": "https://dc.lft.to/lastmile_qr_scan", "android": "https://dc.lft.to/lastmile_qr_scan"}, "is_reserved": 0, "fusion_lon": 0.0, "fusion_lat": 0.0, "lon": -77.048892, "name": "888c5508fc6477a81fabeabb56f8419f"}, {"bike_id": "6a3b0dafd66b5d9c941cac3d0df8e3a4", "type": "electric_scooter", "is_disabled": 0, "lat": 38.920823, "rental_uris": {"ios": "https://dc.lft.to/lastmile_qr_scan", "android": "https://dc.lft.to/lastmile_qr_scan"}, "is_reserved": 0, "fusion_lon": 0.0, "fusion_lat": 0.0, "lon": -77.024008, "name": "6a3b0dafd66b5d9c941cac3d0df8e3a4"}, {"bike_id": "8b37b1b8d95b6615df57316bbf58c200", "type": "electric_scooter", "is_disabled": 0, "lat": 38.908032, "rental_uris": {"ios": "https://dc.lft.to/lastmile_qr_scan", "android": "https://dc.lft.to/lastmile_qr_scan"}, "is_reserved": 0, "fusion_lon": 0.0, "fusion_lat": 0.0, "lon": -77.03132033333333, "name": "8b37b1b8d95b6615df57316bbf58c200"}, {"bike_id": "64b1a63c18f0096a5fb89d5e5a0d5d96", "type": "electric_scooter", "is_disabled": 0, "lat": 38.914223166666666, "rental_uris": {"ios": "https://dc.lft.to/lastmile_qr_scan", "android": "https://dc.lft.to/lastmile_qr_scan"}, "is_reserved": 0, "fusion_lon": 0.0, "fusion_lat": 0.0, "lon": -77.02286316666667, "name": "64b1a63c18f0096a5fb89d5e5a0d5d96"}, {"bike_id": "a7359c85859c7a5b5104532f7f4825e2", "type": "electric_scooter", "is_disabled": 0, "lat": 38.93536483333333, "rental_uris": {"ios": "https://dc.lft.to/lastmile_qr_scan", "android": "https://dc.lft.to/lastmile_qr_scan"}, "is_reserved": 0, "fusion_lon": 0.0, "fusion_lat": 0.0, "lon": -77.03889583333333, "name": "a7359c85859c7a5b5104532f7f4825e2"}, {"bike_id": "9dda7ea6b14cf2393e4c2ff9f1385544", "type": "electric_scooter", "is_disabled": 0, "lat": 38.892242333333336, "rental_uris": {"ios": "https://dc.lft.to/lastmile_qr_scan", "android": "https://dc.lft.to/lastmile_qr_scan"}, "is_reserved": 0, "fusion_lon": 0.0, "fusion_lat": 0.0, "lon": -77.02579883333334, "name": "9dda7ea6b14cf2393e4c2ff9f1385544"}, {"bike_id": "eecaa946d67bb3e2bfd622133d61c594", "type": "electric_scooter", "is_disabled": 0, "lat": 38.924059666666665, "rental_uris": {"ios": "https://dc.lft.to/lastmile_qr_scan", "android": "https://dc.lft.to/lastmile_qr_scan"}, "is_reserved": 0, "fusion_lon": 0.0, "fusion_lat": 0.0, "lon": -77.02021466666666, "name": "eecaa946d67bb3e2bfd622133d61c594"}, {"bike_id": "6ce07a496d627c5d13462c7070b1710c", "type": "electric_scooter", "is_disabled": 0, "lat": 38.90635, "rental_uris": {"ios": "https://dc.lft.to/lastmile_qr_scan", "android": "https://dc.lft.to/lastmile_qr_scan"}, "is_reserved": 0, "fusion_lon": 0.0, "fusion_lat": 0.0, "lon": -77.0532305, "name": "6ce07a496d627c5d13462c7070b1710c"}, {"bike_id": "8bad4f6a6ee2021e82fba220bf52c06a", "type": "electric_scooter", "is_disabled": 0, "lat": 38.892219, "rental_uris": {"ios": "https://dc.lft.to/lastmile_qr_scan", "android": "https://dc.lft.to/lastmile_qr_scan"}, "is_reserved": 0, "fusion_lon": 0.0, "fusion_lat": 0.0, "lon": -77.022254, "name": "8bad4f6a6ee2021e82fba220bf52c06a"}, {"bike_id": "d839b7e37d9b770a8337efc661d24321", "type": "electric_scooter", "is_disabled": 0, "lat": 38.936038333333336, "rental_uris": {"ios": "https://dc.lft.to/lastmile_qr_scan", "android": "https://dc.lft.to/lastmile_qr_scan"}, "is_reserved": 0, "fusion_lon": 0.0, "fusion_lat": 0.0, "lon": -77.05858666666667, "name": "d839b7e37d9b770a8337efc661d24321"}, {"bike_id": "cc645bfc02bc9cbe7901fc05ebdbb909", "type": "electric_scooter", "is_disabled": 0, "lat": 38.92920933333333, "rental_uris": {"ios": "https://dc.lft.to/lastmile_qr_scan", "android": "https://dc.lft.to/lastmile_qr_scan"}, "is_reserved": 0, "fusion_lon": 0.0, "fusion_lat": 0.0, "lon": -77.02091283333333, "name": "cc645bfc02bc9cbe7901fc05ebdbb909"}, {"bike_id": "2a8467f0f56b44f609587de8a86ea7d6", "type": "electric_scooter", "is_disabled": 0, "lat": 38.908570833333336, "rental_uris": {"ios": "https://dc.lft.to/lastmile_qr_scan", "android": "https://dc.lft.to/lastmile_qr_scan"}, "is_reserved": 0, "fusion_lon": 0.0, "fusion_lat": 0.0, "lon": -76.99800166666667, "name": "2a8467f0f56b44f609587de8a86ea7d6"}, {"bike_id": "3442c5f3c9f0d6c7d7ce4cce26e22577", "type": "electric_scooter", "is_disabled": 0, "lat": 38.925084166666664, "rental_uris": {"ios": "https://dc.lft.to/lastmile_qr_scan", "android": "https://dc.lft.to/lastmile_qr_scan"}, "is_reserved": 0, "fusion_lon": 0.0, "fusion_lat": 0.0, "lon": -77.05231583333334, "name": "3442c5f3c9f0d6c7d7ce4cce26e22577"}, {"bike_id": "5b78c849733e6be426e4e7284e0ec139", "type": "electric_scooter", "is_disabled": 0, "lat": 38.9133175, "rental_uris": {"ios": "https://dc.lft.to/lastmile_qr_scan", "android": "https://dc.lft.to/lastmile_qr_scan"}, "is_reserved": 0, "fusion_lon": 0.0, "fusion_lat": 0.0, "lon": -77.04728966666667, "name": "5b78c849733e6be426e4e7284e0ec139"}, {"bike_id": "147f7c380f9dd4606fd9a62596d9b200", "type": "electric_scooter", "is_disabled": 0, "lat": 38.877232, "rental_uris": {"ios": "https://dc.lft.to/lastmile_qr_scan", "android": "https://dc.lft.to/lastmile_qr_scan"}, "is_reserved": 0, "fusion_lon": 0.0, "fusion_lat": 0.0, "lon": -77.01764483333334, "name": "147f7c380f9dd4606fd9a62596d9b200"}, {"bike_id": "ee78bbc89e4867aa350ab976547d4650", "type": "electric_scooter", "is_disabled": 0, "lat": 38.92711933333333, "rental_uris": {"ios": "https://dc.lft.to/lastmile_qr_scan", "android": "https://dc.lft.to/lastmile_qr_scan"}, "is_reserved": 0, "fusion_lon": 0.0, "fusion_lat": 0.0, "lon": -77.037304, "name": "ee78bbc89e4867aa350ab976547d4650"}, {"bike_id": "2f7b203668631898b732913433e57a72", "type": "electric_scooter", "is_disabled": 0, "lat": 38.8995435, "rental_uris": {"ios": "https://dc.lft.to/lastmile_qr_scan", "android": "https://dc.lft.to/lastmile_qr_scan"}, "is_reserved": 0, "fusion_lon": 0.0, "fusion_lat": 0.0, "lon": -76.92629433333333, "name": "2f7b203668631898b732913433e57a72"}, {"bike_id": "d5747cb6d99262390596088e302f8eb1", "type": "electric_scooter", "is_disabled": 0, "lat": 38.91328433333334, "rental_uris": {"ios": "https://dc.lft.to/lastmile_qr_scan", "android": "https://dc.lft.to/lastmile_qr_scan"}, "is_reserved": 0, "fusion_lon": 0.0, "fusion_lat": 0.0, "lon": -77.0152605, "name": "d5747cb6d99262390596088e302f8eb1"}, {"bike_id": "8b839a4320856032329269bfdba6058b", "type": "electric_scooter", "is_disabled": 0, "lat": 38.928302, "rental_uris": {"ios": "https://dc.lft.to/lastmile_qr_scan", "android": "https://dc.lft.to/lastmile_qr_scan"}, "is_reserved": 0, "fusion_lon": 0.0, "fusion_lat": 0.0, "lon": -77.04345016666667, "name": "8b839a4320856032329269bfdba6058b"}, {"bike_id": "0e51d4df1841aae7c2c0030aad153272", "type": "electric_scooter", "is_disabled": 0, "lat": 38.90973366666667, "rental_uris": {"ios": "https://dc.lft.to/lastmile_qr_scan", "android": "https://dc.lft.to/lastmile_qr_scan"}, "is_reserved": 0, "fusion_lon": 0.0, "fusion_lat": 0.0, "lon": -77.033776, "name": "0e51d4df1841aae7c2c0030aad153272"}, {"bike_id": "d4154f457a2b974744f11fb773a51674", "type": "electric_scooter", "is_disabled": 0, "lat": 38.9248135, "rental_uris": {"ios": "https://dc.lft.to/lastmile_qr_scan", "android": "https://dc.lft.to/lastmile_qr_scan"}, "is_reserved": 0, "fusion_lon": 0.0, "fusion_lat": 0.0, "lon": -77.05752966666667, "name": "d4154f457a2b974744f11fb773a51674"}, {"bike_id": "97b9ad5be93f0e878e059206398661e4", "type": "electric_scooter", "is_disabled": 0, "lat": 38.91473533333333, "rental_uris": {"ios": "https://dc.lft.to/lastmile_qr_scan", "android": "https://dc.lft.to/lastmile_qr_scan"}, "is_reserved": 0, "fusion_lon": 0.0, "fusion_lat": 0.0, "lon": -77.03215516666667, "name": "97b9ad5be93f0e878e059206398661e4"}, {"bike_id": "900379fd256d850f3a671694959a7564", "type": "electric_scooter", "is_disabled": 0, "lat": 38.866266833333334, "rental_uris": {"ios": "https://dc.lft.to/lastmile_qr_scan", "android": "https://dc.lft.to/lastmile_qr_scan"}, "is_reserved": 0, "fusion_lon": 0.0, "fusion_lat": 0.0, "lon": -76.987119, "name": "900379fd256d850f3a671694959a7564"}, {"bike_id": "756be0e02c9ef9e159a0c04e6f663d09", "type": "electric_scooter", "is_disabled": 0, "lat": 38.91584183333333, "rental_uris": {"ios": "https://dc.lft.to/lastmile_qr_scan", "android": "https://dc.lft.to/lastmile_qr_scan"}, "is_reserved": 0, "fusion_lon": 0.0, "fusion_lat": 0.0, "lon": -77.04528733333333, "name": "756be0e02c9ef9e159a0c04e6f663d09"}, {"bike_id": "2470af403137e4a160a32150f7d01618", "type": "electric_scooter", "is_disabled": 0, "lat": 38.902525, "rental_uris": {"ios": "https://dc.lft.to/lastmile_qr_scan", "android": "https://dc.lft.to/lastmile_qr_scan"}, "is_reserved": 0, "fusion_lon": 0.0, "fusion_lat": 0.0, "lon": -77.0448325, "name": "2470af403137e4a160a32150f7d01618"}, {"bike_id": "dd982b3119fa3a43b0bd2a05b78a8f90", "type": "electric_scooter", "is_disabled": 0, "lat": 38.928276, "rental_uris": {"ios": "https://dc.lft.to/lastmile_qr_scan", "android": "https://dc.lft.to/lastmile_qr_scan"}, "is_reserved": 0, "fusion_lon": 0.0, "fusion_lat": 0.0, "lon": -77.05509266666667, "name": "dd982b3119fa3a43b0bd2a05b78a8f90"}, {"bike_id": "1617c43487f49e3c278a9b729203ced8", "type": "electric_scooter", "is_disabled": 0, "lat": 38.917669, "rental_uris": {"ios": "https://dc.lft.to/lastmile_qr_scan", "android": "https://dc.lft.to/lastmile_qr_scan"}, "is_reserved": 0, "fusion_lon": 0.0, "fusion_lat": 0.0, "lon": -77.04767333333334, "name": "1617c43487f49e3c278a9b729203ced8"}, {"bike_id": "c2b7bb5a597ace0cd52ceb9d3e8aba24", "type": "electric_scooter", "is_disabled": 0, "lat": 38.9201595, "rental_uris": {"ios": "https://dc.lft.to/lastmile_qr_scan", "android": "https://dc.lft.to/lastmile_qr_scan"}, "is_reserved": 0, "fusion_lon": 0.0, "fusion_lat": 0.0, "lon": -77.02526066666667, "name": "c2b7bb5a597ace0cd52ceb9d3e8aba24"}, {"bike_id": "350218a3c9fd56995ae6251056d5b967", "type": "electric_bike", "is_disabled": 0, "lat": 38.95630083333333, "rental_uris": {"ios": "https://dc.lft.to/lastmile_qr_scan", "android": "https://dc.lft.to/lastmile_qr_scan"}, "is_reserved": 0, "fusion_lon": 0.0, "fusion_lat": 0.0, "lon": -76.9387325, "name": "350218a3c9fd56995ae6251056d5b967"}, {"bike_id": "ad08b3bc2d56532d069a34f92005e5dc", "type": "electric_scooter", "is_disabled": 0, "lat": 38.928351, "rental_uris": {"ios": "https://dc.lft.to/lastmile_qr_scan", "android": "https://dc.lft.to/lastmile_qr_scan"}, "is_reserved": 0, "fusion_lon": 0.0, "fusion_lat": 0.0, "lon": -77.02321533333334, "name": "ad08b3bc2d56532d069a34f92005e5dc"}, {"bike_id": "bcbf382d0b7ad1341e7b61cb73087b66", "type": "electric_scooter", "is_disabled": 0, "lat": 38.892268333333334, "rental_uris": {"ios": "https://dc.lft.to/lastmile_qr_scan", "android": "https://dc.lft.to/lastmile_qr_scan"}, "is_reserved": 0, "fusion_lon": 0.0, "fusion_lat": 0.0, "lon": -77.050036, "name": "bcbf382d0b7ad1341e7b61cb73087b66"}, {"bike_id": "d79c848a3a13a3604ada9b0a21ee23cc", "type": "electric_bike", "is_disabled": 0, "lat": 38.940210666666665, "rental_uris": {"ios": "https://dc.lft.to/lastmile_qr_scan", "android": "https://dc.lft.to/lastmile_qr_scan"}, "is_reserved": 0, "fusion_lon": 0.0, "fusion_lat": 0.0, "lon": -76.97611383333333, "name": "d79c848a3a13a3604ada9b0a21ee23cc"}, {"bike_id": "38222cb3b30b2005dffdfbd788e64708", "type": "electric_scooter", "is_disabled": 0, "lat": 38.870579666666664, "rental_uris": {"ios": "https://dc.lft.to/lastmile_qr_scan", "android": "https://dc.lft.to/lastmile_qr_scan"}, "is_reserved": 0, "fusion_lon": 0.0, "fusion_lat": 0.0, "lon": -77.00748633333333, "name": "38222cb3b30b2005dffdfbd788e64708"}, {"bike_id": "13eb172f0a8e4917995ce2e837a8d612", "type": "electric_scooter", "is_disabled": 0, "lat": 38.88420816666667, "rental_uris": {"ios": "https://dc.lft.to/lastmile_qr_scan", "android": "https://dc.lft.to/lastmile_qr_scan"}, "is_reserved": 0, "fusion_lon": 0.0, "fusion_lat": 0.0, "lon": -77.00745966666666, "name": "13eb172f0a8e4917995ce2e837a8d612"}, {"bike_id": "90af229ffa17401256312547047be798", "type": "electric_scooter", "is_disabled": 0, "lat": 38.86372316666667, "rental_uris": {"ios": "https://dc.lft.to/lastmile_qr_scan", "android": "https://dc.lft.to/lastmile_qr_scan"}, "is_reserved": 0, "fusion_lon": 0.0, "fusion_lat": 0.0, "lon": -76.99055483333333, "name": "90af229ffa17401256312547047be798"}, {"bike_id": "b258cf0e7b109fa2deb934675709f0e5", "type": "electric_scooter", "is_disabled": 0, "lat": 38.9023015, "rental_uris": {"ios": "https://dc.lft.to/lastmile_qr_scan", "android": "https://dc.lft.to/lastmile_qr_scan"}, "is_reserved": 0, "fusion_lon": 0.0, "fusion_lat": 0.0, "lon": -77.0259865, "name": "b258cf0e7b109fa2deb934675709f0e5"}, {"bike_id": "3c21e3e6c2f56b459f54c459b907338b", "type": "electric_scooter", "is_disabled": 0, "lat": 38.8967755, "rental_uris": {"ios": "https://dc.lft.to/lastmile_qr_scan", "android": "https://dc.lft.to/lastmile_qr_scan"}, "is_reserved": 0, "fusion_lon": 0.0, "fusion_lat": 0.0, "lon": -77.02376, "name": "3c21e3e6c2f56b459f54c459b907338b"}, {"bike_id": "08edd73c80d82920575a7bd5e2af6109", "type": "electric_scooter", "is_disabled": 0, "lat": 38.91417833333333, "rental_uris": {"ios": "https://dc.lft.to/lastmile_qr_scan", "android": "https://dc.lft.to/lastmile_qr_scan"}, "is_reserved": 0, "fusion_lon": 0.0, "fusion_lat": 0.0, "lon": -77.039961, "name": "08edd73c80d82920575a7bd5e2af6109"}, {"bike_id": "4bc9d3f9a55a7c6b416162b7c77d8b3d", "type": "electric_scooter", "is_disabled": 0, "lat": 38.92825583333333, "rental_uris": {"ios": "https://dc.lft.to/lastmile_qr_scan", "android": "https://dc.lft.to/lastmile_qr_scan"}, "is_reserved": 0, "fusion_lon": 0.0, "fusion_lat": 0.0, "lon": -77.022606, "name": "4bc9d3f9a55a7c6b416162b7c77d8b3d"}, {"bike_id": "b296c9a291ace76e6da0f98996fa72c7", "type": "electric_scooter", "is_disabled": 0, "lat": 38.98432183333333, "rental_uris": {"ios": "https://dc.lft.to/lastmile_qr_scan", "android": "https://dc.lft.to/lastmile_qr_scan"}, "is_reserved": 0, "fusion_lon": 0.0, "fusion_lat": 0.0, "lon": -77.02671566666666, "name": "b296c9a291ace76e6da0f98996fa72c7"}, {"bike_id": "22e3ab83637a337e1776b86fcd30d847", "type": "electric_bike", "is_disabled": 0, "lat": 38.90870116666667, "rental_uris": {"ios": "https://dc.lft.to/lastmile_qr_scan", "android": "https://dc.lft.to/lastmile_qr_scan"}, "is_reserved": 0, "fusion_lon": 0.0, "fusion_lat": 0.0, "lon": -76.99125133333334, "name": "22e3ab83637a337e1776b86fcd30d847"}, {"bike_id": "ce6ab886c584692a5b88c1acfc1b1892", "type": "electric_scooter", "is_disabled": 0, "lat": 38.9213325, "rental_uris": {"ios": "https://dc.lft.to/lastmile_qr_scan", "android": "https://dc.lft.to/lastmile_qr_scan"}, "is_reserved": 0, "fusion_lon": 0.0, "fusion_lat": 0.0, "lon": -77.04121366666666, "name": "ce6ab886c584692a5b88c1acfc1b1892"}, {"bike_id": "ff48d8ea03c7e4cd8e12863790408030", "type": "electric_scooter", "is_disabled": 0, "lat": 38.923124333333334, "rental_uris": {"ios": "https://dc.lft.to/lastmile_qr_scan", "android": "https://dc.lft.to/lastmile_qr_scan"}, "is_reserved": 0, "fusion_lon": 0.0, "fusion_lat": 0.0, "lon": -77.03911216666667, "name": "ff48d8ea03c7e4cd8e12863790408030"}, {"bike_id": "40084f099179ff8f958d02022ad30869", "type": "electric_scooter", "is_disabled": 0, "lat": 38.902318333333334, "rental_uris": {"ios": "https://dc.lft.to/lastmile_qr_scan", "android": "https://dc.lft.to/lastmile_qr_scan"}, "is_reserved": 0, "fusion_lon": 0.0, "fusion_lat": 0.0, "lon": -77.0611075, "name": "40084f099179ff8f958d02022ad30869"}, {"bike_id": "2043eec3261060220bad924225de07a1", "type": "electric_scooter", "is_disabled": 0, "lat": 38.892405833333335, "rental_uris": {"ios": "https://dc.lft.to/lastmile_qr_scan", "android": "https://dc.lft.to/lastmile_qr_scan"}, "is_reserved": 0, "fusion_lon": 0.0, "fusion_lat": 0.0, "lon": -77.0335235, "name": "2043eec3261060220bad924225de07a1"}, {"bike_id": "933a8b6afa15a4bdb0cc6c4e6addeefe", "type": "electric_scooter", "is_disabled": 0, "lat": 38.900430166666666, "rental_uris": {"ios": "https://dc.lft.to/lastmile_qr_scan", "android": "https://dc.lft.to/lastmile_qr_scan"}, "is_reserved": 0, "fusion_lon": 0.0, "fusion_lat": 0.0, "lon": -77.00196066666666, "name": "933a8b6afa15a4bdb0cc6c4e6addeefe"}, {"bike_id": "7bf530d5642a5dd69e0b2988e3394d63", "type": "electric_scooter", "is_disabled": 0, "lat": 38.893503333333335, "rental_uris": {"ios": "https://dc.lft.to/lastmile_qr_scan", "android": "https://dc.lft.to/lastmile_qr_scan"}, "is_reserved": 0, "fusion_lon": 0.0, "fusion_lat": 0.0, "lon": -77.03160633333333, "name": "7bf530d5642a5dd69e0b2988e3394d63"}, {"bike_id": "9b6f31da9cbd5015d1ea06944b8a1259", "type": "electric_scooter", "is_disabled": 0, "lat": 38.91814133333333, "rental_uris": {"ios": "https://dc.lft.to/lastmile_qr_scan", "android": "https://dc.lft.to/lastmile_qr_scan"}, "is_reserved": 0, "fusion_lon": 0.0, "fusion_lat": 0.0, "lon": -77.0367035, "name": "9b6f31da9cbd5015d1ea06944b8a1259"}, {"bike_id": "a9cb6e32d87da7ab979fc804b1e680fe", "type": "electric_scooter", "is_disabled": 0, "lat": 38.909748666666665, "rental_uris": {"ios": "https://dc.lft.to/lastmile_qr_scan", "android": "https://dc.lft.to/lastmile_qr_scan"}, "is_reserved": 0, "fusion_lon": 0.0, "fusion_lat": 0.0, "lon": -77.03184983333334, "name": "a9cb6e32d87da7ab979fc804b1e680fe"}, {"bike_id": "836348679efa1a98f4f5634c6251e842", "type": "electric_scooter", "is_disabled": 0, "lat": 38.9169485, "rental_uris": {"ios": "https://dc.lft.to/lastmile_qr_scan", "android": "https://dc.lft.to/lastmile_qr_scan"}, "is_reserved": 0, "fusion_lon": 0.0, "fusion_lat": 0.0, "lon": -77.03195166666667, "name": "836348679efa1a98f4f5634c6251e842"}, {"bike_id": "19e20c8da81f91141a346514be6bf8c9", "type": "electric_scooter", "is_disabled": 0, "lat": 38.90280166666667, "rental_uris": {"ios": "https://dc.lft.to/lastmile_qr_scan", "android": "https://dc.lft.to/lastmile_qr_scan"}, "is_reserved": 0, "fusion_lon": 0.0, "fusion_lat": 0.0, "lon": -77.02316333333333, "name": "19e20c8da81f91141a346514be6bf8c9"}, {"bike_id": "e095cfe361d0a4f744a305a74c61937c", "type": "electric_scooter", "is_disabled": 0, "lat": 38.8764815, "rental_uris": {"ios": "https://dc.lft.to/lastmile_qr_scan", "android": "https://dc.lft.to/lastmile_qr_scan"}, "is_reserved": 0, "fusion_lon": 0.0, "fusion_lat": 0.0, "lon": -76.96507933333334, "name": "e095cfe361d0a4f744a305a74c61937c"}, {"bike_id": "c1065b96ae0c36099db959671fad5ac4", "type": "electric_bike", "is_disabled": 0, "lat": 38.854398333333336, "rental_uris": {"ios": "https://dc.lft.to/lastmile_qr_scan", "android": "https://dc.lft.to/lastmile_qr_scan"}, "is_reserved": 0, "fusion_lon": 0.0, "fusion_lat": 0.0, "lon": -77.08309783333333, "name": "c1065b96ae0c36099db959671fad5ac4"}, {"bike_id": "852963a9fa4a2e05624d69ae98ecee94", "type": "electric_scooter", "is_disabled": 0, "lat": 38.92863633333333, "rental_uris": {"ios": "https://dc.lft.to/lastmile_qr_scan", "android": "https://dc.lft.to/lastmile_qr_scan"}, "is_reserved": 0, "fusion_lon": 0.0, "fusion_lat": 0.0, "lon": -77.02174466666666, "name": "852963a9fa4a2e05624d69ae98ecee94"}, {"bike_id": "90f108558a9b8209bd540238e014cf8e", "type": "electric_scooter", "is_disabled": 0, "lat": 38.904977833333334, "rental_uris": {"ios": "https://dc.lft.to/lastmile_qr_scan", "android": "https://dc.lft.to/lastmile_qr_scan"}, "is_reserved": 0, "fusion_lon": 0.0, "fusion_lat": 0.0, "lon": -77.06006683333334, "name": "90f108558a9b8209bd540238e014cf8e"}, {"bike_id": "76a7865a522e2a5bd384cd99bc403ac8", "type": "electric_scooter", "is_disabled": 0, "lat": 38.921197666666664, "rental_uris": {"ios": "https://dc.lft.to/lastmile_qr_scan", "android": "https://dc.lft.to/lastmile_qr_scan"}, "is_reserved": 0, "fusion_lon": 0.0, "fusion_lat": 0.0, "lon": -77.01211866666667, "name": "76a7865a522e2a5bd384cd99bc403ac8"}, {"bike_id": "ecf8e9cc13cb04e60871c4bdc8c68206", "type": "electric_scooter", "is_disabled": 0, "lat": 38.9171555, "rental_uris": {"ios": "https://dc.lft.to/lastmile_qr_scan", "android": "https://dc.lft.to/lastmile_qr_scan"}, "is_reserved": 0, "fusion_lon": 0.0, "fusion_lat": 0.0, "lon": -77.03178866666667, "name": "ecf8e9cc13cb04e60871c4bdc8c68206"}, {"bike_id": "8cc4c3fd5897b8e78c3bedd0f07049d7", "type": "electric_scooter", "is_disabled": 0, "lat": 38.95218933333334, "rental_uris": {"ios": "https://dc.lft.to/lastmile_qr_scan", "android": "https://dc.lft.to/lastmile_qr_scan"}, "is_reserved": 0, "fusion_lon": 0.0, "fusion_lat": 0.0, "lon": -77.07068433333333, "name": "8cc4c3fd5897b8e78c3bedd0f07049d7"}, {"bike_id": "f89c4ca2adc9531dd2deb329621ed7c5", "type": "electric_scooter", "is_disabled": 0, "lat": 38.874684333333335, "rental_uris": {"ios": "https://dc.lft.to/lastmile_qr_scan", "android": "https://dc.lft.to/lastmile_qr_scan"}, "is_reserved": 0, "fusion_lon": 0.0, "fusion_lat": 0.0, "lon": -77.018931, "name": "f89c4ca2adc9531dd2deb329621ed7c5"}, {"bike_id": "e123e0f98d9007edea4782ec53de8b32", "type": "electric_scooter", "is_disabled": 0, "lat": 38.9337495, "rental_uris": {"ios": "https://dc.lft.to/lastmile_qr_scan", "android": "https://dc.lft.to/lastmile_qr_scan"}, "is_reserved": 0, "fusion_lon": 0.0, "fusion_lat": 0.0, "lon": -77.02385766666667, "name": "e123e0f98d9007edea4782ec53de8b32"}, {"bike_id": "ce31f83736b544898c550b1da3d2b1b9", "type": "electric_scooter", "is_disabled": 0, "lat": 38.919438, "rental_uris": {"ios": "https://dc.lft.to/lastmile_qr_scan", "android": "https://dc.lft.to/lastmile_qr_scan"}, "is_reserved": 0, "fusion_lon": 0.0, "fusion_lat": 0.0, "lon": -77.048766, "name": "ce31f83736b544898c550b1da3d2b1b9"}, {"bike_id": "323a2528ee3df6e13ec9586c4add51ae", "type": "electric_bike", "is_disabled": 0, "lat": 38.84029916666667, "rental_uris": {"ios": "https://dc.lft.to/lastmile_qr_scan", "android": "https://dc.lft.to/lastmile_qr_scan"}, "is_reserved": 0, "fusion_lon": 0.0, "fusion_lat": 0.0, "lon": -76.9757435, "name": "323a2528ee3df6e13ec9586c4add51ae"}, {"bike_id": "04b3e40954786d9f0cbdc20b547393ec", "type": "electric_scooter", "is_disabled": 0, "lat": 38.918254833333336, "rental_uris": {"ios": "https://dc.lft.to/lastmile_qr_scan", "android": "https://dc.lft.to/lastmile_qr_scan"}, "is_reserved": 0, "fusion_lon": 0.0, "fusion_lat": 0.0, "lon": -77.03173583333333, "name": "04b3e40954786d9f0cbdc20b547393ec"}, {"bike_id": "cac26377f0f27357074954252eb60b54", "type": "electric_scooter", "is_disabled": 0, "lat": 38.901793166666664, "rental_uris": {"ios": "https://dc.lft.to/lastmile_qr_scan", "android": "https://dc.lft.to/lastmile_qr_scan"}, "is_reserved": 0, "fusion_lon": 0.0, "fusion_lat": 0.0, "lon": -77.03943816666667, "name": "cac26377f0f27357074954252eb60b54"}, {"bike_id": "abb8a9d8f702610523c09d524c82971b", "type": "electric_scooter", "is_disabled": 0, "lat": 38.86249466666666, "rental_uris": {"ios": "https://dc.lft.to/lastmile_qr_scan", "android": "https://dc.lft.to/lastmile_qr_scan"}, "is_reserved": 0, "fusion_lon": 0.0, "fusion_lat": 0.0, "lon": -76.99502816666667, "name": "abb8a9d8f702610523c09d524c82971b"}, {"bike_id": "24b10ef6b17a34ae6c3b5014cec95c2f", "type": "electric_scooter", "is_disabled": 0, "lat": 38.90531333333333, "rental_uris": {"ios": "https://dc.lft.to/lastmile_qr_scan", "android": "https://dc.lft.to/lastmile_qr_scan"}, "is_reserved": 0, "fusion_lon": 0.0, "fusion_lat": 0.0, "lon": -77.06297233333333, "name": "24b10ef6b17a34ae6c3b5014cec95c2f"}, {"bike_id": "ccc6c7a12222d0a140d679bfb91642a2", "type": "electric_scooter", "is_disabled": 0, "lat": 38.9620485, "rental_uris": {"ios": "https://dc.lft.to/lastmile_qr_scan", "android": "https://dc.lft.to/lastmile_qr_scan"}, "is_reserved": 0, "fusion_lon": 0.0, "fusion_lat": 0.0, "lon": -77.02232466666666, "name": "ccc6c7a12222d0a140d679bfb91642a2"}, {"bike_id": "050bb7369cc499d51ea90f859cd30414", "type": "electric_scooter", "is_disabled": 0, "lat": 38.904167, "rental_uris": {"ios": "https://dc.lft.to/lastmile_qr_scan", "android": "https://dc.lft.to/lastmile_qr_scan"}, "is_reserved": 0, "fusion_lon": 0.0, "fusion_lat": 0.0, "lon": -77.05462916666667, "name": "050bb7369cc499d51ea90f859cd30414"}, {"bike_id": "e947d05cebbd08dd0b31a6e7fb03806d", "type": "electric_scooter", "is_disabled": 0, "lat": 38.927456, "rental_uris": {"ios": "https://dc.lft.to/lastmile_qr_scan", "android": "https://dc.lft.to/lastmile_qr_scan"}, "is_reserved": 0, "fusion_lon": 0.0, "fusion_lat": 0.0, "lon": -77.025383, "name": "e947d05cebbd08dd0b31a6e7fb03806d"}, {"bike_id": "6dde776356dc3511c599415fd34a4867", "type": "electric_bike", "is_disabled": 0, "lat": 38.98367866666667, "rental_uris": {"ios": "https://dc.lft.to/lastmile_qr_scan", "android": "https://dc.lft.to/lastmile_qr_scan"}, "is_reserved": 0, "fusion_lon": 0.0, "fusion_lat": 0.0, "lon": -76.972141, "name": "6dde776356dc3511c599415fd34a4867"}, {"bike_id": "827a47c18ff8eb189f11b6b4523666c2", "type": "electric_bike", "is_disabled": 0, "lat": 38.943645, "rental_uris": {"ios": "https://dc.lft.to/lastmile_qr_scan", "android": "https://dc.lft.to/lastmile_qr_scan"}, "is_reserved": 0, "fusion_lon": 0.0, "fusion_lat": 0.0, "lon": -76.96777816666666, "name": "827a47c18ff8eb189f11b6b4523666c2"}, {"bike_id": "d845bc2dc3e986e9b91e1af9c033e043", "type": "electric_scooter", "is_disabled": 0, "lat": 38.893006, "rental_uris": {"ios": "https://dc.lft.to/lastmile_qr_scan", "android": "https://dc.lft.to/lastmile_qr_scan"}, "is_reserved": 0, "fusion_lon": 0.0, "fusion_lat": 0.0, "lon": -77.01232216666666, "name": "d845bc2dc3e986e9b91e1af9c033e043"}, {"bike_id": "f90ff01215b188b769657d0378515eb0", "type": "electric_scooter", "is_disabled": 0, "lat": 38.85018016666667, "rental_uris": {"ios": "https://dc.lft.to/lastmile_qr_scan", "android": "https://dc.lft.to/lastmile_qr_scan"}, "is_reserved": 0, "fusion_lon": 0.0, "fusion_lat": 0.0, "lon": -76.9753085, "name": "f90ff01215b188b769657d0378515eb0"}, {"bike_id": "2a4006646b72d295b47a7f00a0e41121", "type": "electric_bike", "is_disabled": 0, "lat": 38.925750666666666, "rental_uris": {"ios": "https://dc.lft.to/lastmile_qr_scan", "android": "https://dc.lft.to/lastmile_qr_scan"}, "is_reserved": 0, "fusion_lon": 0.0, "fusion_lat": 0.0, "lon": -77.07927716666667, "name": "2a4006646b72d295b47a7f00a0e41121"}, {"bike_id": "14d0306add8e919252f566d45b3dcb08", "type": "electric_scooter", "is_disabled": 0, "lat": 38.936737, "rental_uris": {"ios": "https://dc.lft.to/lastmile_qr_scan", "android": "https://dc.lft.to/lastmile_qr_scan"}, "is_reserved": 0, "fusion_lon": 0.0, "fusion_lat": 0.0, "lon": -77.03566166666667, "name": "14d0306add8e919252f566d45b3dcb08"}, {"bike_id": "3ac641c52dbd5862576cd206bdc557e3", "type": "electric_bike", "is_disabled": 0, "lat": 38.931120666666665, "rental_uris": {"ios": "https://dc.lft.to/lastmile_qr_scan", "android": "https://dc.lft.to/lastmile_qr_scan"}, "is_reserved": 0, "fusion_lon": 0.0, "fusion_lat": 0.0, "lon": -76.99091383333334, "name": "3ac641c52dbd5862576cd206bdc557e3"}, {"bike_id": "bad5f1dd29a981a70f96f7bef960a906", "type": "electric_bike", "is_disabled": 0, "lat": 38.88060333333333, "rental_uris": {"ios": "https://dc.lft.to/lastmile_qr_scan", "android": "https://dc.lft.to/lastmile_qr_scan"}, "is_reserved": 0, "fusion_lon": 0.0, "fusion_lat": 0.0, "lon": -76.96240833333333, "name": "bad5f1dd29a981a70f96f7bef960a906"}, {"bike_id": "70bfe41d68c25421bf92f977ef22aeaa", "type": "electric_scooter", "is_disabled": 0, "lat": 38.913729333333336, "rental_uris": {"ios": "https://dc.lft.to/lastmile_qr_scan", "android": "https://dc.lft.to/lastmile_qr_scan"}, "is_reserved": 0, "fusion_lon": 0.0, "fusion_lat": 0.0, "lon": -77.07266966666667, "name": "70bfe41d68c25421bf92f977ef22aeaa"}, {"bike_id": "b5ccc15fe54373fde5681f962d40c360", "type": "electric_bike", "is_disabled": 0, "lat": 38.91015016666667, "rental_uris": {"ios": "https://dc.lft.to/lastmile_qr_scan", "android": "https://dc.lft.to/lastmile_qr_scan"}, "is_reserved": 0, "fusion_lon": 0.0, "fusion_lat": 0.0, "lon": -77.227962, "name": "b5ccc15fe54373fde5681f962d40c360"}, {"bike_id": "ffc60cb55ae8de702011c43d4fb5d660", "type": "electric_scooter", "is_disabled": 0, "lat": 38.92151066666667, "rental_uris": {"ios": "https://dc.lft.to/lastmile_qr_scan", "android": "https://dc.lft.to/lastmile_qr_scan"}, "is_reserved": 0, "fusion_lon": 0.0, "fusion_lat": 0.0, "lon": -77.03528783333333, "name": "ffc60cb55ae8de702011c43d4fb5d660"}, {"bike_id": "18fb30788783ca58cd4b8fe23950c3e3", "type": "electric_scooter", "is_disabled": 0, "lat": 38.91409433333333, "rental_uris": {"ios": "https://dc.lft.to/lastmile_qr_scan", "android": "https://dc.lft.to/lastmile_qr_scan"}, "is_reserved": 0, "fusion_lon": 0.0, "fusion_lat": 0.0, "lon": -77.015598, "name": "18fb30788783ca58cd4b8fe23950c3e3"}, {"bike_id": "d3cfd67962c6490c1ed9597ea8d584ac", "type": "electric_scooter", "is_disabled": 0, "lat": 38.90687666666667, "rental_uris": {"ios": "https://dc.lft.to/lastmile_qr_scan", "android": "https://dc.lft.to/lastmile_qr_scan"}, "is_reserved": 0, "fusion_lon": 0.0, "fusion_lat": 0.0, "lon": -77.0359265, "name": "d3cfd67962c6490c1ed9597ea8d584ac"}, {"bike_id": "bddc1b02bd7a6cd7dc3ad4591ffb6ab4", "type": "electric_scooter", "is_disabled": 0, "lat": 38.9052235, "rental_uris": {"ios": "https://dc.lft.to/lastmile_qr_scan", "android": "https://dc.lft.to/lastmile_qr_scan"}, "is_reserved": 0, "fusion_lon": 0.0, "fusion_lat": 0.0, "lon": -77.04177366666667, "name": "bddc1b02bd7a6cd7dc3ad4591ffb6ab4"}, {"bike_id": "edbf26ceed6f40d1b74f621cd14a5439", "type": "electric_scooter", "is_disabled": 0, "lat": 38.86980883333333, "rental_uris": {"ios": "https://dc.lft.to/lastmile_qr_scan", "android": "https://dc.lft.to/lastmile_qr_scan"}, "is_reserved": 0, "fusion_lon": 0.0, "fusion_lat": 0.0, "lon": -76.98175283333333, "name": "edbf26ceed6f40d1b74f621cd14a5439"}, {"bike_id": "abc4855d9da1b72ee56772f54e5264ad", "type": "electric_scooter", "is_disabled": 0, "lat": 38.93537383333334, "rental_uris": {"ios": "https://dc.lft.to/lastmile_qr_scan", "android": "https://dc.lft.to/lastmile_qr_scan"}, "is_reserved": 0, "fusion_lon": 0.0, "fusion_lat": 0.0, "lon": -77.02347516666667, "name": "abc4855d9da1b72ee56772f54e5264ad"}, {"bike_id": "e1ea294be52ba53859c88121acffc59f", "type": "electric_scooter", "is_disabled": 0, "lat": 38.94702866666667, "rental_uris": {"ios": "https://dc.lft.to/lastmile_qr_scan", "android": "https://dc.lft.to/lastmile_qr_scan"}, "is_reserved": 0, "fusion_lon": 0.0, "fusion_lat": 0.0, "lon": -77.019409, "name": "e1ea294be52ba53859c88121acffc59f"}, {"bike_id": "c62ad970fc48d96737e9933e2d49fa79", "type": "electric_scooter", "is_disabled": 0, "lat": 38.928289166666666, "rental_uris": {"ios": "https://dc.lft.to/lastmile_qr_scan", "android": "https://dc.lft.to/lastmile_qr_scan"}, "is_reserved": 0, "fusion_lon": 0.0, "fusion_lat": 0.0, "lon": -77.00598366666667, "name": "c62ad970fc48d96737e9933e2d49fa79"}, {"bike_id": "7964e96c4809eca0b3d6cbd354546913", "type": "electric_scooter", "is_disabled": 0, "lat": 38.9479065, "rental_uris": {"ios": "https://dc.lft.to/lastmile_qr_scan", "android": "https://dc.lft.to/lastmile_qr_scan"}, "is_reserved": 0, "fusion_lon": 0.0, "fusion_lat": 0.0, "lon": -77.021353, "name": "7964e96c4809eca0b3d6cbd354546913"}, {"bike_id": "c71c02bd18584587414a97dfa90dd2e1", "type": "electric_bike", "is_disabled": 0, "lat": 38.9241195, "rental_uris": {"ios": "https://dc.lft.to/lastmile_qr_scan", "android": "https://dc.lft.to/lastmile_qr_scan"}, "is_reserved": 0, "fusion_lon": 0.0, "fusion_lat": 0.0, "lon": -77.05041433333334, "name": "c71c02bd18584587414a97dfa90dd2e1"}, {"bike_id": "ecad97ee601b7c0af953e0716a1940e2", "type": "electric_scooter", "is_disabled": 0, "lat": 38.918026166666664, "rental_uris": {"ios": "https://dc.lft.to/lastmile_qr_scan", "android": "https://dc.lft.to/lastmile_qr_scan"}, "is_reserved": 0, "fusion_lon": 0.0, "fusion_lat": 0.0, "lon": -77.0415365, "name": "ecad97ee601b7c0af953e0716a1940e2"}, {"bike_id": "16fc6025df9ae361fac26e88b110507a", "type": "electric_bike", "is_disabled": 0, "lat": 38.872772499999996, "rental_uris": {"ios": "https://dc.lft.to/lastmile_qr_scan", "android": "https://dc.lft.to/lastmile_qr_scan"}, "is_reserved": 0, "fusion_lon": 0.0, "fusion_lat": 0.0, "lon": -77.23315183333334, "name": "16fc6025df9ae361fac26e88b110507a"}, {"bike_id": "26730c5e4013427e94a27d402b89f5ae", "type": "electric_scooter", "is_disabled": 0, "lat": 38.88241266666667, "rental_uris": {"ios": "https://dc.lft.to/lastmile_qr_scan", "android": "https://dc.lft.to/lastmile_qr_scan"}, "is_reserved": 0, "fusion_lon": 0.0, "fusion_lat": 0.0, "lon": -76.92663516666667, "name": "26730c5e4013427e94a27d402b89f5ae"}, {"bike_id": "ede75a9a41785a989bb3333c7f850e34", "type": "electric_scooter", "is_disabled": 0, "lat": 38.9244615, "rental_uris": {"ios": "https://dc.lft.to/lastmile_qr_scan", "android": "https://dc.lft.to/lastmile_qr_scan"}, "is_reserved": 0, "fusion_lon": 0.0, "fusion_lat": 0.0, "lon": -77.0335305, "name": "ede75a9a41785a989bb3333c7f850e34"}, {"bike_id": "433fcb8b683ef9c70e88417236875824", "type": "electric_scooter", "is_disabled": 0, "lat": 38.905570166666664, "rental_uris": {"ios": "https://dc.lft.to/lastmile_qr_scan", "android": "https://dc.lft.to/lastmile_qr_scan"}, "is_reserved": 0, "fusion_lon": 0.0, "fusion_lat": 0.0, "lon": -77.03822116666667, "name": "433fcb8b683ef9c70e88417236875824"}, {"bike_id": "a5c35130ee2913d4a8ce8d01fcf5520e", "type": "electric_scooter", "is_disabled": 0, "lat": 38.92856916666667, "rental_uris": {"ios": "https://dc.lft.to/lastmile_qr_scan", "android": "https://dc.lft.to/lastmile_qr_scan"}, "is_reserved": 0, "fusion_lon": 0.0, "fusion_lat": 0.0, "lon": -77.01953733333333, "name": "a5c35130ee2913d4a8ce8d01fcf5520e"}, {"bike_id": "96225cf8acd117a5bae1d48cb5b598dc", "type": "electric_scooter", "is_disabled": 0, "lat": 38.91419533333333, "rental_uris": {"ios": "https://dc.lft.to/lastmile_qr_scan", "android": "https://dc.lft.to/lastmile_qr_scan"}, "is_reserved": 0, "fusion_lon": 0.0, "fusion_lat": 0.0, "lon": -77.0480985, "name": "96225cf8acd117a5bae1d48cb5b598dc"}, {"bike_id": "08980ee7d0942ce10b10f0ca6f89e098", "type": "electric_bike", "is_disabled": 0, "lat": 38.96959583333334, "rental_uris": {"ios": "https://dc.lft.to/lastmile_qr_scan", "android": "https://dc.lft.to/lastmile_qr_scan"}, "is_reserved": 0, "fusion_lon": 0.0, "fusion_lat": 0.0, "lon": -76.95749, "name": "08980ee7d0942ce10b10f0ca6f89e098"}, {"bike_id": "706cc1cad268b4583035ed2e9e572b75", "type": "electric_scooter", "is_disabled": 0, "lat": 38.935467833333334, "rental_uris": {"ios": "https://dc.lft.to/lastmile_qr_scan", "android": "https://dc.lft.to/lastmile_qr_scan"}, "is_reserved": 0, "fusion_lon": 0.0, "fusion_lat": 0.0, "lon": -77.0585565, "name": "706cc1cad268b4583035ed2e9e572b75"}, {"bike_id": "6ab5d0e31d07eee44e58738ea10e354e", "type": "electric_scooter", "is_disabled": 0, "lat": 38.907634333333334, "rental_uris": {"ios": "https://dc.lft.to/lastmile_qr_scan", "android": "https://dc.lft.to/lastmile_qr_scan"}, "is_reserved": 0, "fusion_lon": 0.0, "fusion_lat": 0.0, "lon": -77.0689115, "name": "6ab5d0e31d07eee44e58738ea10e354e"}, {"bike_id": "2f53b7b76d957ab7ace3946aec53dcb6", "type": "electric_scooter", "is_disabled": 0, "lat": 38.8829775, "rental_uris": {"ios": "https://dc.lft.to/lastmile_qr_scan", "android": "https://dc.lft.to/lastmile_qr_scan"}, "is_reserved": 0, "fusion_lon": 0.0, "fusion_lat": 0.0, "lon": -76.94854683333334, "name": "2f53b7b76d957ab7ace3946aec53dcb6"}, {"bike_id": "437a24eae789d17045419f3bc00d1572", "type": "electric_scooter", "is_disabled": 0, "lat": 38.902327, "rental_uris": {"ios": "https://dc.lft.to/lastmile_qr_scan", "android": "https://dc.lft.to/lastmile_qr_scan"}, "is_reserved": 0, "fusion_lon": 0.0, "fusion_lat": 0.0, "lon": -77.00199133333334, "name": "437a24eae789d17045419f3bc00d1572"}, {"bike_id": "fd1edeceaf915d1048975b0f8504e605", "type": "electric_scooter", "is_disabled": 0, "lat": 38.924715666666664, "rental_uris": {"ios": "https://dc.lft.to/lastmile_qr_scan", "android": "https://dc.lft.to/lastmile_qr_scan"}, "is_reserved": 0, "fusion_lon": 0.0, "fusion_lat": 0.0, "lon": -77.02836366666666, "name": "fd1edeceaf915d1048975b0f8504e605"}, {"bike_id": "6f4246450256fc7ac92f7c65d506d447", "type": "electric_scooter", "is_disabled": 0, "lat": 38.93043566666667, "rental_uris": {"ios": "https://dc.lft.to/lastmile_qr_scan", "android": "https://dc.lft.to/lastmile_qr_scan"}, "is_reserved": 0, "fusion_lon": 0.0, "fusion_lat": 0.0, "lon": -77.03222916666667, "name": "6f4246450256fc7ac92f7c65d506d447"}, {"bike_id": "dbf66a096fd28edda4b6e68eadd522de", "type": "electric_scooter", "is_disabled": 0, "lat": 38.86468333333333, "rental_uris": {"ios": "https://dc.lft.to/lastmile_qr_scan", "android": "https://dc.lft.to/lastmile_qr_scan"}, "is_reserved": 0, "fusion_lon": 0.0, "fusion_lat": 0.0, "lon": -76.9774065, "name": "dbf66a096fd28edda4b6e68eadd522de"}, {"bike_id": "4e8da97fd1aaa1af1dc0e4f2cabcd398", "type": "electric_scooter", "is_disabled": 0, "lat": 38.9128325, "rental_uris": {"ios": "https://dc.lft.to/lastmile_qr_scan", "android": "https://dc.lft.to/lastmile_qr_scan"}, "is_reserved": 0, "fusion_lon": 0.0, "fusion_lat": 0.0, "lon": -77.02710333333333, "name": "4e8da97fd1aaa1af1dc0e4f2cabcd398"}, {"bike_id": "a2b9eda1303802ffbf9157479af31ef1", "type": "electric_scooter", "is_disabled": 0, "lat": 38.91579266666667, "rental_uris": {"ios": "https://dc.lft.to/lastmile_qr_scan", "android": "https://dc.lft.to/lastmile_qr_scan"}, "is_reserved": 0, "fusion_lon": 0.0, "fusion_lat": 0.0, "lon": -77.04492666666667, "name": "a2b9eda1303802ffbf9157479af31ef1"}, {"bike_id": "27a994c977355aa854ed218fb955ecb2", "type": "electric_scooter", "is_disabled": 0, "lat": 38.91556333333333, "rental_uris": {"ios": "https://dc.lft.to/lastmile_qr_scan", "android": "https://dc.lft.to/lastmile_qr_scan"}, "is_reserved": 0, "fusion_lon": 0.0, "fusion_lat": 0.0, "lon": -77.0323125, "name": "27a994c977355aa854ed218fb955ecb2"}, {"bike_id": "94b9314ffd604890e01717132de75748", "type": "electric_bike", "is_disabled": 0, "lat": 38.943652166666666, "rental_uris": {"ios": "https://dc.lft.to/lastmile_qr_scan", "android": "https://dc.lft.to/lastmile_qr_scan"}, "is_reserved": 0, "fusion_lon": 0.0, "fusion_lat": 0.0, "lon": -76.96778766666667, "name": "94b9314ffd604890e01717132de75748"}, {"bike_id": "8efd4881e9c97b981d727fd7b3fb0464", "type": "electric_scooter", "is_disabled": 0, "lat": 38.90040033333333, "rental_uris": {"ios": "https://dc.lft.to/lastmile_qr_scan", "android": "https://dc.lft.to/lastmile_qr_scan"}, "is_reserved": 0, "fusion_lon": 0.0, "fusion_lat": 0.0, "lon": -77.00697, "name": "8efd4881e9c97b981d727fd7b3fb0464"}, {"bike_id": "2cc59c42393cb327ed3d965baa9391f0", "type": "electric_scooter", "is_disabled": 0, "lat": 38.90612616666667, "rental_uris": {"ios": "https://dc.lft.to/lastmile_qr_scan", "android": "https://dc.lft.to/lastmile_qr_scan"}, "is_reserved": 0, "fusion_lon": 0.0, "fusion_lat": 0.0, "lon": -77.00585166666667, "name": "2cc59c42393cb327ed3d965baa9391f0"}, {"bike_id": "3818c6bf8e7bfe0a87450c90e0fcd7c7", "type": "electric_scooter", "is_disabled": 0, "lat": 38.922871, "rental_uris": {"ios": "https://dc.lft.to/lastmile_qr_scan", "android": "https://dc.lft.to/lastmile_qr_scan"}, "is_reserved": 0, "fusion_lon": 0.0, "fusion_lat": 0.0, "lon": -77.02244966666666, "name": "3818c6bf8e7bfe0a87450c90e0fcd7c7"}, {"bike_id": "5605b5313d79f3607d0275ee43bc3dbd", "type": "electric_scooter", "is_disabled": 0, "lat": 38.92316266666667, "rental_uris": {"ios": "https://dc.lft.to/lastmile_qr_scan", "android": "https://dc.lft.to/lastmile_qr_scan"}, "is_reserved": 0, "fusion_lon": 0.0, "fusion_lat": 0.0, "lon": -77.0460395, "name": "5605b5313d79f3607d0275ee43bc3dbd"}, {"bike_id": "a118067646ac012032860b9e72a62a8f", "type": "electric_scooter", "is_disabled": 0, "lat": 38.895444499999996, "rental_uris": {"ios": "https://dc.lft.to/lastmile_qr_scan", "android": "https://dc.lft.to/lastmile_qr_scan"}, "is_reserved": 0, "fusion_lon": 0.0, "fusion_lat": 0.0, "lon": -76.94933133333333, "name": "a118067646ac012032860b9e72a62a8f"}, {"bike_id": "c4bb4396739b2398dc77e44904bec30c", "type": "electric_scooter", "is_disabled": 0, "lat": 38.92616133333333, "rental_uris": {"ios": "https://dc.lft.to/lastmile_qr_scan", "android": "https://dc.lft.to/lastmile_qr_scan"}, "is_reserved": 0, "fusion_lon": 0.0, "fusion_lat": 0.0, "lon": -77.02333916666667, "name": "c4bb4396739b2398dc77e44904bec30c"}, {"bike_id": "ee5c54977c0daf633a9595719ff0cb32", "type": "electric_scooter", "is_disabled": 0, "lat": 38.918258333333334, "rental_uris": {"ios": "https://dc.lft.to/lastmile_qr_scan", "android": "https://dc.lft.to/lastmile_qr_scan"}, "is_reserved": 0, "fusion_lon": 0.0, "fusion_lat": 0.0, "lon": -77.02418333333334, "name": "ee5c54977c0daf633a9595719ff0cb32"}, {"bike_id": "b46d24f3c0e2996898654855a338d58f", "type": "electric_scooter", "is_disabled": 0, "lat": 38.90751616666667, "rental_uris": {"ios": "https://dc.lft.to/lastmile_qr_scan", "android": "https://dc.lft.to/lastmile_qr_scan"}, "is_reserved": 0, "fusion_lon": 0.0, "fusion_lat": 0.0, "lon": -77.0306465, "name": "b46d24f3c0e2996898654855a338d58f"}, {"bike_id": "0ee4ee1222d1196652f00d215b5bf407", "type": "electric_bike", "is_disabled": 0, "lat": 38.86340766666667, "rental_uris": {"ios": "https://dc.lft.to/lastmile_qr_scan", "android": "https://dc.lft.to/lastmile_qr_scan"}, "is_reserved": 0, "fusion_lon": 0.0, "fusion_lat": 0.0, "lon": -76.9872385, "name": "0ee4ee1222d1196652f00d215b5bf407"}, {"bike_id": "7d2f9201863728f5568f5a9a34b4f40a", "type": "electric_scooter", "is_disabled": 0, "lat": 38.9376825, "rental_uris": {"ios": "https://dc.lft.to/lastmile_qr_scan", "android": "https://dc.lft.to/lastmile_qr_scan"}, "is_reserved": 0, "fusion_lon": 0.0, "fusion_lat": 0.0, "lon": -77.01972116666667, "name": "7d2f9201863728f5568f5a9a34b4f40a"}, {"bike_id": "7cf07c2613576a5876d71e4be0c062aa", "type": "electric_scooter", "is_disabled": 0, "lat": 38.916379666666664, "rental_uris": {"ios": "https://dc.lft.to/lastmile_qr_scan", "android": "https://dc.lft.to/lastmile_qr_scan"}, "is_reserved": 0, "fusion_lon": 0.0, "fusion_lat": 0.0, "lon": -77.02948366666666, "name": "7cf07c2613576a5876d71e4be0c062aa"}, {"bike_id": "b295fc3170910675a441af2ebdf4ff09", "type": "electric_scooter", "is_disabled": 0, "lat": 38.902832, "rental_uris": {"ios": "https://dc.lft.to/lastmile_qr_scan", "android": "https://dc.lft.to/lastmile_qr_scan"}, "is_reserved": 0, "fusion_lon": 0.0, "fusion_lat": 0.0, "lon": -77.00339233333334, "name": "b295fc3170910675a441af2ebdf4ff09"},