{"data": {"bikes": [{"name": "15813307ba717cf53c571a85d11f6cfd", "fusion_lon": 0.0, "lat": 38.903581, "is_reserved": 0, "type": "electric_scooter", "bike_id": "15813307ba717cf53c571a85d11f6cfd", "is_disabled": 0, "rental_uris": {"android": "https://dc.lft.to/lastmile_qr_scan", "ios": "https://dc.lft.to/lastmile_qr_scan"}, "lon": -77.04594866666666, "fusion_lat": 0.0}, {"name": "9cd783f6901e7920cda3da8b8b17ef30", "fusion_lon": 0.0, "lat": 38.91586016666667, "is_reserved": 0, "type": "electric_scooter", "bike_id": "9cd783f6901e7920cda3da8b8b17ef30", "is_disabled": 0, "rental_uris": {"android": "https://dc.lft.to/lastmile_qr_scan", "ios": "https://dc.lft.to/lastmile_qr_scan"}, "lon": -77.02205166666667, "fusion_lat": 0.0}, {"name": "5170ddaf0d0bda8f4a23590e9bf23304", "fusion_lon": 0.0, "lat": 38.90510483333333, "is_reserved": 0, "type": "electric_scooter", "bike_id": "5170ddaf0d0bda8f4a23590e9bf23304", "is_disabled": 0, "rental_uris": {"android": "https://dc.lft.to/lastmile_qr_scan", "ios": "https://dc.lft.to/lastmile_qr_scan"}, "lon": -77.06684566666667, "fusion_lat": 0.0}, {"name": "4a2175dee22aa14996422d5e934c0bcf", "fusion_lon": 0.0, "lat": 38.8856005, "is_reserved": 0, "type": "electric_scooter", "bike_id": "4a2175dee22aa14996422d5e934c0bcf", "is_disabled": 0, "rental_uris": {"android": "https://dc.lft.to/lastmile_qr_scan", "ios": "https://dc.lft.to/lastmile_qr_scan"}, "lon": -77.02011, "fusion_lat": 0.0}, {"name": "ad26a389675419fd119193a49b4af2fd", "fusion_lon": 0.0, "lat": 38.920281833333334, "is_reserved": 0, "type": "electric_scooter", "bike_id": "ad26a389675419fd119193a49b4af2fd", "is_disabled": 0, "rental_uris": {"android": "https://dc.lft.to/lastmile_qr_scan", "ios": "https://dc.lft.to/lastmile_qr_scan"}, "lon": -77.01003316666667, "fusion_lat": 0.0}, {"name": "10a39ee998979139e05817b0dc54df02", "fusion_lon": 0.0, "lat": 38.9220965, "is_reserved": 0, "type": "electric_bike", "bike_id": "10a39ee998979139e05817b0dc54df02", "is_disabled": 0, "rental_uris": {"android": "https://dc.lft.to/lastmile_qr_scan", "ios": "https://dc.lft.to/lastmile_qr_scan"}, "lon": -76.9879905, "fusion_lat": 0.0}, {"name": "3286dea4d76a8c9e994ea02977351588", "fusion_lon": 0.0, "lat": 38.888148666666666, "is_reserved": 0, "type": "electric_scooter", "bike_id": "3286dea4d76a8c9e994ea02977351588", "is_disabled": 0, "rental_uris": {"android": "https://dc.lft.to/lastmile_qr_scan", "ios": "https://dc.lft.to/lastmile_qr_scan"}, "lon": -76.93342866666667, "fusion_lat": 0.0}, {"name": "853450fccb898be9f4fcfa837ada9ace", "fusion_lon": 0.0, "lat": 38.903388166666666, "is_reserved": 0, "type": "electric_scooter", "bike_id": "853450fccb898be9f4fcfa837ada9ace", "is_disabled": 0, "rental_uris": {"android": "https://dc.lft.to/lastmile_qr_scan", "ios": "https://dc.lft.to/lastmile_qr_scan"}, "lon": -77.03836116666666, "fusion_lat": 0.0}, {"name": "51dfb109fc2f2a2ac77dc198be77ce3d", "fusion_lon": 0.0, "lat": 38.897432, "is_reserved": 0, "type": "electric_scooter", "bike_id": "51dfb109fc2f2a2ac77dc198be77ce3d", "is_disabled": 0, "rental_uris": {"android": "https://dc.lft.to/lastmile_qr_scan", "ios": "https://dc.lft.to/lastmile_qr_scan"}, "lon": -77.04283766666667, "fusion_lat": 0.0}, {"name": "93d53099774fdddc78e2317cdeda6b7e", "fusion_lon": 0.0, "lat": 38.91833916666667, "is_reserved": 0, "type": "electric_scooter", "bike_id": "93d53099774fdddc78e2317cdeda6b7e", "is_disabled": 0, "rental_uris": {"android": "https://dc.lft.to/lastmile_qr_scan", "ios": "https://dc.lft.to/lastmile_qr_scan"}, "lon": -77.031804, "fusion_lat": 0.0}, {"name": "3a376cb5ff0134503ef9548982d44237", "fusion_lon": 0.0, "lat": 38.860926, "is_reserved": 0, "type": "electric_bike", "bike_id": "3a376cb5ff0134503ef9548982d44237", "is_disabled": 0, "rental_uris": {"android": "https://dc.lft.to/lastmile_qr_scan", "ios": "https://dc.lft.to/lastmile_qr_scan"}, "lon": -77.095882, "fusion_lat": 0.0}, {"name": "1c9718a83a026e827a7e34230d18840a", "fusion_lon": 0.0, "lat": 38.896274166666664, "is_reserved": 0, "type": "electric_scooter", "bike_id": "1c9718a83a026e827a7e34230d18840a", "is_disabled": 0, "rental_uris": {"android": "https://dc.lft.to/lastmile_qr_scan", "ios": "https://dc.lft.to/lastmile_qr_scan"}, "lon": -77.028614, "fusion_lat": 0.0}, {"name": "3a7671d846eaafa6f19e053b937adce2", "fusion_lon": 0.0, "lat": 38.90570316666667, "is_reserved": 0, "type": "electric_scooter", "bike_id": "3a7671d846eaafa6f19e053b937adce2", "is_disabled": 0, "rental_uris": {"android": "https://dc.lft.to/lastmile_qr_scan", "ios": "https://dc.lft.to/lastmile_qr_scan"}, "lon": -77.00571333333333, "fusion_lat": 0.0}, {"name": "25c9e8fe4363e121505787ca5c111834", "fusion_lon": 0.0, "lat": 38.92502533333333, "is_reserved": 0, "type": "electric_scooter", "bike_id": "25c9e8fe4363e121505787ca5c111834", "is_disabled": 0, "rental_uris": {"android": "https://dc.lft.to/lastmile_qr_scan", "ios": "https://dc.lft.to/lastmile_qr_scan"}, "lon": -77.02275983333334, "fusion_lat": 0.0}, {"name": "f4bb2c68071a20532119d2baa4c6b5bf", "fusion_lon": 0.0, "lat": 38.9037695, "is_reserved": 0, "type": "electric_scooter", "bike_id": "f4bb2c68071a20532119d2baa4c6b5bf", "is_disabled": 0, "rental_uris": {"android": "https://dc.lft.to/lastmile_qr_scan", "ios": "https://dc.lft.to/lastmile_qr_scan"}, "lon": -77.03692283333334, "fusion_lat": 0.0}, {"name": "d2e5021553d6491678d872b0d07644bb", "fusion_lon": 0.0, "lat": 38.91785083333333, "is_reserved": 0, "type": "electric_scooter", "bike_id": "d2e5021553d6491678d872b0d07644bb", "is_disabled": 0, "rental_uris": {"android": "https://dc.lft.to/lastmile_qr_scan", "ios": "https://dc.lft.to/lastmile_qr_scan"}, "lon": -77.04212766666667, "fusion_lat": 0.0}, {"name": "524ed45d83fdfc87b9c87b1a5fa3a878", "fusion_lon": 0.0, "lat": 38.919337166666665, "is_reserved": 0, "type": "electric_scooter", "bike_id": "524ed45d83fdfc87b9c87b1a5fa3a878", "is_disabled": 0, "rental_uris": {"android": "https://dc.lft.to/lastmile_qr_scan", "ios": "https://dc.lft.to/lastmile_qr_scan"}, "lon": -77.04559533333334, "fusion_lat": 0.0}, {"name": "2a233124160ebede44bd526a3d16d002", "fusion_lon": 0.0, "lat": 38.93958083333333, "is_reserved": 0, "type": "electric_scooter", "bike_id": "2a233124160ebede44bd526a3d16d002", "is_disabled": 0, "rental_uris": {"android": "https://dc.lft.to/lastmile_qr_scan", "ios": "https://dc.lft.to/lastmile_qr_scan"}, "lon": -77.02745716666666, "fusion_lat": 0.0}, {"name": "33228db118140fd10f8f67df985f000e", "fusion_lon": 0.0, "lat": 38.91926733333333, "is_reserved": 0, "type": "electric_scooter", "bike_id": "33228db118140fd10f8f67df985f000e", "is_disabled": 0, "rental_uris": {"android": "https://dc.lft.to/lastmile_qr_scan", "ios": "https://dc.lft.to/lastmile_qr_scan"}, "lon": -77.02571233333333, "fusion_lat": 0.0}, {"name": "3a097fb5df5f24fdc28415956e0c480b", "fusion_lon": 0.0, "lat": 38.92967766666666, "is_reserved": 0, "type": "electric_scooter", "bike_id": "3a097fb5df5f24fdc28415956e0c480b", "is_disabled": 0, "rental_uris": {"android": "https://dc.lft.to/lastmile_qr_scan", "ios": "https://dc.lft.to/lastmile_qr_scan"}, "lon": -77.0326315, "fusion_lat": 0.0}, {"name": "8c0e8fc72c3cae5df1a6e1b1382e5ddf", "fusion_lon": 0.0, "lat": 38.92583183333333, "is_reserved": 0, "type": "electric_scooter", "bike_id": "8c0e8fc72c3cae5df1a6e1b1382e5ddf", "is_disabled": 0, "rental_uris": {"android": "https://dc.lft.to/lastmile_qr_scan", "ios": "https://dc.lft.to/lastmile_qr_scan"}, "lon": -77.04402983333334, "fusion_lat": 0.0}, {"name": "118527862bccb07b067fbc365687a58b", "fusion_lon": 0.0, "lat": 38.89222016666667, "is_reserved": 0, "type": "electric_scooter", "bike_id": "118527862bccb07b067fbc365687a58b", "is_disabled": 0, "rental_uris": {"android": "https://dc.lft.to/lastmile_qr_scan", "ios": "https://dc.lft.to/lastmile_qr_scan"}, "lon": -77.042615, "fusion_lat": 0.0}, {"name": "3b187abd9437f32067dfe068058d2236", "fusion_lon": 0.0, "lat": 38.94435566666667, "is_reserved": 0, "type": "electric_scooter", "bike_id": "3b187abd9437f32067dfe068058d2236", "is_disabled": 0, "rental_uris": {"android": "https://dc.lft.to/lastmile_qr_scan", "ios": "https://dc.lft.to/lastmile_qr_scan"}, "lon": -77.06350233333333, "fusion_lat": 0.0}, {"name": "8666e8ffeeeeba3c0c54b9860340e36b", "fusion_lon": 0.0, "lat": 38.911909, "is_reserved": 0, "type": "electric_scooter", "bike_id": "8666e8ffeeeeba3c0c54b9860340e36b", "is_disabled": 0, "rental_uris": {"android": "https://dc.lft.to/lastmile_qr_scan", "ios": "https://dc.lft.to/lastmile_qr_scan"}, "lon": -77.045222, "fusion_lat": 0.0}, {"name": "f50f9bccf6d73677dfc4fe9102cda3ed", "fusion_lon": 0.0, "lat": 38.8858895, "is_reserved": 0, "type": "electric_scooter", "bike_id": "f50f9bccf6d73677dfc4fe9102cda3ed", "is_disabled": 0, "rental_uris": {"android": "https://dc.lft.to/lastmile_qr_scan", "ios": "https://dc.lft.to/lastmile_qr_scan"}, "lon": -76.99618883333333, "fusion_lat": 0.0}, {"name": "11fbab960ad5b7b638b94babedf06304", "fusion_lon": 0.0, "lat": 38.91506033333334, "is_reserved": 0, "type": "electric_scooter", "bike_id": "11fbab960ad5b7b638b94babedf06304", "is_disabled": 0, "rental_uris": {"android": "https://dc.lft.to/lastmile_qr_scan", "ios": "https://dc.lft.to/lastmile_qr_scan"}, "lon": -77.0184815, "fusion_lat": 0.0}, {"name": "b6213d0015b5be18bfa99557f2f714b1", "fusion_lon": 0.0, "lat": 38.878033333333335, "is_reserved": 0, "type": "electric_scooter", "bike_id": "b6213d0015b5be18bfa99557f2f714b1", "is_disabled": 0, "rental_uris": {"android": "https://dc.lft.to/lastmile_qr_scan", "ios": "https://dc.lft.to/lastmile_qr_scan"}, "lon": -76.93086, "fusion_lat": 0.0}, {"name": "ee0b99777820d9da0f36f57def8493e5", "fusion_lon": 0.0, "lat": 38.88399716666667, "is_reserved": 0, "type": "electric_scooter", "bike_id": "ee0b99777820d9da0f36f57def8493e5", "is_disabled": 0, "rental_uris": {"android": "https://dc.lft.to/lastmile_qr_scan", "ios": "https://dc.lft.to/lastmile_qr_scan"}, "lon": -77.02597833333333, "fusion_lat": 0.0}, {"name": "b6b6e1fc8285513c804d3aac818b5d11", "fusion_lon": 0.0, "lat": 39.00033583333333, "is_reserved": 0, "type": "electric_bike", "bike_id": "b6b6e1fc8285513c804d3aac818b5d11", "is_disabled": 0, "rental_uris": {"android": "https://dc.lft.to/lastmile_qr_scan", "ios": "https://dc.lft.to/lastmile_qr_scan"}, "lon": -77.04741216666666, "fusion_lat": 0.0}, {"name": "0502fde5708627f2ad4a9bb7f282a8a9", "fusion_lon": 0.0, "lat": 38.878138666666665, "is_reserved": 0, "type": "electric_scooter", "bike_id": "0502fde5708627f2ad4a9bb7f282a8a9", "is_disabled": 0, "rental_uris": {"android": "https://dc.lft.to/lastmile_qr_scan", "ios": "https://dc.lft.to/lastmile_qr_scan"}, "lon": -76.93110933333334, "fusion_lat": 0.0}, {"name": "6282c9379538a96b4fbc14a8540604e8", "fusion_lon": 0.0, "lat": 38.90409416666667, "is_reserved": 0, "type": "electric_scooter", "bike_id": "6282c9379538a96b4fbc14a8540604e8", "is_disabled": 0, "rental_uris": {"android": "https://dc.lft.to/lastmile_qr_scan", "ios": "https://dc.lft.to/lastmile_qr_scan"}, "lon": -76.973272, "fusion_lat": 0.0}, {"name": "d87cb07839d6fc31b58c61ccf22a18f8", "fusion_lon": 0.0, "lat": 38.9287745, "is_reserved": 0, "type": "electric_scooter", "bike_id": "d87cb07839d6fc31b58c61ccf22a18f8", "is_disabled": 0, "rental_uris": {"android": "https://dc.lft.to/lastmile_qr_scan", "ios": "https://dc.lft.to/lastmile_qr_scan"}, "lon": -77.0136875, "fusion_lat": 0.0}, {"name": "69695e534c8ae4ba32979f27e6746374", "fusion_lon": 0.0, "lat": 38.9156175, "is_reserved": 0, "type": "electric_scooter", "bike_id": "69695e534c8ae4ba32979f27e6746374", "is_disabled": 0, "rental_uris": {"android": "https://dc.lft.to/lastmile_qr_scan", "ios": "https://dc.lft.to/lastmile_qr_scan"}, "lon": -77.03171716666667, "fusion_lat": 0.0}, {"name": "f3dbdc6976155582434c692f7868e6dd", "fusion_lon": 0.0, "lat": 38.94989533333333, "is_reserved": 0, "type": "electric_scooter", "bike_id": "f3dbdc6976155582434c692f7868e6dd", "is_disabled": 0, "rental_uris": {"android": "https://dc.lft.to/lastmile_qr_scan", "ios": "https://dc.lft.to/lastmile_qr_scan"}, "lon": -77.02703266666667, "fusion_lat": 0.0}, {"name": "6a36375284ccd730bd90b528b5ef24c2", "fusion_lon": 0.0, "lat": 38.872976, "is_reserved": 0, "type": "electric_bike", "bike_id": "6a36375284ccd730bd90b528b5ef24c2", "is_disabled": 0, "rental_uris": {"android": "https://dc.lft.to/lastmile_qr_scan", "ios": "https://dc.lft.to/lastmile_qr_scan"}, "lon": -76.9697465, "fusion_lat": 0.0}, {"name": "5ad22bb19801ff7b13423139436f4880", "fusion_lon": 0.0, "lat": 38.961285833333335, "is_reserved": 0, "type": "electric_bike", "bike_id": "5ad22bb19801ff7b13423139436f4880", "is_disabled": 0, "rental_uris": {"android": "https://dc.lft.to/lastmile_qr_scan", "ios": "https://dc.lft.to/lastmile_qr_scan"}, "lon": -77.0136295, "fusion_lat": 0.0}, {"name": "668c3062214ccdc039fd3da7f77351c8", "fusion_lon": 0.0, "lat": 38.90833633333333, "is_reserved": 0, "type": "electric_bike", "bike_id": "668c3062214ccdc039fd3da7f77351c8", "is_disabled": 0, "rental_uris": {"android": "https://dc.lft.to/lastmile_qr_scan", "ios": "https://dc.lft.to/lastmile_qr_scan"}, "lon": -76.93311016666667, "fusion_lat": 0.0}, {"name": "7a6263919d5fabff10830f2f6ff04194", "fusion_lon": 0.0, "lat": 38.90980066666667, "is_reserved": 0, "type": "electric_scooter", "bike_id": "7a6263919d5fabff10830f2f6ff04194", "is_disabled": 0, "rental_uris": {"android": "https://dc.lft.to/lastmile_qr_scan", "ios": "https://dc.lft.to/lastmile_qr_scan"}, "lon": -77.044029, "fusion_lat": 0.0}, {"name": "7bcf144586286d9d636cebb6f7fb25a8", "fusion_lon": 0.0, "lat": 38.8382515, "is_reserved": 0, "type": "electric_bike", "bike_id": "7bcf144586286d9d636cebb6f7fb25a8", "is_disabled": 0, "rental_uris": {"android": "https://dc.lft.to/lastmile_qr_scan", "ios": "https://dc.lft.to/lastmile_qr_scan"}, "lon": -77.0792005, "fusion_lat": 0.0}, {"name": "b53248a4bd16dbce454c09ebdae15720", "fusion_lon": 0.0, "lat": 38.92455666666667, "is_reserved": 0, "type": "electric_scooter", "bike_id": "b53248a4bd16dbce454c09ebdae15720", "is_disabled": 0, "rental_uris": {"android": "https://dc.lft.to/lastmile_qr_scan", "ios": "https://dc.lft.to/lastmile_qr_scan"}, "lon": -77.02711533333333, "fusion_lat": 0.0}, {"name": "0c9b9b3c6b351aa7db57bfd35bbd8638", "fusion_lon": 0.0, "lat": 38.903819666666664, "is_reserved": 0, "type": "electric_scooter", "bike_id": "0c9b9b3c6b351aa7db57bfd35bbd8638", "is_disabled": 0, "rental_uris": {"android": "https://dc.lft.to/lastmile_qr_scan", "ios": "https://dc.lft.to/lastmile_qr_scan"}, "lon": -77.03631916666667, "fusion_lat": 0.0}, {"name": "e7cf4922b5cb9cd37d2ed6fb49e1d258", "fusion_lon": 0.0, "lat": 38.884030333333335, "is_reserved": 0, "type": "electric_scooter", "bike_id": "e7cf4922b5cb9cd37d2ed6fb49e1d258", "is_disabled": 0, "rental_uris": {"android": "https://dc.lft.to/lastmile_qr_scan", "ios": "https://dc.lft.to/lastmile_qr_scan"}, "lon": -76.953979, "fusion_lat": 0.0}, {"name": "3c362dd0cd073b2b03b792f21b21e4e1", "fusion_lon": 0.0, "lat": 38.877337, "is_reserved": 0, "type": "electric_scooter", "bike_id": "3c362dd0cd073b2b03b792f21b21e4e1", "is_disabled": 0, "rental_uris": {"android": "https://dc.lft.to/lastmile_qr_scan", "ios": "https://dc.lft.to/lastmile_qr_scan"}, "lon": -76.99486533333334, "fusion_lat": 0.0}, {"name": "7212efb1598e104b36cc61f8e18a6875", "fusion_lon": 0.0, "lat": 38.8927405, "is_reserved": 0, "type": "electric_scooter", "bike_id": "7212efb1598e104b36cc61f8e18a6875", "is_disabled": 0, "rental_uris": {"android": "https://dc.lft.to/lastmile_qr_scan", "ios": "https://dc.lft.to/lastmile_qr_scan"}, "lon": -77.00363916666667, "fusion_lat": 0.0}, {"name": "76bc6c4a60c73e5ea6c5d71dd07e0f14", "fusion_lon": 0.0, "lat": 38.929741, "is_reserved": 0, "type": "electric_scooter", "bike_id": "76bc6c4a60c73e5ea6c5d71dd07e0f14", "is_disabled": 0, "rental_uris": {"android": "https://dc.lft.to/lastmile_qr_scan", "ios": "https://dc.lft.to/lastmile_qr_scan"}, "lon": -77.028219, "fusion_lat": 0.0}, {"name": "e3eff250fc9b94fa9014a21ae4df7503", "fusion_lon": 0.0, "lat": 38.940409, "is_reserved": 0, "type": "electric_scooter", "bike_id": "e3eff250fc9b94fa9014a21ae4df7503", "is_disabled": 0, "rental_uris": {"android": "https://dc.lft.to/lastmile_qr_scan", "ios": "https://dc.lft.to/lastmile_qr_scan"}, "lon": -77.02906683333333, "fusion_lat": 0.0}, {"name": "73da8308eb5547e4522f833370d582b2", "fusion_lon": 0.0, "lat": 38.910673833333334, "is_reserved": 0, "type": "electric_scooter", "bike_id": "73da8308eb5547e4522f833370d582b2", "is_disabled": 0, "rental_uris": {"android": "https://dc.lft.to/lastmile_qr_scan", "ios": "https://dc.lft.to/lastmile_qr_scan"}, "lon": -77.03841316666667, "fusion_lat": 0.0}, {"name": "6de08c67c217b39b4deb4b553114a044", "fusion_lon": 0.0, "lat": 38.88366083333333, "is_reserved": 0, "type": "electric_scooter", "bike_id": "6de08c67c217b39b4deb4b553114a044", "is_disabled": 0, "rental_uris": {"android": "https://dc.lft.to/lastmile_qr_scan", "ios": "https://dc.lft.to/lastmile_qr_scan"}, "lon": -76.995169, "fusion_lat": 0.0}, {"name": "211df683917c8df719af2ef3270d21d7", "fusion_lon": 0.0, "lat": 38.893076666666666, "is_reserved": 0, "type": "electric_scooter", "bike_id": "211df683917c8df719af2ef3270d21d7", "is_disabled": 0, "rental_uris": {"android": "https://dc.lft.to/lastmile_qr_scan", "ios": "https://dc.lft.to/lastmile_qr_scan"}, "lon": -76.93978316666667, "fusion_lat": 0.0}, {"name": "f1bd9ebaf065fd8fbec6c588cb3459ff", "fusion_lon": 0.0, "lat": 38.901370666666665, "is_reserved": 0, "type": "electric_scooter", "bike_id": "f1bd9ebaf065fd8fbec6c588cb3459ff", "is_disabled": 0, "rental_uris": {"android": "https://dc.lft.to/lastmile_qr_scan", "ios": "https://dc.lft.to/lastmile_qr_scan"}, "lon": -77.01307366666667, "fusion_lat": 0.0}, {"name": "ba9e839317467f8c0dbbe15fef79ff31", "fusion_lon": 0.0, "lat": 38.92882133333333, "is_reserved": 0, "type": "electric_scooter", "bike_id": "ba9e839317467f8c0dbbe15fef79ff31", "is_disabled": 0, "rental_uris": {"android": "https://dc.lft.to/lastmile_qr_scan", "ios": "https://dc.lft.to/lastmile_qr_scan"}, "lon": -77.04046533333333, "fusion_lat": 0.0}, {"name": "bc1bcf7046754576f6e237f9759016d7", "fusion_lon": 0.0, "lat": 38.850678, "is_reserved": 0, "type": "electric_scooter", "bike_id": "bc1bcf7046754576f6e237f9759016d7", "is_disabled": 0, "rental_uris": {"android": "https://dc.lft.to/lastmile_qr_scan", "ios": "https://dc.lft.to/lastmile_qr_scan"}, "lon": -76.970083, "fusion_lat": 0.0}, {"name": "7542b060572b3827f3d123fd43fca23c", "fusion_lon": 0.0, "lat": 38.933271833333336, "is_reserved": 0, "type": "electric_scooter", "bike_id": "7542b060572b3827f3d123fd43fca23c", "is_disabled": 0, "rental_uris": {"android": "https://dc.lft.to/lastmile_qr_scan", "ios": "https://dc.lft.to/lastmile_qr_scan"}, "lon": -77.03251316666666, "fusion_lat": 0.0}, {"name": "4e4f5526a2c0a81bb8b836bb1c8c970a", "fusion_lon": 0.0, "lat": 38.92421266666667, "is_reserved": 0, "type": "electric_scooter", "bike_id": "4e4f5526a2c0a81bb8b836bb1c8c970a", "is_disabled": 0, "rental_uris": {"android": "https://dc.lft.to/lastmile_qr_scan", "ios": "https://dc.lft.to/lastmile_qr_scan"}, "lon": -77.0194645, "fusion_lat": 0.0}, {"name": "a48c749822085f67c4299d2d4fa79a2f", "fusion_lon": 0.0, "lat": 38.996310666666666, "is_reserved": 0, "type": "electric_scooter", "bike_id": "a48c749822085f67c4299d2d4fa79a2f", "is_disabled": 0, "rental_uris": {"android": "https://dc.lft.to/lastmile_qr_scan", "ios": "https://dc.lft.to/lastmile_qr_scan"}, "lon": -77.031459, "fusion_lat": 0.0}, {"name": "32151e4e50c5d63f1210c2516440671a", "fusion_lon": 0.0, "lat": 38.8983805, "is_reserved": 0, "type": "electric_scooter", "bike_id": "32151e4e50c5d63f1210c2516440671a", "is_disabled": 0, "rental_uris": {"android": "https://dc.lft.to/lastmile_qr_scan", "ios": "https://dc.lft.to/lastmile_qr_scan"}, "lon": -77.0435425, "fusion_lat": 0.0}, {"name": "9b35510af5b65b6b0e753ee44901b68d", "fusion_lon": 0.0, "lat": 38.915995833333334, "is_reserved": 0, "type": "electric_scooter", "bike_id": "9b35510af5b65b6b0e753ee44901b68d", "is_disabled": 0, "rental_uris": {"android": "https://dc.lft.to/lastmile_qr_scan", "ios": "https://dc.lft.to/lastmile_qr_scan"}, "lon": -76.983732, "fusion_lat": 0.0}, {"name": "490743479ce4c04b1464e230f51d507c", "fusion_lon": 0.0, "lat": 38.9233775, "is_reserved": 0, "type": "electric_scooter", "bike_id": "490743479ce4c04b1464e230f51d507c", "is_disabled": 0, "rental_uris": {"android": "https://dc.lft.to/lastmile_qr_scan", "ios": "https://dc.lft.to/lastmile_qr_scan"}, "lon": -77.052454, "fusion_lat": 0.0}, {"name": "b953d968ab4295f47334750c973e2659", "fusion_lon": 0.0, "lat": 38.87168116666667, "is_reserved": 0, "type": "electric_scooter", "bike_id": "b953d968ab4295f47334750c973e2659", "is_disabled": 0, "rental_uris": {"android": "https://dc.lft.to/lastmile_qr_scan", "ios": "https://dc.lft.to/lastmile_qr_scan"}, "lon": -76.9774985, "fusion_lat": 0.0}, {"name": "a441bda57e7f9f64eb06a1f06ce4410f", "fusion_lon": 0.0, "lat": 38.8959535, "is_reserved": 0, "type": "electric_scooter", "bike_id": "a441bda57e7f9f64eb06a1f06ce4410f", "is_disabled": 0, "rental_uris": {"android": "https://dc.lft.to/lastmile_qr_scan", "ios": "https://dc.lft.to/lastmile_qr_scan"}, "lon": -77.02574366666667, "fusion_lat": 0.0}, {"name": "4dd2ce7dee33f8201cd87bc8dd0431ac", "fusion_lon": 0.0, "lat": 38.89180266666666, "is_reserved": 0, "type": "electric_scooter", "bike_id": "4dd2ce7dee33f8201cd87bc8dd0431ac", "is_disabled": 0, "rental_uris": {"android": "https://dc.lft.to/lastmile_qr_scan", "ios": "https://dc.lft.to/lastmile_qr_scan"}, "lon": -76.91186816666666, "fusion_lat": 0.0}, {"name": "38191fc015684dccd5dacaa73c5b555a", "fusion_lon": 0.0, "lat": 38.91598183333333, "is_reserved": 0, "type": "electric_scooter", "bike_id": "38191fc015684dccd5dacaa73c5b555a", "is_disabled": 0, "rental_uris": {"android": "https://dc.lft.to/lastmile_qr_scan", "ios": "https://dc.lft.to/lastmile_qr_scan"}, "lon": -77.02196316666667, "fusion_lat": 0.0}, {"name": "f928fa289c0d4a9f019d5c66f4340410", "fusion_lon": 0.0, "lat": 38.925808333333336, "is_reserved": 0, "type": "electric_scooter", "bike_id": "f928fa289c0d4a9f019d5c66f4340410", "is_disabled": 0, "rental_uris": {"android": "https://dc.lft.to/lastmile_qr_scan", "ios": "https://dc.lft.to/lastmile_qr_scan"}, "lon": -77.026088, "fusion_lat": 0.0}, {"name": "b84189ca55ab31ca940986f05baa168a", "fusion_lon": 0.0, "lat": 38.89827716666667, "is_reserved": 0, "type": "electric_scooter", "bike_id": "b84189ca55ab31ca940986f05baa168a", "is_disabled": 0, "rental_uris": {"android": "https://dc.lft.to/lastmile_qr_scan", "ios": "https://dc.lft.to/lastmile_qr_scan"}, "lon": -77.03326766666666, "fusion_lat": 0.0}, {"name": "3c9844ecd587476bb86b2886c4a9a992", "fusion_lon": 0.0, "lat": 38.94104083333333, "is_reserved": 0, "type": "electric_scooter", "bike_id": "3c9844ecd587476bb86b2886c4a9a992", "is_disabled": 0, "rental_uris": {"android": "https://dc.lft.to/lastmile_qr_scan", "ios": "https://dc.lft.to/lastmile_qr_scan"}, "lon": -77.0773505, "fusion_lat": 0.0}, {"name": "6f9643545254ec0f22ddc5a0d9fdaded", "fusion_lon": 0.0, "lat": 38.91554333333333, "is_reserved": 0, "type": "electric_scooter", "bike_id": "6f9643545254ec0f22ddc5a0d9fdaded", "is_disabled": 0, "rental_uris": {"android": "https://dc.lft.to/lastmile_qr_scan", "ios": "https://dc.lft.to/lastmile_qr_scan"}, "lon": -77.024263, "fusion_lat": 0.0}, {"name": "55d32aef78a847f10e4e712ac77d1a77", "fusion_lon": 0.0, "lat": 38.919157166666665, "is_reserved": 0, "type": "electric_scooter", "bike_id": "55d32aef78a847f10e4e712ac77d1a77", "is_disabled": 0, "rental_uris": {"android": "https://dc.lft.to/lastmile_qr_scan", "ios": "https://dc.lft.to/lastmile_qr_scan"}, "lon": -77.02499983333334, "fusion_lat": 0.0}, {"name": "c2cf12926f89ea0c80c7cb3ec6b26e93", "fusion_lon": 0.0, "lat": 38.90249083333333, "is_reserved": 0, "type": "electric_scooter", "bike_id": "c2cf12926f89ea0c80c7cb3ec6b26e93", "is_disabled": 0, "rental_uris": {"android": "https://dc.lft.to/lastmile_qr_scan", "ios": "https://dc.lft.to/lastmile_qr_scan"}, "lon": -77.0333965, "fusion_lat": 0.0}, {"name": "7bc9d9eebba2908679f6190d8f54a221", "fusion_lon": 0.0, "lat": 38.95689433333333, "is_reserved": 0, "type": "electric_scooter", "bike_id": "7bc9d9eebba2908679f6190d8f54a221", "is_disabled": 0, "rental_uris": {"android": "https://dc.lft.to/lastmile_qr_scan", "ios": "https://dc.lft.to/lastmile_qr_scan"}, "lon": -77.02397633333334, "fusion_lat": 0.0}, {"name": "dbc09e2d2166df6be8483793d7a5d431", "fusion_lon": 0.0, "lat": 38.91558583333333, "is_reserved": 0, "type": "electric_scooter", "bike_id": "dbc09e2d2166df6be8483793d7a5d431", "is_disabled": 0, "rental_uris": {"android": "https://dc.lft.to/lastmile_qr_scan", "ios": "https://dc.lft.to/lastmile_qr_scan"}, "lon": -77.03955583333334, "fusion_lat": 0.0}, {"name": "b9cd66c294a9658ba5066c3e4ba7f0fd", "fusion_lon": 0.0, "lat": 38.884903666666666, "is_reserved": 0, "type": "electric_scooter", "bike_id": "b9cd66c294a9658ba5066c3e4ba7f0fd", "is_disabled": 0, "rental_uris": {"android": "https://dc.lft.to/lastmile_qr_scan", "ios": "https://dc.lft.to/lastmile_qr_scan"}, "lon": -77.01501233333333, "fusion_lat": 0.0}, {"name": "498934187ec94e82aee9299fb2d365d3", "fusion_lon": 0.0, "lat": 38.914841833333334, "is_reserved": 0, "type": "electric_scooter", "bike_id": "498934187ec94e82aee9299fb2d365d3", "is_disabled": 0, "rental_uris": {"android": "https://dc.lft.to/lastmile_qr_scan", "ios": "https://dc.lft.to/lastmile_qr_scan"}, "lon": -77.02538316666667, "fusion_lat": 0.0}, {"name": "c1f17a0c83bcd7248394c76b46b381a1", "fusion_lon": 0.0, "lat": 38.9306875, "is_reserved": 0, "type": "electric_scooter", "bike_id": "c1f17a0c83bcd7248394c76b46b381a1", "is_disabled": 0, "rental_uris": {"android": "https://dc.lft.to/lastmile_qr_scan", "ios": "https://dc.lft.to/lastmile_qr_scan"}, "lon": -77.0216295, "fusion_lat": 0.0}, {"name": "2c9ac1564998b01186b0cd159c82000a", "fusion_lon": 0.0, "lat": 38.908340833333334, "is_reserved": 0, "type": "electric_scooter", "bike_id": "2c9ac1564998b01186b0cd159c82000a", "is_disabled": 0, "rental_uris": {"android": "https://dc.lft.to/lastmile_qr_scan", "ios": "https://dc.lft.to/lastmile_qr_scan"}, "lon": -77.00904433333334, "fusion_lat": 0.0}, {"name": "c0a4799561db10cd4e76249479816b7c", "fusion_lon": 0.0, "lat": 38.8983495, "is_reserved": 0, "type": "electric_scooter", "bike_id": "c0a4799561db10cd4e76249479816b7c", "is_disabled": 0, "rental_uris": {"android": "https://dc.lft.to/lastmile_qr_scan", "ios": "https://dc.lft.to/lastmile_qr_scan"}, "lon": -77.03327183333333, "fusion_lat": 0.0}, {"name": "c7c2f74c4f57282697d7b10affc656b1", "fusion_lon": 0.0, "lat": 38.910666, "is_reserved": 0, "type": "electric_scooter", "bike_id": "c7c2f74c4f57282697d7b10affc656b1", "is_disabled": 0, "rental_uris": {"android": "https://dc.lft.to/lastmile_qr_scan", "ios": "https://dc.lft.to/lastmile_qr_scan"}, "lon": -77.03713866666666, "fusion_lat": 0.0}, {"name": "5a4b0ac4dadae9d8ce392c6cb34eaedc", "fusion_lon": 0.0, "lat": 38.874730166666666, "is_reserved": 0, "type": "electric_scooter", "bike_id": "5a4b0ac4dadae9d8ce392c6cb34eaedc", "is_disabled": 0, "rental_uris": {"android": "https://dc.lft.to/lastmile_qr_scan", "ios": "https://dc.lft.to/lastmile_qr_scan"}, "lon": -77.01887, "fusion_lat": 0.0}, {"name": "d808ae59b48604ad0acdf0e5e91afb5c", "fusion_lon": 0.0, "lat": 38.902151, "is_reserved": 0, "type": "electric_scooter", "bike_id": "d808ae59b48604ad0acdf0e5e91afb5c", "is_disabled": 0, "rental_uris": {"android": "https://dc.lft.to/lastmile_qr_scan", "ios": "https://dc.lft.to/lastmile_qr_scan"}, "lon": -77.02437433333333, "fusion_lat": 0.0}, {"name": "3f382a53d41623c822bb3ccfc3c60d8c", "fusion_lon": 0.0, "lat": 38.9170275, "is_reserved": 0, "type": "electric_scooter", "bike_id": "3f382a53d41623c822bb3ccfc3c60d8c", "is_disabled": 0, "rental_uris": {"android": "https://dc.lft.to/lastmile_qr_scan", "ios": "https://dc.lft.to/lastmile_qr_scan"}, "lon": -77.02889733333333, "fusion_lat": 0.0}, {"name": "c6fde15a56e88a1f1098820992e98fd8", "fusion_lon": 0.0, "lat": 38.867092166666666, "is_reserved": 0, "type": "electric_scooter", "bike_id": "c6fde15a56e88a1f1098820992e98fd8", "is_disabled": 0, "rental_uris": {"android": "https://dc.lft.to/lastmile_qr_scan", "ios": "https://dc.lft.to/lastmile_qr_scan"}, "lon": -76.98723383333333, "fusion_lat": 0.0}, {"name": "05bf3f8eb4c0dbccc8e16dba9d923fb8", "fusion_lon": 0.0, "lat": 38.90181283333333, "is_reserved": 0, "type": "electric_scooter", "bike_id": "05bf3f8eb4c0dbccc8e16dba9d923fb8", "is_disabled": 0, "rental_uris": {"android": "https://dc.lft.to/lastmile_qr_scan", "ios": "https://dc.lft.to/lastmile_qr_scan"}, "lon": -77.051037, "fusion_lat": 0.0}, {"name": "edff3422e87770fc7f3d43876d4675de", "fusion_lon": 0.0, "lat": 38.87457533333333, "is_reserved": 0, "type": "electric_scooter", "bike_id": "edff3422e87770fc7f3d43876d4675de", "is_disabled": 0, "rental_uris": {"android": "https://dc.lft.to/lastmile_qr_scan", "ios": "https://dc.lft.to/lastmile_qr_scan"}, "lon": -77.005447, "fusion_lat": 0.0}, {"name": "eaf6aac0513f0b65cfde28d667797e6f", "fusion_lon": 0.0, "lat": 38.90643983333333, "is_reserved": 0, "type": "electric_scooter", "bike_id": "eaf6aac0513f0b65cfde28d667797e6f", "is_disabled": 0, "rental_uris": {"android": "https://dc.lft.to/lastmile_qr_scan", "ios": "https://dc.lft.to/lastmile_qr_scan"}, "lon": -77.02494266666666, "fusion_lat": 0.0}, {"name": "e55a071a1a6a00b1a91a6dac3fcb089e", "fusion_lon": 0.0, "lat": 38.9235715, "is_reserved": 0, "type": "electric_scooter", "bike_id": "e55a071a1a6a00b1a91a6dac3fcb089e", "is_disabled": 0, "rental_uris": {"android": "https://dc.lft.to/lastmile_qr_scan", "ios": "https://dc.lft.to/lastmile_qr_scan"}, "lon": -77.05076133333333, "fusion_lat": 0.0}, {"name": "6823f36a6fc98dde7eb2e218671a3eff", "fusion_lon": 0.0, "lat": 38.914931333333335, "is_reserved": 0, "type": "electric_scooter", "bike_id": "6823f36a6fc98dde7eb2e218671a3eff", "is_disabled": 0, "rental_uris": {"android": "https://dc.lft.to/lastmile_qr_scan", "ios": "https://dc.lft.to/lastmile_qr_scan"}, "lon": -76.98575866666667, "fusion_lat": 0.0}, {"name": "4d7f58edea07cc26b8409162c2a3ad69", "fusion_lon": 0.0, "lat": 38.92497633333333, "is_reserved": 0, "type": "electric_scooter", "bike_id": "4d7f58edea07cc26b8409162c2a3ad69", "is_disabled": 0, "rental_uris": {"android": "https://dc.lft.to/lastmile_qr_scan", "ios": "https://dc.lft.to/lastmile_qr_scan"}, "lon": -77.00895066666666, "fusion_lat": 0.0}, {"name": "e49335db64b996d113a1f4a9b027bb92", "fusion_lon": 0.0, "lat": 38.90809516666667, "is_reserved": 0, "type": "electric_scooter", "bike_id": "e49335db64b996d113a1f4a9b027bb92", "is_disabled": 0, "rental_uris": {"android": "https://dc.lft.to/lastmile_qr_scan", "ios": "https://dc.lft.to/lastmile_qr_scan"}, "lon": -77.0381225, "fusion_lat": 0.0}, {"name": "5e5bf498cc547039bfdf14f68217ff71", "fusion_lon": 0.0, "lat": 38.919849166666665, "is_reserved": 0, "type": "electric_scooter", "bike_id": "5e5bf498cc547039bfdf14f68217ff71", "is_disabled": 0, "rental_uris": {"android": "https://dc.lft.to/lastmile_qr_scan", "ios": "https://dc.lft.to/lastmile_qr_scan"}, "lon": -76.97306783333333, "fusion_lat": 0.0}, {"name": "84dcd6933e2a1d52946bc04c3bbd49bc", "fusion_lon": 0.0, "lat": 38.907824833333336, "is_reserved": 0, "type": "electric_scooter", "bike_id": "84dcd6933e2a1d52946bc04c3bbd49bc", "is_disabled": 0, "rental_uris": {"android": "https://dc.lft.to/lastmile_qr_scan", "ios": "https://dc.lft.to/lastmile_qr_scan"}, "lon": -77.03821733333334, "fusion_lat": 0.0}, {"name": "ef1a4fbe4013c4967e37c66ed47fb412", "fusion_lon": 0.0, "lat": 38.92109283333333, "is_reserved": 0, "type": "electric_scooter", "bike_id": "ef1a4fbe4013c4967e37c66ed47fb412", "is_disabled": 0, "rental_uris": {"android": "https://dc.lft.to/lastmile_qr_scan", "ios": "https://dc.lft.to/lastmile_qr_scan"}, "lon": -77.033343, "fusion_lat": 0.0}, {"name": "2dddb94f4e321d69670c2462d0738698", "fusion_lon": 0.0, "lat": 38.90235, "is_reserved": 0, "type": "electric_scooter", "bike_id": "2dddb94f4e321d69670c2462d0738698", "is_disabled": 0, "rental_uris": {"android": "https://dc.lft.to/lastmile_qr_scan", "ios": "https://dc.lft.to/lastmile_qr_scan"}, "lon": -76.9741435, "fusion_lat": 0.0}, {"name": "b975c6b0fa233db8dff7c810ae49d4d0", "fusion_lon": 0.0, "lat": 38.85176366666666, "is_reserved": 0, "type": "electric_scooter", "bike_id": "b975c6b0fa233db8dff7c810ae49d4d0", "is_disabled": 0, "rental_uris": {"android": "https://dc.lft.to/lastmile_qr_scan", "ios": "https://dc.lft.to/lastmile_qr_scan"}, "lon": -76.99577266666667, "fusion_lat": 0.0}, {"name": "d4c7f3e816a8d3c96d52a54205d4af78", "fusion_lon": 0.0, "lat": 38.935319, "is_reserved": 0, "type": "electric_scooter", "bike_id": "d4c7f3e816a8d3c96d52a54205d4af78", "is_disabled": 0, "rental_uris": {"android": "https://dc.lft.to/lastmile_qr_scan", "ios": "https://dc.lft.to/lastmile_qr_scan"}, "lon": -77.054285, "fusion_lat": 0.0}, {"name": "a1e2bb22bb0f4680b05626cb29a65ca0", "fusion_lon": 0.0, "lat": 38.89220816666667, "is_reserved": 0, "type": "electric_scooter", "bike_id": "a1e2bb22bb0f4680b05626cb29a65ca0", "is_disabled": 0, "rental_uris": {"android": "https://dc.lft.to/lastmile_qr_scan", "ios": "https://dc.lft.to/lastmile_qr_scan"}, "lon": -77.04371933333333, "fusion_lat": 0.0}, {"name": "3f50fe2dc9b97b4a51ee42c3f07401e6", "fusion_lon": 0.0, "lat": 38.91189766666667, "is_reserved": 0, "type": "electric_scooter", "bike_id": "3f50fe2dc9b97b4a51ee42c3f07401e6", "is_disabled": 0, "rental_uris": {"android": "https://dc.lft.to/lastmile_qr_scan", "ios": "https://dc.lft.to/lastmile_qr_scan"}, "lon": -77.03834433333333, "fusion_lat": 0.0}, {"name": "745d39d901d7abfe48304bc24ac3fd2d", "fusion_lon": 0.0, "lat": 38.895136666666666, "is_reserved": 0, "type": "electric_scooter", "bike_id": "745d39d901d7abfe48304bc24ac3fd2d", "is_disabled": 0, "rental_uris": {"android": "https://dc.lft.to/lastmile_qr_scan", "ios": "https://dc.lft.to/lastmile_qr_scan"}, "lon": -76.98828483333334, "fusion_lat": 0.0}, {"name": "82fd8d2aa2d4b8862eec6ce15913ee05", "fusion_lon": 0.0, "lat": 38.90474733333333, "is_reserved": 0, "type": "electric_scooter", "bike_id": "82fd8d2aa2d4b8862eec6ce15913ee05", "is_disabled": 0, "rental_uris": {"android": "https://dc.lft.to/lastmile_qr_scan", "ios": "https://dc.lft.to/lastmile_qr_scan"}, "lon": -77.038373, "fusion_lat": 0.0}, {"name": "3589574ac8c961f5280dd2ffc2cb5920", "fusion_lon": 0.0, "lat": 38.875988666666665, "is_reserved": 0, "type": "electric_scooter", "bike_id": "3589574ac8c961f5280dd2ffc2cb5920", "is_disabled": 0, "rental_uris": {"android": "https://dc.lft.to/lastmile_qr_scan", "ios": "https://dc.lft.to/lastmile_qr_scan"}, "lon": -77.00094583333333, "fusion_lat": 0.0}, {"name": "46f6115330762c74e156062a22bcfd92", "fusion_lon": 0.0, "lat": 38.915172, "is_reserved": 0, "type": "electric_scooter", "bike_id": "46f6115330762c74e156062a22bcfd92", "is_disabled": 0, "rental_uris": {"android": "https://dc.lft.to/lastmile_qr_scan", "ios": "https://dc.lft.to/lastmile_qr_scan"}, "lon": -77.03176633333334, "fusion_lat": 0.0}, {"name": "940047837ec92b6ca3f595b90ec4affc", "fusion_lon": 0.0, "lat": 38.91014366666667, "is_reserved": 0, "type": "electric_bike", "bike_id": "940047837ec92b6ca3f595b90ec4affc", "is_disabled": 0, "rental_uris": {"android": "https://dc.lft.to/lastmile_qr_scan", "ios": "https://dc.lft.to/lastmile_qr_scan"}, "lon": -77.22797716666666, "fusion_lat": 0.0}, {"name": "49cade6eaf938210766763659d3b1645", "fusion_lon": 0.0, "lat": 38.915689666666665, "is_reserved": 0, "type": "electric_scooter", "bike_id": "49cade6eaf938210766763659d3b1645", "is_disabled": 0, "rental_uris": {"android": "https://dc.lft.to/lastmile_qr_scan", "ios": "https://dc.lft.to/lastmile_qr_scan"}, "lon": -77.03943616666666, "fusion_lat": 0.0}, {"name": "32b155e9ba131de0bb3d5e181e10439e", "fusion_lon": 0.0, "lat": 38.87280483333333, "is_reserved": 0, "type": "electric_bike", "bike_id": "32b155e9ba131de0bb3d5e181e10439e", "is_disabled": 0, "rental_uris": {"android": "https://dc.lft.to/lastmile_qr_scan", "ios": "https://dc.lft.to/lastmile_qr_scan"}, "lon": -77.23317383333334, "fusion_lat": 0.0}, {"name": "397733b42dfcd28895071152ec872f28", "fusion_lon": 0.0, "lat": 38.86953966666667, "is_reserved": 0, "type": "electric_scooter", "bike_id": "397733b42dfcd28895071152ec872f28", "is_disabled": 0, "rental_uris": {"android": "https://dc.lft.to/lastmile_qr_scan", "ios": "https://dc.lft.to/lastmile_qr_scan"}, "lon": -76.98173916666667, "fusion_lat": 0.0}, {"name": "f2de5f2622e7e079cfbac942f9c0bb01", "fusion_lon": 0.0, "lat": 38.89320433333334, "is_reserved": 0, "type": "electric_scooter", "bike_id": "f2de5f2622e7e079cfbac942f9c0bb01", "is_disabled": 0, "rental_uris": {"android": "https://dc.lft.to/lastmile_qr_scan", "ios": "https://dc.lft.to/lastmile_qr_scan"}, "lon": -77.048717, "fusion_lat": 0.0}, {"name": "28a82afc5d617cbb1e962d8abe41b117", "fusion_lon": 0.0, "lat": 38.8805635, "is_reserved": 0, "type": "electric_bike", "bike_id": "28a82afc5d617cbb1e962d8abe41b117", "is_disabled": 0, "rental_uris": {"android": "https://dc.lft.to/lastmile_qr_scan", "ios": "https://dc.lft.to/lastmile_qr_scan"}, "lon": -76.9623235, "fusion_lat": 0.0}, {"name": "5c462784d48f85d26c3b4e3098e70d7d", "fusion_lon": 0.0, "lat": 38.924027333333335, "is_reserved": 0, "type": "electric_scooter", "bike_id": "5c462784d48f85d26c3b4e3098e70d7d", "is_disabled": 0, "rental_uris": {"android": "https://dc.lft.to/lastmile_qr_scan", "ios": "https://dc.lft.to/lastmile_qr_scan"}, "lon": -77.0213575, "fusion_lat": 0.0}, {"name": "41cfd2abc9168bb2782819c356ed0140", "fusion_lon": 0.0, "lat": 38.87292766666667, "is_reserved": 0, "type": "electric_scooter", "bike_id": "41cfd2abc9168bb2782819c356ed0140", "is_disabled": 0, "rental_uris": {"android": "https://dc.lft.to/lastmile_qr_scan", "ios": "https://dc.lft.to/lastmile_qr_scan"}, "lon": -77.00982933333333, "fusion_lat": 0.0}, {"name": "77297528680b2cf50941860f4e4a9292", "fusion_lon": 0.0, "lat": 38.916221, "is_reserved": 0, "type": "electric_scooter", "bike_id": "77297528680b2cf50941860f4e4a9292", "is_disabled": 0, "rental_uris": {"android": "https://dc.lft.to/lastmile_qr_scan", "ios": "https://dc.lft.to/lastmile_qr_scan"}, "lon": -77.048565, "fusion_lat": 0.0}, {"name": "0902035c4a592dc6e7432661417ffaaa", "fusion_lon": 0.0, "lat": 38.908210833333335, "is_reserved": 0, "type": "electric_scooter", "bike_id": "0902035c4a592dc6e7432661417ffaaa", "is_disabled": 0, "rental_uris": {"android": "https://dc.lft.to/lastmile_qr_scan", "ios": "https://dc.lft.to/lastmile_qr_scan"}, "lon": -77.03929, "fusion_lat": 0.0}, {"name": "c79d78369afa0f4092de5a99060a7bc9", "fusion_lon": 0.0, "lat": 38.89814483333333, "is_reserved": 0, "type": "electric_scooter", "bike_id": "c79d78369afa0f4092de5a99060a7bc9", "is_disabled": 0, "rental_uris": {"android": "https://dc.lft.to/lastmile_qr_scan", "ios": "https://dc.lft.to/lastmile_qr_scan"}, "lon": -77.03322233333333, "fusion_lat": 0.0}, {"name": "30a5c904067c54384aa7a151d7882fa4", "fusion_lon": 0.0, "lat": 38.909772, "is_reserved": 0, "type": "electric_scooter", "bike_id": "30a5c904067c54384aa7a151d7882fa4", "is_disabled": 0, "rental_uris": {"android": "https://dc.lft.to/lastmile_qr_scan", "ios": "https://dc.lft.to/lastmile_qr_scan"}, "lon": -77.03435133333333, "fusion_lat": 0.0}, {"name": "5d05c270320ff7ed44ac494598d24447", "fusion_lon": 0.0, "lat": 38.8635205, "is_reserved": 0, "type": "electric_scooter", "bike_id": "5d05c270320ff7ed44ac494598d24447", "is_disabled": 0, "rental_uris": {"android": "https://dc.lft.to/lastmile_qr_scan", "ios": "https://dc.lft.to/lastmile_qr_scan"}, "lon": -76.98705666666666, "fusion_lat": 0.0}, {"name": "907a5b58dad0a213fc8aace8195f2dcb", "fusion_lon": 0.0, "lat": 38.92311, "is_reserved": 0, "type": "electric_scooter", "bike_id": "907a5b58dad0a213fc8aace8195f2dcb", "is_disabled": 0, "rental_uris": {"android": "https://dc.lft.to/lastmile_qr_scan", "ios": "https://dc.lft.to/lastmile_qr_scan"}, "lon": -77.02756716666667, "fusion_lat": 0.0}, {"name": "8e0c6aac03eb2c5c17aebaa56ac35876", "fusion_lon": 0.0, "lat": 38.942050333333334, "is_reserved": 0, "type": "electric_scooter", "bike_id": "8e0c6aac03eb2c5c17aebaa56ac35876", "is_disabled": 0, "rental_uris": {"android": "https://dc.lft.to/lastmile_qr_scan", "ios": "https://dc.lft.to/lastmile_qr_scan"}, "lon": -77.025154, "fusion_lat": 0.0}, {"name": "677a1bb71698009c64bbef041792106e", "fusion_lon": 0.0, "lat": 38.92659733333333, "is_reserved": 0, "type": "electric_scooter", "bike_id": "677a1bb71698009c64bbef041792106e", "is_disabled": 0, "rental_uris": {"android": "https://dc.lft.to/lastmile_qr_scan", "ios": "https://dc.lft.to/lastmile_qr_scan"}, "lon": -76.9954075, "fusion_lat": 0.0}, {"name": "ac276eb600d88ad36e670588c58add98", "fusion_lon": 0.0, "lat": 38.855386, "is_reserved": 0, "type": "electric_scooter", "bike_id": "ac276eb600d88ad36e670588c58add98", "is_disabled": 0, "rental_uris": {"android": "https://dc.lft.to/lastmile_qr_scan", "ios": "https://dc.lft.to/lastmile_qr_scan"}, "lon": -76.9841815, "fusion_lat": 0.0}, {"name": "a7b7df7fd8b349a71bdf1cde7c36deb1", "fusion_lon": 0.0, "lat": 38.898624833333336, "is_reserved": 0, "type": "electric_scooter", "bike_id": "a7b7df7fd8b349a71bdf1cde7c36deb1", "is_disabled": 0, "rental_uris": {"android": "https://dc.lft.to/lastmile_qr_scan", "ios": "https://dc.lft.to/lastmile_qr_scan"}, "lon": -76.927521, "fusion_lat": 0.0}, {"name": "a0f92b028869b6437c57332873a2230a", "fusion_lon": 0.0, "lat": 38.880186, "is_reserved": 0, "type": "electric_scooter", "bike_id": "a0f92b028869b6437c57332873a2230a", "is_disabled": 0, "rental_uris": {"android": "https://dc.lft.to/lastmile_qr_scan", "ios": "https://dc.lft.to/lastmile_qr_scan"}, "lon": -76.93109316666667, "fusion_lat": 0.0}, {"name": "d6adba47e7d957d120913558105dfddc", "fusion_lon": 0.0, "lat": 38.90287133333333, "is_reserved": 0, "type": "electric_scooter", "bike_id": "d6adba47e7d957d120913558105dfddc", "is_disabled": 0, "rental_uris": {"android": "https://dc.lft.to/lastmile_qr_scan", "ios": "https://dc.lft.to/lastmile_qr_scan"}, "lon": -77.0385105, "fusion_lat": 0.0}, {"name": "54bcfccb49158eaf606fedafdc64c715", "fusion_lon": 0.0, "lat": 38.90086683333333, "is_reserved": 0, "type": "electric_scooter", "bike_id": "54bcfccb49158eaf606fedafdc64c715", "is_disabled": 0, "rental_uris": {"android": "https://dc.lft.to/lastmile_qr_scan", "ios": "https://dc.lft.to/lastmile_qr_scan"}, "lon": -76.93014483333333, "fusion_lat": 0.0}, {"name": "0090cda117484ab3dba7b327a89e7cd7", "fusion_lon": 0.0, "lat": 38.92451416666667, "is_reserved": 0, "type": "electric_scooter", "bike_id": "0090cda117484ab3dba7b327a89e7cd7", "is_disabled": 0, "rental_uris": {"android": "https://dc.lft.to/lastmile_qr_scan", "ios": "https://dc.lft.to/lastmile_qr_scan"}, "lon": -77.03992066666666, "fusion_lat": 0.0}, {"name": "50e9ec600943927d7831b263860f8d8f", "fusion_lon": 0.0, "lat": 38.910974833333334, "is_reserved": 0, "type": "electric_scooter", "bike_id": "50e9ec600943927d7831b263860f8d8f", "is_disabled": 0, "rental_uris": {"android": "https://dc.lft.to/lastmile_qr_scan", "ios": "https://dc.lft.to/lastmile_qr_scan"}, "lon": -77.00344683333333, "fusion_lat": 0.0}, {"name": "6e66a168846046a473fe0defcd20ba8e", "fusion_lon": 0.0, "lat": 38.92969033333333, "is_reserved": 0, "type": "electric_scooter", "bike_id": "6e66a168846046a473fe0defcd20ba8e", "is_disabled": 0, "rental_uris": {"android": "https://dc.lft.to/lastmile_qr_scan", "ios": "https://dc.lft.to/lastmile_qr_scan"}, "lon": -77.01688266666666, "fusion_lat": 0.0}, {"name": "22a07f080d0945a413122b3c2eca9c80", "fusion_lon": 0.0, "lat": 38.9215025, "is_reserved": 0, "type": "electric_scooter", "bike_id": "22a07f080d0945a413122b3c2eca9c80", "is_disabled": 0, "rental_uris": {"android": "https://dc.lft.to/lastmile_qr_scan", "ios": "https://dc.lft.to/lastmile_qr_scan"}, "lon": -77.03507083333334, "fusion_lat": 0.0}, {"name": "300fcab267b28ae7baa808dcf7bf0b23", "fusion_lon": 0.0, "lat": 38.908638, "is_reserved": 0, "type": "electric_scooter", "bike_id": "300fcab267b28ae7baa808dcf7bf0b23", "is_disabled": 0, "rental_uris": {"android": "https://dc.lft.to/lastmile_qr_scan", "ios": "https://dc.lft.to/lastmile_qr_scan"}, "lon": -77.0322165, "fusion_lat": 0.0}, {"name": "a773f989d8c23c76f16766881eda4be9", "fusion_lon": 0.0, "lat": 38.905392166666665, "is_reserved": 0, "type": "electric_scooter", "bike_id": "a773f989d8c23c76f16766881eda4be9", "is_disabled": 0, "rental_uris": {"android": "https://dc.lft.to/lastmile_qr_scan", "ios": "https://dc.lft.to/lastmile_qr_scan"}, "lon": -77.03071566666667, "fusion_lat": 0.0}, {"name": "05de12e833e2c9bab141232bbc261248", "fusion_lon": 0.0, "lat": 38.9594105, "is_reserved": 0, "type": "electric_scooter", "bike_id": "05de12e833e2c9bab141232bbc261248", "is_disabled": 0, "rental_uris": {"android": "https://dc.lft.to/lastmile_qr_scan", "ios": "https://dc.lft.to/lastmile_qr_scan"}, "lon": -77.0304725, "fusion_lat": 0.0}, {"name": "aca4aea55fccf32355b6fc37971b3b96", "fusion_lon": 0.0, "lat": 38.90072216666667, "is_reserved": 0, "type": "electric_scooter", "bike_id": "aca4aea55fccf32355b6fc37971b3b96", "is_disabled": 0, "rental_uris": {"android": "https://dc.lft.to/lastmile_qr_scan", "ios": "https://dc.lft.to/lastmile_qr_scan"}, "lon": -77.046877, "fusion_lat": 0.0}, {"name": "313112bed484c5104c7f842ed25237c5", "fusion_lon": 0.0, "lat": 38.892216166666664, "is_reserved": 0, "type": "electric_scooter", "bike_id": "313112bed484c5104c7f842ed25237c5", "is_disabled": 0, "rental_uris": {"android": "https://dc.lft.to/lastmile_qr_scan", "ios": "https://dc.lft.to/lastmile_qr_scan"}, "lon": -77.02369766666666, "fusion_lat": 0.0}, {"name": "abf19c8b84f3ca5304380170d76516a6", "fusion_lon": 0.0, "lat": 38.918985166666666, "is_reserved": 0, "type": "electric_scooter", "bike_id": "abf19c8b84f3ca5304380170d76516a6", "is_disabled": 0, "rental_uris": {"android": "https://dc.lft.to/lastmile_qr_scan", "ios": "https://dc.lft.to/lastmile_qr_scan"}, "lon": -76.98743183333333, "fusion_lat": 0.0}, {"name": "733d098a00dbed2c449812225a020dbb", "fusion_lon": 0.0, "lat": 38.89866983333334, "is_reserved": 0, "type": "electric_scooter", "bike_id": "733d098a00dbed2c449812225a020dbb", "is_disabled": 0, "rental_uris": {"android": "https://dc.lft.to/lastmile_qr_scan", "ios": "https://dc.lft.to/lastmile_qr_scan"}, "lon": -76.94663, "fusion_lat": 0.0}, {"name": "21b7328b6d7d03441874ecf08c9a3b18", "fusion_lon": 0.0, "lat": 38.899323833333334, "is_reserved": 0, "type": "electric_scooter", "bike_id": "21b7328b6d7d03441874ecf08c9a3b18", "is_disabled": 0, "rental_uris": {"android": "https://dc.lft.to/lastmile_qr_scan", "ios": "https://dc.lft.to/lastmile_qr_scan"}, "lon": -77.04071, "fusion_lat": 0.0}, {"name": "453f8e352dbc2700a2f51fc22101d76b", "fusion_lon": 0.0, "lat": 38.9089565, "is_reserved": 0, "type": "electric_scooter", "bike_id": "453f8e352dbc2700a2f51fc22101d76b", "is_disabled": 0, "rental_uris": {"android": "https://dc.lft.to/lastmile_qr_scan", "ios": "https://dc.lft.to/lastmile_qr_scan"}, "lon": -77.03013816666666, "fusion_lat": 0.0}, {"name": "d6f44a42f630bb884ddbeaf7c05aff98", "fusion_lon": 0.0, "lat": 38.894281666666664, "is_reserved": 0, "type": "electric_scooter", "bike_id": "d6f44a42f630bb884ddbeaf7c05aff98", "is_disabled": 0, "rental_uris": {"android": "https://dc.lft.to/lastmile_qr_scan", "ios": "https://dc.lft.to/lastmile_qr_scan"}, "lon": -77.02106283333333, "fusion_lat": 0.0}, {"name": "db152217981b9ac4855eedcec1ff3456", "fusion_lon": 0.0, "lat": 38.918939, "is_reserved": 0, "type": "electric_scooter", "bike_id": "db152217981b9ac4855eedcec1ff3456", "is_disabled": 0, "rental_uris": {"android": "https://dc.lft.to/lastmile_qr_scan", "ios": "https://dc.lft.to/lastmile_qr_scan"}, "lon": -77.02299683333334, "fusion_lat": 0.0}, {"name": "2cf5797aebd51b0a0aa882e99e502419", "fusion_lon": 0.0, "lat": 38.946283666666666, "is_reserved": 0, "type": "electric_scooter", "bike_id": "2cf5797aebd51b0a0aa882e99e502419", "is_disabled": 0, "rental_uris": {"android": "https://dc.lft.to/lastmile_qr_scan", "ios": "https://dc.lft.to/lastmile_qr_scan"}, "lon": -77.01844916666667, "fusion_lat": 0.0}, {"name": "1b86b5c19e20bde775e079d062b66149", "fusion_lon": 0.0, "lat": 38.91702566666667, "is_reserved": 0, "type": "electric_scooter", "bike_id": "1b86b5c19e20bde775e079d062b66149", "is_disabled": 0, "rental_uris": {"android": "https://dc.lft.to/lastmile_qr_scan", "ios": "https://dc.lft.to/lastmile_qr_scan"}, "lon": -77.03124916666667, "fusion_lat": 0.0}, {"name": "51e436b940558ca168b175d45a775873", "fusion_lon": 0.0, "lat": 38.907712333333336, "is_reserved": 0, "type": "electric_scooter", "bike_id": "51e436b940558ca168b175d45a775873", "is_disabled": 0, "rental_uris": {"android": "https://dc.lft.to/lastmile_qr_scan", "ios": "https://dc.lft.to/lastmile_qr_scan"}, "lon": -76.97830866666666, "fusion_lat": 0.0}, {"name": "6f0c101d2e1405299480af5a20dd73cd", "fusion_lon": 0.0, "lat": 38.9007305, "is_reserved": 0, "type": "electric_scooter", "bike_id": "6f0c101d2e1405299480af5a20dd73cd", "is_disabled": 0, "rental_uris": {"android": "https://dc.lft.to/lastmile_qr_scan", "ios": "https://dc.lft.to/lastmile_qr_scan"}, "lon": -77.03917383333334, "fusion_lat": 0.0}, {"name": "d16e69b0aeaed7871be4620379d58898", "fusion_lon": 0.0, "lat": 38.905725, "is_reserved": 0, "type": "electric_scooter", "bike_id": "d16e69b0aeaed7871be4620379d58898", "is_disabled": 0, "rental_uris": {"android": "https://dc.lft.to/lastmile_qr_scan", "ios": "https://dc.lft.to/lastmile_qr_scan"}, "lon": -77.00570116666667, "fusion_lat": 0.0}, {"name": "00a2b4342522214d23cc53208017fcc6", "fusion_lon": 0.0, "lat": 38.90415866666667, "is_reserved": 0, "type": "electric_scooter", "bike_id": "00a2b4342522214d23cc53208017fcc6", "is_disabled": 0, "rental_uris": {"android": "https://dc.lft.to/lastmile_qr_scan", "ios": "https://dc.lft.to/lastmile_qr_scan"}, "lon": -77.02496566666667, "fusion_lat": 0.0}, {"name": "51635796d11680712683e5bddca12d92", "fusion_lon": 0.0, "lat": 39.0342285, "is_reserved": 0, "type": "electric_bike", "bike_id": "51635796d11680712683e5bddca12d92", "is_disabled": 0, "rental_uris": {"android": "https://dc.lft.to/lastmile_qr_scan", "ios": "https://dc.lft.to/lastmile_qr_scan"}, "lon": -77.042508, "fusion_lat": 0.0}, {"name": "d3c891be12267c4be70d82e1a5c65a1e", "fusion_lon": 0.0, "lat": 38.884555, "is_reserved": 0, "type": "electric_scooter", "bike_id": "d3c891be12267c4be70d82e1a5c65a1e", "is_disabled": 0, "rental_uris": {"android": "https://dc.lft.to/lastmile_qr_scan", "ios": "https://dc.lft.to/lastmile_qr_scan"}, "lon": -76.957444, "fusion_lat": 0.0}, {"name": "797c1dd4a9cd0610380aca7f775f1fe0", "fusion_lon": 0.0, "lat": 38.9196395, "is_reserved": 0, "type": "electric_scooter", "bike_id": "797c1dd4a9cd0610380aca7f775f1fe0", "is_disabled": 0, "rental_uris": {"android": "https://dc.lft.to/lastmile_qr_scan", "ios": "https://dc.lft.to/lastmile_qr_scan"}, "lon": -77.01895283333333, "fusion_lat": 0.0}, {"name": "7429c2f40a059ad5574ab3a771fe6a54", "fusion_lon": 0.0, "lat": 39.054958666666664, "is_reserved": 0, "type": "electric_bike", "bike_id": "7429c2f40a059ad5574ab3a771fe6a54", "is_disabled": 0, "rental_uris": {"android": "https://dc.lft.to/lastmile_qr_scan", "ios": "https://dc.lft.to/lastmile_qr_scan"}, "lon": -77.1178995, "fusion_lat": 0.0}, {"name": "f33c1298b90413fabb0ada37786e7245", "fusion_lon": 0.0, "lat": 38.900286333333334, "is_reserved": 0, "type": "electric_scooter", "bike_id": "f33c1298b90413fabb0ada37786e7245", "is_disabled": 0, "rental_uris": {"android": "https://dc.lft.to/lastmile_qr_scan", "ios": "https://dc.lft.to/lastmile_qr_scan"}, "lon": -76.9943165, "fusion_lat": 0.0}, {"name": "e9aeff97d0f7e6d9a84319dbbbb1c704", "fusion_lon": 0.0, "lat": 38.92656383333333, "is_reserved": 0, "type": "electric_scooter", "bike_id": "e9aeff97d0f7e6d9a84319dbbbb1c704", "is_disabled": 0, "rental_uris": {"android": "https://dc.lft.to/lastmile_qr_scan", "ios": "https://dc.lft.to/lastmile_qr_scan"}, "lon": -77.0086735, "fusion_lat": 0.0}, {"name": "56ea08305bd2fa12478a3016a1ed1c82", "fusion_lon": 0.0, "lat": 38.9241935, "is_reserved": 0, "type": "electric_scooter", "bike_id": "56ea08305bd2fa12478a3016a1ed1c82", "is_disabled": 0, "rental_uris": {"android": "https://dc.lft.to/lastmile_qr_scan", "ios": "https://dc.lft.to/lastmile_qr_scan"}, "lon": -77.05065283333333, "fusion_lat": 0.0}, {"name": "bbe8a6002c3ca46c6ba0db96b78e9344", "fusion_lon": 0.0, "lat": 38.9075195, "is_reserved": 0, "type": "electric_scooter", "bike_id": "bbe8a6002c3ca46c6ba0db96b78e9344", "is_disabled": 0, "rental_uris": {"android": "https://dc.lft.to/lastmile_qr_scan", "ios": "https://dc.lft.to/lastmile_qr_scan"}, "lon": -77.031789, "fusion_lat": 0.0}, {"name": "2087840ec3db68bcd9dbb6b82b35b6fa", "fusion_lon": 0.0, "lat": 38.901679333333334, "is_reserved": 0, "type": "electric_scooter", "bike_id": "2087840ec3db68bcd9dbb6b82b35b6fa", "is_disabled": 0, "rental_uris": {"android": "https://dc.lft.to/lastmile_qr_scan", "ios": "https://dc.lft.to/lastmile_qr_scan"}, "lon": -76.93024583333333, "fusion_lat": 0.0}, {"name": "40b9fc12d87d57e15f98f6dd344a6898", "fusion_lon": 0.0, "lat": 38.931914666666664, "is_reserved": 0, "type": "electric_scooter", "bike_id": "40b9fc12d87d57e15f98f6dd344a6898", "is_disabled": 0, "rental_uris": {"android": "https://dc.lft.to/lastmile_qr_scan", "ios": "https://dc.lft.to/lastmile_qr_scan"}, "lon": -77.0453435, "fusion_lat": 0.0}, {"name": "59953ecfbaa133b2145c52679372d717", "fusion_lon": 0.0, "lat": 38.874781666666664, "is_reserved": 0, "type": "electric_bike", "bike_id": "59953ecfbaa133b2145c52679372d717", "is_disabled": 0, "rental_uris": {"android": "https://dc.lft.to/lastmile_qr_scan", "ios": "https://dc.lft.to/lastmile_qr_scan"}, "lon": -76.9652645, "fusion_lat": 0.0}, {"name": "4bcf8d633c85acc0d0bcd0c69066556d", "fusion_lon": 0.0, "lat": 38.9141315, "is_reserved": 0, "type": "electric_scooter", "bike_id": "4bcf8d633c85acc0d0bcd0c69066556d", "is_disabled": 0, "rental_uris": {"android": "https://dc.lft.to/lastmile_qr_scan", "ios": "https://dc.lft.to/lastmile_qr_scan"}, "lon": -77.04913883333333, "fusion_lat": 0.0}, {"name": "a7bd885c2e0667a5a4669a5086cde3b3", "fusion_lon": 0.0, "lat": 38.89742416666667, "is_reserved": 0, "type": "electric_scooter", "bike_id": "a7bd885c2e0667a5a4669a5086cde3b3", "is_disabled": 0, "rental_uris": {"android": "https://dc.lft.to/lastmile_qr_scan", "ios": "https://dc.lft.to/lastmile_qr_scan"}, "lon": -77.00435316666666, "fusion_lat": 0.0}, {"name": "05f0847d4360dbbf077b2048f8d25ed8", "fusion_lon": 0.0, "lat": 38.91613683333333, "is_reserved": 0, "type": "electric_scooter", "bike_id": "05f0847d4360dbbf077b2048f8d25ed8", "is_disabled": 0, "rental_uris": {"android": "https://dc.lft.to/lastmile_qr_scan", "ios": "https://dc.lft.to/lastmile_qr_scan"}, "lon": -77.02386266666667, "fusion_lat": 0.0}, {"name": "518189357a03981c13ca164a5a08bbd0", "fusion_lon": 0.0, "lat": 38.874692833333334, "is_reserved": 0, "type": "electric_scooter", "bike_id": "518189357a03981c13ca164a5a08bbd0", "is_disabled": 0, "rental_uris": {"android": "https://dc.lft.to/lastmile_qr_scan", "ios": "https://dc.lft.to/lastmile_qr_scan"}, "lon": -77.00557416666666, "fusion_lat": 0.0}, {"name": "75b5f7a98b1575560f6ff5e69f9ac3a1", "fusion_lon": 0.0, "lat": 38.88121116666667, "is_reserved": 0, "type": "electric_scooter", "bike_id": "75b5f7a98b1575560f6ff5e69f9ac3a1", "is_disabled": 0, "rental_uris": {"android": "https://dc.lft.to/lastmile_qr_scan", "ios": "https://dc.lft.to/lastmile_qr_scan"}, "lon": -77.01645116666667, "fusion_lat": 0.0}, {"name": "c555d700b9df2054f1ec9596d692357c", "fusion_lon": 0.0, "lat": 38.89735, "is_reserved": 0, "type": "electric_scooter", "bike_id": "c555d700b9df2054f1ec9596d692357c", "is_disabled": 0, "rental_uris": {"android": "https://dc.lft.to/lastmile_qr_scan", "ios": "https://dc.lft.to/lastmile_qr_scan"}, "lon": -77.00368766666666, "fusion_lat": 0.0}, {"name": "94a9e385be65a726661c214e450c57d0", "fusion_lon": 0.0, "lat": 38.90266783333333, "is_reserved": 0, "type": "electric_scooter", "bike_id": "94a9e385be65a726661c214e450c57d0", "is_disabled": 0, "rental_uris": {"android": "https://dc.lft.to/lastmile_qr_scan", "ios": "https://dc.lft.to/lastmile_qr_scan"}, "lon": -77.02816416666667, "fusion_lat": 0.0}, {"name": "3349bb38028391c36393a95437cf2e36", "fusion_lon": 0.0, "lat": 38.928831333333335, "is_reserved": 0, "type": "electric_scooter", "bike_id": "3349bb38028391c36393a95437cf2e36", "is_disabled": 0, "rental_uris": {"android": "https://dc.lft.to/lastmile_qr_scan", "ios": "https://dc.lft.to/lastmile_qr_scan"}, "lon": -77.03339116666666, "fusion_lat": 0.0}, {"name": "991f5e35e783333ece7f4df739b8a0f4", "fusion_lon": 0.0, "lat": 38.87663333333333, "is_reserved": 0, "type": "electric_scooter", "bike_id": "991f5e35e783333ece7f4df739b8a0f4", "is_disabled": 0, "rental_uris": {"android": "https://dc.lft.to/lastmile_qr_scan", "ios": "https://dc.lft.to/lastmile_qr_scan"}, "lon": -77.00240533333333, "fusion_lat": 0.0}, {"name": "b19682e24486fd45fa815d0a260b65da", "fusion_lon": 0.0, "lat": 38.92247716666667, "is_reserved": 0, "type": "electric_scooter", "bike_id": "b19682e24486fd45fa815d0a260b65da", "is_disabled": 0, "rental_uris": {"android": "https://dc.lft.to/lastmile_qr_scan", "ios": "https://dc.lft.to/lastmile_qr_scan"}, "lon": -77.03084916666667, "fusion_lat": 0.0}, {"name": "4836ab41a09fba155435db7b2c112caf", "fusion_lon": 0.0, "lat": 38.89223366666667, "is_reserved": 0, "type": "electric_scooter", "bike_id": "4836ab41a09fba155435db7b2c112caf", "is_disabled": 0, "rental_uris": {"android": "https://dc.lft.to/lastmile_qr_scan", "ios": "https://dc.lft.to/lastmile_qr_scan"}, "lon": -77.04858333333334, "fusion_lat": 0.0}, {"name": "ce2b4b1ebd7d2136719ceaea9da5438b", "fusion_lon": 0.0, "lat": 38.87857483333333, "is_reserved": 0, "type": "electric_scooter", "bike_id": "ce2b4b1ebd7d2136719ceaea9da5438b", "is_disabled": 0, "rental_uris": {"android": "https://dc.lft.to/lastmile_qr_scan", "ios": "https://dc.lft.to/lastmile_qr_scan"}, "lon": -77.008162, "fusion_lat": 0.0}, {"name": "3c3df0c0bf6ff455447b90bf71c89d24", "fusion_lon": 0.0, "lat": 38.89741383333333, "is_reserved": 0, "type": "electric_scooter", "bike_id": "3c3df0c0bf6ff455447b90bf71c89d24", "is_disabled": 0, "rental_uris": {"android": "https://dc.lft.to/lastmile_qr_scan", "ios": "https://dc.lft.to/lastmile_qr_scan"}, "lon": -77.00977816666666, "fusion_lat": 0.0}, {"name": "4a5a3cdd023fafd1c1430d904f65e46e", "fusion_lon": 0.0, "lat": 38.909336833333334, "is_reserved": 0, "type": "electric_scooter", "bike_id": "4a5a3cdd023fafd1c1430d904f65e46e", "is_disabled": 0, "rental_uris": {"android": "https://dc.lft.to/lastmile_qr_scan", "ios": "https://dc.lft.to/lastmile_qr_scan"}, "lon": -77.026907, "fusion_lat": 0.0}, {"name": "4252808f216e132ab56695550607cfce", "fusion_lon": 0.0, "lat": 38.896065666666665, "is_reserved": 0, "type": "electric_scooter", "bike_id": "4252808f216e132ab56695550607cfce", "is_disabled": 0, "rental_uris": {"android": "https://dc.lft.to/lastmile_qr_scan", "ios": "https://dc.lft.to/lastmile_qr_scan"}, "lon": -77.05053266666667, "fusion_lat": 0.0}, {"name": "1074d0324140a418c057959cc5140553", "fusion_lon": 0.0, "lat": 38.92247916666667, "is_reserved": 0, "type": "electric_scooter", "bike_id": "1074d0324140a418c057959cc5140553", "is_disabled": 0, "rental_uris": {"android": "https://dc.lft.to/lastmile_qr_scan", "ios": "https://dc.lft.to/lastmile_qr_scan"}, "lon": -77.018376, "fusion_lat": 0.0}, {"name": "cd9badabf11545be7ea81f83f55288c7", "fusion_lon": 0.0, "lat": 38.9216825, "is_reserved": 0, "type": "electric_scooter", "bike_id": "cd9badabf11545be7ea81f83f55288c7", "is_disabled": 0, "rental_uris": {"android": "https://dc.lft.to/lastmile_qr_scan", "ios": "https://dc.lft.to/lastmile_qr_scan"}, "lon": -77.03825816666667, "fusion_lat": 0.0}, {"name": "99daaabf96345f52b77d2362effb4d9c", "fusion_lon": 0.0, "lat": 38.981362, "is_reserved": 0, "type": "electric_scooter", "bike_id": "99daaabf96345f52b77d2362effb4d9c", "is_disabled": 0, "rental_uris": {"android": "https://dc.lft.to/lastmile_qr_scan", "ios": "https://dc.lft.to/lastmile_qr_scan"}, "lon": -77.02227566666667, "fusion_lat": 0.0}, {"name": "d3ccc2db6f8ea93f71e677069fd71307", "fusion_lon": 0.0, "lat": 38.910596166666664, "is_reserved": 0, "type": "electric_scooter", "bike_id": "d3ccc2db6f8ea93f71e677069fd71307", "is_disabled": 0, "rental_uris": {"android": "https://dc.lft.to/lastmile_qr_scan", "ios": "https://dc.lft.to/lastmile_qr_scan"}, "lon": -77.03086183333333, "fusion_lat": 0.0}, {"name": "9b030cfdd0a454a9fd952d5ea1206415", "fusion_lon": 0.0, "lat": 38.895136, "is_reserved": 0, "type": "electric_scooter", "bike_id": "9b030cfdd0a454a9fd952d5ea1206415", "is_disabled": 0, "rental_uris": {"android": "https://dc.lft.to/lastmile_qr_scan", "ios": "https://dc.lft.to/lastmile_qr_scan"}, "lon": -77.0283425, "fusion_lat": 0.0}, {"name": "bed948c2774986ebd4b03c2218dd344c", "fusion_lon": 0.0, "lat": 38.91473466666667, "is_reserved": 0, "type": "electric_scooter", "bike_id": "bed948c2774986ebd4b03c2218dd344c", "is_disabled": 0, "rental_uris": {"android": "https://dc.lft.to/lastmile_qr_scan", "ios": "https://dc.lft.to/lastmile_qr_scan"}, "lon": -77.04502883333333, "fusion_lat": 0.0}, {"name": "955eb9fcfae59d110aef05e59359aa1b", "fusion_lon": 0.0, "lat": 38.9134125, "is_reserved": 0, "type": "electric_scooter", "bike_id": "955eb9fcfae59d110aef05e59359aa1b", "is_disabled": 0, "rental_uris": {"android": "https://dc.lft.to/lastmile_qr_scan", "ios": "https://dc.lft.to/lastmile_qr_scan"}, "lon": -77.0121715, "fusion_lat": 0.0}, {"name": "c90f2c00c633443ccdea59d3cc4f20f0", "fusion_lon": 0.0, "lat": 38.936366166666666, "is_reserved": 0, "type": "electric_scooter", "bike_id": "c90f2c00c633443ccdea59d3cc4f20f0", "is_disabled": 0, "rental_uris": {"android": "https://dc.lft.to/lastmile_qr_scan", "ios": "https://dc.lft.to/lastmile_qr_scan"}, "lon": -77.0588645, "fusion_lat": 0.0}, {"name": "1f7b7044d016480a1a550ca37f21c9af", "fusion_lon": 0.0, "lat": 38.9159845, "is_reserved": 0, "type": "electric_scooter", "bike_id": "1f7b7044d016480a1a550ca37f21c9af", "is_disabled": 0, "rental_uris": {"android": "https://dc.lft.to/lastmile_qr_scan", "ios": "https://dc.lft.to/lastmile_qr_scan"}, "lon": -77.03227666666666, "fusion_lat": 0.0}, {"name": "90c7ed1f8e35cb795e8243b7b7053fb8", "fusion_lon": 0.0, "lat": 38.907460666666665, "is_reserved": 0, "type": "electric_scooter", "bike_id": "90c7ed1f8e35cb795e8243b7b7053fb8", "is_disabled": 0, "rental_uris": {"android": "https://dc.lft.to/lastmile_qr_scan", "ios": "https://dc.lft.to/lastmile_qr_scan"}, "lon": -77.0434285, "fusion_lat": 0.0}, {"name": "454290ba235c2561e5e200eb4d3faaa2", "fusion_lon": 0.0, "lat": 38.9050775, "is_reserved": 0, "type": "electric_scooter", "bike_id": "454290ba235c2561e5e200eb4d3faaa2", "is_disabled": 0, "rental_uris": {"android": "https://dc.lft.to/lastmile_qr_scan", "ios": "https://dc.lft.to/lastmile_qr_scan"}, "lon": -77.03850333333334, "fusion_lat": 0.0}, {"name": "e44b51a06bfab3412352588f5b56705b", "fusion_lon": 0.0, "lat": 38.912493166666664, "is_reserved": 0, "type": "electric_scooter", "bike_id": "e44b51a06bfab3412352588f5b56705b", "is_disabled": 0, "rental_uris": {"android": "https://dc.lft.to/lastmile_qr_scan", "ios": "https://dc.lft.to/lastmile_qr_scan"}, "lon": -77.03417966666666, "fusion_lat": 0.0}, {"name": "c82cc9183923834c0f57bf2de18fceb2", "fusion_lon": 0.0, "lat": 38.9026775, "is_reserved": 0, "type": "electric_scooter", "bike_id": "c82cc9183923834c0f57bf2de18fceb2", "is_disabled": 0, "rental_uris": {"android": "https://dc.lft.to/lastmile_qr_scan", "ios": "https://dc.lft.to/lastmile_qr_scan"}, "lon": -77.01768516666667, "fusion_lat": 0.0}, {"name": "908a76d96ebd884dd747ae9e4f5645aa", "fusion_lon": 0.0, "lat": 38.90548183333333, "is_reserved": 0, "type": "electric_scooter", "bike_id": "908a76d96ebd884dd747ae9e4f5645aa", "is_disabled": 0, "rental_uris": {"android": "https://dc.lft.to/lastmile_qr_scan", "ios": "https://dc.lft.to/lastmile_qr_scan"}, "lon": -77.04653316666666, "fusion_lat": 0.0}, {"name": "69f1eb7aaaa4b084808a7bcd63523313", "fusion_lon": 0.0, "lat": 38.922306, "is_reserved": 0, "type": "electric_scooter", "bike_id": "69f1eb7aaaa4b084808a7bcd63523313", "is_disabled": 0, "rental_uris": {"android": "https://dc.lft.to/lastmile_qr_scan", "ios": "https://dc.lft.to/lastmile_qr_scan"}, "lon": -77.023324, "fusion_lat": 0.0}, {"name": "6ef2e07e9266aaacf84541d9aa5626d0", "fusion_lon": 0.0, "lat": 38.90573333333333, "is_reserved": 0, "type": "electric_scooter", "bike_id": "6ef2e07e9266aaacf84541d9aa5626d0", "is_disabled": 0, "rental_uris": {"android": "https://dc.lft.to/lastmile_qr_scan", "ios": "https://dc.lft.to/lastmile_qr_scan"}, "lon": -77.04472133333333, "fusion_lat": 0.0}, {"name": "670518c8beaea8d69245fb8e9b5eab02", "fusion_lon": 0.0, "lat": 38.914268, "is_reserved": 0, "type": "electric_scooter", "bike_id": "670518c8beaea8d69245fb8e9b5eab02", "is_disabled": 0, "rental_uris": {"android": "https://dc.lft.to/lastmile_qr_scan", "ios": "https://dc.lft.to/lastmile_qr_scan"}, "lon": -77.04496133333333, "fusion_lat": 0.0}, {"name": "3d24c862c8f5b96dff8addce46004e0d", "fusion_lon": 0.0, "lat": 38.9290555, "is_reserved": 0, "type": "electric_scooter", "bike_id": "3d24c862c8f5b96dff8addce46004e0d", "is_disabled": 0, "rental_uris": {"android": "https://dc.lft.to/lastmile_qr_scan", "ios": "https://dc.lft.to/lastmile_qr_scan"}, "lon": -77.0361035, "fusion_lat": 0.0}, {"name": "cd0abe0bff990adf36ae24d982725974", "fusion_lon": 0.0, "lat": 38.8875735, "is_reserved": 0, "type": "electric_scooter", "bike_id": "cd0abe0bff990adf36ae24d982725974", "is_disabled": 0, "rental_uris": {"android": "https://dc.lft.to/lastmile_qr_scan", "ios": "https://dc.lft.to/lastmile_qr_scan"}, "lon": -76.95590333333334, "fusion_lat": 0.0}, {"name": "aee39fadcf3245a6e28b097632f0d202", "fusion_lon": 0.0, "lat": 38.947817666666666, "is_reserved": 0, "type": "electric_bike", "bike_id": "aee39fadcf3245a6e28b097632f0d202", "is_disabled": 0, "rental_uris": {"android": "https://dc.lft.to/lastmile_qr_scan", "ios": "https://dc.lft.to/lastmile_qr_scan"}, "lon": -76.9720995, "fusion_lat": 0.0}, {"name": "04bf9d96c78e683ee51892b2a5212615", "fusion_lon": 0.0, "lat": 38.91106666666667, "is_reserved": 0, "type": "electric_scooter", "bike_id": "04bf9d96c78e683ee51892b2a5212615", "is_disabled": 0, "rental_uris": {"android": "https://dc.lft.to/lastmile_qr_scan", "ios": "https://dc.lft.to/lastmile_qr_scan"}, "lon": -77.03825616666667, "fusion_lat": 0.0}, {"name": "2b9eea6f9b21c12aa6b5c330ed74f761", "fusion_lon": 0.0, "lat": 39.02434783333333, "is_reserved": 0, "type": "electric_bike", "bike_id": "2b9eea6f9b21c12aa6b5c330ed74f761", "is_disabled": 0, "rental_uris": {"android": "https://dc.lft.to/lastmile_qr_scan", "ios": "https://dc.lft.to/lastmile_qr_scan"}, "lon": -77.13098716666667, "fusion_lat": 0.0}, {"name": "945cb5ee34c9cf127b2bbad947a6f7c5", "fusion_lon": 0.0, "lat": 38.90474066666667, "is_reserved": 0, "type": "electric_scooter", "bike_id": "945cb5ee34c9cf127b2bbad947a6f7c5", "is_disabled": 0, "rental_uris": {"android": "https://dc.lft.to/lastmile_qr_scan", "ios": "https://dc.lft.to/lastmile_qr_scan"}, "lon": -77.05332583333333, "fusion_lat": 0.0}, {"name": "62b96ff65c7dd642048e10b2d96e7540", "fusion_lon": 0.0, "lat": 38.864241666666665, "is_reserved": 0, "type": "electric_scooter", "bike_id": "62b96ff65c7dd642048e10b2d96e7540", "is_disabled": 0, "rental_uris": {"android": "https://dc.lft.to/lastmile_qr_scan", "ios": "https://dc.lft.to/lastmile_qr_scan"}, "lon": -76.97443783333334, "fusion_lat": 0.0}, {"name": "3dc0ac79d8ac3f4e3483433efebe9571", "fusion_lon": 0.0, "lat": 38.902066166666664, "is_reserved": 0, "type": "electric_scooter", "bike_id": "3dc0ac79d8ac3f4e3483433efebe9571", "is_disabled": 0, "rental_uris": {"android": "https://dc.lft.to/lastmile_qr_scan", "ios": "https://dc.lft.to/lastmile_qr_scan"}, "lon": -77.02376783333334, "fusion_lat": 0.0}, {"name": "874b74d346af6da0edf25a1065c8c89c", "fusion_lon": 0.0, "lat": 38.92006716666667, "is_reserved": 0, "type": "electric_scooter", "bike_id": "874b74d346af6da0edf25a1065c8c89c", "is_disabled": 0, "rental_uris": {"android": "https://dc.lft.to/lastmile_qr_scan", "ios": "https://dc.lft.to/lastmile_qr_scan"}, "lon": -77.02139783333334, "fusion_lat": 0.0}, {"name": "1fc1eaf87624a51bab195750205ce1ef", "fusion_lon": 0.0, "lat": 38.90145783333333, "is_reserved": 0, "type": "electric_scooter", "bike_id": "1fc1eaf87624a51bab195750205ce1ef", "is_disabled": 0, "rental_uris": {"android": "https://dc.lft.to/lastmile_qr_scan", "ios": "https://dc.lft.to/lastmile_qr_scan"}, "lon": -76.92982533333333, "fusion_lat": 0.0}, {"name": "e651e01a2408ee49eeb80f4e1159e2d0", "fusion_lon": 0.0, "lat": 38.907828, "is_reserved": 0, "type": "electric_scooter", "bike_id": "e651e01a2408ee49eeb80f4e1159e2d0", "is_disabled": 0, "rental_uris": {"android": "https://dc.lft.to/lastmile_qr_scan", "ios": "https://dc.lft.to/lastmile_qr_scan"}, "lon": -77.03828233333333, "fusion_lat": 0.0}, {"name": "bad217d79feb9412bcfd7adc4ad7327d", "fusion_lon": 0.0, "lat": 38.879971833333336, "is_reserved": 0, "type": "electric_scooter", "bike_id": "bad217d79feb9412bcfd7adc4ad7327d", "is_disabled": 0, "rental_uris": {"android": "https://dc.lft.to/lastmile_qr_scan", "ios": "https://dc.lft.to/lastmile_qr_scan"}, "lon": -76.98547183333334, "fusion_lat": 0.0}, {"name": "94a53821f5d8d05e08235af6a943773b", "fusion_lon": 0.0, "lat": 38.92478366666667, "is_reserved": 0, "type": "electric_scooter", "bike_id": "94a53821f5d8d05e08235af6a943773b", "is_disabled": 0, "rental_uris": {"android": "https://dc.lft.to/lastmile_qr_scan", "ios": "https://dc.lft.to/lastmile_qr_scan"}, "lon": -77.03178083333333, "fusion_lat": 0.0}, {"name": "bbd33e6904b38c57bd46f39cf7644538", "fusion_lon": 0.0, "lat": 38.9167835, "is_reserved": 0, "type": "electric_scooter", "bike_id": "bbd33e6904b38c57bd46f39cf7644538", "is_disabled": 0, "rental_uris": {"android": "https://dc.lft.to/lastmile_qr_scan", "ios": "https://dc.lft.to/lastmile_qr_scan"}, "lon": -77.0238865, "fusion_lat": 0.0}, {"name": "1426ec2154ac55f84b2d6b8f43017ba8", "fusion_lon": 0.0, "lat": 38.874196, "is_reserved": 0, "type": "electric_scooter", "bike_id": "1426ec2154ac55f84b2d6b8f43017ba8", "is_disabled": 0, "rental_uris": {"android": "https://dc.lft.to/lastmile_qr_scan", "ios": "https://dc.lft.to/lastmile_qr_scan"}, "lon": -76.96774733333334, "fusion_lat": 0.0}, {"name": "a122754c91187d100010e720d20690d2", "fusion_lon": 0.0, "lat": 38.973983833333335, "is_reserved": 0, "type": "electric_bike", "bike_id": "a122754c91187d100010e720d20690d2", "is_disabled": 0, "rental_uris": {"android": "https://dc.lft.to/lastmile_qr_scan", "ios": "https://dc.lft.to/lastmile_qr_scan"}, "lon": -77.0645365, "fusion_lat": 0.0}, {"name": "eceb53183b91612383a52a5f4dca024d", "fusion_lon": 0.0, "lat": 38.92771416666667, "is_reserved": 0, "type": "electric_scooter", "bike_id": "eceb53183b91612383a52a5f4dca024d", "is_disabled": 0, "rental_uris": {"android": "https://dc.lft.to/lastmile_qr_scan", "ios": "https://dc.lft.to/lastmile_qr_scan"}, "lon": -77.04062383333333, "fusion_lat": 0.0}, {"name": "b32756ce67629a32835a3c8269df9a4d", "fusion_lon": 0.0, "lat": 38.91549233333333, "is_reserved": 0, "type": "electric_scooter", "bike_id": "b32756ce67629a32835a3c8269df9a4d", "is_disabled": 0, "rental_uris": {"android": "https://dc.lft.to/lastmile_qr_scan", "ios": "https://dc.lft.to/lastmile_qr_scan"}, "lon": -77.0531525, "fusion_lat": 0.0}, {"name": "dbfff5c01e1f06653ea604c5a58d90fe", "fusion_lon": 0.0, "lat": 38.915523666666665, "is_reserved": 0, "type": "electric_scooter", "bike_id": "dbfff5c01e1f06653ea604c5a58d90fe", "is_disabled": 0, "rental_uris": {"android": "https://dc.lft.to/lastmile_qr_scan", "ios": "https://dc.lft.to/lastmile_qr_scan"}, "lon": -77.02143283333334, "fusion_lat": 0.0}, {"name": "c6b107b75bd363326c7a1d9bad59bc6e", "fusion_lon": 0.0, "lat": 38.92867783333333, "is_reserved": 0, "type": "electric_scooter", "bike_id": "c6b107b75bd363326c7a1d9bad59bc6e", "is_disabled": 0, "rental_uris": {"android": "https://dc.lft.to/lastmile_qr_scan", "ios": "https://dc.lft.to/lastmile_qr_scan"}, "lon": -77.02169466666666, "fusion_lat": 0.0}, {"name": "ccf54c1d53affa151b1b3e9f079a0894", "fusion_lon": 0.0, "lat": 38.854343166666666, "is_reserved": 0, "type": "electric_bike", "bike_id": "ccf54c1d53affa151b1b3e9f079a0894", "is_disabled": 0, "rental_uris": {"android": "https://dc.lft.to/lastmile_qr_scan", "ios": "https://dc.lft.to/lastmile_qr_scan"}, "lon": -77.08307216666667, "fusion_lat": 0.0}, {"name": "7acb8ec61c0f2f46c40e15fcdf0ccf92", "fusion_lon": 0.0, "lat": 38.90698016666666, "is_reserved": 0, "type": "electric_scooter", "bike_id": "7acb8ec61c0f2f46c40e15fcdf0ccf92", "is_disabled": 0, "rental_uris": {"android": "https://dc.lft.to/lastmile_qr_scan", "ios": "https://dc.lft.to/lastmile_qr_scan"}, "lon": -77.03520583333334, "fusion_lat": 0.0}, {"name": "74f38116d2f0fc16ff76f8daf856fe1c", "fusion_lon": 0.0, "lat": 38.923252833333336, "is_reserved": 0, "type": "electric_scooter", "bike_id": "74f38116d2f0fc16ff76f8daf856fe1c", "is_disabled": 0, "rental_uris": {"android": "https://dc.lft.to/lastmile_qr_scan", "ios": "https://dc.lft.to/lastmile_qr_scan"}, "lon": -77.01959333333333, "fusion_lat": 0.0}, {"name": "c1b9464410aad4eaca3ee42259c6849b", "fusion_lon": 0.0, "lat": 38.90150116666667, "is_reserved": 0, "type": "electric_scooter", "bike_id": "c1b9464410aad4eaca3ee42259c6849b", "is_disabled": 0, "rental_uris": {"android": "https://dc.lft.to/lastmile_qr_scan", "ios": "https://dc.lft.to/lastmile_qr_scan"}, "lon": -77.04408833333333, "fusion_lat": 0.0}, {"name": "e20b29835dc4bf2083ea4e38b878e240", "fusion_lon": 0.0, "lat": 38.875974, "is_reserved": 0, "type": "electric_scooter", "bike_id": "e20b29835dc4bf2083ea4e38b878e240", "is_disabled": 0, "rental_uris": {"android": "https://dc.lft.to/lastmile_qr_scan", "ios": "https://dc.lft.to/lastmile_qr_scan"}, "lon": -77.00090616666667, "fusion_lat": 0.0}, {"name": "3a3f178aeda6f675b387b9dbd34037c4", "fusion_lon": 0.0, "lat": 38.91838966666667, "is_reserved": 0, "type": "electric_scooter", "bike_id": "3a3f178aeda6f675b387b9dbd34037c4", "is_disabled": 0, "rental_uris": {"android": "https://dc.lft.to/lastmile_qr_scan", "ios": "https://dc.lft.to/lastmile_qr_scan"}, "lon": -77.031827, "fusion_lat": 0.0}, {"name": "d8dce5366a0d060d5f4db8f7f15296f5", "fusion_lon": 0.0, "lat": 38.900134, "is_reserved": 0, "type": "electric_scooter", "bike_id": "d8dce5366a0d060d5f4db8f7f15296f5", "is_disabled": 0, "rental_uris": {"android": "https://dc.lft.to/lastmile_qr_scan", "ios": "https://dc.lft.to/lastmile_qr_scan"}, "lon": -77.00684383333333, "fusion_lat": 0.0}, {"name": "29dfc88e02d724075824044e795c3de4", "fusion_lon": 0.0, "lat": 38.92876066666667, "is_reserved": 0, "type": "electric_scooter", "bike_id": "29dfc88e02d724075824044e795c3de4", "is_disabled": 0, "rental_uris": {"android": "https://dc.lft.to/lastmile_qr_scan", "ios": "https://dc.lft.to/lastmile_qr_scan"}, "lon": -77.013871, "fusion_lat": 0.0}, {"name": "9f92fc56d1c3921654baca69063e88cb", "fusion_lon": 0.0, "lat": 38.90487666666667, "is_reserved": 0, "type": "electric_scooter", "bike_id": "9f92fc56d1c3921654baca69063e88cb", "is_disabled": 0, "rental_uris": {"android": "https://dc.lft.to/lastmile_qr_scan", "ios": "https://dc.lft.to/lastmile_qr_scan"}, "lon": -76.949584, "fusion_lat": 0.0}, {"name": "01848014f131411e77729ae5ee3f6d3c", "fusion_lon": 0.0, "lat": 38.9215085, "is_reserved": 0, "type": "electric_scooter", "bike_id": "01848014f131411e77729ae5ee3f6d3c", "is_disabled": 0, "rental_uris": {"android": "https://dc.lft.to/lastmile_qr_scan", "ios": "https://dc.lft.to/lastmile_qr_scan"}, "lon": -77.018073, "fusion_lat": 0.0}, {"name": "cf0014affcce7b0f86764fd13330b4d3", "fusion_lon": 0.0, "lat": 38.9517205, "is_reserved": 0, "type": "electric_bike", "bike_id": "cf0014affcce7b0f86764fd13330b4d3", "is_disabled": 0, "rental_uris": {"android": "https://dc.lft.to/lastmile_qr_scan", "ios": "https://dc.lft.to/lastmile_qr_scan"}, "lon": -76.977286, "fusion_lat": 0.0}, {"name": "ac4de5e7267ebdbb7d95ccebdd0820ef", "fusion_lon": 0.0, "lat": 38.965039166666664, "is_reserved": 0, "type": "electric_bike", "bike_id": "ac4de5e7267ebdbb7d95ccebdd0820ef", "is_disabled": 0, "rental_uris": {"android": "https://dc.lft.to/lastmile_qr_scan", "ios": "https://dc.lft.to/lastmile_qr_scan"}, "lon": -77.02001733333333, "fusion_lat": 0.0}, {"name": "3aee6ccbec114f2976d357f815a2b392", "fusion_lon": 0.0, "lat": 38.909574, "is_reserved": 0, "type": "electric_scooter", "bike_id": "3aee6ccbec114f2976d357f815a2b392", "is_disabled": 0, "rental_uris": {"android": "https://dc.lft.to/lastmile_qr_scan", "ios": "https://dc.lft.to/lastmile_qr_scan"}, "lon": -77.02686, "fusion_lat": 0.0}, {"name": "07494d802b7400fcbcb0623bf6e4023d", "fusion_lon": 0.0, "lat": 38.8971955, "is_reserved": 0, "type": "electric_scooter", "bike_id": "07494d802b7400fcbcb0623bf6e4023d", "is_disabled": 0, "rental_uris": {"android": "https://dc.lft.to/lastmile_qr_scan", "ios": "https://dc.lft.to/lastmile_qr_scan"}, "lon": -76.9734375, "fusion_lat": 0.0}, {"name": "7e3283bdd52efbc5292bb28a3cfa3a0d", "fusion_lon": 0.0, "lat": 38.90752833333333, "is_reserved": 0, "type": "electric_scooter", "bike_id": "7e3283bdd52efbc5292bb28a3cfa3a0d", "is_disabled": 0, "rental_uris": {"android": "https://dc.lft.to/lastmile_qr_scan", "ios": "https://dc.lft.to/lastmile_qr_scan"}, "lon": -77.03205466666667, "fusion_lat": 0.0}, {"name": "65908241da13197c6cc518d0b5fb5588", "fusion_lon": 0.0, "lat": 38.878709, "is_reserved": 0, "type": "electric_scooter", "bike_id": "65908241da13197c6cc518d0b5fb5588", "is_disabled": 0, "rental_uris": {"android": "https://dc.lft.to/lastmile_qr_scan", "ios": "https://dc.lft.to/lastmile_qr_scan"}, "lon": -77.023029, "fusion_lat": 0.0}, {"name": "73616cd1e332d6b727e5a39ab888f78f", "fusion_lon": 0.0, "lat": 38.92345816666667, "is_reserved": 0, "type": "electric_scooter", "bike_id": "73616cd1e332d6b727e5a39ab888f78f", "is_disabled": 0, "rental_uris": {"android": "https://dc.lft.to/lastmile_qr_scan", "ios": "https://dc.lft.to/lastmile_qr_scan"}, "lon": -77.05083466666666, "fusion_lat": 0.0}, {"name": "967eac16a3a90c07082e42631904e913", "fusion_lon": 0.0, "lat": 38.924285166666664, "is_reserved": 0, "type": "electric_scooter", "bike_id": "967eac16a3a90c07082e42631904e913", "is_disabled": 0, "rental_uris": {"android": "https://dc.lft.to/lastmile_qr_scan", "ios": "https://dc.lft.to/lastmile_qr_scan"}, "lon": -77.05051783333333, "fusion_lat": 0.0}, {"name": "32ab7726046e3c437e77b6bd2dbe85f4", "fusion_lon": 0.0, "lat": 38.86244266666667, "is_reserved": 0, "type": "electric_scooter", "bike_id": "32ab7726046e3c437e77b6bd2dbe85f4", "is_disabled": 0, "rental_uris": {"android": "https://dc.lft.to/lastmile_qr_scan", "ios": "https://dc.lft.to/lastmile_qr_scan"}, "lon": -76.994955, "fusion_lat": 0.0}, {"name": "648e7a5e6f61eca0752fdfa6575421a4", "fusion_lon": 0.0, "lat": 38.9836315, "is_reserved": 0, "type": "electric_bike", "bike_id": "648e7a5e6f61eca0752fdfa6575421a4", "is_disabled": 0, "rental_uris": {"android": "https://dc.lft.to/lastmile_qr_scan", "ios": "https://dc.lft.to/lastmile_qr_scan"}, "lon": -76.97212366666666, "fusion_lat": 0.0}, {"name": "8a424640c164f64eebe2166f098f4f4b", "fusion_lon": 0.0, "lat": 38.91747766666667, "is_reserved": 0, "type": "electric_scooter", "bike_id": "8a424640c164f64eebe2166f098f4f4b", "is_disabled": 0, "rental_uris": {"android": "https://dc.lft.to/lastmile_qr_scan", "ios": "https://dc.lft.to/lastmile_qr_scan"}, "lon": -77.01459583333333, "fusion_lat": 0.0}, {"name": "2523acc5533fde988324e63436b9f28d", "fusion_lon": 0.0, "lat": 38.93666366666667, "is_reserved": 0, "type": "electric_scooter", "bike_id": "2523acc5533fde988324e63436b9f28d", "is_disabled": 0, "rental_uris": {"android": "https://dc.lft.to/lastmile_qr_scan", "ios": "https://dc.lft.to/lastmile_qr_scan"}, "lon": -77.03571, "fusion_lat": 0.0}, {"name": "c9e39969b01b25d42ee859070bad041d", "fusion_lon": 0.0, "lat": 38.902448, "is_reserved": 0, "type": "electric_scooter", "bike_id": "c9e39969b01b25d42ee859070bad041d", "is_disabled": 0, "rental_uris": {"android": "https://dc.lft.to/lastmile_qr_scan", "ios": "https://dc.lft.to/lastmile_qr_scan"}, "lon": -77.04382733333334, "fusion_lat": 0.0}, {"name": "036be7871a596e8e5b3bb9fb07cecf0a", "fusion_lon": 0.0, "lat": 38.95742116666667, "is_reserved": 0, "type": "electric_scooter", "bike_id": "036be7871a596e8e5b3bb9fb07cecf0a", "is_disabled": 0, "rental_uris": {"android": "https://dc.lft.to/lastmile_qr_scan", "ios": "https://dc.lft.to/lastmile_qr_scan"}, "lon": -77.020663, "fusion_lat": 0.0}, {"name": "cddf5f5ee5cb46c92536da8b95f81bf0", "fusion_lon": 0.0, "lat": 38.831396166666664, "is_reserved": 0, "type": "electric_scooter", "bike_id": "cddf5f5ee5cb46c92536da8b95f81bf0", "is_disabled": 0, "rental_uris": {"android": "https://dc.lft.to/lastmile_qr_scan", "ios": "https://dc.lft.to/lastmile_qr_scan"}, "lon": -77.051287, "fusion_lat": 0.0}, {"name": "44099ed52b65513862d647e09e22deb4", "fusion_lon": 0.0, "lat": 38.91826316666667, "is_reserved": 0, "type": "electric_scooter", "bike_id": "44099ed52b65513862d647e09e22deb4", "is_disabled": 0, "rental_uris": {"android": "https://dc.lft.to/lastmile_qr_scan", "ios": "https://dc.lft.to/lastmile_qr_scan"}, "lon": -77.0271095, "fusion_lat": 0.0}, {"name": "09649845038d24fc4627fd3f6a9c7559", "fusion_lon": 0.0, "lat": 38.92108666666667, "is_reserved": 0, "type": "electric_scooter", "bike_id": "09649845038d24fc4627fd3f6a9c7559", "is_disabled": 0, "rental_uris": {"android": "https://dc.lft.to/lastmile_qr_scan", "ios": "https://dc.lft.to/lastmile_qr_scan"}, "lon": -77.0205105, "fusion_lat": 0.0}, {"name": "4ed2a80bb4492fc4be9e6073ae6db9c2", "fusion_lon": 0.0, "lat": 38.942214666666665, "is_reserved": 0, "type": "electric_bike", "bike_id": "4ed2a80bb4492fc4be9e6073ae6db9c2", "is_disabled": 0, "rental_uris": {"android": "https://dc.lft.to/lastmile_qr_scan", "ios": "https://dc.lft.to/lastmile_qr_scan"}, "lon": -76.9662055, "fusion_lat": 0.0}, {"name": "d60d1b57efc5de052de4db8fcf535d46", "fusion_lon": 0.0, "lat": 38.929655, "is_reserved": 0, "type": "electric_bike", "bike_id": "d60d1b57efc5de052de4db8fcf535d46", "is_disabled": 0, "rental_uris": {"android": "https://dc.lft.to/lastmile_qr_scan", "ios": "https://dc.lft.to/lastmile_qr_scan"}, "lon": -77.18563233333333, "fusion_lat": 0.0}, {"name": "081c7f5d5abcc9a7b9d75f7cc34aa5cd", "fusion_lon": 0.0, "lat": 38.920336666666664, "is_reserved": 0, "type": "electric_scooter", "bike_id": "081c7f5d5abcc9a7b9d75f7cc34aa5cd", "is_disabled": 0, "rental_uris": {"android": "https://dc.lft.to/lastmile_qr_scan", "ios": "https://dc.lft.to/lastmile_qr_scan"}, "lon": -77.0258335, "fusion_lat": 0.0}, {"name": "d8ceb0f7222578c5fafa15efbba0f73d", "fusion_lon": 0.0, "lat": 39.0550065, "is_reserved": 0, "type": "electric_bike", "bike_id": "d8ceb0f7222578c5fafa15efbba0f73d", "is_disabled": 0, "rental_uris": {"android": "https://dc.lft.to/lastmile_qr_scan", "ios": "https://dc.lft.to/lastmile_qr_scan"}, "lon": -77.046504, "fusion_lat": 0.0}, {"name": "fb672c46a553ea8f9955fff249f8be3f", "fusion_lon": 0.0, "lat": 38.924549, "is_reserved": 0, "type": "electric_scooter", "bike_id": "fb672c46a553ea8f9955fff249f8be3f", "is_disabled": 0, "rental_uris": {"android": "https://dc.lft.to/lastmile_qr_scan", "ios": "https://dc.lft.to/lastmile_qr_scan"}, "lon": -77.0782355, "fusion_lat": 0.0}, {"name": "14cc94bf507192e6b44eb4030ee8925c", "fusion_lon": 0.0, "lat": 38.888077333333335, "is_reserved": 0, "type": "electric_bike", "bike_id": "14cc94bf507192e6b44eb4030ee8925c", "is_disabled": 0, "rental_uris": {"android": "https://dc.lft.to/lastmile_qr_scan", "ios": "https://dc.lft.to/lastmile_qr_scan"}, "lon": -77.12634483333333, "fusion_lat": 0.0}, {"name": "68671f02b5e37c824f20a859721c5fdc", "fusion_lon": 0.0, "lat": 38.90495516666667, "is_reserved": 0, "type": "electric_scooter", "bike_id": "68671f02b5e37c824f20a859721c5fdc", "is_disabled": 0, "rental_uris": {"android": "https://dc.lft.to/lastmile_qr_scan", "ios": "https://dc.lft.to/lastmile_qr_scan"}, "lon": -77.01999483333333, "fusion_lat": 0.0}, {"name": "a6594ddf50abe731127e73f6aa004eef", "fusion_lon": 0.0, "lat": 38.88607916666667, "is_reserved": 0, "type": "electric_scooter", "bike_id": "a6594ddf50abe731127e73f6aa004eef", "is_disabled": 0, "rental_uris": {"android": "https://dc.lft.to/lastmile_qr_scan", "ios": "https://dc.lft.to/lastmile_qr_scan"}, "lon": -76.99509183333333, "fusion_lat": 0.0}, {"name": "cbe59b99001ec1c40bc1f1209f80a696", "fusion_lon": 0.0, "lat": 38.902699, "is_reserved": 0, "type": "electric_scooter", "bike_id": "cbe59b99001ec1c40bc1f1209f80a696", "is_disabled": 0, "rental_uris": {"android": "https://dc.lft.to/lastmile_qr_scan", "ios": "https://dc.lft.to/lastmile_qr_scan"}, "lon": -77.05797983333333, "fusion_lat": 0.0}, {"name": "c2a5f139a0ab76524587e28d59ea7898", "fusion_lon": 0.0, "lat": 38.92292033333333, "is_reserved": 0, "type": "electric_scooter", "bike_id": "c2a5f139a0ab76524587e28d59ea7898", "is_disabled": 0, "rental_uris": {"android": "https://dc.lft.to/lastmile_qr_scan", "ios": "https://dc.lft.to/lastmile_qr_scan"}, "lon": -77.02962583333333, "fusion_lat": 0.0}, {"name": "06b11f9482a99b9d7c477540fc15cbb4", "fusion_lon": 0.0, "lat": 38.89618266666667, "is_reserved": 0, "type": "electric_scooter", "bike_id": "06b11f9482a99b9d7c477540fc15cbb4", "is_disabled": 0, "rental_uris": {"android": "https://dc.lft.to/lastmile_qr_scan", "ios": "https://dc.lft.to/lastmile_qr_scan"}, "lon": -77.04468533333333, "fusion_lat": 0.0}, {"name": "496b504d1cd47ee420438e1e79dce61e", "fusion_lon": 0.0, "lat": 38.91105966666667, "is_reserved": 0, "type": "electric_scooter", "bike_id": "496b504d1cd47ee420438e1e79dce61e", "is_disabled": 0, "rental_uris": {"android": "https://dc.lft.to/lastmile_qr_scan", "ios": "https://dc.lft.to/lastmile_qr_scan"}, "lon": -77.04359516666666, "fusion_lat": 0.0}, {"name": "2945a8d96864441b85d65196c78db19e", "fusion_lon": 0.0, "lat": 38.9282225, "is_reserved": 0, "type": "electric_scooter", "bike_id": "2945a8d96864441b85d65196c78db19e", "is_disabled": 0, "rental_uris": {"android": "https://dc.lft.to/lastmile_qr_scan", "ios": "https://dc.lft.to/lastmile_qr_scan"}, "lon": -77.03636083333333, "fusion_lat": 0.0}, {"name": "9dea968d9e5e32adf9c99fd036b491f9", "fusion_lon": 0.0, "lat": 38.933222666666666, "is_reserved": 0, "type": "electric_scooter", "bike_id": "9dea968d9e5e32adf9c99fd036b491f9", "is_disabled": 0, "rental_uris": {"android": "https://dc.lft.to/lastmile_qr_scan", "ios": "https://dc.lft.to/lastmile_qr_scan"}, "lon": -77.03449166666667, "fusion_lat": 0.0}, {"name": "3e1f220597373eca5fa83248aed54af1", "fusion_lon": 0.0, "lat": 38.905225, "is_reserved": 0, "type": "electric_scooter", "bike_id": "3e1f220597373eca5fa83248aed54af1", "is_disabled": 0, "rental_uris": {"android": "https://dc.lft.to/lastmile_qr_scan", "ios": "https://dc.lft.to/lastmile_qr_scan"}, "lon": -76.9808435, "fusion_lat": 0.0}, {"name": "0a6282641ecb7d897114c99a4144cde2", "fusion_lon": 0.0, "lat": 38.935132833333334, "is_reserved": 0, "type": "electric_scooter", "bike_id": "0a6282641ecb7d897114c99a4144cde2", "is_disabled": 0, "rental_uris": {"android": "https://dc.lft.to/lastmile_qr_scan", "ios": "https://dc.lft.to/lastmile_qr_scan"}, "lon": -77.03287766666666, "fusion_lat": 0.0}, {"name": "74f8cb86869420128daea9eeff4f3f15", "fusion_lon": 0.0, "lat": 38.8953825, "is_reserved": 0, "type": "electric_scooter", "bike_id": "74f8cb86869420128daea9eeff4f3f15", "is_disabled": 0, "rental_uris": {"android": "https://dc.lft.to/lastmile_qr_scan", "ios": "https://dc.lft.to/lastmile_qr_scan"}, "lon": -76.92955066666667, "fusion_lat": 0.0}, {"name": "d18d7859c6da5aac81302c861bb5c722", "fusion_lon": 0.0, "lat": 38.906318666666664, "is_reserved": 0, "type": "electric_scooter", "bike_id": "d18d7859c6da5aac81302c861bb5c722", "is_disabled": 0, "rental_uris": {"android": "https://dc.lft.to/lastmile_qr_scan", "ios": "https://dc.lft.to/lastmile_qr_scan"}, "lon": -77.038553, "fusion_lat": 0.0}, {"name": "3ec984df1fd240fd4d7b6a17d585ce40", "fusion_lon": 0.0, "lat": 38.923153666666664, "is_reserved": 0, "type": "electric_scooter", "bike_id": "3ec984df1fd240fd4d7b6a17d585ce40", "is_disabled": 0, "rental_uris": {"android": "https://dc.lft.to/lastmile_qr_scan", "ios": "https://dc.lft.to/lastmile_qr_scan"}, "lon": -77.04171, "fusion_lat": 0.0}, {"name": "bd852a5d89c9ba3061f2d4aef9437aef", "fusion_lon": 0.0, "lat": 38.85786366666667, "is_reserved": 0, "type": "electric_bike", "bike_id": "bd852a5d89c9ba3061f2d4aef9437aef", "is_disabled": 0, "rental_uris": {"android": "https://dc.lft.to/lastmile_qr_scan", "ios": "https://dc.lft.to/lastmile_qr_scan"}, "lon": -77.12018183333333, "fusion_lat": 0.0}, {"name": "8eec36ea55d6887853864b744a056fb6", "fusion_lon": 0.0, "lat": 38.908262666666666, "is_reserved": 0, "type": "electric_scooter", "bike_id": "8eec36ea55d6887853864b744a056fb6", "is_disabled": 0, "rental_uris": {"android": "https://dc.lft.to/lastmile_qr_scan", "ios": "https://dc.lft.to/lastmile_qr_scan"}, "lon": -77.00111216666667, "fusion_lat": 0.0}, {"name": "f6ee68c8e9b19a5528120e267882f714", "fusion_lon": 0.0, "lat": 38.924040166666664, "is_reserved": 0, "type": "electric_scooter", "bike_id": "f6ee68c8e9b19a5528120e267882f714", "is_disabled": 0, "rental_uris": {"android": "https://dc.lft.to/lastmile_qr_scan", "ios": "https://dc.lft.to/lastmile_qr_scan"}, "lon": -77.05061183333333, "fusion_lat": 0.0}, {"name": "85cdf6350689c76078bd5ecb1abc403c", "fusion_lon": 0.0, "lat": 38.862658, "is_reserved": 0, "type": "electric_bike", "bike_id": "85cdf6350689c76078bd5ecb1abc403c", "is_disabled": 0, "rental_uris": {"android": "https://dc.lft.to/lastmile_qr_scan", "ios": "https://dc.lft.to/lastmile_qr_scan"}, "lon": -76.98347466666667, "fusion_lat": 0.0}, {"name": "c8c1f5cd52655cb673419650287b6ef4", "fusion_lon": 0.0, "lat": 38.916726, "is_reserved": 0, "type": "electric_scooter", "bike_id": "c8c1f5cd52655cb673419650287b6ef4", "is_disabled": 0, "rental_uris": {"android": "https://dc.lft.to/lastmile_qr_scan", "ios": "https://dc.lft.to/lastmile_qr_scan"}, "lon": -77.02330233333333, "fusion_lat": 0.0}, {"name": "f001846f85dbd16816cec4e81d20cce9", "fusion_lon": 0.0, "lat": 38.900099833333336, "is_reserved": 0, "type": "electric_scooter", "bike_id": "f001846f85dbd16816cec4e81d20cce9", "is_disabled": 0, "rental_uris": {"android": "https://dc.lft.to/lastmile_qr_scan", "ios": "https://dc.lft.to/lastmile_qr_scan"}, "lon": -77.026218, "fusion_lat": 0.0}, {"name": "7da7ef0a2ce57684f697ef8c97899e87", "fusion_lon": 0.0, "lat": 38.9093615, "is_reserved": 0, "type": "electric_scooter", "bike_id": "7da7ef0a2ce57684f697ef8c97899e87", "is_disabled": 0, "rental_uris": {"android": "https://dc.lft.to/lastmile_qr_scan", "ios": "https://dc.lft.to/lastmile_qr_scan"}, "lon": -77.0269395, "fusion_lat": 0.0}, {"name": "2243499f01ec3c478e49c10253036e17", "fusion_lon": 0.0, "lat": 38.905831, "is_reserved": 0, "type": "electric_scooter", "bike_id": "2243499f01ec3c478e49c10253036e17", "is_disabled": 0, "rental_uris": {"android": "https://dc.lft.to/lastmile_qr_scan", "ios": "https://dc.lft.to/lastmile_qr_scan"}, "lon": -77.07017783333333, "fusion_lat": 0.0}, {"name": "e8e7fee7cbb6cee15d27a42d52152f80", "fusion_lon": 0.0, "lat": 38.90282333333333, "is_reserved": 0, "type": "electric_scooter", "bike_id": "e8e7fee7cbb6cee15d27a42d52152f80", "is_disabled": 0, "rental_uris": {"android": "https://dc.lft.to/lastmile_qr_scan", "ios": "https://dc.lft.to/lastmile_qr_scan"}, "lon": -77.05804966666666, "fusion_lat": 0.0}, {"name": "6b08fc362bf61b3c86dcf82ea277a316", "fusion_lon": 0.0, "lat": 39.057879166666666, "is_reserved": 0, "type": "electric_bike", "bike_id": "6b08fc362bf61b3c86dcf82ea277a316", "is_disabled": 0, "rental_uris": {"android": "https://dc.lft.to/lastmile_qr_scan", "ios": "https://dc.lft.to/lastmile_qr_scan"}, "lon": -77.1502385, "fusion_lat": 0.0}, {"name": "e48c027acb544bb177a6a95a3ba7c272", "fusion_lon": 0.0, "lat": 38.9211265, "is_reserved": 0, "type": "electric_scooter", "bike_id": "e48c027acb544bb177a6a95a3ba7c272", "is_disabled": 0, "rental_uris": {"android": "https://dc.lft.to/lastmile_qr_scan", "ios": "https://dc.lft.to/lastmile_qr_scan"}, "lon": -77.01761916666666, "fusion_lat": 0.0}, {"name": "2fe8e98b92981c89127287b7687f3ac9", "fusion_lon": 0.0, "lat": 38.9267345, "is_reserved": 0, "type": "electric_scooter", "bike_id": "2fe8e98b92981c89127287b7687f3ac9", "is_disabled": 0, "rental_uris": {"android": "https://dc.lft.to/lastmile_qr_scan", "ios": "https://dc.lft.to/lastmile_qr_scan"}, "lon": -77.01510566666667, "fusion_lat": 0.0}, {"name": "a44ec299cad0321348006aaf3b476bcb", "fusion_lon": 0.0, "lat": 38.856924666666664, "is_reserved": 0, "type": "electric_scooter", "bike_id": "a44ec299cad0321348006aaf3b476bcb", "is_disabled": 0, "rental_uris": {"android": "https://dc.lft.to/lastmile_qr_scan", "ios": "https://dc.lft.to/lastmile_qr_scan"}, "lon": -76.98981, "fusion_lat": 0.0}, {"name": "d784c3ca4db7e8200217aaff25c011ae", "fusion_lon": 0.0, "lat": 38.93007566666667, "is_reserved": 0, "type": "electric_scooter", "bike_id": "d784c3ca4db7e8200217aaff25c011ae", "is_disabled": 0, "rental_uris": {"android": "https://dc.lft.to/lastmile_qr_scan", "ios": "https://dc.lft.to/lastmile_qr_scan"}, "lon": -77.01431966666667, "fusion_lat": 0.0}, {"name": "d8209074978d3bb647de5f57ef2f3e18", "fusion_lon": 0.0, "lat": 38.90059733333333, "is_reserved": 0, "type": "electric_scooter", "bike_id": "d8209074978d3bb647de5f57ef2f3e18", "is_disabled": 0, "rental_uris": {"android": "https://dc.lft.to/lastmile_qr_scan", "ios": "https://dc.lft.to/lastmile_qr_scan"}, "lon": -76.9347355, "fusion_lat": 0.0}, {"name": "e90468bcb889381c157bd66b9d7478fe", "fusion_lon": 0.0, "lat": 38.89888833333333, "is_reserved": 0, "type": "electric_scooter", "bike_id": "e90468bcb889381c157bd66b9d7478fe", "is_disabled": 0, "rental_uris": {"android": "https://dc.lft.to/lastmile_qr_scan", "ios": "https://dc.lft.to/lastmile_qr_scan"}, "lon": -77.03285216666667, "fusion_lat": 0.0}, {"name": "b892cc6d0acb3e3d44b690bfa48c0999", "fusion_lon": 0.0, "lat": 38.90022666666667, "is_reserved": 0, "type": "electric_scooter", "bike_id": "b892cc6d0acb3e3d44b690bfa48c0999", "is_disabled": 0, "rental_uris": {"android": "https://dc.lft.to/lastmile_qr_scan", "ios": "https://dc.lft.to/lastmile_qr_scan"}, "lon": -77.0013275, "fusion_lat": 0.0}, {"name": "454b4dbe6f80ea9539f4f33cc662a5ed", "fusion_lon": 0.0, "lat": 38.9563395, "is_reserved": 0, "type": "electric_bike", "bike_id": "454b4dbe6f80ea9539f4f33cc662a5ed", "is_disabled": 0, "rental_uris": {"android": "https://dc.lft.to/lastmile_qr_scan", "ios": "https://dc.lft.to/lastmile_qr_scan"}, "lon": -76.93869666666667, "fusion_lat": 0.0}, {"name": "be880cb8900bef17b5ce9861aa850547", "fusion_lon": 0.0, "lat": 38.903963833333336, "is_reserved": 0, "type": "electric_scooter", "bike_id": "be880cb8900bef17b5ce9861aa850547", "is_disabled": 0, "rental_uris": {"android": "https://dc.lft.to/lastmile_qr_scan", "ios": "https://dc.lft.to/lastmile_qr_scan"}, "lon": -77.01728233333333, "fusion_lat": 0.0}, {"name": "cb40de3b2e60d1a53d7159c47729c6c8", "fusion_lon": 0.0, "lat": 38.984288666666664, "is_reserved": 0, "type": "electric_scooter", "bike_id": "cb40de3b2e60d1a53d7159c47729c6c8", "is_disabled": 0, "rental_uris": {"android": "https://dc.lft.to/lastmile_qr_scan", "ios": "https://dc.lft.to/lastmile_qr_scan"}, "lon": -77.0267185, "fusion_lat": 0.0}, {"name": "eb3ad5e59651cd0561bd59bbc7c1bd21", "fusion_lon": 0.0, "lat": 38.894768666666664, "is_reserved": 0, "type": "electric_scooter", "bike_id": "eb3ad5e59651cd0561bd59bbc7c1bd21", "is_disabled": 0, "rental_uris": {"android": "https://dc.lft.to/lastmile_qr_scan", "ios": "https://dc.lft.to/lastmile_qr_scan"}, "lon": -77.04657266666666, "fusion_lat": 0.0}, {"name": "2a9e85d249f89815e4d1c4a7d6abde54", "fusion_lon": 0.0, "lat": 38.901030666666664, "is_reserved": 0, "type": "electric_scooter", "bike_id": "2a9e85d249f89815e4d1c4a7d6abde54", "is_disabled": 0, "rental_uris": {"android": "https://dc.lft.to/lastmile_qr_scan", "ios": "https://dc.lft.to/lastmile_qr_scan"}, "lon": -77.00655283333333, "fusion_lat": 0.0}, {"name": "4e269ccba74988f69a7ed09c30a05e9a", "fusion_lon": 0.0, "lat": 38.8924005, "is_reserved": 0, "type": "electric_scooter", "bike_id": "4e269ccba74988f69a7ed09c30a05e9a", "is_disabled": 0, "rental_uris": {"android": "https://dc.lft.to/lastmile_qr_scan", "ios": "https://dc.lft.to/lastmile_qr_scan"}, "lon": -77.02410783333333, "fusion_lat": 0.0}, {"name": "f2c1a329ef4302e4699f2db8378f9941", "fusion_lon": 0.0, "lat": 38.87833, "is_reserved": 0, "type": "electric_scooter", "bike_id": "f2c1a329ef4302e4699f2db8378f9941", "is_disabled": 0, "rental_uris": {"android": "https://dc.lft.to/lastmile_qr_scan", "ios": "https://dc.lft.to/lastmile_qr_scan"}, "lon": -77.01595616666667, "fusion_lat": 0.0}, {"name": "72d1d07ace65a822b27b97d1121d3e57", "fusion_lon": 0.0, "lat": 38.91729516666667, "is_reserved": 0, "type": "electric_scooter", "bike_id": "72d1d07ace65a822b27b97d1121d3e57", "is_disabled": 0, "rental_uris": {"android": "https://dc.lft.to/lastmile_qr_scan", "ios": "https://dc.lft.to/lastmile_qr_scan"}, "lon": -77.03210566666667, "fusion_lat": 0.0}, {"name": "3d8d2e3541cd37ceb139ea2d0c77efb7", "fusion_lon": 0.0, "lat": 38.907565166666664, "is_reserved": 0, "type": "electric_scooter", "bike_id": "3d8d2e3541cd37ceb139ea2d0c77efb7", "is_disabled": 0, "rental_uris": {"android": "https://dc.lft.to/lastmile_qr_scan", "ios": "https://dc.lft.to/lastmile_qr_scan"}, "lon": -77.02599383333333, "fusion_lat": 0.0}, {"name": "7ee0bfa07d26e0493b643599e35c0b62", "fusion_lon": 0.0, "lat": 38.90270133333333, "is_reserved": 0, "type": "electric_scooter", "bike_id": "7ee0bfa07d26e0493b643599e35c0b62", "is_disabled": 0, "rental_uris": {"android": "https://dc.lft.to/lastmile_qr_scan", "ios": "https://dc.lft.to/lastmile_qr_scan"}, "lon": -77.048603, "fusion_lat": 0.0}, {"name": "7f603c3eba6a65cb433fb8a2a9620c9f", "fusion_lon": 0.0, "lat": 38.920319, "is_reserved": 0, "type": "electric_scooter", "bike_id": "7f603c3eba6a65cb433fb8a2a9620c9f", "is_disabled": 0, "rental_uris": {"android": "https://dc.lft.to/lastmile_qr_scan", "ios": "https://dc.lft.to/lastmile_qr_scan"}, "lon": -77.025827, "fusion_lat": 0.0}, {"name": "acd6ca9b53e284a60902afc79b1b19cd", "fusion_lon": 0.0, "lat": 38.8929545, "is_reserved": 0, "type": "electric_scooter", "bike_id": "acd6ca9b53e284a60902afc79b1b19cd", "is_disabled": 0, "rental_uris": {"android": "https://dc.lft.to/lastmile_qr_scan", "ios": "https://dc.lft.to/lastmile_qr_scan"}, "lon": -76.9392395, "fusion_lat": 0.0}, {"name": "5d5dcb62c5810f81848ff6752de1e7e2", "fusion_lon": 0.0, "lat": 38.90378916666667, "is_reserved": 0, "type": "electric_scooter", "bike_id": "5d5dcb62c5810f81848ff6752de1e7e2", "is_disabled": 0, "rental_uris": {"android": "https://dc.lft.to/lastmile_qr_scan", "ios": "https://dc.lft.to/lastmile_qr_scan"}, "lon": -77.02606866666666, "fusion_lat": 0.0}, {"name": "8c561740d33d4ee0f133c3eb046882fb", "fusion_lon": 0.0, "lat": 38.872386166666665, "is_reserved": 0, "type": "electric_scooter", "bike_id": "8c561740d33d4ee0f133c3eb046882fb", "is_disabled": 0, "rental_uris": {"android": "https://dc.lft.to/lastmile_qr_scan", "ios": "https://dc.lft.to/lastmile_qr_scan"}, "lon": -77.011682, "fusion_lat": 0.0}, {"name": "5cbbda847149de9bd8c727840da8d3c6", "fusion_lon": 0.0, "lat": 38.921558166666664, "is_reserved": 0, "type": "electric_scooter", "bike_id": "5cbbda847149de9bd8c727840da8d3c6", "is_disabled": 0, "rental_uris": {"android": "https://dc.lft.to/lastmile_qr_scan", "ios": "https://dc.lft.to/lastmile_qr_scan"}, "lon": -77.0346465, "fusion_lat": 0.0},