{"data": {"bikes": [{"lat": 38.892210166666665, "is_disabled": 0, "type": "electric_scooter", "lon": -76.93292216666667, "bike_id": "6202e8fa47d8f90accc335ecb29cf8f4", "fusion_lat": 0.0, "name": "6202e8fa47d8f90accc335ecb29cf8f4", "is_reserved": 0, "rental_uris": {"android": "https://dc.lft.to/lastmile_qr_scan", "ios": "https://dc.lft.to/lastmile_qr_scan"}, "fusion_lon": 0.0}, {"lat": 38.900337, "is_disabled": 0, "type": "electric_scooter", "lon": -77.03315733333334, "bike_id": "9ac870eb6d34d5630828519012f76220", "fusion_lat": 0.0, "name": "9ac870eb6d34d5630828519012f76220", "is_reserved": 0, "rental_uris": {"android": "https://dc.lft.to/lastmile_qr_scan", "ios": "https://dc.lft.to/lastmile_qr_scan"}, "fusion_lon": 0.0}, {"lat": 38.900918, "is_disabled": 0, "type": "electric_scooter", "lon": -77.05608366666667, "bike_id": "845bdff3ba9ecbb43aeb7e7c22ff2c02", "fusion_lat": 0.0, "name": "845bdff3ba9ecbb43aeb7e7c22ff2c02", "is_reserved": 0, "rental_uris": {"android": "https://dc.lft.to/lastmile_qr_scan", "ios": "https://dc.lft.to/lastmile_qr_scan"}, "fusion_lon": 0.0}, {"lat": 38.89998816666667, "is_disabled": 0, "type": "electric_scooter", "lon": -77.006516, "bike_id": "d09ae99cbea804ebec15633a2c995b7b", "fusion_lat": 0.0, "name": "d09ae99cbea804ebec15633a2c995b7b", "is_reserved": 0, "rental_uris": {"android": "https://dc.lft.to/lastmile_qr_scan", "ios": "https://dc.lft.to/lastmile_qr_scan"}, "fusion_lon": 0.0}, {"lat": 38.9105445, "is_disabled": 0, "type": "electric_scooter", "lon": -77.04259266666666, "bike_id": "38a380953548c35ed0fe13669ca6c9c2", "fusion_lat": 0.0, "name": "38a380953548c35ed0fe13669ca6c9c2", "is_reserved": 0, "rental_uris": {"android": "https://dc.lft.to/lastmile_qr_scan", "ios": "https://dc.lft.to/lastmile_qr_scan"}, "fusion_lon": 0.0}, {"lat": 38.8921595, "is_disabled": 0, "type": "electric_scooter", "lon": -77.0281275, "bike_id": "a835d4e0adac642eaff989bc0900e259", "fusion_lat": 0.0, "name": "a835d4e0adac642eaff989bc0900e259", "is_reserved": 0, "rental_uris": {"android": "https://dc.lft.to/lastmile_qr_scan", "ios": "https://dc.lft.to/lastmile_qr_scan"}, "fusion_lon": 0.0}, {"lat": 38.9134935, "is_disabled": 0, "type": "electric_scooter", "lon": -77.03362583333333, "bike_id": "11135ce8316c75483af712f71a719941", "fusion_lat": 0.0, "name": "11135ce8316c75483af712f71a719941", "is_reserved": 0, "rental_uris": {"android": "https://dc.lft.to/lastmile_qr_scan", "ios": "https://dc.lft.to/lastmile_qr_scan"}, "fusion_lon": 0.0}, {"lat": 38.90229083333333, "is_disabled": 0, "type": "electric_scooter", "lon": -77.05903216666667, "bike_id": "ab0495835c3ffe2c41429915be831192", "fusion_lat": 0.0, "name": "ab0495835c3ffe2c41429915be831192", "is_reserved": 0, "rental_uris": {"android": "https://dc.lft.to/lastmile_qr_scan", "ios": "https://dc.lft.to/lastmile_qr_scan"}, "fusion_lon": 0.0}, {"lat": 38.9037295, "is_disabled": 0, "type": "electric_scooter", "lon": -77.0507545, "bike_id": "a2ee0ad493d3e4c554bb3fd673cdc1fe", "fusion_lat": 0.0, "name": "a2ee0ad493d3e4c554bb3fd673cdc1fe", "is_reserved": 0, "rental_uris": {"android": "https://dc.lft.to/lastmile_qr_scan", "ios": "https://dc.lft.to/lastmile_qr_scan"}, "fusion_lon": 0.0}, {"lat": 38.912704833333336, "is_disabled": 0, "type": "electric_scooter", "lon": -77.01971583333334, "bike_id": "e9c3899041f18046d342ad74b6837a95", "fusion_lat": 0.0, "name": "e9c3899041f18046d342ad74b6837a95", "is_reserved": 0, "rental_uris": {"android": "https://dc.lft.to/lastmile_qr_scan", "ios": "https://dc.lft.to/lastmile_qr_scan"}, "fusion_lon": 0.0}, {"lat": 38.92918683333333, "is_disabled": 0, "type": "electric_scooter", "lon": -77.03743666666666, "bike_id": "cbb60dc1f75468be3aa9fbcb39bc384a", "fusion_lat": 0.0, "name": "cbb60dc1f75468be3aa9fbcb39bc384a", "is_reserved": 0, "rental_uris": {"android": "https://dc.lft.to/lastmile_qr_scan", "ios": "https://dc.lft.to/lastmile_qr_scan"}, "fusion_lon": 0.0}, {"lat": 38.9174815, "is_disabled": 0, "type": "electric_scooter", "lon": -77.0360315, "bike_id": "ced0afd4e7592b2d6d4d557a97b99339", "fusion_lat": 0.0, "name": "ced0afd4e7592b2d6d4d557a97b99339", "is_reserved": 0, "rental_uris": {"android": "https://dc.lft.to/lastmile_qr_scan", "ios": "https://dc.lft.to/lastmile_qr_scan"}, "fusion_lon": 0.0}, {"lat": 38.86508516666667, "is_disabled": 0, "type": "electric_scooter", "lon": -76.990028, "bike_id": "ac9fa16397e20ab8352afdb38350f9b6", "fusion_lat": 0.0, "name": "ac9fa16397e20ab8352afdb38350f9b6", "is_reserved": 0, "rental_uris": {"android": "https://dc.lft.to/lastmile_qr_scan", "ios": "https://dc.lft.to/lastmile_qr_scan"}, "fusion_lon": 0.0}, {"lat": 38.90989483333333, "is_disabled": 0, "type": "electric_scooter", "lon": -77.031957, "bike_id": "a40aba0b97babc7d7f82a942d3689315", "fusion_lat": 0.0, "name": "a40aba0b97babc7d7f82a942d3689315", "is_reserved": 0, "rental_uris": {"android": "https://dc.lft.to/lastmile_qr_scan", "ios": "https://dc.lft.to/lastmile_qr_scan"}, "fusion_lon": 0.0}, {"lat": 38.8810855, "is_disabled": 0, "type": "electric_scooter", "lon": -77.02634283333333, "bike_id": "6d58010965893517bc7242f1c30bc2a4", "fusion_lat": 0.0, "name": "6d58010965893517bc7242f1c30bc2a4", "is_reserved": 0, "rental_uris": {"android": "https://dc.lft.to/lastmile_qr_scan", "ios": "https://dc.lft.to/lastmile_qr_scan"}, "fusion_lon": 0.0}, {"lat": 38.920343, "is_disabled": 0, "type": "electric_scooter", "lon": -76.99326683333334, "bike_id": "db5019caa94d1982377fde2f0da836aa", "fusion_lat": 0.0, "name": "db5019caa94d1982377fde2f0da836aa", "is_reserved": 0, "rental_uris": {"android": "https://dc.lft.to/lastmile_qr_scan", "ios": "https://dc.lft.to/lastmile_qr_scan"}, "fusion_lon": 0.0}, {"lat": 38.865110333333334, "is_disabled": 0, "type": "electric_scooter", "lon": -76.99006, "bike_id": "ef89d4d6e74f5f53152824328b7e7a20", "fusion_lat": 0.0, "name": "ef89d4d6e74f5f53152824328b7e7a20", "is_reserved": 0, "rental_uris": {"android": "https://dc.lft.to/lastmile_qr_scan", "ios": "https://dc.lft.to/lastmile_qr_scan"}, "fusion_lon": 0.0}, {"lat": 38.893431166666666, "is_disabled": 0, "type": "electric_scooter", "lon": -77.01226033333333, "bike_id": "08a2f41c77685aa300e1314fba269519", "fusion_lat": 0.0, "name": "08a2f41c77685aa300e1314fba269519", "is_reserved": 0, "rental_uris": {"android": "https://dc.lft.to/lastmile_qr_scan", "ios": "https://dc.lft.to/lastmile_qr_scan"}, "fusion_lon": 0.0}, {"lat": 38.903205666666665, "is_disabled": 0, "type": "electric_scooter", "lon": -77.02894, "bike_id": "9e367ba8c07057fefa4def4f71cc547c", "fusion_lat": 0.0, "name": "9e367ba8c07057fefa4def4f71cc547c", "is_reserved": 0, "rental_uris": {"android": "https://dc.lft.to/lastmile_qr_scan", "ios": "https://dc.lft.to/lastmile_qr_scan"}, "fusion_lon": 0.0}, {"lat": 38.84273, "is_disabled": 0, "type": "electric_bike", "lon": -76.98842666666667, "bike_id": "de1ac85c995b208d370df8ac542bb220", "fusion_lat": 0.0, "name": "de1ac85c995b208d370df8ac542bb220", "is_reserved": 0, "rental_uris": {"android": "https://dc.lft.to/lastmile_qr_scan", "ios": "https://dc.lft.to/lastmile_qr_scan"}, "fusion_lon": 0.0}, {"lat": 38.85676316666667, "is_disabled": 0, "type": "electric_scooter", "lon": -76.98173833333334, "bike_id": "891b6cfd7acf16258d9365602320cab6", "fusion_lat": 0.0, "name": "891b6cfd7acf16258d9365602320cab6", "is_reserved": 0, "rental_uris": {"android": "https://dc.lft.to/lastmile_qr_scan", "ios": "https://dc.lft.to/lastmile_qr_scan"}, "fusion_lon": 0.0}, {"lat": 38.83727966666667, "is_disabled": 0, "type": "electric_bike", "lon": -76.99761066666667, "bike_id": "6b5e945b8c5888b5ae3a23d7373955b3", "fusion_lat": 0.0, "name": "6b5e945b8c5888b5ae3a23d7373955b3", "is_reserved": 0, "rental_uris": {"android": "https://dc.lft.to/lastmile_qr_scan", "ios": "https://dc.lft.to/lastmile_qr_scan"}, "fusion_lon": 0.0}, {"lat": 38.895476333333335, "is_disabled": 0, "type": "electric_scooter", "lon": -77.00434616666666, "bike_id": "80cb11bd5c54314e5d68d33bdf2da049", "fusion_lat": 0.0, "name": "80cb11bd5c54314e5d68d33bdf2da049", "is_reserved": 0, "rental_uris": {"android": "https://dc.lft.to/lastmile_qr_scan", "ios": "https://dc.lft.to/lastmile_qr_scan"}, "fusion_lon": 0.0}, {"lat": 38.936008, "is_disabled": 0, "type": "electric_scooter", "lon": -77.02528966666667, "bike_id": "00b8948c419c79888ca6fe7593e8a504", "fusion_lat": 0.0, "name": "00b8948c419c79888ca6fe7593e8a504", "is_reserved": 0, "rental_uris": {"android": "https://dc.lft.to/lastmile_qr_scan", "ios": "https://dc.lft.to/lastmile_qr_scan"}, "fusion_lon": 0.0}, {"lat": 38.934088333333335, "is_disabled": 0, "type": "electric_scooter", "lon": -77.02468716666667, "bike_id": "57c4e43089df37a547d661eead26bc8a", "fusion_lat": 0.0, "name": "57c4e43089df37a547d661eead26bc8a", "is_reserved": 0, "rental_uris": {"android": "https://dc.lft.to/lastmile_qr_scan", "ios": "https://dc.lft.to/lastmile_qr_scan"}, "fusion_lon": 0.0}, {"lat": 38.90134033333333, "is_disabled": 0, "type": "electric_scooter", "lon": -77.029375, "bike_id": "c193b84e1e31d5006d348dfa1ae2d928", "fusion_lat": 0.0, "name": "c193b84e1e31d5006d348dfa1ae2d928", "is_reserved": 0, "rental_uris": {"android": "https://dc.lft.to/lastmile_qr_scan", "ios": "https://dc.lft.to/lastmile_qr_scan"}, "fusion_lon": 0.0}, {"lat": 38.94823916666667, "is_disabled": 0, "type": "electric_scooter", "lon": -76.999038, "bike_id": "c63afc3d87374de8b5742d94338cd542", "fusion_lat": 0.0, "name": "c63afc3d87374de8b5742d94338cd542", "is_reserved": 0, "rental_uris": {"android": "https://dc.lft.to/lastmile_qr_scan", "ios": "https://dc.lft.to/lastmile_qr_scan"}, "fusion_lon": 0.0}, {"lat": 38.902584, "is_disabled": 0, "type": "electric_scooter", "lon": -77.03952833333334, "bike_id": "93c7aed75eee13651b5907aa772e5dba", "fusion_lat": 0.0, "name": "93c7aed75eee13651b5907aa772e5dba", "is_reserved": 0, "rental_uris": {"android": "https://dc.lft.to/lastmile_qr_scan", "ios": "https://dc.lft.to/lastmile_qr_scan"}, "fusion_lon": 0.0}, {"lat": 38.9446245, "is_disabled": 0, "type": "electric_scooter", "lon": -77.0602535, "bike_id": "895a651dabd5ab63dbf8aa3bac62e0b9", "fusion_lat": 0.0, "name": "895a651dabd5ab63dbf8aa3bac62e0b9", "is_reserved": 0, "rental_uris": {"android": "https://dc.lft.to/lastmile_qr_scan", "ios": "https://dc.lft.to/lastmile_qr_scan"}, "fusion_lon": 0.0}, {"lat": 38.917447833333334, "is_disabled": 0, "type": "electric_scooter", "lon": -77.03184533333334, "bike_id": "74d84658d706565b1c40b6e586f34c70", "fusion_lat": 0.0, "name": "74d84658d706565b1c40b6e586f34c70", "is_reserved": 0, "rental_uris": {"android": "https://dc.lft.to/lastmile_qr_scan", "ios": "https://dc.lft.to/lastmile_qr_scan"}, "fusion_lon": 0.0}, {"lat": 38.924549666666664, "is_disabled": 0, "type": "electric_scooter", "lon": -77.042013, "bike_id": "c9e7e546c79b1735d0d864cb8dc17e8d", "fusion_lat": 0.0, "name": "c9e7e546c79b1735d0d864cb8dc17e8d", "is_reserved": 0, "rental_uris": {"android": "https://dc.lft.to/lastmile_qr_scan", "ios": "https://dc.lft.to/lastmile_qr_scan"}, "fusion_lon": 0.0}, {"lat": 38.89681516666667, "is_disabled": 0, "type": "electric_scooter", "lon": -76.93604500000001, "bike_id": "085d9cf24bd521237b24fe9a1ed8fa06", "fusion_lat": 0.0, "name": "085d9cf24bd521237b24fe9a1ed8fa06", "is_reserved": 0, "rental_uris": {"android": "https://dc.lft.to/lastmile_qr_scan", "ios": "https://dc.lft.to/lastmile_qr_scan"}, "fusion_lon": 0.0}, {"lat": 38.91680366666667, "is_disabled": 0, "type": "electric_scooter", "lon": -77.023856, "bike_id": "17dc31c424373a86a6ebf10b448d9c8c", "fusion_lat": 0.0, "name": "17dc31c424373a86a6ebf10b448d9c8c", "is_reserved": 0, "rental_uris": {"android": "https://dc.lft.to/lastmile_qr_scan", "ios": "https://dc.lft.to/lastmile_qr_scan"}, "fusion_lon": 0.0}, {"lat": 38.93062416666667, "is_disabled": 0, "type": "electric_scooter", "lon": -77.03394366666667, "bike_id": "baff921da9e868d576cc194daf5a1f62", "fusion_lat": 0.0, "name": "baff921da9e868d576cc194daf5a1f62", "is_reserved": 0, "rental_uris": {"android": "https://dc.lft.to/lastmile_qr_scan", "ios": "https://dc.lft.to/lastmile_qr_scan"}, "fusion_lon": 0.0}, {"lat": 38.988184833333335, "is_disabled": 0, "type": "electric_bike", "lon": -77.02662, "bike_id": "c8e5f9eb807d7bfae9b8e116191bfddb", "fusion_lat": 0.0, "name": "c8e5f9eb807d7bfae9b8e116191bfddb", "is_reserved": 0, "rental_uris": {"android": "https://dc.lft.to/lastmile_qr_scan", "ios": "https://dc.lft.to/lastmile_qr_scan"}, "fusion_lon": 0.0}, {"lat": 38.93042466666667, "is_disabled": 0, "type": "electric_bike", "lon": -77.07296183333334, "bike_id": "a0fd2994bc87e7816181086b48b88b39", "fusion_lat": 0.0, "name": "a0fd2994bc87e7816181086b48b88b39", "is_reserved": 0, "rental_uris": {"android": "https://dc.lft.to/lastmile_qr_scan", "ios": "https://dc.lft.to/lastmile_qr_scan"}, "fusion_lon": 0.0}, {"lat": 38.884514333333335, "is_disabled": 0, "type": "electric_scooter", "lon": -76.95091133333334, "bike_id": "2a03187e02ca0b64f2b9796b8d86591a", "fusion_lat": 0.0, "name": "2a03187e02ca0b64f2b9796b8d86591a", "is_reserved": 0, "rental_uris": {"android": "https://dc.lft.to/lastmile_qr_scan", "ios": "https://dc.lft.to/lastmile_qr_scan"}, "fusion_lon": 0.0}, {"lat": 38.921226833333336, "is_disabled": 0, "type": "electric_scooter", "lon": -77.04176683333333, "bike_id": "bfc9f5303b80bd83c0df29c51e4baaaf", "fusion_lat": 0.0, "name": "bfc9f5303b80bd83c0df29c51e4baaaf", "is_reserved": 0, "rental_uris": {"android": "https://dc.lft.to/lastmile_qr_scan", "ios": "https://dc.lft.to/lastmile_qr_scan"}, "fusion_lon": 0.0}, {"lat": 38.941119, "is_disabled": 0, "type": "electric_scooter", "lon": -77.00045916666667, "bike_id": "0931fa6bd188b4bf0bc7aee439e2d667", "fusion_lat": 0.0, "name": "0931fa6bd188b4bf0bc7aee439e2d667", "is_reserved": 0, "rental_uris": {"android": "https://dc.lft.to/lastmile_qr_scan", "ios": "https://dc.lft.to/lastmile_qr_scan"}, "fusion_lon": 0.0}, {"lat": 38.8955545, "is_disabled": 0, "type": "electric_scooter", "lon": -77.00360733333333, "bike_id": "16aedf87fecd7155dbf38e3a5cc0a546", "fusion_lat": 0.0, "name": "16aedf87fecd7155dbf38e3a5cc0a546", "is_reserved": 0, "rental_uris": {"android": "https://dc.lft.to/lastmile_qr_scan", "ios": "https://dc.lft.to/lastmile_qr_scan"}, "fusion_lon": 0.0}, {"lat": 38.907939999999996, "is_disabled": 0, "type": "electric_scooter", "lon": -77.01102266666666, "bike_id": "a6384d16cf67e09d91e9b50f9f3690a2", "fusion_lat": 0.0, "name": "a6384d16cf67e09d91e9b50f9f3690a2", "is_reserved": 0, "rental_uris": {"android": "https://dc.lft.to/lastmile_qr_scan", "ios": "https://dc.lft.to/lastmile_qr_scan"}, "fusion_lon": 0.0}, {"lat": 38.9620275, "is_disabled": 0, "type": "electric_bike", "lon": -77.0350565, "bike_id": "c46e9cb190b14104cc27730469a6db76", "fusion_lat": 0.0, "name": "c46e9cb190b14104cc27730469a6db76", "is_reserved": 0, "rental_uris": {"android": "https://dc.lft.to/lastmile_qr_scan", "ios": "https://dc.lft.to/lastmile_qr_scan"}, "fusion_lon": 0.0}, {"lat": 38.8961465, "is_disabled": 0, "type": "electric_scooter", "lon": -76.95653716666666, "bike_id": "4c29c3db02aae89b4b0e9421e6729e4e", "fusion_lat": 0.0, "name": "4c29c3db02aae89b4b0e9421e6729e4e", "is_reserved": 0, "rental_uris": {"android": "https://dc.lft.to/lastmile_qr_scan", "ios": "https://dc.lft.to/lastmile_qr_scan"}, "fusion_lon": 0.0}, {"lat": 38.81344216666667, "is_disabled": 0, "type": "electric_bike", "lon": -77.04921016666667, "bike_id": "5283baf1dfa91446f716d8fab0e82e92", "fusion_lat": 0.0, "name": "5283baf1dfa91446f716d8fab0e82e92", "is_reserved": 0, "rental_uris": {"android": "https://dc.lft.to/lastmile_qr_scan", "ios": "https://dc.lft.to/lastmile_qr_scan"}, "fusion_lon": 0.0}, {"lat": 38.871673, "is_disabled": 0, "type": "electric_scooter", "lon": -77.0134635, "bike_id": "e4d22a21e2e29c12599468c5c10aa96c", "fusion_lat": 0.0, "name": "e4d22a21e2e29c12599468c5c10aa96c", "is_reserved": 0, "rental_uris": {"android": "https://dc.lft.to/lastmile_qr_scan", "ios": "https://dc.lft.to/lastmile_qr_scan"}, "fusion_lon": 0.0}, {"lat": 38.900146, "is_disabled": 0, "type": "electric_scooter", "lon": -77.0330995, "bike_id": "bc9b696764aa568eee9ded6af3879015", "fusion_lat": 0.0, "name": "bc9b696764aa568eee9ded6af3879015", "is_reserved": 0, "rental_uris": {"android": "https://dc.lft.to/lastmile_qr_scan", "ios": "https://dc.lft.to/lastmile_qr_scan"}, "fusion_lon": 0.0}, {"lat": 38.8531415, "is_disabled": 0, "type": "electric_scooter", "lon": -76.98021733333333, "bike_id": "e661c03484f24b74467c24786c039aca", "fusion_lat": 0.0, "name": "e661c03484f24b74467c24786c039aca", "is_reserved": 0, "rental_uris": {"android": "https://dc.lft.to/lastmile_qr_scan", "ios": "https://dc.lft.to/lastmile_qr_scan"}, "fusion_lon": 0.0}, {"lat": 38.925773, "is_disabled": 0, "type": "electric_scooter", "lon": -77.04009066666667, "bike_id": "a99437577b8051145406476391e77c3c", "fusion_lat": 0.0, "name": "a99437577b8051145406476391e77c3c", "is_reserved": 0, "rental_uris": {"android": "https://dc.lft.to/lastmile_qr_scan", "ios": "https://dc.lft.to/lastmile_qr_scan"}, "fusion_lon": 0.0}, {"lat": 38.9112525, "is_disabled": 0, "type": "electric_scooter", "lon": -77.038127, "bike_id": "7cacca152f38ed3082b3b336ef8765a4", "fusion_lat": 0.0, "name": "7cacca152f38ed3082b3b336ef8765a4", "is_reserved": 0, "rental_uris": {"android": "https://dc.lft.to/lastmile_qr_scan", "ios": "https://dc.lft.to/lastmile_qr_scan"}, "fusion_lon": 0.0}, {"lat": 38.921276166666665, "is_disabled": 0, "type": "electric_scooter", "lon": -77.04218133333333, "bike_id": "d5366a9b640d0dd014ae8caa0b2982d3", "fusion_lat": 0.0, "name": "d5366a9b640d0dd014ae8caa0b2982d3", "is_reserved": 0, "rental_uris": {"android": "https://dc.lft.to/lastmile_qr_scan", "ios": "https://dc.lft.to/lastmile_qr_scan"}, "fusion_lon": 0.0}, {"lat": 38.904359666666664, "is_disabled": 0, "type": "electric_scooter", "lon": -77.0020975, "bike_id": "3ff4c440796318400aa61055e6464634", "fusion_lat": 0.0, "name": "3ff4c440796318400aa61055e6464634", "is_reserved": 0, "rental_uris": {"android": "https://dc.lft.to/lastmile_qr_scan", "ios": "https://dc.lft.to/lastmile_qr_scan"}, "fusion_lon": 0.0}, {"lat": 38.945175166666665, "is_disabled": 0, "type": "electric_scooter", "lon": -77.06394533333334, "bike_id": "529bc60ffabdc59804177c56832ad580", "fusion_lat": 0.0, "name": "529bc60ffabdc59804177c56832ad580", "is_reserved": 0, "rental_uris": {"android": "https://dc.lft.to/lastmile_qr_scan", "ios": "https://dc.lft.to/lastmile_qr_scan"}, "fusion_lon": 0.0}, {"lat": 38.90532066666667, "is_disabled": 0, "type": "electric_scooter", "lon": -77.02949, "bike_id": "65c588115eefba836a020f6f66d4f03b", "fusion_lat": 0.0, "name": "65c588115eefba836a020f6f66d4f03b", "is_reserved": 0, "rental_uris": {"android": "https://dc.lft.to/lastmile_qr_scan", "ios": "https://dc.lft.to/lastmile_qr_scan"}, "fusion_lon": 0.0}, {"lat": 38.907305, "is_disabled": 0, "type": "electric_scooter", "lon": -77.02977583333333, "bike_id": "3197d94704b7726f55f8584b3cfd0537", "fusion_lat": 0.0, "name": "3197d94704b7726f55f8584b3cfd0537", "is_reserved": 0, "rental_uris": {"android": "https://dc.lft.to/lastmile_qr_scan", "ios": "https://dc.lft.to/lastmile_qr_scan"}, "fusion_lon": 0.0}, {"lat": 38.925156666666666, "is_disabled": 0, "type": "electric_scooter", "lon": -77.02358733333334, "bike_id": "3147fcb3ce93d1bb14c8ecc6adc1209f", "fusion_lat": 0.0, "name": "3147fcb3ce93d1bb14c8ecc6adc1209f", "is_reserved": 0, "rental_uris": {"android": "https://dc.lft.to/lastmile_qr_scan", "ios": "https://dc.lft.to/lastmile_qr_scan"}, "fusion_lon": 0.0}, {"lat": 38.91287, "is_disabled": 0, "type": "electric_scooter", "lon": -77.03842883333333, "bike_id": "dfbc092def5dc9285aac51c60dbe5e61", "fusion_lat": 0.0, "name": "dfbc092def5dc9285aac51c60dbe5e61", "is_reserved": 0, "rental_uris": {"android": "https://dc.lft.to/lastmile_qr_scan", "ios": "https://dc.lft.to/lastmile_qr_scan"}, "fusion_lon": 0.0}, {"lat": 38.90063766666667, "is_disabled": 0, "type": "electric_scooter", "lon": -77.00208366666666, "bike_id": "f48c1f1d56195196b4724c9899bcd7ec", "fusion_lat": 0.0, "name": "f48c1f1d56195196b4724c9899bcd7ec", "is_reserved": 0, "rental_uris": {"android": "https://dc.lft.to/lastmile_qr_scan", "ios": "https://dc.lft.to/lastmile_qr_scan"}, "fusion_lon": 0.0}, {"lat": 38.85193916666667, "is_disabled": 0, "type": "electric_bike", "lon": -76.96107933333333, "bike_id": "ef74e8842553ceb0d13cb7d371d2daa8", "fusion_lat": 0.0, "name": "ef74e8842553ceb0d13cb7d371d2daa8", "is_reserved": 0, "rental_uris": {"android": "https://dc.lft.to/lastmile_qr_scan", "ios": "https://dc.lft.to/lastmile_qr_scan"}, "fusion_lon": 0.0}, {"lat": 38.94099116666667, "is_disabled": 0, "type": "electric_scooter", "lon": -77.021071, "bike_id": "29dfc161226e98dea8bf1f41fe764a52", "fusion_lat": 0.0, "name": "29dfc161226e98dea8bf1f41fe764a52", "is_reserved": 0, "rental_uris": {"android": "https://dc.lft.to/lastmile_qr_scan", "ios": "https://dc.lft.to/lastmile_qr_scan"}, "fusion_lon": 0.0}, {"lat": 38.9225115, "is_disabled": 0, "type": "electric_scooter", "lon": -77.03385383333334, "bike_id": "b78f01bd8b61fed6161cf115deba1ea2", "fusion_lat": 0.0, "name": "b78f01bd8b61fed6161cf115deba1ea2", "is_reserved": 0, "rental_uris": {"android": "https://dc.lft.to/lastmile_qr_scan", "ios": "https://dc.lft.to/lastmile_qr_scan"}, "fusion_lon": 0.0}, {"lat": 38.9056175, "is_disabled": 0, "type": "electric_scooter", "lon": -77.0195655, "bike_id": "2628f1d8838b12f412a57cf4d2384095", "fusion_lat": 0.0, "name": "2628f1d8838b12f412a57cf4d2384095", "is_reserved": 0, "rental_uris": {"android": "https://dc.lft.to/lastmile_qr_scan", "ios": "https://dc.lft.to/lastmile_qr_scan"}, "fusion_lon": 0.0}, {"lat": 38.90848883333334, "is_disabled": 0, "type": "electric_scooter", "lon": -77.03858766666667, "bike_id": "f4fa04f7d45a797201ede516dec58859", "fusion_lat": 0.0, "name": "f4fa04f7d45a797201ede516dec58859", "is_reserved": 0, "rental_uris": {"android": "https://dc.lft.to/lastmile_qr_scan", "ios": "https://dc.lft.to/lastmile_qr_scan"}, "fusion_lon": 0.0}, {"lat": 38.943938333333335, "is_disabled": 0, "type": "electric_scooter", "lon": -77.0197995, "bike_id": "691e404fb787a48b1448aaf2ccca6a25", "fusion_lat": 0.0, "name": "691e404fb787a48b1448aaf2ccca6a25", "is_reserved": 0, "rental_uris": {"android": "https://dc.lft.to/lastmile_qr_scan", "ios": "https://dc.lft.to/lastmile_qr_scan"}, "fusion_lon": 0.0}, {"lat": 38.9443985, "is_disabled": 0, "type": "electric_scooter", "lon": -77.01508166666666, "bike_id": "58bd1ac04a06ab109a06173bd454f2aa", "fusion_lat": 0.0, "name": "58bd1ac04a06ab109a06173bd454f2aa", "is_reserved": 0, "rental_uris": {"android": "https://dc.lft.to/lastmile_qr_scan", "ios": "https://dc.lft.to/lastmile_qr_scan"}, "fusion_lon": 0.0}, {"lat": 38.85523516666667, "is_disabled": 0, "type": "electric_bike", "lon": -77.12056533333333, "bike_id": "4d4763bc0e0433f4e7c183636a8e8102", "fusion_lat": 0.0, "name": "4d4763bc0e0433f4e7c183636a8e8102", "is_reserved": 0, "rental_uris": {"android": "https://dc.lft.to/lastmile_qr_scan", "ios": "https://dc.lft.to/lastmile_qr_scan"}, "fusion_lon": 0.0}, {"lat": 38.9020395, "is_disabled": 0, "type": "electric_scooter", "lon": -77.02680433333333, "bike_id": "32b4e9a6b4aaaebbf7e197be466d5af0", "fusion_lat": 0.0, "name": "32b4e9a6b4aaaebbf7e197be466d5af0", "is_reserved": 0, "rental_uris": {"android": "https://dc.lft.to/lastmile_qr_scan", "ios": "https://dc.lft.to/lastmile_qr_scan"}, "fusion_lon": 0.0}, {"lat": 38.9171665, "is_disabled": 0, "type": "electric_scooter", "lon": -77.041563, "bike_id": "fabda8e76260504a95aa01885fc7ca1d", "fusion_lat": 0.0, "name": "fabda8e76260504a95aa01885fc7ca1d", "is_reserved": 0, "rental_uris": {"android": "https://dc.lft.to/lastmile_qr_scan", "ios": "https://dc.lft.to/lastmile_qr_scan"}, "fusion_lon": 0.0}, {"lat": 38.897337666666665, "is_disabled": 0, "type": "electric_scooter", "lon": -77.00778383333333, "bike_id": "6baf61b5e6c3942f296392ab05f75227", "fusion_lat": 0.0, "name": "6baf61b5e6c3942f296392ab05f75227", "is_reserved": 0, "rental_uris": {"android": "https://dc.lft.to/lastmile_qr_scan", "ios": "https://dc.lft.to/lastmile_qr_scan"}, "fusion_lon": 0.0}, {"lat": 38.90523983333333, "is_disabled": 0, "type": "electric_scooter", "lon": -77.06238033333334, "bike_id": "c57e807c77034fdf6eb2787125cbda36", "fusion_lat": 0.0, "name": "c57e807c77034fdf6eb2787125cbda36", "is_reserved": 0, "rental_uris": {"android": "https://dc.lft.to/lastmile_qr_scan", "ios": "https://dc.lft.to/lastmile_qr_scan"}, "fusion_lon": 0.0}, {"lat": 38.933253, "is_disabled": 0, "type": "electric_scooter", "lon": -77.04366983333334, "bike_id": "78907957391421128a91782a29dcf146", "fusion_lat": 0.0, "name": "78907957391421128a91782a29dcf146", "is_reserved": 0, "rental_uris": {"android": "https://dc.lft.to/lastmile_qr_scan", "ios": "https://dc.lft.to/lastmile_qr_scan"}, "fusion_lon": 0.0}, {"lat": 38.916853333333336, "is_disabled": 0, "type": "electric_scooter", "lon": -77.02397066666667, "bike_id": "cea0315dbcd8ebe9c11ce1d3afe9f102", "fusion_lat": 0.0, "name": "cea0315dbcd8ebe9c11ce1d3afe9f102", "is_reserved": 0, "rental_uris": {"android": "https://dc.lft.to/lastmile_qr_scan", "ios": "https://dc.lft.to/lastmile_qr_scan"}, "fusion_lon": 0.0}, {"lat": 38.919587666666665, "is_disabled": 0, "type": "electric_scooter", "lon": -76.980776, "bike_id": "8d4fb13ff57499ab7bca928ddbef47f2", "fusion_lat": 0.0, "name": "8d4fb13ff57499ab7bca928ddbef47f2", "is_reserved": 0, "rental_uris": {"android": "https://dc.lft.to/lastmile_qr_scan", "ios": "https://dc.lft.to/lastmile_qr_scan"}, "fusion_lon": 0.0}, {"lat": 38.85559516666667, "is_disabled": 0, "type": "electric_bike", "lon": -77.1112975, "bike_id": "26e13e1e40bc3428847bd12e92671c93", "fusion_lat": 0.0, "name": "26e13e1e40bc3428847bd12e92671c93", "is_reserved": 0, "rental_uris": {"android": "https://dc.lft.to/lastmile_qr_scan", "ios": "https://dc.lft.to/lastmile_qr_scan"}, "fusion_lon": 0.0}, {"lat": 38.88734566666667, "is_disabled": 0, "type": "electric_scooter", "lon": -77.0319025, "bike_id": "22f6fefd960cab135d7fec7c2952e8b1", "fusion_lat": 0.0, "name": "22f6fefd960cab135d7fec7c2952e8b1", "is_reserved": 0, "rental_uris": {"android": "https://dc.lft.to/lastmile_qr_scan", "ios": "https://dc.lft.to/lastmile_qr_scan"}, "fusion_lon": 0.0}, {"lat": 38.9411775, "is_disabled": 0, "type": "electric_scooter", "lon": -77.00064083333334, "bike_id": "37cc9023782d93846a073791861f424a", "fusion_lat": 0.0, "name": "37cc9023782d93846a073791861f424a", "is_reserved": 0, "rental_uris": {"android": "https://dc.lft.to/lastmile_qr_scan", "ios": "https://dc.lft.to/lastmile_qr_scan"}, "fusion_lon": 0.0}, {"lat": 38.911887666666665, "is_disabled": 0, "type": "electric_scooter", "lon": -77.03211316666666, "bike_id": "a049f134938aec5c6633f765e9922639", "fusion_lat": 0.0, "name": "a049f134938aec5c6633f765e9922639", "is_reserved": 0, "rental_uris": {"android": "https://dc.lft.to/lastmile_qr_scan", "ios": "https://dc.lft.to/lastmile_qr_scan"}, "fusion_lon": 0.0}, {"lat": 38.916866, "is_disabled": 0, "type": "electric_scooter", "lon": -77.00200183333334, "bike_id": "dc87204a4bd5f524b3229371ccd59307", "fusion_lat": 0.0, "name": "dc87204a4bd5f524b3229371ccd59307", "is_reserved": 0, "rental_uris": {"android": "https://dc.lft.to/lastmile_qr_scan", "ios": "https://dc.lft.to/lastmile_qr_scan"}, "fusion_lon": 0.0}, {"lat": 38.9588715, "is_disabled": 0, "type": "electric_bike", "lon": -76.924831, "bike_id": "03d49ecdb3a85529e2f51e3abc49e4ee", "fusion_lat": 0.0, "name": "03d49ecdb3a85529e2f51e3abc49e4ee", "is_reserved": 0, "rental_uris": {"android": "https://dc.lft.to/lastmile_qr_scan", "ios": "https://dc.lft.to/lastmile_qr_scan"}, "fusion_lon": 0.0}, {"lat": 38.92536716666667, "is_disabled": 0, "type": "electric_scooter", "lon": -77.02633416666667, "bike_id": "5493059ca7eb878b8e4f57e8f0ce9dd7", "fusion_lat": 0.0, "name": "5493059ca7eb878b8e4f57e8f0ce9dd7", "is_reserved": 0, "rental_uris": {"android": "https://dc.lft.to/lastmile_qr_scan", "ios": "https://dc.lft.to/lastmile_qr_scan"}, "fusion_lon": 0.0}, {"lat": 38.883622333333335, "is_disabled": 0, "type": "electric_scooter", "lon": -76.94152816666667, "bike_id": "632c19d7ebd3de69aa56d36a8c723132", "fusion_lat": 0.0, "name": "632c19d7ebd3de69aa56d36a8c723132", "is_reserved": 0, "rental_uris": {"android": "https://dc.lft.to/lastmile_qr_scan", "ios": "https://dc.lft.to/lastmile_qr_scan"}, "fusion_lon": 0.0}, {"lat": 38.90750166666667, "is_disabled": 0, "type": "electric_scooter", "lon": -77.00080983333334, "bike_id": "01e77d35fa260698b93e63e444073927", "fusion_lat": 0.0, "name": "01e77d35fa260698b93e63e444073927", "is_reserved": 0, "rental_uris": {"android": "https://dc.lft.to/lastmile_qr_scan", "ios": "https://dc.lft.to/lastmile_qr_scan"}, "fusion_lon": 0.0}, {"lat": 38.907099333333335, "is_disabled": 0, "type": "electric_scooter", "lon": -77.06309466666667, "bike_id": "02f658ed01c96692e2ffe147ef35e640", "fusion_lat": 0.0, "name": "02f658ed01c96692e2ffe147ef35e640", "is_reserved": 0, "rental_uris": {"android": "https://dc.lft.to/lastmile_qr_scan", "ios": "https://dc.lft.to/lastmile_qr_scan"}, "fusion_lon": 0.0}, {"lat": 38.9180915, "is_disabled": 0, "type": "electric_scooter", "lon": -77.03437883333334, "bike_id": "2af1c4ea160d694490d223f2075fa163", "fusion_lat": 0.0, "name": "2af1c4ea160d694490d223f2075fa163", "is_reserved": 0, "rental_uris": {"android": "https://dc.lft.to/lastmile_qr_scan", "ios": "https://dc.lft.to/lastmile_qr_scan"}, "fusion_lon": 0.0}, {"lat": 38.892323166666664, "is_disabled": 0, "type": "electric_scooter", "lon": -77.04999233333334, "bike_id": "b86df7f2f5acbcee15c767e433a56a95", "fusion_lat": 0.0, "name": "b86df7f2f5acbcee15c767e433a56a95", "is_reserved": 0, "rental_uris": {"android": "https://dc.lft.to/lastmile_qr_scan", "ios": "https://dc.lft.to/lastmile_qr_scan"}, "fusion_lon": 0.0}, {"lat": 38.85809866666666, "is_disabled": 0, "type": "electric_scooter", "lon": -76.9872805, "bike_id": "bad6af7aa7e26f94c4a824afdd668a49", "fusion_lat": 0.0, "name": "bad6af7aa7e26f94c4a824afdd668a49", "is_reserved": 0, "rental_uris": {"android": "https://dc.lft.to/lastmile_qr_scan", "ios": "https://dc.lft.to/lastmile_qr_scan"}, "fusion_lon": 0.0}, {"lat": 38.91322616666667, "is_disabled": 0, "type": "electric_scooter", "lon": -77.039995, "bike_id": "aa0a472a2f2c0e8248a43722d1b6722f", "fusion_lat": 0.0, "name": "aa0a472a2f2c0e8248a43722d1b6722f", "is_reserved": 0, "rental_uris": {"android": "https://dc.lft.to/lastmile_qr_scan", "ios": "https://dc.lft.to/lastmile_qr_scan"}, "fusion_lon": 0.0}, {"lat": 38.91872766666667, "is_disabled": 0, "type": "electric_scooter", "lon": -77.04051883333334, "bike_id": "a19292a12d74a86f91ef08105de7a459", "fusion_lat": 0.0, "name": "a19292a12d74a86f91ef08105de7a459", "is_reserved": 0, "rental_uris": {"android": "https://dc.lft.to/lastmile_qr_scan", "ios": "https://dc.lft.to/lastmile_qr_scan"}, "fusion_lon": 0.0}, {"lat": 38.883405, "is_disabled": 0, "type": "electric_scooter", "lon": -77.03144533333334, "bike_id": "cf6022051b33164c0ecd51bd625c9232", "fusion_lat": 0.0, "name": "cf6022051b33164c0ecd51bd625c9232", "is_reserved": 0, "rental_uris": {"android": "https://dc.lft.to/lastmile_qr_scan", "ios": "https://dc.lft.to/lastmile_qr_scan"}, "fusion_lon": 0.0}, {"lat": 38.922750666666666, "is_disabled": 0, "type": "electric_scooter", "lon": -77.04473733333333, "bike_id": "77979bb1bec2d31159eee1223806f203", "fusion_lat": 0.0, "name": "77979bb1bec2d31159eee1223806f203", "is_reserved": 0, "rental_uris": {"android": "https://dc.lft.to/lastmile_qr_scan", "ios": "https://dc.lft.to/lastmile_qr_scan"}, "fusion_lon": 0.0}, {"lat": 38.86108466666667, "is_disabled": 0, "type": "electric_scooter", "lon": -76.9678225, "bike_id": "dd4819f471cd5c1e492fb3cebb1e8eba", "fusion_lat": 0.0, "name": "dd4819f471cd5c1e492fb3cebb1e8eba", "is_reserved": 0, "rental_uris": {"android": "https://dc.lft.to/lastmile_qr_scan", "ios": "https://dc.lft.to/lastmile_qr_scan"}, "fusion_lon": 0.0}, {"lat": 38.923933166666664, "is_disabled": 0, "type": "electric_scooter", "lon": -77.00065766666667, "bike_id": "6f3ccf742f2a1398834cfccc13ae66cf", "fusion_lat": 0.0, "name": "6f3ccf742f2a1398834cfccc13ae66cf", "is_reserved": 0, "rental_uris": {"android": "https://dc.lft.to/lastmile_qr_scan", "ios": "https://dc.lft.to/lastmile_qr_scan"}, "fusion_lon": 0.0}, {"lat": 38.88039416666667, "is_disabled": 0, "type": "electric_scooter", "lon": -77.00361, "bike_id": "45622bfe94815237dce409736c34fd95", "fusion_lat": 0.0, "name": "45622bfe94815237dce409736c34fd95", "is_reserved": 0, "rental_uris": {"android": "https://dc.lft.to/lastmile_qr_scan", "ios": "https://dc.lft.to/lastmile_qr_scan"}, "fusion_lon": 0.0}, {"lat": 38.91426283333333, "is_disabled": 0, "type": "electric_scooter", "lon": -77.031816, "bike_id": "1cd6d73ac6eefc4a1c2db4d5c5c37d1b", "fusion_lat": 0.0, "name": "1cd6d73ac6eefc4a1c2db4d5c5c37d1b", "is_reserved": 0, "rental_uris": {"android": "https://dc.lft.to/lastmile_qr_scan", "ios": "https://dc.lft.to/lastmile_qr_scan"}, "fusion_lon": 0.0}, {"lat": 38.9074, "is_disabled": 0, "type": "electric_scooter", "lon": -77.0345065, "bike_id": "af23839623f6be5681979971bc7b5c77", "fusion_lat": 0.0, "name": "af23839623f6be5681979971bc7b5c77", "is_reserved": 0, "rental_uris": {"android": "https://dc.lft.to/lastmile_qr_scan", "ios": "https://dc.lft.to/lastmile_qr_scan"}, "fusion_lon": 0.0}, {"lat": 38.87064483333333, "is_disabled": 0, "type": "electric_scooter", "lon": -77.00836966666667, "bike_id": "0580d04998cf1ef1021ea0478e22202f", "fusion_lat": 0.0, "name": "0580d04998cf1ef1021ea0478e22202f", "is_reserved": 0, "rental_uris": {"android": "https://dc.lft.to/lastmile_qr_scan", "ios": "https://dc.lft.to/lastmile_qr_scan"}, "fusion_lon": 0.0}, {"lat": 38.862124666666666, "is_disabled": 0, "type": "electric_bike", "lon": -76.99775, "bike_id": "b633803150ba6f65548c6bae9549c7c6", "fusion_lat": 0.0, "name": "b633803150ba6f65548c6bae9549c7c6", "is_reserved": 0, "rental_uris": {"android": "https://dc.lft.to/lastmile_qr_scan", "ios": "https://dc.lft.to/lastmile_qr_scan"}, "fusion_lon": 0.0}, {"lat": 38.86674766666667, "is_disabled": 0, "type": "electric_scooter", "lon": -76.98536, "bike_id": "0375db32b3db258d892da75df3493b1e", "fusion_lat": 0.0, "name": "0375db32b3db258d892da75df3493b1e", "is_reserved": 0, "rental_uris": {"android": "https://dc.lft.to/lastmile_qr_scan", "ios": "https://dc.lft.to/lastmile_qr_scan"}, "fusion_lon": 0.0}, {"lat": 38.897131333333334, "is_disabled": 0, "type": "electric_scooter", "lon": -77.00716866666667, "bike_id": "9fe5d2ee7300602cdce48b0bbb637fc5", "fusion_lat": 0.0, "name": "9fe5d2ee7300602cdce48b0bbb637fc5", "is_reserved": 0, "rental_uris": {"android": "https://dc.lft.to/lastmile_qr_scan", "ios": "https://dc.lft.to/lastmile_qr_scan"}, "fusion_lon": 0.0}, {"lat": 38.915435333333335, "is_disabled": 0, "type": "electric_scooter", "lon": -77.022026, "bike_id": "9f12f39a0dc4055b7de25342a341a323", "fusion_lat": 0.0, "name": "9f12f39a0dc4055b7de25342a341a323", "is_reserved": 0, "rental_uris": {"android": "https://dc.lft.to/lastmile_qr_scan", "ios": "https://dc.lft.to/lastmile_qr_scan"}, "fusion_lon": 0.0}, {"lat": 38.9053205, "is_disabled": 0, "type": "electric_scooter", "lon": -77.05711016666666, "bike_id": "4719a417316933fe592ea8fa5d3bed25", "fusion_lat": 0.0, "name": "4719a417316933fe592ea8fa5d3bed25", "is_reserved": 0, "rental_uris": {"android": "https://dc.lft.to/lastmile_qr_scan", "ios": "https://dc.lft.to/lastmile_qr_scan"}, "fusion_lon": 0.0}, {"lat": 38.900137666666666, "is_disabled": 0, "type": "electric_scooter", "lon": -77.0120105, "bike_id": "4e58ca27eea52aaddf6a25069ff1b958", "fusion_lat": 0.0, "name": "4e58ca27eea52aaddf6a25069ff1b958", "is_reserved": 0, "rental_uris": {"android": "https://dc.lft.to/lastmile_qr_scan", "ios": "https://dc.lft.to/lastmile_qr_scan"}, "fusion_lon": 0.0}, {"lat": 38.91690633333333, "is_disabled": 0, "type": "electric_scooter", "lon": -77.0377135, "bike_id": "b45c6c08f1dea715a2e4cf76d1c91dd5", "fusion_lat": 0.0, "name": "b45c6c08f1dea715a2e4cf76d1c91dd5", "is_reserved": 0, "rental_uris": {"android": "https://dc.lft.to/lastmile_qr_scan", "ios": "https://dc.lft.to/lastmile_qr_scan"}, "fusion_lon": 0.0}, {"lat": 38.933149666666665, "is_disabled": 0, "type": "electric_scooter", "lon": -77.04520783333334, "bike_id": "05f017a9672bd02eda7853b36699981c", "fusion_lat": 0.0, "name": "05f017a9672bd02eda7853b36699981c", "is_reserved": 0, "rental_uris": {"android": "https://dc.lft.to/lastmile_qr_scan", "ios": "https://dc.lft.to/lastmile_qr_scan"}, "fusion_lon": 0.0}, {"lat": 38.898724333333334, "is_disabled": 0, "type": "electric_scooter", "lon": -77.02018783333334, "bike_id": "2e61c1f17194902105d266abb6aacbb4", "fusion_lat": 0.0, "name": "2e61c1f17194902105d266abb6aacbb4", "is_reserved": 0, "rental_uris": {"android": "https://dc.lft.to/lastmile_qr_scan", "ios": "https://dc.lft.to/lastmile_qr_scan"}, "fusion_lon": 0.0}, {"lat": 38.892343833333335, "is_disabled": 0, "type": "electric_scooter", "lon": -77.026068, "bike_id": "ee3f1fc63f18d0c800b0cb3d82dd9c99", "fusion_lat": 0.0, "name": "ee3f1fc63f18d0c800b0cb3d82dd9c99", "is_reserved": 0, "rental_uris": {"android": "https://dc.lft.to/lastmile_qr_scan", "ios": "https://dc.lft.to/lastmile_qr_scan"}, "fusion_lon": 0.0}, {"lat": 38.87879066666667, "is_disabled": 0, "type": "electric_scooter", "lon": -77.00742483333333, "bike_id": "4bbe086a9120bef548dc92d31a2ed989", "fusion_lat": 0.0, "name": "4bbe086a9120bef548dc92d31a2ed989", "is_reserved": 0, "rental_uris": {"android": "https://dc.lft.to/lastmile_qr_scan", "ios": "https://dc.lft.to/lastmile_qr_scan"}, "fusion_lon": 0.0}, {"lat": 38.8667575, "is_disabled": 0, "type": "electric_scooter", "lon": -76.98535233333334, "bike_id": "699d7631e801147b74a5f641530d84b4", "fusion_lat": 0.0, "name": "699d7631e801147b74a5f641530d84b4", "is_reserved": 0, "rental_uris": {"android": "https://dc.lft.to/lastmile_qr_scan", "ios": "https://dc.lft.to/lastmile_qr_scan"}, "fusion_lon": 0.0}, {"lat": 38.877296666666666, "is_disabled": 0, "type": "electric_bike", "lon": -76.98107, "bike_id": "ec66d2e54d8199ae637865450667d76f", "fusion_lat": 0.0, "name": "ec66d2e54d8199ae637865450667d76f", "is_reserved": 0, "rental_uris": {"android": "https://dc.lft.to/lastmile_qr_scan", "ios": "https://dc.lft.to/lastmile_qr_scan"}, "fusion_lon": 0.0}, {"lat": 38.89737483333333, "is_disabled": 0, "type": "electric_scooter", "lon": -77.0007545, "bike_id": "1f6a47674ddaa14a0f61157efd269e7f", "fusion_lat": 0.0, "name": "1f6a47674ddaa14a0f61157efd269e7f", "is_reserved": 0, "rental_uris": {"android": "https://dc.lft.to/lastmile_qr_scan", "ios": "https://dc.lft.to/lastmile_qr_scan"}, "fusion_lon": 0.0}, {"lat": 38.91408033333333, "is_disabled": 0, "type": "electric_scooter", "lon": -77.03864633333333, "bike_id": "66dee5dddfd465ba5b2e02d12843b276", "fusion_lat": 0.0, "name": "66dee5dddfd465ba5b2e02d12843b276", "is_reserved": 0, "rental_uris": {"android": "https://dc.lft.to/lastmile_qr_scan", "ios": "https://dc.lft.to/lastmile_qr_scan"}, "fusion_lon": 0.0}, {"lat": 38.929751333333336, "is_disabled": 0, "type": "electric_scooter", "lon": -77.01299633333333, "bike_id": "78ed72a3c56bb131d61496c092736892", "fusion_lat": 0.0, "name": "78ed72a3c56bb131d61496c092736892", "is_reserved": 0, "rental_uris": {"android": "https://dc.lft.to/lastmile_qr_scan", "ios": "https://dc.lft.to/lastmile_qr_scan"}, "fusion_lon": 0.0}, {"lat": 38.906521833333336, "is_disabled": 0, "type": "electric_scooter", "lon": -77.03856883333333, "bike_id": "49505e2b41c75f6355eaacbd4aed34f8", "fusion_lat": 0.0, "name": "49505e2b41c75f6355eaacbd4aed34f8", "is_reserved": 0, "rental_uris": {"android": "https://dc.lft.to/lastmile_qr_scan", "ios": "https://dc.lft.to/lastmile_qr_scan"}, "fusion_lon": 0.0}, {"lat": 38.929820666666664, "is_disabled": 0, "type": "electric_bike", "lon": -77.0327905, "bike_id": "e459c6d6231ed605c3cedf36cf24bcc1", "fusion_lat": 0.0, "name": "e459c6d6231ed605c3cedf36cf24bcc1", "is_reserved": 0, "rental_uris": {"android": "https://dc.lft.to/lastmile_qr_scan", "ios": "https://dc.lft.to/lastmile_qr_scan"}, "fusion_lon": 0.0}, {"lat": 38.92116516666667, "is_disabled": 0, "type": "electric_scooter", "lon": -77.0365325, "bike_id": "711d6afe019ad06c2449455639b6fa41", "fusion_lat": 0.0, "name": "711d6afe019ad06c2449455639b6fa41", "is_reserved": 0, "rental_uris": {"android": "https://dc.lft.to/lastmile_qr_scan", "ios": "https://dc.lft.to/lastmile_qr_scan"}, "fusion_lon": 0.0}, {"lat": 38.85717866666667, "is_disabled": 0, "type": "electric_bike", "lon": -76.970988, "bike_id": "45cafa57d667f40a2ae4acf750e576aa", "fusion_lat": 0.0, "name": "45cafa57d667f40a2ae4acf750e576aa", "is_reserved": 0, "rental_uris": {"android": "https://dc.lft.to/lastmile_qr_scan", "ios": "https://dc.lft.to/lastmile_qr_scan"}, "fusion_lon": 0.0}, {"lat": 38.91771933333333, "is_disabled": 0, "type": "electric_scooter", "lon": -77.01491533333333, "bike_id": "c59b98deaaa1d9253c4e2f92a538db1d", "fusion_lat": 0.0, "name": "c59b98deaaa1d9253c4e2f92a538db1d", "is_reserved": 0, "rental_uris": {"android": "https://dc.lft.to/lastmile_qr_scan", "ios": "https://dc.lft.to/lastmile_qr_scan"}, "fusion_lon": 0.0}, {"lat": 38.89935916666667, "is_disabled": 0, "type": "electric_scooter", "lon": -77.0416715, "bike_id": "819880737858f2c756fa5067287efc2d", "fusion_lat": 0.0, "name": "819880737858f2c756fa5067287efc2d", "is_reserved": 0, "rental_uris": {"android": "https://dc.lft.to/lastmile_qr_scan", "ios": "https://dc.lft.to/lastmile_qr_scan"}, "fusion_lon": 0.0}, {"lat": 38.871432, "is_disabled": 0, "type": "electric_bike", "lon": -76.9370015, "bike_id": "e5f597382a402ad268d313bc5c743cd4", "fusion_lat": 0.0, "name": "e5f597382a402ad268d313bc5c743cd4", "is_reserved": 0, "rental_uris": {"android": "https://dc.lft.to/lastmile_qr_scan", "ios": "https://dc.lft.to/lastmile_qr_scan"}, "fusion_lon": 0.0}, {"lat": 38.9161765, "is_disabled": 0, "type": "electric_scooter", "lon": -77.0231455, "bike_id": "bf40e7d936d9a0d608b9bbde30026f95", "fusion_lat": 0.0, "name": "bf40e7d936d9a0d608b9bbde30026f95", "is_reserved": 0, "rental_uris": {"android": "https://dc.lft.to/lastmile_qr_scan", "ios": "https://dc.lft.to/lastmile_qr_scan"}, "fusion_lon": 0.0}, {"lat": 38.96135433333333, "is_disabled": 0, "type": "electric_scooter", "lon": -77.02232633333334, "bike_id": "17e2630853bf2ba163ea91d1a4c63741", "fusion_lat": 0.0, "name": "17e2630853bf2ba163ea91d1a4c63741", "is_reserved": 0, "rental_uris": {"android": "https://dc.lft.to/lastmile_qr_scan", "ios": "https://dc.lft.to/lastmile_qr_scan"}, "fusion_lon": 0.0}, {"lat": 38.92081533333333, "is_disabled": 0, "type": "electric_scooter", "lon": -77.02544833333333, "bike_id": "baba20c0a7e43fb2f0657fb81ceceb76", "fusion_lat": 0.0, "name": "baba20c0a7e43fb2f0657fb81ceceb76", "is_reserved": 0, "rental_uris": {"android": "https://dc.lft.to/lastmile_qr_scan", "ios": "https://dc.lft.to/lastmile_qr_scan"}, "fusion_lon": 0.0}, {"lat": 38.94822666666666, "is_disabled": 0, "type": "electric_scooter", "lon": -76.99908416666666, "bike_id": "e236afbbce8830d0e212ececb22915bb", "fusion_lat": 0.0, "name": "e236afbbce8830d0e212ececb22915bb", "is_reserved": 0, "rental_uris": {"android": "https://dc.lft.to/lastmile_qr_scan", "ios": "https://dc.lft.to/lastmile_qr_scan"}, "fusion_lon": 0.0}, {"lat": 38.9095365, "is_disabled": 0, "type": "electric_scooter", "lon": -77.03282883333334, "bike_id": "73aca6395095aeb0d834816e38278037", "fusion_lat": 0.0, "name": "73aca6395095aeb0d834816e38278037", "is_reserved": 0, "rental_uris": {"android": "https://dc.lft.to/lastmile_qr_scan", "ios": "https://dc.lft.to/lastmile_qr_scan"}, "fusion_lon": 0.0}, {"lat": 38.90208066666667, "is_disabled": 0, "type": "electric_scooter", "lon": -76.99946483333333, "bike_id": "d2ffa9795dbf5e114ad99cfd17a5e8c9", "fusion_lat": 0.0, "name": "d2ffa9795dbf5e114ad99cfd17a5e8c9", "is_reserved": 0, "rental_uris": {"android": "https://dc.lft.to/lastmile_qr_scan", "ios": "https://dc.lft.to/lastmile_qr_scan"}, "fusion_lon": 0.0}, {"lat": 38.880407, "is_disabled": 0, "type": "electric_scooter", "lon": -76.98631366666666, "bike_id": "20ba7efe6daae2415e41436ef3dbcdac", "fusion_lat": 0.0, "name": "20ba7efe6daae2415e41436ef3dbcdac", "is_reserved": 0, "rental_uris": {"android": "https://dc.lft.to/lastmile_qr_scan", "ios": "https://dc.lft.to/lastmile_qr_scan"}, "fusion_lon": 0.0}, {"lat": 38.916733, "is_disabled": 0, "type": "electric_scooter", "lon": -77.032033, "bike_id": "a7889bd391a8fc34212f75a2f423aab3", "fusion_lat": 0.0, "name": "a7889bd391a8fc34212f75a2f423aab3", "is_reserved": 0, "rental_uris": {"android": "https://dc.lft.to/lastmile_qr_scan", "ios": "https://dc.lft.to/lastmile_qr_scan"}, "fusion_lon": 0.0}, {"lat": 38.91399916666667, "is_disabled": 0, "type": "electric_scooter", "lon": -77.02106933333333, "bike_id": "8318d9fc0bb2bc6c3ab412aed10f99d6", "fusion_lat": 0.0, "name": "8318d9fc0bb2bc6c3ab412aed10f99d6", "is_reserved": 0, "rental_uris": {"android": "https://dc.lft.to/lastmile_qr_scan", "ios": "https://dc.lft.to/lastmile_qr_scan"}, "fusion_lon": 0.0}, {"lat": 38.914106333333336, "is_disabled": 0, "type": "electric_scooter", "lon": -77.02213833333333, "bike_id": "c2ce447e48d212c2b55b543776a14114", "fusion_lat": 0.0, "name": "c2ce447e48d212c2b55b543776a14114", "is_reserved": 0, "rental_uris": {"android": "https://dc.lft.to/lastmile_qr_scan", "ios": "https://dc.lft.to/lastmile_qr_scan"}, "fusion_lon": 0.0}, {"lat": 38.962203833333334, "is_disabled": 0, "type": "electric_bike", "lon": -77.02622183333334, "bike_id": "ba8e31920ce466381cd8969a376a2265", "fusion_lat": 0.0, "name": "ba8e31920ce466381cd8969a376a2265", "is_reserved": 0, "rental_uris": {"android": "https://dc.lft.to/lastmile_qr_scan", "ios": "https://dc.lft.to/lastmile_qr_scan"}, "fusion_lon": 0.0}, {"lat": 38.895050833333336, "is_disabled": 0, "type": "electric_scooter", "lon": -77.003236, "bike_id": "e2104e5f0c184ffb46384f7e40266981", "fusion_lat": 0.0, "name": "e2104e5f0c184ffb46384f7e40266981", "is_reserved": 0, "rental_uris": {"android": "https://dc.lft.to/lastmile_qr_scan", "ios": "https://dc.lft.to/lastmile_qr_scan"}, "fusion_lon": 0.0}, {"lat": 38.922666, "is_disabled": 0, "type": "electric_scooter", "lon": -77.02240116666667, "bike_id": "20b32c75ddad1b3b3fcf2849f9a38ac6", "fusion_lat": 0.0, "name": "20b32c75ddad1b3b3fcf2849f9a38ac6", "is_reserved": 0, "rental_uris": {"android": "https://dc.lft.to/lastmile_qr_scan", "ios": "https://dc.lft.to/lastmile_qr_scan"}, "fusion_lon": 0.0}, {"lat": 38.8706905, "is_disabled": 0, "type": "electric_scooter", "lon": -77.00840016666666, "bike_id": "23241ee9338ddec837768ef8658558d1", "fusion_lat": 0.0, "name": "23241ee9338ddec837768ef8658558d1", "is_reserved": 0, "rental_uris": {"android": "https://dc.lft.to/lastmile_qr_scan", "ios": "https://dc.lft.to/lastmile_qr_scan"}, "fusion_lon": 0.0}, {"lat": 38.881960166666666, "is_disabled": 0, "type": "electric_scooter", "lon": -76.9960885, "bike_id": "8c6631436df20a9307857a3d8a11bdeb", "fusion_lat": 0.0, "name": "8c6631436df20a9307857a3d8a11bdeb", "is_reserved": 0, "rental_uris": {"android": "https://dc.lft.to/lastmile_qr_scan", "ios": "https://dc.lft.to/lastmile_qr_scan"}, "fusion_lon": 0.0}, {"lat": 38.925751166666664, "is_disabled": 0, "type": "electric_scooter", "lon": -77.04370466666667, "bike_id": "8f330ee997842391db2357af4995e788", "fusion_lat": 0.0, "name": "8f330ee997842391db2357af4995e788", "is_reserved": 0, "rental_uris": {"android": "https://dc.lft.to/lastmile_qr_scan", "ios": "https://dc.lft.to/lastmile_qr_scan"}, "fusion_lon": 0.0}, {"lat": 38.93199533333333, "is_disabled": 0, "type": "electric_scooter", "lon": -77.04422, "bike_id": "8225a946bf77d79c57ee317fd17cf90c", "fusion_lat": 0.0, "name": "8225a946bf77d79c57ee317fd17cf90c", "is_reserved": 0, "rental_uris": {"android": "https://dc.lft.to/lastmile_qr_scan", "ios": "https://dc.lft.to/lastmile_qr_scan"}, "fusion_lon": 0.0}, {"lat": 38.912678, "is_disabled": 0, "type": "electric_scooter", "lon": -77.02251766666667, "bike_id": "081e5e6d83f92258bd9a5301bfd79a9b", "fusion_lat": 0.0, "name": "081e5e6d83f92258bd9a5301bfd79a9b", "is_reserved": 0, "rental_uris": {"android": "https://dc.lft.to/lastmile_qr_scan", "ios": "https://dc.lft.to/lastmile_qr_scan"}, "fusion_lon": 0.0}, {"lat": 38.89758716666667, "is_disabled": 0, "type": "electric_scooter", "lon": -77.05497533333333, "bike_id": "894daf73e684d6811a24bf7e60e23073", "fusion_lat": 0.0, "name": "894daf73e684d6811a24bf7e60e23073", "is_reserved": 0, "rental_uris": {"android": "https://dc.lft.to/lastmile_qr_scan", "ios": "https://dc.lft.to/lastmile_qr_scan"}, "fusion_lon": 0.0}, {"lat": 38.9321185, "is_disabled": 0, "type": "electric_scooter", "lon": -77.03512183333333, "bike_id": "469e9afa50098646a69655e7057e4bed", "fusion_lat": 0.0, "name": "469e9afa50098646a69655e7057e4bed", "is_reserved": 0, "rental_uris": {"android": "https://dc.lft.to/lastmile_qr_scan", "ios": "https://dc.lft.to/lastmile_qr_scan"}, "fusion_lon": 0.0}, {"lat": 38.916117, "is_disabled": 0, "type": "electric_scooter", "lon": -77.0213195, "bike_id": "eefdb0ada34ae493b357d8524ae8aa3f", "fusion_lat": 0.0, "name": "eefdb0ada34ae493b357d8524ae8aa3f", "is_reserved": 0, "rental_uris": {"android": "https://dc.lft.to/lastmile_qr_scan", "ios": "https://dc.lft.to/lastmile_qr_scan"}, "fusion_lon": 0.0}, {"lat": 38.93110333333333, "is_disabled": 0, "type": "electric_scooter", "lon": -77.03509283333334, "bike_id": "19f4fbc192a4431b8c192d03f7d91191", "fusion_lat": 0.0, "name": "19f4fbc192a4431b8c192d03f7d91191", "is_reserved": 0, "rental_uris": {"android": "https://dc.lft.to/lastmile_qr_scan", "ios": "https://dc.lft.to/lastmile_qr_scan"}, "fusion_lon": 0.0}, {"lat": 38.87631283333333, "is_disabled": 0, "type": "electric_scooter", "lon": -76.96521633333333, "bike_id": "6592c31b4c3c0f3fc103dcfb995cd29d", "fusion_lat": 0.0, "name": "6592c31b4c3c0f3fc103dcfb995cd29d", "is_reserved": 0, "rental_uris": {"android": "https://dc.lft.to/lastmile_qr_scan", "ios": "https://dc.lft.to/lastmile_qr_scan"}, "fusion_lon": 0.0}, {"lat": 38.914789999999996, "is_disabled": 0, "type": "electric_scooter", "lon": -76.983579, "bike_id": "4e36a5e9e1ff13312bf29a0492ae502b", "fusion_lat": 0.0, "name": "4e36a5e9e1ff13312bf29a0492ae502b", "is_reserved": 0, "rental_uris": {"android": "https://dc.lft.to/lastmile_qr_scan", "ios": "https://dc.lft.to/lastmile_qr_scan"}, "fusion_lon": 0.0}, {"lat": 38.907306, "is_disabled": 0, "type": "electric_scooter", "lon": -77.0070405, "bike_id": "b92bc4e3d86ceefe5bc842591ce69808", "fusion_lat": 0.0, "name": "b92bc4e3d86ceefe5bc842591ce69808", "is_reserved": 0, "rental_uris": {"android": "https://dc.lft.to/lastmile_qr_scan", "ios": "https://dc.lft.to/lastmile_qr_scan"}, "fusion_lon": 0.0}, {"lat": 38.944221666666664, "is_disabled": 0, "type": "electric_scooter", "lon": -77.06249833333334, "bike_id": "f80a008d357593a1a1c59c7f5332fbe1", "fusion_lat": 0.0, "name": "f80a008d357593a1a1c59c7f5332fbe1", "is_reserved": 0, "rental_uris": {"android": "https://dc.lft.to/lastmile_qr_scan", "ios": "https://dc.lft.to/lastmile_qr_scan"}, "fusion_lon": 0.0}, {"lat": 38.92608966666667, "is_disabled": 0, "type": "electric_scooter", "lon": -77.04186566666667, "bike_id": "75ed622afef8d960fb433f06adab1aa2", "fusion_lat": 0.0, "name": "75ed622afef8d960fb433f06adab1aa2", "is_reserved": 0, "rental_uris": {"android": "https://dc.lft.to/lastmile_qr_scan", "ios": "https://dc.lft.to/lastmile_qr_scan"}, "fusion_lon": 0.0}, {"lat": 38.92031816666667, "is_disabled": 0, "type": "electric_scooter", "lon": -77.01318566666667, "bike_id": "57851b291f8e6d711cae3a2d66c1705e", "fusion_lat": 0.0, "name": "57851b291f8e6d711cae3a2d66c1705e", "is_reserved": 0, "rental_uris": {"android": "https://dc.lft.to/lastmile_qr_scan", "ios": "https://dc.lft.to/lastmile_qr_scan"}, "fusion_lon": 0.0}, {"lat": 38.907514166666665, "is_disabled": 0, "type": "electric_scooter", "lon": -76.99898383333333, "bike_id": "3744e2f4c91bce752793c14cb3356ded", "fusion_lat": 0.0, "name": "3744e2f4c91bce752793c14cb3356ded", "is_reserved": 0, "rental_uris": {"android": "https://dc.lft.to/lastmile_qr_scan", "ios": "https://dc.lft.to/lastmile_qr_scan"}, "fusion_lon": 0.0}, {"lat": 38.8962225, "is_disabled": 0, "type": "electric_scooter", "lon": -77.04477316666667, "bike_id": "a6a6f8b1399e9ed4be108599ab9c3c79", "fusion_lat": 0.0, "name": "a6a6f8b1399e9ed4be108599ab9c3c79", "is_reserved": 0, "rental_uris": {"android": "https://dc.lft.to/lastmile_qr_scan", "ios": "https://dc.lft.to/lastmile_qr_scan"}, "fusion_lon": 0.0}, {"lat": 38.936048, "is_disabled": 0, "type": "electric_scooter", "lon": -77.03169683333333, "bike_id": "3da408e3f70d380e7b58686e44fb4cea", "fusion_lat": 0.0, "name": "3da408e3f70d380e7b58686e44fb4cea", "is_reserved": 0, "rental_uris": {"android": "https://dc.lft.to/lastmile_qr_scan", "ios": "https://dc.lft.to/lastmile_qr_scan"}, "fusion_lon": 0.0}, {"lat": 38.8949645, "is_disabled": 0, "type": "electric_scooter", "lon": -77.00211433333334, "bike_id": "62ae0514dd7406462bac45a00d4c204e", "fusion_lat": 0.0, "name": "62ae0514dd7406462bac45a00d4c204e", "is_reserved": 0, "rental_uris": {"android": "https://dc.lft.to/lastmile_qr_scan", "ios": "https://dc.lft.to/lastmile_qr_scan"}, "fusion_lon": 0.0}, {"lat": 38.918603, "is_disabled": 0, "type": "electric_scooter", "lon": -77.04167583333333, "bike_id": "eb97cbadb95df5cccf1fba44a8d0d4bf", "fusion_lat": 0.0, "name": "eb97cbadb95df5cccf1fba44a8d0d4bf", "is_reserved": 0, "rental_uris": {"android": "https://dc.lft.to/lastmile_qr_scan", "ios": "https://dc.lft.to/lastmile_qr_scan"}, "fusion_lon": 0.0}, {"lat": 38.97090133333333, "is_disabled": 0, "type": "electric_bike", "lon": -77.06964516666666, "bike_id": "22bfc92f26631c1927ba6b8ff21d07a4", "fusion_lat": 0.0, "name": "22bfc92f26631c1927ba6b8ff21d07a4", "is_reserved": 0, "rental_uris": {"android": "https://dc.lft.to/lastmile_qr_scan", "ios": "https://dc.lft.to/lastmile_qr_scan"}, "fusion_lon": 0.0}, {"lat": 38.915673166666664, "is_disabled": 0, "type": "electric_scooter", "lon": -77.020027, "bike_id": "b640c1516d3cc1cb31ede4b5602c0e6a", "fusion_lat": 0.0, "name": "b640c1516d3cc1cb31ede4b5602c0e6a", "is_reserved": 0, "rental_uris": {"android": "https://dc.lft.to/lastmile_qr_scan", "ios": "https://dc.lft.to/lastmile_qr_scan"}, "fusion_lon": 0.0}, {"lat": 38.87920716666667, "is_disabled": 0, "type": "electric_scooter", "lon": -77.03093716666666, "bike_id": "41efbdc5e680b66a5630dea04f8f8adf", "fusion_lat": 0.0, "name": "41efbdc5e680b66a5630dea04f8f8adf", "is_reserved": 0, "rental_uris": {"android": "https://dc.lft.to/lastmile_qr_scan", "ios": "https://dc.lft.to/lastmile_qr_scan"}, "fusion_lon": 0.0}, {"lat": 38.902773333333336, "is_disabled": 0, "type": "electric_scooter", "lon": -77.03862416666666, "bike_id": "92bd7b32afbe8e74160fc3d64df87e97", "fusion_lat": 0.0, "name": "92bd7b32afbe8e74160fc3d64df87e97", "is_reserved": 0, "rental_uris": {"android": "https://dc.lft.to/lastmile_qr_scan", "ios": "https://dc.lft.to/lastmile_qr_scan"}, "fusion_lon": 0.0}, {"lat": 38.921243, "is_disabled": 0, "type": "electric_scooter", "lon": -77.01804766666666, "bike_id": "fbba34a51f025312e0ad18df4ea8cff6", "fusion_lat": 0.0, "name": "fbba34a51f025312e0ad18df4ea8cff6", "is_reserved": 0, "rental_uris": {"android": "https://dc.lft.to/lastmile_qr_scan", "ios": "https://dc.lft.to/lastmile_qr_scan"}, "fusion_lon": 0.0}, {"lat": 38.85207333333334, "is_disabled": 0, "type": "electric_bike", "lon": -77.10129366666666, "bike_id": "37f7ca17bc27d38e33b532c5842253fe", "fusion_lat": 0.0, "name": "37f7ca17bc27d38e33b532c5842253fe", "is_reserved": 0, "rental_uris": {"android": "https://dc.lft.to/lastmile_qr_scan", "ios": "https://dc.lft.to/lastmile_qr_scan"}, "fusion_lon": 0.0}, {"lat": 38.884063833333336, "is_disabled": 0, "type": "electric_bike", "lon": -76.960561, "bike_id": "4a0bc600c86607bbfe3d50f8616b91ca", "fusion_lat": 0.0, "name": "4a0bc600c86607bbfe3d50f8616b91ca", "is_reserved": 0, "rental_uris": {"android": "https://dc.lft.to/lastmile_qr_scan", "ios": "https://dc.lft.to/lastmile_qr_scan"}, "fusion_lon": 0.0}, {"lat": 38.88470066666667, "is_disabled": 0, "type": "electric_scooter", "lon": -77.02416583333333, "bike_id": "57f54d5b38b41f43ca0f69e7b6ad07b9", "fusion_lat": 0.0, "name": "57f54d5b38b41f43ca0f69e7b6ad07b9", "is_reserved": 0, "rental_uris": {"android": "https://dc.lft.to/lastmile_qr_scan", "ios": "https://dc.lft.to/lastmile_qr_scan"}, "fusion_lon": 0.0}, {"lat": 38.86509916666667, "is_disabled": 0, "type": "electric_scooter", "lon": -76.9900665, "bike_id": "d98ef2cb531da6d8e9bba4bc4aa20b78", "fusion_lat": 0.0, "name": "d98ef2cb531da6d8e9bba4bc4aa20b78", "is_reserved": 0, "rental_uris": {"android": "https://dc.lft.to/lastmile_qr_scan", "ios": "https://dc.lft.to/lastmile_qr_scan"}, "fusion_lon": 0.0}, {"lat": 38.90558016666667, "is_disabled": 0, "type": "electric_scooter", "lon": -76.99872266666667, "bike_id": "31c2fdf9993bca62fc655c40eca1ea6c", "fusion_lat": 0.0, "name": "31c2fdf9993bca62fc655c40eca1ea6c", "is_reserved": 0, "rental_uris": {"android": "https://dc.lft.to/lastmile_qr_scan", "ios": "https://dc.lft.to/lastmile_qr_scan"}, "fusion_lon": 0.0}, {"lat": 38.880123833333336, "is_disabled": 0, "type": "electric_scooter", "lon": -77.02482283333333, "bike_id": "f7df4d22366f8c2adc2b7c1af35d6f80", "fusion_lat": 0.0, "name": "f7df4d22366f8c2adc2b7c1af35d6f80", "is_reserved": 0, "rental_uris": {"android": "https://dc.lft.to/lastmile_qr_scan", "ios": "https://dc.lft.to/lastmile_qr_scan"}, "fusion_lon": 0.0}, {"lat": 38.90352433333334, "is_disabled": 0, "type": "electric_scooter", "lon": -77.0289015, "bike_id": "36e1750bbbf3bff6b034a027ff8a843d", "fusion_lat": 0.0, "name": "36e1750bbbf3bff6b034a027ff8a843d", "is_reserved": 0, "rental_uris": {"android": "https://dc.lft.to/lastmile_qr_scan", "ios": "https://dc.lft.to/lastmile_qr_scan"}, "fusion_lon": 0.0}, {"lat": 38.867121833333336, "is_disabled": 0, "type": "electric_scooter", "lon": -76.98721666666667, "bike_id": "ddd68ee0c4f86f05d58447ffd31a4974", "fusion_lat": 0.0, "name": "ddd68ee0c4f86f05d58447ffd31a4974", "is_reserved": 0, "rental_uris": {"android": "https://dc.lft.to/lastmile_qr_scan", "ios": "https://dc.lft.to/lastmile_qr_scan"}, "fusion_lon": 0.0}, {"lat": 38.89812583333333, "is_disabled": 0, "type": "electric_scooter", "lon": -77.03098183333333, "bike_id": "504815ad1251bf30cc6980a0914fa3bf", "fusion_lat": 0.0, "name": "504815ad1251bf30cc6980a0914fa3bf", "is_reserved": 0, "rental_uris": {"android": "https://dc.lft.to/lastmile_qr_scan", "ios": "https://dc.lft.to/lastmile_qr_scan"}, "fusion_lon": 0.0}, {"lat": 38.955631833333335, "is_disabled": 0, "type": "electric_scooter", "lon": -77.022265, "bike_id": "ba784faeebb03647038fdd81a861a910", "fusion_lat": 0.0, "name": "ba784faeebb03647038fdd81a861a910", "is_reserved": 0, "rental_uris": {"android": "https://dc.lft.to/lastmile_qr_scan", "ios": "https://dc.lft.to/lastmile_qr_scan"}, "fusion_lon": 0.0}, {"lat": 39.05633233333333, "is_disabled": 0, "type": "electric_bike", "lon": -77.12522516666667, "bike_id": "e5a4c1e31d4b15fba885dc212276f1a8", "fusion_lat": 0.0, "name": "e5a4c1e31d4b15fba885dc212276f1a8", "is_reserved": 0, "rental_uris": {"android": "https://dc.lft.to/lastmile_qr_scan", "ios": "https://dc.lft.to/lastmile_qr_scan"}, "fusion_lon": 0.0}, {"lat": 38.90280633333333, "is_disabled": 0, "type": "electric_scooter", "lon": -77.04383066666666, "bike_id": "e2197a7b74eb5adae32ad65d33349df4", "fusion_lat": 0.0, "name": "e2197a7b74eb5adae32ad65d33349df4", "is_reserved": 0, "rental_uris": {"android": "https://dc.lft.to/lastmile_qr_scan", "ios": "https://dc.lft.to/lastmile_qr_scan"}, "fusion_lon": 0.0}, {"lat": 38.89043783333334, "is_disabled": 0, "type": "electric_scooter", "lon": -76.95245416666667, "bike_id": "f0266e3ae53241ccf7830e20b10a73dd", "fusion_lat": 0.0, "name": "f0266e3ae53241ccf7830e20b10a73dd", "is_reserved": 0, "rental_uris": {"android": "https://dc.lft.to/lastmile_qr_scan", "ios": "https://dc.lft.to/lastmile_qr_scan"}, "fusion_lon": 0.0}, {"lat": 38.9320765, "is_disabled": 0, "type": "electric_scooter", "lon": -77.02245466666666, "bike_id": "86defbcded9d830b8a1c19ccc5f89600", "fusion_lat": 0.0, "name": "86defbcded9d830b8a1c19ccc5f89600", "is_reserved": 0, "rental_uris": {"android": "https://dc.lft.to/lastmile_qr_scan", "ios": "https://dc.lft.to/lastmile_qr_scan"}, "fusion_lon": 0.0}, {"lat": 38.88887283333333, "is_disabled": 0, "type": "electric_scooter", "lon": -76.931544, "bike_id": "405c0139aac2ce9c4982e8cc481a7f0f", "fusion_lat": 0.0, "name": "405c0139aac2ce9c4982e8cc481a7f0f", "is_reserved": 0, "rental_uris": {"android": "https://dc.lft.to/lastmile_qr_scan", "ios": "https://dc.lft.to/lastmile_qr_scan"}, "fusion_lon": 0.0}, {"lat": 38.8873505, "is_disabled": 0, "type": "electric_scooter", "lon": -77.01527883333333, "bike_id": "fe6272ddafe13f91076a1b543d03c2ee", "fusion_lat": 0.0, "name": "fe6272ddafe13f91076a1b543d03c2ee", "is_reserved": 0, "rental_uris": {"android": "https://dc.lft.to/lastmile_qr_scan", "ios": "https://dc.lft.to/lastmile_qr_scan"}, "fusion_lon": 0.0}, {"lat": 38.88410733333333, "is_disabled": 0, "type": "electric_bike", "lon": -76.95406083333333, "bike_id": "c60b911ba014f8a61c5bc72a5be67fa7", "fusion_lat": 0.0, "name": "c60b911ba014f8a61c5bc72a5be67fa7", "is_reserved": 0, "rental_uris": {"android": "https://dc.lft.to/lastmile_qr_scan", "ios": "https://dc.lft.to/lastmile_qr_scan"}, "fusion_lon": 0.0}, {"lat": 38.91193716666667, "is_disabled": 0, "type": "electric_scooter", "lon": -77.0428505, "bike_id": "67d24551a5e237cbdb98ea4299067007", "fusion_lat": 0.0, "name": "67d24551a5e237cbdb98ea4299067007", "is_reserved": 0, "rental_uris": {"android": "https://dc.lft.to/lastmile_qr_scan", "ios": "https://dc.lft.to/lastmile_qr_scan"}, "fusion_lon": 0.0}, {"lat": 38.919705, "is_disabled": 0, "type": "electric_scooter", "lon": -77.01214083333333, "bike_id": "b30bcb5b0a0bc872fac6ddd2136a90c9", "fusion_lat": 0.0, "name": "b30bcb5b0a0bc872fac6ddd2136a90c9", "is_reserved": 0, "rental_uris": {"android": "https://dc.lft.to/lastmile_qr_scan", "ios": "https://dc.lft.to/lastmile_qr_scan"}, "fusion_lon": 0.0}, {"lat": 38.9116725, "is_disabled": 0, "type": "electric_scooter", "lon": -77.0466705, "bike_id": "e10e4bdc3c74cf30b03b5292c92979dc", "fusion_lat": 0.0, "name": "e10e4bdc3c74cf30b03b5292c92979dc", "is_reserved": 0, "rental_uris": {"android": "https://dc.lft.to/lastmile_qr_scan", "ios": "https://dc.lft.to/lastmile_qr_scan"}, "fusion_lon": 0.0}, {"lat": 38.9329805, "is_disabled": 0, "type": "electric_scooter", "lon": -77.02194966666667, "bike_id": "64bbd14581d222a8539e221bf913e2c0", "fusion_lat": 0.0, "name": "64bbd14581d222a8539e221bf913e2c0", "is_reserved": 0, "rental_uris": {"android": "https://dc.lft.to/lastmile_qr_scan", "ios": "https://dc.lft.to/lastmile_qr_scan"}, "fusion_lon": 0.0}, {"lat": 38.901045833333335, "is_disabled": 0, "type": "electric_scooter", "lon": -77.05900716666666, "bike_id": "5345957a894425b591a957e5e0b49a2e", "fusion_lat": 0.0, "name": "5345957a894425b591a957e5e0b49a2e", "is_reserved": 0, "rental_uris": {"android": "https://dc.lft.to/lastmile_qr_scan", "ios": "https://dc.lft.to/lastmile_qr_scan"}, "fusion_lon": 0.0}, {"lat": 38.91191083333333, "is_disabled": 0, "type": "electric_scooter", "lon": -77.03630083333333, "bike_id": "60459bfd84779a8d1c212bf0af3e38b3", "fusion_lat": 0.0, "name": "60459bfd84779a8d1c212bf0af3e38b3", "is_reserved": 0, "rental_uris": {"android": "https://dc.lft.to/lastmile_qr_scan", "ios": "https://dc.lft.to/lastmile_qr_scan"}, "fusion_lon": 0.0}, {"lat": 38.923003, "is_disabled": 0, "type": "electric_scooter", "lon": -77.02328666666666, "bike_id": "463aca1072fda13ec58986c82fff46a9", "fusion_lat": 0.0, "name": "463aca1072fda13ec58986c82fff46a9", "is_reserved": 0, "rental_uris": {"android": "https://dc.lft.to/lastmile_qr_scan", "ios": "https://dc.lft.to/lastmile_qr_scan"}, "fusion_lon": 0.0}, {"lat": 38.898943833333334, "is_disabled": 0, "type": "electric_scooter", "lon": -77.07232516666667, "bike_id": "b8de7cda6cfcdce60e3b45dba0cd5f41", "fusion_lat": 0.0, "name": "b8de7cda6cfcdce60e3b45dba0cd5f41", "is_reserved": 0, "rental_uris": {"android": "https://dc.lft.to/lastmile_qr_scan", "ios": "https://dc.lft.to/lastmile_qr_scan"}, "fusion_lon": 0.0}, {"lat": 38.904000833333335, "is_disabled": 0, "type": "electric_scooter", "lon": -77.04488366666666, "bike_id": "bcdc5cd9f71aeb4f5c0a898e4c9ba8ee", "fusion_lat": 0.0, "name": "bcdc5cd9f71aeb4f5c0a898e4c9ba8ee", "is_reserved": 0, "rental_uris": {"android": "https://dc.lft.to/lastmile_qr_scan", "ios": "https://dc.lft.to/lastmile_qr_scan"}, "fusion_lon": 0.0}, {"lat": 38.912473166666665, "is_disabled": 0, "type": "electric_scooter", "lon": -77.0465205, "bike_id": "e2eb622ff9e242806008e2bb6d7e35e5", "fusion_lat": 0.0, "name": "e2eb622ff9e242806008e2bb6d7e35e5", "is_reserved": 0, "rental_uris": {"android": "https://dc.lft.to/lastmile_qr_scan", "ios": "https://dc.lft.to/lastmile_qr_scan"}, "fusion_lon": 0.0}, {"lat": 38.90675316666667, "is_disabled": 0, "type": "electric_scooter", "lon": -77.02709716666666, "bike_id": "93c260df8db7e33ca74bfa4ba58fcd11", "fusion_lat": 0.0, "name": "93c260df8db7e33ca74bfa4ba58fcd11", "is_reserved": 0, "rental_uris": {"android": "https://dc.lft.to/lastmile_qr_scan", "ios": "https://dc.lft.to/lastmile_qr_scan"}, "fusion_lon": 0.0}, {"lat": 38.900446, "is_disabled": 0, "type": "electric_scooter", "lon": -76.99706783333333, "bike_id": "26df4eca095403de8bd330ce0ec0bc92", "fusion_lat": 0.0, "name": "26df4eca095403de8bd330ce0ec0bc92", "is_reserved": 0, "rental_uris": {"android": "https://dc.lft.to/lastmile_qr_scan", "ios": "https://dc.lft.to/lastmile_qr_scan"}, "fusion_lon": 0.0}, {"lat": 38.8852545, "is_disabled": 0, "type": "electric_scooter", "lon": -77.0113355, "bike_id": "94bac41292f703fd6415ca507342809f", "fusion_lat": 0.0, "name": "94bac41292f703fd6415ca507342809f", "is_reserved": 0, "rental_uris": {"android": "https://dc.lft.to/lastmile_qr_scan", "ios": "https://dc.lft.to/lastmile_qr_scan"}, "fusion_lon": 0.0}, {"lat": 38.861677, "is_disabled": 0, "type": "electric_bike", "lon": -77.1314335, "bike_id": "ba0969ae597f416b03bbb6e78b2bb554", "fusion_lat": 0.0, "name": "ba0969ae597f416b03bbb6e78b2bb554", "is_reserved": 0, "rental_uris": {"android": "https://dc.lft.to/lastmile_qr_scan", "ios": "https://dc.lft.to/lastmile_qr_scan"}, "fusion_lon": 0.0}, {"lat": 38.91741866666667, "is_disabled": 0, "type": "electric_scooter", "lon": -77.03184583333334, "bike_id": "a20bdbebcbffe948af7cb5c68f440234", "fusion_lat": 0.0, "name": "a20bdbebcbffe948af7cb5c68f440234", "is_reserved": 0, "rental_uris": {"android": "https://dc.lft.to/lastmile_qr_scan", "ios": "https://dc.lft.to/lastmile_qr_scan"}, "fusion_lon": 0.0}, {"lat": 38.91708416666667, "is_disabled": 0, "type": "electric_scooter", "lon": -77.032183, "bike_id": "75cbb9d28a2ffffa1dbaa787781da5c1", "fusion_lat": 0.0, "name": "75cbb9d28a2ffffa1dbaa787781da5c1", "is_reserved": 0, "rental_uris": {"android": "https://dc.lft.to/lastmile_qr_scan", "ios": "https://dc.lft.to/lastmile_qr_scan"}, "fusion_lon": 0.0}, {"lat": 38.917903333333335, "is_disabled": 0, "type": "electric_bike", "lon": -76.971872, "bike_id": "36675e09b8c1143b653ec61cad5b7809", "fusion_lat": 0.0, "name": "36675e09b8c1143b653ec61cad5b7809", "is_reserved": 0, "rental_uris": {"android": "https://dc.lft.to/lastmile_qr_scan", "ios": "https://dc.lft.to/lastmile_qr_scan"}, "fusion_lon": 0.0}, {"lat": 38.867031833333336, "is_disabled": 0, "type": "electric_scooter", "lon": -76.98706083333333, "bike_id": "a49c7f18fe42d3a3268146bcc0806f40", "fusion_lat": 0.0, "name": "a49c7f18fe42d3a3268146bcc0806f40", "is_reserved": 0, "rental_uris": {"android": "https://dc.lft.to/lastmile_qr_scan", "ios": "https://dc.lft.to/lastmile_qr_scan"}, "fusion_lon": 0.0}, {"lat": 38.9056115, "is_disabled": 0, "type": "electric_scooter", "lon": -77.01770116666667, "bike_id": "95af6d59bfa485633ce416c39d4ce30e", "fusion_lat": 0.0, "name": "95af6d59bfa485633ce416c39d4ce30e", "is_reserved": 0, "rental_uris": {"android": "https://dc.lft.to/lastmile_qr_scan", "ios": "https://dc.lft.to/lastmile_qr_scan"}, "fusion_lon": 0.0}, {"lat": 38.9071035, "is_disabled": 0, "type": "electric_bike", "lon": -77.03095516666667, "bike_id": "fc2f2cf205267393f88f737848df1b71", "fusion_lat": 0.0, "name": "fc2f2cf205267393f88f737848df1b71", "is_reserved": 0, "rental_uris": {"android": "https://dc.lft.to/lastmile_qr_scan", "ios": "https://dc.lft.to/lastmile_qr_scan"}, "fusion_lon": 0.0}, {"lat": 38.908532, "is_disabled": 0, "type": "electric_scooter", "lon": -77.0062365, "bike_id": "2c6b5bf0523db83747b1e1fdf950f1ea", "fusion_lat": 0.0, "name": "2c6b5bf0523db83747b1e1fdf950f1ea", "is_reserved": 0, "rental_uris": {"android": "https://dc.lft.to/lastmile_qr_scan", "ios": "https://dc.lft.to/lastmile_qr_scan"}, "fusion_lon": 0.0}, {"lat": 38.937598666666666, "is_disabled": 0, "type": "electric_scooter", "lon": -77.021331, "bike_id": "130464a8e0eeac4fc5e92f107aa1ab5a", "fusion_lat": 0.0, "name": "130464a8e0eeac4fc5e92f107aa1ab5a", "is_reserved": 0, "rental_uris": {"android": "https://dc.lft.to/lastmile_qr_scan", "ios": "https://dc.lft.to/lastmile_qr_scan"}, "fusion_lon": 0.0}, {"lat": 38.896817166666665, "is_disabled": 0, "type": "electric_scooter", "lon": -77.051283, "bike_id": "ec408132904391a83133fdaa03ccbc02", "fusion_lat": 0.0, "name": "ec408132904391a83133fdaa03ccbc02", "is_reserved": 0, "rental_uris": {"android": "https://dc.lft.to/lastmile_qr_scan", "ios": "https://dc.lft.to/lastmile_qr_scan"}, "fusion_lon": 0.0}, {"lat": 38.917080166666665, "is_disabled": 0, "type": "electric_scooter", "lon": -77.02415633333334, "bike_id": "cd4a9615b654b3baafca9c9c8e65310d", "fusion_lat": 0.0, "name": "cd4a9615b654b3baafca9c9c8e65310d", "is_reserved": 0, "rental_uris": {"android": "https://dc.lft.to/lastmile_qr_scan", "ios": "https://dc.lft.to/lastmile_qr_scan"}, "fusion_lon": 0.0}, {"lat": 38.92221716666667, "is_disabled": 0, "type": "electric_scooter", "lon": -77.04332216666667, "bike_id": "cf8a1508f5f273a2a96c6b0c8bf06bc6", "fusion_lat": 0.0, "name": "cf8a1508f5f273a2a96c6b0c8bf06bc6", "is_reserved": 0, "rental_uris": {"android": "https://dc.lft.to/lastmile_qr_scan", "ios": "https://dc.lft.to/lastmile_qr_scan"}, "fusion_lon": 0.0}, {"lat": 38.918040833333336, "is_disabled": 0, "type": "electric_bike", "lon": -77.22338916666666, "bike_id": "43a40631f102f6ab084b78b9c7f79803", "fusion_lat": 0.0, "name": "43a40631f102f6ab084b78b9c7f79803", "is_reserved": 0, "rental_uris": {"android": "https://dc.lft.to/lastmile_qr_scan", "ios": "https://dc.lft.to/lastmile_qr_scan"}, "fusion_lon": 0.0}, {"lat": 38.89525716666667, "is_disabled": 0, "type": "electric_scooter", "lon": -77.00052333333333, "bike_id": "0ce1c8c1f2f9388004f560b40ab53fa8", "fusion_lat": 0.0, "name": "0ce1c8c1f2f9388004f560b40ab53fa8", "is_reserved": 0, "rental_uris": {"android": "https://dc.lft.to/lastmile_qr_scan", "ios": "https://dc.lft.to/lastmile_qr_scan"}, "fusion_lon": 0.0}, {"lat": 38.8636295, "is_disabled": 0, "type": "electric_scooter", "lon": -76.990308, "bike_id": "fca40414da1ce65217b97d57d2869bd6", "fusion_lat": 0.0, "name": "fca40414da1ce65217b97d57d2869bd6", "is_reserved": 0, "rental_uris": {"android": "https://dc.lft.to/lastmile_qr_scan", "ios": "https://dc.lft.to/lastmile_qr_scan"}, "fusion_lon": 0.0}, {"lat": 38.871472, "is_disabled": 0, "type": "electric_bike", "lon": -76.936643, "bike_id": "b64466d0b1d9af4f57f8ab74912481ad", "fusion_lat": 0.0, "name": "b64466d0b1d9af4f57f8ab74912481ad", "is_reserved": 0, "rental_uris": {"android": "https://dc.lft.to/lastmile_qr_scan", "ios": "https://dc.lft.to/lastmile_qr_scan"}, "fusion_lon": 0.0}, {"lat": 38.9230795, "is_disabled": 0, "type": "electric_scooter", "lon": -77.042081, "bike_id": "fa98a5695ee88db3a8ac2238728579b3", "fusion_lat": 0.0, "name": "fa98a5695ee88db3a8ac2238728579b3", "is_reserved": 0, "rental_uris": {"android": "https://dc.lft.to/lastmile_qr_scan", "ios": "https://dc.lft.to/lastmile_qr_scan"}, "fusion_lon": 0.0}, {"lat": 38.92129116666667, "is_disabled": 0, "type": "electric_scooter", "lon": -77.03653083333333, "bike_id": "64eb95fac292566da30a369a84f15ee5", "fusion_lat": 0.0, "name": "64eb95fac292566da30a369a84f15ee5", "is_reserved": 0, "rental_uris": {"android": "https://dc.lft.to/lastmile_qr_scan", "ios": "https://dc.lft.to/lastmile_qr_scan"}, "fusion_lon": 0.0}, {"lat": 38.903321166666665, "is_disabled": 0, "type": "electric_scooter", "lon": -76.97594333333333, "bike_id": "3f8f031f220fe9ce6ba9b85328fbc330", "fusion_lat": 0.0, "name": "3f8f031f220fe9ce6ba9b85328fbc330", "is_reserved": 0, "rental_uris": {"android": "https://dc.lft.to/lastmile_qr_scan", "ios": "https://dc.lft.to/lastmile_qr_scan"}, "fusion_lon": 0.0}, {"lat": 38.935835833333336, "is_disabled": 0, "type": "electric_bike", "lon": -77.10681366666667, "bike_id": "e6f3628981efc946675315790a817cd7", "fusion_lat": 0.0, "name": "e6f3628981efc946675315790a817cd7", "is_reserved": 0, "rental_uris": {"android": "https://dc.lft.to/lastmile_qr_scan", "ios": "https://dc.lft.to/lastmile_qr_scan"}, "fusion_lon": 0.0}, {"lat": 38.949486, "is_disabled": 0, "type": "electric_scooter", "lon": -77.01585016666667, "bike_id": "372030b76b36481be1fc60c0a9012fa8", "fusion_lat": 0.0, "name": "372030b76b36481be1fc60c0a9012fa8", "is_reserved": 0, "rental_uris": {"android": "https://dc.lft.to/lastmile_qr_scan", "ios": "https://dc.lft.to/lastmile_qr_scan"}, "fusion_lon": 0.0}, {"lat": 38.909489666666666, "is_disabled": 0, "type": "electric_scooter", "lon": -77.046529, "bike_id": "45ebd0e46eb9dd585d9d0d442dc046f7", "fusion_lat": 0.0, "name": "45ebd0e46eb9dd585d9d0d442dc046f7", "is_reserved": 0, "rental_uris": {"android": "https://dc.lft.to/lastmile_qr_scan", "ios": "https://dc.lft.to/lastmile_qr_scan"}, "fusion_lon": 0.0}, {"lat": 38.90283316666667, "is_disabled": 0, "type": "electric_scooter", "lon": -77.02310933333334, "bike_id": "b4150f8978101f80ebd5a9ea5dbdc220", "fusion_lat": 0.0, "name": "b4150f8978101f80ebd5a9ea5dbdc220", "is_reserved": 0, "rental_uris": {"android": "https://dc.lft.to/lastmile_qr_scan", "ios": "https://dc.lft.to/lastmile_qr_scan"}, "fusion_lon": 0.0}, {"lat": 38.91266916666667, "is_disabled": 0, "type": "electric_scooter", "lon": -77.0225045, "bike_id": "cc7859b75fe90f9c14e5ce77a9153523", "fusion_lat": 0.0, "name": "cc7859b75fe90f9c14e5ce77a9153523", "is_reserved": 0, "rental_uris": {"android": "https://dc.lft.to/lastmile_qr_scan", "ios": "https://dc.lft.to/lastmile_qr_scan"}, "fusion_lon": 0.0}, {"lat": 38.917440666666664, "is_disabled": 0, "type": "electric_scooter", "lon": -77.03186866666667, "bike_id": "f7defdd7787a926a03ad897bafd3199f", "fusion_lat": 0.0, "name": "f7defdd7787a926a03ad897bafd3199f", "is_reserved": 0, "rental_uris": {"android": "https://dc.lft.to/lastmile_qr_scan", "ios": "https://dc.lft.to/lastmile_qr_scan"}, "fusion_lon": 0.0}, {"lat": 38.949988, "is_disabled": 0, "type": "electric_scooter", "lon": -77.0819245, "bike_id": "a261fcb4afc241fd8583ef2c1dd0df00", "fusion_lat": 0.0, "name": "a261fcb4afc241fd8583ef2c1dd0df00", "is_reserved": 0, "rental_uris": {"android": "https://dc.lft.to/lastmile_qr_scan", "ios": "https://dc.lft.to/lastmile_qr_scan"}, "fusion_lon": 0.0}, {"lat": 38.9087715, "is_disabled": 0, "type": "electric_scooter", "lon": -76.98523266666666, "bike_id": "b8dd088df154e72a69198e244ab77731", "fusion_lat": 0.0, "name": "b8dd088df154e72a69198e244ab77731", "is_reserved": 0, "rental_uris": {"android": "https://dc.lft.to/lastmile_qr_scan", "ios": "https://dc.lft.to/lastmile_qr_scan"}, "fusion_lon": 0.0}, {"lat": 38.8984785, "is_disabled": 0, "type": "electric_scooter", "lon": -76.92369816666667, "bike_id": "1f320d919c6467aa7e79f7810380dc06", "fusion_lat": 0.0, "name": "1f320d919c6467aa7e79f7810380dc06", "is_reserved": 0, "rental_uris": {"android": "https://dc.lft.to/lastmile_qr_scan", "ios": "https://dc.lft.to/lastmile_qr_scan"}, "fusion_lon": 0.0}, {"lat": 38.905751, "is_disabled": 0, "type": "electric_scooter", "lon": -77.0059865, "bike_id": "49ff0efd520307a9ed8715e779710565", "fusion_lat": 0.0, "name": "49ff0efd520307a9ed8715e779710565", "is_reserved": 0, "rental_uris": {"android": "https://dc.lft.to/lastmile_qr_scan", "ios": "https://dc.lft.to/lastmile_qr_scan"}, "fusion_lon": 0.0}, {"lat": 38.905294166666664, "is_disabled": 0, "type": "electric_scooter", "lon": -77.029569, "bike_id": "380ec389ffdd35d0f435a8616934ef3e", "fusion_lat": 0.0, "name": "380ec389ffdd35d0f435a8616934ef3e", "is_reserved": 0, "rental_uris": {"android": "https://dc.lft.to/lastmile_qr_scan", "ios": "https://dc.lft.to/lastmile_qr_scan"}, "fusion_lon": 0.0}, {"lat": 38.920925833333335, "is_disabled": 0, "type": "electric_scooter", "lon": -77.02542816666667, "bike_id": "ceab5a960186cbc9e9826220ee020a62", "fusion_lat": 0.0, "name": "ceab5a960186cbc9e9826220ee020a62", "is_reserved": 0, "rental_uris": {"android": "https://dc.lft.to/lastmile_qr_scan", "ios": "https://dc.lft.to/lastmile_qr_scan"}, "fusion_lon": 0.0}, {"lat": 38.93095566666667, "is_disabled": 0, "type": "electric_scooter", "lon": -77.0234685, "bike_id": "c77626c5827b21ed66934638d3e9baa3", "fusion_lat": 0.0, "name": "c77626c5827b21ed66934638d3e9baa3", "is_reserved": 0, "rental_uris": {"android": "https://dc.lft.to/lastmile_qr_scan", "ios": "https://dc.lft.to/lastmile_qr_scan"}, "fusion_lon": 0.0}, {"lat": 38.893941, "is_disabled": 0, "type": "electric_scooter", "lon": -77.022102, "bike_id": "6ac52237882d339cef607f7231a2e3a4", "fusion_lat": 0.0, "name": "6ac52237882d339cef607f7231a2e3a4", "is_reserved": 0, "rental_uris": {"android": "https://dc.lft.to/lastmile_qr_scan", "ios": "https://dc.lft.to/lastmile_qr_scan"}, "fusion_lon": 0.0}, {"lat": 38.9298545, "is_disabled": 0, "type": "electric_bike", "lon": -77.02611083333333, "bike_id": "f43d0d47017fb3e37a7dbcdfd392cd21", "fusion_lat": 0.0, "name": "f43d0d47017fb3e37a7dbcdfd392cd21", "is_reserved": 0, "rental_uris": {"android": "https://dc.lft.to/lastmile_qr_scan", "ios": "https://dc.lft.to/lastmile_qr_scan"}, "fusion_lon": 0.0}, {"lat": 38.90291, "is_disabled": 0, "type": "electric_scooter", "lon": -77.06347783333334, "bike_id": "c5f88e61466239ef8ccc3f9f5731e896", "fusion_lat": 0.0, "name": "c5f88e61466239ef8ccc3f9f5731e896", "is_reserved": 0, "rental_uris": {"android": "https://dc.lft.to/lastmile_qr_scan", "ios": "https://dc.lft.to/lastmile_qr_scan"}, "fusion_lon": 0.0}, {"lat": 38.93103983333334, "is_disabled": 0, "type": "electric_scooter", "lon": -77.03400366666666, "bike_id": "82b57cc28d001a4d74f34c43838dc98c", "fusion_lat": 0.0, "name": "82b57cc28d001a4d74f34c43838dc98c", "is_reserved": 0, "rental_uris": {"android": "https://dc.lft.to/lastmile_qr_scan", "ios": "https://dc.lft.to/lastmile_qr_scan"}, "fusion_lon": 0.0}, {"lat": 38.9117525, "is_disabled": 0, "type": "electric_scooter", "lon": -77.03849716666667, "bike_id": "a421c1ca422fc261b64f9b3f3537cc12", "fusion_lat": 0.0, "name": "a421c1ca422fc261b64f9b3f3537cc12", "is_reserved": 0, "rental_uris": {"android": "https://dc.lft.to/lastmile_qr_scan", "ios": "https://dc.lft.to/lastmile_qr_scan"}, "fusion_lon": 0.0}, {"lat": 38.92069683333333, "is_disabled": 0, "type": "electric_scooter", "lon": -77.014314, "bike_id": "bcc74ac72caca8de6e03272a87ce3cbf", "fusion_lat": 0.0, "name": "bcc74ac72caca8de6e03272a87ce3cbf", "is_reserved": 0, "rental_uris": {"android": "https://dc.lft.to/lastmile_qr_scan", "ios": "https://dc.lft.to/lastmile_qr_scan"}, "fusion_lon": 0.0}, {"lat": 38.91186316666667, "is_disabled": 0, "type": "electric_scooter", "lon": -77.04326916666666, "bike_id": "7973c52067352e01b14a412d9cf3d261", "fusion_lat": 0.0, "name": "7973c52067352e01b14a412d9cf3d261", "is_reserved": 0, "rental_uris": {"android": "https://dc.lft.to/lastmile_qr_scan", "ios": "https://dc.lft.to/lastmile_qr_scan"}, "fusion_lon": 0.0}, {"lat": 38.917107, "is_disabled": 0, "type": "electric_scooter", "lon": -77.02459816666666, "bike_id": "a4a99c896f8aad83cbc396a28d0502b5", "fusion_lat": 0.0, "name": "a4a99c896f8aad83cbc396a28d0502b5", "is_reserved": 0, "rental_uris": {"android": "https://dc.lft.to/lastmile_qr_scan", "ios": "https://dc.lft.to/lastmile_qr_scan"}, "fusion_lon": 0.0}, {"lat": 38.92556283333333, "is_disabled": 0, "type": "electric_scooter", "lon": -77.03761533333333, "bike_id": "4239a1f56aba887c704c613613ae0c3b", "fusion_lat": 0.0, "name": "4239a1f56aba887c704c613613ae0c3b", "is_reserved": 0, "rental_uris": {"android": "https://dc.lft.to/lastmile_qr_scan", "ios": "https://dc.lft.to/lastmile_qr_scan"}, "fusion_lon": 0.0}, {"lat": 38.934708, "is_disabled": 0, "type": "electric_scooter", "lon": -77.0240885, "bike_id": "849dc5758c020a7d77f14d5d71aa4f2b", "fusion_lat": 0.0, "name": "849dc5758c020a7d77f14d5d71aa4f2b", "is_reserved": 0, "rental_uris": {"android": "https://dc.lft.to/lastmile_qr_scan", "ios": "https://dc.lft.to/lastmile_qr_scan"}, "fusion_lon": 0.0}, {"lat": 38.841069166666664, "is_disabled": 0, "type": "electric_bike", "lon": -77.08941566666667, "bike_id": "124e7bb244abf0936e8957234f0251bb", "fusion_lat": 0.0, "name": "124e7bb244abf0936e8957234f0251bb", "is_reserved": 0, "rental_uris": {"android": "https://dc.lft.to/lastmile_qr_scan", "ios": "https://dc.lft.to/lastmile_qr_scan"}, "fusion_lon": 0.0}, {"lat": 38.89352366666667, "is_disabled": 0, "type": "electric_scooter", "lon": -77.04137833333333, "bike_id": "8c43539cf6dfaf870ae972e195bc934f", "fusion_lat": 0.0, "name": "8c43539cf6dfaf870ae972e195bc934f", "is_reserved": 0, "rental_uris": {"android": "https://dc.lft.to/lastmile_qr_scan", "ios": "https://dc.lft.to/lastmile_qr_scan"}, "fusion_lon": 0.0}, {"lat": 38.921128333333336, "is_disabled": 0, "type": "electric_bike", "lon": -76.9857435, "bike_id": "2146db080f4abf5a94bcffc1247ebc8a", "fusion_lat": 0.0, "name": "2146db080f4abf5a94bcffc1247ebc8a", "is_reserved": 0, "rental_uris": {"android": "https://dc.lft.to/lastmile_qr_scan", "ios": "https://dc.lft.to/lastmile_qr_scan"}, "fusion_lon": 0.0}, {"lat": 38.9128635, "is_disabled": 0, "type": "electric_scooter", "lon": -77.0321425, "bike_id": "9d47f0e5ff9e352e5d0ae4fb6bc1e28e", "fusion_lat": 0.0, "name": "9d47f0e5ff9e352e5d0ae4fb6bc1e28e", "is_reserved": 0, "rental_uris": {"android": "https://dc.lft.to/lastmile_qr_scan", "ios": "https://dc.lft.to/lastmile_qr_scan"}, "fusion_lon": 0.0}, {"lat": 38.958929166666664, "is_disabled": 0, "type": "electric_bike", "lon": -76.92492533333333, "bike_id": "3b0e6c0208ca3f70129c3a37c769e8eb", "fusion_lat": 0.0, "name": "3b0e6c0208ca3f70129c3a37c769e8eb", "is_reserved": 0, "rental_uris": {"android": "https://dc.lft.to/lastmile_qr_scan", "ios": "https://dc.lft.to/lastmile_qr_scan"}, "fusion_lon": 0.0}, {"lat": 38.9170915, "is_disabled": 0, "type": "electric_scooter", "lon": -77.023866, "bike_id": "351472aa876957e9611345ccbde33f31", "fusion_lat": 0.0, "name": "351472aa876957e9611345ccbde33f31", "is_reserved": 0, "rental_uris": {"android": "https://dc.lft.to/lastmile_qr_scan", "ios": "https://dc.lft.to/lastmile_qr_scan"}, "fusion_lon": 0.0}, {"lat": 38.914191333333335, "is_disabled": 0, "type": "electric_scooter", "lon": -77.0318355, "bike_id": "2fdf471d07683d96c64b408a742f8533", "fusion_lat": 0.0, "name": "2fdf471d07683d96c64b408a742f8533", "is_reserved": 0, "rental_uris": {"android": "https://dc.lft.to/lastmile_qr_scan", "ios": "https://dc.lft.to/lastmile_qr_scan"}, "fusion_lon": 0.0}, {"lat": 38.90533666666666, "is_disabled": 0, "type": "electric_scooter", "lon": -77.05155066666667, "bike_id": "74bef6808672e1c8d6c66e54fbb3cb52", "fusion_lat": 0.0, "name": "74bef6808672e1c8d6c66e54fbb3cb52", "is_reserved": 0, "rental_uris": {"android": "https://dc.lft.to/lastmile_qr_scan", "ios": "https://dc.lft.to/lastmile_qr_scan"}, "fusion_lon": 0.0}, {"lat": 38.897346666666664, "is_disabled": 0, "type": "electric_scooter", "lon": -77.04908283333333, "bike_id": "c6d684643cf81d9e3d270839bf630d02", "fusion_lat": 0.0, "name": "c6d684643cf81d9e3d270839bf630d02", "is_reserved": 0, "rental_uris": {"android": "https://dc.lft.to/lastmile_qr_scan", "ios": "https://dc.lft.to/lastmile_qr_scan"}, "fusion_lon": 0.0}, {"lat": 38.92180033333333, "is_disabled": 0, "type": "electric_scooter", "lon": -77.04702016666667, "bike_id": "fcd9fcaa42362f203d329978a75af9c3", "fusion_lat": 0.0, "name": "fcd9fcaa42362f203d329978a75af9c3", "is_reserved": 0, "rental_uris": {"android": "https://dc.lft.to/lastmile_qr_scan", "ios": "https://dc.lft.to/lastmile_qr_scan"}, "fusion_lon": 0.0}, {"lat": 38.914157, "is_disabled": 0, "type": "electric_scooter", "lon": -77.01334733333333, "bike_id": "3351c150e4aadb857da5cea3ab6c8889", "fusion_lat": 0.0, "name": "3351c150e4aadb857da5cea3ab6c8889", "is_reserved": 0, "rental_uris": {"android": "https://dc.lft.to/lastmile_qr_scan", "ios": "https://dc.lft.to/lastmile_qr_scan"}, "fusion_lon": 0.0}, {"lat": 38.947928166666664, "is_disabled": 0, "type": "electric_scooter", "lon": -77.0216865, "bike_id": "819651855e462d9bf6186534c4a1db27", "fusion_lat": 0.0, "name": "819651855e462d9bf6186534c4a1db27", "is_reserved": 0, "rental_uris": {"android": "https://dc.lft.to/lastmile_qr_scan", "ios": "https://dc.lft.to/lastmile_qr_scan"}, "fusion_lon": 0.0}, {"lat": 38.926019833333335, "is_disabled": 0, "type": "electric_scooter", "lon": -77.05695983333334, "bike_id": "24e03ab298e0590dfd1f2e711659a38a", "fusion_lat": 0.0, "name": "24e03ab298e0590dfd1f2e711659a38a", "is_reserved": 0, "rental_uris": {"android": "https://dc.lft.to/lastmile_qr_scan", "ios": "https://dc.lft.to/lastmile_qr_scan"}, "fusion_lon": 0.0}, {"lat": 38.93739566666667, "is_disabled": 0, "type": "electric_scooter", "lon": -77.03473416666667, "bike_id": "104c284c6565dfcf02294197c0567db1", "fusion_lat": 0.0, "name": "104c284c6565dfcf02294197c0567db1", "is_reserved": 0, "rental_uris": {"android": "https://dc.lft.to/lastmile_qr_scan", "ios": "https://dc.lft.to/lastmile_qr_scan"}, "fusion_lon": 0.0}, {"lat": 38.91649683333333, "is_disabled": 0, "type": "electric_scooter", "lon": -77.021825, "bike_id": "e45695821d843b7fbbce7cc0ee99d3b7", "fusion_lat": 0.0, "name": "e45695821d843b7fbbce7cc0ee99d3b7", "is_reserved": 0, "rental_uris": {"android": "https://dc.lft.to/lastmile_qr_scan", "ios": "https://dc.lft.to/lastmile_qr_scan"}, "fusion_lon": 0.0}, {"lat": 38.90113216666666, "is_disabled": 0, "type": "electric_scooter", "lon": -76.99617816666667, "bike_id": "95d495203ba411870c52df966648f5e9", "fusion_lat": 0.0, "name": "95d495203ba411870c52df966648f5e9", "is_reserved": 0, "rental_uris": {"android": "https://dc.lft.to/lastmile_qr_scan", "ios": "https://dc.lft.to/lastmile_qr_scan"}, "fusion_lon": 0.0}, {"lat": 38.88577466666667, "is_disabled": 0, "type": "electric_scooter", "lon": -76.91906516666667, "bike_id": "4fb18f64f49918bbb4e1cd9b2c445f9c", "fusion_lat": 0.0, "name": "4fb18f64f49918bbb4e1cd9b2c445f9c", "is_reserved": 0, "rental_uris": {"android": "https://dc.lft.to/lastmile_qr_scan", "ios": "https://dc.lft.to/lastmile_qr_scan"}, "fusion_lon": 0.0}, {"lat": 38.927489, "is_disabled": 0, "type": "electric_scooter", "lon": -77.02417916666667, "bike_id": "9539aac00a8b6b65a64f1f84794765d0", "fusion_lat": 0.0, "name": "9539aac00a8b6b65a64f1f84794765d0", "is_reserved": 0, "rental_uris": {"android": "https://dc.lft.to/lastmile_qr_scan", "ios": "https://dc.lft.to/lastmile_qr_scan"}, "fusion_lon": 0.0}, {"lat": 38.9130455, "is_disabled": 0, "type": "electric_scooter", "lon": -77.03164183333334, "bike_id": "9906ef671ab1f8fb77cff60ff736808e", "fusion_lat": 0.0, "name": "9906ef671ab1f8fb77cff60ff736808e", "is_reserved": 0, "rental_uris": {"android": "https://dc.lft.to/lastmile_qr_scan", "ios": "https://dc.lft.to/lastmile_qr_scan"}, "fusion_lon": 0.0}, {"lat": 38.999943333333334, "is_disabled": 0, "type": "electric_bike", "lon": -76.92495383333333, "bike_id": "af46cbda2938d4ee977b830ad2a4d431", "fusion_lat": 0.0, "name": "af46cbda2938d4ee977b830ad2a4d431", "is_reserved": 0, "rental_uris": {"android": "https://dc.lft.to/lastmile_qr_scan", "ios": "https://dc.lft.to/lastmile_qr_scan"}, "fusion_lon": 0.0}, {"lat": 38.916300166666666, "is_disabled": 0, "type": "electric_scooter", "lon": -77.022451, "bike_id": "c17e1ffe8936e1598356692f3fb830d6", "fusion_lat": 0.0, "name": "c17e1ffe8936e1598356692f3fb830d6", "is_reserved": 0, "rental_uris": {"android": "https://dc.lft.to/lastmile_qr_scan", "ios": "https://dc.lft.to/lastmile_qr_scan"}, "fusion_lon": 0.0}, {"lat": 38.8909205, "is_disabled": 0, "type": "electric_scooter", "lon": -76.9526905, "bike_id": "6777e37f0fd0e650acf71bedc070c2dd", "fusion_lat": 0.0, "name": "6777e37f0fd0e650acf71bedc070c2dd", "is_reserved": 0, "rental_uris": {"android": "https://dc.lft.to/lastmile_qr_scan", "ios": "https://dc.lft.to/lastmile_qr_scan"}, "fusion_lon": 0.0}, {"lat": 38.91113883333333, "is_disabled": 0, "type": "electric_scooter", "lon": -77.03715883333334, "bike_id": "66c910fdd3aa45cf5bbd8bbccf557383", "fusion_lat": 0.0, "name": "66c910fdd3aa45cf5bbd8bbccf557383", "is_reserved": 0, "rental_uris": {"android": "https://dc.lft.to/lastmile_qr_scan", "ios": "https://dc.lft.to/lastmile_qr_scan"}, "fusion_lon": 0.0}, {"lat": 38.952162, "is_disabled": 0, "type": "electric_scooter", "lon": -77.086002, "bike_id": "22aeb1b3fb630e35eb26c0c832902bd2", "fusion_lat": 0.0, "name": "22aeb1b3fb630e35eb26c0c832902bd2", "is_reserved": 0, "rental_uris": {"android": "https://dc.lft.to/lastmile_qr_scan", "ios": "https://dc.lft.to/lastmile_qr_scan"}, "fusion_lon": 0.0}, {"lat": 38.93085116666666, "is_disabled": 0, "type": "electric_scooter", "lon": -77.03120783333334, "bike_id": "79e04a0fb9576f9647ca755b67141c02", "fusion_lat": 0.0, "name": "79e04a0fb9576f9647ca755b67141c02", "is_reserved": 0, "rental_uris": {"android": "https://dc.lft.to/lastmile_qr_scan", "ios": "https://dc.lft.to/lastmile_qr_scan"}, "fusion_lon": 0.0}, {"lat": 38.9211725, "is_disabled": 0, "type": "electric_scooter", "lon": -77.017639, "bike_id": "d75ae65bcca9f9c396cd0c7b9c70675d", "fusion_lat": 0.0, "name": "d75ae65bcca9f9c396cd0c7b9c70675d", "is_reserved": 0, "rental_uris": {"android": "https://dc.lft.to/lastmile_qr_scan", "ios": "https://dc.lft.to/lastmile_qr_scan"}, "fusion_lon": 0.0}, {"lat": 38.8661875, "is_disabled": 0, "type": "electric_scooter", "lon": -76.986605, "bike_id": "a931640c907f565f492938cd8b41aed1", "fusion_lat": 0.0, "name": "a931640c907f565f492938cd8b41aed1", "is_reserved": 0, "rental_uris": {"android": "https://dc.lft.to/lastmile_qr_scan", "ios": "https://dc.lft.to/lastmile_qr_scan"}, "fusion_lon": 0.0}, {"lat": 38.903513833333335, "is_disabled": 0, "type": "electric_scooter", "lon": -77.002134, "bike_id": "046ebad0ee350db34d88dfe893816440", "fusion_lat": 0.0, "name": "046ebad0ee350db34d88dfe893816440", "is_reserved": 0, "rental_uris": {"android": "https://dc.lft.to/lastmile_qr_scan", "ios": "https://dc.lft.to/lastmile_qr_scan"}, "fusion_lon": 0.0}, {"lat": 38.935737333333336, "is_disabled": 0, "type": "electric_scooter", "lon": -77.03753966666666, "bike_id": "58ec9368c9fabea4c45d7fb5478d0f36", "fusion_lat": 0.0, "name": "58ec9368c9fabea4c45d7fb5478d0f36", "is_reserved": 0, "rental_uris": {"android": "https://dc.lft.to/lastmile_qr_scan", "ios": "https://dc.lft.to/lastmile_qr_scan"}, "fusion_lon": 0.0}, {"lat": 38.8827815, "is_disabled": 0, "type": "electric_bike", "lon": -76.93236216666666, "bike_id": "544029747df19fc1437076c25d8908ff", "fusion_lat": 0.0, "name": "544029747df19fc1437076c25d8908ff", "is_reserved": 0, "rental_uris": {"android": "https://dc.lft.to/lastmile_qr_scan", "ios": "https://dc.lft.to/lastmile_qr_scan"}, "fusion_lon": 0.0}, {"lat": 38.90142183333333, "is_disabled": 0, "type": "electric_scooter", "lon": -77.0511635, "bike_id": "c99e80658a20283986348f7c7f982e39", "fusion_lat": 0.0, "name": "c99e80658a20283986348f7c7f982e39", "is_reserved": 0, "rental_uris": {"android": "https://dc.lft.to/lastmile_qr_scan", "ios": "https://dc.lft.to/lastmile_qr_scan"}, "fusion_lon": 0.0}, {"lat": 38.89430883333333, "is_disabled": 0, "type": "electric_scooter", "lon": -77.020858, "bike_id": "914fd5b6461c28dad1f0111beb3f142d", "fusion_lat": 0.0, "name": "914fd5b6461c28dad1f0111beb3f142d", "is_reserved": 0, "rental_uris": {"android": "https://dc.lft.to/lastmile_qr_scan", "ios": "https://dc.lft.to/lastmile_qr_scan"}, "fusion_lon": 0.0}, {"lat": 38.90276316666667, "is_disabled": 0, "type": "electric_scooter", "lon": -77.04036716666667, "bike_id": "b8ccffbc51d89d67933eb2464e39da62", "fusion_lat": 0.0, "name": "b8ccffbc51d89d67933eb2464e39da62", "is_reserved": 0, "rental_uris": {"android": "https://dc.lft.to/lastmile_qr_scan", "ios": "https://dc.lft.to/lastmile_qr_scan"}, "fusion_lon": 0.0}, {"lat": 38.90334683333333, "is_disabled": 0, "type": "electric_scooter", "lon": -76.97056233333333, "bike_id": "865b70ff9c058ecba9cce40473a61919", "fusion_lat": 0.0, "name": "865b70ff9c058ecba9cce40473a61919", "is_reserved": 0, "rental_uris": {"android": "https://dc.lft.to/lastmile_qr_scan", "ios": "https://dc.lft.to/lastmile_qr_scan"}, "fusion_lon": 0.0}, {"lat": 38.914655833333335, "is_disabled": 0, "type": "electric_scooter", "lon": -77.014263, "bike_id": "e82bc6e838c06774faa71ec6fd4bea95", "fusion_lat": 0.0, "name": "e82bc6e838c06774faa71ec6fd4bea95", "is_reserved": 0, "rental_uris": {"android": "https://dc.lft.to/lastmile_qr_scan", "ios": "https://dc.lft.to/lastmile_qr_scan"}, "fusion_lon": 0.0}, {"lat": 38.90622116666667, "is_disabled": 0, "type": "electric_scooter", "lon": -77.02183216666667, "bike_id": "7341fd3ca99684426055b745ca0e0074", "fusion_lat": 0.0, "name": "7341fd3ca99684426055b745ca0e0074", "is_reserved": 0, "rental_uris": {"android": "https://dc.lft.to/lastmile_qr_scan", "ios": "https://dc.lft.to/lastmile_qr_scan"}, "fusion_lon": 0.0}, {"lat": 38.950777333333335, "is_disabled": 0, "type": "electric_bike", "lon": -77.0119085, "bike_id": "e5f4eacb79a7a73b0d675c19b6b76b05", "fusion_lat": 0.0, "name": "e5f4eacb79a7a73b0d675c19b6b76b05", "is_reserved": 0, "rental_uris": {"android": "https://dc.lft.to/lastmile_qr_scan", "ios": "https://dc.lft.to/lastmile_qr_scan"}, "fusion_lon": 0.0}, {"lat": 38.94653683333333, "is_disabled": 0, "type": "electric_scooter", "lon": -77.03649683333333, "bike_id": "d18afd19bfb28963cfa4ceabad9f026c", "fusion_lat": 0.0, "name": "d18afd19bfb28963cfa4ceabad9f026c", "is_reserved": 0, "rental_uris": {"android": "https://dc.lft.to/lastmile_qr_scan", "ios": "https://dc.lft.to/lastmile_qr_scan"}, "fusion_lon": 0.0}, {"lat": 38.91502533333333, "is_disabled": 0, "type": "electric_scooter", "lon": -76.98352883333334, "bike_id": "7abdc584fb33fa3dc2b43e7337596725", "fusion_lat": 0.0, "name": "7abdc584fb33fa3dc2b43e7337596725", "is_reserved": 0, "rental_uris": {"android": "https://dc.lft.to/lastmile_qr_scan", "ios": "https://dc.lft.to/lastmile_qr_scan"}, "fusion_lon": 0.0}, {"lat": 38.9075605, "is_disabled": 0, "type": "electric_scooter", "lon": -77.041547, "bike_id": "05ea3cc7a01e60e210e4725ddbc8b991", "fusion_lat": 0.0, "name": "05ea3cc7a01e60e210e4725ddbc8b991", "is_reserved": 0, "rental_uris": {"android": "https://dc.lft.to/lastmile_qr_scan", "ios": "https://dc.lft.to/lastmile_qr_scan"}, "fusion_lon": 0.0}, {"lat": 38.91711383333333, "is_disabled": 0, "type": "electric_scooter", "lon": -77.02384433333333, "bike_id": "d434a9bda2be755b90e21aeb09a21a23", "fusion_lat": 0.0, "name": "d434a9bda2be755b90e21aeb09a21a23", "is_reserved": 0, "rental_uris": {"android": "https://dc.lft.to/lastmile_qr_scan", "ios": "https://dc.lft.to/lastmile_qr_scan"}, "fusion_lon": 0.0}, {"lat": 38.924698166666666, "is_disabled": 0, "type": "electric_scooter", "lon": -77.0523145, "bike_id": "a5c674baaac4644ab72957798db82594", "fusion_lat": 0.0, "name": "a5c674baaac4644ab72957798db82594", "is_reserved": 0, "rental_uris": {"android": "https://dc.lft.to/lastmile_qr_scan", "ios": "https://dc.lft.to/lastmile_qr_scan"}, "fusion_lon": 0.0}, {"lat": 38.90635833333333, "is_disabled": 0, "type": "electric_scooter", "lon": -77.02494716666666, "bike_id": "de4bcc009ba642d15fb5b86d6f44dc1a", "fusion_lat": 0.0, "name": "de4bcc009ba642d15fb5b86d6f44dc1a", "is_reserved": 0, "rental_uris": {"android": "https://dc.lft.to/lastmile_qr_scan", "ios": "https://dc.lft.to/lastmile_qr_scan"}, "fusion_lon": 0.0}, {"lat": 38.900886666666665, "is_disabled": 0, "type": "electric_scooter", "lon": -77.05058, "bike_id": "b22e476176cab23056f14ebfba533d96", "fusion_lat": 0.0, "name": "b22e476176cab23056f14ebfba533d96", "is_reserved": 0, "rental_uris": {"android": "https://dc.lft.to/lastmile_qr_scan", "ios": "https://dc.lft.to/lastmile_qr_scan"}, "fusion_lon": 0.0}, {"lat": 38.83692283333333, "is_disabled": 0, "type": "electric_scooter", "lon": -77.10302783333333, "bike_id": "12e0a12600badb81b0c185b79b954a7c", "fusion_lat": 0.0, "name": "12e0a12600badb81b0c185b79b954a7c", "is_reserved": 0, "rental_uris": {"android": "https://dc.lft.to/lastmile_qr_scan", "ios": "https://dc.lft.to/lastmile_qr_scan"}, "fusion_lon": 0.0}, {"lat": 38.92762183333333, "is_disabled": 0, "type": "electric_scooter", "lon": -77.02779633333333, "bike_id": "31436d1f5af9b2783cc5385f6a3bfe33", "fusion_lat": 0.0, "name": "31436d1f5af9b2783cc5385f6a3bfe33", "is_reserved": 0, "rental_uris": {"android": "https://dc.lft.to/lastmile_qr_scan", "ios": "https://dc.lft.to/lastmile_qr_scan"}, "fusion_lon": 0.0}, {"lat": 38.916244666666664, "is_disabled": 0, "type": "electric_scooter", "lon": -77.03300833333333, "bike_id": "f670a2b71a5330b9651f7d8c361474a1", "fusion_lat": 0.0, "name": "f670a2b71a5330b9651f7d8c361474a1", "is_reserved": 0, "rental_uris": {"android": "https://dc.lft.to/lastmile_qr_scan", "ios": "https://dc.lft.to/lastmile_qr_scan"}, "fusion_lon": 0.0}, {"lat": 38.8811495, "is_disabled": 0, "type": "electric_scooter", "lon": -76.98332783333333, "bike_id": "ad8747f6f148db7bb43f7c2920c102d0", "fusion_lat": 0.0, "name": "ad8747f6f148db7bb43f7c2920c102d0", "is_reserved": 0, "rental_uris": {"android": "https://dc.lft.to/lastmile_qr_scan", "ios": "https://dc.lft.to/lastmile_qr_scan"}, "fusion_lon": 0.0}, {"lat": 38.868339, "is_disabled": 0, "type": "electric_scooter", "lon": -76.977398, "bike_id": "5b9326272adac6ed846644d58caf8f9b", "fusion_lat": 0.0, "name": "5b9326272adac6ed846644d58caf8f9b", "is_reserved": 0, "rental_uris": {"android": "https://dc.lft.to/lastmile_qr_scan", "ios": "https://dc.lft.to/lastmile_qr_scan"}, "fusion_lon": 0.0}, {"lat": 38.9271525, "is_disabled": 0, "type": "electric_scooter", "lon": -77.02087083333333, "bike_id": "c00e8b8f05b6c65bffe343282aaa6f76", "fusion_lat": 0.0, "name": "c00e8b8f05b6c65bffe343282aaa6f76", "is_reserved": 0, "rental_uris": {"android": "https://dc.lft.to/lastmile_qr_scan", "ios": "https://dc.lft.to/lastmile_qr_scan"}, "fusion_lon": 0.0}, {"lat": 38.871423, "is_disabled": 0, "type": "electric_bike", "lon": -76.93699866666667, "bike_id": "ea32120b4751f1f8b0d5309758fa1457", "fusion_lat": 0.0, "name": "ea32120b4751f1f8b0d5309758fa1457", "is_reserved": 0, "rental_uris": {"android": "https://dc.lft.to/lastmile_qr_scan", "ios": "https://dc.lft.to/lastmile_qr_scan"}, "fusion_lon": 0.0}, {"lat": 38.900016666666666, "is_disabled": 0, "type": "electric_scooter", "lon": -76.99898916666666, "bike_id": "4adf789d18bcd72497c8e84180952640", "fusion_lat": 0.0, "name": "4adf789d18bcd72497c8e84180952640", "is_reserved": 0, "rental_uris": {"android": "https://dc.lft.to/lastmile_qr_scan", "ios": "https://dc.lft.to/lastmile_qr_scan"}, "fusion_lon": 0.0}, {"lat": 38.8625745, "is_disabled": 0, "type": "electric_scooter", "lon": -76.99515783333334, "bike_id": "8009c78641682574b941f9307425a7ba", "fusion_lat": 0.0, "name": "8009c78641682574b941f9307425a7ba", "is_reserved": 0, "rental_uris": {"android": "https://dc.lft.to/lastmile_qr_scan", "ios": "https://dc.lft.to/lastmile_qr_scan"}, "fusion_lon": 0.0}, {"lat": 38.80268183333333, "is_disabled": 0, "type": "electric_bike", "lon": -77.0810975, "bike_id": "fd06c328fecd5e5606f7cd599a05c599", "fusion_lat": 0.0, "name": "fd06c328fecd5e5606f7cd599a05c599", "is_reserved": 0, "rental_uris": {"android": "https://dc.lft.to/lastmile_qr_scan", "ios": "https://dc.lft.to/lastmile_qr_scan"}, "fusion_lon": 0.0},