{"data": {"bikes": [{"name": "1ed604c43b8d1a0fde6c358bd6cd013c", "lon": -76.98474683333333, "lat": 38.91089133333333, "type": "electric_bike", "fusion_lon": 0.0, "is_reserved": 0, "bike_id": "1ed604c43b8d1a0fde6c358bd6cd013c", "fusion_lat": 0.0, "is_disabled": 0, "rental_uris": {"ios": "https://dc.lft.to/lastmile_qr_scan", "android": "https://dc.lft.to/lastmile_qr_scan"}}, {"name": "653089fc618a870dbac29b0b8532b561", "lon": -76.98606316666667, "lat": 38.906210333333334, "type": "electric_bike", "fusion_lon": 0.0, "is_reserved": 0, "bike_id": "653089fc618a870dbac29b0b8532b561", "fusion_lat": 0.0, "is_disabled": 0, "rental_uris": {"ios": "https://dc.lft.to/lastmile_qr_scan", "android": "https://dc.lft.to/lastmile_qr_scan"}}, {"name": "99c0a051cb27ca9dcf9c8165bd1666e3", "lon": -76.99840166666667, "lat": 38.89084783333333, "type": "electric_scooter", "fusion_lon": 0.0, "is_reserved": 0, "bike_id": "99c0a051cb27ca9dcf9c8165bd1666e3", "fusion_lat": 0.0, "is_disabled": 0, "rental_uris": {"ios": "https://dc.lft.to/lastmile_qr_scan", "android": "https://dc.lft.to/lastmile_qr_scan"}}, {"name": "053262900bdba8b7a944ed1c3f028a04", "lon": -77.0323275, "lat": 38.9171365, "type": "electric_scooter", "fusion_lon": 0.0, "is_reserved": 0, "bike_id": "053262900bdba8b7a944ed1c3f028a04", "fusion_lat": 0.0, "is_disabled": 0, "rental_uris": {"ios": "https://dc.lft.to/lastmile_qr_scan", "android": "https://dc.lft.to/lastmile_qr_scan"}}, {"name": "b403a607d9d4bb8434fabfbc2f99051f", "lon": -77.0277075, "lat": 38.93963816666667, "type": "electric_scooter", "fusion_lon": 0.0, "is_reserved": 0, "bike_id": "b403a607d9d4bb8434fabfbc2f99051f", "fusion_lat": 0.0, "is_disabled": 0, "rental_uris": {"ios": "https://dc.lft.to/lastmile_qr_scan", "android": "https://dc.lft.to/lastmile_qr_scan"}}, {"name": "d1112bec236ceb6cfe2ebfe1305bbb56", "lon": -77.02340433333333, "lat": 38.926059, "type": "electric_scooter", "fusion_lon": 0.0, "is_reserved": 0, "bike_id": "d1112bec236ceb6cfe2ebfe1305bbb56", "fusion_lat": 0.0, "is_disabled": 0, "rental_uris": {"ios": "https://dc.lft.to/lastmile_qr_scan", "android": "https://dc.lft.to/lastmile_qr_scan"}}, {"name": "6065a7e8cc002f73af5477e10b7b2a31", "lon": -77.04270416666667, "lat": 38.90551816666667, "type": "electric_scooter", "fusion_lon": 0.0, "is_reserved": 0, "bike_id": "6065a7e8cc002f73af5477e10b7b2a31", "fusion_lat": 0.0, "is_disabled": 0, "rental_uris": {"ios": "https://dc.lft.to/lastmile_qr_scan", "android": "https://dc.lft.to/lastmile_qr_scan"}}, {"name": "16ed409391050fa3f4db6447912a84db", "lon": -77.07937616666666, "lat": 38.94776233333333, "type": "electric_scooter", "fusion_lon": 0.0, "is_reserved": 0, "bike_id": "16ed409391050fa3f4db6447912a84db", "fusion_lat": 0.0, "is_disabled": 0, "rental_uris": {"ios": "https://dc.lft.to/lastmile_qr_scan", "android": "https://dc.lft.to/lastmile_qr_scan"}}, {"name": "dee9135bc3b8627d948d5284cbd502bf", "lon": -77.046217, "lat": 38.91928933333333, "type": "electric_scooter", "fusion_lon": 0.0, "is_reserved": 0, "bike_id": "dee9135bc3b8627d948d5284cbd502bf", "fusion_lat": 0.0, "is_disabled": 0, "rental_uris": {"ios": "https://dc.lft.to/lastmile_qr_scan", "android": "https://dc.lft.to/lastmile_qr_scan"}}, {"name": "9e4d27d27d4dc5d355e7aec57f32f532", "lon": -76.9884335, "lat": 38.901975666666665, "type": "electric_scooter", "fusion_lon": 0.0, "is_reserved": 0, "bike_id": "9e4d27d27d4dc5d355e7aec57f32f532", "fusion_lat": 0.0, "is_disabled": 0, "rental_uris": {"ios": "https://dc.lft.to/lastmile_qr_scan", "android": "https://dc.lft.to/lastmile_qr_scan"}}, {"name": "f23b82f6779e81b9448cff0309854035", "lon": -77.04343266666666, "lat": 38.921534666666666, "type": "electric_scooter", "fusion_lon": 0.0, "is_reserved": 0, "bike_id": "f23b82f6779e81b9448cff0309854035", "fusion_lat": 0.0, "is_disabled": 0, "rental_uris": {"ios": "https://dc.lft.to/lastmile_qr_scan", "android": "https://dc.lft.to/lastmile_qr_scan"}}, {"name": "11974de873825574dfce5d5e1c294b5b", "lon": -77.05029566666667, "lat": 38.9063095, "type": "electric_scooter", "fusion_lon": 0.0, "is_reserved": 0, "bike_id": "11974de873825574dfce5d5e1c294b5b", "fusion_lat": 0.0, "is_disabled": 0, "rental_uris": {"ios": "https://dc.lft.to/lastmile_qr_scan", "android": "https://dc.lft.to/lastmile_qr_scan"}}, {"name": "e456a33d631b5909c4ccb769bde00419", "lon": -77.032785, "lat": 38.920563666666666, "type": "electric_scooter", "fusion_lon": 0.0, "is_reserved": 0, "bike_id": "e456a33d631b5909c4ccb769bde00419", "fusion_lat": 0.0, "is_disabled": 0, "rental_uris": {"ios": "https://dc.lft.to/lastmile_qr_scan", "android": "https://dc.lft.to/lastmile_qr_scan"}}, {"name": "d527cf6dc84e4be8b3837a11e227b8e3", "lon": -77.04477883333334, "lat": 38.92395116666667, "type": "electric_scooter", "fusion_lon": 0.0, "is_reserved": 0, "bike_id": "d527cf6dc84e4be8b3837a11e227b8e3", "fusion_lat": 0.0, "is_disabled": 0, "rental_uris": {"ios": "https://dc.lft.to/lastmile_qr_scan", "android": "https://dc.lft.to/lastmile_qr_scan"}}, {"name": "ea34ea863be45a3f5cba710cd94cc78d", "lon": -77.0336565, "lat": 38.9039185, "type": "electric_scooter", "fusion_lon": 0.0, "is_reserved": 0, "bike_id": "ea34ea863be45a3f5cba710cd94cc78d", "fusion_lat": 0.0, "is_disabled": 0, "rental_uris": {"ios": "https://dc.lft.to/lastmile_qr_scan", "android": "https://dc.lft.to/lastmile_qr_scan"}}, {"name": "62c58d009627016fdf543a808cce2481", "lon": -77.0263355, "lat": 38.8810975, "type": "electric_scooter", "fusion_lon": 0.0, "is_reserved": 0, "bike_id": "62c58d009627016fdf543a808cce2481", "fusion_lat": 0.0, "is_disabled": 0, "rental_uris": {"ios": "https://dc.lft.to/lastmile_qr_scan", "android": "https://dc.lft.to/lastmile_qr_scan"}}, {"name": "d6c75f869da569ad055e81031da7c0bd", "lon": -77.03690066666667, "lat": 38.93063583333333, "type": "electric_scooter", "fusion_lon": 0.0, "is_reserved": 0, "bike_id": "d6c75f869da569ad055e81031da7c0bd", "fusion_lat": 0.0, "is_disabled": 0, "rental_uris": {"ios": "https://dc.lft.to/lastmile_qr_scan", "android": "https://dc.lft.to/lastmile_qr_scan"}}, {"name": "e676e6bc225641af70c7942a58a7317d", "lon": -77.03043716666667, "lat": 38.91331316666667, "type": "electric_scooter", "fusion_lon": 0.0, "is_reserved": 0, "bike_id": "e676e6bc225641af70c7942a58a7317d", "fusion_lat": 0.0, "is_disabled": 0, "rental_uris": {"ios": "https://dc.lft.to/lastmile_qr_scan", "android": "https://dc.lft.to/lastmile_qr_scan"}}, {"name": "a83bc9742323552a4ba6aa7374f56910", "lon": -77.02702216666667, "lat": 38.90891466666667, "type": "electric_scooter", "fusion_lon": 0.0, "is_reserved": 0, "bike_id": "a83bc9742323552a4ba6aa7374f56910", "fusion_lat": 0.0, "is_disabled": 0, "rental_uris": {"ios": "https://dc.lft.to/lastmile_qr_scan", "android": "https://dc.lft.to/lastmile_qr_scan"}}, {"name": "448a3bbd2e72a81547b815d5467bd955", "lon": -77.02079766666667, "lat": 38.9112395, "type": "electric_scooter", "fusion_lon": 0.0, "is_reserved": 0, "bike_id": "448a3bbd2e72a81547b815d5467bd955", "fusion_lat": 0.0, "is_disabled": 0, "rental_uris": {"ios": "https://dc.lft.to/lastmile_qr_scan", "android": "https://dc.lft.to/lastmile_qr_scan"}}, {"name": "d37f6d112651b40661a2428d3b29abfa", "lon": -77.02575433333334, "lat": 38.916031333333336, "type": "electric_scooter", "fusion_lon": 0.0, "is_reserved": 0, "bike_id": "d37f6d112651b40661a2428d3b29abfa", "fusion_lat": 0.0, "is_disabled": 0, "rental_uris": {"ios": "https://dc.lft.to/lastmile_qr_scan", "android": "https://dc.lft.to/lastmile_qr_scan"}}, {"name": "c36cdd55afa3237176e316d838e2d55d", "lon": -77.02551766666667, "lat": 38.880637, "type": "electric_scooter", "fusion_lon": 0.0, "is_reserved": 0, "bike_id": "c36cdd55afa3237176e316d838e2d55d", "fusion_lat": 0.0, "is_disabled": 0, "rental_uris": {"ios": "https://dc.lft.to/lastmile_qr_scan", "android": "https://dc.lft.to/lastmile_qr_scan"}}, {"name": "887ca54395e57282c6e872fa10613ecc", "lon": -77.08823083333333, "lat": 38.90974533333333, "type": "electric_bike", "fusion_lon": 0.0, "is_reserved": 0, "bike_id": "887ca54395e57282c6e872fa10613ecc", "fusion_lat": 0.0, "is_disabled": 0, "rental_uris": {"ios": "https://dc.lft.to/lastmile_qr_scan", "android": "https://dc.lft.to/lastmile_qr_scan"}}, {"name": "b53e8a87e858c91d9b265163b25bd86b", "lon": -77.02519416666667, "lat": 38.938734333333336, "type": "electric_scooter", "fusion_lon": 0.0, "is_reserved": 0, "bike_id": "b53e8a87e858c91d9b265163b25bd86b", "fusion_lat": 0.0, "is_disabled": 0, "rental_uris": {"ios": "https://dc.lft.to/lastmile_qr_scan", "android": "https://dc.lft.to/lastmile_qr_scan"}}, {"name": "a5dcaf8c0a263b628410aeceeced5ec2", "lon": -77.02972066666666, "lat": 38.91402466666667, "type": "electric_scooter", "fusion_lon": 0.0, "is_reserved": 0, "bike_id": "a5dcaf8c0a263b628410aeceeced5ec2", "fusion_lat": 0.0, "is_disabled": 0, "rental_uris": {"ios": "https://dc.lft.to/lastmile_qr_scan", "android": "https://dc.lft.to/lastmile_qr_scan"}}, {"name": "191f32eade5d1c81790c150f19b7e443", "lon": -77.05854933333333, "lat": 38.9358925, "type": "electric_scooter", "fusion_lon": 0.0, "is_reserved": 0, "bike_id": "191f32eade5d1c81790c150f19b7e443", "fusion_lat": 0.0, "is_disabled": 0, "rental_uris": {"ios": "https://dc.lft.to/lastmile_qr_scan", "android": "https://dc.lft.to/lastmile_qr_scan"}}, {"name": "54eb77f061a0480166552eca87e8a27d", "lon": -77.04495866666667, "lat": 38.9132955, "type": "electric_scooter", "fusion_lon": 0.0, "is_reserved": 0, "bike_id": "54eb77f061a0480166552eca87e8a27d", "fusion_lat": 0.0, "is_disabled": 0, "rental_uris": {"ios": "https://dc.lft.to/lastmile_qr_scan", "android": "https://dc.lft.to/lastmile_qr_scan"}}, {"name": "7441f3db573db14b1f1f1af2e6bb9929", "lon": -77.0269005, "lat": 38.9112515, "type": "electric_scooter", "fusion_lon": 0.0, "is_reserved": 0, "bike_id": "7441f3db573db14b1f1f1af2e6bb9929", "fusion_lat": 0.0, "is_disabled": 0, "rental_uris": {"ios": "https://dc.lft.to/lastmile_qr_scan", "android": "https://dc.lft.to/lastmile_qr_scan"}}, {"name": "8760ba165462949155082bb7e813cece", "lon": -77.01738066666667, "lat": 38.872667, "type": "electric_scooter", "fusion_lon": 0.0, "is_reserved": 0, "bike_id": "8760ba165462949155082bb7e813cece", "fusion_lat": 0.0, "is_disabled": 0, "rental_uris": {"ios": "https://dc.lft.to/lastmile_qr_scan", "android": "https://dc.lft.to/lastmile_qr_scan"}}, {"name": "ae71bf57595b82b5aee47528847b81bf", "lon": -77.04458116666666, "lat": 38.91939983333333, "type": "electric_scooter", "fusion_lon": 0.0, "is_reserved": 0, "bike_id": "ae71bf57595b82b5aee47528847b81bf", "fusion_lat": 0.0, "is_disabled": 0, "rental_uris": {"ios": "https://dc.lft.to/lastmile_qr_scan", "android": "https://dc.lft.to/lastmile_qr_scan"}}, {"name": "1544059b4c7f5ca0eef1579e649d0b5a", "lon": -77.03277616666666, "lat": 38.932528833333336, "type": "electric_scooter", "fusion_lon": 0.0, "is_reserved": 0, "bike_id": "1544059b4c7f5ca0eef1579e649d0b5a", "fusion_lat": 0.0, "is_disabled": 0, "rental_uris": {"ios": "https://dc.lft.to/lastmile_qr_scan", "android": "https://dc.lft.to/lastmile_qr_scan"}}, {"name": "332f74f0480d028c57e67c7c3886267e", "lon": -76.93349616666667, "lat": 38.899135, "type": "electric_scooter", "fusion_lon": 0.0, "is_reserved": 0, "bike_id": "332f74f0480d028c57e67c7c3886267e", "fusion_lat": 0.0, "is_disabled": 0, "rental_uris": {"ios": "https://dc.lft.to/lastmile_qr_scan", "android": "https://dc.lft.to/lastmile_qr_scan"}}, {"name": "d452548ba8f38d65f6f24ba95e8ef147", "lon": -77.01309783333333, "lat": 38.901860666666664, "type": "electric_scooter", "fusion_lon": 0.0, "is_reserved": 0, "bike_id": "d452548ba8f38d65f6f24ba95e8ef147", "fusion_lat": 0.0, "is_disabled": 0, "rental_uris": {"ios": "https://dc.lft.to/lastmile_qr_scan", "android": "https://dc.lft.to/lastmile_qr_scan"}}, {"name": "7ad8e82888c6049d2d8cd2b12c5c51a3", "lon": -77.01760316666666, "lat": 38.874939833333336, "type": "electric_scooter", "fusion_lon": 0.0, "is_reserved": 0, "bike_id": "7ad8e82888c6049d2d8cd2b12c5c51a3", "fusion_lat": 0.0, "is_disabled": 0, "rental_uris": {"ios": "https://dc.lft.to/lastmile_qr_scan", "android": "https://dc.lft.to/lastmile_qr_scan"}}, {"name": "795f5467bb4ef7ae57f738fb3e140e6b", "lon": -77.034954, "lat": 38.917036, "type": "electric_scooter", "fusion_lon": 0.0, "is_reserved": 0, "bike_id": "795f5467bb4ef7ae57f738fb3e140e6b", "fusion_lat": 0.0, "is_disabled": 0, "rental_uris": {"ios": "https://dc.lft.to/lastmile_qr_scan", "android": "https://dc.lft.to/lastmile_qr_scan"}}, {"name": "25fb1c64cedacfe3adda97b2a048553c", "lon": -76.988823, "lat": 38.86662116666667, "type": "electric_scooter", "fusion_lon": 0.0, "is_reserved": 0, "bike_id": "25fb1c64cedacfe3adda97b2a048553c", "fusion_lat": 0.0, "is_disabled": 0, "rental_uris": {"ios": "https://dc.lft.to/lastmile_qr_scan", "android": "https://dc.lft.to/lastmile_qr_scan"}}, {"name": "4706e05e7a117672c27342f7f1dc2f75", "lon": -77.02870883333334, "lat": 38.9988365, "type": "electric_bike", "fusion_lon": 0.0, "is_reserved": 0, "bike_id": "4706e05e7a117672c27342f7f1dc2f75", "fusion_lat": 0.0, "is_disabled": 0, "rental_uris": {"ios": "https://dc.lft.to/lastmile_qr_scan", "android": "https://dc.lft.to/lastmile_qr_scan"}}, {"name": "80a645ee03f63b6ac2a7b99d45b10b5d", "lon": -77.034234, "lat": 38.91257933333333, "type": "electric_scooter", "fusion_lon": 0.0, "is_reserved": 0, "bike_id": "80a645ee03f63b6ac2a7b99d45b10b5d", "fusion_lat": 0.0, "is_disabled": 0, "rental_uris": {"ios": "https://dc.lft.to/lastmile_qr_scan", "android": "https://dc.lft.to/lastmile_qr_scan"}}, {"name": "4a8f65560b462052bb8b4e5dc00609bd", "lon": -77.023837, "lat": 38.91961116666667, "type": "electric_scooter", "fusion_lon": 0.0, "is_reserved": 0, "bike_id": "4a8f65560b462052bb8b4e5dc00609bd", "fusion_lat": 0.0, "is_disabled": 0, "rental_uris": {"ios": "https://dc.lft.to/lastmile_qr_scan", "android": "https://dc.lft.to/lastmile_qr_scan"}}, {"name": "33a897a32d5ccb5e9b62494b6679322a", "lon": -77.03012866666667, "lat": 38.905005, "type": "electric_scooter", "fusion_lon": 0.0, "is_reserved": 0, "bike_id": "33a897a32d5ccb5e9b62494b6679322a", "fusion_lat": 0.0, "is_disabled": 0, "rental_uris": {"ios": "https://dc.lft.to/lastmile_qr_scan", "android": "https://dc.lft.to/lastmile_qr_scan"}}, {"name": "3d4fe19d8a179c4d43c83049319ce33f", "lon": -77.00351133333334, "lat": 38.90824033333333, "type": "electric_scooter", "fusion_lon": 0.0, "is_reserved": 0, "bike_id": "3d4fe19d8a179c4d43c83049319ce33f", "fusion_lat": 0.0, "is_disabled": 0, "rental_uris": {"ios": "https://dc.lft.to/lastmile_qr_scan", "android": "https://dc.lft.to/lastmile_qr_scan"}}, {"name": "97a4c8c3e6a1c9b05ecfad9bd09dce91", "lon": -77.21647466666667, "lat": 38.930116, "type": "electric_bike", "fusion_lon": 0.0, "is_reserved": 0, "bike_id": "97a4c8c3e6a1c9b05ecfad9bd09dce91", "fusion_lat": 0.0, "is_disabled": 0, "rental_uris": {"ios": "https://dc.lft.to/lastmile_qr_scan", "android": "https://dc.lft.to/lastmile_qr_scan"}}, {"name": "4ea939cadc945f67a2fab087eee99708", "lon": -76.937371, "lat": 38.89013766666667, "type": "electric_scooter", "fusion_lon": 0.0, "is_reserved": 0, "bike_id": "4ea939cadc945f67a2fab087eee99708", "fusion_lat": 0.0, "is_disabled": 0, "rental_uris": {"ios": "https://dc.lft.to/lastmile_qr_scan", "android": "https://dc.lft.to/lastmile_qr_scan"}}, {"name": "1e79bd9056b47310f26eedeb87efe6cd", "lon": -77.02336716666667, "lat": 38.944705166666665, "type": "electric_bike", "fusion_lon": 0.0, "is_reserved": 0, "bike_id": "1e79bd9056b47310f26eedeb87efe6cd", "fusion_lat": 0.0, "is_disabled": 0, "rental_uris": {"ios": "https://dc.lft.to/lastmile_qr_scan", "android": "https://dc.lft.to/lastmile_qr_scan"}}, {"name": "2d5e3450f04367ba2258a9164b476b4b", "lon": -77.04642233333334, "lat": 39.055014166666666, "type": "electric_bike", "fusion_lon": 0.0, "is_reserved": 0, "bike_id": "2d5e3450f04367ba2258a9164b476b4b", "fusion_lat": 0.0, "is_disabled": 0, "rental_uris": {"ios": "https://dc.lft.to/lastmile_qr_scan", "android": "https://dc.lft.to/lastmile_qr_scan"}}, {"name": "8c9ca0b168a8087d05e8b9b99861f9e6", "lon": -77.046321, "lat": 38.915974166666665, "type": "electric_scooter", "fusion_lon": 0.0, "is_reserved": 0, "bike_id": "8c9ca0b168a8087d05e8b9b99861f9e6", "fusion_lat": 0.0, "is_disabled": 0, "rental_uris": {"ios": "https://dc.lft.to/lastmile_qr_scan", "android": "https://dc.lft.to/lastmile_qr_scan"}}, {"name": "320d5356a7d5d0579d17c64f205d28d6", "lon": -77.0410075, "lat": 38.9177535, "type": "electric_scooter", "fusion_lon": 0.0, "is_reserved": 0, "bike_id": "320d5356a7d5d0579d17c64f205d28d6", "fusion_lat": 0.0, "is_disabled": 0, "rental_uris": {"ios": "https://dc.lft.to/lastmile_qr_scan", "android": "https://dc.lft.to/lastmile_qr_scan"}}, {"name": "b7c16b54d02bc87b89fec4fe16961c9f", "lon": -77.049879, "lat": 38.905292, "type": "electric_scooter", "fusion_lon": 0.0, "is_reserved": 0, "bike_id": "b7c16b54d02bc87b89fec4fe16961c9f", "fusion_lat": 0.0, "is_disabled": 0, "rental_uris": {"ios": "https://dc.lft.to/lastmile_qr_scan", "android": "https://dc.lft.to/lastmile_qr_scan"}}, {"name": "a1d4ce4217aa3fe612cf0ae8d9ca7ed9", "lon": -77.03081866666666, "lat": 38.93171683333333, "type": "electric_scooter", "fusion_lon": 0.0, "is_reserved": 0, "bike_id": "a1d4ce4217aa3fe612cf0ae8d9ca7ed9", "fusion_lat": 0.0, "is_disabled": 0, "rental_uris": {"ios": "https://dc.lft.to/lastmile_qr_scan", "android": "https://dc.lft.to/lastmile_qr_scan"}}, {"name": "12ba41ae8dab128c909793cd5c3c5ae1", "lon": -77.02519383333333, "lat": 38.938619, "type": "electric_scooter", "fusion_lon": 0.0, "is_reserved": 0, "bike_id": "12ba41ae8dab128c909793cd5c3c5ae1", "fusion_lat": 0.0, "is_disabled": 0, "rental_uris": {"ios": "https://dc.lft.to/lastmile_qr_scan", "android": "https://dc.lft.to/lastmile_qr_scan"}}, {"name": "7e56214cc7c183b437c891565a17a8a4", "lon": -77.02809816666667, "lat": 38.881763166666666, "type": "electric_scooter", "fusion_lon": 0.0, "is_reserved": 0, "bike_id": "7e56214cc7c183b437c891565a17a8a4", "fusion_lat": 0.0, "is_disabled": 0, "rental_uris": {"ios": "https://dc.lft.to/lastmile_qr_scan", "android": "https://dc.lft.to/lastmile_qr_scan"}}, {"name": "795aaa7812f55094a9ae457aa05eb441", "lon": -77.06927416666667, "lat": 38.907833833333335, "type": "electric_scooter", "fusion_lon": 0.0, "is_reserved": 0, "bike_id": "795aaa7812f55094a9ae457aa05eb441", "fusion_lat": 0.0, "is_disabled": 0, "rental_uris": {"ios": "https://dc.lft.to/lastmile_qr_scan", "android": "https://dc.lft.to/lastmile_qr_scan"}}, {"name": "b83e2bc99bde01e71da014e8f2812197", "lon": -77.0059005, "lat": 38.906463, "type": "electric_scooter", "fusion_lon": 0.0, "is_reserved": 0, "bike_id": "b83e2bc99bde01e71da014e8f2812197", "fusion_lat": 0.0, "is_disabled": 0, "rental_uris": {"ios": "https://dc.lft.to/lastmile_qr_scan", "android": "https://dc.lft.to/lastmile_qr_scan"}}, {"name": "d152f78982a02ace180be7eef35baa4e", "lon": -77.04477466666667, "lat": 38.924074833333336, "type": "electric_scooter", "fusion_lon": 0.0, "is_reserved": 0, "bike_id": "d152f78982a02ace180be7eef35baa4e", "fusion_lat": 0.0, "is_disabled": 0, "rental_uris": {"ios": "https://dc.lft.to/lastmile_qr_scan", "android": "https://dc.lft.to/lastmile_qr_scan"}}, {"name": "19231100a36a694fcca9898544af7c18", "lon": -77.05215266666667, "lat": 38.92485283333333, "type": "electric_scooter", "fusion_lon": 0.0, "is_reserved": 0, "bike_id": "19231100a36a694fcca9898544af7c18", "fusion_lat": 0.0, "is_disabled": 0, "rental_uris": {"ios": "https://dc.lft.to/lastmile_qr_scan", "android": "https://dc.lft.to/lastmile_qr_scan"}}, {"name": "55695a4e8235b3e28f9149ed998b8584", "lon": -77.009184, "lat": 38.82786466666667, "type": "electric_scooter", "fusion_lon": 0.0, "is_reserved": 0, "bike_id": "55695a4e8235b3e28f9149ed998b8584", "fusion_lat": 0.0, "is_disabled": 0, "rental_uris": {"ios": "https://dc.lft.to/lastmile_qr_scan", "android": "https://dc.lft.to/lastmile_qr_scan"}}, {"name": "5ca58239e21d1525d12e38705217a7fc", "lon": -77.030814, "lat": 38.911103, "type": "electric_scooter", "fusion_lon": 0.0, "is_reserved": 0, "bike_id": "5ca58239e21d1525d12e38705217a7fc", "fusion_lat": 0.0, "is_disabled": 0, "rental_uris": {"ios": "https://dc.lft.to/lastmile_qr_scan", "android": "https://dc.lft.to/lastmile_qr_scan"}}, {"name": "1cd1c63c8f73ada8c00716e0b065cf21", "lon": -77.03181816666667, "lat": 38.9249245, "type": "electric_scooter", "fusion_lon": 0.0, "is_reserved": 0, "bike_id": "1cd1c63c8f73ada8c00716e0b065cf21", "fusion_lat": 0.0, "is_disabled": 0, "rental_uris": {"ios": "https://dc.lft.to/lastmile_qr_scan", "android": "https://dc.lft.to/lastmile_qr_scan"}}, {"name": "7c82cc6f25932293a8a54d3815ce6ca0", "lon": -76.99388183333333, "lat": 38.87758216666667, "type": "electric_scooter", "fusion_lon": 0.0, "is_reserved": 0, "bike_id": "7c82cc6f25932293a8a54d3815ce6ca0", "fusion_lat": 0.0, "is_disabled": 0, "rental_uris": {"ios": "https://dc.lft.to/lastmile_qr_scan", "android": "https://dc.lft.to/lastmile_qr_scan"}}, {"name": "1761c4603c0940dbedc194e0afb69fb1", "lon": -77.03012983333333, "lat": 38.934864166666664, "type": "electric_bike", "fusion_lon": 0.0, "is_reserved": 0, "bike_id": "1761c4603c0940dbedc194e0afb69fb1", "fusion_lat": 0.0, "is_disabled": 0, "rental_uris": {"ios": "https://dc.lft.to/lastmile_qr_scan", "android": "https://dc.lft.to/lastmile_qr_scan"}}, {"name": "fc0bcdefbe1498b19f75021fcb577a82", "lon": -77.04002116666666, "lat": 38.934280333333334, "type": "electric_scooter", "fusion_lon": 0.0, "is_reserved": 0, "bike_id": "fc0bcdefbe1498b19f75021fcb577a82", "fusion_lat": 0.0, "is_disabled": 0, "rental_uris": {"ios": "https://dc.lft.to/lastmile_qr_scan", "android": "https://dc.lft.to/lastmile_qr_scan"}}, {"name": "d6cde9ee5f7230910bec02e8e00312e3", "lon": -77.0425475, "lat": 38.90846066666667, "type": "electric_bike", "fusion_lon": 0.0, "is_reserved": 0, "bike_id": "d6cde9ee5f7230910bec02e8e00312e3", "fusion_lat": 0.0, "is_disabled": 0, "rental_uris": {"ios": "https://dc.lft.to/lastmile_qr_scan", "android": "https://dc.lft.to/lastmile_qr_scan"}}, {"name": "3ebe88be3473e37e834c595959f03a2e", "lon": -77.03661083333333, "lat": 38.91804233333333, "type": "electric_scooter", "fusion_lon": 0.0, "is_reserved": 0, "bike_id": "3ebe88be3473e37e834c595959f03a2e", "fusion_lat": 0.0, "is_disabled": 0, "rental_uris": {"ios": "https://dc.lft.to/lastmile_qr_scan", "android": "https://dc.lft.to/lastmile_qr_scan"}}, {"name": "47584a899162eab0f3f7d7d9c54a9c41", "lon": -77.04141216666666, "lat": 38.907633833333335, "type": "electric_scooter", "fusion_lon": 0.0, "is_reserved": 0, "bike_id": "47584a899162eab0f3f7d7d9c54a9c41", "fusion_lat": 0.0, "is_disabled": 0, "rental_uris": {"ios": "https://dc.lft.to/lastmile_qr_scan", "android": "https://dc.lft.to/lastmile_qr_scan"}}, {"name": "85a8b99aa8a75f820d4ebdefea46d585", "lon": -77.00796333333334, "lat": 38.89717183333333, "type": "electric_scooter", "fusion_lon": 0.0, "is_reserved": 0, "bike_id": "85a8b99aa8a75f820d4ebdefea46d585", "fusion_lat": 0.0, "is_disabled": 0, "rental_uris": {"ios": "https://dc.lft.to/lastmile_qr_scan", "android": "https://dc.lft.to/lastmile_qr_scan"}}, {"name": "fdde783f66420141667dafcf0769247d", "lon": -77.03071683333333, "lat": 38.897679333333336, "type": "electric_scooter", "fusion_lon": 0.0, "is_reserved": 0, "bike_id": "fdde783f66420141667dafcf0769247d", "fusion_lat": 0.0, "is_disabled": 0, "rental_uris": {"ios": "https://dc.lft.to/lastmile_qr_scan", "android": "https://dc.lft.to/lastmile_qr_scan"}}, {"name": "b621c263613c95585cc3d58390ef03bc", "lon": -77.02810616666666, "lat": 38.917081333333336, "type": "electric_scooter", "fusion_lon": 0.0, "is_reserved": 0, "bike_id": "b621c263613c95585cc3d58390ef03bc", "fusion_lat": 0.0, "is_disabled": 0, "rental_uris": {"ios": "https://dc.lft.to/lastmile_qr_scan", "android": "https://dc.lft.to/lastmile_qr_scan"}}, {"name": "13ddf3d0089b7a5ef5178d09db3267bf", "lon": -77.00565166666667, "lat": 38.88503266666667, "type": "electric_scooter", "fusion_lon": 0.0, "is_reserved": 0, "bike_id": "13ddf3d0089b7a5ef5178d09db3267bf", "fusion_lat": 0.0, "is_disabled": 0, "rental_uris": {"ios": "https://dc.lft.to/lastmile_qr_scan", "android": "https://dc.lft.to/lastmile_qr_scan"}}, {"name": "2568457131c1cee0ba80dd6c29ac81f8", "lon": -77.01133933333334, "lat": 38.88039666666667, "type": "electric_scooter", "fusion_lon": 0.0, "is_reserved": 0, "bike_id": "2568457131c1cee0ba80dd6c29ac81f8", "fusion_lat": 0.0, "is_disabled": 0, "rental_uris": {"ios": "https://dc.lft.to/lastmile_qr_scan", "android": "https://dc.lft.to/lastmile_qr_scan"}}, {"name": "78fbaa514b096211a6a2d1b1e472da9d", "lon": -77.03391283333333, "lat": 38.9205895, "type": "electric_scooter", "fusion_lon": 0.0, "is_reserved": 0, "bike_id": "78fbaa514b096211a6a2d1b1e472da9d", "fusion_lat": 0.0, "is_disabled": 0, "rental_uris": {"ios": "https://dc.lft.to/lastmile_qr_scan", "android": "https://dc.lft.to/lastmile_qr_scan"}}, {"name": "bfc3c30a1aff1bed73bd3a2bbb9289c2", "lon": -77.0241885, "lat": 38.90734166666667, "type": "electric_scooter", "fusion_lon": 0.0, "is_reserved": 0, "bike_id": "bfc3c30a1aff1bed73bd3a2bbb9289c2", "fusion_lat": 0.0, "is_disabled": 0, "rental_uris": {"ios": "https://dc.lft.to/lastmile_qr_scan", "android": "https://dc.lft.to/lastmile_qr_scan"}}, {"name": "c85cff3749d6cad31aae9df216b49ae3", "lon": -76.98667066666667, "lat": 38.90253766666667, "type": "electric_scooter", "fusion_lon": 0.0, "is_reserved": 0, "bike_id": "c85cff3749d6cad31aae9df216b49ae3", "fusion_lat": 0.0, "is_disabled": 0, "rental_uris": {"ios": "https://dc.lft.to/lastmile_qr_scan", "android": "https://dc.lft.to/lastmile_qr_scan"}}, {"name": "c01649739c861ad90541576d42602ff5", "lon": -77.03987966666666, "lat": 38.917557333333335, "type": "electric_scooter", "fusion_lon": 0.0, "is_reserved": 0, "bike_id": "c01649739c861ad90541576d42602ff5", "fusion_lat": 0.0, "is_disabled": 0, "rental_uris": {"ios": "https://dc.lft.to/lastmile_qr_scan", "android": "https://dc.lft.to/lastmile_qr_scan"}}, {"name": "f6a6fa54fbb15dd75d18c884b9a997cd", "lon": -77.03400816666667, "lat": 38.9313075, "type": "electric_scooter", "fusion_lon": 0.0, "is_reserved": 0, "bike_id": "f6a6fa54fbb15dd75d18c884b9a997cd", "fusion_lat": 0.0, "is_disabled": 0, "rental_uris": {"ios": "https://dc.lft.to/lastmile_qr_scan", "android": "https://dc.lft.to/lastmile_qr_scan"}}, {"name": "91fe0f7189599f7e0b0abb4944f37202", "lon": -77.03276, "lat": 38.93711283333333, "type": "electric_scooter", "fusion_lon": 0.0, "is_reserved": 0, "bike_id": "91fe0f7189599f7e0b0abb4944f37202", "fusion_lat": 0.0, "is_disabled": 0, "rental_uris": {"ios": "https://dc.lft.to/lastmile_qr_scan", "android": "https://dc.lft.to/lastmile_qr_scan"}}, {"name": "d3821691aeea919bcc75a0203350d4a3", "lon": -77.1347805, "lat": 38.853593333333336, "type": "electric_bike", "fusion_lon": 0.0, "is_reserved": 0, "bike_id": "d3821691aeea919bcc75a0203350d4a3", "fusion_lat": 0.0, "is_disabled": 0, "rental_uris": {"ios": "https://dc.lft.to/lastmile_qr_scan", "android": "https://dc.lft.to/lastmile_qr_scan"}}, {"name": "7b161eea3df4c73fddb12275dfce942b", "lon": -76.98368333333333, "lat": 38.88595883333333, "type": "electric_scooter", "fusion_lon": 0.0, "is_reserved": 0, "bike_id": "7b161eea3df4c73fddb12275dfce942b", "fusion_lat": 0.0, "is_disabled": 0, "rental_uris": {"ios": "https://dc.lft.to/lastmile_qr_scan", "android": "https://dc.lft.to/lastmile_qr_scan"}}, {"name": "ae3c898b717d8a999506479a2a573934", "lon": -77.04130016666667, "lat": 38.91396316666667, "type": "electric_scooter", "fusion_lon": 0.0, "is_reserved": 0, "bike_id": "ae3c898b717d8a999506479a2a573934", "fusion_lat": 0.0, "is_disabled": 0, "rental_uris": {"ios": "https://dc.lft.to/lastmile_qr_scan", "android": "https://dc.lft.to/lastmile_qr_scan"}}, {"name": "71202bdeaa1ad38c0ff455bd5b1c8aaf", "lon": -77.03165716666666, "lat": 38.99947983333333, "type": "electric_bike", "fusion_lon": 0.0, "is_reserved": 0, "bike_id": "71202bdeaa1ad38c0ff455bd5b1c8aaf", "fusion_lat": 0.0, "is_disabled": 0, "rental_uris": {"ios": "https://dc.lft.to/lastmile_qr_scan", "android": "https://dc.lft.to/lastmile_qr_scan"}}, {"name": "2dc86968b73f1be04160026b8c6cfb83", "lon": -77.03287033333334, "lat": 38.92052, "type": "electric_scooter", "fusion_lon": 0.0, "is_reserved": 0, "bike_id": "2dc86968b73f1be04160026b8c6cfb83", "fusion_lat": 0.0, "is_disabled": 0, "rental_uris": {"ios": "https://dc.lft.to/lastmile_qr_scan", "android": "https://dc.lft.to/lastmile_qr_scan"}}, {"name": "0cc3e9dcd149c000bc9a289274c98297", "lon": -77.04157733333334, "lat": 38.91832266666667, "type": "electric_scooter", "fusion_lon": 0.0, "is_reserved": 0, "bike_id": "0cc3e9dcd149c000bc9a289274c98297", "fusion_lat": 0.0, "is_disabled": 0, "rental_uris": {"ios": "https://dc.lft.to/lastmile_qr_scan", "android": "https://dc.lft.to/lastmile_qr_scan"}}, {"name": "df54fafb380a6dd1d43ff87d2cd328f4", "lon": -77.0155955, "lat": 38.915127, "type": "electric_scooter", "fusion_lon": 0.0, "is_reserved": 0, "bike_id": "df54fafb380a6dd1d43ff87d2cd328f4", "fusion_lat": 0.0, "is_disabled": 0, "rental_uris": {"ios": "https://dc.lft.to/lastmile_qr_scan", "android": "https://dc.lft.to/lastmile_qr_scan"}}, {"name": "fae823a2c4b7606c6fb1a6e3a524ad65", "lon": -77.0035025, "lat": 38.902346333333334, "type": "electric_scooter", "fusion_lon": 0.0, "is_reserved": 0, "bike_id": "fae823a2c4b7606c6fb1a6e3a524ad65", "fusion_lat": 0.0, "is_disabled": 0, "rental_uris": {"ios": "https://dc.lft.to/lastmile_qr_scan", "android": "https://dc.lft.to/lastmile_qr_scan"}}, {"name": "e256f625953262c9824dfcef7f479cf6", "lon": -77.03185133333334, "lat": 38.91933366666667, "type": "electric_scooter", "fusion_lon": 0.0, "is_reserved": 0, "bike_id": "e256f625953262c9824dfcef7f479cf6", "fusion_lat": 0.0, "is_disabled": 0, "rental_uris": {"ios": "https://dc.lft.to/lastmile_qr_scan", "android": "https://dc.lft.to/lastmile_qr_scan"}}, {"name": "fdc8a4c80de8b1b8bab5e4e6b069d37e", "lon": -77.0415785, "lat": 38.918413666666666, "type": "electric_scooter", "fusion_lon": 0.0, "is_reserved": 0, "bike_id": "fdc8a4c80de8b1b8bab5e4e6b069d37e", "fusion_lat": 0.0, "is_disabled": 0, "rental_uris": {"ios": "https://dc.lft.to/lastmile_qr_scan", "android": "https://dc.lft.to/lastmile_qr_scan"}}, {"name": "69b33569a3da6c64d3a3560103c5af3a", "lon": -77.031947, "lat": 38.9182305, "type": "electric_scooter", "fusion_lon": 0.0, "is_reserved": 0, "bike_id": "69b33569a3da6c64d3a3560103c5af3a", "fusion_lat": 0.0, "is_disabled": 0, "rental_uris": {"ios": "https://dc.lft.to/lastmile_qr_scan", "android": "https://dc.lft.to/lastmile_qr_scan"}}, {"name": "eae936a1462e03038ac40793a3f326e8", "lon": -76.94544316666666, "lat": 38.86462066666667, "type": "electric_bike", "fusion_lon": 0.0, "is_reserved": 0, "bike_id": "eae936a1462e03038ac40793a3f326e8", "fusion_lat": 0.0, "is_disabled": 0, "rental_uris": {"ios": "https://dc.lft.to/lastmile_qr_scan", "android": "https://dc.lft.to/lastmile_qr_scan"}}, {"name": "fb0921ea4fd9226d6dfff6770d52c1bd", "lon": -77.03293183333334, "lat": 38.9563465, "type": "electric_scooter", "fusion_lon": 0.0, "is_reserved": 0, "bike_id": "fb0921ea4fd9226d6dfff6770d52c1bd", "fusion_lat": 0.0, "is_disabled": 0, "rental_uris": {"ios": "https://dc.lft.to/lastmile_qr_scan", "android": "https://dc.lft.to/lastmile_qr_scan"}}, {"name": "5695fb3b308b586aac84239f0b3949d3", "lon": -77.043312, "lat": 38.89223966666667, "type": "electric_scooter", "fusion_lon": 0.0, "is_reserved": 0, "bike_id": "5695fb3b308b586aac84239f0b3949d3", "fusion_lat": 0.0, "is_disabled": 0, "rental_uris": {"ios": "https://dc.lft.to/lastmile_qr_scan", "android": "https://dc.lft.to/lastmile_qr_scan"}}, {"name": "40ed33684d1da86278df1dc0c4d89341", "lon": -77.04978066666666, "lat": 39.062988833333335, "type": "electric_bike", "fusion_lon": 0.0, "is_reserved": 0, "bike_id": "40ed33684d1da86278df1dc0c4d89341", "fusion_lat": 0.0, "is_disabled": 0, "rental_uris": {"ios": "https://dc.lft.to/lastmile_qr_scan", "android": "https://dc.lft.to/lastmile_qr_scan"}}, {"name": "2017d3ae92546a01ef08a3cdc2be5eff", "lon": -77.03202366666666, "lat": 38.910566333333335, "type": "electric_scooter", "fusion_lon": 0.0, "is_reserved": 0, "bike_id": "2017d3ae92546a01ef08a3cdc2be5eff", "fusion_lat": 0.0, "is_disabled": 0, "rental_uris": {"ios": "https://dc.lft.to/lastmile_qr_scan", "android": "https://dc.lft.to/lastmile_qr_scan"}}, {"name": "fe583fa091b5ae49e85d4d1d00b39d38", "lon": -77.014238, "lat": 38.9057345, "type": "electric_bike", "fusion_lon": 0.0, "is_reserved": 0, "bike_id": "fe583fa091b5ae49e85d4d1d00b39d38", "fusion_lat": 0.0, "is_disabled": 0, "rental_uris": {"ios": "https://dc.lft.to/lastmile_qr_scan", "android": "https://dc.lft.to/lastmile_qr_scan"}}, {"name": "dc8fc45095f6dbe1f1f5d0bfbab6a270", "lon": -77.0576145, "lat": 38.924907166666664, "type": "electric_scooter", "fusion_lon": 0.0, "is_reserved": 0, "bike_id": "dc8fc45095f6dbe1f1f5d0bfbab6a270", "fusion_lat": 0.0, "is_disabled": 0, "rental_uris": {"ios": "https://dc.lft.to/lastmile_qr_scan", "android": "https://dc.lft.to/lastmile_qr_scan"}}, {"name": "711f72a6b6a7909b1615a50e6f54d9f8", "lon": -77.00095883333333, "lat": 38.908398, "type": "electric_scooter", "fusion_lon": 0.0, "is_reserved": 0, "bike_id": "711f72a6b6a7909b1615a50e6f54d9f8", "fusion_lat": 0.0, "is_disabled": 0, "rental_uris": {"ios": "https://dc.lft.to/lastmile_qr_scan", "android": "https://dc.lft.to/lastmile_qr_scan"}}, {"name": "308e886c08abb9b560acad01f5d35c11", "lon": -77.00894066666666, "lat": 38.92480066666667, "type": "electric_scooter", "fusion_lon": 0.0, "is_reserved": 0, "bike_id": "308e886c08abb9b560acad01f5d35c11", "fusion_lat": 0.0, "is_disabled": 0, "rental_uris": {"ios": "https://dc.lft.to/lastmile_qr_scan", "android": "https://dc.lft.to/lastmile_qr_scan"}}, {"name": "ebd949d85a3d0f6a2f0161a0fdf45142", "lon": -76.96628466666667, "lat": 38.871101, "type": "electric_scooter", "fusion_lon": 0.0, "is_reserved": 0, "bike_id": "ebd949d85a3d0f6a2f0161a0fdf45142", "fusion_lat": 0.0, "is_disabled": 0, "rental_uris": {"ios": "https://dc.lft.to/lastmile_qr_scan", "android": "https://dc.lft.to/lastmile_qr_scan"}}, {"name": "6e19506b8cc0e4b4adc6b8bcd12a29bd", "lon": -77.029963, "lat": 38.898489166666664, "type": "electric_scooter", "fusion_lon": 0.0, "is_reserved": 0, "bike_id": "6e19506b8cc0e4b4adc6b8bcd12a29bd", "fusion_lat": 0.0, "is_disabled": 0, "rental_uris": {"ios": "https://dc.lft.to/lastmile_qr_scan", "android": "https://dc.lft.to/lastmile_qr_scan"}}, {"name": "6df7debb451de07dab654ffb17b5dd1a", "lon": -77.02814583333334, "lat": 38.917710666666665, "type": "electric_scooter", "fusion_lon": 0.0, "is_reserved": 0, "bike_id": "6df7debb451de07dab654ffb17b5dd1a", "fusion_lat": 0.0, "is_disabled": 0, "rental_uris": {"ios": "https://dc.lft.to/lastmile_qr_scan", "android": "https://dc.lft.to/lastmile_qr_scan"}}, {"name": "1bcfc16219391e27e25880f74b867483", "lon": -77.03208066666667, "lat": 38.89535883333333, "type": "electric_scooter", "fusion_lon": 0.0, "is_reserved": 0, "bike_id": "1bcfc16219391e27e25880f74b867483", "fusion_lat": 0.0, "is_disabled": 0, "rental_uris": {"ios": "https://dc.lft.to/lastmile_qr_scan", "android": "https://dc.lft.to/lastmile_qr_scan"}}, {"name": "98bc388249d63e8db02c09a454af53fe", "lon": -77.02430433333333, "lat": 38.90072883333333, "type": "electric_scooter", "fusion_lon": 0.0, "is_reserved": 0, "bike_id": "98bc388249d63e8db02c09a454af53fe", "fusion_lat": 0.0, "is_disabled": 0, "rental_uris": {"ios": "https://dc.lft.to/lastmile_qr_scan", "android": "https://dc.lft.to/lastmile_qr_scan"}}, {"name": "12d179a43fdba476d73905db2d1846ac", "lon": -77.03255716666666, "lat": 38.904441166666665, "type": "electric_scooter", "fusion_lon": 0.0, "is_reserved": 0, "bike_id": "12d179a43fdba476d73905db2d1846ac", "fusion_lat": 0.0, "is_disabled": 0, "rental_uris": {"ios": "https://dc.lft.to/lastmile_qr_scan", "android": "https://dc.lft.to/lastmile_qr_scan"}}, {"name": "dffa3be8cfdd835ed4c74ebfa344e96e", "lon": -77.033273, "lat": 38.89840133333333, "type": "electric_scooter", "fusion_lon": 0.0, "is_reserved": 0, "bike_id": "dffa3be8cfdd835ed4c74ebfa344e96e", "fusion_lat": 0.0, "is_disabled": 0, "rental_uris": {"ios": "https://dc.lft.to/lastmile_qr_scan", "android": "https://dc.lft.to/lastmile_qr_scan"}}, {"name": "82802a413ed53cce57d4a619de5f7003", "lon": -76.98253116666666, "lat": 38.904513666666666, "type": "electric_scooter", "fusion_lon": 0.0, "is_reserved": 0, "bike_id": "82802a413ed53cce57d4a619de5f7003", "fusion_lat": 0.0, "is_disabled": 0, "rental_uris": {"ios": "https://dc.lft.to/lastmile_qr_scan", "android": "https://dc.lft.to/lastmile_qr_scan"}}, {"name": "f9c187c1b3e2fa914999ce98c68c8ff4", "lon": -77.06327583333334, "lat": 38.9442415, "type": "electric_scooter", "fusion_lon": 0.0, "is_reserved": 0, "bike_id": "f9c187c1b3e2fa914999ce98c68c8ff4", "fusion_lat": 0.0, "is_disabled": 0, "rental_uris": {"ios": "https://dc.lft.to/lastmile_qr_scan", "android": "https://dc.lft.to/lastmile_qr_scan"}}, {"name": "a2f076bcf0fe994119dec967f376a5da", "lon": -77.120757, "lat": 38.8542235, "type": "electric_bike", "fusion_lon": 0.0, "is_reserved": 0, "bike_id": "a2f076bcf0fe994119dec967f376a5da", "fusion_lat": 0.0, "is_disabled": 0, "rental_uris": {"ios": "https://dc.lft.to/lastmile_qr_scan", "android": "https://dc.lft.to/lastmile_qr_scan"}}, {"name": "5102b8fe7450bf6efab8348ebfe20177", "lon": -77.022904, "lat": 38.92070966666667, "type": "electric_scooter", "fusion_lon": 0.0, "is_reserved": 0, "bike_id": "5102b8fe7450bf6efab8348ebfe20177", "fusion_lat": 0.0, "is_disabled": 0, "rental_uris": {"ios": "https://dc.lft.to/lastmile_qr_scan", "android": "https://dc.lft.to/lastmile_qr_scan"}}, {"name": "fcf574cd3bedf34d093c280f06f3dd51", "lon": -77.02704466666667, "lat": 38.89996416666666, "type": "electric_scooter", "fusion_lon": 0.0, "is_reserved": 0, "bike_id": "fcf574cd3bedf34d093c280f06f3dd51", "fusion_lat": 0.0, "is_disabled": 0, "rental_uris": {"ios": "https://dc.lft.to/lastmile_qr_scan", "android": "https://dc.lft.to/lastmile_qr_scan"}}, {"name": "938e1031a1c0cd958572e78341a9cf21", "lon": -76.9902885, "lat": 38.902917, "type": "electric_scooter", "fusion_lon": 0.0, "is_reserved": 0, "bike_id": "938e1031a1c0cd958572e78341a9cf21", "fusion_lat": 0.0, "is_disabled": 0, "rental_uris": {"ios": "https://dc.lft.to/lastmile_qr_scan", "android": "https://dc.lft.to/lastmile_qr_scan"}}, {"name": "3ab87734369091d43c1282425bb01958", "lon": -77.0709545, "lat": 38.919801166666666, "type": "electric_scooter", "fusion_lon": 0.0, "is_reserved": 0, "bike_id": "3ab87734369091d43c1282425bb01958", "fusion_lat": 0.0, "is_disabled": 0, "rental_uris": {"ios": "https://dc.lft.to/lastmile_qr_scan", "android": "https://dc.lft.to/lastmile_qr_scan"}}, {"name": "1f4a0a1e3c0bd908c3edcabe3a62ba59", "lon": -77.01860616666667, "lat": 38.922653, "type": "electric_scooter", "fusion_lon": 0.0, "is_reserved": 0, "bike_id": "1f4a0a1e3c0bd908c3edcabe3a62ba59", "fusion_lat": 0.0, "is_disabled": 0, "rental_uris": {"ios": "https://dc.lft.to/lastmile_qr_scan", "android": "https://dc.lft.to/lastmile_qr_scan"}}, {"name": "05003f1988cfcd37ebc8ea193cb31d18", "lon": -77.02674333333333, "lat": 38.896083, "type": "electric_scooter", "fusion_lon": 0.0, "is_reserved": 0, "bike_id": "05003f1988cfcd37ebc8ea193cb31d18", "fusion_lat": 0.0, "is_disabled": 0, "rental_uris": {"ios": "https://dc.lft.to/lastmile_qr_scan", "android": "https://dc.lft.to/lastmile_qr_scan"}}, {"name": "7626b501d5c6e8a6d833895393d2c095", "lon": -77.03128583333333, "lat": 38.9237605, "type": "electric_scooter", "fusion_lon": 0.0, "is_reserved": 0, "bike_id": "7626b501d5c6e8a6d833895393d2c095", "fusion_lat": 0.0, "is_disabled": 0, "rental_uris": {"ios": "https://dc.lft.to/lastmile_qr_scan", "android": "https://dc.lft.to/lastmile_qr_scan"}}, {"name": "1cfdf5ff05c8758b488bd1f8d035b6c2", "lon": -77.03732183333334, "lat": 38.9357395, "type": "electric_scooter", "fusion_lon": 0.0, "is_reserved": 0, "bike_id": "1cfdf5ff05c8758b488bd1f8d035b6c2", "fusion_lat": 0.0, "is_disabled": 0, "rental_uris": {"ios": "https://dc.lft.to/lastmile_qr_scan", "android": "https://dc.lft.to/lastmile_qr_scan"}}, {"name": "729f78f50179d49e0b968186a838fee0", "lon": -77.05832983333333, "lat": 38.910511, "type": "electric_scooter", "fusion_lon": 0.0, "is_reserved": 0, "bike_id": "729f78f50179d49e0b968186a838fee0", "fusion_lat": 0.0, "is_disabled": 0, "rental_uris": {"ios": "https://dc.lft.to/lastmile_qr_scan", "android": "https://dc.lft.to/lastmile_qr_scan"}}, {"name": "0ad13145e0c4175b28bedbeb2de08fc0", "lon": -77.20835983333333, "lat": 38.9246845, "type": "electric_bike", "fusion_lon": 0.0, "is_reserved": 0, "bike_id": "0ad13145e0c4175b28bedbeb2de08fc0", "fusion_lat": 0.0, "is_disabled": 0, "rental_uris": {"ios": "https://dc.lft.to/lastmile_qr_scan", "android": "https://dc.lft.to/lastmile_qr_scan"}}, {"name": "e16fd24f77f9ff047b0590df70be2c4e", "lon": -76.999243, "lat": 38.92037883333333, "type": "electric_scooter", "fusion_lon": 0.0, "is_reserved": 0, "bike_id": "e16fd24f77f9ff047b0590df70be2c4e", "fusion_lat": 0.0, "is_disabled": 0, "rental_uris": {"ios": "https://dc.lft.to/lastmile_qr_scan", "android": "https://dc.lft.to/lastmile_qr_scan"}}, {"name": "0fb051bea7bdc806849cba92963bd286", "lon": -77.11313316666667, "lat": 38.8316155, "type": "electric_bike", "fusion_lon": 0.0, "is_reserved": 0, "bike_id": "0fb051bea7bdc806849cba92963bd286", "fusion_lat": 0.0, "is_disabled": 0, "rental_uris": {"ios": "https://dc.lft.to/lastmile_qr_scan", "android": "https://dc.lft.to/lastmile_qr_scan"}}, {"name": "eb87477a377a8ea3d40da01e36eb5e75", "lon": -77.018865, "lat": 38.922631833333334, "type": "electric_scooter", "fusion_lon": 0.0, "is_reserved": 0, "bike_id": "eb87477a377a8ea3d40da01e36eb5e75", "fusion_lat": 0.0, "is_disabled": 0, "rental_uris": {"ios": "https://dc.lft.to/lastmile_qr_scan", "android": "https://dc.lft.to/lastmile_qr_scan"}}, {"name": "e6130aeff9d21220014fa2954a379458", "lon": -77.0588535, "lat": 38.90316516666667, "type": "electric_scooter", "fusion_lon": 0.0, "is_reserved": 0, "bike_id": "e6130aeff9d21220014fa2954a379458", "fusion_lat": 0.0, "is_disabled": 0, "rental_uris": {"ios": "https://dc.lft.to/lastmile_qr_scan", "android": "https://dc.lft.to/lastmile_qr_scan"}}, {"name": "6b68f8669305a1c0be6ee9470269c5fe", "lon": -77.03122483333334, "lat": 38.920233333333336, "type": "electric_scooter", "fusion_lon": 0.0, "is_reserved": 0, "bike_id": "6b68f8669305a1c0be6ee9470269c5fe", "fusion_lat": 0.0, "is_disabled": 0, "rental_uris": {"ios": "https://dc.lft.to/lastmile_qr_scan", "android": "https://dc.lft.to/lastmile_qr_scan"}}, {"name": "e93258423367ffeb23af69d48cad4d24", "lon": -77.01412166666667, "lat": 38.92827, "type": "electric_scooter", "fusion_lon": 0.0, "is_reserved": 0, "bike_id": "e93258423367ffeb23af69d48cad4d24", "fusion_lat": 0.0, "is_disabled": 0, "rental_uris": {"ios": "https://dc.lft.to/lastmile_qr_scan", "android": "https://dc.lft.to/lastmile_qr_scan"}}, {"name": "cbb506d5bea99172b7420eab5508dd26", "lon": -77.0345225, "lat": 38.90659483333334, "type": "electric_scooter", "fusion_lon": 0.0, "is_reserved": 0, "bike_id": "cbb506d5bea99172b7420eab5508dd26", "fusion_lat": 0.0, "is_disabled": 0, "rental_uris": {"ios": "https://dc.lft.to/lastmile_qr_scan", "android": "https://dc.lft.to/lastmile_qr_scan"}}, {"name": "7a4ccac4b586d5b3191266c7a5c4efb0", "lon": -76.99004733333334, "lat": 38.864186333333336, "type": "electric_scooter", "fusion_lon": 0.0, "is_reserved": 0, "bike_id": "7a4ccac4b586d5b3191266c7a5c4efb0", "fusion_lat": 0.0, "is_disabled": 0, "rental_uris": {"ios": "https://dc.lft.to/lastmile_qr_scan", "android": "https://dc.lft.to/lastmile_qr_scan"}}, {"name": "7f1a16e2222ae43c7c36a7bea6946598", "lon": -77.03214966666667, "lat": 38.89223416666667, "type": "electric_scooter", "fusion_lon": 0.0, "is_reserved": 0, "bike_id": "7f1a16e2222ae43c7c36a7bea6946598", "fusion_lat": 0.0, "is_disabled": 0, "rental_uris": {"ios": "https://dc.lft.to/lastmile_qr_scan", "android": "https://dc.lft.to/lastmile_qr_scan"}}, {"name": "80274473921dff63520c2adbc8c16fd4", "lon": -76.99348166666667, "lat": 38.914845666666665, "type": "electric_scooter", "fusion_lon": 0.0, "is_reserved": 0, "bike_id": "80274473921dff63520c2adbc8c16fd4", "fusion_lat": 0.0, "is_disabled": 0, "rental_uris": {"ios": "https://dc.lft.to/lastmile_qr_scan", "android": "https://dc.lft.to/lastmile_qr_scan"}}, {"name": "3433f298b0667feeb3a293cad9ae4d35", "lon": -77.02404583333333, "lat": 38.90844583333333, "type": "electric_scooter", "fusion_lon": 0.0, "is_reserved": 0, "bike_id": "3433f298b0667feeb3a293cad9ae4d35", "fusion_lat": 0.0, "is_disabled": 0, "rental_uris": {"ios": "https://dc.lft.to/lastmile_qr_scan", "android": "https://dc.lft.to/lastmile_qr_scan"}}, {"name": "755282350ccc4db8071033e350d46200", "lon": -77.03552366666666, "lat": 38.90664433333333, "type": "electric_scooter", "fusion_lon": 0.0, "is_reserved": 0, "bike_id": "755282350ccc4db8071033e350d46200", "fusion_lat": 0.0, "is_disabled": 0, "rental_uris": {"ios": "https://dc.lft.to/lastmile_qr_scan", "android": "https://dc.lft.to/lastmile_qr_scan"}}, {"name": "0868eff3c5872ecc96e958481e996298", "lon": -77.01591733333333, "lat": 38.949423833333334, "type": "electric_scooter", "fusion_lon": 0.0, "is_reserved": 0, "bike_id": "0868eff3c5872ecc96e958481e996298", "fusion_lat": 0.0, "is_disabled": 0, "rental_uris": {"ios": "https://dc.lft.to/lastmile_qr_scan", "android": "https://dc.lft.to/lastmile_qr_scan"}}, {"name": "96807da84d773d39839492540a65869f", "lon": -77.0271545, "lat": 38.949613, "type": "electric_scooter", "fusion_lon": 0.0, "is_reserved": 0, "bike_id": "96807da84d773d39839492540a65869f", "fusion_lat": 0.0, "is_disabled": 0, "rental_uris": {"ios": "https://dc.lft.to/lastmile_qr_scan", "android": "https://dc.lft.to/lastmile_qr_scan"}}, {"name": "a488c60bed9653fbd17aa924bb9d9f91", "lon": -77.03300933333334, "lat": 38.909808166666664, "type": "electric_scooter", "fusion_lon": 0.0, "is_reserved": 0, "bike_id": "a488c60bed9653fbd17aa924bb9d9f91", "fusion_lat": 0.0, "is_disabled": 0, "rental_uris": {"ios": "https://dc.lft.to/lastmile_qr_scan", "android": "https://dc.lft.to/lastmile_qr_scan"}}, {"name": "d42735ebcd53b50f452f16e9ce9bd50c", "lon": -77.07578416666666, "lat": 38.938644333333336, "type": "electric_scooter", "fusion_lon": 0.0, "is_reserved": 0, "bike_id": "d42735ebcd53b50f452f16e9ce9bd50c", "fusion_lat": 0.0, "is_disabled": 0, "rental_uris": {"ios": "https://dc.lft.to/lastmile_qr_scan", "android": "https://dc.lft.to/lastmile_qr_scan"}}, {"name": "072255a2b9665c935d672d2e70500cdf", "lon": -77.02432916666666, "lat": 38.9028535, "type": "electric_scooter", "fusion_lon": 0.0, "is_reserved": 0, "bike_id": "072255a2b9665c935d672d2e70500cdf", "fusion_lat": 0.0, "is_disabled": 0, "rental_uris": {"ios": "https://dc.lft.to/lastmile_qr_scan", "android": "https://dc.lft.to/lastmile_qr_scan"}}, {"name": "d015fc766fe4db8763ee8cfc72b0084d", "lon": -77.05853916666666, "lat": 38.93607883333333, "type": "electric_scooter", "fusion_lon": 0.0, "is_reserved": 0, "bike_id": "d015fc766fe4db8763ee8cfc72b0084d", "fusion_lat": 0.0, "is_disabled": 0, "rental_uris": {"ios": "https://dc.lft.to/lastmile_qr_scan", "android": "https://dc.lft.to/lastmile_qr_scan"}}, {"name": "3be8358909f9e7e9a8b2dfe2a661a290", "lon": -77.045991, "lat": 38.919230166666665, "type": "electric_scooter", "fusion_lon": 0.0, "is_reserved": 0, "bike_id": "3be8358909f9e7e9a8b2dfe2a661a290", "fusion_lat": 0.0, "is_disabled": 0, "rental_uris": {"ios": "https://dc.lft.to/lastmile_qr_scan", "android": "https://dc.lft.to/lastmile_qr_scan"}}, {"name": "d88a79df1bdd153a08f49bbe852d8a28", "lon": -77.03031433333334, "lat": 38.8971915, "type": "electric_scooter", "fusion_lon": 0.0, "is_reserved": 0, "bike_id": "d88a79df1bdd153a08f49bbe852d8a28", "fusion_lat": 0.0, "is_disabled": 0, "rental_uris": {"ios": "https://dc.lft.to/lastmile_qr_scan", "android": "https://dc.lft.to/lastmile_qr_scan"}}, {"name": "f3be65a282b4cba24d64680debcc5ed3", "lon": -76.988781, "lat": 38.904498333333336, "type": "electric_scooter", "fusion_lon": 0.0, "is_reserved": 0, "bike_id": "f3be65a282b4cba24d64680debcc5ed3", "fusion_lat": 0.0, "is_disabled": 0, "rental_uris": {"ios": "https://dc.lft.to/lastmile_qr_scan", "android": "https://dc.lft.to/lastmile_qr_scan"}}, {"name": "3af19ad6ac2fb0347023ebfb6f4b6674", "lon": -77.0270115, "lat": 38.90069733333333, "type": "electric_scooter", "fusion_lon": 0.0, "is_reserved": 0, "bike_id": "3af19ad6ac2fb0347023ebfb6f4b6674", "fusion_lat": 0.0, "is_disabled": 0, "rental_uris": {"ios": "https://dc.lft.to/lastmile_qr_scan", "android": "https://dc.lft.to/lastmile_qr_scan"}}, {"name": "9a7eefdfbcabee35b0c7e82ba222dbdb", "lon": -77.03647283333333, "lat": 38.91731033333333, "type": "electric_scooter", "fusion_lon": 0.0, "is_reserved": 0, "bike_id": "9a7eefdfbcabee35b0c7e82ba222dbdb", "fusion_lat": 0.0, "is_disabled": 0, "rental_uris": {"ios": "https://dc.lft.to/lastmile_qr_scan", "android": "https://dc.lft.to/lastmile_qr_scan"}}, {"name": "d7ef869863720516829c5b3229e93979", "lon": -77.0320885, "lat": 38.89591883333333, "type": "electric_scooter", "fusion_lon": 0.0, "is_reserved": 0, "bike_id": "d7ef869863720516829c5b3229e93979", "fusion_lat": 0.0, "is_disabled": 0, "rental_uris": {"ios": "https://dc.lft.to/lastmile_qr_scan", "android": "https://dc.lft.to/lastmile_qr_scan"}}, {"name": "7d0245def7f0b451987076922ce146fb", "lon": -77.024204, "lat": 38.907346833333335, "type": "electric_scooter", "fusion_lon": 0.0, "is_reserved": 0, "bike_id": "7d0245def7f0b451987076922ce146fb", "fusion_lat": 0.0, "is_disabled": 0, "rental_uris": {"ios": "https://dc.lft.to/lastmile_qr_scan", "android": "https://dc.lft.to/lastmile_qr_scan"}}, {"name": "893140a4c998ea35ab5bdef62fb19864", "lon": -77.04122966666667, "lat": 38.91636183333333, "type": "electric_scooter", "fusion_lon": 0.0, "is_reserved": 0, "bike_id": "893140a4c998ea35ab5bdef62fb19864", "fusion_lat": 0.0, "is_disabled": 0, "rental_uris": {"ios": "https://dc.lft.to/lastmile_qr_scan", "android": "https://dc.lft.to/lastmile_qr_scan"}}, {"name": "6a3d244484e06d7fb434c63a517e11f3", "lon": -76.981063, "lat": 38.87728116666667, "type": "electric_bike", "fusion_lon": 0.0, "is_reserved": 0, "bike_id": "6a3d244484e06d7fb434c63a517e11f3", "fusion_lat": 0.0, "is_disabled": 0, "rental_uris": {"ios": "https://dc.lft.to/lastmile_qr_scan", "android": "https://dc.lft.to/lastmile_qr_scan"}}, {"name": "016b61777b7532c985cf7f9c2ba5816f", "lon": -77.05862033333334, "lat": 38.93612783333333, "type": "electric_scooter", "fusion_lon": 0.0, "is_reserved": 0, "bike_id": "016b61777b7532c985cf7f9c2ba5816f", "fusion_lat": 0.0, "is_disabled": 0, "rental_uris": {"ios": "https://dc.lft.to/lastmile_qr_scan", "android": "https://dc.lft.to/lastmile_qr_scan"}}, {"name": "217be09d8963192d709d1803dc1c748e", "lon": -77.04189716666667, "lat": 38.91989433333333, "type": "electric_scooter", "fusion_lon": 0.0, "is_reserved": 0, "bike_id": "217be09d8963192d709d1803dc1c748e", "fusion_lat": 0.0, "is_disabled": 0, "rental_uris": {"ios": "https://dc.lft.to/lastmile_qr_scan", "android": "https://dc.lft.to/lastmile_qr_scan"}}, {"name": "42252ee5d3bdcfe3b669559ff4b9b00d", "lon": -77.0508935, "lat": 38.92344466666667, "type": "electric_scooter", "fusion_lon": 0.0, "is_reserved": 0, "bike_id": "42252ee5d3bdcfe3b669559ff4b9b00d", "fusion_lat": 0.0, "is_disabled": 0, "rental_uris": {"ios": "https://dc.lft.to/lastmile_qr_scan", "android": "https://dc.lft.to/lastmile_qr_scan"}}, {"name": "4e3e13407599df474ae621b8a6d11124", "lon": -77.038667, "lat": 38.918188, "type": "electric_scooter", "fusion_lon": 0.0, "is_reserved": 0, "bike_id": "4e3e13407599df474ae621b8a6d11124", "fusion_lat": 0.0, "is_disabled": 0, "rental_uris": {"ios": "https://dc.lft.to/lastmile_qr_scan", "android": "https://dc.lft.to/lastmile_qr_scan"}}, {"name": "8d8fde637bc27eacf5e25d50dbb0a023", "lon": -77.021951, "lat": 38.91983333333334, "type": "electric_scooter", "fusion_lon": 0.0, "is_reserved": 0, "bike_id": "8d8fde637bc27eacf5e25d50dbb0a023", "fusion_lat": 0.0, "is_disabled": 0, "rental_uris": {"ios": "https://dc.lft.to/lastmile_qr_scan", "android": "https://dc.lft.to/lastmile_qr_scan"}}, {"name": "0f87ab82a5a25ab557c6c68cfeb27456", "lon": -77.01817183333333, "lat": 38.9237035, "type": "electric_scooter", "fusion_lon": 0.0, "is_reserved": 0, "bike_id": "0f87ab82a5a25ab557c6c68cfeb27456", "fusion_lat": 0.0, "is_disabled": 0, "rental_uris": {"ios": "https://dc.lft.to/lastmile_qr_scan", "android": "https://dc.lft.to/lastmile_qr_scan"}}, {"name": "fb5a080fb9a64487be9f20963dd01999", "lon": -77.03493316666666, "lat": 38.900321, "type": "electric_scooter", "fusion_lon": 0.0, "is_reserved": 0, "bike_id": "fb5a080fb9a64487be9f20963dd01999", "fusion_lat": 0.0, "is_disabled": 0, "rental_uris": {"ios": "https://dc.lft.to/lastmile_qr_scan", "android": "https://dc.lft.to/lastmile_qr_scan"}}, {"name": "c739e8f118ae7c7cd396f83ed17a1358", "lon": -77.03514266666667, "lat": 38.96208416666666, "type": "electric_bike", "fusion_lon": 0.0, "is_reserved": 0, "bike_id": "c739e8f118ae7c7cd396f83ed17a1358", "fusion_lat": 0.0, "is_disabled": 0, "rental_uris": {"ios": "https://dc.lft.to/lastmile_qr_scan", "android": "https://dc.lft.to/lastmile_qr_scan"}}, {"name": "2aed1850374d4efbb00af5c450b35cf9", "lon": -77.00705483333333, "lat": 38.912049333333336, "type": "electric_scooter", "fusion_lon": 0.0, "is_reserved": 0, "bike_id": "2aed1850374d4efbb00af5c450b35cf9", "fusion_lat": 0.0, "is_disabled": 0, "rental_uris": {"ios": "https://dc.lft.to/lastmile_qr_scan", "android": "https://dc.lft.to/lastmile_qr_scan"}}, {"name": "a164583e15005d06474406ad2822d626", "lon": -77.01527283333333, "lat": 38.88740083333333, "type": "electric_scooter", "fusion_lon": 0.0, "is_reserved": 0, "bike_id": "a164583e15005d06474406ad2822d626", "fusion_lat": 0.0, "is_disabled": 0, "rental_uris": {"ios": "https://dc.lft.to/lastmile_qr_scan", "android": "https://dc.lft.to/lastmile_qr_scan"}}, {"name": "46eeec78ae0bea8cf94a438bb46606b2", "lon": -77.04578733333334, "lat": 38.913365166666665, "type": "electric_scooter", "fusion_lon": 0.0, "is_reserved": 0, "bike_id": "46eeec78ae0bea8cf94a438bb46606b2", "fusion_lat": 0.0, "is_disabled": 0, "rental_uris": {"ios": "https://dc.lft.to/lastmile_qr_scan", "android": "https://dc.lft.to/lastmile_qr_scan"}}, {"name": "3b40f528cd2b9073a5375fe852fb75b9", "lon": -77.025937, "lat": 38.90051483333333, "type": "electric_scooter", "fusion_lon": 0.0, "is_reserved": 0, "bike_id": "3b40f528cd2b9073a5375fe852fb75b9", "fusion_lat": 0.0, "is_disabled": 0, "rental_uris": {"ios": "https://dc.lft.to/lastmile_qr_scan", "android": "https://dc.lft.to/lastmile_qr_scan"}}, {"name": "b15827e94e58f6dd375a596c1f0ad432", "lon": -77.0455165, "lat": 38.9339855, "type": "electric_scooter", "fusion_lon": 0.0, "is_reserved": 0, "bike_id": "b15827e94e58f6dd375a596c1f0ad432", "fusion_lat": 0.0, "is_disabled": 0, "rental_uris": {"ios": "https://dc.lft.to/lastmile_qr_scan", "android": "https://dc.lft.to/lastmile_qr_scan"}}, {"name": "f2d9dfd3555382ef4dbde07d7369f1d2", "lon": -77.01206716666667, "lat": 38.91446533333333, "type": "electric_scooter", "fusion_lon": 0.0, "is_reserved": 0, "bike_id": "f2d9dfd3555382ef4dbde07d7369f1d2", "fusion_lat": 0.0, "is_disabled": 0, "rental_uris": {"ios": "https://dc.lft.to/lastmile_qr_scan", "android": "https://dc.lft.to/lastmile_qr_scan"}}, {"name": "40457269c81e6853e8ce38a6c95606e9", "lon": -77.023718, "lat": 38.91754066666667, "type": "electric_scooter", "fusion_lon": 0.0, "is_reserved": 0, "bike_id": "40457269c81e6853e8ce38a6c95606e9", "fusion_lat": 0.0, "is_disabled": 0, "rental_uris": {"ios": "https://dc.lft.to/lastmile_qr_scan", "android": "https://dc.lft.to/lastmile_qr_scan"}}, {"name": "45064d91b14619a8d73303d8b08161c2", "lon": -77.037743, "lat": 38.91691016666667, "type": "electric_scooter", "fusion_lon": 0.0, "is_reserved": 0, "bike_id": "45064d91b14619a8d73303d8b08161c2", "fusion_lat": 0.0, "is_disabled": 0, "rental_uris": {"ios": "https://dc.lft.to/lastmile_qr_scan", "android": "https://dc.lft.to/lastmile_qr_scan"}}, {"name": "a1dc9e2c1174e52991f5f5210670047c", "lon": -77.0410925, "lat": 38.91694583333334, "type": "electric_scooter", "fusion_lon": 0.0, "is_reserved": 0, "bike_id": "a1dc9e2c1174e52991f5f5210670047c", "fusion_lat": 0.0, "is_disabled": 0, "rental_uris": {"ios": "https://dc.lft.to/lastmile_qr_scan", "android": "https://dc.lft.to/lastmile_qr_scan"}}, {"name": "33ddd8f31c8f755ecd370d026eb3ae6d", "lon": -77.04310866666667, "lat": 38.8810815, "type": "electric_scooter", "fusion_lon": 0.0, "is_reserved": 0, "bike_id": "33ddd8f31c8f755ecd370d026eb3ae6d", "fusion_lat": 0.0, "is_disabled": 0, "rental_uris": {"ios": "https://dc.lft.to/lastmile_qr_scan", "android": "https://dc.lft.to/lastmile_qr_scan"}}, {"name": "9e6934ba5d4dad81590a9ed7767a433f", "lon": -77.04483516666667, "lat": 38.903869, "type": "electric_scooter", "fusion_lon": 0.0, "is_reserved": 0, "bike_id": "9e6934ba5d4dad81590a9ed7767a433f", "fusion_lat": 0.0, "is_disabled": 0, "rental_uris": {"ios": "https://dc.lft.to/lastmile_qr_scan", "android": "https://dc.lft.to/lastmile_qr_scan"}}, {"name": "cd08367efb94b0e3cedd99b5b121ff89", "lon": -76.97181416666666, "lat": 38.9178795, "type": "electric_bike", "fusion_lon": 0.0, "is_reserved": 0, "bike_id": "cd08367efb94b0e3cedd99b5b121ff89", "fusion_lat": 0.0, "is_disabled": 0, "rental_uris": {"ios": "https://dc.lft.to/lastmile_qr_scan", "android": "https://dc.lft.to/lastmile_qr_scan"}}, {"name": "4c419c6eed9a79d72c7cdf8eb82f84f9", "lon": -76.996377, "lat": 38.884878, "type": "electric_scooter", "fusion_lon": 0.0, "is_reserved": 0, "bike_id": "4c419c6eed9a79d72c7cdf8eb82f84f9", "fusion_lat": 0.0, "is_disabled": 0, "rental_uris": {"ios": "https://dc.lft.to/lastmile_qr_scan", "android": "https://dc.lft.to/lastmile_qr_scan"}}, {"name": "797b575e275381b4e9fdb8fd165d18ac", "lon": -77.02618483333333, "lat": 38.91708166666667, "type": "electric_scooter", "fusion_lon": 0.0, "is_reserved": 0, "bike_id": "797b575e275381b4e9fdb8fd165d18ac", "fusion_lat": 0.0, "is_disabled": 0, "rental_uris": {"ios": "https://dc.lft.to/lastmile_qr_scan", "android": "https://dc.lft.to/lastmile_qr_scan"}}, {"name": "18bf12789c23638804b595c9fd59808b", "lon": -77.05765333333333, "lat": 38.9338415, "type": "electric_scooter", "fusion_lon": 0.0, "is_reserved": 0, "bike_id": "18bf12789c23638804b595c9fd59808b", "fusion_lat": 0.0, "is_disabled": 0, "rental_uris": {"ios": "https://dc.lft.to/lastmile_qr_scan", "android": "https://dc.lft.to/lastmile_qr_scan"}}, {"name": "de31af58a39d6767d1c0c1fb74e44afc", "lon": -77.011312, "lat": 38.885267, "type": "electric_scooter", "fusion_lon": 0.0, "is_reserved": 0, "bike_id": "de31af58a39d6767d1c0c1fb74e44afc", "fusion_lat": 0.0, "is_disabled": 0, "rental_uris": {"ios": "https://dc.lft.to/lastmile_qr_scan", "android": "https://dc.lft.to/lastmile_qr_scan"}}, {"name": "4748e1aa63d2a24efbbfc12b3816a49a", "lon": -77.0513755, "lat": 38.90380616666667, "type": "electric_scooter", "fusion_lon": 0.0, "is_reserved": 0, "bike_id": "4748e1aa63d2a24efbbfc12b3816a49a", "fusion_lat": 0.0, "is_disabled": 0, "rental_uris": {"ios": "https://dc.lft.to/lastmile_qr_scan", "android": "https://dc.lft.to/lastmile_qr_scan"}}, {"name": "0e0f6a10e2bbf4cedb7371694e3a4c6f", "lon": -77.02171733333333, "lat": 38.942897, "type": "electric_scooter", "fusion_lon": 0.0, "is_reserved": 0, "bike_id": "0e0f6a10e2bbf4cedb7371694e3a4c6f", "fusion_lat": 0.0, "is_disabled": 0, "rental_uris": {"ios": "https://dc.lft.to/lastmile_qr_scan", "android": "https://dc.lft.to/lastmile_qr_scan"}}, {"name": "3505db80e142c30966c576b10e130ce2", "lon": -77.05500116666667, "lat": 38.936665, "type": "electric_scooter", "fusion_lon": 0.0, "is_reserved": 0, "bike_id": "3505db80e142c30966c576b10e130ce2", "fusion_lat": 0.0, "is_disabled": 0, "rental_uris": {"ios": "https://dc.lft.to/lastmile_qr_scan", "android": "https://dc.lft.to/lastmile_qr_scan"}}, {"name": "719184bb566acdb905ceb206f3f7c94e", "lon": -77.13143483333333, "lat": 38.86171133333333, "type": "electric_bike", "fusion_lon": 0.0, "is_reserved": 0, "bike_id": "719184bb566acdb905ceb206f3f7c94e", "fusion_lat": 0.0, "is_disabled": 0, "rental_uris": {"ios": "https://dc.lft.to/lastmile_qr_scan", "android": "https://dc.lft.to/lastmile_qr_scan"}}, {"name": "6db589b914c6625be4336e8bd08fff6b", "lon": -77.0191115, "lat": 38.92375933333334, "type": "electric_scooter", "fusion_lon": 0.0, "is_reserved": 0, "bike_id": "6db589b914c6625be4336e8bd08fff6b", "fusion_lat": 0.0, "is_disabled": 0, "rental_uris": {"ios": "https://dc.lft.to/lastmile_qr_scan", "android": "https://dc.lft.to/lastmile_qr_scan"}}, {"name": "cb5a79dfc917ea8afdb5fbf4a9d17484", "lon": -77.117575, "lat": 39.0490855, "type": "electric_bike", "fusion_lon": 0.0, "is_reserved": 0, "bike_id": "cb5a79dfc917ea8afdb5fbf4a9d17484", "fusion_lat": 0.0, "is_disabled": 0, "rental_uris": {"ios": "https://dc.lft.to/lastmile_qr_scan", "android": "https://dc.lft.to/lastmile_qr_scan"}}, {"name": "7db380eb841558283e1e652634df2477", "lon": -76.9730545, "lat": 38.91990416666667, "type": "electric_scooter", "fusion_lon": 0.0, "is_reserved": 0, "bike_id": "7db380eb841558283e1e652634df2477", "fusion_lat": 0.0, "is_disabled": 0, "rental_uris": {"ios": "https://dc.lft.to/lastmile_qr_scan", "android": "https://dc.lft.to/lastmile_qr_scan"}}, {"name": "0eb7cd0db25588ff87be3959f88e4cca", "lon": -77.03111716666666, "lat": 38.894718833333336, "type": "electric_scooter", "fusion_lon": 0.0, "is_reserved": 0, "bike_id": "0eb7cd0db25588ff87be3959f88e4cca", "fusion_lat": 0.0, "is_disabled": 0, "rental_uris": {"ios": "https://dc.lft.to/lastmile_qr_scan", "android": "https://dc.lft.to/lastmile_qr_scan"}}, {"name": "4f6f0368253649f106dcdf3086c3dfb7", "lon": -77.03201416666667, "lat": 38.9180425, "type": "electric_scooter", "fusion_lon": 0.0, "is_reserved": 0, "bike_id": "4f6f0368253649f106dcdf3086c3dfb7", "fusion_lat": 0.0, "is_disabled": 0, "rental_uris": {"ios": "https://dc.lft.to/lastmile_qr_scan", "android": "https://dc.lft.to/lastmile_qr_scan"}}, {"name": "54637c6541d7fbf6a06476d3288521b5", "lon": -76.9962695, "lat": 38.921851333333336, "type": "electric_scooter", "fusion_lon": 0.0, "is_reserved": 0, "bike_id": "54637c6541d7fbf6a06476d3288521b5", "fusion_lat": 0.0, "is_disabled": 0, "rental_uris": {"ios": "https://dc.lft.to/lastmile_qr_scan", "android": "https://dc.lft.to/lastmile_qr_scan"}}, {"name": "1e0d4e9301b7ccb794f10e99f2235358", "lon": -77.03125633333333, "lat": 38.91557383333333, "type": "electric_scooter", "fusion_lon": 0.0, "is_reserved": 0, "bike_id": "1e0d4e9301b7ccb794f10e99f2235358", "fusion_lat": 0.0, "is_disabled": 0, "rental_uris": {"ios": "https://dc.lft.to/lastmile_qr_scan", "android": "https://dc.lft.to/lastmile_qr_scan"}}, {"name": "a6a1b8cc4cc9eeeb9b5e2b233182d027", "lon": -77.04151133333333, "lat": 38.919174, "type": "electric_scooter", "fusion_lon": 0.0, "is_reserved": 0, "bike_id": "a6a1b8cc4cc9eeeb9b5e2b233182d027", "fusion_lat": 0.0, "is_disabled": 0, "rental_uris": {"ios": "https://dc.lft.to/lastmile_qr_scan", "android": "https://dc.lft.to/lastmile_qr_scan"}}, {"name": "01637228e77d1912717088dac451f509", "lon": -76.99777083333333, "lat": 38.844293666666665, "type": "electric_scooter", "fusion_lon": 0.0, "is_reserved": 0, "bike_id": "01637228e77d1912717088dac451f509", "fusion_lat": 0.0, "is_disabled": 0, "rental_uris": {"ios": "https://dc.lft.to/lastmile_qr_scan", "android": "https://dc.lft.to/lastmile_qr_scan"}}, {"name": "81a1452bb885ad20a59ca2cb9203b792", "lon": -77.04863666666667, "lat": 38.915286333333334, "type": "electric_scooter", "fusion_lon": 0.0, "is_reserved": 0, "bike_id": "81a1452bb885ad20a59ca2cb9203b792", "fusion_lat": 0.0, "is_disabled": 0, "rental_uris": {"ios": "https://dc.lft.to/lastmile_qr_scan", "android": "https://dc.lft.to/lastmile_qr_scan"}}, {"name": "c43584314c720a0cd668588f7024430b", "lon": -76.957549, "lat": 38.884334333333335, "type": "electric_scooter", "fusion_lon": 0.0, "is_reserved": 0, "bike_id": "c43584314c720a0cd668588f7024430b", "fusion_lat": 0.0, "is_disabled": 0, "rental_uris": {"ios": "https://dc.lft.to/lastmile_qr_scan", "android": "https://dc.lft.to/lastmile_qr_scan"}}, {"name": "1f14cea802dfce71c087bac6d85b176e", "lon": -77.04173833333333, "lat": 38.918265166666664, "type": "electric_scooter", "fusion_lon": 0.0, "is_reserved": 0, "bike_id": "1f14cea802dfce71c087bac6d85b176e", "fusion_lat": 0.0, "is_disabled": 0, "rental_uris": {"ios": "https://dc.lft.to/lastmile_qr_scan", "android": "https://dc.lft.to/lastmile_qr_scan"}}, {"name": "5b5f22c76bf7059f34d1a20bce27a4bd", "lon": -77.03275733333334, "lat": 38.932521666666666, "type": "electric_scooter", "fusion_lon": 0.0, "is_reserved": 0, "bike_id": "5b5f22c76bf7059f34d1a20bce27a4bd", "fusion_lat": 0.0, "is_disabled": 0, "rental_uris": {"ios": "https://dc.lft.to/lastmile_qr_scan", "android": "https://dc.lft.to/lastmile_qr_scan"}}, {"name": "b7626e166435dcff29a8c74a515b6909", "lon": -77.02482216666667, "lat": 38.92079583333334, "type": "electric_scooter", "fusion_lon": 0.0, "is_reserved": 0, "bike_id": "b7626e166435dcff29a8c74a515b6909", "fusion_lat": 0.0, "is_disabled": 0, "rental_uris": {"ios": "https://dc.lft.to/lastmile_qr_scan", "android": "https://dc.lft.to/lastmile_qr_scan"}}, {"name": "198e9613f7442ddc9a7cc627f66ecc95", "lon": -77.10598783333333, "lat": 38.928999166666664, "type": "electric_bike", "fusion_lon": 0.0, "is_reserved": 0, "bike_id": "198e9613f7442ddc9a7cc627f66ecc95", "fusion_lat": 0.0, "is_disabled": 0, "rental_uris": {"ios": "https://dc.lft.to/lastmile_qr_scan", "android": "https://dc.lft.to/lastmile_qr_scan"}}, {"name": "9264f4bbd497acb99140f7927194bbce", "lon": -77.03172283333333, "lat": 38.917640666666664, "type": "electric_scooter", "fusion_lon": 0.0, "is_reserved": 0, "bike_id": "9264f4bbd497acb99140f7927194bbce", "fusion_lat": 0.0, "is_disabled": 0, "rental_uris": {"ios": "https://dc.lft.to/lastmile_qr_scan", "android": "https://dc.lft.to/lastmile_qr_scan"}}, {"name": "631cb770f0b4f1ce2ae9e89046cf159a", "lon": -77.01194083333333, "lat": 38.90307516666667, "type": "electric_scooter", "fusion_lon": 0.0, "is_reserved": 0, "bike_id": "631cb770f0b4f1ce2ae9e89046cf159a", "fusion_lat": 0.0, "is_disabled": 0, "rental_uris": {"ios": "https://dc.lft.to/lastmile_qr_scan", "android": "https://dc.lft.to/lastmile_qr_scan"}}, {"name": "7c2913d869b6890ab4826045b46ac43c", "lon": -76.94962633333333, "lat": 38.8936295, "type": "electric_scooter", "fusion_lon": 0.0, "is_reserved": 0, "bike_id": "7c2913d869b6890ab4826045b46ac43c", "fusion_lat": 0.0, "is_disabled": 0, "rental_uris": {"ios": "https://dc.lft.to/lastmile_qr_scan", "android": "https://dc.lft.to/lastmile_qr_scan"}}, {"name": "bb5b31a8c8d880ba55fc82d47e83d592", "lon": -77.02304966666667, "lat": 38.92838183333333, "type": "electric_scooter", "fusion_lon": 0.0, "is_reserved": 0, "bike_id": "bb5b31a8c8d880ba55fc82d47e83d592", "fusion_lat": 0.0, "is_disabled": 0, "rental_uris": {"ios": "https://dc.lft.to/lastmile_qr_scan", "android": "https://dc.lft.to/lastmile_qr_scan"}}, {"name": "578733943dfac216525ab0f92733aa82", "lon": -77.0443475, "lat": 38.90561433333333, "type": "electric_scooter", "fusion_lon": 0.0, "is_reserved": 0, "bike_id": "578733943dfac216525ab0f92733aa82", "fusion_lat": 0.0, "is_disabled": 0, "rental_uris": {"ios": "https://dc.lft.to/lastmile_qr_scan", "android": "https://dc.lft.to/lastmile_qr_scan"}}, {"name": "5096d9d4e2439ff2f5890927dd8f6b27", "lon": -77.03206066666667, "lat": 38.915023, "type": "electric_scooter", "fusion_lon": 0.0, "is_reserved": 0, "bike_id": "5096d9d4e2439ff2f5890927dd8f6b27", "fusion_lat": 0.0, "is_disabled": 0, "rental_uris": {"ios": "https://dc.lft.to/lastmile_qr_scan", "android": "https://dc.lft.to/lastmile_qr_scan"}}, {"name": "f73788b1771765e23c23c6e0951480ce", "lon": -76.97480266666666, "lat": 38.90355266666667, "type": "electric_scooter", "fusion_lon": 0.0, "is_reserved": 0, "bike_id": "f73788b1771765e23c23c6e0951480ce", "fusion_lat": 0.0, "is_disabled": 0, "rental_uris": {"ios": "https://dc.lft.to/lastmile_qr_scan", "android": "https://dc.lft.to/lastmile_qr_scan"}}, {"name": "8b3703fab08b5f6e30647cb14d9acae0", "lon": -77.09483483333334, "lat": 39.03053366666666, "type": "electric_bike", "fusion_lon": 0.0, "is_reserved": 0, "bike_id": "8b3703fab08b5f6e30647cb14d9acae0", "fusion_lat": 0.0, "is_disabled": 0, "rental_uris": {"ios": "https://dc.lft.to/lastmile_qr_scan", "android": "https://dc.lft.to/lastmile_qr_scan"}}, {"name": "abb24e089b6f23864a672f0c9230ccb3", "lon": -77.02693533333333, "lat": 38.908728833333335, "type": "electric_scooter", "fusion_lon": 0.0, "is_reserved": 0, "bike_id": "abb24e089b6f23864a672f0c9230ccb3", "fusion_lat": 0.0, "is_disabled": 0, "rental_uris": {"ios": "https://dc.lft.to/lastmile_qr_scan", "android": "https://dc.lft.to/lastmile_qr_scan"}}, {"name": "4f1c2121491afdb507f3f72c1b382c5c", "lon": -77.03731666666667, "lat": 38.91121366666667, "type": "electric_scooter", "fusion_lon": 0.0, "is_reserved": 0, "bike_id": "4f1c2121491afdb507f3f72c1b382c5c", "fusion_lat": 0.0, "is_disabled": 0, "rental_uris": {"ios": "https://dc.lft.to/lastmile_qr_scan", "android": "https://dc.lft.to/lastmile_qr_scan"}}, {"name": "4c0ed37e335178a3a7d907697c7b7746", "lon": -77.04645166666667, "lat": 38.902340833333334, "type": "electric_scooter", "fusion_lon": 0.0, "is_reserved": 0, "bike_id": "4c0ed37e335178a3a7d907697c7b7746", "fusion_lat": 0.0, "is_disabled": 0, "rental_uris": {"ios": "https://dc.lft.to/lastmile_qr_scan", "android": "https://dc.lft.to/lastmile_qr_scan"}}, {"name": "a7b97b9006977fd30b09b21fb146b6e5", "lon": -76.9742465, "lat": 38.90452466666667, "type": "electric_scooter", "fusion_lon": 0.0, "is_reserved": 0, "bike_id": "a7b97b9006977fd30b09b21fb146b6e5", "fusion_lat": 0.0, "is_disabled": 0, "rental_uris": {"ios": "https://dc.lft.to/lastmile_qr_scan", "android": "https://dc.lft.to/lastmile_qr_scan"}}, {"name": "6726030021791e2c926428f08d7d3138", "lon": -77.018448, "lat": 38.87707983333333, "type": "electric_scooter", "fusion_lon": 0.0, "is_reserved": 0, "bike_id": "6726030021791e2c926428f08d7d3138", "fusion_lat": 0.0, "is_disabled": 0, "rental_uris": {"ios": "https://dc.lft.to/lastmile_qr_scan", "android": "https://dc.lft.to/lastmile_qr_scan"}}, {"name": "ca4d3f0a2d940c71861864b36f68a6c7", "lon": -77.02079366666666, "lat": 38.875796333333334, "type": "electric_scooter", "fusion_lon": 0.0, "is_reserved": 0, "bike_id": "ca4d3f0a2d940c71861864b36f68a6c7", "fusion_lat": 0.0, "is_disabled": 0, "rental_uris": {"ios": "https://dc.lft.to/lastmile_qr_scan", "android": "https://dc.lft.to/lastmile_qr_scan"}}, {"name": "1293dfc91b4dcf551bf2c59741726e81", "lon": -77.0251285, "lat": 38.920585, "type": "electric_scooter", "fusion_lon": 0.0, "is_reserved": 0, "bike_id": "1293dfc91b4dcf551bf2c59741726e81", "fusion_lat": 0.0, "is_disabled": 0, "rental_uris": {"ios": "https://dc.lft.to/lastmile_qr_scan", "android": "https://dc.lft.to/lastmile_qr_scan"}}, {"name": "13b978aec86450cc06eb77affbbfea57", "lon": -77.03651416666666, "lat": 38.910138833333335, "type": "electric_scooter", "fusion_lon": 0.0, "is_reserved": 0, "bike_id": "13b978aec86450cc06eb77affbbfea57", "fusion_lat": 0.0, "is_disabled": 0, "rental_uris": {"ios": "https://dc.lft.to/lastmile_qr_scan", "android": "https://dc.lft.to/lastmile_qr_scan"}}, {"name": "fd522d48d6df7a4de1d7edc1b90f11f0", "lon": -77.0233635, "lat": 38.92478916666666, "type": "electric_scooter", "fusion_lon": 0.0, "is_reserved": 0, "bike_id": "fd522d48d6df7a4de1d7edc1b90f11f0", "fusion_lat": 0.0, "is_disabled": 0, "rental_uris": {"ios": "https://dc.lft.to/lastmile_qr_scan", "android": "https://dc.lft.to/lastmile_qr_scan"}}, {"name": "340eb75e20460d7f92ccf6b1ea38b6d6", "lon": -77.0197205, "lat": 38.89976, "type": "electric_scooter", "fusion_lon": 0.0, "is_reserved": 0, "bike_id": "340eb75e20460d7f92ccf6b1ea38b6d6", "fusion_lat": 0.0, "is_disabled": 0, "rental_uris": {"ios": "https://dc.lft.to/lastmile_qr_scan", "android": "https://dc.lft.to/lastmile_qr_scan"}}, {"name": "cede35a6e21f10ae7223f3582e837782", "lon": -76.98766733333333, "lat": 38.857708, "type": "electric_bike", "fusion_lon": 0.0, "is_reserved": 0, "bike_id": "cede35a6e21f10ae7223f3582e837782", "fusion_lat": 0.0, "is_disabled": 0, "rental_uris": {"ios": "https://dc.lft.to/lastmile_qr_scan", "android": "https://dc.lft.to/lastmile_qr_scan"}}, {"name": "7e0479ab5e6d4fbc0bbabc91362a58af", "lon": -76.997763, "lat": 38.844318, "type": "electric_scooter", "fusion_lon": 0.0, "is_reserved": 0, "bike_id": "7e0479ab5e6d4fbc0bbabc91362a58af", "fusion_lat": 0.0, "is_disabled": 0, "rental_uris": {"ios": "https://dc.lft.to/lastmile_qr_scan", "android": "https://dc.lft.to/lastmile_qr_scan"}}, {"name": "0dc85f5ecbb62e57038467681751e107", "lon": -77.02174133333334, "lat": 38.899966666666664, "type": "electric_scooter", "fusion_lon": 0.0, "is_reserved": 0, "bike_id": "0dc85f5ecbb62e57038467681751e107", "fusion_lat": 0.0, "is_disabled": 0, "rental_uris": {"ios": "https://dc.lft.to/lastmile_qr_scan", "android": "https://dc.lft.to/lastmile_qr_scan"}}, {"name": "3ec4921865473c57263c2a127e45f396", "lon": -77.02098116666667, "lat": 38.921289333333334, "type": "electric_scooter", "fusion_lon": 0.0, "is_reserved": 0, "bike_id": "3ec4921865473c57263c2a127e45f396", "fusion_lat": 0.0, "is_disabled": 0, "rental_uris": {"ios": "https://dc.lft.to/lastmile_qr_scan", "android": "https://dc.lft.to/lastmile_qr_scan"}}, {"name": "6244d30f3bc9383a6d499af2e7df0459", "lon": -76.94634466666666, "lat": 38.89845533333333, "type": "electric_scooter", "fusion_lon": 0.0, "is_reserved": 0, "bike_id": "6244d30f3bc9383a6d499af2e7df0459", "fusion_lat": 0.0, "is_disabled": 0, "rental_uris": {"ios": "https://dc.lft.to/lastmile_qr_scan", "android": "https://dc.lft.to/lastmile_qr_scan"}}, {"name": "5896a5b9a2cf00cf6faea219981f701f", "lon": -76.997734, "lat": 38.844319166666665, "type": "electric_scooter", "fusion_lon": 0.0, "is_reserved": 0, "bike_id": "5896a5b9a2cf00cf6faea219981f701f", "fusion_lat": 0.0, "is_disabled": 0, "rental_uris": {"ios": "https://dc.lft.to/lastmile_qr_scan", "android": "https://dc.lft.to/lastmile_qr_scan"}}, {"name": "5dc61115111f2be9f9f88e78bd022285", "lon": -77.012335, "lat": 38.93106266666667, "type": "electric_scooter", "fusion_lon": 0.0, "is_reserved": 0, "bike_id": "5dc61115111f2be9f9f88e78bd022285", "fusion_lat": 0.0, "is_disabled": 0, "rental_uris": {"ios": "https://dc.lft.to/lastmile_qr_scan", "android": "https://dc.lft.to/lastmile_qr_scan"}}, {"name": "726ca7a2efc3b599c3395337b4b9025f", "lon": -77.033324, "lat": 38.900404, "type": "electric_scooter", "fusion_lon": 0.0, "is_reserved": 0, "bike_id": "726ca7a2efc3b599c3395337b4b9025f", "fusion_lat": 0.0, "is_disabled": 0, "rental_uris": {"ios": "https://dc.lft.to/lastmile_qr_scan", "android": "https://dc.lft.to/lastmile_qr_scan"}}, {"name": "9561fea4e4eb617f7f74a23c1dd001d8", "lon": -76.95757283333333, "lat": 38.884338666666665, "type": "electric_scooter", "fusion_lon": 0.0, "is_reserved": 0, "bike_id": "9561fea4e4eb617f7f74a23c1dd001d8", "fusion_lat": 0.0, "is_disabled": 0, "rental_uris": {"ios": "https://dc.lft.to/lastmile_qr_scan", "android": "https://dc.lft.to/lastmile_qr_scan"}}, {"name": "cdcb7f6fa690edff0ff9a9e4e20fea11", "lon": -77.034556, "lat": 38.907532833333335, "type": "electric_scooter", "fusion_lon": 0.0, "is_reserved": 0, "bike_id": "cdcb7f6fa690edff0ff9a9e4e20fea11", "fusion_lat": 0.0, "is_disabled": 0, "rental_uris": {"ios": "https://dc.lft.to/lastmile_qr_scan", "android": "https://dc.lft.to/lastmile_qr_scan"}}, {"name": "9266e02e7fb0fd401f36421e3648d316", "lon": -77.04170383333333, "lat": 38.9155605, "type": "electric_scooter", "fusion_lon": 0.0, "is_reserved": 0, "bike_id": "9266e02e7fb0fd401f36421e3648d316", "fusion_lat": 0.0, "is_disabled": 0, "rental_uris": {"ios": "https://dc.lft.to/lastmile_qr_scan", "android": "https://dc.lft.to/lastmile_qr_scan"}}, {"name": "4843f3df5036a6c7deaeb079663fed1c", "lon": -76.93754083333333, "lat": 38.890468, "type": "electric_scooter", "fusion_lon": 0.0, "is_reserved": 0, "bike_id": "4843f3df5036a6c7deaeb079663fed1c", "fusion_lat": 0.0, "is_disabled": 0, "rental_uris": {"ios": "https://dc.lft.to/lastmile_qr_scan", "android": "https://dc.lft.to/lastmile_qr_scan"}}, {"name": "40980b2847fd77bd1a0aee5058b70105", "lon": -76.97824766666666, "lat": 38.843765833333336, "type": "electric_bike", "fusion_lon": 0.0, "is_reserved": 0, "bike_id": "40980b2847fd77bd1a0aee5058b70105", "fusion_lat": 0.0, "is_disabled": 0, "rental_uris": {"ios": "https://dc.lft.to/lastmile_qr_scan", "android": "https://dc.lft.to/lastmile_qr_scan"}}, {"name": "d0dc23ca37603ea95f2bfbf4fc55add7", "lon": -77.03499283333333, "lat": 38.917033, "type": "electric_scooter", "fusion_lon": 0.0, "is_reserved": 0, "bike_id": "d0dc23ca37603ea95f2bfbf4fc55add7", "fusion_lat": 0.0, "is_disabled": 0, "rental_uris": {"ios": "https://dc.lft.to/lastmile_qr_scan", "android": "https://dc.lft.to/lastmile_qr_scan"}}, {"name": "715be3b43107253f6f9eba3b16cd6d84", "lon": -76.97714683333334, "lat": 38.88823033333333, "type": "electric_scooter", "fusion_lon": 0.0, "is_reserved": 0, "bike_id": "715be3b43107253f6f9eba3b16cd6d84", "fusion_lat": 0.0, "is_disabled": 0, "rental_uris": {"ios": "https://dc.lft.to/lastmile_qr_scan", "android": "https://dc.lft.to/lastmile_qr_scan"}}, {"name": "cc09cb97417c891357454c1c062f745b", "lon": -77.03183566666667, "lat": 38.912654833333335, "type": "electric_scooter", "fusion_lon": 0.0, "is_reserved": 0, "bike_id": "cc09cb97417c891357454c1c062f745b", "fusion_lat": 0.0, "is_disabled": 0, "rental_uris": {"ios": "https://dc.lft.to/lastmile_qr_scan", "android": "https://dc.lft.to/lastmile_qr_scan"}}, {"name": "48dae1dffdbf4ab6170f277e07f689c0", "lon": -77.0640965, "lat": 38.84052966666667, "type": "electric_bike", "fusion_lon": 0.0, "is_reserved": 0, "bike_id": "48dae1dffdbf4ab6170f277e07f689c0", "fusion_lat": 0.0, "is_disabled": 0, "rental_uris": {"ios": "https://dc.lft.to/lastmile_qr_scan", "android": "https://dc.lft.to/lastmile_qr_scan"}}, {"name": "b05ec43e81702aa7a62eb4803fd08710", "lon": -77.07235483333334, "lat": 38.940076166666664, "type": "electric_scooter", "fusion_lon": 0.0, "is_reserved": 0, "bike_id": "b05ec43e81702aa7a62eb4803fd08710", "fusion_lat": 0.0, "is_disabled": 0, "rental_uris": {"ios": "https://dc.lft.to/lastmile_qr_scan", "android": "https://dc.lft.to/lastmile_qr_scan"}}, {"name": "6cbbfea422ad8896b1acba2f5094ac2b", "lon": -76.96051016666667, "lat": 38.8840045, "type": "electric_bike", "fusion_lon": 0.0, "is_reserved": 0, "bike_id": "6cbbfea422ad8896b1acba2f5094ac2b", "fusion_lat": 0.0, "is_disabled": 0, "rental_uris": {"ios": "https://dc.lft.to/lastmile_qr_scan", "android": "https://dc.lft.to/lastmile_qr_scan"}}, {"name": "3590b79a5675351ae5f4336d0f7f8159", "lon": -77.01771233333334, "lat": 38.901158333333335, "type": "electric_scooter", "fusion_lon": 0.0, "is_reserved": 0, "bike_id": "3590b79a5675351ae5f4336d0f7f8159", "fusion_lat": 0.0, "is_disabled": 0, "rental_uris": {"ios": "https://dc.lft.to/lastmile_qr_scan", "android": "https://dc.lft.to/lastmile_qr_scan"}}, {"name": "73f14ad1316143b177da61fbce92161a", "lon": -77.0441195, "lat": 38.93333416666667, "type": "electric_scooter", "fusion_lon": 0.0, "is_reserved": 0, "bike_id": "73f14ad1316143b177da61fbce92161a", "fusion_lat": 0.0, "is_disabled": 0, "rental_uris": {"ios": "https://dc.lft.to/lastmile_qr_scan", "android": "https://dc.lft.to/lastmile_qr_scan"}}, {"name": "c75dac837c3a25e0cbb76523e5ba3279", "lon": -76.98380866666666, "lat": 38.861233666666664, "type": "electric_scooter", "fusion_lon": 0.0, "is_reserved": 0, "bike_id": "c75dac837c3a25e0cbb76523e5ba3279", "fusion_lat": 0.0, "is_disabled": 0, "rental_uris": {"ios": "https://dc.lft.to/lastmile_qr_scan", "android": "https://dc.lft.to/lastmile_qr_scan"}}, {"name": "39ede7d92d557cab656379b9e0004225", "lon": -76.99528083333334, "lat": 38.86250416666667, "type": "electric_scooter", "fusion_lon": 0.0, "is_reserved": 0, "bike_id": "39ede7d92d557cab656379b9e0004225", "fusion_lat": 0.0, "is_disabled": 0, "rental_uris": {"ios": "https://dc.lft.to/lastmile_qr_scan", "android": "https://dc.lft.to/lastmile_qr_scan"}}, {"name": "1d77a4a860d7af8445cc3429ad0b1eb8", "lon": -77.03186983333333, "lat": 38.92382833333333, "type": "electric_scooter", "fusion_lon": 0.0, "is_reserved": 0, "bike_id": "1d77a4a860d7af8445cc3429ad0b1eb8", "fusion_lat": 0.0, "is_disabled": 0, "rental_uris": {"ios": "https://dc.lft.to/lastmile_qr_scan", "android": "https://dc.lft.to/lastmile_qr_scan"}}, {"name": "5f3295063b44425133d06cac7a5e2163", "lon": -77.03177283333333, "lat": 38.909712999999996, "type": "electric_scooter", "fusion_lon": 0.0, "is_reserved": 0, "bike_id": "5f3295063b44425133d06cac7a5e2163", "fusion_lat": 0.0, "is_disabled": 0, "rental_uris": {"ios": "https://dc.lft.to/lastmile_qr_scan", "android": "https://dc.lft.to/lastmile_qr_scan"}}, {"name": "301c9f29da09d697b5635f698a7ce90b", "lon": -76.98118783333334, "lat": 38.91467633333333, "type": "electric_scooter", "fusion_lon": 0.0, "is_reserved": 0, "bike_id": "301c9f29da09d697b5635f698a7ce90b", "fusion_lat": 0.0, "is_disabled": 0, "rental_uris": {"ios": "https://dc.lft.to/lastmile_qr_scan", "android": "https://dc.lft.to/lastmile_qr_scan"}}, {"name": "788970209aea79f063e69fc29609e37f", "lon": -77.01202316666667, "lat": 38.90012133333333, "type": "electric_scooter", "fusion_lon": 0.0, "is_reserved": 0, "bike_id": "788970209aea79f063e69fc29609e37f", "fusion_lat": 0.0, "is_disabled": 0, "rental_uris": {"ios": "https://dc.lft.to/lastmile_qr_scan", "android": "https://dc.lft.to/lastmile_qr_scan"}}, {"name": "42f569539b8e49cd6df21d3a0922fa1b", "lon": -77.01793983333333, "lat": 38.876783833333334, "type": "electric_scooter", "fusion_lon": 0.0, "is_reserved": 0, "bike_id": "42f569539b8e49cd6df21d3a0922fa1b", "fusion_lat": 0.0, "is_disabled": 0, "rental_uris": {"ios": "https://dc.lft.to/lastmile_qr_scan", "android": "https://dc.lft.to/lastmile_qr_scan"}}, {"name": "c4b0d335c55d4f15094b1588e37efba4", "lon": -77.04676116666667, "lat": 38.8951575, "type": "electric_scooter", "fusion_lon": 0.0, "is_reserved": 0, "bike_id": "c4b0d335c55d4f15094b1588e37efba4", "fusion_lat": 0.0, "is_disabled": 0, "rental_uris": {"ios": "https://dc.lft.to/lastmile_qr_scan", "android": "https://dc.lft.to/lastmile_qr_scan"}}, {"name": "a2dba6c171e75f9dff19cd4f5e12e21a", "lon": -77.03665766666667, "lat": 38.917987, "type": "electric_scooter", "fusion_lon": 0.0, "is_reserved": 0, "bike_id": "a2dba6c171e75f9dff19cd4f5e12e21a", "fusion_lat": 0.0, "is_disabled": 0, "rental_uris": {"ios": "https://dc.lft.to/lastmile_qr_scan", "android": "https://dc.lft.to/lastmile_qr_scan"}}, {"name": "c60f01645feeabe541f8e4a2fffa882b", "lon": -77.04023233333334, "lat": 38.903536333333335, "type": "electric_scooter", "fusion_lon": 0.0, "is_reserved": 0, "bike_id": "c60f01645feeabe541f8e4a2fffa882b", "fusion_lat": 0.0, "is_disabled": 0, "rental_uris": {"ios": "https://dc.lft.to/lastmile_qr_scan", "android": "https://dc.lft.to/lastmile_qr_scan"}}, {"name": "d5c96224beee6496e46104b79ea5c269", "lon": -77.04552166666667, "lat": 38.9242375, "type": "electric_scooter", "fusion_lon": 0.0, "is_reserved": 0, "bike_id": "d5c96224beee6496e46104b79ea5c269", "fusion_lat": 0.0, "is_disabled": 0, "rental_uris": {"ios": "https://dc.lft.to/lastmile_qr_scan", "android": "https://dc.lft.to/lastmile_qr_scan"}}, {"name": "44b41860ee12c2952eea8bac9396bf39", "lon": -77.00473116666667, "lat": 38.82536566666667, "type": "electric_scooter", "fusion_lon": 0.0, "is_reserved": 0, "bike_id": "44b41860ee12c2952eea8bac9396bf39", "fusion_lat": 0.0, "is_disabled": 0, "rental_uris": {"ios": "https://dc.lft.to/lastmile_qr_scan", "android": "https://dc.lft.to/lastmile_qr_scan"}}, {"name": "6319187cfb9e57e0baa016840f9da239", "lon": -76.9373245, "lat": 38.89016316666667, "type": "electric_scooter", "fusion_lon": 0.0, "is_reserved": 0, "bike_id": "6319187cfb9e57e0baa016840f9da239", "fusion_lat": 0.0, "is_disabled": 0, "rental_uris": {"ios": "https://dc.lft.to/lastmile_qr_scan", "android": "https://dc.lft.to/lastmile_qr_scan"}}, {"name": "e2b47445b088f8e1b1e3845799ab724f", "lon": -77.03792483333334, "lat": 38.932165166666664, "type": "electric_scooter", "fusion_lon": 0.0, "is_reserved": 0, "bike_id": "e2b47445b088f8e1b1e3845799ab724f", "fusion_lat": 0.0, "is_disabled": 0, "rental_uris": {"ios": "https://dc.lft.to/lastmile_qr_scan", "android": "https://dc.lft.to/lastmile_qr_scan"}}, {"name": "a1f56144b4b593f1ac376e1897d735c7", "lon": -77.02333933333334, "lat": 38.93092583333333, "type": "electric_scooter", "fusion_lon": 0.0, "is_reserved": 0, "bike_id": "a1f56144b4b593f1ac376e1897d735c7", "fusion_lat": 0.0, "is_disabled": 0, "rental_uris": {"ios": "https://dc.lft.to/lastmile_qr_scan", "android": "https://dc.lft.to/lastmile_qr_scan"}}, {"name": "cc856695d3a0295d27e033a45664f710", "lon": -76.9463195, "lat": 38.898423333333334, "type": "electric_scooter", "fusion_lon": 0.0, "is_reserved": 0, "bike_id": "cc856695d3a0295d27e033a45664f710", "fusion_lat": 0.0, "is_disabled": 0, "rental_uris": {"ios": "https://dc.lft.to/lastmile_qr_scan", "android": "https://dc.lft.to/lastmile_qr_scan"}}, {"name": "cd0fc2bf432d6a92f10afa20d7120d32", "lon": -77.0260655, "lat": 38.8968025, "type": "electric_scooter", "fusion_lon": 0.0, "is_reserved": 0, "bike_id": "cd0fc2bf432d6a92f10afa20d7120d32", "fusion_lat": 0.0, "is_disabled": 0, "rental_uris": {"ios": "https://dc.lft.to/lastmile_qr_scan", "android": "https://dc.lft.to/lastmile_qr_scan"}}, {"name": "58f142773c08fcf9ffa7e8a615884119", "lon": -77.0296415, "lat": 38.91728716666667, "type": "electric_scooter", "fusion_lon": 0.0, "is_reserved": 0, "bike_id": "58f142773c08fcf9ffa7e8a615884119", "fusion_lat": 0.0, "is_disabled": 0, "rental_uris": {"ios": "https://dc.lft.to/lastmile_qr_scan", "android": "https://dc.lft.to/lastmile_qr_scan"}}, {"name": "81746f5023f15c108d6acecf30208c1b", "lon": -76.983985, "lat": 38.86698483333333, "type": "electric_scooter", "fusion_lon": 0.0, "is_reserved": 0, "bike_id": "81746f5023f15c108d6acecf30208c1b", "fusion_lat": 0.0, "is_disabled": 0, "rental_uris": {"ios": "https://dc.lft.to/lastmile_qr_scan", "android": "https://dc.lft.to/lastmile_qr_scan"}}, {"name": "a0afae9cd2086afc7579a5ace1b36279", "lon": -77.04069033333333, "lat": 38.9178195, "type": "electric_scooter", "fusion_lon": 0.0, "is_reserved": 0, "bike_id": "a0afae9cd2086afc7579a5ace1b36279", "fusion_lat": 0.0, "is_disabled": 0, "rental_uris": {"ios": "https://dc.lft.to/lastmile_qr_scan", "android": "https://dc.lft.to/lastmile_qr_scan"}}, {"name": "402f9ac9f453b23a3e7398ffb2d04f12", "lon": -76.9927135, "lat": 38.88637933333333, "type": "electric_scooter", "fusion_lon": 0.0, "is_reserved": 0, "bike_id": "402f9ac9f453b23a3e7398ffb2d04f12", "fusion_lat": 0.0, "is_disabled": 0, "rental_uris": {"ios": "https://dc.lft.to/lastmile_qr_scan", "android": "https://dc.lft.to/lastmile_qr_scan"}}, {"name": "ba490fe4facaac5741e14a1bea1cdb2f", "lon": -77.029439, "lat": 38.899408, "type": "electric_scooter", "fusion_lon": 0.0, "is_reserved": 0, "bike_id": "ba490fe4facaac5741e14a1bea1cdb2f", "fusion_lat": 0.0, "is_disabled": 0, "rental_uris": {"ios": "https://dc.lft.to/lastmile_qr_scan", "android": "https://dc.lft.to/lastmile_qr_scan"}}, {"name": "10a54ac7d94b907f3f4d2bd151c4f0b7", "lon": -77.043134, "lat": 38.926579, "type": "electric_scooter", "fusion_lon": 0.0, "is_reserved": 0, "bike_id": "10a54ac7d94b907f3f4d2bd151c4f0b7", "fusion_lat": 0.0, "is_disabled": 0, "rental_uris": {"ios": "https://dc.lft.to/lastmile_qr_scan", "android": "https://dc.lft.to/lastmile_qr_scan"}}, {"name": "a0499ec6248268a97fb010a4307b1c24", "lon": -76.93755383333334, "lat": 38.890430333333335, "type": "electric_scooter", "fusion_lon": 0.0, "is_reserved": 0, "bike_id": "a0499ec6248268a97fb010a4307b1c24", "fusion_lat": 0.0, "is_disabled": 0, "rental_uris": {"ios": "https://dc.lft.to/lastmile_qr_scan", "android": "https://dc.lft.to/lastmile_qr_scan"}}, {"name": "5b15e242e2b3d8169bba0d3e89651faf", "lon": -77.03206416666667, "lat": 38.91357333333333, "type": "electric_scooter", "fusion_lon": 0.0, "is_reserved": 0, "bike_id": "5b15e242e2b3d8169bba0d3e89651faf", "fusion_lat": 0.0, "is_disabled": 0, "rental_uris": {"ios": "https://dc.lft.to/lastmile_qr_scan", "android": "https://dc.lft.to/lastmile_qr_scan"}}, {"name": "381bb084f76cf982c46cf69addf7c120", "lon": -76.98877633333333, "lat": 38.866592, "type": "electric_scooter", "fusion_lon": 0.0, "is_reserved": 0, "bike_id": "381bb084f76cf982c46cf69addf7c120", "fusion_lat": 0.0, "is_disabled": 0, "rental_uris": {"ios": "https://dc.lft.to/lastmile_qr_scan", "android": "https://dc.lft.to/lastmile_qr_scan"}}, {"name": "8b2af7114486ba9c245f95e34b905047", "lon": -77.01610316666667, "lat": 38.90188283333333, "type": "electric_scooter", "fusion_lon": 0.0, "is_reserved": 0, "bike_id": "8b2af7114486ba9c245f95e34b905047", "fusion_lat": 0.0, "is_disabled": 0, "rental_uris": {"ios": "https://dc.lft.to/lastmile_qr_scan", "android": "https://dc.lft.to/lastmile_qr_scan"}}, {"name": "47ea43ed5b74e58d1a428b121d2305fc", "lon": -77.0229715, "lat": 38.917597, "type": "electric_scooter", "fusion_lon": 0.0, "is_reserved": 0, "bike_id": "47ea43ed5b74e58d1a428b121d2305fc", "fusion_lat": 0.0, "is_disabled": 0, "rental_uris": {"ios": "https://dc.lft.to/lastmile_qr_scan", "android": "https://dc.lft.to/lastmile_qr_scan"}}, {"name": "5374abcf768cef7dd8c73973a745b862", "lon": -77.03842883333333, "lat": 38.91690533333333, "type": "electric_scooter", "fusion_lon": 0.0, "is_reserved": 0, "bike_id": "5374abcf768cef7dd8c73973a745b862", "fusion_lat": 0.0, "is_disabled": 0, "rental_uris": {"ios": "https://dc.lft.to/lastmile_qr_scan", "android": "https://dc.lft.to/lastmile_qr_scan"}}, {"name": "cdadce2bf9a2d93a1ced3572a2f3c0cb", "lon": -77.02672116666666, "lat": 38.896368833333334, "type": "electric_scooter", "fusion_lon": 0.0, "is_reserved": 0, "bike_id": "cdadce2bf9a2d93a1ced3572a2f3c0cb", "fusion_lat": 0.0, "is_disabled": 0, "rental_uris": {"ios": "https://dc.lft.to/lastmile_qr_scan", "android": "https://dc.lft.to/lastmile_qr_scan"}}, {"name": "66cde3747770ba04815d83435ceb0b33", "lon": -77.03198016666667, "lat": 38.92053516666667, "type": "electric_scooter", "fusion_lon": 0.0, "is_reserved": 0, "bike_id": "66cde3747770ba04815d83435ceb0b33", "fusion_lat": 0.0, "is_disabled": 0, "rental_uris": {"ios": "https://dc.lft.to/lastmile_qr_scan", "android": "https://dc.lft.to/lastmile_qr_scan"}}, {"name": "c4ea163f23b55d1c912e1e8296ac934d", "lon": -77.03062883333334, "lat": 38.90726433333333, "type": "electric_scooter", "fusion_lon": 0.0, "is_reserved": 0, "bike_id": "c4ea163f23b55d1c912e1e8296ac934d", "fusion_lat": 0.0, "is_disabled": 0, "rental_uris": {"ios": "https://dc.lft.to/lastmile_qr_scan", "android": "https://dc.lft.to/lastmile_qr_scan"}}, {"name": "ce37d4c3523db8004330ed8d7534b61d", "lon": -77.03256233333333, "lat": 38.91821133333333, "type": "electric_scooter", "fusion_lon": 0.0, "is_reserved": 0, "bike_id": "ce37d4c3523db8004330ed8d7534b61d", "fusion_lat": 0.0, "is_disabled": 0, "rental_uris": {"ios": "https://dc.lft.to/lastmile_qr_scan", "android": "https://dc.lft.to/lastmile_qr_scan"}}, {"name": "f141401b1d5a50eb4bb73c21ac902219", "lon": -77.0460495, "lat": 38.91689366666667, "type": "electric_scooter", "fusion_lon": 0.0, "is_reserved": 0, "bike_id": "f141401b1d5a50eb4bb73c21ac902219", "fusion_lat": 0.0, "is_disabled": 0, "rental_uris": {"ios": "https://dc.lft.to/lastmile_qr_scan", "android": "https://dc.lft.to/lastmile_qr_scan"}}, {"name": "502d9a2836807b91803feeea77beae60", "lon": -77.0266325, "lat": 38.897295166666666, "type": "electric_scooter", "fusion_lon": 0.0, "is_reserved": 0, "bike_id": "502d9a2836807b91803feeea77beae60", "fusion_lat": 0.0, "is_disabled": 0, "rental_uris": {"ios": "https://dc.lft.to/lastmile_qr_scan", "android": "https://dc.lft.to/lastmile_qr_scan"}}, {"name": "e6451283810e7ea35df460d1f8877f85", "lon": -77.038402, "lat": 38.9215695, "type": "electric_scooter", "fusion_lon": 0.0, "is_reserved": 0, "bike_id": "e6451283810e7ea35df460d1f8877f85", "fusion_lat": 0.0, "is_disabled": 0, "rental_uris": {"ios": "https://dc.lft.to/lastmile_qr_scan", "android": "https://dc.lft.to/lastmile_qr_scan"}}, {"name": "ae728cea461ac439f015f35a8da27aa3", "lon": -77.02715533333334, "lat": 38.906877333333334, "type": "electric_scooter", "fusion_lon": 0.0, "is_reserved": 0, "bike_id": "ae728cea461ac439f015f35a8da27aa3", "fusion_lat": 0.0, "is_disabled": 0, "rental_uris": {"ios": "https://dc.lft.to/lastmile_qr_scan", "android": "https://dc.lft.to/lastmile_qr_scan"}}, {"name": "fa117eed9ae4999f85cd7dff363479e3", "lon": -77.01763033333333, "lat": 38.901307, "type": "electric_scooter", "fusion_lon": 0.0, "is_reserved": 0, "bike_id": "fa117eed9ae4999f85cd7dff363479e3", "fusion_lat": 0.0, "is_disabled": 0, "rental_uris": {"ios": "https://dc.lft.to/lastmile_qr_scan", "android": "https://dc.lft.to/lastmile_qr_scan"}}, {"name": "678093d78eb740a2b2e1ca6f4cc47dae", "lon": -77.05262283333333, "lat": 38.93939433333333, "type": "electric_scooter", "fusion_lon": 0.0, "is_reserved": 0, "bike_id": "678093d78eb740a2b2e1ca6f4cc47dae", "fusion_lat": 0.0, "is_disabled": 0, "rental_uris": {"ios": "https://dc.lft.to/lastmile_qr_scan", "android": "https://dc.lft.to/lastmile_qr_scan"}}, {"name": "0fb922b833c2f10e3845de6e5528a587", "lon": -77.04266383333334, "lat": 38.91626316666667, "type": "electric_scooter", "fusion_lon": 0.0, "is_reserved": 0, "bike_id": "0fb922b833c2f10e3845de6e5528a587", "fusion_lat": 0.0, "is_disabled": 0, "rental_uris": {"ios": "https://dc.lft.to/lastmile_qr_scan", "android": "https://dc.lft.to/lastmile_qr_scan"}}, {"name": "ee9eae65cb258a327421050c72b1422b", "lon": -77.020581, "lat": 38.921895166666665, "type": "electric_scooter", "fusion_lon": 0.0, "is_reserved": 0, "bike_id": "ee9eae65cb258a327421050c72b1422b", "fusion_lat": 0.0, "is_disabled": 0, "rental_uris": {"ios": "https://dc.lft.to/lastmile_qr_scan", "android": "https://dc.lft.to/lastmile_qr_scan"}}, {"name": "697c48ac111eaa5beaeb44a985f54110", "lon": -76.99695633333333, "lat": 38.838623166666665, "type": "electric_bike", "fusion_lon": 0.0, "is_reserved": 0, "bike_id": "697c48ac111eaa5beaeb44a985f54110", "fusion_lat": 0.0, "is_disabled": 0, "rental_uris": {"ios": "https://dc.lft.to/lastmile_qr_scan", "android": "https://dc.lft.to/lastmile_qr_scan"}}, {"name": "408d5ae386103963808d59faa7e586bb", "lon": -76.98840766666666, "lat": 38.842765166666666, "type": "electric_bike", "fusion_lon": 0.0, "is_reserved": 0, "bike_id": "408d5ae386103963808d59faa7e586bb", "fusion_lat": 0.0, "is_disabled": 0, "rental_uris": {"ios": "https://dc.lft.to/lastmile_qr_scan", "android": "https://dc.lft.to/lastmile_qr_scan"}}, {"name": "78d91bb37e0475a07a3087a513ae84f7", "lon": -77.07820783333334, "lat": 38.9364105, "type": "electric_bike", "fusion_lon": 0.0, "is_reserved": 0, "bike_id": "78d91bb37e0475a07a3087a513ae84f7", "fusion_lat": 0.0, "is_disabled": 0, "rental_uris": {"ios": "https://dc.lft.to/lastmile_qr_scan", "android": "https://dc.lft.to/lastmile_qr_scan"}}, {"name": "a2b973a0d13c594f121f2a262520c9c5", "lon": -76.95941533333334, "lat": 38.890042, "type": "electric_scooter", "fusion_lon": 0.0, "is_reserved": 0, "bike_id": "a2b973a0d13c594f121f2a262520c9c5", "fusion_lat": 0.0, "is_disabled": 0, "rental_uris": {"ios": "https://dc.lft.to/lastmile_qr_scan", "android": "https://dc.lft.to/lastmile_qr_scan"}}, {"name": "76461639f4f47eb4afd4b3d46c81219c", "lon": -77.02616366666666, "lat": 38.89431016666666, "type": "electric_scooter", "fusion_lon": 0.0, "is_reserved": 0, "bike_id": "76461639f4f47eb4afd4b3d46c81219c", "fusion_lat": 0.0, "is_disabled": 0, "rental_uris": {"ios": "https://dc.lft.to/lastmile_qr_scan", "android": "https://dc.lft.to/lastmile_qr_scan"}}, {"name": "812bf03cfdc2032b3031e9ac378aebd5", "lon": -77.03275566666667, "lat": 38.90711233333333, "type": "electric_scooter", "fusion_lon": 0.0, "is_reserved": 0, "bike_id": "812bf03cfdc2032b3031e9ac378aebd5", "fusion_lat": 0.0, "is_disabled": 0, "rental_uris": {"ios": "https://dc.lft.to/lastmile_qr_scan", "android": "https://dc.lft.to/lastmile_qr_scan"}}, {"name": "e0afa205521010e3dd36f208ed385f60", "lon": -77.03891333333333, "lat": 38.92204566666667, "type": "electric_scooter", "fusion_lon": 0.0, "is_reserved": 0, "bike_id": "e0afa205521010e3dd36f208ed385f60", "fusion_lat": 0.0, "is_disabled": 0, "rental_uris": {"ios": "https://dc.lft.to/lastmile_qr_scan", "android": "https://dc.lft.to/lastmile_qr_scan"}}, {"name": "4934f4c9df8e515767485fbfdc3e82a0", "lon": -77.0417745, "lat": 38.91825266666667, "type": "electric_scooter", "fusion_lon": 0.0, "is_reserved": 0, "bike_id": "4934f4c9df8e515767485fbfdc3e82a0", "fusion_lat": 0.0, "is_disabled": 0, "rental_uris": {"ios": "https://dc.lft.to/lastmile_qr_scan", "android": "https://dc.lft.to/lastmile_qr_scan"}}, {"name": "1368d2fa4ce440c13e92e8c7050b0367", "lon": -77.01187133333333, "lat": 38.91556716666667, "type": "electric_scooter", "fusion_lon": 0.0, "is_reserved": 0, "bike_id": "1368d2fa4ce440c13e92e8c7050b0367", "fusion_lat": 0.0, "is_disabled": 0, "rental_uris": {"ios": "https://dc.lft.to/lastmile_qr_scan", "android": "https://dc.lft.to/lastmile_qr_scan"}}, {"name": "bdecc8d6fb683717bed8d06f5208a73b", "lon": -77.02370933333333, "lat": 38.89218533333333, "type": "electric_scooter", "fusion_lon": 0.0, "is_reserved": 0, "bike_id": "bdecc8d6fb683717bed8d06f5208a73b", "fusion_lat": 0.0, "is_disabled": 0, "rental_uris": {"ios": "https://dc.lft.to/lastmile_qr_scan", "android": "https://dc.lft.to/lastmile_qr_scan"}}, {"name": "2576e8effd2c4aac86e98d5bd807ed07", "lon": -77.03237716666666, "lat": 38.911273666666666, "type": "electric_scooter", "fusion_lon": 0.0, "is_reserved": 0, "bike_id": "2576e8effd2c4aac86e98d5bd807ed07", "fusion_lat": 0.0, "is_disabled": 0, "rental_uris": {"ios": "https://dc.lft.to/lastmile_qr_scan", "android": "https://dc.lft.to/lastmile_qr_scan"}}, {"name": "c3c88e035d884ae206ba61892a79167c", "lon": -76.98710066666666, "lat": 38.86700916666667, "type": "electric_scooter", "fusion_lon": 0.0, "is_reserved": 0, "bike_id": "c3c88e035d884ae206ba61892a79167c", "fusion_lat": 0.0, "is_disabled": 0, "rental_uris": {"ios": "https://dc.lft.to/lastmile_qr_scan", "android": "https://dc.lft.to/lastmile_qr_scan"}}, {"name": "0c3c101e134141f0fcef41462b46e008", "lon": -77.05394983333333, "lat": 38.92813566666667, "type": "electric_scooter", "fusion_lon": 0.0, "is_reserved": 0, "bike_id": "0c3c101e134141f0fcef41462b46e008", "fusion_lat": 0.0, "is_disabled": 0, "rental_uris": {"ios": "https://dc.lft.to/lastmile_qr_scan", "android": "https://dc.lft.to/lastmile_qr_scan"}}, {"name": "91379a3e4a3048174f736260c4c868f4", "lon": -76.95365866666667, "lat": 38.89210083333333, "type": "electric_scooter", "fusion_lon": 0.0, "is_reserved": 0, "bike_id": "91379a3e4a3048174f736260c4c868f4", "fusion_lat": 0.0, "is_disabled": 0, "rental_uris": {"ios": "https://dc.lft.to/lastmile_qr_scan", "android": "https://dc.lft.to/lastmile_qr_scan"}}, {"name": "6b6a959de29fa05a32ba3d91b3a20a0e", "lon": -77.02516766666666, "lat": 38.9461945, "type": "electric_scooter", "fusion_lon": 0.0, "is_reserved": 0, "bike_id": "6b6a959de29fa05a32ba3d91b3a20a0e", "fusion_lat": 0.0, "is_disabled": 0, "rental_uris": {"ios": "https://dc.lft.to/lastmile_qr_scan", "android": "https://dc.lft.to/lastmile_qr_scan"}}, {"name": "0f91bcceccabfd9fcda8d996e7105fb2", "lon": -77.02896783333334, "lat": 38.887521166666666, "type": "electric_scooter", "fusion_lon": 0.0, "is_reserved": 0, "bike_id": "0f91bcceccabfd9fcda8d996e7105fb2", "fusion_lat": 0.0, "is_disabled": 0, "rental_uris": {"ios": "https://dc.lft.to/lastmile_qr_scan", "android": "https://dc.lft.to/lastmile_qr_scan"}}, {"name": "8a03eed02de3763f0e61812d008f3bac", "lon": -77.016362, "lat": 38.9012385, "type": "electric_scooter", "fusion_lon": 0.0, "is_reserved": 0, "bike_id": "8a03eed02de3763f0e61812d008f3bac", "fusion_lat": 0.0, "is_disabled": 0, "rental_uris": {"ios": "https://dc.lft.to/lastmile_qr_scan", "android": "https://dc.lft.to/lastmile_qr_scan"}},