{"data": {"bikes": [{"lon": -77.02553516666667, "lat": 38.9247315, "rental_uris": {"ios": "https://dc.lft.to/lastmile_qr_scan", "android": "https://dc.lft.to/lastmile_qr_scan"}, "bike_id": "45882fda8894746716838e5ffb6659af", "type": "electric_scooter", "is_disabled": 0, "fusion_lat": 0.0, "fusion_lon": 0.0, "is_reserved": 0, "name": "45882fda8894746716838e5ffb6659af"}, {"lon": -77.02162316666667, "lat": 38.9261545, "rental_uris": {"ios": "https://dc.lft.to/lastmile_qr_scan", "android": "https://dc.lft.to/lastmile_qr_scan"}, "bike_id": "60a8614c9426768fc61541851beedf69", "type": "electric_scooter", "is_disabled": 0, "fusion_lat": 0.0, "fusion_lon": 0.0, "is_reserved": 0, "name": "60a8614c9426768fc61541851beedf69"}, {"lon": -76.93360616666666, "lat": 38.89920866666667, "rental_uris": {"ios": "https://dc.lft.to/lastmile_qr_scan", "android": "https://dc.lft.to/lastmile_qr_scan"}, "bike_id": "cbf58c92bc83f79990b37d71b3582fe4", "type": "electric_scooter", "is_disabled": 0, "fusion_lat": 0.0, "fusion_lon": 0.0, "is_reserved": 0, "name": "cbf58c92bc83f79990b37d71b3582fe4"}, {"lon": -77.03849833333334, "lat": 38.90835633333333, "rental_uris": {"ios": "https://dc.lft.to/lastmile_qr_scan", "android": "https://dc.lft.to/lastmile_qr_scan"}, "bike_id": "759b3d412af35470cc27d60d559f0fb7", "type": "electric_scooter", "is_disabled": 0, "fusion_lat": 0.0, "fusion_lon": 0.0, "is_reserved": 0, "name": "759b3d412af35470cc27d60d559f0fb7"}, {"lon": -76.99599933333333, "lat": 38.89226166666667, "rental_uris": {"ios": "https://dc.lft.to/lastmile_qr_scan", "android": "https://dc.lft.to/lastmile_qr_scan"}, "bike_id": "55d6005aa62a5c335b3f59fc3da00b4e", "type": "electric_scooter", "is_disabled": 0, "fusion_lat": 0.0, "fusion_lon": 0.0, "is_reserved": 0, "name": "55d6005aa62a5c335b3f59fc3da00b4e"}, {"lon": -76.98377416666666, "lat": 38.91495366666667, "rental_uris": {"ios": "https://dc.lft.to/lastmile_qr_scan", "android": "https://dc.lft.to/lastmile_qr_scan"}, "bike_id": "1dd911e639fd3da2ab7071754b81787a", "type": "electric_scooter", "is_disabled": 0, "fusion_lat": 0.0, "fusion_lon": 0.0, "is_reserved": 0, "name": "1dd911e639fd3da2ab7071754b81787a"}, {"lon": -77.04230133333333, "lat": 38.92175966666667, "rental_uris": {"ios": "https://dc.lft.to/lastmile_qr_scan", "android": "https://dc.lft.to/lastmile_qr_scan"}, "bike_id": "d53d95c6d77fa9e6fb23a7a4ec2c8933", "type": "electric_scooter", "is_disabled": 0, "fusion_lat": 0.0, "fusion_lon": 0.0, "is_reserved": 0, "name": "d53d95c6d77fa9e6fb23a7a4ec2c8933"}, {"lon": -77.022926, "lat": 38.92723633333333, "rental_uris": {"ios": "https://dc.lft.to/lastmile_qr_scan", "android": "https://dc.lft.to/lastmile_qr_scan"}, "bike_id": "be0b5962d73333c4ecfff47b02bed8e6", "type": "electric_scooter", "is_disabled": 0, "fusion_lat": 0.0, "fusion_lon": 0.0, "is_reserved": 0, "name": "be0b5962d73333c4ecfff47b02bed8e6"}, {"lon": -77.02687283333333, "lat": 38.909312166666666, "rental_uris": {"ios": "https://dc.lft.to/lastmile_qr_scan", "android": "https://dc.lft.to/lastmile_qr_scan"}, "bike_id": "906e6a202b5d5db0f30c665ee8925b6c", "type": "electric_scooter", "is_disabled": 0, "fusion_lat": 0.0, "fusion_lon": 0.0, "is_reserved": 0, "name": "906e6a202b5d5db0f30c665ee8925b6c"}, {"lon": -77.0337885, "lat": 38.93220766666666, "rental_uris": {"ios": "https://dc.lft.to/lastmile_qr_scan", "android": "https://dc.lft.to/lastmile_qr_scan"}, "bike_id": "83b80d2e66d41225028f3bddbac4e919", "type": "electric_scooter", "is_disabled": 0, "fusion_lat": 0.0, "fusion_lon": 0.0, "is_reserved": 0, "name": "83b80d2e66d41225028f3bddbac4e919"}, {"lon": -76.99509783333333, "lat": 38.909787, "rental_uris": {"ios": "https://dc.lft.to/lastmile_qr_scan", "android": "https://dc.lft.to/lastmile_qr_scan"}, "bike_id": "9fcc5de927fe0539ffd60a8fcf3d6bfd", "type": "electric_scooter", "is_disabled": 0, "fusion_lat": 0.0, "fusion_lon": 0.0, "is_reserved": 0, "name": "9fcc5de927fe0539ffd60a8fcf3d6bfd"}, {"lon": -77.04308866666666, "lat": 38.90563083333333, "rental_uris": {"ios": "https://dc.lft.to/lastmile_qr_scan", "android": "https://dc.lft.to/lastmile_qr_scan"}, "bike_id": "4f837af25c79c2a341acb5267023f9bf", "type": "electric_scooter", "is_disabled": 0, "fusion_lat": 0.0, "fusion_lon": 0.0, "is_reserved": 0, "name": "4f837af25c79c2a341acb5267023f9bf"}, {"lon": -77.08943583333334, "lat": 38.84107233333334, "rental_uris": {"ios": "https://dc.lft.to/lastmile_qr_scan", "android": "https://dc.lft.to/lastmile_qr_scan"}, "bike_id": "b07457bef926b454e46816b1f5959f1b", "type": "electric_bike", "is_disabled": 0, "fusion_lat": 0.0, "fusion_lon": 0.0, "is_reserved": 0, "name": "b07457bef926b454e46816b1f5959f1b"}, {"lon": -77.04359266666667, "lat": 38.9111845, "rental_uris": {"ios": "https://dc.lft.to/lastmile_qr_scan", "android": "https://dc.lft.to/lastmile_qr_scan"}, "bike_id": "093d6b037fe44bc6ede0bcb4b1aca77b", "type": "electric_scooter", "is_disabled": 0, "fusion_lat": 0.0, "fusion_lon": 0.0, "is_reserved": 0, "name": "093d6b037fe44bc6ede0bcb4b1aca77b"}, {"lon": -77.00893216666667, "lat": 38.96818433333333, "rental_uris": {"ios": "https://dc.lft.to/lastmile_qr_scan", "android": "https://dc.lft.to/lastmile_qr_scan"}, "bike_id": "40b23e468e996cdba350d13ae561eedf", "type": "electric_scooter", "is_disabled": 0, "fusion_lat": 0.0, "fusion_lon": 0.0, "is_reserved": 0, "name": "40b23e468e996cdba350d13ae561eedf"}, {"lon": -77.02234816666666, "lat": 38.91107216666666, "rental_uris": {"ios": "https://dc.lft.to/lastmile_qr_scan", "android": "https://dc.lft.to/lastmile_qr_scan"}, "bike_id": "f769f1627c3c16e89be0315f7ee7c730", "type": "electric_scooter", "is_disabled": 0, "fusion_lat": 0.0, "fusion_lon": 0.0, "is_reserved": 0, "name": "f769f1627c3c16e89be0315f7ee7c730"}, {"lon": -77.012896, "lat": 38.894779, "rental_uris": {"ios": "https://dc.lft.to/lastmile_qr_scan", "android": "https://dc.lft.to/lastmile_qr_scan"}, "bike_id": "1149b9b5f611b4a79de7dcc36159dd93", "type": "electric_scooter", "is_disabled": 0, "fusion_lat": 0.0, "fusion_lon": 0.0, "is_reserved": 0, "name": "1149b9b5f611b4a79de7dcc36159dd93"}, {"lon": -77.11580766666667, "lat": 38.993482666666665, "rental_uris": {"ios": "https://dc.lft.to/lastmile_qr_scan", "android": "https://dc.lft.to/lastmile_qr_scan"}, "bike_id": "e61a1e358f928138861784e018327c66", "type": "electric_bike", "is_disabled": 0, "fusion_lat": 0.0, "fusion_lon": 0.0, "is_reserved": 0, "name": "e61a1e358f928138861784e018327c66"}, {"lon": -77.044547, "lat": 38.9056715, "rental_uris": {"ios": "https://dc.lft.to/lastmile_qr_scan", "android": "https://dc.lft.to/lastmile_qr_scan"}, "bike_id": "7ae9e711a5a4f19a946fed85bb87158c", "type": "electric_scooter", "is_disabled": 0, "fusion_lat": 0.0, "fusion_lon": 0.0, "is_reserved": 0, "name": "7ae9e711a5a4f19a946fed85bb87158c"}, {"lon": -77.04408766666667, "lat": 38.9213105, "rental_uris": {"ios": "https://dc.lft.to/lastmile_qr_scan", "android": "https://dc.lft.to/lastmile_qr_scan"}, "bike_id": "190cc9e607f656978d1e0e93a3c1a6bf", "type": "electric_scooter", "is_disabled": 0, "fusion_lat": 0.0, "fusion_lon": 0.0, "is_reserved": 0, "name": "190cc9e607f656978d1e0e93a3c1a6bf"}, {"lon": -77.01373083333333, "lat": 38.89220866666667, "rental_uris": {"ios": "https://dc.lft.to/lastmile_qr_scan", "android": "https://dc.lft.to/lastmile_qr_scan"}, "bike_id": "35409b7a46f7ce79ccbea079a55b84db", "type": "electric_scooter", "is_disabled": 0, "fusion_lat": 0.0, "fusion_lon": 0.0, "is_reserved": 0, "name": "35409b7a46f7ce79ccbea079a55b84db"}, {"lon": -77.13896283333334, "lat": 38.89670233333333, "rental_uris": {"ios": "https://dc.lft.to/lastmile_qr_scan", "android": "https://dc.lft.to/lastmile_qr_scan"}, "bike_id": "e7209bde547d84e9f22529cdea87ac41", "type": "electric_bike", "is_disabled": 0, "fusion_lat": 0.0, "fusion_lon": 0.0, "is_reserved": 0, "name": "e7209bde547d84e9f22529cdea87ac41"}, {"lon": -77.03776916666666, "lat": 38.916922, "rental_uris": {"ios": "https://dc.lft.to/lastmile_qr_scan", "android": "https://dc.lft.to/lastmile_qr_scan"}, "bike_id": "47c7f81112fde4b84761fa7395fe1732", "type": "electric_scooter", "is_disabled": 0, "fusion_lat": 0.0, "fusion_lon": 0.0, "is_reserved": 0, "name": "47c7f81112fde4b84761fa7395fe1732"}, {"lon": -76.9801625, "lat": 38.888636, "rental_uris": {"ios": "https://dc.lft.to/lastmile_qr_scan", "android": "https://dc.lft.to/lastmile_qr_scan"}, "bike_id": "72660b3718d82e2032f2f27f1b2c43f4", "type": "electric_scooter", "is_disabled": 0, "fusion_lat": 0.0, "fusion_lon": 0.0, "is_reserved": 0, "name": "72660b3718d82e2032f2f27f1b2c43f4"}, {"lon": -77.01967466666666, "lat": 38.956496, "rental_uris": {"ios": "https://dc.lft.to/lastmile_qr_scan", "android": "https://dc.lft.to/lastmile_qr_scan"}, "bike_id": "4d33591ffe4cfddad0af6c431638b01f", "type": "electric_scooter", "is_disabled": 0, "fusion_lat": 0.0, "fusion_lon": 0.0, "is_reserved": 0, "name": "4d33591ffe4cfddad0af6c431638b01f"}, {"lon": -77.04506366666666, "lat": 38.905031, "rental_uris": {"ios": "https://dc.lft.to/lastmile_qr_scan", "android": "https://dc.lft.to/lastmile_qr_scan"}, "bike_id": "3db676b08df5438a96551ed786c0a5a7", "type": "electric_scooter", "is_disabled": 0, "fusion_lat": 0.0, "fusion_lon": 0.0, "is_reserved": 0, "name": "3db676b08df5438a96551ed786c0a5a7"}, {"lon": -77.01117183333334, "lat": 38.885492666666664, "rental_uris": {"ios": "https://dc.lft.to/lastmile_qr_scan", "android": "https://dc.lft.to/lastmile_qr_scan"}, "bike_id": "ba4430283aa99b8efc10851103cc1f9e", "type": "electric_scooter", "is_disabled": 0, "fusion_lat": 0.0, "fusion_lon": 0.0, "is_reserved": 0, "name": "ba4430283aa99b8efc10851103cc1f9e"}, {"lon": -77.0328695, "lat": 38.92928466666667, "rental_uris": {"ios": "https://dc.lft.to/lastmile_qr_scan", "android": "https://dc.lft.to/lastmile_qr_scan"}, "bike_id": "8dcb3c55600d2a103bd84fc89e35c28e", "type": "electric_scooter", "is_disabled": 0, "fusion_lat": 0.0, "fusion_lon": 0.0, "is_reserved": 0, "name": "8dcb3c55600d2a103bd84fc89e35c28e"}, {"lon": -77.006213, "lat": 38.908209, "rental_uris": {"ios": "https://dc.lft.to/lastmile_qr_scan", "android": "https://dc.lft.to/lastmile_qr_scan"}, "bike_id": "762d37db1706a04e61f25dad446b8328", "type": "electric_scooter", "is_disabled": 0, "fusion_lat": 0.0, "fusion_lon": 0.0, "is_reserved": 0, "name": "762d37db1706a04e61f25dad446b8328"}, {"lon": -77.06080116666666, "lat": 38.8858545, "rental_uris": {"ios": "https://dc.lft.to/lastmile_qr_scan", "android": "https://dc.lft.to/lastmile_qr_scan"}, "bike_id": "cfd52c27f34b1985b284e11d5de26e82", "type": "electric_bike", "is_disabled": 0, "fusion_lat": 0.0, "fusion_lon": 0.0, "is_reserved": 0, "name": "cfd52c27f34b1985b284e11d5de26e82"}, {"lon": -77.03871583333333, "lat": 38.906592, "rental_uris": {"ios": "https://dc.lft.to/lastmile_qr_scan", "android": "https://dc.lft.to/lastmile_qr_scan"}, "bike_id": "a2ef4a5f94b1d40cbb69d7eba7f14f8e", "type": "electric_scooter", "is_disabled": 0, "fusion_lat": 0.0, "fusion_lon": 0.0, "is_reserved": 0, "name": "a2ef4a5f94b1d40cbb69d7eba7f14f8e"}, {"lon": -77.13100816666666, "lat": 39.024367, "rental_uris": {"ios": "https://dc.lft.to/lastmile_qr_scan", "android": "https://dc.lft.to/lastmile_qr_scan"}, "bike_id": "cea7bbf5d3d8297e0e45e20cabc8acd7", "type": "electric_bike", "is_disabled": 0, "fusion_lat": 0.0, "fusion_lon": 0.0, "is_reserved": 0, "name": "cea7bbf5d3d8297e0e45e20cabc8acd7"}, {"lon": -77.0193655, "lat": 38.94927766666667, "rental_uris": {"ios": "https://dc.lft.to/lastmile_qr_scan", "android": "https://dc.lft.to/lastmile_qr_scan"}, "bike_id": "8657fe98b9c469eed121df04cc4f4bf6", "type": "electric_scooter", "is_disabled": 0, "fusion_lat": 0.0, "fusion_lon": 0.0, "is_reserved": 0, "name": "8657fe98b9c469eed121df04cc4f4bf6"}, {"lon": -77.0184655, "lat": 38.94993433333333, "rental_uris": {"ios": "https://dc.lft.to/lastmile_qr_scan", "android": "https://dc.lft.to/lastmile_qr_scan"}, "bike_id": "7166a383627f26443b1f9f25618db380", "type": "electric_scooter", "is_disabled": 0, "fusion_lat": 0.0, "fusion_lon": 0.0, "is_reserved": 0, "name": "7166a383627f26443b1f9f25618db380"}, {"lon": -77.038595, "lat": 38.90583616666667, "rental_uris": {"ios": "https://dc.lft.to/lastmile_qr_scan", "android": "https://dc.lft.to/lastmile_qr_scan"}, "bike_id": "bbc177a4cbae8132e5c353612a4f0a6e", "type": "electric_scooter", "is_disabled": 0, "fusion_lat": 0.0, "fusion_lon": 0.0, "is_reserved": 0, "name": "bbc177a4cbae8132e5c353612a4f0a6e"}, {"lon": -77.03989683333333, "lat": 38.899338, "rental_uris": {"ios": "https://dc.lft.to/lastmile_qr_scan", "android": "https://dc.lft.to/lastmile_qr_scan"}, "bike_id": "98af8d574b8ae87e610a9ed0e3c101c7", "type": "electric_scooter", "is_disabled": 0, "fusion_lat": 0.0, "fusion_lon": 0.0, "is_reserved": 0, "name": "98af8d574b8ae87e610a9ed0e3c101c7"}, {"lon": -77.04536716666667, "lat": 38.90066683333333, "rental_uris": {"ios": "https://dc.lft.to/lastmile_qr_scan", "android": "https://dc.lft.to/lastmile_qr_scan"}, "bike_id": "e89a6bc1ebbab394ea7cc69615a7e8ac", "type": "electric_scooter", "is_disabled": 0, "fusion_lat": 0.0, "fusion_lon": 0.0, "is_reserved": 0, "name": "e89a6bc1ebbab394ea7cc69615a7e8ac"}, {"lon": -76.99528866666667, "lat": 38.87757783333333, "rental_uris": {"ios": "https://dc.lft.to/lastmile_qr_scan", "android": "https://dc.lft.to/lastmile_qr_scan"}, "bike_id": "b03c9147aadb749af626cb91729ec6d3", "type": "electric_scooter", "is_disabled": 0, "fusion_lat": 0.0, "fusion_lon": 0.0, "is_reserved": 0, "name": "b03c9147aadb749af626cb91729ec6d3"}, {"lon": -77.03319733333333, "lat": 38.91702733333333, "rental_uris": {"ios": "https://dc.lft.to/lastmile_qr_scan", "android": "https://dc.lft.to/lastmile_qr_scan"}, "bike_id": "59c787a1756f7cac39bc4a52e2a0057f", "type": "electric_scooter", "is_disabled": 0, "fusion_lat": 0.0, "fusion_lon": 0.0, "is_reserved": 0, "name": "59c787a1756f7cac39bc4a52e2a0057f"}, {"lon": -77.09597966666666, "lat": 39.028904833333335, "rental_uris": {"ios": "https://dc.lft.to/lastmile_qr_scan", "android": "https://dc.lft.to/lastmile_qr_scan"}, "bike_id": "41282642c5bc2d780ad3a5f20b18bea2", "type": "electric_bike", "is_disabled": 0, "fusion_lat": 0.0, "fusion_lon": 0.0, "is_reserved": 0, "name": "41282642c5bc2d780ad3a5f20b18bea2"}, {"lon": -77.04370783333333, "lat": 38.921331, "rental_uris": {"ios": "https://dc.lft.to/lastmile_qr_scan", "android": "https://dc.lft.to/lastmile_qr_scan"}, "bike_id": "16c9e0f31779e8262d4b11ef9dcc6f1b", "type": "electric_scooter", "is_disabled": 0, "fusion_lat": 0.0, "fusion_lon": 0.0, "is_reserved": 0, "name": "16c9e0f31779e8262d4b11ef9dcc6f1b"}, {"lon": -77.05627683333333, "lat": 38.96071633333333, "rental_uris": {"ios": "https://dc.lft.to/lastmile_qr_scan", "android": "https://dc.lft.to/lastmile_qr_scan"}, "bike_id": "2ace701d11e7f163bc22e441b5840537", "type": "electric_scooter", "is_disabled": 0, "fusion_lat": 0.0, "fusion_lon": 0.0, "is_reserved": 0, "name": "2ace701d11e7f163bc22e441b5840537"}, {"lon": -77.04109483333333, "lat": 38.92510433333333, "rental_uris": {"ios": "https://dc.lft.to/lastmile_qr_scan", "android": "https://dc.lft.to/lastmile_qr_scan"}, "bike_id": "d11b2cdebb563e2652d6c68f32b82f06", "type": "electric_scooter", "is_disabled": 0, "fusion_lat": 0.0, "fusion_lon": 0.0, "is_reserved": 0, "name": "d11b2cdebb563e2652d6c68f32b82f06"}, {"lon": -77.02978583333334, "lat": 38.929507, "rental_uris": {"ios": "https://dc.lft.to/lastmile_qr_scan", "android": "https://dc.lft.to/lastmile_qr_scan"}, "bike_id": "54a8e71ecf4ecec209c9af1052ea3b5a", "type": "electric_scooter", "is_disabled": 0, "fusion_lat": 0.0, "fusion_lon": 0.0, "is_reserved": 0, "name": "54a8e71ecf4ecec209c9af1052ea3b5a"}, {"lon": -77.11594083333334, "lat": 39.07493616666667, "rental_uris": {"ios": "https://dc.lft.to/lastmile_qr_scan", "android": "https://dc.lft.to/lastmile_qr_scan"}, "bike_id": "d9888cd245fc6760333276f8e6b17211", "type": "electric_bike", "is_disabled": 0, "fusion_lat": 0.0, "fusion_lon": 0.0, "is_reserved": 0, "name": "d9888cd245fc6760333276f8e6b17211"}, {"lon": -77.044843, "lat": 38.9033435, "rental_uris": {"ios": "https://dc.lft.to/lastmile_qr_scan", "android": "https://dc.lft.to/lastmile_qr_scan"}, "bike_id": "4c6eb023dec91e75f01b208dd33b2b58", "type": "electric_bike", "is_disabled": 0, "fusion_lat": 0.0, "fusion_lon": 0.0, "is_reserved": 0, "name": "4c6eb023dec91e75f01b208dd33b2b58"}, {"lon": -77.03212866666667, "lat": 38.91121966666667, "rental_uris": {"ios": "https://dc.lft.to/lastmile_qr_scan", "android": "https://dc.lft.to/lastmile_qr_scan"}, "bike_id": "388630ed9fef70729bb09a2c14fcb195", "type": "electric_scooter", "is_disabled": 0, "fusion_lat": 0.0, "fusion_lon": 0.0, "is_reserved": 0, "name": "388630ed9fef70729bb09a2c14fcb195"}, {"lon": -77.05086933333334, "lat": 38.9019045, "rental_uris": {"ios": "https://dc.lft.to/lastmile_qr_scan", "android": "https://dc.lft.to/lastmile_qr_scan"}, "bike_id": "80df8584726055882f4b47b4b39cc542", "type": "electric_scooter", "is_disabled": 0, "fusion_lat": 0.0, "fusion_lon": 0.0, "is_reserved": 0, "name": "80df8584726055882f4b47b4b39cc542"}, {"lon": -77.02349633333333, "lat": 38.89969516666667, "rental_uris": {"ios": "https://dc.lft.to/lastmile_qr_scan", "android": "https://dc.lft.to/lastmile_qr_scan"}, "bike_id": "e66707d73b65034e2f38f9aa9c3c28ae", "type": "electric_scooter", "is_disabled": 0, "fusion_lat": 0.0, "fusion_lon": 0.0, "is_reserved": 0, "name": "e66707d73b65034e2f38f9aa9c3c28ae"}, {"lon": -77.00061466666666, "lat": 38.917324666666666, "rental_uris": {"ios": "https://dc.lft.to/lastmile_qr_scan", "android": "https://dc.lft.to/lastmile_qr_scan"}, "bike_id": "08716bed71d71359f416df38649724cf", "type": "electric_scooter", "is_disabled": 0, "fusion_lat": 0.0, "fusion_lon": 0.0, "is_reserved": 0, "name": "08716bed71d71359f416df38649724cf"}, {"lon": -77.04562666666666, "lat": 38.897464, "rental_uris": {"ios": "https://dc.lft.to/lastmile_qr_scan", "android": "https://dc.lft.to/lastmile_qr_scan"}, "bike_id": "af5254f1c8bb663a21d5ecc29d0c1cb2", "type": "electric_scooter", "is_disabled": 0, "fusion_lat": 0.0, "fusion_lon": 0.0, "is_reserved": 0, "name": "af5254f1c8bb663a21d5ecc29d0c1cb2"}, {"lon": -77.02380616666666, "lat": 38.919952, "rental_uris": {"ios": "https://dc.lft.to/lastmile_qr_scan", "android": "https://dc.lft.to/lastmile_qr_scan"}, "bike_id": "44d2c95d3724e7241aa1b980d6f9f5f5", "type": "electric_scooter", "is_disabled": 0, "fusion_lat": 0.0, "fusion_lon": 0.0, "is_reserved": 0, "name": "44d2c95d3724e7241aa1b980d6f9f5f5"}, {"lon": -77.02231483333334, "lat": 38.89219833333333, "rental_uris": {"ios": "https://dc.lft.to/lastmile_qr_scan", "android": "https://dc.lft.to/lastmile_qr_scan"}, "bike_id": "4deacfa7bf2ae029cff4004143e8f61b", "type": "electric_scooter", "is_disabled": 0, "fusion_lat": 0.0, "fusion_lon": 0.0, "is_reserved": 0, "name": "4deacfa7bf2ae029cff4004143e8f61b"}, {"lon": -76.98657716666666, "lat": 38.86726816666667, "rental_uris": {"ios": "https://dc.lft.to/lastmile_qr_scan", "android": "https://dc.lft.to/lastmile_qr_scan"}, "bike_id": "b380addc8492b67acd062b25994a3763", "type": "electric_scooter", "is_disabled": 0, "fusion_lat": 0.0, "fusion_lon": 0.0, "is_reserved": 0, "name": "b380addc8492b67acd062b25994a3763"}, {"lon": -76.94533216666666, "lat": 38.867550666666666, "rental_uris": {"ios": "https://dc.lft.to/lastmile_qr_scan", "android": "https://dc.lft.to/lastmile_qr_scan"}, "bike_id": "01573c281b4d6b6ac2031f68df81930a", "type": "electric_bike", "is_disabled": 0, "fusion_lat": 0.0, "fusion_lon": 0.0, "is_reserved": 0, "name": "01573c281b4d6b6ac2031f68df81930a"}, {"lon": -77.0066765, "lat": 38.90035916666667, "rental_uris": {"ios": "https://dc.lft.to/lastmile_qr_scan", "android": "https://dc.lft.to/lastmile_qr_scan"}, "bike_id": "4a620d2ef78adc8ddb67168bd08b42bc", "type": "electric_scooter", "is_disabled": 0, "fusion_lat": 0.0, "fusion_lon": 0.0, "is_reserved": 0, "name": "4a620d2ef78adc8ddb67168bd08b42bc"}, {"lon": -77.02295083333334, "lat": 38.901489166666664, "rental_uris": {"ios": "https://dc.lft.to/lastmile_qr_scan", "android": "https://dc.lft.to/lastmile_qr_scan"}, "bike_id": "7e499995c14405a7f70fcdcf5fbb9410", "type": "electric_scooter", "is_disabled": 0, "fusion_lat": 0.0, "fusion_lon": 0.0, "is_reserved": 0, "name": "7e499995c14405a7f70fcdcf5fbb9410"}, {"lon": -77.00051116666667, "lat": 38.89629716666666, "rental_uris": {"ios": "https://dc.lft.to/lastmile_qr_scan", "android": "https://dc.lft.to/lastmile_qr_scan"}, "bike_id": "ffe5a13a3dae94f79a9c8399769c838d", "type": "electric_scooter", "is_disabled": 0, "fusion_lat": 0.0, "fusion_lon": 0.0, "is_reserved": 0, "name": "ffe5a13a3dae94f79a9c8399769c838d"}, {"lon": -76.95472283333334, "lat": 38.886415, "rental_uris": {"ios": "https://dc.lft.to/lastmile_qr_scan", "android": "https://dc.lft.to/lastmile_qr_scan"}, "bike_id": "b1f6eff1b2fa6335876b9c5bc1abe604", "type": "electric_scooter", "is_disabled": 0, "fusion_lat": 0.0, "fusion_lon": 0.0, "is_reserved": 0, "name": "b1f6eff1b2fa6335876b9c5bc1abe604"}, {"lon": -77.03667383333334, "lat": 38.92322816666667, "rental_uris": {"ios": "https://dc.lft.to/lastmile_qr_scan", "android": "https://dc.lft.to/lastmile_qr_scan"}, "bike_id": "0ef9066b1d0148e2e844fb1383cbf747", "type": "electric_scooter", "is_disabled": 0, "fusion_lat": 0.0, "fusion_lon": 0.0, "is_reserved": 0, "name": "0ef9066b1d0148e2e844fb1383cbf747"}, {"lon": -77.043632, "lat": 38.911190500000004, "rental_uris": {"ios": "https://dc.lft.to/lastmile_qr_scan", "android": "https://dc.lft.to/lastmile_qr_scan"}, "bike_id": "77a0648c629fd6389af89e9ff376c17f", "type": "electric_scooter", "is_disabled": 0, "fusion_lat": 0.0, "fusion_lon": 0.0, "is_reserved": 0, "name": "77a0648c629fd6389af89e9ff376c17f"}, {"lon": -77.04496933333333, "lat": 38.90975666666667, "rental_uris": {"ios": "https://dc.lft.to/lastmile_qr_scan", "android": "https://dc.lft.to/lastmile_qr_scan"}, "bike_id": "4b4be7fcf22d76718e3627d1f1edcb5d", "type": "electric_scooter", "is_disabled": 0, "fusion_lat": 0.0, "fusion_lon": 0.0, "is_reserved": 0, "name": "4b4be7fcf22d76718e3627d1f1edcb5d"}, {"lon": -77.03231733333334, "lat": 38.909647666666665, "rental_uris": {"ios": "https://dc.lft.to/lastmile_qr_scan", "android": "https://dc.lft.to/lastmile_qr_scan"}, "bike_id": "de8f57f3f0bb5165fff896a57090a219", "type": "electric_scooter", "is_disabled": 0, "fusion_lat": 0.0, "fusion_lon": 0.0, "is_reserved": 0, "name": "de8f57f3f0bb5165fff896a57090a219"}, {"lon": -77.02393416666666, "lat": 38.89788566666667, "rental_uris": {"ios": "https://dc.lft.to/lastmile_qr_scan", "android": "https://dc.lft.to/lastmile_qr_scan"}, "bike_id": "8833ca5f6d8e28cde64ffc2de6b3b095", "type": "electric_scooter", "is_disabled": 0, "fusion_lat": 0.0, "fusion_lon": 0.0, "is_reserved": 0, "name": "8833ca5f6d8e28cde64ffc2de6b3b095"}, {"lon": -77.0321495, "lat": 38.9163005, "rental_uris": {"ios": "https://dc.lft.to/lastmile_qr_scan", "android": "https://dc.lft.to/lastmile_qr_scan"}, "bike_id": "394bca50ef9a88623db4879f6f91cf3c", "type": "electric_scooter", "is_disabled": 0, "fusion_lat": 0.0, "fusion_lon": 0.0, "is_reserved": 0, "name": "394bca50ef9a88623db4879f6f91cf3c"}, {"lon": -77.05108733333333, "lat": 38.92343866666667, "rental_uris": {"ios": "https://dc.lft.to/lastmile_qr_scan", "android": "https://dc.lft.to/lastmile_qr_scan"}, "bike_id": "a583be8dc78c4eecd449125ac1d00aeb", "type": "electric_scooter", "is_disabled": 0, "fusion_lat": 0.0, "fusion_lon": 0.0, "is_reserved": 0, "name": "a583be8dc78c4eecd449125ac1d00aeb"}, {"lon": -77.02599633333334, "lat": 38.907589333333334, "rental_uris": {"ios": "https://dc.lft.to/lastmile_qr_scan", "android": "https://dc.lft.to/lastmile_qr_scan"}, "bike_id": "f76389d11f4a3dc0bf2ebb95e80ccb82", "type": "electric_scooter", "is_disabled": 0, "fusion_lat": 0.0, "fusion_lon": 0.0, "is_reserved": 0, "name": "f76389d11f4a3dc0bf2ebb95e80ccb82"}, {"lon": -77.033271, "lat": 38.89840816666667, "rental_uris": {"ios": "https://dc.lft.to/lastmile_qr_scan", "android": "https://dc.lft.to/lastmile_qr_scan"}, "bike_id": "3f1bcf06e4439e868fa63c7aab7097a7", "type": "electric_scooter", "is_disabled": 0, "fusion_lat": 0.0, "fusion_lon": 0.0, "is_reserved": 0, "name": "3f1bcf06e4439e868fa63c7aab7097a7"}, {"lon": -77.03237616666667, "lat": 38.90965966666667, "rental_uris": {"ios": "https://dc.lft.to/lastmile_qr_scan", "android": "https://dc.lft.to/lastmile_qr_scan"}, "bike_id": "2d8c409d02974a83f329059c4467a2cb", "type": "electric_scooter", "is_disabled": 0, "fusion_lat": 0.0, "fusion_lon": 0.0, "is_reserved": 0, "name": "2d8c409d02974a83f329059c4467a2cb"}, {"lon": -76.99144116666666, "lat": 38.90120483333333, "rental_uris": {"ios": "https://dc.lft.to/lastmile_qr_scan", "android": "https://dc.lft.to/lastmile_qr_scan"}, "bike_id": "db6e8ee1ac6b58165aa8ce42bd4a69a7", "type": "electric_scooter", "is_disabled": 0, "fusion_lat": 0.0, "fusion_lon": 0.0, "is_reserved": 0, "name": "db6e8ee1ac6b58165aa8ce42bd4a69a7"}, {"lon": -77.12529883333333, "lat": 39.056341, "rental_uris": {"ios": "https://dc.lft.to/lastmile_qr_scan", "android": "https://dc.lft.to/lastmile_qr_scan"}, "bike_id": "5dd73473a189b03a8b23ffd28499b9ca", "type": "electric_bike", "is_disabled": 0, "fusion_lat": 0.0, "fusion_lon": 0.0, "is_reserved": 0, "name": "5dd73473a189b03a8b23ffd28499b9ca"}, {"lon": -77.04991766666667, "lat": 38.89729366666667, "rental_uris": {"ios": "https://dc.lft.to/lastmile_qr_scan", "android": "https://dc.lft.to/lastmile_qr_scan"}, "bike_id": "bf8038dc1756c3460e79cf882e1d6edc", "type": "electric_scooter", "is_disabled": 0, "fusion_lat": 0.0, "fusion_lon": 0.0, "is_reserved": 0, "name": "bf8038dc1756c3460e79cf882e1d6edc"}, {"lon": -77.07514083333334, "lat": 38.8944785, "rental_uris": {"ios": "https://dc.lft.to/lastmile_qr_scan", "android": "https://dc.lft.to/lastmile_qr_scan"}, "bike_id": "8b556ba0d4f1700ad456d1c0995051e7", "type": "electric_scooter", "is_disabled": 0, "fusion_lat": 0.0, "fusion_lon": 0.0, "is_reserved": 0, "name": "8b556ba0d4f1700ad456d1c0995051e7"}, {"lon": -76.97638183333333, "lat": 38.90572016666667, "rental_uris": {"ios": "https://dc.lft.to/lastmile_qr_scan", "android": "https://dc.lft.to/lastmile_qr_scan"}, "bike_id": "be3db9775fa7796ed8e9ec2cddd5063c", "type": "electric_scooter", "is_disabled": 0, "fusion_lat": 0.0, "fusion_lon": 0.0, "is_reserved": 0, "name": "be3db9775fa7796ed8e9ec2cddd5063c"}, {"lon": -77.023957, "lat": 38.915233666666666, "rental_uris": {"ios": "https://dc.lft.to/lastmile_qr_scan", "android": "https://dc.lft.to/lastmile_qr_scan"}, "bike_id": "06c585cd3252467673007139aeaa72f3", "type": "electric_scooter", "is_disabled": 0, "fusion_lat": 0.0, "fusion_lon": 0.0, "is_reserved": 0, "name": "06c585cd3252467673007139aeaa72f3"}, {"lon": -77.0331035, "lat": 38.9561605, "rental_uris": {"ios": "https://dc.lft.to/lastmile_qr_scan", "android": "https://dc.lft.to/lastmile_qr_scan"}, "bike_id": "75fa52d518481b84604b52000776ac64", "type": "electric_scooter", "is_disabled": 0, "fusion_lat": 0.0, "fusion_lon": 0.0, "is_reserved": 0, "name": "75fa52d518481b84604b52000776ac64"}, {"lon": -77.02162516666667, "lat": 38.92613583333333, "rental_uris": {"ios": "https://dc.lft.to/lastmile_qr_scan", "android": "https://dc.lft.to/lastmile_qr_scan"}, "bike_id": "6d56538981cf7d6671d29d38f3ef138b", "type": "electric_scooter", "is_disabled": 0, "fusion_lat": 0.0, "fusion_lon": 0.0, "is_reserved": 0, "name": "6d56538981cf7d6671d29d38f3ef138b"}, {"lon": -76.98954333333333, "lat": 38.90028433333333, "rental_uris": {"ios": "https://dc.lft.to/lastmile_qr_scan", "android": "https://dc.lft.to/lastmile_qr_scan"}, "bike_id": "d9ae6fe6563673d11b7fa483cb782f2d", "type": "electric_scooter", "is_disabled": 0, "fusion_lat": 0.0, "fusion_lon": 0.0, "is_reserved": 0, "name": "d9ae6fe6563673d11b7fa483cb782f2d"}, {"lon": -77.032578, "lat": 38.90280516666667, "rental_uris": {"ios": "https://dc.lft.to/lastmile_qr_scan", "android": "https://dc.lft.to/lastmile_qr_scan"}, "bike_id": "18b6056ea8915185f097f208ea161d11", "type": "electric_scooter", "is_disabled": 0, "fusion_lat": 0.0, "fusion_lon": 0.0, "is_reserved": 0, "name": "18b6056ea8915185f097f208ea161d11"}, {"lon": -77.03315916666666, "lat": 38.930375833333336, "rental_uris": {"ios": "https://dc.lft.to/lastmile_qr_scan", "android": "https://dc.lft.to/lastmile_qr_scan"}, "bike_id": "32a3b87e969098d741c93e86b2c21c2f", "type": "electric_scooter", "is_disabled": 0, "fusion_lat": 0.0, "fusion_lon": 0.0, "is_reserved": 0, "name": "32a3b87e969098d741c93e86b2c21c2f"}, {"lon": -77.03435916666666, "lat": 38.91258716666667, "rental_uris": {"ios": "https://dc.lft.to/lastmile_qr_scan", "android": "https://dc.lft.to/lastmile_qr_scan"}, "bike_id": "89af41ed5c12cc32195ff1083e2390f4", "type": "electric_scooter", "is_disabled": 0, "fusion_lat": 0.0, "fusion_lon": 0.0, "is_reserved": 0, "name": "89af41ed5c12cc32195ff1083e2390f4"}, {"lon": -76.98860416666666, "lat": 38.95485133333333, "rental_uris": {"ios": "https://dc.lft.to/lastmile_qr_scan", "android": "https://dc.lft.to/lastmile_qr_scan"}, "bike_id": "6e28d976c9a80f7f41dbd4b4bb7cb781", "type": "electric_bike", "is_disabled": 0, "fusion_lat": 0.0, "fusion_lon": 0.0, "is_reserved": 0, "name": "6e28d976c9a80f7f41dbd4b4bb7cb781"}, {"lon": -77.01848933333333, "lat": 38.973672, "rental_uris": {"ios": "https://dc.lft.to/lastmile_qr_scan", "android": "https://dc.lft.to/lastmile_qr_scan"}, "bike_id": "23993875594ab9833bf4383bbf2fd9ba", "type": "electric_scooter", "is_disabled": 0, "fusion_lat": 0.0, "fusion_lon": 0.0, "is_reserved": 0, "name": "23993875594ab9833bf4383bbf2fd9ba"}, {"lon": -77.02406933333333, "lat": 38.9175915, "rental_uris": {"ios": "https://dc.lft.to/lastmile_qr_scan", "android": "https://dc.lft.to/lastmile_qr_scan"}, "bike_id": "1c62831fba627ac43a039d76a55025d3", "type": "electric_scooter", "is_disabled": 0, "fusion_lat": 0.0, "fusion_lon": 0.0, "is_reserved": 0, "name": "1c62831fba627ac43a039d76a55025d3"}, {"lon": -76.99937683333333, "lat": 38.847857, "rental_uris": {"ios": "https://dc.lft.to/lastmile_qr_scan", "android": "https://dc.lft.to/lastmile_qr_scan"}, "bike_id": "2570b4760b7ad6cd3c905eaa5c85f9e5", "type": "electric_scooter", "is_disabled": 0, "fusion_lat": 0.0, "fusion_lon": 0.0, "is_reserved": 0, "name": "2570b4760b7ad6cd3c905eaa5c85f9e5"}, {"lon": -76.937542, "lat": 38.890497, "rental_uris": {"ios": "https://dc.lft.to/lastmile_qr_scan", "android": "https://dc.lft.to/lastmile_qr_scan"}, "bike_id": "4907dbb1da2f0d976e8166f6ed875603", "type": "electric_scooter", "is_disabled": 0, "fusion_lat": 0.0, "fusion_lon": 0.0, "is_reserved": 0, "name": "4907dbb1da2f0d976e8166f6ed875603"}, {"lon": -76.9933425, "lat": 38.8714495, "rental_uris": {"ios": "https://dc.lft.to/lastmile_qr_scan", "android": "https://dc.lft.to/lastmile_qr_scan"}, "bike_id": "0897e419f3042451731799e6c1c1c309", "type": "electric_scooter", "is_disabled": 0, "fusion_lat": 0.0, "fusion_lon": 0.0, "is_reserved": 0, "name": "0897e419f3042451731799e6c1c1c309"}, {"lon": -77.05574166666666, "lat": 38.899626, "rental_uris": {"ios": "https://dc.lft.to/lastmile_qr_scan", "android": "https://dc.lft.to/lastmile_qr_scan"}, "bike_id": "48d25ae957d1ee09f61b3272ef26eadc", "type": "electric_scooter", "is_disabled": 0, "fusion_lat": 0.0, "fusion_lon": 0.0, "is_reserved": 0, "name": "48d25ae957d1ee09f61b3272ef26eadc"}, {"lon": -76.96058166666667, "lat": 38.884038, "rental_uris": {"ios": "https://dc.lft.to/lastmile_qr_scan", "android": "https://dc.lft.to/lastmile_qr_scan"}, "bike_id": "543bbc08cc17c7366354857003fcc139", "type": "electric_bike", "is_disabled": 0, "fusion_lat": 0.0, "fusion_lon": 0.0, "is_reserved": 0, "name": "543bbc08cc17c7366354857003fcc139"}, {"lon": -77.03689416666667, "lat": 38.91677083333333, "rental_uris": {"ios": "https://dc.lft.to/lastmile_qr_scan", "android": "https://dc.lft.to/lastmile_qr_scan"}, "bike_id": "a66a6a417a650cb8f24cd751473b7958", "type": "electric_scooter", "is_disabled": 0, "fusion_lat": 0.0, "fusion_lon": 0.0, "is_reserved": 0, "name": "a66a6a417a650cb8f24cd751473b7958"}, {"lon": -76.9865875, "lat": 38.89823, "rental_uris": {"ios": "https://dc.lft.to/lastmile_qr_scan", "android": "https://dc.lft.to/lastmile_qr_scan"}, "bike_id": "b381f9b8a242cddfdc8b97003ccb743f", "type": "electric_scooter", "is_disabled": 0, "fusion_lat": 0.0, "fusion_lon": 0.0, "is_reserved": 0, "name": "b381f9b8a242cddfdc8b97003ccb743f"}, {"lon": -76.97906016666667, "lat": 38.870393666666665, "rental_uris": {"ios": "https://dc.lft.to/lastmile_qr_scan", "android": "https://dc.lft.to/lastmile_qr_scan"}, "bike_id": "9c4ee5235aaf1036f312d2ffbca4b7f4", "type": "electric_bike", "is_disabled": 0, "fusion_lat": 0.0, "fusion_lon": 0.0, "is_reserved": 0, "name": "9c4ee5235aaf1036f312d2ffbca4b7f4"}, {"lon": -76.998426, "lat": 38.90026, "rental_uris": {"ios": "https://dc.lft.to/lastmile_qr_scan", "android": "https://dc.lft.to/lastmile_qr_scan"}, "bike_id": "afe362684093c83d6ef17a742ef8699b", "type": "electric_scooter", "is_disabled": 0, "fusion_lat": 0.0, "fusion_lon": 0.0, "is_reserved": 0, "name": "afe362684093c83d6ef17a742ef8699b"}, {"lon": -76.987285, "lat": 38.8671125, "rental_uris": {"ios": "https://dc.lft.to/lastmile_qr_scan", "android": "https://dc.lft.to/lastmile_qr_scan"}, "bike_id": "dcd8d1e15d978626297c6fe35add7dd2", "type": "electric_scooter", "is_disabled": 0, "fusion_lat": 0.0, "fusion_lon": 0.0, "is_reserved": 0, "name": "dcd8d1e15d978626297c6fe35add7dd2"}, {"lon": -77.02659066666666, "lat": 38.89219716666667, "rental_uris": {"ios": "https://dc.lft.to/lastmile_qr_scan", "android": "https://dc.lft.to/lastmile_qr_scan"}, "bike_id": "73b46a943b7fe50abf4523427e7eeec4", "type": "electric_scooter", "is_disabled": 0, "fusion_lat": 0.0, "fusion_lon": 0.0, "is_reserved": 0, "name": "73b46a943b7fe50abf4523427e7eeec4"}, {"lon": -77.04412366666666, "lat": 38.90919516666666, "rental_uris": {"ios": "https://dc.lft.to/lastmile_qr_scan", "android": "https://dc.lft.to/lastmile_qr_scan"}, "bike_id": "a3e9496836308b6a3f588100030a8f16", "type": "electric_scooter", "is_disabled": 0, "fusion_lat": 0.0, "fusion_lon": 0.0, "is_reserved": 0, "name": "a3e9496836308b6a3f588100030a8f16"}, {"lon": -77.041231, "lat": 38.91706283333333, "rental_uris": {"ios": "https://dc.lft.to/lastmile_qr_scan", "android": "https://dc.lft.to/lastmile_qr_scan"}, "bike_id": "4e824fa52b6466ed0fc8fe21e4b6a68e", "type": "electric_scooter", "is_disabled": 0, "fusion_lat": 0.0, "fusion_lon": 0.0, "is_reserved": 0, "name": "4e824fa52b6466ed0fc8fe21e4b6a68e"}, {"lon": -76.98802533333334, "lat": 38.867369333333336, "rental_uris": {"ios": "https://dc.lft.to/lastmile_qr_scan", "android": "https://dc.lft.to/lastmile_qr_scan"}, "bike_id": "165bba78bf67da48d0f5c870207d7474", "type": "electric_scooter", "is_disabled": 0, "fusion_lat": 0.0, "fusion_lon": 0.0, "is_reserved": 0, "name": "165bba78bf67da48d0f5c870207d7474"}, {"lon": -77.03596583333334, "lat": 38.93936, "rental_uris": {"ios": "https://dc.lft.to/lastmile_qr_scan", "android": "https://dc.lft.to/lastmile_qr_scan"}, "bike_id": "fc9224914a7edf1ad34fb3c1faa136bb", "type": "electric_scooter", "is_disabled": 0, "fusion_lat": 0.0, "fusion_lon": 0.0, "is_reserved": 0, "name": "fc9224914a7edf1ad34fb3c1faa136bb"}, {"lon": -76.9830485, "lat": 38.905280833333336, "rental_uris": {"ios": "https://dc.lft.to/lastmile_qr_scan", "android": "https://dc.lft.to/lastmile_qr_scan"}, "bike_id": "a61ec37169cbbc34c1cedfeb6bcf6493", "type": "electric_scooter", "is_disabled": 0, "fusion_lat": 0.0, "fusion_lon": 0.0, "is_reserved": 0, "name": "a61ec37169cbbc34c1cedfeb6bcf6493"}, {"lon": -76.981551, "lat": 38.90319616666667, "rental_uris": {"ios": "https://dc.lft.to/lastmile_qr_scan", "android": "https://dc.lft.to/lastmile_qr_scan"}, "bike_id": "9ff837e5136e0272c8eab764cc2e428c", "type": "electric_scooter", "is_disabled": 0, "fusion_lat": 0.0, "fusion_lon": 0.0, "is_reserved": 0, "name": "9ff837e5136e0272c8eab764cc2e428c"}, {"lon": -77.0793745, "lat": 38.93100833333333, "rental_uris": {"ios": "https://dc.lft.to/lastmile_qr_scan", "android": "https://dc.lft.to/lastmile_qr_scan"}, "bike_id": "4465a9dc44b9d5ed9a2965103365719c", "type": "electric_scooter", "is_disabled": 0, "fusion_lat": 0.0, "fusion_lon": 0.0, "is_reserved": 0, "name": "4465a9dc44b9d5ed9a2965103365719c"}, {"lon": -77.02481733333333, "lat": 38.92749583333333, "rental_uris": {"ios": "https://dc.lft.to/lastmile_qr_scan", "android": "https://dc.lft.to/lastmile_qr_scan"}, "bike_id": "5fa40bb906aa4a62a9eb5e2fef154c01", "type": "electric_scooter", "is_disabled": 0, "fusion_lat": 0.0, "fusion_lon": 0.0, "is_reserved": 0, "name": "5fa40bb906aa4a62a9eb5e2fef154c01"}, {"lon": -77.02273233333334, "lat": 38.92472133333333, "rental_uris": {"ios": "https://dc.lft.to/lastmile_qr_scan", "android": "https://dc.lft.to/lastmile_qr_scan"}, "bike_id": "ea42be3550506e432470f7355e8a8267", "type": "electric_scooter", "is_disabled": 0, "fusion_lat": 0.0, "fusion_lon": 0.0, "is_reserved": 0, "name": "ea42be3550506e432470f7355e8a8267"}, {"lon": -77.03028566666667, "lat": 38.932229, "rental_uris": {"ios": "https://dc.lft.to/lastmile_qr_scan", "android": "https://dc.lft.to/lastmile_qr_scan"}, "bike_id": "6489425ac48609337558d70b6e31ff26", "type": "electric_scooter", "is_disabled": 0, "fusion_lat": 0.0, "fusion_lon": 0.0, "is_reserved": 0, "name": "6489425ac48609337558d70b6e31ff26"}, {"lon": -77.03941066666667, "lat": 38.902631666666665, "rental_uris": {"ios": "https://dc.lft.to/lastmile_qr_scan", "android": "https://dc.lft.to/lastmile_qr_scan"}, "bike_id": "122bdbf1d4db45d81a77ce3030b77b97", "type": "electric_scooter", "is_disabled": 0, "fusion_lat": 0.0, "fusion_lon": 0.0, "is_reserved": 0, "name": "122bdbf1d4db45d81a77ce3030b77b97"}, {"lon": -77.03830066666667, "lat": 38.903822, "rental_uris": {"ios": "https://dc.lft.to/lastmile_qr_scan", "android": "https://dc.lft.to/lastmile_qr_scan"}, "bike_id": "512a034070cee9552628d9fcf357fe52", "type": "electric_scooter", "is_disabled": 0, "fusion_lat": 0.0, "fusion_lon": 0.0, "is_reserved": 0, "name": "512a034070cee9552628d9fcf357fe52"}, {"lon": -77.017968, "lat": 38.92135183333333, "rental_uris": {"ios": "https://dc.lft.to/lastmile_qr_scan", "android": "https://dc.lft.to/lastmile_qr_scan"}, "bike_id": "d058a673e763196e066f8d327c246609", "type": "electric_scooter", "is_disabled": 0, "fusion_lat": 0.0, "fusion_lon": 0.0, "is_reserved": 0, "name": "d058a673e763196e066f8d327c246609"}, {"lon": -76.97671033333333, "lat": 38.95243416666667, "rental_uris": {"ios": "https://dc.lft.to/lastmile_qr_scan", "android": "https://dc.lft.to/lastmile_qr_scan"}, "bike_id": "8d730b70f64a18d6a676cf020e43dff2", "type": "electric_bike", "is_disabled": 0, "fusion_lat": 0.0, "fusion_lon": 0.0, "is_reserved": 0, "name": "8d730b70f64a18d6a676cf020e43dff2"}, {"lon": -77.02285733333333, "lat": 38.87890183333333, "rental_uris": {"ios": "https://dc.lft.to/lastmile_qr_scan", "android": "https://dc.lft.to/lastmile_qr_scan"}, "bike_id": "637e48c8d2b819bcc3a0a04f6868c96d", "type": "electric_scooter", "is_disabled": 0, "fusion_lat": 0.0, "fusion_lon": 0.0, "is_reserved": 0, "name": "637e48c8d2b819bcc3a0a04f6868c96d"}, {"lon": -77.02988533333334, "lat": 38.92677233333333, "rental_uris": {"ios": "https://dc.lft.to/lastmile_qr_scan", "android": "https://dc.lft.to/lastmile_qr_scan"}, "bike_id": "eb101ad0196d189bac79f2ed7f04c977", "type": "electric_scooter", "is_disabled": 0, "fusion_lat": 0.0, "fusion_lon": 0.0, "is_reserved": 0, "name": "eb101ad0196d189bac79f2ed7f04c977"}, {"lon": -77.02550466666666, "lat": 38.941379833333336, "rental_uris": {"ios": "https://dc.lft.to/lastmile_qr_scan", "android": "https://dc.lft.to/lastmile_qr_scan"}, "bike_id": "47797fc3879798e2f4b3078630a82e39", "type": "electric_scooter", "is_disabled": 0, "fusion_lat": 0.0, "fusion_lon": 0.0, "is_reserved": 0, "name": "47797fc3879798e2f4b3078630a82e39"}, {"lon": -77.02495933333333, "lat": 38.9419605, "rental_uris": {"ios": "https://dc.lft.to/lastmile_qr_scan", "android": "https://dc.lft.to/lastmile_qr_scan"}, "bike_id": "6abdb6e0ef639b97bf7669413eb18458", "type": "electric_scooter", "is_disabled": 0, "fusion_lat": 0.0, "fusion_lon": 0.0, "is_reserved": 0, "name": "6abdb6e0ef639b97bf7669413eb18458"}, {"lon": -77.0385535, "lat": 38.916596166666665, "rental_uris": {"ios": "https://dc.lft.to/lastmile_qr_scan", "android": "https://dc.lft.to/lastmile_qr_scan"}, "bike_id": "4b01ef292fe85809e5dc99eac7b83fee", "type": "electric_scooter", "is_disabled": 0, "fusion_lat": 0.0, "fusion_lon": 0.0, "is_reserved": 0, "name": "4b01ef292fe85809e5dc99eac7b83fee"}, {"lon": -77.04053633333334, "lat": 38.91868616666667, "rental_uris": {"ios": "https://dc.lft.to/lastmile_qr_scan", "android": "https://dc.lft.to/lastmile_qr_scan"}, "bike_id": "faacef7d16d13448111819c7681c9e7d", "type": "electric_scooter", "is_disabled": 0, "fusion_lat": 0.0, "fusion_lon": 0.0, "is_reserved": 0, "name": "faacef7d16d13448111819c7681c9e7d"}, {"lon": -77.0018985, "lat": 38.894482833333335, "rental_uris": {"ios": "https://dc.lft.to/lastmile_qr_scan", "android": "https://dc.lft.to/lastmile_qr_scan"}, "bike_id": "104d8df6ab8001e903e77b63227fa840", "type": "electric_scooter", "is_disabled": 0, "fusion_lat": 0.0, "fusion_lon": 0.0, "is_reserved": 0, "name": "104d8df6ab8001e903e77b63227fa840"}, {"lon": -77.0538215, "lat": 38.89886033333333, "rental_uris": {"ios": "https://dc.lft.to/lastmile_qr_scan", "android": "https://dc.lft.to/lastmile_qr_scan"}, "bike_id": "91b4fe9ef5a611187cd8009be8106eaf", "type": "electric_scooter", "is_disabled": 0, "fusion_lat": 0.0, "fusion_lon": 0.0, "is_reserved": 0, "name": "91b4fe9ef5a611187cd8009be8106eaf"}, {"lon": -77.0325815, "lat": 38.932548833333335, "rental_uris": {"ios": "https://dc.lft.to/lastmile_qr_scan", "android": "https://dc.lft.to/lastmile_qr_scan"}, "bike_id": "1595ae7651ef507cf708052aa274344d", "type": "electric_scooter", "is_disabled": 0, "fusion_lat": 0.0, "fusion_lon": 0.0, "is_reserved": 0, "name": "1595ae7651ef507cf708052aa274344d"}, {"lon": -77.03087966666666, "lat": 38.92728366666667, "rental_uris": {"ios": "https://dc.lft.to/lastmile_qr_scan", "android": "https://dc.lft.to/lastmile_qr_scan"}, "bike_id": "1834f55c755f290ea8bb40db3654505c", "type": "electric_scooter", "is_disabled": 0, "fusion_lat": 0.0, "fusion_lon": 0.0, "is_reserved": 0, "name": "1834f55c755f290ea8bb40db3654505c"}, {"lon": -77.02382566666667, "lat": 38.919958, "rental_uris": {"ios": "https://dc.lft.to/lastmile_qr_scan", "android": "https://dc.lft.to/lastmile_qr_scan"}, "bike_id": "dbbff24dfa62de1274edaffe0288387a", "type": "electric_scooter", "is_disabled": 0, "fusion_lat": 0.0, "fusion_lon": 0.0, "is_reserved": 0, "name": "dbbff24dfa62de1274edaffe0288387a"}, {"lon": -77.0318975, "lat": 38.909767333333335, "rental_uris": {"ios": "https://dc.lft.to/lastmile_qr_scan", "android": "https://dc.lft.to/lastmile_qr_scan"}, "bike_id": "8bb02a018762993aeb6502f9c6f51c25", "type": "electric_scooter", "is_disabled": 0, "fusion_lat": 0.0, "fusion_lon": 0.0, "is_reserved": 0, "name": "8bb02a018762993aeb6502f9c6f51c25"}, {"lon": -77.025287, "lat": 38.929801833333336, "rental_uris": {"ios": "https://dc.lft.to/lastmile_qr_scan", "android": "https://dc.lft.to/lastmile_qr_scan"}, "bike_id": "d4bf6ac1f8f8fa8a2615cb442420e299", "type": "electric_scooter", "is_disabled": 0, "fusion_lat": 0.0, "fusion_lon": 0.0, "is_reserved": 0, "name": "d4bf6ac1f8f8fa8a2615cb442420e299"}, {"lon": -77.03083333333333, "lat": 38.922463, "rental_uris": {"ios": "https://dc.lft.to/lastmile_qr_scan", "android": "https://dc.lft.to/lastmile_qr_scan"}, "bike_id": "16f9237e35a61f7ec2e3f65f2ddc544a", "type": "electric_scooter", "is_disabled": 0, "fusion_lat": 0.0, "fusion_lon": 0.0, "is_reserved": 0, "name": "16f9237e35a61f7ec2e3f65f2ddc544a"}, {"lon": -77.032017, "lat": 38.899524, "rental_uris": {"ios": "https://dc.lft.to/lastmile_qr_scan", "android": "https://dc.lft.to/lastmile_qr_scan"}, "bike_id": "9c9320ec7622f563bdfd5d2e719fa143", "type": "electric_scooter", "is_disabled": 0, "fusion_lat": 0.0, "fusion_lon": 0.0, "is_reserved": 0, "name": "9c9320ec7622f563bdfd5d2e719fa143"}, {"lon": -77.02710716666667, "lat": 38.917971, "rental_uris": {"ios": "https://dc.lft.to/lastmile_qr_scan", "android": "https://dc.lft.to/lastmile_qr_scan"}, "bike_id": "4a43a8101c59ba842f49f1e6ed8b4f33", "type": "electric_scooter", "is_disabled": 0, "fusion_lat": 0.0, "fusion_lon": 0.0, "is_reserved": 0, "name": "4a43a8101c59ba842f49f1e6ed8b4f33"}, {"lon": -77.0277965, "lat": 38.95366033333333, "rental_uris": {"ios": "https://dc.lft.to/lastmile_qr_scan", "android": "https://dc.lft.to/lastmile_qr_scan"}, "bike_id": "0ae930d3ee855ad4d0212c8b87d52cf7", "type": "electric_scooter", "is_disabled": 0, "fusion_lat": 0.0, "fusion_lon": 0.0, "is_reserved": 0, "name": "0ae930d3ee855ad4d0212c8b87d52cf7"}, {"lon": -76.97328283333333, "lat": 38.90412533333333, "rental_uris": {"ios": "https://dc.lft.to/lastmile_qr_scan", "android": "https://dc.lft.to/lastmile_qr_scan"}, "bike_id": "6503909c8dff2175b09fadba6b1e0cbe", "type": "electric_scooter", "is_disabled": 0, "fusion_lat": 0.0, "fusion_lon": 0.0, "is_reserved": 0, "name": "6503909c8dff2175b09fadba6b1e0cbe"}, {"lon": -77.003862, "lat": 38.923641833333335, "rental_uris": {"ios": "https://dc.lft.to/lastmile_qr_scan", "android": "https://dc.lft.to/lastmile_qr_scan"}, "bike_id": "f925d3398a0c9e4c7bf7b52036829520", "type": "electric_scooter", "is_disabled": 0, "fusion_lat": 0.0, "fusion_lon": 0.0, "is_reserved": 0, "name": "f925d3398a0c9e4c7bf7b52036829520"}, {"lon": -77.05034833333333, "lat": 38.923752, "rental_uris": {"ios": "https://dc.lft.to/lastmile_qr_scan", "android": "https://dc.lft.to/lastmile_qr_scan"}, "bike_id": "1dd03bf85444a02a790c05873ff40a6a", "type": "electric_scooter", "is_disabled": 0, "fusion_lat": 0.0, "fusion_lon": 0.0, "is_reserved": 0, "name": "1dd03bf85444a02a790c05873ff40a6a"}, {"lon": -77.00660083333334, "lat": 38.90036083333333, "rental_uris": {"ios": "https://dc.lft.to/lastmile_qr_scan", "android": "https://dc.lft.to/lastmile_qr_scan"}, "bike_id": "92772dcb2d283c93d977c126141f56dc", "type": "electric_scooter", "is_disabled": 0, "fusion_lat": 0.0, "fusion_lon": 0.0, "is_reserved": 0, "name": "92772dcb2d283c93d977c126141f56dc"}, {"lon": -77.04866866666667, "lat": 38.90518316666667, "rental_uris": {"ios": "https://dc.lft.to/lastmile_qr_scan", "android": "https://dc.lft.to/lastmile_qr_scan"}, "bike_id": "dec75fd8b2171a824f497723e29d7ad8", "type": "electric_scooter", "is_disabled": 0, "fusion_lat": 0.0, "fusion_lon": 0.0, "is_reserved": 0, "name": "dec75fd8b2171a824f497723e29d7ad8"}, {"lon": -77.04525166666667, "lat": 38.85818066666667, "rental_uris": {"ios": "https://dc.lft.to/lastmile_qr_scan", "android": "https://dc.lft.to/lastmile_qr_scan"}, "bike_id": "57cc753c24140fc02991be8f80b9ae40", "type": "electric_bike", "is_disabled": 0, "fusion_lat": 0.0, "fusion_lon": 0.0, "is_reserved": 0, "name": "57cc753c24140fc02991be8f80b9ae40"}, {"lon": -76.9983215, "lat": 38.8831915, "rental_uris": {"ios": "https://dc.lft.to/lastmile_qr_scan", "android": "https://dc.lft.to/lastmile_qr_scan"}, "bike_id": "82f28bfea499d4de22c4d42ef8597b08", "type": "electric_scooter", "is_disabled": 0, "fusion_lat": 0.0, "fusion_lon": 0.0, "is_reserved": 0, "name": "82f28bfea499d4de22c4d42ef8597b08"}, {"lon": -77.0526605, "lat": 38.927731333333334, "rental_uris": {"ios": "https://dc.lft.to/lastmile_qr_scan", "android": "https://dc.lft.to/lastmile_qr_scan"}, "bike_id": "dd44a2e1e1c6bd9ad4f358b51dc5703d", "type": "electric_scooter", "is_disabled": 0, "fusion_lat": 0.0, "fusion_lon": 0.0, "is_reserved": 0, "name": "dd44a2e1e1c6bd9ad4f358b51dc5703d"}, {"lon": -76.944045, "lat": 38.881424, "rental_uris": {"ios": "https://dc.lft.to/lastmile_qr_scan", "android": "https://dc.lft.to/lastmile_qr_scan"}, "bike_id": "a6364ee99aa27d091cd42fb9b12103b0", "type": "electric_scooter", "is_disabled": 0, "fusion_lat": 0.0, "fusion_lon": 0.0, "is_reserved": 0, "name": "a6364ee99aa27d091cd42fb9b12103b0"}, {"lon": -77.02407, "lat": 38.93112566666667, "rental_uris": {"ios": "https://dc.lft.to/lastmile_qr_scan", "android": "https://dc.lft.to/lastmile_qr_scan"}, "bike_id": "261d68bdeaee62a12a40ef7affe68e40", "type": "electric_scooter", "is_disabled": 0, "fusion_lat": 0.0, "fusion_lon": 0.0, "is_reserved": 0, "name": "261d68bdeaee62a12a40ef7affe68e40"}, {"lon": -77.03866833333333, "lat": 38.90790716666667, "rental_uris": {"ios": "https://dc.lft.to/lastmile_qr_scan", "android": "https://dc.lft.to/lastmile_qr_scan"}, "bike_id": "c47ce9ac3dddcc5a8cb0eb6c9384eb8d", "type": "electric_scooter", "is_disabled": 0, "fusion_lat": 0.0, "fusion_lon": 0.0, "is_reserved": 0, "name": "c47ce9ac3dddcc5a8cb0eb6c9384eb8d"}, {"lon": -77.04583283333334, "lat": 38.92124716666667, "rental_uris": {"ios": "https://dc.lft.to/lastmile_qr_scan", "android": "https://dc.lft.to/lastmile_qr_scan"}, "bike_id": "9e8bc372505bda5cd0856326a60f777a", "type": "electric_scooter", "is_disabled": 0, "fusion_lat": 0.0, "fusion_lon": 0.0, "is_reserved": 0, "name": "9e8bc372505bda5cd0856326a60f777a"}, {"lon": -77.03164116666666, "lat": 38.909606, "rental_uris": {"ios": "https://dc.lft.to/lastmile_qr_scan", "android": "https://dc.lft.to/lastmile_qr_scan"}, "bike_id": "6e4362e275a9423592236361bb19cdc9", "type": "electric_scooter", "is_disabled": 0, "fusion_lat": 0.0, "fusion_lon": 0.0, "is_reserved": 0, "name": "6e4362e275a9423592236361bb19cdc9"}, {"lon": -76.99356866666666, "lat": 38.84505583333333, "rental_uris": {"ios": "https://dc.lft.to/lastmile_qr_scan", "android": "https://dc.lft.to/lastmile_qr_scan"}, "bike_id": "6e9fea95fa44ffcf698568942aeb8591", "type": "electric_bike", "is_disabled": 0, "fusion_lat": 0.0, "fusion_lon": 0.0, "is_reserved": 0, "name": "6e9fea95fa44ffcf698568942aeb8591"}, {"lon": -76.99649033333333, "lat": 38.8872125, "rental_uris": {"ios": "https://dc.lft.to/lastmile_qr_scan", "android": "https://dc.lft.to/lastmile_qr_scan"}, "bike_id": "b42311d4e38ee855b74cdc7de3d45ea5", "type": "electric_scooter", "is_disabled": 0, "fusion_lat": 0.0, "fusion_lon": 0.0, "is_reserved": 0, "name": "b42311d4e38ee855b74cdc7de3d45ea5"}, {"lon": -76.99502666666666, "lat": 38.90978366666667, "rental_uris": {"ios": "https://dc.lft.to/lastmile_qr_scan", "android": "https://dc.lft.to/lastmile_qr_scan"}, "bike_id": "2a195c666b67b780f7571a254f1b01da", "type": "electric_scooter", "is_disabled": 0, "fusion_lat": 0.0, "fusion_lon": 0.0, "is_reserved": 0, "name": "2a195c666b67b780f7571a254f1b01da"}, {"lon": -76.997893, "lat": 38.890896166666664, "rental_uris": {"ios": "https://dc.lft.to/lastmile_qr_scan", "android": "https://dc.lft.to/lastmile_qr_scan"}, "bike_id": "339642f9a4d63ca70a62394692f024d4", "type": "electric_scooter", "is_disabled": 0, "fusion_lat": 0.0, "fusion_lon": 0.0, "is_reserved": 0, "name": "339642f9a4d63ca70a62394692f024d4"}, {"lon": -77.023928, "lat": 38.89820133333333, "rental_uris": {"ios": "https://dc.lft.to/lastmile_qr_scan", "android": "https://dc.lft.to/lastmile_qr_scan"}, "bike_id": "6f67c25f5ee258f333bc7fef396404c1", "type": "electric_scooter", "is_disabled": 0, "fusion_lat": 0.0, "fusion_lon": 0.0, "is_reserved": 0, "name": "6f67c25f5ee258f333bc7fef396404c1"}, {"lon": -77.01595366666666, "lat": 38.94937266666667, "rental_uris": {"ios": "https://dc.lft.to/lastmile_qr_scan", "android": "https://dc.lft.to/lastmile_qr_scan"}, "bike_id": "dfc448c9cd22ba38572bcc66d3bff2e8", "type": "electric_scooter", "is_disabled": 0, "fusion_lat": 0.0, "fusion_lon": 0.0, "is_reserved": 0, "name": "dfc448c9cd22ba38572bcc66d3bff2e8"}, {"lon": -77.03368866666666, "lat": 38.909614166666664, "rental_uris": {"ios": "https://dc.lft.to/lastmile_qr_scan", "android": "https://dc.lft.to/lastmile_qr_scan"}, "bike_id": "3c41d6de591efa4570f74fed008a4786", "type": "electric_scooter", "is_disabled": 0, "fusion_lat": 0.0, "fusion_lon": 0.0, "is_reserved": 0, "name": "3c41d6de591efa4570f74fed008a4786"}, {"lon": -77.000515, "lat": 38.8915965, "rental_uris": {"ios": "https://dc.lft.to/lastmile_qr_scan", "android": "https://dc.lft.to/lastmile_qr_scan"}, "bike_id": "6b7d2a532811e04c4f1d0f1fbfd02b8d", "type": "electric_scooter", "is_disabled": 0, "fusion_lat": 0.0, "fusion_lon": 0.0, "is_reserved": 0, "name": "6b7d2a532811e04c4f1d0f1fbfd02b8d"}, {"lon": -77.020925, "lat": 38.921547833333335, "rental_uris": {"ios": "https://dc.lft.to/lastmile_qr_scan", "android": "https://dc.lft.to/lastmile_qr_scan"}, "bike_id": "12ef2aadfd003302395a8f036c35120b", "type": "electric_scooter", "is_disabled": 0, "fusion_lat": 0.0, "fusion_lon": 0.0, "is_reserved": 0, "name": "12ef2aadfd003302395a8f036c35120b"}, {"lon": -77.0271595, "lat": 38.9246835, "rental_uris": {"ios": "https://dc.lft.to/lastmile_qr_scan", "android": "https://dc.lft.to/lastmile_qr_scan"}, "bike_id": "086cd4b1341072e381ca155844643376", "type": "electric_scooter", "is_disabled": 0, "fusion_lat": 0.0, "fusion_lon": 0.0, "is_reserved": 0, "name": "086cd4b1341072e381ca155844643376"}, {"lon": -76.985522, "lat": 38.910301833333335, "rental_uris": {"ios": "https://dc.lft.to/lastmile_qr_scan", "android": "https://dc.lft.to/lastmile_qr_scan"}, "bike_id": "e977da20dd0fb4c5e4435237e0b64360", "type": "electric_scooter", "is_disabled": 0, "fusion_lat": 0.0, "fusion_lon": 0.0, "is_reserved": 0, "name": "e977da20dd0fb4c5e4435237e0b64360"}, {"lon": -77.05255016666666, "lat": 38.923677166666664, "rental_uris": {"ios": "https://dc.lft.to/lastmile_qr_scan", "android": "https://dc.lft.to/lastmile_qr_scan"}, "bike_id": "1d4b050a6a076628ab54e7ffb69ee9cc", "type": "electric_scooter", "is_disabled": 0, "fusion_lat": 0.0, "fusion_lon": 0.0, "is_reserved": 0, "name": "1d4b050a6a076628ab54e7ffb69ee9cc"}, {"lon": -77.03436933333333, "lat": 38.90442216666667, "rental_uris": {"ios": "https://dc.lft.to/lastmile_qr_scan", "android": "https://dc.lft.to/lastmile_qr_scan"}, "bike_id": "c548a53e465ba96119fe7f939bbfc432", "type": "electric_scooter", "is_disabled": 0, "fusion_lat": 0.0, "fusion_lon": 0.0, "is_reserved": 0, "name": "c548a53e465ba96119fe7f939bbfc432"}, {"lon": -77.00563116666666, "lat": 38.90038716666667, "rental_uris": {"ios": "https://dc.lft.to/lastmile_qr_scan", "android": "https://dc.lft.to/lastmile_qr_scan"}, "bike_id": "0af96ee73b1aba7d8c662f3fa4330da3", "type": "electric_scooter", "is_disabled": 0, "fusion_lat": 0.0, "fusion_lon": 0.0, "is_reserved": 0, "name": "0af96ee73b1aba7d8c662f3fa4330da3"}, {"lon": -77.047528, "lat": 38.92317583333333, "rental_uris": {"ios": "https://dc.lft.to/lastmile_qr_scan", "android": "https://dc.lft.to/lastmile_qr_scan"}, "bike_id": "7c19dca9efc47f12c65bf2deba543f01", "type": "electric_scooter", "is_disabled": 0, "fusion_lat": 0.0, "fusion_lon": 0.0, "is_reserved": 0, "name": "7c19dca9efc47f12c65bf2deba543f01"}, {"lon": -76.98106766666666, "lat": 38.87729066666667, "rental_uris": {"ios": "https://dc.lft.to/lastmile_qr_scan", "android": "https://dc.lft.to/lastmile_qr_scan"}, "bike_id": "4ba243c0e5d197ccbfc9b12ca9f1e6a6", "type": "electric_bike", "is_disabled": 0, "fusion_lat": 0.0, "fusion_lon": 0.0, "is_reserved": 0, "name": "4ba243c0e5d197ccbfc9b12ca9f1e6a6"}, {"lon": -77.043344, "lat": 38.905815833333335, "rental_uris": {"ios": "https://dc.lft.to/lastmile_qr_scan", "android": "https://dc.lft.to/lastmile_qr_scan"}, "bike_id": "8b1523796fda72d9c2fba147c7befcd9", "type": "electric_scooter", "is_disabled": 0, "fusion_lat": 0.0, "fusion_lon": 0.0, "is_reserved": 0, "name": "8b1523796fda72d9c2fba147c7befcd9"}, {"lon": -77.03642783333333, "lat": 38.922656333333336, "rental_uris": {"ios": "https://dc.lft.to/lastmile_qr_scan", "android": "https://dc.lft.to/lastmile_qr_scan"}, "bike_id": "e9f61401837ab4609acad55d33b92b22", "type": "electric_scooter", "is_disabled": 0, "fusion_lat": 0.0, "fusion_lon": 0.0, "is_reserved": 0, "name": "e9f61401837ab4609acad55d33b92b22"}, {"lon": -77.03212883333333, "lat": 38.91999416666667, "rental_uris": {"ios": "https://dc.lft.to/lastmile_qr_scan", "android": "https://dc.lft.to/lastmile_qr_scan"}, "bike_id": "d32dffbcd8057cc61eb06e043a492a49", "type": "electric_scooter", "is_disabled": 0, "fusion_lat": 0.0, "fusion_lon": 0.0, "is_reserved": 0, "name": "d32dffbcd8057cc61eb06e043a492a49"}, {"lon": -77.038616, "lat": 38.903742666666666, "rental_uris": {"ios": "https://dc.lft.to/lastmile_qr_scan", "android": "https://dc.lft.to/lastmile_qr_scan"}, "bike_id": "f6a6482bc288e8b2532249a7dc1ae8b1", "type": "electric_scooter", "is_disabled": 0, "fusion_lat": 0.0, "fusion_lon": 0.0, "is_reserved": 0, "name": "f6a6482bc288e8b2532249a7dc1ae8b1"}, {"lon": -77.026949, "lat": 38.9093395, "rental_uris": {"ios": "https://dc.lft.to/lastmile_qr_scan", "android": "https://dc.lft.to/lastmile_qr_scan"}, "bike_id": "271d8ef208528668f15eadeca3fce2f2", "type": "electric_scooter", "is_disabled": 0, "fusion_lat": 0.0, "fusion_lon": 0.0, "is_reserved": 0, "name": "271d8ef208528668f15eadeca3fce2f2"}, {"lon": -76.98309, "lat": 38.86887566666667, "rental_uris": {"ios": "https://dc.lft.to/lastmile_qr_scan", "android": "https://dc.lft.to/lastmile_qr_scan"}, "bike_id": "6cab344943c57d7873546d6142d84e37", "type": "electric_scooter", "is_disabled": 0, "fusion_lat": 0.0, "fusion_lon": 0.0, "is_reserved": 0, "name": "6cab344943c57d7873546d6142d84e37"}, {"lon": -77.02295066666667, "lat": 38.916732, "rental_uris": {"ios": "https://dc.lft.to/lastmile_qr_scan", "android": "https://dc.lft.to/lastmile_qr_scan"}, "bike_id": "ac6b7248b8e0d9251f6e81bc94cf2354", "type": "electric_scooter", "is_disabled": 0, "fusion_lat": 0.0, "fusion_lon": 0.0, "is_reserved": 0, "name": "ac6b7248b8e0d9251f6e81bc94cf2354"}, {"lon": -77.03220033333334, "lat": 38.915577666666664, "rental_uris": {"ios": "https://dc.lft.to/lastmile_qr_scan", "android": "https://dc.lft.to/lastmile_qr_scan"}, "bike_id": "a63497f33acc39d0d358773f087957ae", "type": "electric_scooter", "is_disabled": 0, "fusion_lat": 0.0, "fusion_lon": 0.0, "is_reserved": 0, "name": "a63497f33acc39d0d358773f087957ae"}, {"lon": -76.99777966666667, "lat": 38.8443105, "rental_uris": {"ios": "https://dc.lft.to/lastmile_qr_scan", "android": "https://dc.lft.to/lastmile_qr_scan"}, "bike_id": "5a41297a640429e012f3ff694e341853", "type": "electric_scooter", "is_disabled": 0, "fusion_lat": 0.0, "fusion_lon": 0.0, "is_reserved": 0, "name": "5a41297a640429e012f3ff694e341853"}, {"lon": -76.943731, "lat": 38.893263166666664, "rental_uris": {"ios": "https://dc.lft.to/lastmile_qr_scan", "android": "https://dc.lft.to/lastmile_qr_scan"}, "bike_id": "a7cc6a3e11cd9b96d6ad09316efa84b9", "type": "electric_scooter", "is_disabled": 0, "fusion_lat": 0.0, "fusion_lon": 0.0, "is_reserved": 0, "name": "a7cc6a3e11cd9b96d6ad09316efa84b9"}, {"lon": -76.9742525, "lat": 38.90404516666667, "rental_uris": {"ios": "https://dc.lft.to/lastmile_qr_scan", "android": "https://dc.lft.to/lastmile_qr_scan"}, "bike_id": "bbad9804969c3e31659776fbc538eba3", "type": "electric_scooter", "is_disabled": 0, "fusion_lat": 0.0, "fusion_lon": 0.0, "is_reserved": 0, "name": "bbad9804969c3e31659776fbc538eba3"}, {"lon": -77.02430216666667, "lat": 38.93716666666667, "rental_uris": {"ios": "https://dc.lft.to/lastmile_qr_scan", "android": "https://dc.lft.to/lastmile_qr_scan"}, "bike_id": "20ed58d1656220cede43312b2fb47d1f", "type": "electric_scooter", "is_disabled": 0, "fusion_lat": 0.0, "fusion_lon": 0.0, "is_reserved": 0, "name": "20ed58d1656220cede43312b2fb47d1f"}, {"lon": -77.09061466666667, "lat": 38.86256183333333, "rental_uris": {"ios": "https://dc.lft.to/lastmile_qr_scan", "android": "https://dc.lft.to/lastmile_qr_scan"}, "bike_id": "6654ca225cfb968ef5e967d65236fff8", "type": "electric_bike", "is_disabled": 0, "fusion_lat": 0.0, "fusion_lon": 0.0, "is_reserved": 0, "name": "6654ca225cfb968ef5e967d65236fff8"}, {"lon": -76.937531, "lat": 38.89046283333333, "rental_uris": {"ios": "https://dc.lft.to/lastmile_qr_scan", "android": "https://dc.lft.to/lastmile_qr_scan"}, "bike_id": "87d5144a401177e5c97cd6ddc0496803", "type": "electric_scooter", "is_disabled": 0, "fusion_lat": 0.0, "fusion_lon": 0.0, "is_reserved": 0, "name": "87d5144a401177e5c97cd6ddc0496803"}, {"lon": -76.97824666666666, "lat": 38.84369866666667, "rental_uris": {"ios": "https://dc.lft.to/lastmile_qr_scan", "android": "https://dc.lft.to/lastmile_qr_scan"}, "bike_id": "a751e147d640cf4f52572cf5b2d53155", "type": "electric_bike", "is_disabled": 0, "fusion_lat": 0.0, "fusion_lon": 0.0, "is_reserved": 0, "name": "a751e147d640cf4f52572cf5b2d53155"}, {"lon": -77.03369566666667, "lat": 38.8991395, "rental_uris": {"ios": "https://dc.lft.to/lastmile_qr_scan", "android": "https://dc.lft.to/lastmile_qr_scan"}, "bike_id": "17e4bf4244b30d33d0e0d8948c966c47", "type": "electric_scooter", "is_disabled": 0, "fusion_lat": 0.0, "fusion_lon": 0.0, "is_reserved": 0, "name": "17e4bf4244b30d33d0e0d8948c966c47"}, {"lon": -77.03174183333333, "lat": 38.919316, "rental_uris": {"ios": "https://dc.lft.to/lastmile_qr_scan", "android": "https://dc.lft.to/lastmile_qr_scan"}, "bike_id": "7c018b74f3629005ead292d86e9549c2", "type": "electric_scooter", "is_disabled": 0, "fusion_lat": 0.0, "fusion_lon": 0.0, "is_reserved": 0, "name": "7c018b74f3629005ead292d86e9549c2"}, {"lon": -77.0001135, "lat": 38.893034, "rental_uris": {"ios": "https://dc.lft.to/lastmile_qr_scan", "android": "https://dc.lft.to/lastmile_qr_scan"}, "bike_id": "53106d5f2d1d894dbbe4a0de3907ce4d", "type": "electric_scooter", "is_disabled": 0, "fusion_lat": 0.0, "fusion_lon": 0.0, "is_reserved": 0, "name": "53106d5f2d1d894dbbe4a0de3907ce4d"}, {"lon": -77.043429, "lat": 38.907316333333334, "rental_uris": {"ios": "https://dc.lft.to/lastmile_qr_scan", "android": "https://dc.lft.to/lastmile_qr_scan"}, "bike_id": "12a911e0ba371d4fb324039b1c93dc70", "type": "electric_scooter", "is_disabled": 0, "fusion_lat": 0.0, "fusion_lon": 0.0, "is_reserved": 0, "name": "12a911e0ba371d4fb324039b1c93dc70"}, {"lon": -76.98627016666667, "lat": 38.901163333333336, "rental_uris": {"ios": "https://dc.lft.to/lastmile_qr_scan", "android": "https://dc.lft.to/lastmile_qr_scan"}, "bike_id": "10c8f1d472c31488da399ca4b0abe4c1", "type": "electric_scooter", "is_disabled": 0, "fusion_lat": 0.0, "fusion_lon": 0.0, "is_reserved": 0, "name": "10c8f1d472c31488da399ca4b0abe4c1"}, {"lon": -77.0215975, "lat": 38.9141415, "rental_uris": {"ios": "https://dc.lft.to/lastmile_qr_scan", "android": "https://dc.lft.to/lastmile_qr_scan"}, "bike_id": "4ac71d07683f258b114f570b582d7743", "type": "electric_bike", "is_disabled": 0, "fusion_lat": 0.0, "fusion_lon": 0.0, "is_reserved": 0, "name": "4ac71d07683f258b114f570b582d7743"}, {"lon": -77.23335366666667, "lat": 38.87277366666667, "rental_uris": {"ios": "https://dc.lft.to/lastmile_qr_scan", "android": "https://dc.lft.to/lastmile_qr_scan"}, "bike_id": "04ffb7be29dd7828ee2321972b986d74", "type": "electric_bike", "is_disabled": 0, "fusion_lat": 0.0, "fusion_lon": 0.0, "is_reserved": 0, "name": "04ffb7be29dd7828ee2321972b986d74"}, {"lon": -77.04878833333333, "lat": 38.905547166666665, "rental_uris": {"ios": "https://dc.lft.to/lastmile_qr_scan", "android": "https://dc.lft.to/lastmile_qr_scan"}, "bike_id": "42d9b9a36e0eafbed0cb8a74c10c1312", "type": "electric_scooter", "is_disabled": 0, "fusion_lat": 0.0, "fusion_lon": 0.0, "is_reserved": 0, "name": "42d9b9a36e0eafbed0cb8a74c10c1312"}, {"lon": -77.04481033333333, "lat": 38.924224333333335, "rental_uris": {"ios": "https://dc.lft.to/lastmile_qr_scan", "android": "https://dc.lft.to/lastmile_qr_scan"}, "bike_id": "d3512c948b04293023c8984f2979fca0", "type": "electric_scooter", "is_disabled": 0, "fusion_lat": 0.0, "fusion_lon": 0.0, "is_reserved": 0, "name": "d3512c948b04293023c8984f2979fca0"}, {"lon": -77.02130766666667, "lat": 38.92410366666667, "rental_uris": {"ios": "https://dc.lft.to/lastmile_qr_scan", "android": "https://dc.lft.to/lastmile_qr_scan"}, "bike_id": "1e809726a8615cb9c4f844e8c87eae7b", "type": "electric_scooter", "is_disabled": 0, "fusion_lat": 0.0, "fusion_lon": 0.0, "is_reserved": 0, "name": "1e809726a8615cb9c4f844e8c87eae7b"}, {"lon": -77.02797533333333, "lat": 38.9191395, "rental_uris": {"ios": "https://dc.lft.to/lastmile_qr_scan", "android": "https://dc.lft.to/lastmile_qr_scan"}, "bike_id": "c69136dc86d4b63830393a2e8e8758b1", "type": "electric_scooter", "is_disabled": 0, "fusion_lat": 0.0, "fusion_lon": 0.0, "is_reserved": 0, "name": "c69136dc86d4b63830393a2e8e8758b1"}, {"lon": -77.028163, "lat": 38.916833, "rental_uris": {"ios": "https://dc.lft.to/lastmile_qr_scan", "android": "https://dc.lft.to/lastmile_qr_scan"}, "bike_id": "8a6a2ba27ab01db83b2c5d5a72b33df5", "type": "electric_scooter", "is_disabled": 0, "fusion_lat": 0.0, "fusion_lon": 0.0, "is_reserved": 0, "name": "8a6a2ba27ab01db83b2c5d5a72b33df5"}, {"lon": -76.98535266666667, "lat": 38.853674166666664, "rental_uris": {"ios": "https://dc.lft.to/lastmile_qr_scan", "android": "https://dc.lft.to/lastmile_qr_scan"}, "bike_id": "7dff4b26ba5d8a73cd262fe7d7dc4cc1", "type": "electric_scooter", "is_disabled": 0, "fusion_lat": 0.0, "fusion_lon": 0.0, "is_reserved": 0, "name": "7dff4b26ba5d8a73cd262fe7d7dc4cc1"}, {"lon": -77.031755, "lat": 38.903627166666666, "rental_uris": {"ios": "https://dc.lft.to/lastmile_qr_scan", "android": "https://dc.lft.to/lastmile_qr_scan"}, "bike_id": "390b09c64e7b8172147b3927b1b8a3fd", "type": "electric_scooter", "is_disabled": 0, "fusion_lat": 0.0, "fusion_lon": 0.0, "is_reserved": 0, "name": "390b09c64e7b8172147b3927b1b8a3fd"}, {"lon": -77.04311616666666, "lat": 38.918789833333335, "rental_uris": {"ios": "https://dc.lft.to/lastmile_qr_scan", "android": "https://dc.lft.to/lastmile_qr_scan"}, "bike_id": "d34ead7c81a0d01461b4ab33c4e5c75c", "type": "electric_scooter", "is_disabled": 0, "fusion_lat": 0.0, "fusion_lon": 0.0, "is_reserved": 0, "name": "d34ead7c81a0d01461b4ab33c4e5c75c"}, {"lon": -76.93761083333334, "lat": 38.8904575, "rental_uris": {"ios": "https://dc.lft.to/lastmile_qr_scan", "android": "https://dc.lft.to/lastmile_qr_scan"}, "bike_id": "154559f1c7727374300d08a51976f172", "type": "electric_scooter", "is_disabled": 0, "fusion_lat": 0.0, "fusion_lon": 0.0, "is_reserved": 0, "name": "154559f1c7727374300d08a51976f172"}, {"lon": -77.008911, "lat": 38.92276016666667, "rental_uris": {"ios": "https://dc.lft.to/lastmile_qr_scan", "android": "https://dc.lft.to/lastmile_qr_scan"}, "bike_id": "5c4a40ad42bb1f0396f2e5fc10194f46", "type": "electric_scooter", "is_disabled": 0, "fusion_lat": 0.0, "fusion_lon": 0.0, "is_reserved": 0, "name": "5c4a40ad42bb1f0396f2e5fc10194f46"}, {"lon": -77.028864, "lat": 38.904240333333334, "rental_uris": {"ios": "https://dc.lft.to/lastmile_qr_scan", "android": "https://dc.lft.to/lastmile_qr_scan"}, "bike_id": "1b608cabe2295e5b1a81858bbb8a86e0", "type": "electric_scooter", "is_disabled": 0, "fusion_lat": 0.0, "fusion_lon": 0.0, "is_reserved": 0, "name": "1b608cabe2295e5b1a81858bbb8a86e0"}, {"lon": -76.973011, "lat": 38.9164685, "rental_uris": {"ios": "https://dc.lft.to/lastmile_qr_scan", "android": "https://dc.lft.to/lastmile_qr_scan"}, "bike_id": "3387645cffbeb4fb6bce3f1f5f9bd8b5", "type": "electric_bike", "is_disabled": 0, "fusion_lat": 0.0, "fusion_lon": 0.0, "is_reserved": 0, "name": "3387645cffbeb4fb6bce3f1f5f9bd8b5"}, {"lon": -77.03965633333334, "lat": 38.89721316666667, "rental_uris": {"ios": "https://dc.lft.to/lastmile_qr_scan", "android": "https://dc.lft.to/lastmile_qr_scan"}, "bike_id": "e0f7250399cdbd01921d53023317abdd", "type": "electric_scooter", "is_disabled": 0, "fusion_lat": 0.0, "fusion_lon": 0.0, "is_reserved": 0, "name": "e0f7250399cdbd01921d53023317abdd"}, {"lon": -76.935515, "lat": 38.95552166666667, "rental_uris": {"ios": "https://dc.lft.to/lastmile_qr_scan", "android": "https://dc.lft.to/lastmile_qr_scan"}, "bike_id": "b579488ee19cd0491c2d70b22a28ab11", "type": "electric_bike", "is_disabled": 0, "fusion_lat": 0.0, "fusion_lon": 0.0, "is_reserved": 0, "name": "b579488ee19cd0491c2d70b22a28ab11"}, {"lon": -77.05037483333334, "lat": 38.92371116666666, "rental_uris": {"ios": "https://dc.lft.to/lastmile_qr_scan", "android": "https://dc.lft.to/lastmile_qr_scan"}, "bike_id": "1131da1773c4df968707d16d9080a5d8", "type": "electric_scooter", "is_disabled": 0, "fusion_lat": 0.0, "fusion_lon": 0.0, "is_reserved": 0, "name": "1131da1773c4df968707d16d9080a5d8"}, {"lon": -76.93197283333333, "lat": 38.898781, "rental_uris": {"ios": "https://dc.lft.to/lastmile_qr_scan", "android": "https://dc.lft.to/lastmile_qr_scan"}, "bike_id": "9ecda997240ba9100436e7cfa7e83981", "type": "electric_scooter", "is_disabled": 0, "fusion_lat": 0.0, "fusion_lon": 0.0, "is_reserved": 0, "name": "9ecda997240ba9100436e7cfa7e83981"}, {"lon": -77.03463883333333, "lat": 38.908036, "rental_uris": {"ios": "https://dc.lft.to/lastmile_qr_scan", "android": "https://dc.lft.to/lastmile_qr_scan"}, "bike_id": "1b07b8aa4d61a06102059dfaba8fcee0", "type": "electric_scooter", "is_disabled": 0, "fusion_lat": 0.0, "fusion_lon": 0.0, "is_reserved": 0, "name": "1b07b8aa4d61a06102059dfaba8fcee0"}, {"lon": -77.03803933333333, "lat": 38.92068316666666, "rental_uris": {"ios": "https://dc.lft.to/lastmile_qr_scan", "android": "https://dc.lft.to/lastmile_qr_scan"}, "bike_id": "3526818c56461dfe09a56897bf9b3e1c", "type": "electric_scooter", "is_disabled": 0, "fusion_lat": 0.0, "fusion_lon": 0.0, "is_reserved": 0, "name": "3526818c56461dfe09a56897bf9b3e1c"}, {"lon": -76.98523116666667, "lat": 38.86653466666667, "rental_uris": {"ios": "https://dc.lft.to/lastmile_qr_scan", "android": "https://dc.lft.to/lastmile_qr_scan"}, "bike_id": "0604ec09e56e0da27285a3a8a33c0953", "type": "electric_scooter", "is_disabled": 0, "fusion_lat": 0.0, "fusion_lon": 0.0, "is_reserved": 0, "name": "0604ec09e56e0da27285a3a8a33c0953"}, {"lon": -76.98562216666667, "lat": 38.9103295, "rental_uris": {"ios": "https://dc.lft.to/lastmile_qr_scan", "android": "https://dc.lft.to/lastmile_qr_scan"}, "bike_id": "c34cb113cfe9533aa75ac7a11be05d50", "type": "electric_scooter", "is_disabled": 0, "fusion_lat": 0.0, "fusion_lon": 0.0, "is_reserved": 0, "name": "c34cb113cfe9533aa75ac7a11be05d50"}, {"lon": -77.04367033333334, "lat": 38.898181666666666, "rental_uris": {"ios": "https://dc.lft.to/lastmile_qr_scan", "android": "https://dc.lft.to/lastmile_qr_scan"}, "bike_id": "708701032df0793b33dc33c9cc432fbd", "type": "electric_scooter", "is_disabled": 0, "fusion_lat": 0.0, "fusion_lon": 0.0, "is_reserved": 0, "name": "708701032df0793b33dc33c9cc432fbd"}, {"lon": -77.002432, "lat": 38.95723, "rental_uris": {"ios": "https://dc.lft.to/lastmile_qr_scan", "android": "https://dc.lft.to/lastmile_qr_scan"}, "bike_id": "40bcf4f792bf50d0f537c42cd63dcdc3", "type": "electric_scooter", "is_disabled": 0, "fusion_lat": 0.0, "fusion_lon": 0.0, "is_reserved": 0, "name": "40bcf4f792bf50d0f537c42cd63dcdc3"}, {"lon": -77.02598616666667, "lat": 38.98263433333334, "rental_uris": {"ios": "https://dc.lft.to/lastmile_qr_scan", "android": "https://dc.lft.to/lastmile_qr_scan"}, "bike_id": "15c9cd98a112ec310a5c875243189ad4", "type": "electric_scooter", "is_disabled": 0, "fusion_lat": 0.0, "fusion_lon": 0.0, "is_reserved": 0, "name": "15c9cd98a112ec310a5c875243189ad4"}, {"lon": -77.03185483333333, "lat": 38.917880333333336, "rental_uris": {"ios": "https://dc.lft.to/lastmile_qr_scan", "android": "https://dc.lft.to/lastmile_qr_scan"}, "bike_id": "6ae316922eee3e6949a6ad00601e1dd3", "type": "electric_scooter", "is_disabled": 0, "fusion_lat": 0.0, "fusion_lon": 0.0, "is_reserved": 0, "name": "6ae316922eee3e6949a6ad00601e1dd3"}, {"lon": -77.02371483333333, "lat": 38.90202, "rental_uris": {"ios": "https://dc.lft.to/lastmile_qr_scan", "android": "https://dc.lft.to/lastmile_qr_scan"}, "bike_id": "481b03346162ecce76e8fe9dd54f3f0a", "type": "electric_scooter", "is_disabled": 0, "fusion_lat": 0.0, "fusion_lon": 0.0, "is_reserved": 0, "name": "481b03346162ecce76e8fe9dd54f3f0a"}, {"lon": -77.02159466666667, "lat": 38.926052166666665, "rental_uris": {"ios": "https://dc.lft.to/lastmile_qr_scan", "android": "https://dc.lft.to/lastmile_qr_scan"}, "bike_id": "22e0e1e11be910ceb62ccc27ef416e8d", "type": "electric_scooter", "is_disabled": 0, "fusion_lat": 0.0, "fusion_lon": 0.0, "is_reserved": 0, "name": "22e0e1e11be910ceb62ccc27ef416e8d"}, {"lon": -77.01791166666666, "lat": 38.9043515, "rental_uris": {"ios": "https://dc.lft.to/lastmile_qr_scan", "android": "https://dc.lft.to/lastmile_qr_scan"}, "bike_id": "4b04a7668a481c2e0d68033e694e68a8", "type": "electric_scooter", "is_disabled": 0, "fusion_lat": 0.0, "fusion_lon": 0.0, "is_reserved": 0, "name": "4b04a7668a481c2e0d68033e694e68a8"}, {"lon": -77.02679633333334, "lat": 38.89823033333333, "rental_uris": {"ios": "https://dc.lft.to/lastmile_qr_scan", "android": "https://dc.lft.to/lastmile_qr_scan"}, "bike_id": "f29a125f4fbc0f0c2a2491eb9d346d75", "type": "electric_scooter", "is_disabled": 0, "fusion_lat": 0.0, "fusion_lon": 0.0, "is_reserved": 0, "name": "f29a125f4fbc0f0c2a2491eb9d346d75"}, {"lon": -76.9954675, "lat": 38.862587, "rental_uris": {"ios": "https://dc.lft.to/lastmile_qr_scan", "android": "https://dc.lft.to/lastmile_qr_scan"}, "bike_id": "982954c1b19a7fa5e5eae320c46d3682", "type": "electric_scooter", "is_disabled": 0, "fusion_lat": 0.0, "fusion_lon": 0.0, "is_reserved": 0, "name": "982954c1b19a7fa5e5eae320c46d3682"}, {"lon": -76.96919266666667, "lat": 38.95194633333333, "rental_uris": {"ios": "https://dc.lft.to/lastmile_qr_scan", "android": "https://dc.lft.to/lastmile_qr_scan"}, "bike_id": "1a529ae13e7e478d0304014712ee6b84", "type": "electric_bike", "is_disabled": 0, "fusion_lat": 0.0, "fusion_lon": 0.0, "is_reserved": 0, "name": "1a529ae13e7e478d0304014712ee6b84"}, {"lon": -77.0297865, "lat": 38.92195666666667, "rental_uris": {"ios": "https://dc.lft.to/lastmile_qr_scan", "android": "https://dc.lft.to/lastmile_qr_scan"}, "bike_id": "2b29ba167751f0cc407029e3b8eb5716", "type": "electric_scooter", "is_disabled": 0, "fusion_lat": 0.0, "fusion_lon": 0.0, "is_reserved": 0, "name": "2b29ba167751f0cc407029e3b8eb5716"}, {"lon": -76.990338, "lat": 38.8985105, "rental_uris": {"ios": "https://dc.lft.to/lastmile_qr_scan", "android": "https://dc.lft.to/lastmile_qr_scan"}, "bike_id": "b3968d9ae837d23685122c6bdfa642fb", "type": "electric_scooter", "is_disabled": 0, "fusion_lat": 0.0, "fusion_lon": 0.0, "is_reserved": 0, "name": "b3968d9ae837d23685122c6bdfa642fb"}, {"lon": -77.03421383333334, "lat": 38.916935, "rental_uris": {"ios": "https://dc.lft.to/lastmile_qr_scan", "android": "https://dc.lft.to/lastmile_qr_scan"}, "bike_id": "4f7c1d7f0ff169a8bed8aafe777b8e04", "type": "electric_scooter", "is_disabled": 0, "fusion_lat": 0.0, "fusion_lon": 0.0, "is_reserved": 0, "name": "4f7c1d7f0ff169a8bed8aafe777b8e04"}, {"lon": -77.024815, "lat": 38.938605833333334, "rental_uris": {"ios": "https://dc.lft.to/lastmile_qr_scan", "android": "https://dc.lft.to/lastmile_qr_scan"}, "bike_id": "8f1fc0d8e536d16496e2dde53ab5b2a9", "type": "electric_scooter", "is_disabled": 0, "fusion_lat": 0.0, "fusion_lon": 0.0, "is_reserved": 0, "name": "8f1fc0d8e536d16496e2dde53ab5b2a9"}, {"lon": -77.03826466666666, "lat": 38.906747333333335, "rental_uris": {"ios": "https://dc.lft.to/lastmile_qr_scan", "android": "https://dc.lft.to/lastmile_qr_scan"}, "bike_id": "6e4ea2cc613bb64d3a29b243a2c05b78", "type": "electric_scooter", "is_disabled": 0, "fusion_lat": 0.0, "fusion_lon": 0.0, "is_reserved": 0, "name": "6e4ea2cc613bb64d3a29b243a2c05b78"}, {"lon": -77.01879083333333, "lat": 38.91414733333333, "rental_uris": {"ios": "https://dc.lft.to/lastmile_qr_scan", "android": "https://dc.lft.to/lastmile_qr_scan"}, "bike_id": "bfbb348cf929647e83b4b34a2bc2a14c", "type": "electric_scooter", "is_disabled": 0, "fusion_lat": 0.0, "fusion_lon": 0.0, "is_reserved": 0, "name": "bfbb348cf929647e83b4b34a2bc2a14c"}, {"lon": -77.03340033333333, "lat": 38.921602166666666, "rental_uris": {"ios": "https://dc.lft.to/lastmile_qr_scan", "android": "https://dc.lft.to/lastmile_qr_scan"}, "bike_id": "895d5554f6b95aab32697c4e7f273f2f", "type": "electric_scooter", "is_disabled": 0, "fusion_lat": 0.0, "fusion_lon": 0.0, "is_reserved": 0, "name": "895d5554f6b95aab32697c4e7f273f2f"}, {"lon": -77.0336885, "lat": 38.8998975, "rental_uris": {"ios": "https://dc.lft.to/lastmile_qr_scan", "android": "https://dc.lft.to/lastmile_qr_scan"}, "bike_id": "ab4b7599d4aa1a7e525832658df35cce", "type": "electric_scooter", "is_disabled": 0, "fusion_lat": 0.0, "fusion_lon": 0.0, "is_reserved": 0, "name": "ab4b7599d4aa1a7e525832658df35cce"}, {"lon": -77.02984666666667, "lat": 38.9344675, "rental_uris": {"ios": "https://dc.lft.to/lastmile_qr_scan", "android": "https://dc.lft.to/lastmile_qr_scan"}, "bike_id": "3b785abaf76acb023c421ecd3a8a7390", "type": "electric_scooter", "is_disabled": 0, "fusion_lat": 0.0, "fusion_lon": 0.0, "is_reserved": 0, "name": "3b785abaf76acb023c421ecd3a8a7390"}, {"lon": -76.988248, "lat": 38.89077833333333, "rental_uris": {"ios": "https://dc.lft.to/lastmile_qr_scan", "android": "https://dc.lft.to/lastmile_qr_scan"}, "bike_id": "9d335f1c464739aa6571445f25a2a7c9", "type": "electric_scooter", "is_disabled": 0, "fusion_lat": 0.0, "fusion_lon": 0.0, "is_reserved": 0, "name": "9d335f1c464739aa6571445f25a2a7c9"}, {"lon": -76.9679775, "lat": 38.873386833333335, "rental_uris": {"ios": "https://dc.lft.to/lastmile_qr_scan", "android": "https://dc.lft.to/lastmile_qr_scan"}, "bike_id": "d322a70e355408e8a3ff2856a4d9581a", "type": "electric_scooter", "is_disabled": 0, "fusion_lat": 0.0, "fusion_lon": 0.0, "is_reserved": 0, "name": "d322a70e355408e8a3ff2856a4d9581a"}, {"lon": -77.05111633333334, "lat": 39.0366745, "rental_uris": {"ios": "https://dc.lft.to/lastmile_qr_scan", "android": "https://dc.lft.to/lastmile_qr_scan"}, "bike_id": "f1831c6af26a73665780d90468bd91f5", "type": "electric_bike", "is_disabled": 0, "fusion_lat": 0.0, "fusion_lon": 0.0, "is_reserved": 0, "name": "f1831c6af26a73665780d90468bd91f5"}, {"lon": -77.0229315, "lat": 38.916788833333335, "rental_uris": {"ios": "https://dc.lft.to/lastmile_qr_scan", "android": "https://dc.lft.to/lastmile_qr_scan"}, "bike_id": "d5090190bd9102dc43971aca6d14c3e1", "type": "electric_scooter", "is_disabled": 0, "fusion_lat": 0.0, "fusion_lon": 0.0, "is_reserved": 0, "name": "d5090190bd9102dc43971aca6d14c3e1"}, {"lon": -77.02880816666666, "lat": 38.912683666666666, "rental_uris": {"ios": "https://dc.lft.to/lastmile_qr_scan", "android": "https://dc.lft.to/lastmile_qr_scan"}, "bike_id": "077cf86cb9d5c9e5216aa3c118c669c3", "type": "electric_scooter", "is_disabled": 0, "fusion_lat": 0.0, "fusion_lon": 0.0, "is_reserved": 0, "name": "077cf86cb9d5c9e5216aa3c118c669c3"}, {"lon": -77.05020866666666, "lat": 38.901250166666664, "rental_uris": {"ios": "https://dc.lft.to/lastmile_qr_scan", "android": "https://dc.lft.to/lastmile_qr_scan"}, "bike_id": "b039e50b218b88c8acc973957b21cbf0", "type": "electric_scooter", "is_disabled": 0, "fusion_lat": 0.0, "fusion_lon": 0.0, "is_reserved": 0, "name": "b039e50b218b88c8acc973957b21cbf0"}, {"lon": -77.00053633333333, "lat": 38.924639166666665, "rental_uris": {"ios": "https://dc.lft.to/lastmile_qr_scan", "android": "https://dc.lft.to/lastmile_qr_scan"}, "bike_id": "e7c0eb9c28529d623171e13abbd59bf1", "type": "electric_scooter", "is_disabled": 0, "fusion_lat": 0.0, "fusion_lon": 0.0, "is_reserved": 0, "name": "e7c0eb9c28529d623171e13abbd59bf1"}, {"lon": -76.99856616666666, "lat": 38.88633633333333, "rental_uris": {"ios": "https://dc.lft.to/lastmile_qr_scan", "android": "https://dc.lft.to/lastmile_qr_scan"}, "bike_id": "40fc30d4dfb9fc9ed739ad412dfa5981", "type": "electric_scooter", "is_disabled": 0, "fusion_lat": 0.0, "fusion_lon": 0.0, "is_reserved": 0, "name": "40fc30d4dfb9fc9ed739ad412dfa5981"}, {"lon": -77.02847983333334, "lat": 38.887478333333334, "rental_uris": {"ios": "https://dc.lft.to/lastmile_qr_scan", "android": "https://dc.lft.to/lastmile_qr_scan"}, "bike_id": "cea72ebacfa4c6129cced7945975b3e4", "type": "electric_scooter", "is_disabled": 0, "fusion_lat": 0.0, "fusion_lon": 0.0, "is_reserved": 0, "name": "cea72ebacfa4c6129cced7945975b3e4"}, {"lon": -77.0388275, "lat": 38.892000333333336, "rental_uris": {"ios": "https://dc.lft.to/lastmile_qr_scan", "android": "https://dc.lft.to/lastmile_qr_scan"}, "bike_id": "842b5797da9404c811824f155c512356", "type": "electric_scooter", "is_disabled": 0, "fusion_lat": 0.0, "fusion_lon": 0.0, "is_reserved": 0, "name": "842b5797da9404c811824f155c512356"}, {"lon": -76.9981825, "lat": 38.907224666666664, "rental_uris": {"ios": "https://dc.lft.to/lastmile_qr_scan", "android": "https://dc.lft.to/lastmile_qr_scan"}, "bike_id": "92c44bc1b8527dcc84b4a25b4180a1fe", "type": "electric_scooter", "is_disabled": 0, "fusion_lat": 0.0, "fusion_lon": 0.0, "is_reserved": 0, "name": "92c44bc1b8527dcc84b4a25b4180a1fe"}, {"lon": -77.04404766666667, "lat": 38.90919433333333, "rental_uris": {"ios": "https://dc.lft.to/lastmile_qr_scan", "android": "https://dc.lft.to/lastmile_qr_scan"}, "bike_id": "02ddf5de4c3271f77e5d36e95b04b42f", "type": "electric_scooter", "is_disabled": 0, "fusion_lat": 0.0, "fusion_lon": 0.0, "is_reserved": 0, "name": "02ddf5de4c3271f77e5d36e95b04b42f"}, {"lon": -77.048677, "lat": 38.892224, "rental_uris": {"ios": "https://dc.lft.to/lastmile_qr_scan", "android": "https://dc.lft.to/lastmile_qr_scan"}, "bike_id": "addcaf1bce98a51f483971341e7e5fa4", "type": "electric_scooter", "is_disabled": 0, "fusion_lat": 0.0, "fusion_lon": 0.0, "is_reserved": 0, "name": "addcaf1bce98a51f483971341e7e5fa4"}, {"lon": -77.036462, "lat": 38.922634, "rental_uris": {"ios": "https://dc.lft.to/lastmile_qr_scan", "android": "https://dc.lft.to/lastmile_qr_scan"}, "bike_id": "8f23448ca94349f086d71a0b924dfe37", "type": "electric_scooter", "is_disabled": 0, "fusion_lat": 0.0, "fusion_lon": 0.0, "is_reserved": 0, "name": "8f23448ca94349f086d71a0b924dfe37"}, {"lon": -76.9951105, "lat": 38.88280433333333, "rental_uris": {"ios": "https://dc.lft.to/lastmile_qr_scan", "android": "https://dc.lft.to/lastmile_qr_scan"}, "bike_id": "439910405218aa57dfcca7ff3add90ae", "type": "electric_scooter", "is_disabled": 0, "fusion_lat": 0.0, "fusion_lon": 0.0, "is_reserved": 0, "name": "439910405218aa57dfcca7ff3add90ae"}, {"lon": -77.0194465, "lat": 38.924184333333336, "rental_uris": {"ios": "https://dc.lft.to/lastmile_qr_scan", "android": "https://dc.lft.to/lastmile_qr_scan"}, "bike_id": "51c7e235f482236fa9ed94039623890d", "type": "electric_bike", "is_disabled": 0, "fusion_lat": 0.0, "fusion_lon": 0.0, "is_reserved": 0, "name": "51c7e235f482236fa9ed94039623890d"}, {"lon": -77.03294416666667, "lat": 38.9095605, "rental_uris": {"ios": "https://dc.lft.to/lastmile_qr_scan", "android": "https://dc.lft.to/lastmile_qr_scan"}, "bike_id": "87093889a36cd52e4bfd5df9e57da5a4", "type": "electric_scooter", "is_disabled": 0, "fusion_lat": 0.0, "fusion_lon": 0.0, "is_reserved": 0, "name": "87093889a36cd52e4bfd5df9e57da5a4"}, {"lon": -77.02214683333334, "lat": 38.91562233333333, "rental_uris": {"ios": "https://dc.lft.to/lastmile_qr_scan", "android": "https://dc.lft.to/lastmile_qr_scan"}, "bike_id": "d5c60f4394b5eb03b0059c9d9fc13396", "type": "electric_scooter", "is_disabled": 0, "fusion_lat": 0.0, "fusion_lon": 0.0, "is_reserved": 0, "name": "d5c60f4394b5eb03b0059c9d9fc13396"}, {"lon": -77.07203066666666, "lat": 38.920987833333335, "rental_uris": {"ios": "https://dc.lft.to/lastmile_qr_scan", "android": "https://dc.lft.to/lastmile_qr_scan"}, "bike_id": "e86e4caac6ef0da372849b94e3be74d5", "type": "electric_scooter", "is_disabled": 0, "fusion_lat": 0.0, "fusion_lon": 0.0, "is_reserved": 0, "name": "e86e4caac6ef0da372849b94e3be74d5"}, {"lon": -77.022124, "lat": 38.914175, "rental_uris": {"ios": "https://dc.lft.to/lastmile_qr_scan", "android": "https://dc.lft.to/lastmile_qr_scan"}, "bike_id": "644f66f3073855194a9ebd2721003eb6", "type": "electric_scooter", "is_disabled": 0, "fusion_lat": 0.0, "fusion_lon": 0.0, "is_reserved": 0, "name": "644f66f3073855194a9ebd2721003eb6"}, {"lon": -77.0297065, "lat": 38.899896166666664, "rental_uris": {"ios": "https://dc.lft.to/lastmile_qr_scan", "android": "https://dc.lft.to/lastmile_qr_scan"}, "bike_id": "182a98a7b3f4b722f90a19e9db8cf2f4", "type": "electric_scooter", "is_disabled": 0, "fusion_lat": 0.0, "fusion_lon": 0.0, "is_reserved": 0, "name": "182a98a7b3f4b722f90a19e9db8cf2f4"}, {"lon": -77.05145233333333, "lat": 38.899474166666664, "rental_uris": {"ios": "https://dc.lft.to/lastmile_qr_scan", "android": "https://dc.lft.to/lastmile_qr_scan"}, "bike_id": "803711cb748e71239ab07d77f79d96d1", "type": "electric_scooter", "is_disabled": 0, "fusion_lat": 0.0, "fusion_lon": 0.0, "is_reserved": 0, "name": "803711cb748e71239ab07d77f79d96d1"}, {"lon": -76.92740633333334, "lat": 38.88964216666667, "rental_uris": {"ios": "https://dc.lft.to/lastmile_qr_scan", "android": "https://dc.lft.to/lastmile_qr_scan"}, "bike_id": "1cc4cf1d67bf0f2a11fba0e1336cc06c", "type": "electric_scooter", "is_disabled": 0, "fusion_lat": 0.0, "fusion_lon": 0.0, "is_reserved": 0, "name": "1cc4cf1d67bf0f2a11fba0e1336cc06c"}, {"lon": -77.05855183333334, "lat": 38.935856666666666, "rental_uris": {"ios": "https://dc.lft.to/lastmile_qr_scan", "android": "https://dc.lft.to/lastmile_qr_scan"}, "bike_id": "ad9c28435b53989e626f3b0c2b679352", "type": "electric_scooter", "is_disabled": 0, "fusion_lat": 0.0, "fusion_lon": 0.0, "is_reserved": 0, "name": "ad9c28435b53989e626f3b0c2b679352"}, {"lon": -77.04253, "lat": 38.92540483333333, "rental_uris": {"ios": "https://dc.lft.to/lastmile_qr_scan", "android": "https://dc.lft.to/lastmile_qr_scan"}, "bike_id": "0928396b275991b195f78eda473526da", "type": "electric_scooter", "is_disabled": 0, "fusion_lat": 0.0, "fusion_lon": 0.0, "is_reserved": 0, "name": "0928396b275991b195f78eda473526da"}, {"lon": -77.0194375, "lat": 38.94704933333333, "rental_uris": {"ios": "https://dc.lft.to/lastmile_qr_scan", "android": "https://dc.lft.to/lastmile_qr_scan"}, "bike_id": "2f108bf6335fe2a67dd5ecc6f7d8811e", "type": "electric_scooter", "is_disabled": 0, "fusion_lat": 0.0, "fusion_lon": 0.0, "is_reserved": 0, "name": "2f108bf6335fe2a67dd5ecc6f7d8811e"}, {"lon": -76.933494, "lat": 38.8990625, "rental_uris": {"ios": "https://dc.lft.to/lastmile_qr_scan", "android": "https://dc.lft.to/lastmile_qr_scan"}, "bike_id": "cac0d5fd434fd880116d6bd3b2973898", "type": "electric_scooter", "is_disabled": 0, "fusion_lat": 0.0, "fusion_lon": 0.0, "is_reserved": 0, "name": "cac0d5fd434fd880116d6bd3b2973898"}, {"lon": -76.98287833333333, "lat": 38.900445166666664, "rental_uris": {"ios": "https://dc.lft.to/lastmile_qr_scan", "android": "https://dc.lft.to/lastmile_qr_scan"}, "bike_id": "cc1e3e1a4236ea2abdd8407fd7106da9", "type": "electric_scooter", "is_disabled": 0, "fusion_lat": 0.0, "fusion_lon": 0.0, "is_reserved": 0, "name": "cc1e3e1a4236ea2abdd8407fd7106da9"}, {"lon": -77.02240633333334, "lat": 38.89463116666667, "rental_uris": {"ios": "https://dc.lft.to/lastmile_qr_scan", "android": "https://dc.lft.to/lastmile_qr_scan"}, "bike_id": "ff72c868873c1839bc656ef525d8da5d", "type": "electric_scooter", "is_disabled": 0, "fusion_lat": 0.0, "fusion_lon": 0.0, "is_reserved": 0, "name": "ff72c868873c1839bc656ef525d8da5d"}, {"lon": -77.0395665, "lat": 38.89244516666667, "rental_uris": {"ios": "https://dc.lft.to/lastmile_qr_scan", "android": "https://dc.lft.to/lastmile_qr_scan"}, "bike_id": "f0f92834511307c263e959daeec6fdbb", "type": "electric_scooter", "is_disabled": 0, "fusion_lat": 0.0, "fusion_lon": 0.0, "is_reserved": 0, "name": "f0f92834511307c263e959daeec6fdbb"}, {"lon": -76.9501775, "lat": 38.8938515, "rental_uris": {"ios": "https://dc.lft.to/lastmile_qr_scan", "android": "https://dc.lft.to/lastmile_qr_scan"}, "bike_id": "3ddd4521b1db3dc2b8376c09ed0b9729", "type": "electric_scooter", "is_disabled": 0, "fusion_lat": 0.0, "fusion_lon": 0.0, "is_reserved": 0, "name": "3ddd4521b1db3dc2b8376c09ed0b9729"}, {"lon": -77.0466375, "lat": 38.896322, "rental_uris": {"ios": "https://dc.lft.to/lastmile_qr_scan", "android": "https://dc.lft.to/lastmile_qr_scan"}, "bike_id": "27dbdf9c66d805a499c44f25ec5422bd", "type": "electric_scooter", "is_disabled": 0, "fusion_lat": 0.0, "fusion_lon": 0.0, "is_reserved": 0, "name": "27dbdf9c66d805a499c44f25ec5422bd"}, {"lon": -76.9487495, "lat": 38.89548466666667, "rental_uris": {"ios": "https://dc.lft.to/lastmile_qr_scan", "android": "https://dc.lft.to/lastmile_qr_scan"}, "bike_id": "6e6c6f85211b260c0622bfc26fbcb2ac", "type": "electric_scooter", "is_disabled": 0, "fusion_lat": 0.0, "fusion_lon": 0.0, "is_reserved": 0, "name": "6e6c6f85211b260c0622bfc26fbcb2ac"}, {"lon": -77.00740133333333, "lat": 38.8765765, "rental_uris": {"ios": "https://dc.lft.to/lastmile_qr_scan", "android": "https://dc.lft.to/lastmile_qr_scan"}, "bike_id": "d6263c7f4c588c8c084797a42b220118", "type": "electric_scooter", "is_disabled": 0, "fusion_lat": 0.0, "fusion_lon": 0.0, "is_reserved": 0, "name": "d6263c7f4c588c8c084797a42b220118"}, {"lon": -76.98729916666667, "lat": 38.866783166666664, "rental_uris": {"ios": "https://dc.lft.to/lastmile_qr_scan", "android": "https://dc.lft.to/lastmile_qr_scan"}, "bike_id": "019398c85c0f6ccd4a3d76ae60348647", "type": "electric_scooter", "is_disabled": 0, "fusion_lat": 0.0, "fusion_lon": 0.0, "is_reserved": 0, "name": "019398c85c0f6ccd4a3d76ae60348647"}, {"lon": -77.03864766666666, "lat": 38.945029, "rental_uris": {"ios": "https://dc.lft.to/lastmile_qr_scan", "android": "https://dc.lft.to/lastmile_qr_scan"}, "bike_id": "469180d6dcfa42d7e6d761c4eedba622", "type": "electric_scooter", "is_disabled": 0, "fusion_lat": 0.0, "fusion_lon": 0.0, "is_reserved": 0, "name": "469180d6dcfa42d7e6d761c4eedba622"}, {"lon": -76.98643066666666, "lat": 38.90161483333333, "rental_uris": {"ios": "https://dc.lft.to/lastmile_qr_scan", "android": "https://dc.lft.to/lastmile_qr_scan"}, "bike_id": "589d7812bada3b9848c9241b15eeba9d", "type": "electric_scooter", "is_disabled": 0, "fusion_lat": 0.0, "fusion_lon": 0.0, "is_reserved": 0, "name": "589d7812bada3b9848c9241b15eeba9d"}, {"lon": -76.99054966666667, "lat": 38.8635825, "rental_uris": {"ios": "https://dc.lft.to/lastmile_qr_scan", "android": "https://dc.lft.to/lastmile_qr_scan"}, "bike_id": "142f24ee757f8ec8d9e7c43f76e558d2", "type": "electric_scooter", "is_disabled": 0, "fusion_lat": 0.0, "fusion_lon": 0.0, "is_reserved": 0, "name": "142f24ee757f8ec8d9e7c43f76e558d2"}, {"lon": -77.0281155, "lat": 38.9061815, "rental_uris": {"ios": "https://dc.lft.to/lastmile_qr_scan", "android": "https://dc.lft.to/lastmile_qr_scan"}, "bike_id": "eb069c5bc8728f4f231f7407d5b7bb52", "type": "electric_scooter", "is_disabled": 0, "fusion_lat": 0.0, "fusion_lon": 0.0, "is_reserved": 0, "name": "eb069c5bc8728f4f231f7407d5b7bb52"}, {"lon": -77.0268235, "lat": 38.902288, "rental_uris": {"ios": "https://dc.lft.to/lastmile_qr_scan", "android": "https://dc.lft.to/lastmile_qr_scan"}, "bike_id": "0835f38d5f86dc2f4b0344a7419e735f", "type": "electric_scooter", "is_disabled": 0, "fusion_lat": 0.0, "fusion_lon": 0.0, "is_reserved": 0, "name": "0835f38d5f86dc2f4b0344a7419e735f"}, {"lon": -77.04191433333334, "lat": 38.9051785, "rental_uris": {"ios": "https://dc.lft.to/lastmile_qr_scan", "android": "https://dc.lft.to/lastmile_qr_scan"}, "bike_id": "027eb4578aacdec926f1899b71bb7e25", "type": "electric_scooter", "is_disabled": 0, "fusion_lat": 0.0, "fusion_lon": 0.0, "is_reserved": 0, "name": "027eb4578aacdec926f1899b71bb7e25"}, {"lon": -77.0415545, "lat": 38.91419333333333, "rental_uris": {"ios": "https://dc.lft.to/lastmile_qr_scan", "android": "https://dc.lft.to/lastmile_qr_scan"}, "bike_id": "d9098e6eae827d0fd803f196de0d3bcd", "type": "electric_scooter", "is_disabled": 0, "fusion_lat": 0.0, "fusion_lon": 0.0, "is_reserved": 0, "name": "d9098e6eae827d0fd803f196de0d3bcd"}, {"lon": -77.032993, "lat": 38.909763833333336, "rental_uris": {"ios": "https://dc.lft.to/lastmile_qr_scan", "android": "https://dc.lft.to/lastmile_qr_scan"}, "bike_id": "0e6a9f15b55ad2ddba399ce8bdb48080", "type": "electric_scooter", "is_disabled": 0, "fusion_lat": 0.0, "fusion_lon": 0.0, "is_reserved": 0, "name": "0e6a9f15b55ad2ddba399ce8bdb48080"}, {"lon": -76.98843466666666, "lat": 38.900417, "rental_uris": {"ios": "https://dc.lft.to/lastmile_qr_scan", "android": "https://dc.lft.to/lastmile_qr_scan"}, "bike_id": "eaf5a5f27b9c0e3c698b1bf224d45621", "type": "electric_scooter", "is_disabled": 0, "fusion_lat": 0.0, "fusion_lon": 0.0, "is_reserved": 0, "name": "eaf5a5f27b9c0e3c698b1bf224d45621"}, {"lon": -77.03452166666666, "lat": 38.90639866666667, "rental_uris": {"ios": "https://dc.lft.to/lastmile_qr_scan", "android": "https://dc.lft.to/lastmile_qr_scan"}, "bike_id": "34e4c039e476785167871fd5ce842c80", "type": "electric_scooter", "is_disabled": 0, "fusion_lat": 0.0, "fusion_lon": 0.0, "is_reserved": 0, "name": "34e4c039e476785167871fd5ce842c80"}, {"lon": -77.02928383333334, "lat": 38.898235166666666, "rental_uris": {"ios": "https://dc.lft.to/lastmile_qr_scan", "android": "https://dc.lft.to/lastmile_qr_scan"}, "bike_id": "a5d4927cccacf66868516c322bc2ddeb", "type": "electric_scooter", "is_disabled": 0, "fusion_lat": 0.0, "fusion_lon": 0.0, "is_reserved": 0, "name": "a5d4927cccacf66868516c322bc2ddeb"}, {"lon": -77.03991933333333, "lat": 38.925841166666665, "rental_uris": {"ios": "https://dc.lft.to/lastmile_qr_scan", "android": "https://dc.lft.to/lastmile_qr_scan"}, "bike_id": "cb688b70386cb3361610d0498a793402", "type": "electric_scooter", "is_disabled": 0, "fusion_lat": 0.0, "fusion_lon": 0.0, "is_reserved": 0, "name": "cb688b70386cb3361610d0498a793402"}, {"lon": -76.98884166666667, "lat": 38.86654983333333, "rental_uris": {"ios": "https://dc.lft.to/lastmile_qr_scan", "android": "https://dc.lft.to/lastmile_qr_scan"}, "bike_id": "62238b2d8da4b4b6f0dd478a54cb04be", "type": "electric_scooter", "is_disabled": 0, "fusion_lat": 0.0, "fusion_lon": 0.0, "is_reserved": 0, "name": "62238b2d8da4b4b6f0dd478a54cb04be"}, {"lon": -77.04479566666667, "lat": 38.903777833333336, "rental_uris": {"ios": "https://dc.lft.to/lastmile_qr_scan", "android": "https://dc.lft.to/lastmile_qr_scan"}, "bike_id": "0169ddf1690463bc878faae05d19aad9", "type": "electric_scooter", "is_disabled": 0, "fusion_lat": 0.0, "fusion_lon": 0.0, "is_reserved": 0, "name": "0169ddf1690463bc878faae05d19aad9"}, {"lon": -77.032619, "lat": 38.938934333333336, "rental_uris": {"ios": "https://dc.lft.to/lastmile_qr_scan", "android": "https://dc.lft.to/lastmile_qr_scan"}, "bike_id": "1d795770fcc5784fdc0e71bad3eb189d", "type": "electric_scooter", "is_disabled": 0, "fusion_lat": 0.0, "fusion_lon": 0.0, "is_reserved": 0, "name": "1d795770fcc5784fdc0e71bad3eb189d"}, {"lon": -77.029881, "lat": 38.97440616666667, "rental_uris": {"ios": "https://dc.lft.to/lastmile_qr_scan", "android": "https://dc.lft.to/lastmile_qr_scan"}, "bike_id": "6b6a02c76a136f8d92fef41ebe0291d6", "type": "electric_bike", "is_disabled": 0, "fusion_lat": 0.0, "fusion_lon": 0.0, "is_reserved": 0, "name": "6b6a02c76a136f8d92fef41ebe0291d6"}, {"lon": -77.02229616666666, "lat": 38.892193666666664, "rental_uris": {"ios": "https://dc.lft.to/lastmile_qr_scan", "android": "https://dc.lft.to/lastmile_qr_scan"}, "bike_id": "6bdf0d70de36c59aabe06bb01966caa9", "type": "electric_scooter", "is_disabled": 0, "fusion_lat": 0.0, "fusion_lon": 0.0, "is_reserved": 0, "name": "6bdf0d70de36c59aabe06bb01966caa9"}, {"lon": -77.0199455, "lat": 38.915698, "rental_uris": {"ios": "https://dc.lft.to/lastmile_qr_scan", "android": "https://dc.lft.to/lastmile_qr_scan"}, "bike_id": "e7f23819d1632c444ba72e6fa45e8835", "type": "electric_scooter", "is_disabled": 0, "fusion_lat": 0.0, "fusion_lon": 0.0, "is_reserved": 0, "name": "e7f23819d1632c444ba72e6fa45e8835"}, {"lon": -76.9977175, "lat": 38.92448733333333, "rental_uris": {"ios": "https://dc.lft.to/lastmile_qr_scan", "android": "https://dc.lft.to/lastmile_qr_scan"}, "bike_id": "91e9df61c38bffb214b4505700fed551", "type": "electric_scooter", "is_disabled": 0, "fusion_lat": 0.0, "fusion_lon": 0.0, "is_reserved": 0, "name": "91e9df61c38bffb214b4505700fed551"}, {"lon": -77.03871566666666, "lat": 38.89189416666667, "rental_uris": {"ios": "https://dc.lft.to/lastmile_qr_scan", "android": "https://dc.lft.to/lastmile_qr_scan"}, "bike_id": "cdec6e505f06b80034806cad8536698f", "type": "electric_scooter", "is_disabled": 0, "fusion_lat": 0.0, "fusion_lon": 0.0, "is_reserved": 0, "name": "cdec6e505f06b80034806cad8536698f"}, {"lon": -77.00339333333334, "lat": 38.89526433333333, "rental_uris": {"ios": "https://dc.lft.to/lastmile_qr_scan", "android": "https://dc.lft.to/lastmile_qr_scan"}, "bike_id": "40e36b834b67b4ff768008cf40bef77e", "type": "electric_scooter", "is_disabled": 0, "fusion_lat": 0.0, "fusion_lon": 0.0, "is_reserved": 0, "name": "40e36b834b67b4ff768008cf40bef77e"}, {"lon": -77.05130833333334, "lat": 38.90501783333333, "rental_uris": {"ios": "https://dc.lft.to/lastmile_qr_scan", "android": "https://dc.lft.to/lastmile_qr_scan"}, "bike_id": "5eb39bbbf0e61b3e4e003e9cf5498ee4", "type": "electric_scooter", "is_disabled": 0, "fusion_lat": 0.0, "fusion_lon": 0.0, "is_reserved": 0, "name": "5eb39bbbf0e61b3e4e003e9cf5498ee4"}, {"lon": -77.034915, "lat": 38.923435, "rental_uris": {"ios": "https://dc.lft.to/lastmile_qr_scan", "android": "https://dc.lft.to/lastmile_qr_scan"}, "bike_id": "1bb1fae09e8a374ddc49bee07913abfb", "type": "electric_scooter", "is_disabled": 0, "fusion_lat": 0.0, "fusion_lon": 0.0, "is_reserved": 0, "name": "1bb1fae09e8a374ddc49bee07913abfb"}, {"lon": -76.98842416666666, "lat": 38.90042666666667, "rental_uris": {"ios": "https://dc.lft.to/lastmile_qr_scan", "android": "https://dc.lft.to/lastmile_qr_scan"}, "bike_id": "ed7fc6287d6ba5efc7e3ff13b8be56ea", "type": "electric_scooter", "is_disabled": 0, "fusion_lat": 0.0, "fusion_lon": 0.0, "is_reserved": 0, "name": "ed7fc6287d6ba5efc7e3ff13b8be56ea"}, {"lon": -77.03403033333333, "lat": 38.909586, "rental_uris": {"ios": "https://dc.lft.to/lastmile_qr_scan", "android": "https://dc.lft.to/lastmile_qr_scan"}, "bike_id": "0b7d162bac53ef11aecdb7732c66a0e1", "type": "electric_scooter", "is_disabled": 0, "fusion_lat": 0.0, "fusion_lon": 0.0, "is_reserved": 0, "name": "0b7d162bac53ef11aecdb7732c66a0e1"}, {"lon": -76.977537, "lat": 38.864583, "rental_uris": {"ios": "https://dc.lft.to/lastmile_qr_scan", "android": "https://dc.lft.to/lastmile_qr_scan"}, "bike_id": "68db721d8cac47d49582a4bc379531c1", "type": "electric_bike", "is_disabled": 0, "fusion_lat": 0.0, "fusion_lon": 0.0, "is_reserved": 0, "name": "68db721d8cac47d49582a4bc379531c1"}, {"lon": -77.0387515, "lat": 38.932585, "rental_uris": {"ios": "https://dc.lft.to/lastmile_qr_scan", "android": "https://dc.lft.to/lastmile_qr_scan"}, "bike_id": "3868ac9b187065807bccbc74f9d909a9", "type": "electric_scooter", "is_disabled": 0, "fusion_lat": 0.0, "fusion_lon": 0.0, "is_reserved": 0, "name": "3868ac9b187065807bccbc74f9d909a9"}, {"lon": -77.0386695, "lat": 38.9033315, "rental_uris": {"ios": "https://dc.lft.to/lastmile_qr_scan", "android": "https://dc.lft.to/lastmile_qr_scan"}, "bike_id": "d966b2ce51b5f0494553a9775755ce8f", "type": "electric_scooter", "is_disabled": 0, "fusion_lat": 0.0, "fusion_lon": 0.0, "is_reserved": 0, "name": "d966b2ce51b5f0494553a9775755ce8f"}, {"lon": -77.00548833333333, "lat": 38.911818833333335, "rental_uris": {"ios": "https://dc.lft.to/lastmile_qr_scan", "android": "https://dc.lft.to/lastmile_qr_scan"}, "bike_id": "8e12b87023dadab847068dfef34f2823", "type": "electric_scooter", "is_disabled": 0, "fusion_lat": 0.0, "fusion_lon": 0.0, "is_reserved": 0, "name": "8e12b87023dadab847068dfef34f2823"}, {"lon": -77.0727475, "lat": 38.934866166666666, "rental_uris": {"ios": "https://dc.lft.to/lastmile_qr_scan", "android": "https://dc.lft.to/lastmile_qr_scan"}, "bike_id": "629956b72f5ff7268565a6afe9e64342", "type": "electric_scooter", "is_disabled": 0, "fusion_lat": 0.0, "fusion_lon": 0.0, "is_reserved": 0, "name": "629956b72f5ff7268565a6afe9e64342"}, {"lon": -77.01819583333334, "lat": 38.923682166666666, "rental_uris": {"ios": "https://dc.lft.to/lastmile_qr_scan", "android": "https://dc.lft.to/lastmile_qr_scan"}, "bike_id": "7db64afbadc02b47a48cefad90eef138", "type": "electric_scooter", "is_disabled": 0, "fusion_lat": 0.0, "fusion_lon": 0.0, "is_reserved": 0, "name": "7db64afbadc02b47a48cefad90eef138"}, {"lon": -77.03861216666667, "lat": 38.9066575, "rental_uris": {"ios": "https://dc.lft.to/lastmile_qr_scan", "android": "https://dc.lft.to/lastmile_qr_scan"},