{"data": {"bikes": [{"lon": -77.01914133333334, "name": "e67430cc16f4c9568b5b310b68e8580c", "is_disabled": 0, "type": "electric_scooter", "is_reserved": 0, "fusion_lon": 0.0, "lat": 38.923372666666666, "rental_uris": {"ios": "https://dc.lft.to/lastmile_qr_scan", "android": "https://dc.lft.to/lastmile_qr_scan"}, "bike_id": "e67430cc16f4c9568b5b310b68e8580c", "fusion_lat": 0.0}, {"lon": -77.05695, "name": "57a81cc7ccd27ffae9748495bfc351ab", "is_disabled": 0, "type": "electric_scooter", "is_reserved": 0, "fusion_lon": 0.0, "lat": 38.90600883333333, "rental_uris": {"ios": "https://dc.lft.to/lastmile_qr_scan", "android": "https://dc.lft.to/lastmile_qr_scan"}, "bike_id": "57a81cc7ccd27ffae9748495bfc351ab", "fusion_lat": 0.0}, {"lon": -77.026998, "name": "a627afe69d5a75c0851621582e8eaa29", "is_disabled": 0, "type": "electric_scooter", "is_reserved": 0, "fusion_lon": 0.0, "lat": 38.90569566666667, "rental_uris": {"ios": "https://dc.lft.to/lastmile_qr_scan", "android": "https://dc.lft.to/lastmile_qr_scan"}, "bike_id": "a627afe69d5a75c0851621582e8eaa29", "fusion_lat": 0.0}, {"lon": -77.032027, "name": "1b77a6f641a57402a18b7735c3e9a884", "is_disabled": 0, "type": "electric_scooter", "is_reserved": 0, "fusion_lon": 0.0, "lat": 38.9164015, "rental_uris": {"ios": "https://dc.lft.to/lastmile_qr_scan", "android": "https://dc.lft.to/lastmile_qr_scan"}, "bike_id": "1b77a6f641a57402a18b7735c3e9a884", "fusion_lat": 0.0}, {"lon": -77.02449116666666, "name": "af782c7714d2e45d258b6ef5a04c0883", "is_disabled": 0, "type": "electric_scooter", "is_reserved": 0, "fusion_lon": 0.0, "lat": 38.9071945, "rental_uris": {"ios": "https://dc.lft.to/lastmile_qr_scan", "android": "https://dc.lft.to/lastmile_qr_scan"}, "bike_id": "af782c7714d2e45d258b6ef5a04c0883", "fusion_lat": 0.0}, {"lon": -77.03165416666667, "name": "a07be20b7f37304599c5edf6542f421b", "is_disabled": 0, "type": "electric_scooter", "is_reserved": 0, "fusion_lon": 0.0, "lat": 38.892186, "rental_uris": {"ios": "https://dc.lft.to/lastmile_qr_scan", "android": "https://dc.lft.to/lastmile_qr_scan"}, "bike_id": "a07be20b7f37304599c5edf6542f421b", "fusion_lat": 0.0}, {"lon": -77.0415425, "name": "30f5e60b2872b5df0e62c564c70a550e", "is_disabled": 0, "type": "electric_scooter", "is_reserved": 0, "fusion_lon": 0.0, "lat": 38.918095, "rental_uris": {"ios": "https://dc.lft.to/lastmile_qr_scan", "android": "https://dc.lft.to/lastmile_qr_scan"}, "bike_id": "30f5e60b2872b5df0e62c564c70a550e", "fusion_lat": 0.0}, {"lon": -76.98794766666667, "name": "34168001e82c8f6aca7703bc0a004bb9", "is_disabled": 0, "type": "electric_bike", "is_reserved": 0, "fusion_lon": 0.0, "lat": 38.844655833333334, "rental_uris": {"ios": "https://dc.lft.to/lastmile_qr_scan", "android": "https://dc.lft.to/lastmile_qr_scan"}, "bike_id": "34168001e82c8f6aca7703bc0a004bb9", "fusion_lat": 0.0}, {"lon": -77.04887366666667, "name": "ccbfebf8a383e8bcf982e9aa0b00b9f2", "is_disabled": 0, "type": "electric_scooter", "is_reserved": 0, "fusion_lon": 0.0, "lat": 38.900204, "rental_uris": {"ios": "https://dc.lft.to/lastmile_qr_scan", "android": "https://dc.lft.to/lastmile_qr_scan"}, "bike_id": "ccbfebf8a383e8bcf982e9aa0b00b9f2", "fusion_lat": 0.0}, {"lon": -77.00917416666667, "name": "e0d51e58d7a94659817b1bd9ae846555", "is_disabled": 0, "type": "electric_scooter", "is_reserved": 0, "fusion_lon": 0.0, "lat": 38.92339033333333, "rental_uris": {"ios": "https://dc.lft.to/lastmile_qr_scan", "android": "https://dc.lft.to/lastmile_qr_scan"}, "bike_id": "e0d51e58d7a94659817b1bd9ae846555", "fusion_lat": 0.0}, {"lon": -77.024283, "name": "49f389e1a2d8de9e7efc1b3e5626cdc0", "is_disabled": 0, "type": "electric_scooter", "is_reserved": 0, "fusion_lon": 0.0, "lat": 38.933607333333335, "rental_uris": {"ios": "https://dc.lft.to/lastmile_qr_scan", "android": "https://dc.lft.to/lastmile_qr_scan"}, "bike_id": "49f389e1a2d8de9e7efc1b3e5626cdc0", "fusion_lat": 0.0}, {"lon": -77.06405866666667, "name": "5f85930f674fd337bf92d8ccc3150343", "is_disabled": 0, "type": "electric_scooter", "is_reserved": 0, "fusion_lon": 0.0, "lat": 38.944384166666666, "rental_uris": {"ios": "https://dc.lft.to/lastmile_qr_scan", "android": "https://dc.lft.to/lastmile_qr_scan"}, "bike_id": "5f85930f674fd337bf92d8ccc3150343", "fusion_lat": 0.0}, {"lon": -77.029745, "name": "083c635f8a7e666c8776fbfaed4d5236", "is_disabled": 0, "type": "electric_scooter", "is_reserved": 0, "fusion_lon": 0.0, "lat": 38.916844833333336, "rental_uris": {"ios": "https://dc.lft.to/lastmile_qr_scan", "android": "https://dc.lft.to/lastmile_qr_scan"}, "bike_id": "083c635f8a7e666c8776fbfaed4d5236", "fusion_lat": 0.0}, {"lon": -77.040095, "name": "7dca50638a5f47f501e6be5745ff95a4", "is_disabled": 0, "type": "electric_scooter", "is_reserved": 0, "fusion_lon": 0.0, "lat": 38.902720333333335, "rental_uris": {"ios": "https://dc.lft.to/lastmile_qr_scan", "android": "https://dc.lft.to/lastmile_qr_scan"}, "bike_id": "7dca50638a5f47f501e6be5745ff95a4", "fusion_lat": 0.0}, {"lon": -77.03412616666667, "name": "f5030771d272b341fd91f5bb25f8569e", "is_disabled": 0, "type": "electric_scooter", "is_reserved": 0, "fusion_lon": 0.0, "lat": 38.919303166666666, "rental_uris": {"ios": "https://dc.lft.to/lastmile_qr_scan", "android": "https://dc.lft.to/lastmile_qr_scan"}, "bike_id": "f5030771d272b341fd91f5bb25f8569e", "fusion_lat": 0.0}, {"lon": -77.0094815, "name": "4fa2d3b9a488593612e4ca02094fa9aa", "is_disabled": 0, "type": "electric_scooter", "is_reserved": 0, "fusion_lon": 0.0, "lat": 38.91564233333333, "rental_uris": {"ios": "https://dc.lft.to/lastmile_qr_scan", "android": "https://dc.lft.to/lastmile_qr_scan"}, "bike_id": "4fa2d3b9a488593612e4ca02094fa9aa", "fusion_lat": 0.0}, {"lon": -77.0022145, "name": "2f49b9fd0fd2c44cfb861def8bb3c00e", "is_disabled": 0, "type": "electric_scooter", "is_reserved": 0, "fusion_lon": 0.0, "lat": 38.901803, "rental_uris": {"ios": "https://dc.lft.to/lastmile_qr_scan", "android": "https://dc.lft.to/lastmile_qr_scan"}, "bike_id": "2f49b9fd0fd2c44cfb861def8bb3c00e", "fusion_lat": 0.0}, {"lon": -77.0474255, "name": "063e3dff4c75c05aaefa21c4f032b6b4", "is_disabled": 0, "type": "electric_scooter", "is_reserved": 0, "fusion_lon": 0.0, "lat": 38.90066216666666, "rental_uris": {"ios": "https://dc.lft.to/lastmile_qr_scan", "android": "https://dc.lft.to/lastmile_qr_scan"}, "bike_id": "063e3dff4c75c05aaefa21c4f032b6b4", "fusion_lat": 0.0}, {"lon": -77.02862233333333, "name": "7f787a3ed6736cbdc06d52053dfcea3b", "is_disabled": 0, "type": "electric_scooter", "is_reserved": 0, "fusion_lon": 0.0, "lat": 38.88876283333333, "rental_uris": {"ios": "https://dc.lft.to/lastmile_qr_scan", "android": "https://dc.lft.to/lastmile_qr_scan"}, "bike_id": "7f787a3ed6736cbdc06d52053dfcea3b", "fusion_lat": 0.0}, {"lon": -77.04378633333333, "name": "b618478ebdb7dc0919157682cad051e6", "is_disabled": 0, "type": "electric_scooter", "is_reserved": 0, "fusion_lon": 0.0, "lat": 38.901465333333334, "rental_uris": {"ios": "https://dc.lft.to/lastmile_qr_scan", "android": "https://dc.lft.to/lastmile_qr_scan"}, "bike_id": "b618478ebdb7dc0919157682cad051e6", "fusion_lat": 0.0}, {"lon": -77.03924666666667, "name": "86457d6ee8da80ec12996933d632852c", "is_disabled": 0, "type": "electric_scooter", "is_reserved": 0, "fusion_lon": 0.0, "lat": 38.899097833333336, "rental_uris": {"ios": "https://dc.lft.to/lastmile_qr_scan", "android": "https://dc.lft.to/lastmile_qr_scan"}, "bike_id": "86457d6ee8da80ec12996933d632852c", "fusion_lat": 0.0}, {"lon": -77.02970583333334, "name": "00c64f64e7c710e4024fa33dad58d4c6", "is_disabled": 0, "type": "electric_scooter", "is_reserved": 0, "fusion_lon": 0.0, "lat": 38.9168025, "rental_uris": {"ios": "https://dc.lft.to/lastmile_qr_scan", "android": "https://dc.lft.to/lastmile_qr_scan"}, "bike_id": "00c64f64e7c710e4024fa33dad58d4c6", "fusion_lat": 0.0}, {"lon": -77.0651845, "name": "d13f25773e93e216b5d758b0839b0dc7", "is_disabled": 0, "type": "electric_scooter", "is_reserved": 0, "fusion_lon": 0.0, "lat": 38.90393133333333, "rental_uris": {"ios": "https://dc.lft.to/lastmile_qr_scan", "android": "https://dc.lft.to/lastmile_qr_scan"}, "bike_id": "d13f25773e93e216b5d758b0839b0dc7", "fusion_lat": 0.0}, {"lon": -77.018571, "name": "fbe696da46e4eb16c6b3f2c8fba16be5", "is_disabled": 0, "type": "electric_scooter", "is_reserved": 0, "fusion_lon": 0.0, "lat": 38.941897833333336, "rental_uris": {"ios": "https://dc.lft.to/lastmile_qr_scan", "android": "https://dc.lft.to/lastmile_qr_scan"}, "bike_id": "fbe696da46e4eb16c6b3f2c8fba16be5", "fusion_lat": 0.0}, {"lon": -77.02185133333333, "name": "99a9c96fa6e4f8b15d962697d3eaab07", "is_disabled": 0, "type": "electric_scooter", "is_reserved": 0, "fusion_lon": 0.0, "lat": 38.906946, "rental_uris": {"ios": "https://dc.lft.to/lastmile_qr_scan", "android": "https://dc.lft.to/lastmile_qr_scan"}, "bike_id": "99a9c96fa6e4f8b15d962697d3eaab07", "fusion_lat": 0.0}, {"lon": -77.008768, "name": "0b4cb2f8ed9c56b05c59991a3f01ff8a", "is_disabled": 0, "type": "electric_scooter", "is_reserved": 0, "fusion_lon": 0.0, "lat": 38.9071585, "rental_uris": {"ios": "https://dc.lft.to/lastmile_qr_scan", "android": "https://dc.lft.to/lastmile_qr_scan"}, "bike_id": "0b4cb2f8ed9c56b05c59991a3f01ff8a", "fusion_lat": 0.0}, {"lon": -77.033691, "name": "7d51bca5c7863f86a9a2527857a813cf", "is_disabled": 0, "type": "electric_scooter", "is_reserved": 0, "fusion_lon": 0.0, "lat": 38.937699333333335, "rental_uris": {"ios": "https://dc.lft.to/lastmile_qr_scan", "android": "https://dc.lft.to/lastmile_qr_scan"}, "bike_id": "7d51bca5c7863f86a9a2527857a813cf", "fusion_lat": 0.0}, {"lon": -77.021081, "name": "e0e153d5e7a0a6508d4648b272d865b6", "is_disabled": 0, "type": "electric_scooter", "is_reserved": 0, "fusion_lon": 0.0, "lat": 38.9060045, "rental_uris": {"ios": "https://dc.lft.to/lastmile_qr_scan", "android": "https://dc.lft.to/lastmile_qr_scan"}, "bike_id": "e0e153d5e7a0a6508d4648b272d865b6", "fusion_lat": 0.0}, {"lon": -77.03870933333333, "name": "c1233ee81550a1bf46f6e6daca69db0e", "is_disabled": 0, "type": "electric_scooter", "is_reserved": 0, "fusion_lon": 0.0, "lat": 38.91266816666667, "rental_uris": {"ios": "https://dc.lft.to/lastmile_qr_scan", "android": "https://dc.lft.to/lastmile_qr_scan"}, "bike_id": "c1233ee81550a1bf46f6e6daca69db0e", "fusion_lat": 0.0}, {"lon": -77.032079, "name": "cee6e6d487e7efa9813ab57abe14f0d9", "is_disabled": 0, "type": "electric_scooter", "is_reserved": 0, "fusion_lon": 0.0, "lat": 38.9133915, "rental_uris": {"ios": "https://dc.lft.to/lastmile_qr_scan", "android": "https://dc.lft.to/lastmile_qr_scan"}, "bike_id": "cee6e6d487e7efa9813ab57abe14f0d9", "fusion_lat": 0.0}, {"lon": -77.03348766666667, "name": "39f641e7991271afa2912c4414fcaf96", "is_disabled": 0, "type": "electric_scooter", "is_reserved": 0, "fusion_lon": 0.0, "lat": 38.8847785, "rental_uris": {"ios": "https://dc.lft.to/lastmile_qr_scan", "android": "https://dc.lft.to/lastmile_qr_scan"}, "bike_id": "39f641e7991271afa2912c4414fcaf96", "fusion_lat": 0.0}, {"lon": -77.0659675, "name": "a499f68743bb8085f59659a995d63621", "is_disabled": 0, "type": "electric_scooter", "is_reserved": 0, "fusion_lon": 0.0, "lat": 38.912173833333334, "rental_uris": {"ios": "https://dc.lft.to/lastmile_qr_scan", "android": "https://dc.lft.to/lastmile_qr_scan"}, "bike_id": "a499f68743bb8085f59659a995d63621", "fusion_lat": 0.0}, {"lon": -77.04081566666666, "name": "dc1a5a92852d6f67fbbdab06f76822a0", "is_disabled": 0, "type": "electric_scooter", "is_reserved": 0, "fusion_lon": 0.0, "lat": 38.905621833333335, "rental_uris": {"ios": "https://dc.lft.to/lastmile_qr_scan", "android": "https://dc.lft.to/lastmile_qr_scan"}, "bike_id": "dc1a5a92852d6f67fbbdab06f76822a0", "fusion_lat": 0.0}, {"lon": -77.05752766666667, "name": "69d90a6451d77fc41ef1d65461120d61", "is_disabled": 0, "type": "electric_scooter", "is_reserved": 0, "fusion_lon": 0.0, "lat": 38.9286915, "rental_uris": {"ios": "https://dc.lft.to/lastmile_qr_scan", "android": "https://dc.lft.to/lastmile_qr_scan"}, "bike_id": "69d90a6451d77fc41ef1d65461120d61", "fusion_lat": 0.0}, {"lon": -77.07097833333333, "name": "6046f06db7903bf8f84e7182b8bd70fa", "is_disabled": 0, "type": "electric_scooter", "is_reserved": 0, "fusion_lon": 0.0, "lat": 38.90860216666667, "rental_uris": {"ios": "https://dc.lft.to/lastmile_qr_scan", "android": "https://dc.lft.to/lastmile_qr_scan"}, "bike_id": "6046f06db7903bf8f84e7182b8bd70fa", "fusion_lat": 0.0}, {"lon": -77.04124166666666, "name": "3739925063df4dd4269b992a17dd871c", "is_disabled": 0, "type": "electric_scooter", "is_reserved": 0, "fusion_lon": 0.0, "lat": 38.921875, "rental_uris": {"ios": "https://dc.lft.to/lastmile_qr_scan", "android": "https://dc.lft.to/lastmile_qr_scan"}, "bike_id": "3739925063df4dd4269b992a17dd871c", "fusion_lat": 0.0}, {"lon": -77.0408315, "name": "839a6d63765664a781ad60f83cfad55f", "is_disabled": 0, "type": "electric_scooter", "is_reserved": 0, "fusion_lon": 0.0, "lat": 38.897188, "rental_uris": {"ios": "https://dc.lft.to/lastmile_qr_scan", "android": "https://dc.lft.to/lastmile_qr_scan"}, "bike_id": "839a6d63765664a781ad60f83cfad55f", "fusion_lat": 0.0}, {"lon": -77.01014283333333, "name": "80bb946fd5a59934ecfa30f1f4bcd6f8", "is_disabled": 0, "type": "electric_scooter", "is_reserved": 0, "fusion_lon": 0.0, "lat": 38.9140775, "rental_uris": {"ios": "https://dc.lft.to/lastmile_qr_scan", "android": "https://dc.lft.to/lastmile_qr_scan"}, "bike_id": "80bb946fd5a59934ecfa30f1f4bcd6f8", "fusion_lat": 0.0}, {"lon": -77.01770166666667, "name": "fb748838b1f1f98840ecc0c31f4b960e", "is_disabled": 0, "type": "electric_scooter", "is_reserved": 0, "fusion_lon": 0.0, "lat": 38.881359333333336, "rental_uris": {"ios": "https://dc.lft.to/lastmile_qr_scan", "android": "https://dc.lft.to/lastmile_qr_scan"}, "bike_id": "fb748838b1f1f98840ecc0c31f4b960e", "fusion_lat": 0.0}, {"lon": -77.05763366666666, "name": "b22490c2e01f9e289b22fdf74a252bff", "is_disabled": 0, "type": "electric_scooter", "is_reserved": 0, "fusion_lon": 0.0, "lat": 38.9248615, "rental_uris": {"ios": "https://dc.lft.to/lastmile_qr_scan", "android": "https://dc.lft.to/lastmile_qr_scan"}, "bike_id": "b22490c2e01f9e289b22fdf74a252bff", "fusion_lat": 0.0}, {"lon": -77.03665366666667, "name": "fff1e52dc54776c013d2a6fd5d988adc", "is_disabled": 0, "type": "electric_scooter", "is_reserved": 0, "fusion_lon": 0.0, "lat": 38.922392333333335, "rental_uris": {"ios": "https://dc.lft.to/lastmile_qr_scan", "android": "https://dc.lft.to/lastmile_qr_scan"}, "bike_id": "fff1e52dc54776c013d2a6fd5d988adc", "fusion_lat": 0.0}, {"lon": -77.02257566666667, "name": "51e8edef14d092ff920ffbc4a56cebfd", "is_disabled": 0, "type": "electric_scooter", "is_reserved": 0, "fusion_lon": 0.0, "lat": 38.89746816666667, "rental_uris": {"ios": "https://dc.lft.to/lastmile_qr_scan", "android": "https://dc.lft.to/lastmile_qr_scan"}, "bike_id": "51e8edef14d092ff920ffbc4a56cebfd", "fusion_lat": 0.0}, {"lon": -77.0231355, "name": "c74599d48dc4da038fa4ffbb33f8282f", "is_disabled": 0, "type": "electric_scooter", "is_reserved": 0, "fusion_lon": 0.0, "lat": 38.9078405, "rental_uris": {"ios": "https://dc.lft.to/lastmile_qr_scan", "android": "https://dc.lft.to/lastmile_qr_scan"}, "bike_id": "c74599d48dc4da038fa4ffbb33f8282f", "fusion_lat": 0.0}, {"lon": -76.9339, "name": "de8328e27f133920e557e3e09dc85e69", "is_disabled": 0, "type": "electric_scooter", "is_reserved": 0, "fusion_lon": 0.0, "lat": 38.89908616666666, "rental_uris": {"ios": "https://dc.lft.to/lastmile_qr_scan", "android": "https://dc.lft.to/lastmile_qr_scan"}, "bike_id": "de8328e27f133920e557e3e09dc85e69", "fusion_lat": 0.0}, {"lon": -77.01814116666667, "name": "e0e6cf273182f02072d208e241ca7d19", "is_disabled": 0, "type": "electric_scooter", "is_reserved": 0, "fusion_lon": 0.0, "lat": 38.97388816666667, "rental_uris": {"ios": "https://dc.lft.to/lastmile_qr_scan", "android": "https://dc.lft.to/lastmile_qr_scan"}, "bike_id": "e0e6cf273182f02072d208e241ca7d19", "fusion_lat": 0.0}, {"lon": -77.02256783333333, "name": "ef6b7c34149fce729aade38cb7c14b2f", "is_disabled": 0, "type": "electric_scooter", "is_reserved": 0, "fusion_lon": 0.0, "lat": 38.8788315, "rental_uris": {"ios": "https://dc.lft.to/lastmile_qr_scan", "android": "https://dc.lft.to/lastmile_qr_scan"}, "bike_id": "ef6b7c34149fce729aade38cb7c14b2f", "fusion_lat": 0.0}, {"lon": -77.04699533333333, "name": "f22e426d268841dcc9f823073ec9186a", "is_disabled": 0, "type": "electric_scooter", "is_reserved": 0, "fusion_lon": 0.0, "lat": 38.9210415, "rental_uris": {"ios": "https://dc.lft.to/lastmile_qr_scan", "android": "https://dc.lft.to/lastmile_qr_scan"}, "bike_id": "f22e426d268841dcc9f823073ec9186a", "fusion_lat": 0.0}, {"lon": -77.04459816666666, "name": "d67b9f6ceabebb41ac33f2ffe63a9c20", "is_disabled": 0, "type": "electric_scooter", "is_reserved": 0, "fusion_lon": 0.0, "lat": 38.912622999999996, "rental_uris": {"ios": "https://dc.lft.to/lastmile_qr_scan", "android": "https://dc.lft.to/lastmile_qr_scan"}, "bike_id": "d67b9f6ceabebb41ac33f2ffe63a9c20", "fusion_lat": 0.0}, {"lon": -77.02612383333333, "name": "de8b6e0f8381c45a81637006b55ada1b", "is_disabled": 0, "type": "electric_scooter", "is_reserved": 0, "fusion_lon": 0.0, "lat": 38.920274, "rental_uris": {"ios": "https://dc.lft.to/lastmile_qr_scan", "android": "https://dc.lft.to/lastmile_qr_scan"}, "bike_id": "de8b6e0f8381c45a81637006b55ada1b", "fusion_lat": 0.0}, {"lon": -77.063608, "name": "aedac5de7ff3ed31279d8e7f9c2ee282", "is_disabled": 0, "type": "electric_scooter", "is_reserved": 0, "fusion_lon": 0.0, "lat": 38.906795833333334, "rental_uris": {"ios": "https://dc.lft.to/lastmile_qr_scan", "android": "https://dc.lft.to/lastmile_qr_scan"}, "bike_id": "aedac5de7ff3ed31279d8e7f9c2ee282", "fusion_lat": 0.0}, {"lon": -77.02671566666666, "name": "0773a879d977c2b1eb92ac9524c61cba", "is_disabled": 0, "type": "electric_scooter", "is_reserved": 0, "fusion_lon": 0.0, "lat": 38.89716766666667, "rental_uris": {"ios": "https://dc.lft.to/lastmile_qr_scan", "android": "https://dc.lft.to/lastmile_qr_scan"}, "bike_id": "0773a879d977c2b1eb92ac9524c61cba", "fusion_lat": 0.0}, {"lon": -76.93390683333334, "name": "185b9c272797963a13489a592dbd5c2f", "is_disabled": 0, "type": "electric_scooter", "is_reserved": 0, "fusion_lon": 0.0, "lat": 38.89911333333333, "rental_uris": {"ios": "https://dc.lft.to/lastmile_qr_scan", "android": "https://dc.lft.to/lastmile_qr_scan"}, "bike_id": "185b9c272797963a13489a592dbd5c2f", "fusion_lat": 0.0}, {"lon": -77.00169966666667, "name": "0561b50e79f4dd9444d30a61dde8e616", "is_disabled": 0, "type": "electric_scooter", "is_reserved": 0, "fusion_lon": 0.0, "lat": 38.89448933333333, "rental_uris": {"ios": "https://dc.lft.to/lastmile_qr_scan", "android": "https://dc.lft.to/lastmile_qr_scan"}, "bike_id": "0561b50e79f4dd9444d30a61dde8e616", "fusion_lat": 0.0}, {"lon": -77.04166233333333, "name": "41fca35ca690310adef6eec4a02bf56e", "is_disabled": 0, "type": "electric_scooter", "is_reserved": 0, "fusion_lon": 0.0, "lat": 38.917413833333335, "rental_uris": {"ios": "https://dc.lft.to/lastmile_qr_scan", "android": "https://dc.lft.to/lastmile_qr_scan"}, "bike_id": "41fca35ca690310adef6eec4a02bf56e", "fusion_lat": 0.0}, {"lon": -77.04164766666666, "name": "5973358640e85e828acf006b68ff94fc", "is_disabled": 0, "type": "electric_scooter", "is_reserved": 0, "fusion_lon": 0.0, "lat": 38.897454, "rental_uris": {"ios": "https://dc.lft.to/lastmile_qr_scan", "android": "https://dc.lft.to/lastmile_qr_scan"}, "bike_id": "5973358640e85e828acf006b68ff94fc", "fusion_lat": 0.0}, {"lon": -76.97754966666666, "name": "1327f1236d3cbfb056a0a6b124f6468c", "is_disabled": 0, "type": "electric_scooter", "is_reserved": 0, "fusion_lon": 0.0, "lat": 38.87141066666667, "rental_uris": {"ios": "https://dc.lft.to/lastmile_qr_scan", "android": "https://dc.lft.to/lastmile_qr_scan"}, "bike_id": "1327f1236d3cbfb056a0a6b124f6468c", "fusion_lat": 0.0}, {"lon": -77.009231, "name": "e9d1f7519d433a00b2544b0a82fe5167", "is_disabled": 0, "type": "electric_scooter", "is_reserved": 0, "fusion_lon": 0.0, "lat": 38.91347716666667, "rental_uris": {"ios": "https://dc.lft.to/lastmile_qr_scan", "android": "https://dc.lft.to/lastmile_qr_scan"}, "bike_id": "e9d1f7519d433a00b2544b0a82fe5167", "fusion_lat": 0.0}, {"lon": -76.98056016666666, "name": "5d871610544a3622ea9193d5df3cbb97", "is_disabled": 0, "type": "electric_scooter", "is_reserved": 0, "fusion_lon": 0.0, "lat": 38.88531166666667, "rental_uris": {"ios": "https://dc.lft.to/lastmile_qr_scan", "android": "https://dc.lft.to/lastmile_qr_scan"}, "bike_id": "5d871610544a3622ea9193d5df3cbb97", "fusion_lat": 0.0}, {"lon": -77.0243415, "name": "bc09ca11fd41a109e96ddad8ec799133", "is_disabled": 0, "type": "electric_scooter", "is_reserved": 0, "fusion_lon": 0.0, "lat": 38.91890566666667, "rental_uris": {"ios": "https://dc.lft.to/lastmile_qr_scan", "android": "https://dc.lft.to/lastmile_qr_scan"}, "bike_id": "bc09ca11fd41a109e96ddad8ec799133", "fusion_lat": 0.0}, {"lon": -77.00206316666667, "name": "14431accc55a2fb9b5b6d00afa4f2efa", "is_disabled": 0, "type": "electric_scooter", "is_reserved": 0, "fusion_lon": 0.0, "lat": 38.8765675, "rental_uris": {"ios": "https://dc.lft.to/lastmile_qr_scan", "android": "https://dc.lft.to/lastmile_qr_scan"}, "bike_id": "14431accc55a2fb9b5b6d00afa4f2efa", "fusion_lat": 0.0}, {"lon": -77.02244283333333, "name": "f1653e1b660bd97d4a9be835edac03d5", "is_disabled": 0, "type": "electric_scooter", "is_reserved": 0, "fusion_lon": 0.0, "lat": 38.924575, "rental_uris": {"ios": "https://dc.lft.to/lastmile_qr_scan", "android": "https://dc.lft.to/lastmile_qr_scan"}, "bike_id": "f1653e1b660bd97d4a9be835edac03d5", "fusion_lat": 0.0}, {"lon": -77.02524983333333, "name": "474053a4fa30c8932a267a02c3633a25", "is_disabled": 0, "type": "electric_scooter", "is_reserved": 0, "fusion_lon": 0.0, "lat": 38.92079916666667, "rental_uris": {"ios": "https://dc.lft.to/lastmile_qr_scan", "android": "https://dc.lft.to/lastmile_qr_scan"}, "bike_id": "474053a4fa30c8932a267a02c3633a25", "fusion_lat": 0.0}, {"lon": -77.022101, "name": "bb769736bb4d83c398576cf21988e5d4", "is_disabled": 0, "type": "electric_scooter", "is_reserved": 0, "fusion_lon": 0.0, "lat": 38.89419216666667, "rental_uris": {"ios": "https://dc.lft.to/lastmile_qr_scan", "android": "https://dc.lft.to/lastmile_qr_scan"}, "bike_id": "bb769736bb4d83c398576cf21988e5d4", "fusion_lat": 0.0}, {"lon": -76.90189983333333, "name": "888c39ec95da6fcf6a906c6514aaafc5", "is_disabled": 0, "type": "electric_bike", "is_reserved": 0, "fusion_lon": 0.0, "lat": 39.001862, "rental_uris": {"ios": "https://dc.lft.to/lastmile_qr_scan", "android": "https://dc.lft.to/lastmile_qr_scan"}, "bike_id": "888c39ec95da6fcf6a906c6514aaafc5", "fusion_lat": 0.0}, {"lon": -77.0001435, "name": "9d98c28500ea606cb6e448a9a41a234c", "is_disabled": 0, "type": "electric_scooter", "is_reserved": 0, "fusion_lon": 0.0, "lat": 38.873828833333334, "rental_uris": {"ios": "https://dc.lft.to/lastmile_qr_scan", "android": "https://dc.lft.to/lastmile_qr_scan"}, "bike_id": "9d98c28500ea606cb6e448a9a41a234c", "fusion_lat": 0.0}, {"lon": -77.05814533333333, "name": "1ba147b7332ee287dd2ca5ed95cc76ee", "is_disabled": 0, "type": "electric_scooter", "is_reserved": 0, "fusion_lon": 0.0, "lat": 38.93459266666667, "rental_uris": {"ios": "https://dc.lft.to/lastmile_qr_scan", "android": "https://dc.lft.to/lastmile_qr_scan"}, "bike_id": "1ba147b7332ee287dd2ca5ed95cc76ee", "fusion_lat": 0.0}, {"lon": -77.0437245, "name": "e8fe8c753a88d04aeb60b51635c07bfa", "is_disabled": 0, "type": "electric_scooter", "is_reserved": 0, "fusion_lon": 0.0, "lat": 38.90468633333333, "rental_uris": {"ios": "https://dc.lft.to/lastmile_qr_scan", "android": "https://dc.lft.to/lastmile_qr_scan"}, "bike_id": "e8fe8c753a88d04aeb60b51635c07bfa", "fusion_lat": 0.0}, {"lon": -77.0433605, "name": "2627f0edc99c8a6715efb6ebb1ec3c2b", "is_disabled": 0, "type": "electric_scooter", "is_reserved": 0, "fusion_lon": 0.0, "lat": 38.923167, "rental_uris": {"ios": "https://dc.lft.to/lastmile_qr_scan", "android": "https://dc.lft.to/lastmile_qr_scan"}, "bike_id": "2627f0edc99c8a6715efb6ebb1ec3c2b", "fusion_lat": 0.0}, {"lon": -77.0276495, "name": "dc755f8cab2a05f3164f56257c3081a0", "is_disabled": 0, "type": "electric_scooter", "is_reserved": 0, "fusion_lon": 0.0, "lat": 38.892190666666664, "rental_uris": {"ios": "https://dc.lft.to/lastmile_qr_scan", "android": "https://dc.lft.to/lastmile_qr_scan"}, "bike_id": "dc755f8cab2a05f3164f56257c3081a0", "fusion_lat": 0.0}, {"lon": -77.02323416666667, "name": "5a5e6815d20dfc6193f75584447f62c3", "is_disabled": 0, "type": "electric_scooter", "is_reserved": 0, "fusion_lon": 0.0, "lat": 38.927856, "rental_uris": {"ios": "https://dc.lft.to/lastmile_qr_scan", "android": "https://dc.lft.to/lastmile_qr_scan"}, "bike_id": "5a5e6815d20dfc6193f75584447f62c3", "fusion_lat": 0.0}, {"lon": -77.01934116666666, "name": "0b3e9704d89710285dc7febf87b2836e", "is_disabled": 0, "type": "electric_scooter", "is_reserved": 0, "fusion_lon": 0.0, "lat": 38.92251066666667, "rental_uris": {"ios": "https://dc.lft.to/lastmile_qr_scan", "android": "https://dc.lft.to/lastmile_qr_scan"}, "bike_id": "0b3e9704d89710285dc7febf87b2836e", "fusion_lat": 0.0}, {"lon": -77.02713383333334, "name": "8fc595c69069efe59d20963f78b48a88", "is_disabled": 0, "type": "electric_scooter", "is_reserved": 0, "fusion_lon": 0.0, "lat": 38.897584, "rental_uris": {"ios": "https://dc.lft.to/lastmile_qr_scan", "android": "https://dc.lft.to/lastmile_qr_scan"}, "bike_id": "8fc595c69069efe59d20963f78b48a88", "fusion_lat": 0.0}, {"lon": -77.02222333333333, "name": "bef86bea20ecb187ac4b42d3d65631e8", "is_disabled": 0, "type": "electric_scooter", "is_reserved": 0, "fusion_lon": 0.0, "lat": 38.912682, "rental_uris": {"ios": "https://dc.lft.to/lastmile_qr_scan", "android": "https://dc.lft.to/lastmile_qr_scan"}, "bike_id": "bef86bea20ecb187ac4b42d3d65631e8", "fusion_lat": 0.0}, {"lon": -77.034441, "name": "e7af10a393558d83d5a4b5a169879c81", "is_disabled": 0, "type": "electric_scooter", "is_reserved": 0, "fusion_lon": 0.0, "lat": 38.92860433333333, "rental_uris": {"ios": "https://dc.lft.to/lastmile_qr_scan", "android": "https://dc.lft.to/lastmile_qr_scan"}, "bike_id": "e7af10a393558d83d5a4b5a169879c81", "fusion_lat": 0.0}, {"lon": -77.036362, "name": "1fae8179a86ce8466af6c579a0b802b2", "is_disabled": 0, "type": "electric_scooter", "is_reserved": 0, "fusion_lon": 0.0, "lat": 38.92942433333333, "rental_uris": {"ios": "https://dc.lft.to/lastmile_qr_scan", "android": "https://dc.lft.to/lastmile_qr_scan"}, "bike_id": "1fae8179a86ce8466af6c579a0b802b2", "fusion_lat": 0.0}, {"lon": -77.03518966666667, "name": "3719adb3c5884a40e152e3eb687a99e1", "is_disabled": 0, "type": "electric_scooter", "is_reserved": 0, "fusion_lon": 0.0, "lat": 38.922349, "rental_uris": {"ios": "https://dc.lft.to/lastmile_qr_scan", "android": "https://dc.lft.to/lastmile_qr_scan"}, "bike_id": "3719adb3c5884a40e152e3eb687a99e1", "fusion_lat": 0.0}, {"lon": -77.005393, "name": "01dd8a0df91d3ac4c2e0556826737241", "is_disabled": 0, "type": "electric_scooter", "is_reserved": 0, "fusion_lon": 0.0, "lat": 38.875416333333334, "rental_uris": {"ios": "https://dc.lft.to/lastmile_qr_scan", "android": "https://dc.lft.to/lastmile_qr_scan"}, "bike_id": "01dd8a0df91d3ac4c2e0556826737241", "fusion_lat": 0.0}, {"lon": -77.04182683333333, "name": "f5c9bdc98b57507225e8fe579a3c8d46", "is_disabled": 0, "type": "electric_scooter", "is_reserved": 0, "fusion_lon": 0.0, "lat": 38.901559666666664, "rental_uris": {"ios": "https://dc.lft.to/lastmile_qr_scan", "android": "https://dc.lft.to/lastmile_qr_scan"}, "bike_id": "f5c9bdc98b57507225e8fe579a3c8d46", "fusion_lat": 0.0}, {"lon": -76.90753050000001, "name": "523ed135861daaa246c18e8f02fe37e1", "is_disabled": 0, "type": "electric_bike", "is_reserved": 0, "fusion_lon": 0.0, "lat": 38.89610733333333, "rental_uris": {"ios": "https://dc.lft.to/lastmile_qr_scan", "android": "https://dc.lft.to/lastmile_qr_scan"}, "bike_id": "523ed135861daaa246c18e8f02fe37e1", "fusion_lat": 0.0}, {"lon": -76.97143666666666, "name": "eece5401b3494bd09f738c4ebb565b00", "is_disabled": 0, "type": "electric_scooter", "is_reserved": 0, "fusion_lon": 0.0, "lat": 38.913482333333334, "rental_uris": {"ios": "https://dc.lft.to/lastmile_qr_scan", "android": "https://dc.lft.to/lastmile_qr_scan"}, "bike_id": "eece5401b3494bd09f738c4ebb565b00", "fusion_lat": 0.0}, {"lon": -77.027629, "name": "ccd4874ebfea6394d125358947ca5516", "is_disabled": 0, "type": "electric_scooter", "is_reserved": 0, "fusion_lon": 0.0, "lat": 38.9540995, "rental_uris": {"ios": "https://dc.lft.to/lastmile_qr_scan", "android": "https://dc.lft.to/lastmile_qr_scan"}, "bike_id": "ccd4874ebfea6394d125358947ca5516", "fusion_lat": 0.0}, {"lon": -77.053244, "name": "f1b13696259e4828b7408a2210685197", "is_disabled": 0, "type": "electric_scooter", "is_reserved": 0, "fusion_lon": 0.0, "lat": 38.901558, "rental_uris": {"ios": "https://dc.lft.to/lastmile_qr_scan", "android": "https://dc.lft.to/lastmile_qr_scan"}, "bike_id": "f1b13696259e4828b7408a2210685197", "fusion_lat": 0.0}, {"lon": -77.02414, "name": "dc914c15175f2ddabf6938c612caf174", "is_disabled": 0, "type": "electric_scooter", "is_reserved": 0, "fusion_lon": 0.0, "lat": 38.892295, "rental_uris": {"ios": "https://dc.lft.to/lastmile_qr_scan", "android": "https://dc.lft.to/lastmile_qr_scan"}, "bike_id": "dc914c15175f2ddabf6938c612caf174", "fusion_lat": 0.0}, {"lon": -77.00616683333334, "name": "f9b3a48cc063f97cfeff6bc804ab6a04", "is_disabled": 0, "type": "electric_scooter", "is_reserved": 0, "fusion_lon": 0.0, "lat": 38.87460216666667, "rental_uris": {"ios": "https://dc.lft.to/lastmile_qr_scan", "android": "https://dc.lft.to/lastmile_qr_scan"}, "bike_id": "f9b3a48cc063f97cfeff6bc804ab6a04", "fusion_lat": 0.0}, {"lon": -77.02947566666667, "name": "f9e0e0c3d813946afd5d176a062b12b3", "is_disabled": 0, "type": "electric_scooter", "is_reserved": 0, "fusion_lon": 0.0, "lat": 38.899491166666664, "rental_uris": {"ios": "https://dc.lft.to/lastmile_qr_scan", "android": "https://dc.lft.to/lastmile_qr_scan"}, "bike_id": "f9e0e0c3d813946afd5d176a062b12b3", "fusion_lat": 0.0}, {"lon": -76.98154866666667, "name": "1d6cd7f405460e3e6e607a988d41df29", "is_disabled": 0, "type": "electric_scooter", "is_reserved": 0, "fusion_lon": 0.0, "lat": 38.92551316666667, "rental_uris": {"ios": "https://dc.lft.to/lastmile_qr_scan", "android": "https://dc.lft.to/lastmile_qr_scan"}, "bike_id": "1d6cd7f405460e3e6e607a988d41df29", "fusion_lat": 0.0}, {"lon": -76.93940933333333, "name": "da402f88482c0b4219b2bb849f6bd6dc", "is_disabled": 0, "type": "electric_scooter", "is_reserved": 0, "fusion_lon": 0.0, "lat": 38.908638, "rental_uris": {"ios": "https://dc.lft.to/lastmile_qr_scan", "android": "https://dc.lft.to/lastmile_qr_scan"}, "bike_id": "da402f88482c0b4219b2bb849f6bd6dc", "fusion_lat": 0.0}, {"lon": -77.0189815, "name": "3a706def20a9b0af0884859569fc317f", "is_disabled": 0, "type": "electric_scooter", "is_reserved": 0, "fusion_lon": 0.0, "lat": 38.919489, "rental_uris": {"ios": "https://dc.lft.to/lastmile_qr_scan", "android": "https://dc.lft.to/lastmile_qr_scan"}, "bike_id": "3a706def20a9b0af0884859569fc317f", "fusion_lat": 0.0}, {"lon": -77.02308666666667, "name": "a126ab0d49b15350b73224b4fe1b35bf", "is_disabled": 0, "type": "electric_scooter", "is_reserved": 0, "fusion_lon": 0.0, "lat": 38.926485166666666, "rental_uris": {"ios": "https://dc.lft.to/lastmile_qr_scan", "android": "https://dc.lft.to/lastmile_qr_scan"}, "bike_id": "a126ab0d49b15350b73224b4fe1b35bf", "fusion_lat": 0.0}, {"lon": -77.00139583333333, "name": "2c72c1c6d1805cccd60da86f8c754348", "is_disabled": 0, "type": "electric_bike", "is_reserved": 0, "fusion_lon": 0.0, "lat": 38.994983, "rental_uris": {"ios": "https://dc.lft.to/lastmile_qr_scan", "android": "https://dc.lft.to/lastmile_qr_scan"}, "bike_id": "2c72c1c6d1805cccd60da86f8c754348", "fusion_lat": 0.0}, {"lon": -76.9485445, "name": "4bfbafa92fb2beb142ed48699d9d910c", "is_disabled": 0, "type": "electric_scooter", "is_reserved": 0, "fusion_lon": 0.0, "lat": 38.896030833333334, "rental_uris": {"ios": "https://dc.lft.to/lastmile_qr_scan", "android": "https://dc.lft.to/lastmile_qr_scan"}, "bike_id": "4bfbafa92fb2beb142ed48699d9d910c", "fusion_lat": 0.0}, {"lon": -76.97310216666666, "name": "6c81ccc74836b576c50b26a7a8200720", "is_disabled": 0, "type": "electric_scooter", "is_reserved": 0, "fusion_lon": 0.0, "lat": 38.919820333333334, "rental_uris": {"ios": "https://dc.lft.to/lastmile_qr_scan", "android": "https://dc.lft.to/lastmile_qr_scan"}, "bike_id": "6c81ccc74836b576c50b26a7a8200720", "fusion_lat": 0.0}, {"lon": -77.00535233333333, "name": "72373922b328c53ba5afe18012600510", "is_disabled": 0, "type": "electric_scooter", "is_reserved": 0, "fusion_lon": 0.0, "lat": 38.875445666666664, "rental_uris": {"ios": "https://dc.lft.to/lastmile_qr_scan", "android": "https://dc.lft.to/lastmile_qr_scan"}, "bike_id": "72373922b328c53ba5afe18012600510", "fusion_lat": 0.0}, {"lon": -77.01732866666667, "name": "216da82243bfd38f72b3c2259dc22b18", "is_disabled": 0, "type": "electric_scooter", "is_reserved": 0, "fusion_lon": 0.0, "lat": 38.87707266666666, "rental_uris": {"ios": "https://dc.lft.to/lastmile_qr_scan", "android": "https://dc.lft.to/lastmile_qr_scan"}, "bike_id": "216da82243bfd38f72b3c2259dc22b18", "fusion_lat": 0.0}, {"lon": -77.03985316666666, "name": "1073375c343f0d478c2eb254698f4aad", "is_disabled": 0, "type": "electric_scooter", "is_reserved": 0, "fusion_lon": 0.0, "lat": 38.90265266666667, "rental_uris": {"ios": "https://dc.lft.to/lastmile_qr_scan", "android": "https://dc.lft.to/lastmile_qr_scan"}, "bike_id": "1073375c343f0d478c2eb254698f4aad", "fusion_lat": 0.0}, {"lon": -77.03143533333333, "name": "ea1f289a18f98d681635b05c872a7315", "is_disabled": 0, "type": "electric_scooter", "is_reserved": 0, "fusion_lon": 0.0, "lat": 38.94190916666667, "rental_uris": {"ios": "https://dc.lft.to/lastmile_qr_scan", "android": "https://dc.lft.to/lastmile_qr_scan"}, "bike_id": "ea1f289a18f98d681635b05c872a7315", "fusion_lat": 0.0}, {"lon": -77.02231066666667, "name": "7c6da27f1e0c6919322e0783a9e663ee", "is_disabled": 0, "type": "electric_scooter", "is_reserved": 0, "fusion_lon": 0.0, "lat": 38.92474583333333, "rental_uris": {"ios": "https://dc.lft.to/lastmile_qr_scan", "android": "https://dc.lft.to/lastmile_qr_scan"}, "bike_id": "7c6da27f1e0c6919322e0783a9e663ee", "fusion_lat": 0.0}, {"lon": -77.0513635, "name": "a8823bd96e4c43bd4b997f2b251b8b41", "is_disabled": 0, "type": "electric_scooter", "is_reserved": 0, "fusion_lon": 0.0, "lat": 38.905327666666665, "rental_uris": {"ios": "https://dc.lft.to/lastmile_qr_scan", "android": "https://dc.lft.to/lastmile_qr_scan"}, "bike_id": "a8823bd96e4c43bd4b997f2b251b8b41", "fusion_lat": 0.0}, {"lon": -76.92505283333334, "name": "83e3c308ed95d8b203a6c471a96ef746", "is_disabled": 0, "type": "electric_scooter", "is_reserved": 0, "fusion_lon": 0.0, "lat": 38.8860045, "rental_uris": {"ios": "https://dc.lft.to/lastmile_qr_scan", "android": "https://dc.lft.to/lastmile_qr_scan"}, "bike_id": "83e3c308ed95d8b203a6c471a96ef746", "fusion_lat": 0.0}, {"lon": -77.02447583333333, "name": "fb64b784c477dc254deb75a414228a1c", "is_disabled": 0, "type": "electric_scooter", "is_reserved": 0, "fusion_lon": 0.0, "lat": 38.9250275, "rental_uris": {"ios": "https://dc.lft.to/lastmile_qr_scan", "android": "https://dc.lft.to/lastmile_qr_scan"}, "bike_id": "fb64b784c477dc254deb75a414228a1c", "fusion_lat": 0.0}, {"lon": -77.045395, "name": "afb9478b0f3ceee96f0eb95992494a91", "is_disabled": 0, "type": "electric_scooter", "is_reserved": 0, "fusion_lon": 0.0, "lat": 38.91192933333333, "rental_uris": {"ios": "https://dc.lft.to/lastmile_qr_scan", "android": "https://dc.lft.to/lastmile_qr_scan"}, "bike_id": "afb9478b0f3ceee96f0eb95992494a91", "fusion_lat": 0.0}, {"lon": -77.012792, "name": "0ccf18669dec264705b64730e55f5ee3", "is_disabled": 0, "type": "electric_scooter", "is_reserved": 0, "fusion_lon": 0.0, "lat": 38.9095155, "rental_uris": {"ios": "https://dc.lft.to/lastmile_qr_scan", "android": "https://dc.lft.to/lastmile_qr_scan"}, "bike_id": "0ccf18669dec264705b64730e55f5ee3", "fusion_lat": 0.0}, {"lon": -76.98856033333334, "name": "035f1630cbdbe0e92c2bef58715d9c99", "is_disabled": 0, "type": "electric_scooter", "is_reserved": 0, "fusion_lon": 0.0, "lat": 38.9002815, "rental_uris": {"ios": "https://dc.lft.to/lastmile_qr_scan", "android": "https://dc.lft.to/lastmile_qr_scan"}, "bike_id": "035f1630cbdbe0e92c2bef58715d9c99", "fusion_lat": 0.0}, {"lon": -77.0176855, "name": "d1f386673bceb54508156fccb012110d", "is_disabled": 0, "type": "electric_scooter", "is_reserved": 0, "fusion_lon": 0.0, "lat": 38.877000333333335, "rental_uris": {"ios": "https://dc.lft.to/lastmile_qr_scan", "android": "https://dc.lft.to/lastmile_qr_scan"}, "bike_id": "d1f386673bceb54508156fccb012110d", "fusion_lat": 0.0}, {"lon": -76.99107633333334, "name": "cb0049b930966f1110099ec47f3fa598", "is_disabled": 0, "type": "electric_scooter", "is_reserved": 0, "fusion_lon": 0.0, "lat": 38.8633285, "rental_uris": {"ios": "https://dc.lft.to/lastmile_qr_scan", "android": "https://dc.lft.to/lastmile_qr_scan"}, "bike_id": "cb0049b930966f1110099ec47f3fa598", "fusion_lat": 0.0}, {"lon": -77.0187735, "name": "cfe1fd13f7f1811e6c21c6463686e046", "is_disabled": 0, "type": "electric_scooter", "is_reserved": 0, "fusion_lon": 0.0, "lat": 38.9305835, "rental_uris": {"ios": "https://dc.lft.to/lastmile_qr_scan", "android": "https://dc.lft.to/lastmile_qr_scan"}, "bike_id": "cfe1fd13f7f1811e6c21c6463686e046", "fusion_lat": 0.0}, {"lon": -77.0136215, "name": "fc185624392f1b9886a7d54b98efe8f2", "is_disabled": 0, "type": "electric_scooter", "is_reserved": 0, "fusion_lon": 0.0, "lat": 38.928795666666666, "rental_uris": {"ios": "https://dc.lft.to/lastmile_qr_scan", "android": "https://dc.lft.to/lastmile_qr_scan"}, "bike_id": "fc185624392f1b9886a7d54b98efe8f2", "fusion_lat": 0.0}, {"lon": -77.06944083333333, "name": "ab35c8a5e8e351557fc2810d995fc4e1", "is_disabled": 0, "type": "electric_bike", "is_reserved": 0, "fusion_lon": 0.0, "lat": 38.84762583333333, "rental_uris": {"ios": "https://dc.lft.to/lastmile_qr_scan", "android": "https://dc.lft.to/lastmile_qr_scan"}, "bike_id": "ab35c8a5e8e351557fc2810d995fc4e1", "fusion_lat": 0.0}, {"lon": -76.98862433333333, "name": "6264f700f47d09e5e475c2800bb457b9", "is_disabled": 0, "type": "electric_scooter", "is_reserved": 0, "fusion_lon": 0.0, "lat": 38.9002675, "rental_uris": {"ios": "https://dc.lft.to/lastmile_qr_scan", "android": "https://dc.lft.to/lastmile_qr_scan"}, "bike_id": "6264f700f47d09e5e475c2800bb457b9", "fusion_lat": 0.0}, {"lon": -77.021863, "name": "4604e6661f2eab49671bd41214cd8d7c", "is_disabled": 0, "type": "electric_scooter", "is_reserved": 0, "fusion_lon": 0.0, "lat": 38.894017166666664, "rental_uris": {"ios": "https://dc.lft.to/lastmile_qr_scan", "android": "https://dc.lft.to/lastmile_qr_scan"}, "bike_id": "4604e6661f2eab49671bd41214cd8d7c", "fusion_lat": 0.0}, {"lon": -77.0274785, "name": "c1ecf30b3a8204a62f08c50ebaf5f9c2", "is_disabled": 0, "type": "electric_scooter", "is_reserved": 0, "fusion_lon": 0.0, "lat": 38.92415116666667, "rental_uris": {"ios": "https://dc.lft.to/lastmile_qr_scan", "android": "https://dc.lft.to/lastmile_qr_scan"}, "bike_id": "c1ecf30b3a8204a62f08c50ebaf5f9c2", "fusion_lat": 0.0}, {"lon": -77.01182716666666, "name": "b7044c7a2c2adcc6e7af51f177b08623", "is_disabled": 0, "type": "electric_scooter", "is_reserved": 0, "fusion_lon": 0.0, "lat": 38.88592533333333, "rental_uris": {"ios": "https://dc.lft.to/lastmile_qr_scan", "android": "https://dc.lft.to/lastmile_qr_scan"}, "bike_id": "b7044c7a2c2adcc6e7af51f177b08623", "fusion_lat": 0.0}, {"lon": -77.0204175, "name": "5dfff8564dafc65973183ec63f5aa6c9", "is_disabled": 0, "type": "electric_scooter", "is_reserved": 0, "fusion_lon": 0.0, "lat": 38.92445433333334, "rental_uris": {"ios": "https://dc.lft.to/lastmile_qr_scan", "android": "https://dc.lft.to/lastmile_qr_scan"}, "bike_id": "5dfff8564dafc65973183ec63f5aa6c9", "fusion_lat": 0.0}, {"lon": -76.97334266666667, "name": "4d96c232cf2c4977874ceeacf8ce304a", "is_disabled": 0, "type": "electric_bike", "is_reserved": 0, "fusion_lon": 0.0, "lat": 38.865742166666664, "rental_uris": {"ios": "https://dc.lft.to/lastmile_qr_scan", "android": "https://dc.lft.to/lastmile_qr_scan"}, "bike_id": "4d96c232cf2c4977874ceeacf8ce304a", "fusion_lat": 0.0}, {"lon": -77.01195033333333, "name": "7f7f2b3ffcb5c57324dd67c6712a023f", "is_disabled": 0, "type": "electric_scooter", "is_reserved": 0, "fusion_lon": 0.0, "lat": 38.91685116666667, "rental_uris": {"ios": "https://dc.lft.to/lastmile_qr_scan", "android": "https://dc.lft.to/lastmile_qr_scan"}, "bike_id": "7f7f2b3ffcb5c57324dd67c6712a023f", "fusion_lat": 0.0}, {"lon": -77.04507583333333, "name": "d627d25038294aa30b5a4a0e3b54c7bb", "is_disabled": 0, "type": "electric_scooter", "is_reserved": 0, "fusion_lon": 0.0, "lat": 38.91601633333333, "rental_uris": {"ios": "https://dc.lft.to/lastmile_qr_scan", "android": "https://dc.lft.to/lastmile_qr_scan"}, "bike_id": "d627d25038294aa30b5a4a0e3b54c7bb", "fusion_lat": 0.0}, {"lon": -77.11319566666667, "name": "ef92b3cecb935d43b1202fb35b9025d3", "is_disabled": 0, "type": "electric_bike", "is_reserved": 0, "fusion_lon": 0.0, "lat": 38.831344, "rental_uris": {"ios": "https://dc.lft.to/lastmile_qr_scan", "android": "https://dc.lft.to/lastmile_qr_scan"}, "bike_id": "ef92b3cecb935d43b1202fb35b9025d3", "fusion_lat": 0.0}, {"lon": -77.003642, "name": "4bd3fd9024b454cb30735fe28ec0ab1f", "is_disabled": 0, "type": "electric_scooter", "is_reserved": 0, "fusion_lon": 0.0, "lat": 38.91115816666667, "rental_uris": {"ios": "https://dc.lft.to/lastmile_qr_scan", "android": "https://dc.lft.to/lastmile_qr_scan"}, "bike_id": "4bd3fd9024b454cb30735fe28ec0ab1f", "fusion_lat": 0.0}, {"lon": -77.02767116666666, "name": "e6c607fac819cbcf62f970b662341548", "is_disabled": 0, "type": "electric_scooter", "is_reserved": 0, "fusion_lon": 0.0, "lat": 38.92762916666667, "rental_uris": {"ios": "https://dc.lft.to/lastmile_qr_scan", "android": "https://dc.lft.to/lastmile_qr_scan"}, "bike_id": "e6c607fac819cbcf62f970b662341548", "fusion_lat": 0.0}, {"lon": -77.01451716666666, "name": "7b5fd617a3f2472069a4ff07fa3a0800", "is_disabled": 0, "type": "electric_scooter", "is_reserved": 0, "fusion_lon": 0.0, "lat": 38.9581215, "rental_uris": {"ios": "https://dc.lft.to/lastmile_qr_scan", "android": "https://dc.lft.to/lastmile_qr_scan"}, "bike_id": "7b5fd617a3f2472069a4ff07fa3a0800", "fusion_lat": 0.0}, {"lon": -77.05904883333334, "name": "9f3afd1fbdc329983c7a479c8bf7f8e7", "is_disabled": 0, "type": "electric_scooter", "is_reserved": 0, "fusion_lon": 0.0, "lat": 38.903431499999996, "rental_uris": {"ios": "https://dc.lft.to/lastmile_qr_scan", "android": "https://dc.lft.to/lastmile_qr_scan"}, "bike_id": "9f3afd1fbdc329983c7a479c8bf7f8e7", "fusion_lat": 0.0}, {"lon": -77.04879233333334, "name": "da15198ca6ba385d79614637768232b0", "is_disabled": 0, "type": "electric_scooter", "is_reserved": 0, "fusion_lon": 0.0, "lat": 38.900825833333336, "rental_uris": {"ios": "https://dc.lft.to/lastmile_qr_scan", "android": "https://dc.lft.to/lastmile_qr_scan"}, "bike_id": "da15198ca6ba385d79614637768232b0", "fusion_lat": 0.0}, {"lon": -77.045165, "name": "f7f10763d103e3b5a2d8afe07ea03d23", "is_disabled": 0, "type": "electric_scooter", "is_reserved": 0, "fusion_lon": 0.0, "lat": 38.91961633333333, "rental_uris": {"ios": "https://dc.lft.to/lastmile_qr_scan", "android": "https://dc.lft.to/lastmile_qr_scan"}, "bike_id": "f7f10763d103e3b5a2d8afe07ea03d23", "fusion_lat": 0.0}, {"lon": -77.0375575, "name": "44df514031cee246431c41b5a831f60e", "is_disabled": 0, "type": "electric_scooter", "is_reserved": 0, "fusion_lon": 0.0, "lat": 38.91118683333333, "rental_uris": {"ios": "https://dc.lft.to/lastmile_qr_scan", "android": "https://dc.lft.to/lastmile_qr_scan"}, "bike_id": "44df514031cee246431c41b5a831f60e", "fusion_lat": 0.0}, {"lon": -77.2318005, "name": "b6690b382c0d41ea941ed0708b2e99ea", "is_disabled": 0, "type": "electric_bike", "is_reserved": 0, "fusion_lon": 0.0, "lat": 38.92892366666667, "rental_uris": {"ios": "https://dc.lft.to/lastmile_qr_scan", "android": "https://dc.lft.to/lastmile_qr_scan"}, "bike_id": "b6690b382c0d41ea941ed0708b2e99ea", "fusion_lat": 0.0}, {"lon": -77.05823, "name": "7387e3bb9356e91e65183f7dc84d7225", "is_disabled": 0, "type": "electric_scooter", "is_reserved": 0, "fusion_lon": 0.0, "lat": 38.905232166666664, "rental_uris": {"ios": "https://dc.lft.to/lastmile_qr_scan", "android": "https://dc.lft.to/lastmile_qr_scan"}, "bike_id": "7387e3bb9356e91e65183f7dc84d7225", "fusion_lat": 0.0}, {"lon": -77.021376, "name": "3504ff1fdc968ccd3858ced8fee66e1b", "is_disabled": 0, "type": "electric_scooter", "is_reserved": 0, "fusion_lon": 0.0, "lat": 38.933022333333334, "rental_uris": {"ios": "https://dc.lft.to/lastmile_qr_scan", "android": "https://dc.lft.to/lastmile_qr_scan"}, "bike_id": "3504ff1fdc968ccd3858ced8fee66e1b", "fusion_lat": 0.0}, {"lon": -77.02448883333334, "name": "d1cd7d5c92f1d573fdf5eaa32b34fd9b", "is_disabled": 0, "type": "electric_scooter", "is_reserved": 0, "fusion_lon": 0.0, "lat": 38.937397, "rental_uris": {"ios": "https://dc.lft.to/lastmile_qr_scan", "android": "https://dc.lft.to/lastmile_qr_scan"}, "bike_id": "d1cd7d5c92f1d573fdf5eaa32b34fd9b", "fusion_lat": 0.0}, {"lon": -77.04613233333333, "name": "d5e46a8037238633c8072e6fa677d5d3", "is_disabled": 0, "type": "electric_scooter", "is_reserved": 0, "fusion_lon": 0.0, "lat": 38.923377333333335, "rental_uris": {"ios": "https://dc.lft.to/lastmile_qr_scan", "android": "https://dc.lft.to/lastmile_qr_scan"}, "bike_id": "d5e46a8037238633c8072e6fa677d5d3", "fusion_lat": 0.0}, {"lon": -77.03167233333333, "name": "2f117e20e4056ac56c03184b22260355", "is_disabled": 0, "type": "electric_scooter", "is_reserved": 0, "fusion_lon": 0.0, "lat": 38.892233166666664, "rental_uris": {"ios": "https://dc.lft.to/lastmile_qr_scan", "android": "https://dc.lft.to/lastmile_qr_scan"}, "bike_id": "2f117e20e4056ac56c03184b22260355", "fusion_lat": 0.0}, {"lon": -77.08046466666667, "name": "8848afcb86834cb6fbd87edb950bb42a", "is_disabled": 0, "type": "electric_scooter", "is_reserved": 0, "fusion_lon": 0.0, "lat": 38.948721666666664, "rental_uris": {"ios": "https://dc.lft.to/lastmile_qr_scan", "android": "https://dc.lft.to/lastmile_qr_scan"}, "bike_id": "8848afcb86834cb6fbd87edb950bb42a", "fusion_lat": 0.0}, {"lon": -77.02720016666666, "name": "c2a71c20c3488389d3c29dfaba310636", "is_disabled": 0, "type": "electric_scooter", "is_reserved": 0, "fusion_lon": 0.0, "lat": 38.918896, "rental_uris": {"ios": "https://dc.lft.to/lastmile_qr_scan", "android": "https://dc.lft.to/lastmile_qr_scan"}, "bike_id": "c2a71c20c3488389d3c29dfaba310636", "fusion_lat": 0.0}, {"lon": -77.0151475, "name": "0e77141f400f2f834c729c35e2fd7a4e", "is_disabled": 0, "type": "electric_scooter", "is_reserved": 0, "fusion_lon": 0.0, "lat": 38.91002566666667, "rental_uris": {"ios": "https://dc.lft.to/lastmile_qr_scan", "android": "https://dc.lft.to/lastmile_qr_scan"}, "bike_id": "0e77141f400f2f834c729c35e2fd7a4e", "fusion_lat": 0.0}, {"lon": -77.079192, "name": "6f1be48a6f632cb0fdb3f79ee093be67", "is_disabled": 0, "type": "electric_bike", "is_reserved": 0, "fusion_lon": 0.0, "lat": 38.8382655, "rental_uris": {"ios": "https://dc.lft.to/lastmile_qr_scan", "android": "https://dc.lft.to/lastmile_qr_scan"}, "bike_id": "6f1be48a6f632cb0fdb3f79ee093be67", "fusion_lat": 0.0}, {"lon": -76.97908416666667, "name": "8aa29cf85c47d77ab39c32513acbd7df", "is_disabled": 0, "type": "electric_scooter", "is_reserved": 0, "fusion_lon": 0.0, "lat": 38.88852583333333, "rental_uris": {"ios": "https://dc.lft.to/lastmile_qr_scan", "android": "https://dc.lft.to/lastmile_qr_scan"}, "bike_id": "8aa29cf85c47d77ab39c32513acbd7df", "fusion_lat": 0.0}, {"lon": -77.02981, "name": "84777f1f6ed2326178ba4e8a0650f952", "is_disabled": 0, "type": "electric_scooter", "is_reserved": 0, "fusion_lon": 0.0, "lat": 38.94054666666667, "rental_uris": {"ios": "https://dc.lft.to/lastmile_qr_scan", "android": "https://dc.lft.to/lastmile_qr_scan"}, "bike_id": "84777f1f6ed2326178ba4e8a0650f952", "fusion_lat": 0.0}, {"lon": -77.00064016666667, "name": "ca5a0e5f1a4f79bbf9afc91af441275b", "is_disabled": 0, "type": "electric_scooter", "is_reserved": 0, "fusion_lon": 0.0, "lat": 38.878798833333335, "rental_uris": {"ios": "https://dc.lft.to/lastmile_qr_scan", "android": "https://dc.lft.to/lastmile_qr_scan"}, "bike_id": "ca5a0e5f1a4f79bbf9afc91af441275b", "fusion_lat": 0.0}, {"lon": -77.00896316666666, "name": "c933b53ebc0b523d3126a2457b1a41de", "is_disabled": 0, "type": "electric_scooter", "is_reserved": 0, "fusion_lon": 0.0, "lat": 38.90972983333333, "rental_uris": {"ios": "https://dc.lft.to/lastmile_qr_scan", "android": "https://dc.lft.to/lastmile_qr_scan"}, "bike_id": "c933b53ebc0b523d3126a2457b1a41de", "fusion_lat": 0.0}, {"lon": -77.077142, "name": "5f0bfde4a3a4c8da1410a550791615b2", "is_disabled": 0, "type": "electric_scooter", "is_reserved": 0, "fusion_lon": 0.0, "lat": 38.92239333333333, "rental_uris": {"ios": "https://dc.lft.to/lastmile_qr_scan", "android": "https://dc.lft.to/lastmile_qr_scan"}, "bike_id": "5f0bfde4a3a4c8da1410a550791615b2", "fusion_lat": 0.0}, {"lon": -77.01976916666666, "name": "bd55a20ac6903e9a4a7f62210a2939c4", "is_disabled": 0, "type": "electric_scooter", "is_reserved": 0, "fusion_lon": 0.0, "lat": 38.878389166666665, "rental_uris": {"ios": "https://dc.lft.to/lastmile_qr_scan", "android": "https://dc.lft.to/lastmile_qr_scan"}, "bike_id": "bd55a20ac6903e9a4a7f62210a2939c4", "fusion_lat": 0.0}, {"lon": -77.2341465, "name": "055971b85c1368d1c2a7a5503700e5f5", "is_disabled": 0, "type": "electric_bike", "is_reserved": 0, "fusion_lon": 0.0, "lat": 38.875778833333335, "rental_uris": {"ios": "https://dc.lft.to/lastmile_qr_scan", "android": "https://dc.lft.to/lastmile_qr_scan"}, "bike_id": "055971b85c1368d1c2a7a5503700e5f5", "fusion_lat": 0.0}, {"lon": -77.0030035, "name": "e03ba9ed5580b820b3862541b30a6a91", "is_disabled": 0, "type": "electric_scooter", "is_reserved": 0, "fusion_lon": 0.0, "lat": 38.9058295, "rental_uris": {"ios": "https://dc.lft.to/lastmile_qr_scan", "android": "https://dc.lft.to/lastmile_qr_scan"}, "bike_id": "e03ba9ed5580b820b3862541b30a6a91", "fusion_lat": 0.0}, {"lon": -77.00342066666667, "name": "fa9f5360555428aa90750a70960418a7", "is_disabled": 0, "type": "electric_scooter", "is_reserved": 0, "fusion_lon": 0.0, "lat": 38.8935265, "rental_uris": {"ios": "https://dc.lft.to/lastmile_qr_scan", "android": "https://dc.lft.to/lastmile_qr_scan"}, "bike_id": "fa9f5360555428aa90750a70960418a7", "fusion_lat": 0.0}, {"lon": -77.04307716666666, "name": "8bb4995e416a044f1ea1857e8b0915f8", "is_disabled": 0, "type": "electric_scooter", "is_reserved": 0, "fusion_lon": 0.0, "lat": 38.923948333333335, "rental_uris": {"ios": "https://dc.lft.to/lastmile_qr_scan", "android": "https://dc.lft.to/lastmile_qr_scan"}, "bike_id": "8bb4995e416a044f1ea1857e8b0915f8", "fusion_lat": 0.0}, {"lon": -76.98986783333334, "name": "0ff0e6678a1b0b7e7eb600ba1c990ef7", "is_disabled": 0, "type": "electric_scooter", "is_reserved": 0, "fusion_lon": 0.0, "lat": 38.89051333333333, "rental_uris": {"ios": "https://dc.lft.to/lastmile_qr_scan", "android": "https://dc.lft.to/lastmile_qr_scan"}, "bike_id": "0ff0e6678a1b0b7e7eb600ba1c990ef7", "fusion_lat": 0.0}, {"lon": -76.94892883333333, "name": "ef70575e071a58dd2628c96b92b6128b", "is_disabled": 0, "type": "electric_scooter", "is_reserved": 0, "fusion_lon": 0.0, "lat": 38.895325666666665, "rental_uris": {"ios": "https://dc.lft.to/lastmile_qr_scan", "android": "https://dc.lft.to/lastmile_qr_scan"}, "bike_id": "ef70575e071a58dd2628c96b92b6128b", "fusion_lat": 0.0}, {"lon": -77.021986, "name": "56af53ab3a00ad03f9f6948543637250", "is_disabled": 0, "type": "electric_scooter", "is_reserved": 0, "fusion_lon": 0.0, "lat": 38.9104965, "rental_uris": {"ios": "https://dc.lft.to/lastmile_qr_scan", "android": "https://dc.lft.to/lastmile_qr_scan"}, "bike_id": "56af53ab3a00ad03f9f6948543637250", "fusion_lat": 0.0}, {"lon": -77.01877383333333, "name": "33708b1962c3e48e0261679d78d104f7", "is_disabled": 0, "type": "electric_scooter", "is_reserved": 0, "fusion_lon": 0.0, "lat": 38.92017283333333, "rental_uris": {"ios": "https://dc.lft.to/lastmile_qr_scan", "android": "https://dc.lft.to/lastmile_qr_scan"}, "bike_id": "33708b1962c3e48e0261679d78d104f7", "fusion_lat": 0.0}, {"lon": -76.93717766666667, "name": "28d21d98c0c6656457cfea8e2688b24d", "is_disabled": 0, "type": "electric_scooter", "is_reserved": 0, "fusion_lon": 0.0, "lat": 38.888498, "rental_uris": {"ios": "https://dc.lft.to/lastmile_qr_scan", "android": "https://dc.lft.to/lastmile_qr_scan"}, "bike_id": "28d21d98c0c6656457cfea8e2688b24d", "fusion_lat": 0.0}, {"lon": -77.00385266666666, "name": "f09601af80df4fb4b4ff1ab29775640d", "is_disabled": 0, "type": "electric_scooter", "is_reserved": 0, "fusion_lon": 0.0, "lat": 38.87632883333333, "rental_uris": {"ios": "https://dc.lft.to/lastmile_qr_scan", "android": "https://dc.lft.to/lastmile_qr_scan"}, "bike_id": "f09601af80df4fb4b4ff1ab29775640d", "fusion_lat": 0.0}, {"lon": -77.0346625, "name": "f24a3b4f63e77df55d3bd9ea241062f9", "is_disabled": 0, "type": "electric_scooter", "is_reserved": 0, "fusion_lon": 0.0, "lat": 38.9085955, "rental_uris": {"ios": "https://dc.lft.to/lastmile_qr_scan", "android": "https://dc.lft.to/lastmile_qr_scan"}, "bike_id": "f24a3b4f63e77df55d3bd9ea241062f9", "fusion_lat": 0.0}, {"lon": -77.02394533333333, "name": "72cefd573b1f927d185e4cff8ae322f6", "is_disabled": 0, "type": "electric_scooter", "is_reserved": 0, "fusion_lon": 0.0, "lat": 38.89412733333333, "rental_uris": {"ios": "https://dc.lft.to/lastmile_qr_scan", "android": "https://dc.lft.to/lastmile_qr_scan"}, "bike_id": "72cefd573b1f927d185e4cff8ae322f6", "fusion_lat": 0.0}, {"lon": -77.03207283333333, "name": "f9d3b456d2645c667f2bda1ff23c628d", "is_disabled": 0, "type": "electric_scooter", "is_reserved": 0, "fusion_lon": 0.0, "lat": 38.90783166666667, "rental_uris": {"ios": "https://dc.lft.to/lastmile_qr_scan", "android": "https://dc.lft.to/lastmile_qr_scan"}, "bike_id": "f9d3b456d2645c667f2bda1ff23c628d", "fusion_lat": 0.0}, {"lon": -77.047307, "name": "e2c62c303ae6a3a503f7c08c1c77a2a6", "is_disabled": 0, "type": "electric_scooter", "is_reserved": 0, "fusion_lon": 0.0, "lat": 38.8996135, "rental_uris": {"ios": "https://dc.lft.to/lastmile_qr_scan", "android": "https://dc.lft.to/lastmile_qr_scan"}, "bike_id": "e2c62c303ae6a3a503f7c08c1c77a2a6", "fusion_lat": 0.0}, {"lon": -77.02166916666667, "name": "8e604e1fe8c377c3f71be92bd7687333", "is_disabled": 0, "type": "electric_scooter", "is_reserved": 0, "fusion_lon": 0.0, "lat": 38.926353, "rental_uris": {"ios": "https://dc.lft.to/lastmile_qr_scan", "android": "https://dc.lft.to/lastmile_qr_scan"}, "bike_id": "8e604e1fe8c377c3f71be92bd7687333", "fusion_lat": 0.0}, {"lon": -76.90302683333333, "name": "dbde26b1217d1f48936ebea08007b7f2", "is_disabled": 0, "type": "electric_bike", "is_reserved": 0, "fusion_lon": 0.0, "lat": 39.0029185, "rental_uris": {"ios": "https://dc.lft.to/lastmile_qr_scan", "android": "https://dc.lft.to/lastmile_qr_scan"}, "bike_id": "dbde26b1217d1f48936ebea08007b7f2", "fusion_lat": 0.0}, {"lon": -77.04661516666667, "name": "77a2bb1cefda4464091e426f8e0e72dc", "is_disabled": 0, "type": "electric_scooter", "is_reserved": 0, "fusion_lon": 0.0, "lat": 38.89245416666667, "rental_uris": {"ios": "https://dc.lft.to/lastmile_qr_scan", "android": "https://dc.lft.to/lastmile_qr_scan"}, "bike_id": "77a2bb1cefda4464091e426f8e0e72dc", "fusion_lat": 0.0}, {"lon": -77.0271075, "name": "bd34526645e392e737bf63ee17ffd609", "is_disabled": 0, "type": "electric_scooter", "is_reserved": 0, "fusion_lon": 0.0, "lat": 38.8977185, "rental_uris": {"ios": "https://dc.lft.to/lastmile_qr_scan", "android": "https://dc.lft.to/lastmile_qr_scan"}, "bike_id": "bd34526645e392e737bf63ee17ffd609", "fusion_lat": 0.0}, {"lon": -77.06990033333334, "name": "461b290aa87a08c2fe6a3c661c352566", "is_disabled": 0, "type": "electric_scooter", "is_reserved": 0, "fusion_lon": 0.0, "lat": 38.907693, "rental_uris": {"ios": "https://dc.lft.to/lastmile_qr_scan", "android": "https://dc.lft.to/lastmile_qr_scan"}, "bike_id": "461b290aa87a08c2fe6a3c661c352566", "fusion_lat": 0.0}, {"lon": -77.02158083333333, "name": "3a1a0d47017f6f97b04bcf78ae04d350", "is_disabled": 0, "type": "electric_scooter", "is_reserved": 0, "fusion_lon": 0.0, "lat": 38.924516, "rental_uris": {"ios": "https://dc.lft.to/lastmile_qr_scan", "android": "https://dc.lft.to/lastmile_qr_scan"}, "bike_id": "3a1a0d47017f6f97b04bcf78ae04d350", "fusion_lat": 0.0}, {"lon": -77.024045, "name": "20253c2951346659c4bd34ed9dd44ed0", "is_disabled": 0, "type": "electric_scooter", "is_reserved": 0, "fusion_lon": 0.0, "lat": 38.91635433333333, "rental_uris": {"ios": "https://dc.lft.to/lastmile_qr_scan", "android": "https://dc.lft.to/lastmile_qr_scan"}, "bike_id": "20253c2951346659c4bd34ed9dd44ed0", "fusion_lat": 0.0}, {"lon": -77.0247735, "name": "a6aac84eff295765f22a03c022fd41c2", "is_disabled": 0, "type": "electric_scooter", "is_reserved": 0, "fusion_lon": 0.0, "lat": 38.938531, "rental_uris": {"ios": "https://dc.lft.to/lastmile_qr_scan", "android": "https://dc.lft.to/lastmile_qr_scan"}, "bike_id": "a6aac84eff295765f22a03c022fd41c2", "fusion_lat": 0.0}, {"lon": -77.03792133333333, "name": "efe4721745edb149496284883f9899e8", "is_disabled": 0, "type": "electric_bike", "is_reserved": 0, "fusion_lon": 0.0, "lat": 38.99675916666666, "rental_uris": {"ios": "https://dc.lft.to/lastmile_qr_scan", "android": "https://dc.lft.to/lastmile_qr_scan"}, "bike_id": "efe4721745edb149496284883f9899e8", "fusion_lat": 0.0}, {"lon": -77.05988066666667, "name": "450582df6ee849f9907234bdd1a3f47d", "is_disabled": 0, "type": "electric_scooter", "is_reserved": 0, "fusion_lon": 0.0, "lat": 38.927137333333334, "rental_uris": {"ios": "https://dc.lft.to/lastmile_qr_scan", "android": "https://dc.lft.to/lastmile_qr_scan"}, "bike_id": "450582df6ee849f9907234bdd1a3f47d", "fusion_lat": 0.0}, {"lon": -77.023607, "name": "77b8134f7300955266e9e047498c7c0a", "is_disabled": 0, "type": "electric_scooter", "is_reserved": 0, "fusion_lon": 0.0, "lat": 38.943100666666666, "rental_uris": {"ios": "https://dc.lft.to/lastmile_qr_scan", "android": "https://dc.lft.to/lastmile_qr_scan"}, "bike_id": "77b8134f7300955266e9e047498c7c0a", "fusion_lat": 0.0}, {"lon": -77.0311445, "name": "f39407a370708fd16d25181c22436a61", "is_disabled": 0, "type": "electric_scooter", "is_reserved": 0, "fusion_lon": 0.0, "lat": 38.9095395, "rental_uris": {"ios": "https://dc.lft.to/lastmile_qr_scan", "android": "https://dc.lft.to/lastmile_qr_scan"}, "bike_id": "f39407a370708fd16d25181c22436a61", "fusion_lat": 0.0}, {"lon": -77.05351816666666, "name": "bb603192a43a50e21d73542150e25c66", "is_disabled": 0, "type": "electric_scooter", "is_reserved": 0, "fusion_lon": 0.0, "lat": 38.90426566666667, "rental_uris": {"ios": "https://dc.lft.to/lastmile_qr_scan", "android": "https://dc.lft.to/lastmile_qr_scan"}, "bike_id": "bb603192a43a50e21d73542150e25c66", "fusion_lat": 0.0}, {"lon": -77.041571, "name": "67cfd7d9163bcaec19d2e47693943e75", "is_disabled": 0, "type": "electric_scooter", "is_reserved": 0, "fusion_lon": 0.0, "lat": 38.90733616666667, "rental_uris": {"ios": "https://dc.lft.to/lastmile_qr_scan", "android": "https://dc.lft.to/lastmile_qr_scan"}, "bike_id": "67cfd7d9163bcaec19d2e47693943e75", "fusion_lat": 0.0}, {"lon": -77.062311, "name": "3d70ff39fd7f7839c4c79f5a7f46ef8f", "is_disabled": 0, "type": "electric_scooter", "is_reserved": 0, "fusion_lon": 0.0, "lat": 38.913077, "rental_uris": {"ios": "https://dc.lft.to/lastmile_qr_scan", "android": "https://dc.lft.to/lastmile_qr_scan"}, "bike_id": "3d70ff39fd7f7839c4c79f5a7f46ef8f", "fusion_lat": 0.0}, {"lon": -77.03081216666666, "name": "c4ca8f5e38ca9d2b03b219074a1947ad", "is_disabled": 0, "type": "electric_scooter", "is_reserved": 0, "fusion_lon": 0.0, "lat": 38.9353585, "rental_uris": {"ios": "https://dc.lft.to/lastmile_qr_scan", "android": "https://dc.lft.to/lastmile_qr_scan"}, "bike_id": "c4ca8f5e38ca9d2b03b219074a1947ad", "fusion_lat": 0.0}, {"lon": -77.00729066666666, "name": "925a3fef8c5d6a65739c7a8949c9dfee", "is_disabled": 0, "type": "electric_scooter", "is_reserved": 0, "fusion_lon": 0.0, "lat": 38.91191533333333, "rental_uris": {"ios": "https://dc.lft.to/lastmile_qr_scan", "android": "https://dc.lft.to/lastmile_qr_scan"}, "bike_id": "925a3fef8c5d6a65739c7a8949c9dfee", "fusion_lat": 0.0}, {"lon": -77.07157616666667, "name": "a8a1e4fa74e2d589c9b41068db70a6c4", "is_disabled": 0, "type": "electric_scooter", "is_reserved": 0, "fusion_lon": 0.0, "lat": 38.907779833333336, "rental_uris": {"ios": "https://dc.lft.to/lastmile_qr_scan", "android": "https://dc.lft.to/lastmile_qr_scan"}, "bike_id": "a8a1e4fa74e2d589c9b41068db70a6c4", "fusion_lat": 0.0}, {"lon": -77.01377466666666, "name": "98f7c782a4bbe83362ad3bf014e9f981", "is_disabled": 0, "type": "electric_scooter", "is_reserved": 0, "fusion_lon": 0.0, "lat": 38.8985105, "rental_uris": {"ios": "https://dc.lft.to/lastmile_qr_scan", "android": "https://dc.lft.to/lastmile_qr_scan"}, "bike_id": "98f7c782a4bbe83362ad3bf014e9f981", "fusion_lat": 0.0}, {"lon": -77.05924066666667, "name": "b254face1c88c515bd17254e4a497803", "is_disabled": 0, "type": "electric_scooter", "is_reserved": 0, "fusion_lon": 0.0, "lat": 38.9014695, "rental_uris": {"ios": "https://dc.lft.to/lastmile_qr_scan", "android": "https://dc.lft.to/lastmile_qr_scan"}, "bike_id": "b254face1c88c515bd17254e4a497803", "fusion_lat": 0.0}, {"lon": -77.01719133333333, "name": "f759056f9457d967ee44258ddb4fe559", "is_disabled": 0, "type": "electric_scooter", "is_reserved": 0, "fusion_lon": 0.0, "lat": 38.907213666666664, "rental_uris": {"ios": "https://dc.lft.to/lastmile_qr_scan", "android": "https://dc.lft.to/lastmile_qr_scan"}, "bike_id": "f759056f9457d967ee44258ddb4fe559", "fusion_lat": 0.0}, {"lon": -77.01993516666667, "name": "f6021044c21686b4bcbde83c8c2f5bd6", "is_disabled": 0, "type": "electric_scooter", "is_reserved": 0, "fusion_lon": 0.0, "lat": 38.9318595, "rental_uris": {"ios": "https://dc.lft.to/lastmile_qr_scan", "android": "https://dc.lft.to/lastmile_qr_scan"}, "bike_id": "f6021044c21686b4bcbde83c8c2f5bd6", "fusion_lat": 0.0}, {"lon": -76.99556383333334, "name": "3c4b3af6da71a0a1ac1c4fd041417297", "is_disabled": 0, "type": "electric_scooter", "is_reserved": 0, "fusion_lon": 0.0, "lat": 38.926627, "rental_uris": {"ios": "https://dc.lft.to/lastmile_qr_scan", "android": "https://dc.lft.to/lastmile_qr_scan"}, "bike_id": "3c4b3af6da71a0a1ac1c4fd041417297", "fusion_lat": 0.0}, {"lon": -76.99020116666667, "name": "c4f7210a5b6db3dd9692a900a1b426b2", "is_disabled": 0, "type": "electric_scooter", "is_reserved": 0, "fusion_lon": 0.0, "lat": 38.865157333333336, "rental_uris": {"ios": "https://dc.lft.to/lastmile_qr_scan", "android": "https://dc.lft.to/lastmile_qr_scan"}, "bike_id": "c4f7210a5b6db3dd9692a900a1b426b2", "fusion_lat": 0.0}, {"lon": -77.01954616666667, "name": "6232d9b0c470055a328c56e3fd63f304", "is_disabled": 0, "type": "electric_scooter", "is_reserved": 0, "fusion_lon": 0.0, "lat": 38.923205333333335, "rental_uris": {"ios": "https://dc.lft.to/lastmile_qr_scan", "android": "https://dc.lft.to/lastmile_qr_scan"}, "bike_id": "6232d9b0c470055a328c56e3fd63f304", "fusion_lat": 0.0}, {"lon": -77.00962466666667, "name": "bc713b22d3db66d353dee61fcc7cfa17", "is_disabled": 0, "type": "electric_scooter", "is_reserved": 0, "fusion_lon": 0.0, "lat": 38.8762735, "rental_uris": {"ios": "https://dc.lft.to/lastmile_qr_scan", "android": "https://dc.lft.to/lastmile_qr_scan"}, "bike_id": "bc713b22d3db66d353dee61fcc7cfa17", "fusion_lat": 0.0}, {"lon": -76.98940283333333, "name": "08214ccca6e4dd8171ef4e869a5945be", "is_disabled": 0, "type": "electric_scooter", "is_reserved": 0, "fusion_lon": 0.0, "lat": 38.882893, "rental_uris": {"ios": "https://dc.lft.to/lastmile_qr_scan", "android": "https://dc.lft.to/lastmile_qr_scan"}, "bike_id": "08214ccca6e4dd8171ef4e869a5945be", "fusion_lat": 0.0}, {"lon": -77.00370016666666, "name": "0c77f9e40ac8e2ee80e58974201e5277", "is_disabled": 0, "type": "electric_scooter", "is_reserved": 0, "fusion_lon": 0.0, "lat": 38.892678833333335, "rental_uris": {"ios": "https://dc.lft.to/lastmile_qr_scan", "android": "https://dc.lft.to/lastmile_qr_scan"}, "bike_id": "0c77f9e40ac8e2ee80e58974201e5277", "fusion_lat": 0.0}, {"lon": -77.05696833333333, "name": "eb860834c492f87aa3cb1f92f6bd50ed", "is_disabled": 0, "type": "electric_scooter", "is_reserved": 0, "fusion_lon": 0.0, "lat": 38.90519233333333, "rental_uris": {"ios": "https://dc.lft.to/lastmile_qr_scan", "android": "https://dc.lft.to/lastmile_qr_scan"}, "bike_id": "eb860834c492f87aa3cb1f92f6bd50ed", "fusion_lat": 0.0}, {"lon": -76.99533966666667, "name": "4dbfa92369e8528c3d46d64ff0793497", "is_disabled": 0, "type": "electric_scooter", "is_reserved": 0, "fusion_lon": 0.0, "lat": 38.88763766666667, "rental_uris": {"ios": "https://dc.lft.to/lastmile_qr_scan", "android": "https://dc.lft.to/lastmile_qr_scan"}, "bike_id": "4dbfa92369e8528c3d46d64ff0793497", "fusion_lat": 0.0}, {"lon": -77.0336745, "name": "3dfd06d88e75b148440bd562947768d9", "is_disabled": 0, "type": "electric_scooter", "is_reserved": 0, "fusion_lon": 0.0, "lat": 38.92240866666667, "rental_uris": {"ios": "https://dc.lft.to/lastmile_qr_scan", "android": "https://dc.lft.to/lastmile_qr_scan"}, "bike_id": "3dfd06d88e75b148440bd562947768d9", "fusion_lat": 0.0}, {"lon": -77.035244, "name": "bc64e296ead12d01ae5d188ca0272eda", "is_disabled": 0, "type": "electric_scooter", "is_reserved": 0, "fusion_lon": 0.0, "lat": 38.90663966666666, "rental_uris": {"ios": "https://dc.lft.to/lastmile_qr_scan", "android": "https://dc.lft.to/lastmile_qr_scan"}, "bike_id": "bc64e296ead12d01ae5d188ca0272eda", "fusion_lat": 0.0}, {"lon": -77.02001433333334, "name": "a880684fa3c107af277e21be6d522595", "is_disabled": 0, "type": "electric_scooter", "is_reserved": 0, "fusion_lon": 0.0, "lat": 38.901029666666666, "rental_uris": {"ios": "https://dc.lft.to/lastmile_qr_scan", "android": "https://dc.lft.to/lastmile_qr_scan"}, "bike_id": "a880684fa3c107af277e21be6d522595", "fusion_lat": 0.0}, {"lon": -77.03802366666666, "name": "332b6ce10b22935c2ace8730a1a94094", "is_disabled": 0, "type": "electric_scooter", "is_reserved": 0, "fusion_lon": 0.0, "lat": 38.915402, "rental_uris": {"ios": "https://dc.lft.to/lastmile_qr_scan", "android": "https://dc.lft.to/lastmile_qr_scan"}, "bike_id": "332b6ce10b22935c2ace8730a1a94094", "fusion_lat": 0.0}, {"lon": -77.03291716666666, "name": "0b5ef8274a5336706913ccf2c984d9f0", "is_disabled": 0, "type": "electric_scooter", "is_reserved": 0, "fusion_lon": 0.0, "lat": 38.9353735, "rental_uris": {"ios": "https://dc.lft.to/lastmile_qr_scan", "android": "https://dc.lft.to/lastmile_qr_scan"}, "bike_id": "0b5ef8274a5336706913ccf2c984d9f0", "fusion_lat": 0.0}, {"lon": -77.02119283333333, "name": "b753b8942d60112d93d840293b6594cd", "is_disabled": 0, "type": "electric_scooter", "is_reserved": 0, "fusion_lon": 0.0, "lat": 38.91735166666667, "rental_uris": {"ios": "https://dc.lft.to/lastmile_qr_scan", "android": "https://dc.lft.to/lastmile_qr_scan"}, "bike_id": "b753b8942d60112d93d840293b6594cd", "fusion_lat": 0.0}, {"lon": -77.04351766666667, "name": "ca5fe9163d8b79444b0fd26528c400ac", "is_disabled": 0, "type": "electric_scooter", "is_reserved": 0, "fusion_lon": 0.0, "lat": 38.8973585, "rental_uris": {"ios": "https://dc.lft.to/lastmile_qr_scan", "android": "https://dc.lft.to/lastmile_qr_scan"}, "bike_id": "ca5fe9163d8b79444b0fd26528c400ac", "fusion_lat": 0.0}, {"lon": -77.00302016666667, "name": "4d5bdd66c70ca94e7333247db484bb50", "is_disabled": 0, "type": "electric_scooter", "is_reserved": 0, "fusion_lon": 0.0, "lat": 38.87661933333333, "rental_uris": {"ios": "https://dc.lft.to/lastmile_qr_scan", "android": "https://dc.lft.to/lastmile_qr_scan"}, "bike_id": "4d5bdd66c70ca94e7333247db484bb50", "fusion_lat": 0.0}, {"lon": -77.00961083333333, "name": "1a07a673f39ee1d92023ca6585407e42", "is_disabled": 0, "type": "electric_scooter", "is_reserved": 0, "fusion_lon": 0.0, "lat": 38.876312166666665, "rental_uris": {"ios": "https://dc.lft.to/lastmile_qr_scan", "android": "https://dc.lft.to/lastmile_qr_scan"}, "bike_id": "1a07a673f39ee1d92023ca6585407e42", "fusion_lat": 0.0}, {"lon": -77.02172616666667, "name": "e5094db3795220172d3482fd2c9e3b1b", "is_disabled": 0, "type": "electric_bike", "is_reserved": 0, "fusion_lon": 0.0, "lat": 38.9573895, "rental_uris": {"ios": "https://dc.lft.to/lastmile_qr_scan", "android": "https://dc.lft.to/lastmile_qr_scan"}, "bike_id": "e5094db3795220172d3482fd2c9e3b1b", "fusion_lat": 0.0}, {"lon": -77.02031033333333, "name": "c8ab7d5121017a602428c0c4b04fa20a", "is_disabled": 0, "type": "electric_scooter", "is_reserved": 0, "fusion_lon": 0.0, "lat": 38.92130316666667, "rental_uris": {"ios": "https://dc.lft.to/lastmile_qr_scan", "android": "https://dc.lft.to/lastmile_qr_scan"}, "bike_id": "c8ab7d5121017a602428c0c4b04fa20a", "fusion_lat": 0.0}, {"lon": -77.03188983333334, "name": "aa15706beacca197adf85681983d83ca", "is_disabled": 0, "type": "electric_scooter", "is_reserved": 0, "fusion_lon": 0.0, "lat": 38.911932, "rental_uris": {"ios": "https://dc.lft.to/lastmile_qr_scan", "android": "https://dc.lft.to/lastmile_qr_scan"}, "bike_id": "aa15706beacca197adf85681983d83ca", "fusion_lat": 0.0}, {"lon": -77.0283205, "name": "ce3492661960bcefa0a6d0c237c52a13", "is_disabled": 0, "type": "electric_scooter", "is_reserved": 0, "fusion_lon": 0.0, "lat": 38.92229966666667, "rental_uris": {"ios": "https://dc.lft.to/lastmile_qr_scan", "android": "https://dc.lft.to/lastmile_qr_scan"}, "bike_id": "ce3492661960bcefa0a6d0c237c52a13", "fusion_lat": 0.0}, {"lon": -77.0220205, "name": "7fd02cd4763b23e4b392e8cff0259763", "is_disabled": 0, "type": "electric_scooter", "is_reserved": 0, "fusion_lon": 0.0, "lat": 38.894138166666664, "rental_uris": {"ios": "https://dc.lft.to/lastmile_qr_scan", "android": "https://dc.lft.to/lastmile_qr_scan"}, "bike_id": "7fd02cd4763b23e4b392e8cff0259763", "fusion_lat": 0.0}, {"lon": -77.0264835, "name": "90fa57b5b328ff12c0ea915f7a8cdebb", "is_disabled": 0, "type": "electric_scooter", "is_reserved": 0, "fusion_lon": 0.0, "lat": 38.95184483333333, "rental_uris": {"ios": "https://dc.lft.to/lastmile_qr_scan", "android": "https://dc.lft.to/lastmile_qr_scan"}, "bike_id": "90fa57b5b328ff12c0ea915f7a8cdebb", "fusion_lat": 0.0}, {"lon": -77.02431816666666, "name": "90ba43475b8d402fc00c5637472f9678", "is_disabled": 0, "type": "electric_scooter", "is_reserved": 0, "fusion_lon": 0.0, "lat": 38.894088833333335, "rental_uris": {"ios": "https://dc.lft.to/lastmile_qr_scan", "android": "https://dc.lft.to/lastmile_qr_scan"}, "bike_id": "90ba43475b8d402fc00c5637472f9678", "fusion_lat": 0.0}, {"lon": -77.094473, "name": "dd7e25aff389e696e5c61e008c1d6c91", "is_disabled": 0, "type": "electric_bike", "is_reserved": 0, "fusion_lon": 0.0, "lat": 38.894230666666665, "rental_uris": {"ios": "https://dc.lft.to/lastmile_qr_scan", "android": "https://dc.lft.to/lastmile_qr_scan"}, "bike_id": "dd7e25aff389e696e5c61e008c1d6c91", "fusion_lat": 0.0}, {"lon": -77.0206315, "name": "669a65c5e3cf7f57cbb6eeb34745cbcf", "is_disabled": 0, "type": "electric_scooter", "is_reserved": 0, "fusion_lon": 0.0, "lat": 38.921413666666666, "rental_uris": {"ios": "https://dc.lft.to/lastmile_qr_scan", "android": "https://dc.lft.to/lastmile_qr_scan"}, "bike_id": "669a65c5e3cf7f57cbb6eeb34745cbcf", "fusion_lat": 0.0}, {"lon": -77.02115533333334, "name": "89e45f6a2056d8835e25ac0c09297f18", "is_disabled": 0, "type": "electric_bike", "is_reserved": 0, "fusion_lon": 0.0, "lat": 39.02295516666667, "rental_uris": {"ios": "https://dc.lft.to/lastmile_qr_scan", "android": "https://dc.lft.to/lastmile_qr_scan"}, "bike_id": "89e45f6a2056d8835e25ac0c09297f18", "fusion_lat": 0.0}, {"lon": -77.05203833333333, "name": "57b3e2e74b4df7cc3ec8951c36da803f", "is_disabled": 0, "type": "electric_scooter", "is_reserved": 0, "fusion_lon": 0.0, "lat": 38.92467883333333, "rental_uris": {"ios": "https://dc.lft.to/lastmile_qr_scan", "android": "https://dc.lft.to/lastmile_qr_scan"}, "bike_id": "57b3e2e74b4df7cc3ec8951c36da803f", "fusion_lat": 0.0}, {"lon": -76.98656983333333, "name": "ae97475e5e170c837c727cc88ff8a092", "is_disabled": 0, "type": "electric_bike", "is_reserved": 0, "fusion_lon": 0.0, "lat": 38.97475983333333, "rental_uris": {"ios": "https://dc.lft.to/lastmile_qr_scan", "android": "https://dc.lft.to/lastmile_qr_scan"}, "bike_id": "ae97475e5e170c837c727cc88ff8a092", "fusion_lat": 0.0}, {"lon": -76.98686, "name": "5e9800242cbe23fcd5455212471c616c", "is_disabled": 0, "type": "electric_bike", "is_reserved": 0, "fusion_lon": 0.0, "lat": 38.94470233333333, "rental_uris": {"ios": "https://dc.lft.to/lastmile_qr_scan", "android": "https://dc.lft.to/lastmile_qr_scan"}, "bike_id": "5e9800242cbe23fcd5455212471c616c", "fusion_lat": 0.0}, {"lon": -77.01879, "name": "b565f108806b80b5667443f9ac5c3388", "is_disabled": 0, "type": "electric_scooter", "is_reserved": 0, "fusion_lon": 0.0, "lat": 38.931962, "rental_uris": {"ios": "https://dc.lft.to/lastmile_qr_scan", "android": "https://dc.lft.to/lastmile_qr_scan"}, "bike_id": "b565f108806b80b5667443f9ac5c3388", "fusion_lat": 0.0}, {"lon": -76.98028383333333, "name": "01860e15ecf4aa88b630c0a9977c81a8", "is_disabled": 0, "type": "electric_bike", "is_reserved": 0, "fusion_lon": 0.0, "lat": 38.8681425, "rental_uris": {"ios": "https://dc.lft.to/lastmile_qr_scan", "android": "https://dc.lft.to/lastmile_qr_scan"}, "bike_id": "01860e15ecf4aa88b630c0a9977c81a8", "fusion_lat": 0.0}, {"lon": -77.022923, "name": "2d2608608cb7efd6356b27f645b2e918", "is_disabled": 0, "type": "electric_scooter", "is_reserved": 0, "fusion_lon": 0.0, "lat": 38.914443166666665, "rental_uris": {"ios": "https://dc.lft.to/lastmile_qr_scan", "android": "https://dc.lft.to/lastmile_qr_scan"}, "bike_id": "2d2608608cb7efd6356b27f645b2e918", "fusion_lat": 0.0}, {"lon": -77.0254205, "name": "453150938642e50ac752f334c007f60c", "is_disabled": 0, "type": "electric_scooter", "is_reserved": 0, "fusion_lon": 0.0, "lat": 38.92070416666667, "rental_uris": {"ios": "https://dc.lft.to/lastmile_qr_scan", "android": "https://dc.lft.to/lastmile_qr_scan"}, "bike_id": "453150938642e50ac752f334c007f60c", "fusion_lat": 0.0}, {"lon": -77.04791366666667, "name": "aac3700d550a20c65ad1210e203bf4dc", "is_disabled": 0, "type": "electric_scooter", "is_reserved": 0, "fusion_lon": 0.0, "lat": 38.9021935, "rental_uris": {"ios": "https://dc.lft.to/lastmile_qr_scan", "android": "https://dc.lft.to/lastmile_qr_scan"}, "bike_id": "aac3700d550a20c65ad1210e203bf4dc", "fusion_lat": 0.0}, {"lon": -77.02015783333333, "name": "3a7d1a6aba547bbea511a043e55876d6", "is_disabled": 0, "type": "electric_scooter", "is_reserved": 0, "fusion_lon": 0.0, "lat": 38.88581666666666, "rental_uris": {"ios": "https://dc.lft.to/lastmile_qr_scan", "android": "https://dc.lft.to/lastmile_qr_scan"}, "bike_id": "3a7d1a6aba547bbea511a043e55876d6", "fusion_lat": 0.0}, {"lon": -76.99515216666667, "name": "4168ff058aa68a2ebfb33cc2b7f4ba1e", "is_disabled": 0, "type": "electric_scooter", "is_reserved": 0, "fusion_lon": 0.0, "lat": 38.8818985, "rental_uris": {"ios": "https://dc.lft.to/lastmile_qr_scan", "android": "https://dc.lft.to/lastmile_qr_scan"}, "bike_id": "4168ff058aa68a2ebfb33cc2b7f4ba1e", "fusion_lat": 0.0}, {"lon": -77.02952633333334, "name": "6a72cba4a84c635b4ac8f3e313986fd7", "is_disabled": 0, "type": "electric_scooter", "is_reserved": 0, "fusion_lon": 0.0, "lat": 38.89891816666667, "rental_uris": {"ios": "https://dc.lft.to/lastmile_qr_scan", "android": "https://dc.lft.to/lastmile_qr_scan"}, "bike_id": "6a72cba4a84c635b4ac8f3e313986fd7", "fusion_lat": 0.0}, {"lon": -76.980371, "name": "42cd35b0758a3aba1028786a46b15e3e", "is_disabled": 0, "type": "electric_scooter", "is_reserved": 0, "fusion_lon": 0.0, "lat": 38.889670333333335, "rental_uris": {"ios": "https://dc.lft.to/lastmile_qr_scan", "android": "https://dc.lft.to/lastmile_qr_scan"}, "bike_id": "42cd35b0758a3aba1028786a46b15e3e", "fusion_lat": 0.0}, {"lon": -76.94469433333333, "name": "47a8c32b5ffb1cccd6f16500f753ee24", "is_disabled": 0, "type": "electric_scooter", "is_reserved": 0, "fusion_lon": 0.0, "lat": 38.8902445, "rental_uris": {"ios": "https://dc.lft.to/lastmile_qr_scan", "android": "https://dc.lft.to/lastmile_qr_scan"}, "bike_id": "47a8c32b5ffb1cccd6f16500f753ee24", "fusion_lat": 0.0}, {"lon": -77.00341133333333, "name": "1e7ea6d957a04432b47d5ab37e526275", "is_disabled": 0, "type": "electric_scooter", "is_reserved": 0, "fusion_lon": 0.0, "lat": 38.92262916666667, "rental_uris": {"ios": "https://dc.lft.to/lastmile_qr_scan", "android": "https://dc.lft.to/lastmile_qr_scan"}, "bike_id": "1e7ea6d957a04432b47d5ab37e526275", "fusion_lat": 0.0}, {"lon": -77.025942, "name": "09e71edcbc544922b0b4391471d67bac", "is_disabled": 0, "type": "electric_scooter", "is_reserved": 0, "fusion_lon": 0.0, "lat": 38.89751033333334, "rental_uris": {"ios": "https://dc.lft.to/lastmile_qr_scan", "android": "https://dc.lft.to/lastmile_qr_scan"}, "bike_id": "09e71edcbc544922b0b4391471d67bac", "fusion_lat": 0.0}, {"lon": -77.1033875, "name": "3b050505ec957d277a530d7e6876e22b", "is_disabled": 0, "type": "electric_bike", "is_reserved": 0, "fusion_lon": 0.0, "lat": 38.836894666666666, "rental_uris": {"ios": "https://dc.lft.to/lastmile_qr_scan", "android": "https://dc.lft.to/lastmile_qr_scan"}, "bike_id": "3b050505ec957d277a530d7e6876e22b", "fusion_lat": 0.0}, {"lon": -77.0211675, "name": "0b3ea19a2f9e2924d1c09c175b4aeeee", "is_disabled": 0, "type": "electric_scooter", "is_reserved": 0, "fusion_lon": 0.0, "lat": 38.92230933333333, "rental_uris": {"ios": "https://dc.lft.to/lastmile_qr_scan", "android": "https://dc.lft.to/lastmile_qr_scan"}, "bike_id": "0b3ea19a2f9e2924d1c09c175b4aeeee", "fusion_lat": 0.0}, {"lon": -77.03447166666666, "name": "e733e2042328e285ebbd83ca047930f2", "is_disabled": 0, "type": "electric_scooter", "is_reserved": 0, "fusion_lon": 0.0, "lat": 38.91781183333333, "rental_uris": {"ios": "https://dc.lft.to/lastmile_qr_scan", "android": "https://dc.lft.to/lastmile_qr_scan"}, "bike_id": "e733e2042328e285ebbd83ca047930f2", "fusion_lat": 0.0}, {"lon": -77.04240633333333, "name": "a219950a6b358065aa3d3b86aa41d9d5", "is_disabled": 0, "type": "electric_scooter", "is_reserved": 0, "fusion_lon": 0.0, "lat": 38.9215635, "rental_uris": {"ios": "https://dc.lft.to/lastmile_qr_scan", "android": "https://dc.lft.to/lastmile_qr_scan"}, "bike_id": "a219950a6b358065aa3d3b86aa41d9d5", "fusion_lat": 0.0}, {"lon": -77.07239033333333, "name": "95dd20b3562264c9a0e87d321313f12d", "is_disabled": 0, "type": "electric_scooter", "is_reserved": 0, "fusion_lon": 0.0, "lat": 38.92152333333333, "rental_uris": {"ios": "https://dc.lft.to/lastmile_qr_scan", "android": "https://dc.lft.to/lastmile_qr_scan"}, "bike_id": "95dd20b3562264c9a0e87d321313f12d", "fusion_lat": 0.0}, {"lon": -77.01708233333333, "name": "b4e5ae3aa8da460349a26799fb7d1868", "is_disabled": 0, "type": "electric_scooter", "is_reserved": 0, "fusion_lon": 0.0, "lat": 38.88740816666667, "rental_uris": {"ios": "https://dc.lft.to/lastmile_qr_scan", "android": "https://dc.lft.to/lastmile_qr_scan"}, "bike_id": "b4e5ae3aa8da460349a26799fb7d1868", "fusion_lat": 0.0}, {"lon": -76.98489366666666, "name": "c1bb34079a193cf97ac92a23c2896848", "is_disabled": 0, "type": "electric_scooter", "is_reserved": 0, "fusion_lon": 0.0, "lat": 38.9036585, "rental_uris": {"ios": "https://dc.lft.to/lastmile_qr_scan", "android": "https://dc.lft.to/lastmile_qr_scan"}, "bike_id": "c1bb34079a193cf97ac92a23c2896848", "fusion_lat": 0.0}, {"lon": -77.0092175, "name": "38e35081ba87738a1d04d12d8970b7cb", "is_disabled": 0, "type": "electric_scooter", "is_reserved": 0, "fusion_lon": 0.0, "lat": 38.89606783333333, "rental_uris": {"ios": "https://dc.lft.to/lastmile_qr_scan", "android": "https://dc.lft.to/lastmile_qr_scan"}, "bike_id": "38e35081ba87738a1d04d12d8970b7cb", "fusion_lat": 0.0}, {"lon": -77.02217233333333, "name": "ec6cfaeab8ca4e8e892cc00e6f519580", "is_disabled": 0, "type": "electric_scooter", "is_reserved": 0, "fusion_lon": 0.0, "lat": 38.924702833333335, "rental_uris": {"ios": "https://dc.lft.to/lastmile_qr_scan", "android": "https://dc.lft.to/lastmile_qr_scan"}, "bike_id": "ec6cfaeab8ca4e8e892cc00e6f519580", "fusion_lat": 0.0}, {"lon": -77.0107215, "name": "f0c5ad6084fbeccadb0bc54be5e47e95", "is_disabled": 0, "type": "electric_scooter", "is_reserved": 0, "fusion_lon": 0.0, "lat": 38.8747495, "rental_uris": {"ios": "https://dc.lft.to/lastmile_qr_scan", "android": "https://dc.lft.to/lastmile_qr_scan"}, "bike_id": "f0c5ad6084fbeccadb0bc54be5e47e95", "fusion_lat": 0.0}, {"lon": -77.00583416666667, "name": "a5200e188d14e32fef61be2eac071943", "is_disabled": 0, "type": "electric_scooter", "is_reserved": 0, "fusion_lon": 0.0, "lat": 38.875187, "rental_uris": {"ios": "https://dc.lft.to/lastmile_qr_scan", "android": "https://dc.lft.to/lastmile_qr_scan"}, "bike_id": "a5200e188d14e32fef61be2eac071943", "fusion_lat": 0.0}, {"lon": -76.9975155, "name": "19bc338d99f87800d5fd091ea65a10ce", "is_disabled": 0, "type": "electric_scooter", "is_reserved": 0, "fusion_lon": 0.0, "lat": 38.900267, "rental_uris": {"ios": "https://dc.lft.to/lastmile_qr_scan", "android": "https://dc.lft.to/lastmile_qr_scan"}, "bike_id": "19bc338d99f87800d5fd091ea65a10ce", "fusion_lat": 0.0}, {"lon": -77.02461466666666, "name": "d7d3e81709b4bb3c398db55c98ecd43b", "is_disabled": 0, "type": "electric_scooter", "is_reserved": 0, "fusion_lon": 0.0, "lat": 38.918808, "rental_uris": {"ios": "https://dc.lft.to/lastmile_qr_scan", "android": "https://dc.lft.to/lastmile_qr_scan"}, "bike_id": "d7d3e81709b4bb3c398db55c98ecd43b", "fusion_lat": 0.0}, {"lon": -77.005391, "name": "9901cf74771bffe549aed599e77c1220", "is_disabled": 0, "type": "electric_scooter", "is_reserved": 0, "fusion_lon": 0.0, "lat": 38.8754295, "rental_uris": {"ios": "https://dc.lft.to/lastmile_qr_scan", "android": "https://dc.lft.to/lastmile_qr_scan"}, "bike_id": "9901cf74771bffe549aed599e77c1220", "fusion_lat": 0.0}, {"lon": -77.02389716666667, "name": "91a7df93cbdf388707bf5fa4874af1b2", "is_disabled": 0, "type": "electric_scooter", "is_reserved": 0, "fusion_lon": 0.0, "lat": 38.898916, "rental_uris": {"ios": "https://dc.lft.to/lastmile_qr_scan", "android": "https://dc.lft.to/lastmile_qr_scan"}, "bike_id": "91a7df93cbdf388707bf5fa4874af1b2", "fusion_lat": 0.0}, {"lon": -77.072393, "name": "d850342cf427703897400656148f5966", "is_disabled": 0, "type": "electric_scooter", "is_reserved": 0, "fusion_lon": 0.0, "lat": 38.9410665, "rental_uris": {"ios": "https://dc.lft.to/lastmile_qr_scan", "android": "https://dc.lft.to/lastmile_qr_scan"}, "bike_id": "d850342cf427703897400656148f5966", "fusion_lat": 0.0}, {"lon": -77.00044066666666, "name": "46bd7d0427d07028412e5365f87d0d54", "is_disabled": 0, "type": "electric_scooter", "is_reserved": 0, "fusion_lon": 0.0, "lat": 38.908031, "rental_uris": {"ios": "https://dc.lft.to/lastmile_qr_scan", "android": "https://dc.lft.to/lastmile_qr_scan"}, "bike_id": "46bd7d0427d07028412e5365f87d0d54", "fusion_lat": 0.0}, {"lon": -76.99150216666666, "name": "bc0e272b4f57b4528e2b67a39b633134", "is_disabled": 0, "type": "electric_scooter", "is_reserved": 0, "fusion_lon": 0.0, "lat": 38.90036033333333, "rental_uris": {"ios": "https://dc.lft.to/lastmile_qr_scan", "android": "https://dc.lft.to/lastmile_qr_scan"}, "bike_id": "bc0e272b4f57b4528e2b67a39b633134", "fusion_lat": 0.0}, {"lon": -76.97333083333334, "name": "1b46a3019e8a1e4b6dd57b2718c7d0dc", "is_disabled": 0, "type": "electric_scooter", "is_reserved": 0, "fusion_lon": 0.0, "lat": 38.90409433333333, "rental_uris": {"ios": "https://dc.lft.to/lastmile_qr_scan", "android": "https://dc.lft.to/lastmile_qr_scan"}, "bike_id": "1b46a3019e8a1e4b6dd57b2718c7d0dc", "fusion_lat": 0.0}, {"lon": -77.01995633333334, "name": "3516e8d361a292df292130067a137363", "is_disabled": 0, "type": "electric_scooter", "is_reserved": 0, "fusion_lon": 0.0, "lat": 38.937747, "rental_uris": {"ios": "https://dc.lft.to/lastmile_qr_scan", "android": "https://dc.lft.to/lastmile_qr_scan"}, "bike_id": "3516e8d361a292df292130067a137363", "fusion_lat": 0.0}, {"lon": -77.0442805, "name": "71d8f08daec64f18f18fce9e1dde3b5f", "is_disabled": 0, "type": "electric_scooter", "is_reserved": 0, "fusion_lon": 0.0, "lat": 38.91534266666667, "rental_uris": {"ios": "https://dc.lft.to/lastmile_qr_scan", "android": "https://dc.lft.to/lastmile_qr_scan"}, "bike_id": "71d8f08daec64f18f18fce9e1dde3b5f", "fusion_lat": 0.0}, {"lon": -76.983825, "name": "f43ed11ca935b4710ffa543f1bc2661d", "is_disabled": 0, "type": "electric_scooter", "is_reserved": 0, "fusion_lon": 0.0, "lat": 38.860325333333336, "rental_uris": {"ios": "https://dc.lft.to/lastmile_qr_scan", "android": "https://dc.lft.to/lastmile_qr_scan"}, "bike_id": "f43ed11ca935b4710ffa543f1bc2661d", "fusion_lat": 0.0}, {"lon": -77.025318, "name": "5fb0b0b3c5b3824ec33c9b6059ca0f54", "is_disabled": 0, "type": "electric_scooter", "is_reserved": 0, "fusion_lon": 0.0, "lat": 38.948358166666665, "rental_uris": {"ios": "https://dc.lft.to/lastmile_qr_scan", "android": "https://dc.lft.to/lastmile_qr_scan"}, "bike_id": "5fb0b0b3c5b3824ec33c9b6059ca0f54", "fusion_lat": 0.0}, {"lon": -76.97335866666667, "name": "d7acc75bfbe799ba0af5ca6aa30037eb", "is_disabled": 0, "type": "electric_scooter", "is_reserved": 0, "fusion_lon": 0.0, "lat": 38.91774866666667, "rental_uris": {"ios": "https://dc.lft.to/lastmile_qr_scan", "android": "https://dc.lft.to/lastmile_qr_scan"}, "bike_id": "d7acc75bfbe799ba0af5ca6aa30037eb", "fusion_lat": 0.0}, {"lon": -77.02081183333334, "name": "0d1f512f162e328564a3f96bc1a334a0", "is_disabled": 0, "type": "electric_scooter", "is_reserved": 0, "fusion_lon": 0.0, "lat": 38.9269965, "rental_uris": {"ios": "https://dc.lft.to/lastmile_qr_scan", "android": "https://dc.lft.to/lastmile_qr_scan"}, "bike_id": "0d1f512f162e328564a3f96bc1a334a0", "fusion_lat": 0.0}, {"lon": -77.02293783333333, "name": "2582b023ce713c27f33d0a027095eece", "is_disabled": 0, "type": "electric_scooter", "is_reserved": 0, "fusion_lon": 0.0, "lat": 38.9205585, "rental_uris": {"ios": "https://dc.lft.to/lastmile_qr_scan", "android": "https://dc.lft.to/lastmile_qr_scan"}, "bike_id": "2582b023ce713c27f33d0a027095eece", "fusion_lat": 0.0}, {"lon": -76.98567266666667, "name": "b73ff45b01ce5455d201bd1772a83494", "is_disabled": 0, "type": "electric_scooter", "is_reserved": 0, "fusion_lon": 0.0, "lat": 38.89953833333333, "rental_uris": {"ios": "https://dc.lft.to/lastmile_qr_scan", "android": "https://dc.lft.to/lastmile_qr_scan"}, "bike_id": "b73ff45b01ce5455d201bd1772a83494", "fusion_lat": 0.0}, {"lon": -76.988273, "name": "661cb09f51b61b09db2d914b5bab50b3", "is_disabled": 0, "type": "electric_scooter", "is_reserved": 0, "fusion_lon": 0.0, "lat": 38.89090133333333, "rental_uris": {"ios": "https://dc.lft.to/lastmile_qr_scan", "android": "https://dc.lft.to/lastmile_qr_scan"}, "bike_id": "661cb09f51b61b09db2d914b5bab50b3", "fusion_lat": 0.0}, {"lon": -77.01227633333333, "name": "8e8d8c50b6d995923c2d7ada5e80711a", "is_disabled": 0, "type": "electric_scooter", "is_reserved": 0, "fusion_lon": 0.0, "lat": 38.91346816666667, "rental_uris": {"ios": "https://dc.lft.to/lastmile_qr_scan", "android": "https://dc.lft.to/lastmile_qr_scan"}, "bike_id": "8e8d8c50b6d995923c2d7ada5e80711a", "fusion_lat": 0.0}, {"lon": -76.99395983333334, "name": "ab0dece83f068aa2050a027310f3dc2d", "is_disabled": 0, "type": "electric_scooter", "is_reserved": 0, "fusion_lon": 0.0, "lat": 38.910051833333334, "rental_uris": {"ios": "https://dc.lft.to/lastmile_qr_scan", "android": "https://dc.lft.to/lastmile_qr_scan"}, "bike_id": "ab0dece83f068aa2050a027310f3dc2d", "fusion_lat": 0.0}, {"lon": -77.02415816666667, "name": "0eab04d74326c867c36e23d949dfb78f", "is_disabled": 0, "type": "electric_scooter", "is_reserved": 0, "fusion_lon": 0.0, "lat": 38.902785333333334, "rental_uris": {"ios": "https://dc.lft.to/lastmile_qr_scan", "android": "https://dc.lft.to/lastmile_qr_scan"}, "bike_id": "0eab04d74326c867c36e23d949dfb78f", "fusion_lat": 0.0}, {"lon": -77.015594, "name": "117eacd5c38d92f275f82edc97e26cec", "is_disabled": 0, "type": "electric_scooter", "is_reserved": 0, "fusion_lon": 0.0, "lat": 38.8936535, "rental_uris": {"ios": "https://dc.lft.to/lastmile_qr_scan", "android": "https://dc.lft.to/lastmile_qr_scan"}, "bike_id": "117eacd5c38d92f275f82edc97e26cec", "fusion_lat": 0.0}, {"lon": -77.021297, "name": "0991ce7b0236d324ee958de0dc4f3b98", "is_disabled": 0, "type": "electric_scooter", "is_reserved": 0, "fusion_lon": 0.0, "lat": 38.92411766666667, "rental_uris": {"ios": "https://dc.lft.to/lastmile_qr_scan", "android": "https://dc.lft.to/lastmile_qr_scan"}, "bike_id": "0991ce7b0236d324ee958de0dc4f3b98", "fusion_lat": 0.0}, {"lon": -77.000325, "name": "40607bb1263b69aa7fe0d5ded6653dbe", "is_disabled": 0, "type": "electric_scooter", "is_reserved": 0, "fusion_lon": 0.0, "lat": 38.8739065, "rental_uris": {"ios": "https://dc.lft.to/lastmile_qr_scan", "android": "https://dc.lft.to/lastmile_qr_scan"}, "bike_id": "40607bb1263b69aa7fe0d5ded6653dbe", "fusion_lat": 0.0}, {"lon": -77.02232116666667, "name": "cc662364ed24fb44d457cbf28e139ade", "is_disabled": 0, "type": "electric_scooter", "is_reserved": 0, "fusion_lon": 0.0, "lat": 38.91413816666667, "rental_uris": {"ios": "https://dc.lft.to/lastmile_qr_scan", "android": "https://dc.lft.to/lastmile_qr_scan"}, "bike_id": "cc662364ed24fb44d457cbf28e139ade", "fusion_lat": 0.0}, {"lon": -77.04701066666667, "name": "5debe81bf8680bea4d47def04731d09b", "is_disabled": 0, "type": "electric_scooter", "is_reserved": 0, "fusion_lon": 0.0, "lat": 38.9026685, "rental_uris": {"ios": "https://dc.lft.to/lastmile_qr_scan", "android": "https://dc.lft.to/lastmile_qr_scan"}, "bike_id": "5debe81bf8680bea4d47def04731d09b", "fusion_lat": 0.0}, {"lon": -77.01946, "name": "de7c6329d3e9886e643d7b368e771cac", "is_disabled": 0, "type": "electric_scooter", "is_reserved": 0, "fusion_lon": 0.0, "lat": 38.9242025, "rental_uris": {"ios": "https://dc.lft.to/lastmile_qr_scan", "android": "https://dc.lft.to/lastmile_qr_scan"}, "bike_id": "de7c6329d3e9886e643d7b368e771cac", "fusion_lat": 0.0}, {"lon": -77.05713333333334, "name": "4efb6167277695ebc6ab4d621bf77037", "is_disabled": 0, "type": "electric_scooter", "is_reserved": 0, "fusion_lon": 0.0, "lat": 38.92599216666667, "rental_uris": {"ios": "https://dc.lft.to/lastmile_qr_scan", "android": "https://dc.lft.to/lastmile_qr_scan"}, "bike_id": "4efb6167277695ebc6ab4d621bf77037", "fusion_lat": 0.0}, {"lon": -77.03585816666667, "name": "892d38ba886a60725ef4a72052646bdd", "is_disabled": 0, "type": "electric_scooter", "is_reserved": 0, "fusion_lon": 0.0, "lat": 38.9269745, "rental_uris": {"ios": "https://dc.lft.to/lastmile_qr_scan", "android": "https://dc.lft.to/lastmile_qr_scan"}, "bike_id": "892d38ba886a60725ef4a72052646bdd", "fusion_lat": 0.0}, {"lon": -77.02168133333333, "name": "07e9ca63bc6d4121660033504720e988", "is_disabled": 0, "type": "electric_scooter", "is_reserved": 0, "fusion_lon": 0.0, "lat": 38.8972945, "rental_uris": {"ios": "https://dc.lft.to/lastmile_qr_scan", "android": "https://dc.lft.to/lastmile_qr_scan"}, "bike_id": "07e9ca63bc6d4121660033504720e988", "fusion_lat": 0.0}, {"lon": -77.04481633333333, "name": "a9efa3769728b263348f6f073b98fd86", "is_disabled": 0, "type": "electric_scooter", "is_reserved": 0, "fusion_lon": 0.0, "lat": 38.915369, "rental_uris": {"ios": "https://dc.lft.to/lastmile_qr_scan", "android": "https://dc.lft.to/lastmile_qr_scan"}, "bike_id": "a9efa3769728b263348f6f073b98fd86", "fusion_lat": 0.0}, {"lon": -77.03122966666666, "name": "e2c9b5f0b9fdf22e41107f9feedaf086", "is_disabled": 0, "type": "electric_scooter", "is_reserved": 0, "fusion_lon": 0.0, "lat": 38.9201895, "rental_uris": {"ios": "https://dc.lft.to/lastmile_qr_scan", "android": "https://dc.lft.to/lastmile_qr_scan"}, "bike_id": "e2c9b5f0b9fdf22e41107f9feedaf086", "fusion_lat": 0.0}, {"lon": -76.99957233333333, "name": "682cf896569814151f7914f1785173d5", "is_disabled": 0, "type": "electric_scooter", "is_reserved": 0, "fusion_lon": 0.0, "lat": 38.906922333333334, "rental_uris": {"ios": "https://dc.lft.to/lastmile_qr_scan", "android": "https://dc.lft.to/lastmile_qr_scan"}, "bike_id": "682cf896569814151f7914f1785173d5", "fusion_lat": 0.0}, {"lon": -77.0123365, "name": "b51534d9acc034c935487f81eacb0ae4", "is_disabled": 0, "type": "electric_scooter", "is_reserved": 0, "fusion_lon": 0.0, "lat": 38.914411333333334, "rental_uris": {"ios": "https://dc.lft.to/lastmile_qr_scan", "android": "https://dc.lft.to/lastmile_qr_scan"}, "bike_id": "b51534d9acc034c935487f81eacb0ae4", "fusion_lat": 0.0}, {"lon": -76.99068516666667, "name": "d51231ad38271355d4b375472022e007", "is_disabled": 0, "type": "electric_bike", "is_reserved": 0, "fusion_lon": 0.0, "lat": 38.898131, "rental_uris": {"ios": "https://dc.lft.to/lastmile_qr_scan", "android": "https://dc.lft.to/lastmile_qr_scan"}, "bike_id": "d51231ad38271355d4b375472022e007", "fusion_lat": 0.0}, {"lon": -77.057719, "name": "6ee9bb23be7d95ea900d7e8cf95f5191", "is_disabled": 0, "type": "electric_scooter", "is_reserved": 0, "fusion_lon": 0.0, "lat": 38.92481733333334, "rental_uris": {"ios": "https://dc.lft.to/lastmile_qr_scan", "android": "https://dc.lft.to/lastmile_qr_scan"}, "bike_id": "6ee9bb23be7d95ea900d7e8cf95f5191", "fusion_lat": 0.0}, {"lon": -77.031617, "name": "c9f0d96f274931015a542987556e752a", "is_disabled": 0, "type": "electric_scooter", "is_reserved": 0, "fusion_lon": 0.0, "lat": 38.959328666666664, "rental_uris": {"ios": "https://dc.lft.to/lastmile_qr_scan", "android": "https://dc.lft.to/lastmile_qr_scan"}, "bike_id": "c9f0d96f274931015a542987556e752a", "fusion_lat": 0.0}, {"lon": -77.02151633333334, "name": "36774a102388edac8555d3657dcad587", "is_disabled": 0, "type": "electric_scooter", "is_reserved": 0, "fusion_lon": 0.0, "lat": 38.926029166666666, "rental_uris": {"ios": "https://dc.lft.to/lastmile_qr_scan", "android": "https://dc.lft.to/lastmile_qr_scan"}, "bike_id": "36774a102388edac8555d3657dcad587", "fusion_lat": 0.0}, {"lon": -77.003342, "name": "6015ba0c8d5db7cbb93aa098ab37c142", "is_disabled": 0, "type": "electric_bike", "is_reserved": 0, "fusion_lon": 0.0, "lat": 38.92019116666667, "rental_uris": {"ios": "https://dc.lft.to/lastmile_qr_scan", "android": "https://dc.lft.to/lastmile_qr_scan"}, "bike_id": "6015ba0c8d5db7cbb93aa098ab37c142", "fusion_lat": 0.0}, {"lon": -77.02394366666667, "name": "ac223662fde722e3e229f2683c1d69fa", "is_disabled": 0, "type": "electric_scooter", "is_reserved": 0, "fusion_lon": 0.0, "lat": 38.91619216666667, "rental_uris": {"ios": "https://dc.lft.to/lastmile_qr_scan", "android": "https://dc.lft.to/lastmile_qr_scan"}, "bike_id": "ac223662fde722e3e229f2683c1d69fa", "fusion_lat": 0.0}, {"lon": -77.04174783333333, "name": "32cae4f5a86aba356a1f343547676a40", "is_disabled": 0, "type": "electric_scooter", "is_reserved": 0, "fusion_lon": 0.0, "lat": 38.916492833333336, "rental_uris": {"ios": "https://dc.lft.to/lastmile_qr_scan", "android": "https://dc.lft.to/lastmile_qr_scan"}, "bike_id": "32cae4f5a86aba356a1f343547676a40", "fusion_lat": 0.0}, {"lon": -77.0195145, "name": "2495c95f33b5f6722ca9d391d6cb6ab4", "is_disabled": 0, "type": "electric_scooter", "is_reserved": 0, "fusion_lon": 0.0, "lat": 38.92424416666667, "rental_uris": {"ios": "https://dc.lft.to/lastmile_qr_scan", "android": "https://dc.lft.to/lastmile_qr_scan"}, "bike_id": "2495c95f33b5f6722ca9d391d6cb6ab4", "fusion_lat": 0.0}, {"lon": -76.934728, "name": "a2b06dc5e43aa4c0a84d38b9dec4b07b", "is_disabled": 0, "type": "electric_scooter", "is_reserved": 0, "fusion_lon": 0.0, "lat": 38.9018265, "rental_uris": {"ios": "https://dc.lft.to/lastmile_qr_scan", "android": "https://dc.lft.to/lastmile_qr_scan"}, "bike_id": "a2b06dc5e43aa4c0a84d38b9dec4b07b", "fusion_lat": 0.0}, {"lon": -77.00418633333334, "name": "68a6dcbef926a4ef87336cfbe30316c1", "is_disabled": 0, "type": "electric_bike", "is_reserved": 0, "fusion_lon": 0.0, "lat": 38.9853105, "rental_uris": {"ios": "https://dc.lft.to/lastmile_qr_scan", "android": "https://dc.lft.to/lastmile_qr_scan"}, "bike_id": "68a6dcbef926a4ef87336cfbe30316c1", "fusion_lat": 0.0}, {"lon": -77.01146233333333, "name": "6f110b7f7a77d6dc18c2401fe13b8dba", "is_disabled": 0, "type": "electric_scooter", "is_reserved": 0, "fusion_lon": 0.0, "lat": 38.89635333333333, "rental_uris": {"ios": "https://dc.lft.to/lastmile_qr_scan", "android": "https://dc.lft.to/lastmile_qr_scan"}, "bike_id": "6f110b7f7a77d6dc18c2401fe13b8dba", "fusion_lat": 0.0}, {"lon": -77.04688283333333, "name": "35cd0570c7f7ac3cf28d49e9d476a955", "is_disabled": 0, "type": "electric_scooter", "is_reserved": 0, "fusion_lon": 0.0, "lat": 38.899644, "rental_uris": {"ios": "https://dc.lft.to/lastmile_qr_scan", "android": "https://dc.lft.to/lastmile_qr_scan"}, "bike_id": "35cd0570c7f7ac3cf28d49e9d476a955", "fusion_lat": 0.0}, {"lon": -77.03487016666666, "name": "8d741348365f043b533198feac58043f", "is_disabled": 0, "type": "electric_scooter", "is_reserved": 0, "fusion_lon": 0.0, "lat": 38.91939516666667, "rental_uris": {"ios": "https://dc.lft.to/lastmile_qr_scan", "android": "https://dc.lft.to/lastmile_qr_scan"}, "bike_id": "8d741348365f043b533198feac58043f", "fusion_lat": 0.0}, {"lon": -76.9321365, "name": "0ab1b3e697cd0c856529bf8b6d01fd87", "is_disabled": 0, "type": "electric_scooter", "is_reserved": 0, "fusion_lon": 0.0, "lat": 38.896655, "rental_uris": {"ios": "https://dc.lft.to/lastmile_qr_scan", "android": "https://dc.lft.to/lastmile_qr_scan"}, "bike_id": "0ab1b3e697cd0c856529bf8b6d01fd87", "fusion_lat": 0.0}, {"lon": -77.00792633333333, "name": "39251cad1fb3ecfa59dd1be8aa01523b", "is_disabled": 0, "type": "electric_scooter", "is_reserved": 0, "fusion_lon": 0.0, "lat": 38.896714, "rental_uris": {"ios": "https://dc.lft.to/lastmile_qr_scan", "android": "https://dc.lft.to/lastmile_qr_scan"}, "bike_id": "39251cad1fb3ecfa59dd1be8aa01523b", "fusion_lat": 0.0}, {"lon": -77.02383866666666, "name": "9d64319521535963d172474be19806a1", "is_disabled": 0, "type": "electric_scooter", "is_reserved": 0, "fusion_lon": 0.0, "lat": 38.95266916666667, "rental_uris": {"ios": "https://dc.lft.to/lastmile_qr_scan", "android": "https://dc.lft.to/lastmile_qr_scan"}, "bike_id": "9d64319521535963d172474be19806a1", "fusion_lat": 0.0}, {"lon": -77.00079416666667, "name": "7347b09d13ab72b7d934015a9b1e921e", "is_disabled": 0, "type": "electric_scooter", "is_reserved": 0, "fusion_lon": 0.0, "lat": 38.875542333333335, "rental_uris": {"ios": "https://dc.lft.to/lastmile_qr_scan", "android": "https://dc.lft.to/lastmile_qr_scan"}, "bike_id": "7347b09d13ab72b7d934015a9b1e921e", "fusion_lat": 0.0}, {"lon": -77.0201375, "name": "98a354b56d6bb74c84b6d3b980c6853b", "is_disabled": 0, "type": "electric_scooter", "is_reserved": 0, "fusion_lon": 0.0, "lat": 38.92415066666667, "rental_uris": {"ios": "https://dc.lft.to/lastmile_qr_scan", "android": "https://dc.lft.to/lastmile_qr_scan"}, "bike_id": "98a354b56d6bb74c84b6d3b980c6853b", "fusion_lat": 0.0}, {"lon": -77.021586, "name": "88ce4177c8096685a48c5ad072f1cd07", "is_disabled": 0, "type": "electric_scooter", "is_reserved": 0, "fusion_lon": 0.0, "lat": 38.92602183333333, "rental_uris": {"ios": "https://dc.lft.to/lastmile_qr_scan", "android": "https://dc.lft.to/lastmile_qr_scan"}, "bike_id": "88ce4177c8096685a48c5ad072f1cd07", "fusion_lat": 0.0}, {"lon": -77.00236933333333, "name": "2636672640ddb3ebaea7c2f88962c8af", "is_disabled": 0, "type": "electric_scooter", "is_reserved": 0, "fusion_lon": 0.0, "lat": 38.90873583333333, "rental_uris": {"ios": "https://dc.lft.to/lastmile_qr_scan", "android": "https://dc.lft.to/lastmile_qr_scan"}, "bike_id": "2636672640ddb3ebaea7c2f88962c8af", "fusion_lat": 0.0}, {"lon": -77.04227683333333, "name": "8ac8d27003961940a5dc6d961ef2e78c", "is_disabled": 0, "type": "electric_scooter", "is_reserved": 0, "fusion_lon": 0.0, "lat": 38.9339175, "rental_uris": {"ios": "https://dc.lft.to/lastmile_qr_scan", "android": "https://dc.lft.to/lastmile_qr_scan"},