{"data": {"bikes": [{"lon": -77.05592133333333, "bike_id": "8957c6c17226eed93e4ac0c236912e10", "lat": 38.9314435, "fusion_lon": 0.0, "fusion_lat": 0.0, "type": "electric_scooter", "name": "8957c6c17226eed93e4ac0c236912e10", "is_disabled": 0, "rental_uris": {"ios": "https://dc.lft.to/lastmile_qr_scan", "android": "https://dc.lft.to/lastmile_qr_scan"}, "is_reserved": 0}, {"lon": -77.03986966666666, "bike_id": "6075e8f48744c76cc77455d417ef923c", "lat": 38.9036115, "fusion_lon": 0.0, "fusion_lat": 0.0, "type": "electric_scooter", "name": "6075e8f48744c76cc77455d417ef923c", "is_disabled": 0, "rental_uris": {"ios": "https://dc.lft.to/lastmile_qr_scan", "android": "https://dc.lft.to/lastmile_qr_scan"}, "is_reserved": 0}, {"lon": -77.0177115, "bike_id": "cfdcf3fdcff33844fffb4d7c6e0a3aba", "lat": 38.901183833333334, "fusion_lon": 0.0, "fusion_lat": 0.0, "type": "electric_scooter", "name": "cfdcf3fdcff33844fffb4d7c6e0a3aba", "is_disabled": 0, "rental_uris": {"ios": "https://dc.lft.to/lastmile_qr_scan", "android": "https://dc.lft.to/lastmile_qr_scan"}, "is_reserved": 0}, {"lon": -76.9565535, "bike_id": "137eee8201338179f7bcb861d71d7108", "lat": 38.89625733333333, "fusion_lon": 0.0, "fusion_lat": 0.0, "type": "electric_scooter", "name": "137eee8201338179f7bcb861d71d7108", "is_disabled": 0, "rental_uris": {"ios": "https://dc.lft.to/lastmile_qr_scan", "android": "https://dc.lft.to/lastmile_qr_scan"}, "is_reserved": 0}, {"lon": -77.127317, "bike_id": "38b87a16f721c3fb4001b288221908d8", "lat": 38.8955875, "fusion_lon": 0.0, "fusion_lat": 0.0, "type": "electric_bike", "name": "38b87a16f721c3fb4001b288221908d8", "is_disabled": 0, "rental_uris": {"ios": "https://dc.lft.to/lastmile_qr_scan", "android": "https://dc.lft.to/lastmile_qr_scan"}, "is_reserved": 0}, {"lon": -77.018064, "bike_id": "3641c10f0b1d9da72b70fa6c393aa986", "lat": 38.964827, "fusion_lon": 0.0, "fusion_lat": 0.0, "type": "electric_scooter", "name": "3641c10f0b1d9da72b70fa6c393aa986", "is_disabled": 0, "rental_uris": {"ios": "https://dc.lft.to/lastmile_qr_scan", "android": "https://dc.lft.to/lastmile_qr_scan"}, "is_reserved": 0}, {"lon": -76.88396533333334, "bike_id": "4b99a039b20f1f8afdcdd85ceaed8fd1", "lat": 38.93167283333333, "fusion_lon": 0.0, "fusion_lat": 0.0, "type": "electric_bike", "name": "4b99a039b20f1f8afdcdd85ceaed8fd1", "is_disabled": 0, "rental_uris": {"ios": "https://dc.lft.to/lastmile_qr_scan", "android": "https://dc.lft.to/lastmile_qr_scan"}, "is_reserved": 0}, {"lon": -77.03877683333333, "bike_id": "67c2844abc207a96e59ffeaf85c391c2", "lat": 38.9486815, "fusion_lon": 0.0, "fusion_lat": 0.0, "type": "electric_scooter", "name": "67c2844abc207a96e59ffeaf85c391c2", "is_disabled": 0, "rental_uris": {"ios": "https://dc.lft.to/lastmile_qr_scan", "android": "https://dc.lft.to/lastmile_qr_scan"}, "is_reserved": 0}, {"lon": -77.057401, "bike_id": "7136c0f1d136b8324ef1197131d8fc48", "lat": 38.933927833333335, "fusion_lon": 0.0, "fusion_lat": 0.0, "type": "electric_scooter", "name": "7136c0f1d136b8324ef1197131d8fc48", "is_disabled": 0, "rental_uris": {"ios": "https://dc.lft.to/lastmile_qr_scan", "android": "https://dc.lft.to/lastmile_qr_scan"}, "is_reserved": 0}, {"lon": -77.0532425, "bike_id": "b7cfad74d91c03e86eba04cea0da9689", "lat": 38.90727166666667, "fusion_lon": 0.0, "fusion_lat": 0.0, "type": "electric_scooter", "name": "b7cfad74d91c03e86eba04cea0da9689", "is_disabled": 0, "rental_uris": {"ios": "https://dc.lft.to/lastmile_qr_scan", "android": "https://dc.lft.to/lastmile_qr_scan"}, "is_reserved": 0}, {"lon": -76.98823283333333, "bike_id": "d2a2e984688c3e6e5b646396c21bc884", "lat": 38.8907645, "fusion_lon": 0.0, "fusion_lat": 0.0, "type": "electric_scooter", "name": "d2a2e984688c3e6e5b646396c21bc884", "is_disabled": 0, "rental_uris": {"ios": "https://dc.lft.to/lastmile_qr_scan", "android": "https://dc.lft.to/lastmile_qr_scan"}, "is_reserved": 0}, {"lon": -77.027559, "bike_id": "52bb20f566fc5e40a391e15577a3058e", "lat": 38.96569483333333, "fusion_lon": 0.0, "fusion_lat": 0.0, "type": "electric_bike", "name": "52bb20f566fc5e40a391e15577a3058e", "is_disabled": 0, "rental_uris": {"ios": "https://dc.lft.to/lastmile_qr_scan", "android": "https://dc.lft.to/lastmile_qr_scan"}, "is_reserved": 0}, {"lon": -76.96129533333334, "bike_id": "03da2c0100f46b46fde31265d621d4cc", "lat": 38.94210433333333, "fusion_lon": 0.0, "fusion_lat": 0.0, "type": "electric_bike", "name": "03da2c0100f46b46fde31265d621d4cc", "is_disabled": 0, "rental_uris": {"ios": "https://dc.lft.to/lastmile_qr_scan", "android": "https://dc.lft.to/lastmile_qr_scan"}, "is_reserved": 0}, {"lon": -77.04651366666667, "bike_id": "5191f3fa2a95e1a5bff4874f32400a0e", "lat": 39.05501666666667, "fusion_lon": 0.0, "fusion_lat": 0.0, "type": "electric_bike", "name": "5191f3fa2a95e1a5bff4874f32400a0e", "is_disabled": 0, "rental_uris": {"ios": "https://dc.lft.to/lastmile_qr_scan", "android": "https://dc.lft.to/lastmile_qr_scan"}, "is_reserved": 0}, {"lon": -77.108051, "bike_id": "6d21c2b90731c4ac3251919129b3b7dc", "lat": 38.812036666666664, "fusion_lon": 0.0, "fusion_lat": 0.0, "type": "electric_bike", "name": "6d21c2b90731c4ac3251919129b3b7dc", "is_disabled": 0, "rental_uris": {"ios": "https://dc.lft.to/lastmile_qr_scan", "android": "https://dc.lft.to/lastmile_qr_scan"}, "is_reserved": 0}, {"lon": -77.02301233333333, "bike_id": "6146fe5a7dd5bbc1d82766895ad72881", "lat": 38.927309, "fusion_lon": 0.0, "fusion_lat": 0.0, "type": "electric_scooter", "name": "6146fe5a7dd5bbc1d82766895ad72881", "is_disabled": 0, "rental_uris": {"ios": "https://dc.lft.to/lastmile_qr_scan", "android": "https://dc.lft.to/lastmile_qr_scan"}, "is_reserved": 0}, {"lon": -77.01525333333333, "bike_id": "301e0219026364868b0566d68c7ac8f2", "lat": 38.884943166666666, "fusion_lon": 0.0, "fusion_lat": 0.0, "type": "electric_scooter", "name": "301e0219026364868b0566d68c7ac8f2", "is_disabled": 0, "rental_uris": {"ios": "https://dc.lft.to/lastmile_qr_scan", "android": "https://dc.lft.to/lastmile_qr_scan"}, "is_reserved": 0}, {"lon": -77.04503683333333, "bike_id": "dcb22b282d052e259ba28e21b26e7141", "lat": 38.919451333333335, "fusion_lon": 0.0, "fusion_lat": 0.0, "type": "electric_scooter", "name": "dcb22b282d052e259ba28e21b26e7141", "is_disabled": 0, "rental_uris": {"ios": "https://dc.lft.to/lastmile_qr_scan", "android": "https://dc.lft.to/lastmile_qr_scan"}, "is_reserved": 0}, {"lon": -77.00008416666667, "bike_id": "d449aae98186ea014653317704ec9c67", "lat": 38.89745083333333, "fusion_lon": 0.0, "fusion_lat": 0.0, "type": "electric_scooter", "name": "d449aae98186ea014653317704ec9c67", "is_disabled": 0, "rental_uris": {"ios": "https://dc.lft.to/lastmile_qr_scan", "android": "https://dc.lft.to/lastmile_qr_scan"}, "is_reserved": 0}, {"lon": -77.02797116666666, "bike_id": "069f4be913dd1e358e26375620c5d44b", "lat": 38.90741766666667, "fusion_lon": 0.0, "fusion_lat": 0.0, "type": "electric_scooter", "name": "069f4be913dd1e358e26375620c5d44b", "is_disabled": 0, "rental_uris": {"ios": "https://dc.lft.to/lastmile_qr_scan", "android": "https://dc.lft.to/lastmile_qr_scan"}, "is_reserved": 0}, {"lon": -76.96492933333333, "bike_id": "3cb7ca06012191b781d4997dcbe29c48", "lat": 38.876462, "fusion_lon": 0.0, "fusion_lat": 0.0, "type": "electric_scooter", "name": "3cb7ca06012191b781d4997dcbe29c48", "is_disabled": 0, "rental_uris": {"ios": "https://dc.lft.to/lastmile_qr_scan", "android": "https://dc.lft.to/lastmile_qr_scan"}, "is_reserved": 0}, {"lon": -77.01669816666667, "bike_id": "47ac17bfb7f5d53b6081a3deb6b19c0f", "lat": 38.88131166666667, "fusion_lon": 0.0, "fusion_lat": 0.0, "type": "electric_bike", "name": "47ac17bfb7f5d53b6081a3deb6b19c0f", "is_disabled": 0, "rental_uris": {"ios": "https://dc.lft.to/lastmile_qr_scan", "android": "https://dc.lft.to/lastmile_qr_scan"}, "is_reserved": 0}, {"lon": -76.9975495, "bike_id": "16b3b418f0ccf65a8e38c0c4029afc90", "lat": 38.8876985, "fusion_lon": 0.0, "fusion_lat": 0.0, "type": "electric_scooter", "name": "16b3b418f0ccf65a8e38c0c4029afc90", "is_disabled": 0, "rental_uris": {"ios": "https://dc.lft.to/lastmile_qr_scan", "android": "https://dc.lft.to/lastmile_qr_scan"}, "is_reserved": 0}, {"lon": -77.05755416666666, "bike_id": "3f97c30cbc4b36f7f8c121580644bd79", "lat": 38.92496933333334, "fusion_lon": 0.0, "fusion_lat": 0.0, "type": "electric_bike", "name": "3f97c30cbc4b36f7f8c121580644bd79", "is_disabled": 0, "rental_uris": {"ios": "https://dc.lft.to/lastmile_qr_scan", "android": "https://dc.lft.to/lastmile_qr_scan"}, "is_reserved": 0}, {"lon": -77.03425833333333, "bike_id": "c924982e5a176e008d798d447abdd6a8", "lat": 38.92748616666667, "fusion_lon": 0.0, "fusion_lat": 0.0, "type": "electric_scooter", "name": "c924982e5a176e008d798d447abdd6a8", "is_disabled": 0, "rental_uris": {"ios": "https://dc.lft.to/lastmile_qr_scan", "android": "https://dc.lft.to/lastmile_qr_scan"}, "is_reserved": 0}, {"lon": -77.03183566666667, "bike_id": "7d3ed55a46eee6a85aedaa4222f0887e", "lat": 38.914225, "fusion_lon": 0.0, "fusion_lat": 0.0, "type": "electric_scooter", "name": "7d3ed55a46eee6a85aedaa4222f0887e", "is_disabled": 0, "rental_uris": {"ios": "https://dc.lft.to/lastmile_qr_scan", "android": "https://dc.lft.to/lastmile_qr_scan"}, "is_reserved": 0}, {"lon": -76.98545616666667, "bike_id": "e9338c416e5f66a53f22cf8b5f514f55", "lat": 38.925069666666666, "fusion_lon": 0.0, "fusion_lat": 0.0, "type": "electric_bike", "name": "e9338c416e5f66a53f22cf8b5f514f55", "is_disabled": 0, "rental_uris": {"ios": "https://dc.lft.to/lastmile_qr_scan", "android": "https://dc.lft.to/lastmile_qr_scan"}, "is_reserved": 0}, {"lon": -76.98838016666667, "bike_id": "0edcc15d6e9d986761555a78063eee7c", "lat": 38.89664916666667, "fusion_lon": 0.0, "fusion_lat": 0.0, "type": "electric_scooter", "name": "0edcc15d6e9d986761555a78063eee7c", "is_disabled": 0, "rental_uris": {"ios": "https://dc.lft.to/lastmile_qr_scan", "android": "https://dc.lft.to/lastmile_qr_scan"}, "is_reserved": 0}, {"lon": -76.9979195, "bike_id": "5047e35a9c22a05d1e031d6aebed117c", "lat": 38.910566333333335, "fusion_lon": 0.0, "fusion_lat": 0.0, "type": "electric_scooter", "name": "5047e35a9c22a05d1e031d6aebed117c", "is_disabled": 0, "rental_uris": {"ios": "https://dc.lft.to/lastmile_qr_scan", "android": "https://dc.lft.to/lastmile_qr_scan"}, "is_reserved": 0}, {"lon": -77.02488366666667, "bike_id": "ee3da862c0f05096a1dd0481f39fb74f", "lat": 38.94184283333333, "fusion_lon": 0.0, "fusion_lat": 0.0, "type": "electric_scooter", "name": "ee3da862c0f05096a1dd0481f39fb74f", "is_disabled": 0, "rental_uris": {"ios": "https://dc.lft.to/lastmile_qr_scan", "android": "https://dc.lft.to/lastmile_qr_scan"}, "is_reserved": 0}, {"lon": -77.03504766666667, "bike_id": "355ea642355a1a3c7236cd698fe32fc2", "lat": 38.92483416666666, "fusion_lon": 0.0, "fusion_lat": 0.0, "type": "electric_scooter", "name": "355ea642355a1a3c7236cd698fe32fc2", "is_disabled": 0, "rental_uris": {"ios": "https://dc.lft.to/lastmile_qr_scan", "android": "https://dc.lft.to/lastmile_qr_scan"}, "is_reserved": 0}, {"lon": -77.04331216666667, "bike_id": "c21dc13dbc27d79954731782aea64461", "lat": 38.907680666666664, "fusion_lon": 0.0, "fusion_lat": 0.0, "type": "electric_scooter", "name": "c21dc13dbc27d79954731782aea64461", "is_disabled": 0, "rental_uris": {"ios": "https://dc.lft.to/lastmile_qr_scan", "android": "https://dc.lft.to/lastmile_qr_scan"}, "is_reserved": 0}, {"lon": -77.01198733333334, "bike_id": "14733374f364fce700d566a55d25c5d2", "lat": 38.89320983333333, "fusion_lon": 0.0, "fusion_lat": 0.0, "type": "electric_scooter", "name": "14733374f364fce700d566a55d25c5d2", "is_disabled": 0, "rental_uris": {"ios": "https://dc.lft.to/lastmile_qr_scan", "android": "https://dc.lft.to/lastmile_qr_scan"}, "is_reserved": 0}, {"lon": -77.077901, "bike_id": "c5e649fdb8b412a953aa512dd9753132", "lat": 38.995993666666664, "fusion_lon": 0.0, "fusion_lat": 0.0, "type": "electric_bike", "name": "c5e649fdb8b412a953aa512dd9753132", "is_disabled": 0, "rental_uris": {"ios": "https://dc.lft.to/lastmile_qr_scan", "android": "https://dc.lft.to/lastmile_qr_scan"}, "is_reserved": 0}, {"lon": -77.00925633333334, "bike_id": "d1cc9a736ddacc9b3ac4cf18e53c6131", "lat": 38.9180765, "fusion_lon": 0.0, "fusion_lat": 0.0, "type": "electric_scooter", "name": "d1cc9a736ddacc9b3ac4cf18e53c6131", "is_disabled": 0, "rental_uris": {"ios": "https://dc.lft.to/lastmile_qr_scan", "android": "https://dc.lft.to/lastmile_qr_scan"}, "is_reserved": 0}, {"lon": -76.96998883333333, "bike_id": "619f4fbe9ea1df4ebb6f4051e4077990", "lat": 38.87366933333333, "fusion_lon": 0.0, "fusion_lat": 0.0, "type": "electric_scooter", "name": "619f4fbe9ea1df4ebb6f4051e4077990", "is_disabled": 0, "rental_uris": {"ios": "https://dc.lft.to/lastmile_qr_scan", "android": "https://dc.lft.to/lastmile_qr_scan"}, "is_reserved": 0}, {"lon": -77.00129166666666, "bike_id": "40d4dc403eeb1ceadc8b4dd3a664e710", "lat": 38.885197833333336, "fusion_lon": 0.0, "fusion_lat": 0.0, "type": "electric_scooter", "name": "40d4dc403eeb1ceadc8b4dd3a664e710", "is_disabled": 0, "rental_uris": {"ios": "https://dc.lft.to/lastmile_qr_scan", "android": "https://dc.lft.to/lastmile_qr_scan"}, "is_reserved": 0}, {"lon": -77.02541183333334, "bike_id": "9f54e33ab168558b0ce32e02f025ff72", "lat": 38.883926333333335, "fusion_lon": 0.0, "fusion_lat": 0.0, "type": "electric_scooter", "name": "9f54e33ab168558b0ce32e02f025ff72", "is_disabled": 0, "rental_uris": {"ios": "https://dc.lft.to/lastmile_qr_scan", "android": "https://dc.lft.to/lastmile_qr_scan"}, "is_reserved": 0}, {"lon": -77.0258215, "bike_id": "6863015dcd3fa760096c8005f064eb70", "lat": 38.90377483333333, "fusion_lon": 0.0, "fusion_lat": 0.0, "type": "electric_scooter", "name": "6863015dcd3fa760096c8005f064eb70", "is_disabled": 0, "rental_uris": {"ios": "https://dc.lft.to/lastmile_qr_scan", "android": "https://dc.lft.to/lastmile_qr_scan"}, "is_reserved": 0}, {"lon": -77.02193683333333, "bike_id": "0dfdbb055aa6b18c60aa34f8a4bc329b", "lat": 38.91122816666667, "fusion_lon": 0.0, "fusion_lat": 0.0, "type": "electric_scooter", "name": "0dfdbb055aa6b18c60aa34f8a4bc329b", "is_disabled": 0, "rental_uris": {"ios": "https://dc.lft.to/lastmile_qr_scan", "android": "https://dc.lft.to/lastmile_qr_scan"}, "is_reserved": 0}, {"lon": -77.0613015, "bike_id": "2f331ac4be13b17c46165b1dab04c47a", "lat": 38.94358866666666, "fusion_lon": 0.0, "fusion_lat": 0.0, "type": "electric_scooter", "name": "2f331ac4be13b17c46165b1dab04c47a", "is_disabled": 0, "rental_uris": {"ios": "https://dc.lft.to/lastmile_qr_scan", "android": "https://dc.lft.to/lastmile_qr_scan"}, "is_reserved": 0}, {"lon": -77.05118033333333, "bike_id": "a2d2d74233fecf517ff49e50b3d64128", "lat": 38.92345366666667, "fusion_lon": 0.0, "fusion_lat": 0.0, "type": "electric_scooter", "name": "a2d2d74233fecf517ff49e50b3d64128", "is_disabled": 0, "rental_uris": {"ios": "https://dc.lft.to/lastmile_qr_scan", "android": "https://dc.lft.to/lastmile_qr_scan"}, "is_reserved": 0}, {"lon": -77.02295883333333, "bike_id": "a3d799d4b8bd1b80d0ae512dcb83a8d7", "lat": 38.923296666666666, "fusion_lon": 0.0, "fusion_lat": 0.0, "type": "electric_bike", "name": "a3d799d4b8bd1b80d0ae512dcb83a8d7", "is_disabled": 0, "rental_uris": {"ios": "https://dc.lft.to/lastmile_qr_scan", "android": "https://dc.lft.to/lastmile_qr_scan"}, "is_reserved": 0}, {"lon": -77.03022583333333, "bike_id": "9cbad6b98c586ecfe4d9c9202c35bcf8", "lat": 38.931048833333335, "fusion_lon": 0.0, "fusion_lat": 0.0, "type": "electric_scooter", "name": "9cbad6b98c586ecfe4d9c9202c35bcf8", "is_disabled": 0, "rental_uris": {"ios": "https://dc.lft.to/lastmile_qr_scan", "android": "https://dc.lft.to/lastmile_qr_scan"}, "is_reserved": 0}, {"lon": -77.043475, "bike_id": "67506f21ba79289ae24368e52beff970", "lat": 38.902533, "fusion_lon": 0.0, "fusion_lat": 0.0, "type": "electric_scooter", "name": "67506f21ba79289ae24368e52beff970", "is_disabled": 0, "rental_uris": {"ios": "https://dc.lft.to/lastmile_qr_scan", "android": "https://dc.lft.to/lastmile_qr_scan"}, "is_reserved": 0}, {"lon": -77.03654083333333, "bike_id": "3c8c17884b16f17f7297608cb8b6ab05", "lat": 38.9128425, "fusion_lon": 0.0, "fusion_lat": 0.0, "type": "electric_scooter", "name": "3c8c17884b16f17f7297608cb8b6ab05", "is_disabled": 0, "rental_uris": {"ios": "https://dc.lft.to/lastmile_qr_scan", "android": "https://dc.lft.to/lastmile_qr_scan"}, "is_reserved": 0}, {"lon": -77.02806866666667, "bike_id": "283b02a6865abb6e9b072a05291d5926", "lat": 38.9047395, "fusion_lon": 0.0, "fusion_lat": 0.0, "type": "electric_scooter", "name": "283b02a6865abb6e9b072a05291d5926", "is_disabled": 0, "rental_uris": {"ios": "https://dc.lft.to/lastmile_qr_scan", "android": "https://dc.lft.to/lastmile_qr_scan"}, "is_reserved": 0}, {"lon": -77.03008083333333, "bike_id": "758148fd61ef00fcd3ef1c550272d884", "lat": 38.9026485, "fusion_lon": 0.0, "fusion_lat": 0.0, "type": "electric_scooter", "name": "758148fd61ef00fcd3ef1c550272d884", "is_disabled": 0, "rental_uris": {"ios": "https://dc.lft.to/lastmile_qr_scan", "android": "https://dc.lft.to/lastmile_qr_scan"}, "is_reserved": 0}, {"lon": -77.00779516666667, "bike_id": "84c30c0bf74db0ae6d1ad9a54058e32f", "lat": 38.98384733333333, "fusion_lon": 0.0, "fusion_lat": 0.0, "type": "electric_bike", "name": "84c30c0bf74db0ae6d1ad9a54058e32f", "is_disabled": 0, "rental_uris": {"ios": "https://dc.lft.to/lastmile_qr_scan", "android": "https://dc.lft.to/lastmile_qr_scan"}, "is_reserved": 0}, {"lon": -76.99684283333333, "bike_id": "19b69bc5b0450ed08c30706d6c6790e5", "lat": 38.8602745, "fusion_lon": 0.0, "fusion_lat": 0.0, "type": "electric_scooter", "name": "19b69bc5b0450ed08c30706d6c6790e5", "is_disabled": 0, "rental_uris": {"ios": "https://dc.lft.to/lastmile_qr_scan", "android": "https://dc.lft.to/lastmile_qr_scan"}, "is_reserved": 0}, {"lon": -77.03652116666666, "bike_id": "6ae07a041bdf74543338bee35e8b1ff3", "lat": 38.9408945, "fusion_lon": 0.0, "fusion_lat": 0.0, "type": "electric_scooter", "name": "6ae07a041bdf74543338bee35e8b1ff3", "is_disabled": 0, "rental_uris": {"ios": "https://dc.lft.to/lastmile_qr_scan", "android": "https://dc.lft.to/lastmile_qr_scan"}, "is_reserved": 0}, {"lon": -77.0433585, "bike_id": "9d893de8a0c3430ecaf61c7f51dccd56", "lat": 38.91778983333333, "fusion_lon": 0.0, "fusion_lat": 0.0, "type": "electric_scooter", "name": "9d893de8a0c3430ecaf61c7f51dccd56", "is_disabled": 0, "rental_uris": {"ios": "https://dc.lft.to/lastmile_qr_scan", "android": "https://dc.lft.to/lastmile_qr_scan"}, "is_reserved": 0}, {"lon": -77.02881483333333, "bike_id": "7469a2b6b203d4a89db3f93b532a6b97", "lat": 38.92828033333333, "fusion_lon": 0.0, "fusion_lat": 0.0, "type": "electric_scooter", "name": "7469a2b6b203d4a89db3f93b532a6b97", "is_disabled": 0, "rental_uris": {"ios": "https://dc.lft.to/lastmile_qr_scan", "android": "https://dc.lft.to/lastmile_qr_scan"}, "is_reserved": 0}, {"lon": -77.03131033333334, "bike_id": "390c590fc6bbebf1989cbec9a3bf5885", "lat": 38.91718816666667, "fusion_lon": 0.0, "fusion_lat": 0.0, "type": "electric_scooter", "name": "390c590fc6bbebf1989cbec9a3bf5885", "is_disabled": 0, "rental_uris": {"ios": "https://dc.lft.to/lastmile_qr_scan", "android": "https://dc.lft.to/lastmile_qr_scan"}, "is_reserved": 0}, {"lon": -77.02367566666666, "bike_id": "13aeba40ecba0d4aa3a4619a29b0b977", "lat": 38.89222766666666, "fusion_lon": 0.0, "fusion_lat": 0.0, "type": "electric_scooter", "name": "13aeba40ecba0d4aa3a4619a29b0b977", "is_disabled": 0, "rental_uris": {"ios": "https://dc.lft.to/lastmile_qr_scan", "android": "https://dc.lft.to/lastmile_qr_scan"}, "is_reserved": 0}, {"lon": -77.00348633333333, "bike_id": "c582d2774a2dc92f537d00ffb8c7cb99", "lat": 38.895220333333334, "fusion_lon": 0.0, "fusion_lat": 0.0, "type": "electric_scooter", "name": "c582d2774a2dc92f537d00ffb8c7cb99", "is_disabled": 0, "rental_uris": {"ios": "https://dc.lft.to/lastmile_qr_scan", "android": "https://dc.lft.to/lastmile_qr_scan"}, "is_reserved": 0}, {"lon": -77.05131883333334, "bike_id": "e10334e27c7feeb264f4c42d40341e04", "lat": 38.9236355, "fusion_lon": 0.0, "fusion_lat": 0.0, "type": "electric_scooter", "name": "e10334e27c7feeb264f4c42d40341e04", "is_disabled": 0, "rental_uris": {"ios": "https://dc.lft.to/lastmile_qr_scan", "android": "https://dc.lft.to/lastmile_qr_scan"}, "is_reserved": 0}, {"lon": -77.03208633333334, "bike_id": "1e11f1bdc793351f6296cdc124655aef", "lat": 38.916858166666664, "fusion_lon": 0.0, "fusion_lat": 0.0, "type": "electric_scooter", "name": "1e11f1bdc793351f6296cdc124655aef", "is_disabled": 0, "rental_uris": {"ios": "https://dc.lft.to/lastmile_qr_scan", "android": "https://dc.lft.to/lastmile_qr_scan"}, "is_reserved": 0}, {"lon": -77.05860916666667, "bike_id": "ef236f4fd6277e293f1ef82acc173229", "lat": 38.93607333333333, "fusion_lon": 0.0, "fusion_lat": 0.0, "type": "electric_scooter", "name": "ef236f4fd6277e293f1ef82acc173229", "is_disabled": 0, "rental_uris": {"ios": "https://dc.lft.to/lastmile_qr_scan", "android": "https://dc.lft.to/lastmile_qr_scan"}, "is_reserved": 0}, {"lon": -77.0502385, "bike_id": "e14b5c29ec65f929a9d41b2e172877be", "lat": 38.897760166666664, "fusion_lon": 0.0, "fusion_lat": 0.0, "type": "electric_scooter", "name": "e14b5c29ec65f929a9d41b2e172877be", "is_disabled": 0, "rental_uris": {"ios": "https://dc.lft.to/lastmile_qr_scan", "android": "https://dc.lft.to/lastmile_qr_scan"}, "is_reserved": 0}, {"lon": -76.9903345, "bike_id": "a52831ebae82a67575058b799f9fc6e7", "lat": 38.898041166666665, "fusion_lon": 0.0, "fusion_lat": 0.0, "type": "electric_scooter", "name": "a52831ebae82a67575058b799f9fc6e7", "is_disabled": 0, "rental_uris": {"ios": "https://dc.lft.to/lastmile_qr_scan", "android": "https://dc.lft.to/lastmile_qr_scan"}, "is_reserved": 0}, {"lon": -77.030695, "bike_id": "5ce3392fb779d96c7054a95ef4613db8", "lat": 38.885846, "fusion_lon": 0.0, "fusion_lat": 0.0, "type": "electric_scooter", "name": "5ce3392fb779d96c7054a95ef4613db8", "is_disabled": 0, "rental_uris": {"ios": "https://dc.lft.to/lastmile_qr_scan", "android": "https://dc.lft.to/lastmile_qr_scan"}, "is_reserved": 0}, {"lon": -76.99769033333334, "bike_id": "ab7441cc163325f5cdec73cf17919a65", "lat": 38.92449633333333, "fusion_lon": 0.0, "fusion_lat": 0.0, "type": "electric_scooter", "name": "ab7441cc163325f5cdec73cf17919a65", "is_disabled": 0, "rental_uris": {"ios": "https://dc.lft.to/lastmile_qr_scan", "android": "https://dc.lft.to/lastmile_qr_scan"}, "is_reserved": 0}, {"lon": -77.04864633333334, "bike_id": "b6fbc22eb914b9ca4782bb338384dfb4", "lat": 38.89221466666667, "fusion_lon": 0.0, "fusion_lat": 0.0, "type": "electric_scooter", "name": "b6fbc22eb914b9ca4782bb338384dfb4", "is_disabled": 0, "rental_uris": {"ios": "https://dc.lft.to/lastmile_qr_scan", "android": "https://dc.lft.to/lastmile_qr_scan"}, "is_reserved": 0}, {"lon": -76.97841033333333, "bike_id": "150a13317798102c1a9307518d1baed5", "lat": 38.865744166666666, "fusion_lon": 0.0, "fusion_lat": 0.0, "type": "electric_bike", "name": "150a13317798102c1a9307518d1baed5", "is_disabled": 0, "rental_uris": {"ios": "https://dc.lft.to/lastmile_qr_scan", "android": "https://dc.lft.to/lastmile_qr_scan"}, "is_reserved": 0}, {"lon": -77.02985683333333, "bike_id": "a3fe520b978b6d126a51986a5389d0e0", "lat": 38.974378333333334, "fusion_lon": 0.0, "fusion_lat": 0.0, "type": "electric_bike", "name": "a3fe520b978b6d126a51986a5389d0e0", "is_disabled": 0, "rental_uris": {"ios": "https://dc.lft.to/lastmile_qr_scan", "android": "https://dc.lft.to/lastmile_qr_scan"}, "is_reserved": 0}, {"lon": -77.02311483333334, "bike_id": "4147c54d2d226cc99362f1aa562242b9", "lat": 38.909607666666666, "fusion_lon": 0.0, "fusion_lat": 0.0, "type": "electric_scooter", "name": "4147c54d2d226cc99362f1aa562242b9", "is_disabled": 0, "rental_uris": {"ios": "https://dc.lft.to/lastmile_qr_scan", "android": "https://dc.lft.to/lastmile_qr_scan"}, "is_reserved": 0}, {"lon": -77.05910616666667, "bike_id": "488758cc938fc6fe39b8a95e610266e4", "lat": 38.905403166666666, "fusion_lon": 0.0, "fusion_lat": 0.0, "type": "electric_scooter", "name": "488758cc938fc6fe39b8a95e610266e4", "is_disabled": 0, "rental_uris": {"ios": "https://dc.lft.to/lastmile_qr_scan", "android": "https://dc.lft.to/lastmile_qr_scan"}, "is_reserved": 0}, {"lon": -77.0045825, "bike_id": "91a06fcce57217d654437b59fc673524", "lat": 38.87760733333333, "fusion_lon": 0.0, "fusion_lat": 0.0, "type": "electric_scooter", "name": "91a06fcce57217d654437b59fc673524", "is_disabled": 0, "rental_uris": {"ios": "https://dc.lft.to/lastmile_qr_scan", "android": "https://dc.lft.to/lastmile_qr_scan"}, "is_reserved": 0}, {"lon": -77.03443466666667, "bike_id": "95364c8f1563d3c3c90f446a1a617608", "lat": 38.90543233333333, "fusion_lon": 0.0, "fusion_lat": 0.0, "type": "electric_scooter", "name": "95364c8f1563d3c3c90f446a1a617608", "is_disabled": 0, "rental_uris": {"ios": "https://dc.lft.to/lastmile_qr_scan", "android": "https://dc.lft.to/lastmile_qr_scan"}, "is_reserved": 0}, {"lon": -77.02196233333333, "bike_id": "63612305b707db294e9f92fe883d1990", "lat": 38.895045833333334, "fusion_lon": 0.0, "fusion_lat": 0.0, "type": "electric_scooter", "name": "63612305b707db294e9f92fe883d1990", "is_disabled": 0, "rental_uris": {"ios": "https://dc.lft.to/lastmile_qr_scan", "android": "https://dc.lft.to/lastmile_qr_scan"}, "is_reserved": 0}, {"lon": -77.1856015, "bike_id": "da08f28ed45f71b7e70e82f00c00aa6e", "lat": 39.099745166666665, "fusion_lon": 0.0, "fusion_lat": 0.0, "type": "electric_bike", "name": "da08f28ed45f71b7e70e82f00c00aa6e", "is_disabled": 0, "rental_uris": {"ios": "https://dc.lft.to/lastmile_qr_scan", "android": "https://dc.lft.to/lastmile_qr_scan"}, "is_reserved": 0}, {"lon": -77.07590633333334, "bike_id": "d85317eb085314efd367cbd2012d1104", "lat": 38.912146, "fusion_lon": 0.0, "fusion_lat": 0.0, "type": "electric_scooter", "name": "d85317eb085314efd367cbd2012d1104", "is_disabled": 0, "rental_uris": {"ios": "https://dc.lft.to/lastmile_qr_scan", "android": "https://dc.lft.to/lastmile_qr_scan"}, "is_reserved": 0}, {"lon": -76.99938466666667, "bike_id": "655bc960a5dfe6968bca2464dad2e350", "lat": 38.907729, "fusion_lon": 0.0, "fusion_lat": 0.0, "type": "electric_scooter", "name": "655bc960a5dfe6968bca2464dad2e350", "is_disabled": 0, "rental_uris": {"ios": "https://dc.lft.to/lastmile_qr_scan", "android": "https://dc.lft.to/lastmile_qr_scan"}, "is_reserved": 0}, {"lon": -77.01598483333333, "bike_id": "f3b912277eb4061a9a6934aa3c78080d", "lat": 38.90258933333333, "fusion_lon": 0.0, "fusion_lat": 0.0, "type": "electric_scooter", "name": "f3b912277eb4061a9a6934aa3c78080d", "is_disabled": 0, "rental_uris": {"ios": "https://dc.lft.to/lastmile_qr_scan", "android": "https://dc.lft.to/lastmile_qr_scan"}, "is_reserved": 0}, {"lon": -77.031686, "bike_id": "05e5c0b4730fc96362892375e42139b2", "lat": 38.92090116666667, "fusion_lon": 0.0, "fusion_lat": 0.0, "type": "electric_bike", "name": "05e5c0b4730fc96362892375e42139b2", "is_disabled": 0, "rental_uris": {"ios": "https://dc.lft.to/lastmile_qr_scan", "android": "https://dc.lft.to/lastmile_qr_scan"}, "is_reserved": 0}, {"lon": -77.031237, "bike_id": "3defe14e3b2e767aa0085b29bdcde7d0", "lat": 38.944986666666665, "fusion_lon": 0.0, "fusion_lat": 0.0, "type": "electric_scooter", "name": "3defe14e3b2e767aa0085b29bdcde7d0", "is_disabled": 0, "rental_uris": {"ios": "https://dc.lft.to/lastmile_qr_scan", "android": "https://dc.lft.to/lastmile_qr_scan"}, "is_reserved": 0}, {"lon": -76.977457, "bike_id": "05aa18138b440b1338cdb2eba9371df8", "lat": 38.864868, "fusion_lon": 0.0, "fusion_lat": 0.0, "type": "electric_bike", "name": "05aa18138b440b1338cdb2eba9371df8", "is_disabled": 0, "rental_uris": {"ios": "https://dc.lft.to/lastmile_qr_scan", "android": "https://dc.lft.to/lastmile_qr_scan"}, "is_reserved": 0}, {"lon": -76.990738, "bike_id": "ad709ee015c48aeb7ff1963b5517ff9e", "lat": 38.8978915, "fusion_lon": 0.0, "fusion_lat": 0.0, "type": "electric_bike", "name": "ad709ee015c48aeb7ff1963b5517ff9e", "is_disabled": 0, "rental_uris": {"ios": "https://dc.lft.to/lastmile_qr_scan", "android": "https://dc.lft.to/lastmile_qr_scan"}, "is_reserved": 0}, {"lon": -76.9877125, "bike_id": "05a35cb5ac4fbf2d49834b84c4c9043c", "lat": 38.86607383333333, "fusion_lon": 0.0, "fusion_lat": 0.0, "type": "electric_bike", "name": "05a35cb5ac4fbf2d49834b84c4c9043c", "is_disabled": 0, "rental_uris": {"ios": "https://dc.lft.to/lastmile_qr_scan", "android": "https://dc.lft.to/lastmile_qr_scan"}, "is_reserved": 0}, {"lon": -77.031752, "bike_id": "6c7af39c0b1e62f9b7809ac0148f9007", "lat": 38.9360425, "fusion_lon": 0.0, "fusion_lat": 0.0, "type": "electric_scooter", "name": "6c7af39c0b1e62f9b7809ac0148f9007", "is_disabled": 0, "rental_uris": {"ios": "https://dc.lft.to/lastmile_qr_scan", "android": "https://dc.lft.to/lastmile_qr_scan"}, "is_reserved": 0}, {"lon": -77.03869683333333, "bike_id": "7b30a79840651f4f5b0d96555da97831", "lat": 38.91547633333333, "fusion_lon": 0.0, "fusion_lat": 0.0, "type": "electric_scooter", "name": "7b30a79840651f4f5b0d96555da97831", "is_disabled": 0, "rental_uris": {"ios": "https://dc.lft.to/lastmile_qr_scan", "android": "https://dc.lft.to/lastmile_qr_scan"}, "is_reserved": 0}, {"lon": -77.024683, "bike_id": "9e8f40b95a339a6d7e62f08b966b4363", "lat": 38.93885383333333, "fusion_lon": 0.0, "fusion_lat": 0.0, "type": "electric_scooter", "name": "9e8f40b95a339a6d7e62f08b966b4363", "is_disabled": 0, "rental_uris": {"ios": "https://dc.lft.to/lastmile_qr_scan", "android": "https://dc.lft.to/lastmile_qr_scan"}, "is_reserved": 0}, {"lon": -77.08068383333334, "bike_id": "857b3d104a8550a7310f65f011f1fc5c", "lat": 39.05277516666666, "fusion_lon": 0.0, "fusion_lat": 0.0, "type": "electric_bike", "name": "857b3d104a8550a7310f65f011f1fc5c", "is_disabled": 0, "rental_uris": {"ios": "https://dc.lft.to/lastmile_qr_scan", "android": "https://dc.lft.to/lastmile_qr_scan"}, "is_reserved": 0}, {"lon": -76.99086516666667, "bike_id": "15ff4d68f6258e964243a55755c99e4c", "lat": 38.862352, "fusion_lon": 0.0, "fusion_lat": 0.0, "type": "electric_bike", "name": "15ff4d68f6258e964243a55755c99e4c", "is_disabled": 0, "rental_uris": {"ios": "https://dc.lft.to/lastmile_qr_scan", "android": "https://dc.lft.to/lastmile_qr_scan"}, "is_reserved": 0}, {"lon": -77.02803433333334, "bike_id": "432553a42f5e4748ae05ca6ab9b32a1c", "lat": 38.93140416666667, "fusion_lon": 0.0, "fusion_lat": 0.0, "type": "electric_scooter", "name": "432553a42f5e4748ae05ca6ab9b32a1c", "is_disabled": 0, "rental_uris": {"ios": "https://dc.lft.to/lastmile_qr_scan", "android": "https://dc.lft.to/lastmile_qr_scan"}, "is_reserved": 0}, {"lon": -77.02054366666667, "bike_id": "452d429b079a62132e4acd6c2d03ed81", "lat": 38.897155166666664, "fusion_lon": 0.0, "fusion_lat": 0.0, "type": "electric_scooter", "name": "452d429b079a62132e4acd6c2d03ed81", "is_disabled": 0, "rental_uris": {"ios": "https://dc.lft.to/lastmile_qr_scan", "android": "https://dc.lft.to/lastmile_qr_scan"}, "is_reserved": 0}, {"lon": -76.97474566666666, "bike_id": "1b0f24b42118559c359813946a0f004a", "lat": 38.90347633333333, "fusion_lon": 0.0, "fusion_lat": 0.0, "type": "electric_scooter", "name": "1b0f24b42118559c359813946a0f004a", "is_disabled": 0, "rental_uris": {"ios": "https://dc.lft.to/lastmile_qr_scan", "android": "https://dc.lft.to/lastmile_qr_scan"}, "is_reserved": 0}, {"lon": -77.02713066666666, "bike_id": "ac4f0da8afea5dd53a6f78eeffe6f13d", "lat": 38.918058, "fusion_lon": 0.0, "fusion_lat": 0.0, "type": "electric_scooter", "name": "ac4f0da8afea5dd53a6f78eeffe6f13d", "is_disabled": 0, "rental_uris": {"ios": "https://dc.lft.to/lastmile_qr_scan", "android": "https://dc.lft.to/lastmile_qr_scan"}, "is_reserved": 0}, {"lon": -77.02010616666666, "bike_id": "7ff793a8602a5e2fe31500dd38660777", "lat": 38.92418833333333, "fusion_lon": 0.0, "fusion_lat": 0.0, "type": "electric_scooter", "name": "7ff793a8602a5e2fe31500dd38660777", "is_disabled": 0, "rental_uris": {"ios": "https://dc.lft.to/lastmile_qr_scan", "android": "https://dc.lft.to/lastmile_qr_scan"}, "is_reserved": 0}, {"lon": -77.02381283333334, "bike_id": "2ea255076d74583da978ddbafec31bc1", "lat": 38.93377, "fusion_lon": 0.0, "fusion_lat": 0.0, "type": "electric_scooter", "name": "2ea255076d74583da978ddbafec31bc1", "is_disabled": 0, "rental_uris": {"ios": "https://dc.lft.to/lastmile_qr_scan", "android": "https://dc.lft.to/lastmile_qr_scan"}, "is_reserved": 0}, {"lon": -77.0295045, "bike_id": "ba5e8e982bce3d32b071738960139e61", "lat": 38.911745833333335, "fusion_lon": 0.0, "fusion_lat": 0.0, "type": "electric_scooter", "name": "ba5e8e982bce3d32b071738960139e61", "is_disabled": 0, "rental_uris": {"ios": "https://dc.lft.to/lastmile_qr_scan", "android": "https://dc.lft.to/lastmile_qr_scan"}, "is_reserved": 0}, {"lon": -77.006763, "bike_id": "0925f7fc1038346f13152c5dc10c1719", "lat": 38.9000805, "fusion_lon": 0.0, "fusion_lat": 0.0, "type": "electric_scooter", "name": "0925f7fc1038346f13152c5dc10c1719", "is_disabled": 0, "rental_uris": {"ios": "https://dc.lft.to/lastmile_qr_scan", "android": "https://dc.lft.to/lastmile_qr_scan"}, "is_reserved": 0}, {"lon": -76.99015083333333, "bike_id": "c31f7c084c80edb57666c8c3fc4f4024", "lat": 38.86642966666667, "fusion_lon": 0.0, "fusion_lat": 0.0, "type": "electric_scooter", "name": "c31f7c084c80edb57666c8c3fc4f4024", "is_disabled": 0, "rental_uris": {"ios": "https://dc.lft.to/lastmile_qr_scan", "android": "https://dc.lft.to/lastmile_qr_scan"}, "is_reserved": 0}, {"lon": -77.04186516666667, "bike_id": "bfb9438c03f8d287fde69fcf132bf17a", "lat": 38.90653616666667, "fusion_lon": 0.0, "fusion_lat": 0.0, "type": "electric_scooter", "name": "bfb9438c03f8d287fde69fcf132bf17a", "is_disabled": 0, "rental_uris": {"ios": "https://dc.lft.to/lastmile_qr_scan", "android": "https://dc.lft.to/lastmile_qr_scan"}, "is_reserved": 0}, {"lon": -77.0438615, "bike_id": "ce55fac45580a5abf83b003ae24ce23e", "lat": 38.92324983333334, "fusion_lon": 0.0, "fusion_lat": 0.0, "type": "electric_scooter", "name": "ce55fac45580a5abf83b003ae24ce23e", "is_disabled": 0, "rental_uris": {"ios": "https://dc.lft.to/lastmile_qr_scan", "android": "https://dc.lft.to/lastmile_qr_scan"}, "is_reserved": 0}, {"lon": -77.02849916666666, "bike_id": "ce8c5c839db145cf5b1a57e1f78a4d12", "lat": 38.95624133333333, "fusion_lon": 0.0, "fusion_lat": 0.0, "type": "electric_scooter", "name": "ce8c5c839db145cf5b1a57e1f78a4d12", "is_disabled": 0, "rental_uris": {"ios": "https://dc.lft.to/lastmile_qr_scan", "android": "https://dc.lft.to/lastmile_qr_scan"}, "is_reserved": 0}, {"lon": -77.04151366666666, "bike_id": "3c9c1d44959a7c708370ee806cf74c07", "lat": 38.906319333333336, "fusion_lon": 0.0, "fusion_lat": 0.0, "type": "electric_bike", "name": "3c9c1d44959a7c708370ee806cf74c07", "is_disabled": 0, "rental_uris": {"ios": "https://dc.lft.to/lastmile_qr_scan", "android": "https://dc.lft.to/lastmile_qr_scan"}, "is_reserved": 0}, {"lon": -77.0638715, "bike_id": "c5ebd406ff702404c7ec03d4f65a4356", "lat": 38.90296766666667, "fusion_lon": 0.0, "fusion_lat": 0.0, "type": "electric_scooter", "name": "c5ebd406ff702404c7ec03d4f65a4356", "is_disabled": 0, "rental_uris": {"ios": "https://dc.lft.to/lastmile_qr_scan", "android": "https://dc.lft.to/lastmile_qr_scan"}, "is_reserved": 0}, {"lon": -77.0535085, "bike_id": "c78ce7d43a42608a7218061c797ada5f", "lat": 38.927098, "fusion_lon": 0.0, "fusion_lat": 0.0, "type": "electric_scooter", "name": "c78ce7d43a42608a7218061c797ada5f", "is_disabled": 0, "rental_uris": {"ios": "https://dc.lft.to/lastmile_qr_scan", "android": "https://dc.lft.to/lastmile_qr_scan"}, "is_reserved": 0}, {"lon": -77.02408416666667, "bike_id": "4d2fd31a8c28e93b175058a33dd1871d", "lat": 38.909676833333336, "fusion_lon": 0.0, "fusion_lat": 0.0, "type": "electric_scooter", "name": "4d2fd31a8c28e93b175058a33dd1871d", "is_disabled": 0, "rental_uris": {"ios": "https://dc.lft.to/lastmile_qr_scan", "android": "https://dc.lft.to/lastmile_qr_scan"}, "is_reserved": 0}, {"lon": -77.00586283333334, "bike_id": "27e22b0e2ce08911ab0bb0efb2dc5a3e", "lat": 38.906292, "fusion_lon": 0.0, "fusion_lat": 0.0, "type": "electric_scooter", "name": "27e22b0e2ce08911ab0bb0efb2dc5a3e", "is_disabled": 0, "rental_uris": {"ios": "https://dc.lft.to/lastmile_qr_scan", "android": "https://dc.lft.to/lastmile_qr_scan"}, "is_reserved": 0}, {"lon": -77.0228115, "bike_id": "05717ef65f01c1cad70c26e55abf9a3f", "lat": 38.909054166666664, "fusion_lon": 0.0, "fusion_lat": 0.0, "type": "electric_scooter", "name": "05717ef65f01c1cad70c26e55abf9a3f", "is_disabled": 0, "rental_uris": {"ios": "https://dc.lft.to/lastmile_qr_scan", "android": "https://dc.lft.to/lastmile_qr_scan"}, "is_reserved": 0}, {"lon": -77.02789283333334, "bike_id": "725a3e002956877d83b2009a1b2529b9", "lat": 38.9568265, "fusion_lon": 0.0, "fusion_lat": 0.0, "type": "electric_scooter", "name": "725a3e002956877d83b2009a1b2529b9", "is_disabled": 0, "rental_uris": {"ios": "https://dc.lft.to/lastmile_qr_scan", "android": "https://dc.lft.to/lastmile_qr_scan"}, "is_reserved": 0}, {"lon": -77.0523455, "bike_id": "55f916e3eaba75116c0f384050a187a7", "lat": 38.924694333333335, "fusion_lon": 0.0, "fusion_lat": 0.0, "type": "electric_scooter", "name": "55f916e3eaba75116c0f384050a187a7", "is_disabled": 0, "rental_uris": {"ios": "https://dc.lft.to/lastmile_qr_scan", "android": "https://dc.lft.to/lastmile_qr_scan"}, "is_reserved": 0}, {"lon": -77.0248945, "bike_id": "b3c8d5f2537c654e226ac811042e82a7", "lat": 38.938595166666666, "fusion_lon": 0.0, "fusion_lat": 0.0, "type": "electric_scooter", "name": "b3c8d5f2537c654e226ac811042e82a7", "is_disabled": 0, "rental_uris": {"ios": "https://dc.lft.to/lastmile_qr_scan", "android": "https://dc.lft.to/lastmile_qr_scan"}, "is_reserved": 0}, {"lon": -77.051319, "bike_id": "4b3835058e3c5ee85fb6dd29a79b9c14", "lat": 38.92363733333333, "fusion_lon": 0.0, "fusion_lat": 0.0, "type": "electric_scooter", "name": "4b3835058e3c5ee85fb6dd29a79b9c14", "is_disabled": 0, "rental_uris": {"ios": "https://dc.lft.to/lastmile_qr_scan", "android": "https://dc.lft.to/lastmile_qr_scan"}, "is_reserved": 0}, {"lon": -77.00752816666666, "bike_id": "eb163771dc25edeb3dc75767417a6108", "lat": 38.9065225, "fusion_lon": 0.0, "fusion_lat": 0.0, "type": "electric_scooter", "name": "eb163771dc25edeb3dc75767417a6108", "is_disabled": 0, "rental_uris": {"ios": "https://dc.lft.to/lastmile_qr_scan", "android": "https://dc.lft.to/lastmile_qr_scan"}, "is_reserved": 0}, {"lon": -77.01275066666666, "bike_id": "c322c3135be0863c6624b78da3af49ac", "lat": 38.912716333333336, "fusion_lon": 0.0, "fusion_lat": 0.0, "type": "electric_scooter", "name": "c322c3135be0863c6624b78da3af49ac", "is_disabled": 0, "rental_uris": {"ios": "https://dc.lft.to/lastmile_qr_scan", "android": "https://dc.lft.to/lastmile_qr_scan"}, "is_reserved": 0}, {"lon": -77.04398933333333, "bike_id": "7fd0fc7bd1d4e175136b0ea1af8306e1", "lat": 38.933256666666665, "fusion_lon": 0.0, "fusion_lat": 0.0, "type": "electric_scooter", "name": "7fd0fc7bd1d4e175136b0ea1af8306e1", "is_disabled": 0, "rental_uris": {"ios": "https://dc.lft.to/lastmile_qr_scan", "android": "https://dc.lft.to/lastmile_qr_scan"}, "is_reserved": 0}, {"lon": -76.9275285, "bike_id": "8d4b7faad7bda720266744c09f38f26b", "lat": 38.880513666666666, "fusion_lon": 0.0, "fusion_lat": 0.0, "type": "electric_scooter", "name": "8d4b7faad7bda720266744c09f38f26b", "is_disabled": 0, "rental_uris": {"ios": "https://dc.lft.to/lastmile_qr_scan", "android": "https://dc.lft.to/lastmile_qr_scan"}, "is_reserved": 0}, {"lon": -77.05276816666667, "bike_id": "75f5d312be01cb5118dbc2ea16dc63b6", "lat": 38.910213, "fusion_lon": 0.0, "fusion_lat": 0.0, "type": "electric_scooter", "name": "75f5d312be01cb5118dbc2ea16dc63b6", "is_disabled": 0, "rental_uris": {"ios": "https://dc.lft.to/lastmile_qr_scan", "android": "https://dc.lft.to/lastmile_qr_scan"}, "is_reserved": 0}, {"lon": -77.03230583333334, "bike_id": "7d8f1a2e512ac032ca366c4f68a8f51a", "lat": 38.927503333333334, "fusion_lon": 0.0, "fusion_lat": 0.0, "type": "electric_scooter", "name": "7d8f1a2e512ac032ca366c4f68a8f51a", "is_disabled": 0, "rental_uris": {"ios": "https://dc.lft.to/lastmile_qr_scan", "android": "https://dc.lft.to/lastmile_qr_scan"}, "is_reserved": 0}, {"lon": -77.0393475, "bike_id": "be1b0afbb39d1c2743cab5ce7427030d", "lat": 38.9156285, "fusion_lon": 0.0, "fusion_lat": 0.0, "type": "electric_scooter", "name": "be1b0afbb39d1c2743cab5ce7427030d", "is_disabled": 0, "rental_uris": {"ios": "https://dc.lft.to/lastmile_qr_scan", "android": "https://dc.lft.to/lastmile_qr_scan"}, "is_reserved": 0}, {"lon": -76.9806395, "bike_id": "0d154724e2db292f14f2a0a051d3c74c", "lat": 38.884941833333336, "fusion_lon": 0.0, "fusion_lat": 0.0, "type": "electric_scooter", "name": "0d154724e2db292f14f2a0a051d3c74c", "is_disabled": 0, "rental_uris": {"ios": "https://dc.lft.to/lastmile_qr_scan", "android": "https://dc.lft.to/lastmile_qr_scan"}, "is_reserved": 0}, {"lon": -77.08804416666666, "bike_id": "037fcca916c5e64b4b52eb5493777e84", "lat": 38.911759833333335, "fusion_lon": 0.0, "fusion_lat": 0.0, "type": "electric_scooter", "name": "037fcca916c5e64b4b52eb5493777e84", "is_disabled": 0, "rental_uris": {"ios": "https://dc.lft.to/lastmile_qr_scan", "android": "https://dc.lft.to/lastmile_qr_scan"}, "is_reserved": 0}, {"lon": -77.0243475, "bike_id": "8d0106a77ac87ad8ecb4373ebb14d6a5", "lat": 38.918875166666666, "fusion_lon": 0.0, "fusion_lat": 0.0, "type": "electric_scooter", "name": "8d0106a77ac87ad8ecb4373ebb14d6a5", "is_disabled": 0, "rental_uris": {"ios": "https://dc.lft.to/lastmile_qr_scan", "android": "https://dc.lft.to/lastmile_qr_scan"}, "is_reserved": 0}, {"lon": -77.02609966666667, "bike_id": "66995bedd59e46f8e2cd539f28d107be", "lat": 38.91692366666667, "fusion_lon": 0.0, "fusion_lat": 0.0, "type": "electric_scooter", "name": "66995bedd59e46f8e2cd539f28d107be", "is_disabled": 0, "rental_uris": {"ios": "https://dc.lft.to/lastmile_qr_scan", "android": "https://dc.lft.to/lastmile_qr_scan"}, "is_reserved": 0}, {"lon": -76.99500216666667, "bike_id": "f9b3a4fd50c14da6db120b8047531b36", "lat": 38.88256166666667, "fusion_lon": 0.0, "fusion_lat": 0.0, "type": "electric_scooter", "name": "f9b3a4fd50c14da6db120b8047531b36", "is_disabled": 0, "rental_uris": {"ios": "https://dc.lft.to/lastmile_qr_scan", "android": "https://dc.lft.to/lastmile_qr_scan"}, "is_reserved": 0}, {"lon": -76.97396316666666, "bike_id": "a320d3dc5f3d5504af8fe6789ecb645e", "lat": 38.902956, "fusion_lon": 0.0, "fusion_lat": 0.0, "type": "electric_scooter", "name": "a320d3dc5f3d5504af8fe6789ecb645e", "is_disabled": 0, "rental_uris": {"ios": "https://dc.lft.to/lastmile_qr_scan", "android": "https://dc.lft.to/lastmile_qr_scan"}, "is_reserved": 0}, {"lon": -76.9458785, "bike_id": "54076f0d1d67ea81109f68732e219afb", "lat": 38.901514166666665, "fusion_lon": 0.0, "fusion_lat": 0.0, "type": "electric_scooter", "name": "54076f0d1d67ea81109f68732e219afb", "is_disabled": 0, "rental_uris": {"ios": "https://dc.lft.to/lastmile_qr_scan", "android": "https://dc.lft.to/lastmile_qr_scan"}, "is_reserved": 0}, {"lon": -76.9890615, "bike_id": "dfbaab03cdc2ade698bffd710bb13b76", "lat": 38.8649105, "fusion_lon": 0.0, "fusion_lat": 0.0, "type": "electric_scooter", "name": "dfbaab03cdc2ade698bffd710bb13b76", "is_disabled": 0, "rental_uris": {"ios": "https://dc.lft.to/lastmile_qr_scan", "android": "https://dc.lft.to/lastmile_qr_scan"}, "is_reserved": 0}, {"lon": -77.03035983333334, "bike_id": "ddedfa6c45f39cdcca27908f3877baa2", "lat": 38.9371595, "fusion_lon": 0.0, "fusion_lat": 0.0, "type": "electric_scooter", "name": "ddedfa6c45f39cdcca27908f3877baa2", "is_disabled": 0, "rental_uris": {"ios": "https://dc.lft.to/lastmile_qr_scan", "android": "https://dc.lft.to/lastmile_qr_scan"}, "is_reserved": 0}, {"lon": -77.03993016666666, "bike_id": "f59a2db17c58045c0d75785f45047ba0", "lat": 38.93430733333334, "fusion_lon": 0.0, "fusion_lat": 0.0, "type": "electric_scooter", "name": "f59a2db17c58045c0d75785f45047ba0", "is_disabled": 0, "rental_uris": {"ios": "https://dc.lft.to/lastmile_qr_scan", "android": "https://dc.lft.to/lastmile_qr_scan"}, "is_reserved": 0}, {"lon": -77.09039533333333, "bike_id": "b8acc9f8a92672f5f63321ab320c34f2", "lat": 38.84971, "fusion_lon": 0.0, "fusion_lat": 0.0, "type": "electric_bike", "name": "b8acc9f8a92672f5f63321ab320c34f2", "is_disabled": 0, "rental_uris": {"ios": "https://dc.lft.to/lastmile_qr_scan", "android": "https://dc.lft.to/lastmile_qr_scan"}, "is_reserved": 0}, {"lon": -77.02440566666667, "bike_id": "4cb8bb4a37eb832bf273172563c9b23c", "lat": 38.93703, "fusion_lon": 0.0, "fusion_lat": 0.0, "type": "electric_scooter", "name": "4cb8bb4a37eb832bf273172563c9b23c", "is_disabled": 0, "rental_uris": {"ios": "https://dc.lft.to/lastmile_qr_scan", "android": "https://dc.lft.to/lastmile_qr_scan"}, "is_reserved": 0}, {"lon": -77.074124, "bike_id": "415929d3e26b86e9c517854eec5e5c12", "lat": 38.9288485, "fusion_lon": 0.0, "fusion_lat": 0.0, "type": "electric_scooter", "name": "415929d3e26b86e9c517854eec5e5c12", "is_disabled": 0, "rental_uris": {"ios": "https://dc.lft.to/lastmile_qr_scan", "android": "https://dc.lft.to/lastmile_qr_scan"}, "is_reserved": 0}, {"lon": -77.010155, "bike_id": "0f3d96f0396cd03a59e2e297c1b4c145", "lat": 38.908541166666666, "fusion_lon": 0.0, "fusion_lat": 0.0, "type": "electric_scooter", "name": "0f3d96f0396cd03a59e2e297c1b4c145", "is_disabled": 0, "rental_uris": {"ios": "https://dc.lft.to/lastmile_qr_scan", "android": "https://dc.lft.to/lastmile_qr_scan"}, "is_reserved": 0}, {"lon": -77.02263833333333, "bike_id": "1d4ca2dff529ef975cc0143530be546e", "lat": 38.927382333333334, "fusion_lon": 0.0, "fusion_lat": 0.0, "type": "electric_scooter", "name": "1d4ca2dff529ef975cc0143530be546e", "is_disabled": 0, "rental_uris": {"ios": "https://dc.lft.to/lastmile_qr_scan", "android": "https://dc.lft.to/lastmile_qr_scan"}, "is_reserved": 0}, {"lon": -77.058059, "bike_id": "ba3e8cb058f896215d5b79065027d74c", "lat": 38.9345145, "fusion_lon": 0.0, "fusion_lat": 0.0, "type": "electric_scooter", "name": "ba3e8cb058f896215d5b79065027d74c", "is_disabled": 0, "rental_uris": {"ios": "https://dc.lft.to/lastmile_qr_scan", "android": "https://dc.lft.to/lastmile_qr_scan"}, "is_reserved": 0}, {"lon": -77.02401983333333, "bike_id": "d85d4a326f68bb1ca02165a5b5503755", "lat": 38.937049, "fusion_lon": 0.0, "fusion_lat": 0.0, "type": "electric_scooter", "name": "d85d4a326f68bb1ca02165a5b5503755", "is_disabled": 0, "rental_uris": {"ios": "https://dc.lft.to/lastmile_qr_scan", "android": "https://dc.lft.to/lastmile_qr_scan"}, "is_reserved": 0}, {"lon": -77.031844, "bike_id": "4f491d603a52bc78a4a9fdbde3b03e31", "lat": 38.913313333333335, "fusion_lon": 0.0, "fusion_lat": 0.0, "type": "electric_scooter", "name": "4f491d603a52bc78a4a9fdbde3b03e31", "is_disabled": 0, "rental_uris": {"ios": "https://dc.lft.to/lastmile_qr_scan", "android": "https://dc.lft.to/lastmile_qr_scan"}, "is_reserved": 0}, {"lon": -77.01634366666667, "bike_id": "1804aedac2b7ba9d7be17a7dfcbf69f0", "lat": 38.92899716666667, "fusion_lon": 0.0, "fusion_lat": 0.0, "type": "electric_scooter", "name": "1804aedac2b7ba9d7be17a7dfcbf69f0", "is_disabled": 0, "rental_uris": {"ios": "https://dc.lft.to/lastmile_qr_scan", "android": "https://dc.lft.to/lastmile_qr_scan"}, "is_reserved": 0}, {"lon": -77.04917966666666, "bike_id": "b94b8cdfb90ff544a289651f27a99e4a", "lat": 38.903628, "fusion_lon": 0.0, "fusion_lat": 0.0, "type": "electric_scooter", "name": "b94b8cdfb90ff544a289651f27a99e4a", "is_disabled": 0, "rental_uris": {"ios": "https://dc.lft.to/lastmile_qr_scan", "android": "https://dc.lft.to/lastmile_qr_scan"}, "is_reserved": 0}, {"lon": -76.995451, "bike_id": "d9baa9ec7b63a87d7e32b901ab215ddd", "lat": 38.862588333333335, "fusion_lon": 0.0, "fusion_lat": 0.0, "type": "electric_scooter", "name": "d9baa9ec7b63a87d7e32b901ab215ddd", "is_disabled": 0, "rental_uris": {"ios": "https://dc.lft.to/lastmile_qr_scan", "android": "https://dc.lft.to/lastmile_qr_scan"}, "is_reserved": 0}, {"lon": -76.99543383333334, "bike_id": "518f6c68cc714b07d1b020e2146f47a2", "lat": 38.92667566666667, "fusion_lon": 0.0, "fusion_lat": 0.0, "type": "electric_scooter", "name": "518f6c68cc714b07d1b020e2146f47a2", "is_disabled": 0, "rental_uris": {"ios": "https://dc.lft.to/lastmile_qr_scan", "android": "https://dc.lft.to/lastmile_qr_scan"}, "is_reserved": 0}, {"lon": -77.0260645, "bike_id": "ac7c8c844d81cc0a4ddaf0fed3ed834b", "lat": 38.89607216666667, "fusion_lon": 0.0, "fusion_lat": 0.0, "type": "electric_scooter", "name": "ac7c8c844d81cc0a4ddaf0fed3ed834b", "is_disabled": 0, "rental_uris": {"ios": "https://dc.lft.to/lastmile_qr_scan", "android": "https://dc.lft.to/lastmile_qr_scan"}, "is_reserved": 0}, {"lon": -77.03854733333333, "bike_id": "ecd1d0041718176bb9323f59d90d679a", "lat": 38.93131616666667, "fusion_lon": 0.0, "fusion_lat": 0.0, "type": "electric_scooter", "name": "ecd1d0041718176bb9323f59d90d679a", "is_disabled": 0, "rental_uris": {"ios": "https://dc.lft.to/lastmile_qr_scan", "android": "https://dc.lft.to/lastmile_qr_scan"}, "is_reserved": 0}, {"lon": -76.937341, "bike_id": "9b2988194cb3b4422da0e26a1205bef7", "lat": 38.8900385, "fusion_lon": 0.0, "fusion_lat": 0.0, "type": "electric_scooter", "name": "9b2988194cb3b4422da0e26a1205bef7", "is_disabled": 0, "rental_uris": {"ios": "https://dc.lft.to/lastmile_qr_scan", "android": "https://dc.lft.to/lastmile_qr_scan"}, "is_reserved": 0}, {"lon": -77.04205583333334, "bike_id": "02d31e7619a77f7cd70908b586f8bff7", "lat": 38.89268, "fusion_lon": 0.0, "fusion_lat": 0.0, "type": "electric_scooter", "name": "02d31e7619a77f7cd70908b586f8bff7", "is_disabled": 0, "rental_uris": {"ios": "https://dc.lft.to/lastmile_qr_scan", "android": "https://dc.lft.to/lastmile_qr_scan"}, "is_reserved": 0}, {"lon": -77.02989533333333, "bike_id": "b435660809dc204c711f7e8746f18aaf", "lat": 38.92475233333333, "fusion_lon": 0.0, "fusion_lat": 0.0, "type": "electric_scooter", "name": "b435660809dc204c711f7e8746f18aaf", "is_disabled": 0, "rental_uris": {"ios": "https://dc.lft.to/lastmile_qr_scan", "android": "https://dc.lft.to/lastmile_qr_scan"}, "is_reserved": 0}, {"lon": -77.0367065, "bike_id": "48ede99e898d6c7fc0010382edd7d35b", "lat": 38.909597833333336, "fusion_lon": 0.0, "fusion_lat": 0.0, "type": "electric_scooter", "name": "48ede99e898d6c7fc0010382edd7d35b", "is_disabled": 0, "rental_uris": {"ios": "https://dc.lft.to/lastmile_qr_scan", "android": "https://dc.lft.to/lastmile_qr_scan"}, "is_reserved": 0}, {"lon": -76.93127816666667, "bike_id": "8f41f18c03d9769982df8d9c40e9c974", "lat": 38.87613666666667, "fusion_lon": 0.0, "fusion_lat": 0.0, "type": "electric_scooter", "name": "8f41f18c03d9769982df8d9c40e9c974", "is_disabled": 0, "rental_uris": {"ios": "https://dc.lft.to/lastmile_qr_scan", "android": "https://dc.lft.to/lastmile_qr_scan"}, "is_reserved": 0}, {"lon": -77.02149483333334, "bike_id": "a573ca8b86729963095e0d03cc2f658c", "lat": 38.87918416666667, "fusion_lon": 0.0, "fusion_lat": 0.0, "type": "electric_scooter", "name": "a573ca8b86729963095e0d03cc2f658c", "is_disabled": 0, "rental_uris": {"ios": "https://dc.lft.to/lastmile_qr_scan", "android": "https://dc.lft.to/lastmile_qr_scan"}, "is_reserved": 0}, {"lon": -77.02287, "bike_id": "a2c53dc765516c185461a3b896ae37cf", "lat": 38.894614, "fusion_lon": 0.0, "fusion_lat": 0.0, "type": "electric_scooter", "name": "a2c53dc765516c185461a3b896ae37cf", "is_disabled": 0, "rental_uris": {"ios": "https://dc.lft.to/lastmile_qr_scan", "android": "https://dc.lft.to/lastmile_qr_scan"}, "is_reserved": 0}, {"lon": -76.98101466666667, "bike_id": "045453ea256e346db385c4e9ca65d23d", "lat": 38.904184666666666, "fusion_lon": 0.0, "fusion_lat": 0.0, "type": "electric_scooter", "name": "045453ea256e346db385c4e9ca65d23d", "is_disabled": 0, "rental_uris": {"ios": "https://dc.lft.to/lastmile_qr_scan", "android": "https://dc.lft.to/lastmile_qr_scan"}, "is_reserved": 0}, {"lon": -76.986821, "bike_id": "da5a9f378dc77774531043d646c210b5", "lat": 38.91215666666667, "fusion_lon": 0.0, "fusion_lat": 0.0, "type": "electric_scooter", "name": "da5a9f378dc77774531043d646c210b5", "is_disabled": 0, "rental_uris": {"ios": "https://dc.lft.to/lastmile_qr_scan", "android": "https://dc.lft.to/lastmile_qr_scan"}, "is_reserved": 0}, {"lon": -77.02344516666666, "bike_id": "8f8b5d0fdb4b97e39ba6879f5ffe1cd6", "lat": 38.922501833333335, "fusion_lon": 0.0, "fusion_lat": 0.0, "type": "electric_scooter", "name": "8f8b5d0fdb4b97e39ba6879f5ffe1cd6", "is_disabled": 0, "rental_uris": {"ios": "https://dc.lft.to/lastmile_qr_scan", "android": "https://dc.lft.to/lastmile_qr_scan"}, "is_reserved": 0}, {"lon": -77.02162016666666, "bike_id": "09fd817b178f68cbe8ee2427032f50eb", "lat": 38.909681666666664, "fusion_lon": 0.0, "fusion_lat": 0.0, "type": "electric_scooter", "name": "09fd817b178f68cbe8ee2427032f50eb", "is_disabled": 0, "rental_uris": {"ios": "https://dc.lft.to/lastmile_qr_scan", "android": "https://dc.lft.to/lastmile_qr_scan"}, "is_reserved": 0}, {"lon": -77.02402783333334, "bike_id": "511dd9c331e39f53ce260d30c49d48e6", "lat": 38.90946266666667, "fusion_lon": 0.0, "fusion_lat": 0.0, "type": "electric_scooter", "name": "511dd9c331e39f53ce260d30c49d48e6", "is_disabled": 0, "rental_uris": {"ios": "https://dc.lft.to/lastmile_qr_scan", "android": "https://dc.lft.to/lastmile_qr_scan"}, "is_reserved": 0}, {"lon": -76.98171533333333, "bike_id": "d099b702fb37b56573f4e8b5ab38dc94", "lat": 38.90442916666667, "fusion_lon": 0.0, "fusion_lat": 0.0, "type": "electric_scooter", "name": "d099b702fb37b56573f4e8b5ab38dc94", "is_disabled": 0, "rental_uris": {"ios": "https://dc.lft.to/lastmile_qr_scan", "android": "https://dc.lft.to/lastmile_qr_scan"}, "is_reserved": 0}, {"lon": -77.02926466666666, "bike_id": "a2831b2334f677cb8e225a588a2401c5", "lat": 38.934598666666666, "fusion_lon": 0.0, "fusion_lat": 0.0, "type": "electric_scooter", "name": "a2831b2334f677cb8e225a588a2401c5", "is_disabled": 0, "rental_uris": {"ios": "https://dc.lft.to/lastmile_qr_scan", "android": "https://dc.lft.to/lastmile_qr_scan"}, "is_reserved": 0}, {"lon": -77.05463333333333, "bike_id": "a19f0264c4fbdfdceffc185168dd450c", "lat": 38.855472, "fusion_lon": 0.0, "fusion_lat": 0.0, "type": "electric_bike", "name": "a19f0264c4fbdfdceffc185168dd450c", "is_disabled": 0, "rental_uris": {"ios": "https://dc.lft.to/lastmile_qr_scan", "android": "https://dc.lft.to/lastmile_qr_scan"}, "is_reserved": 0}, {"lon": -77.0386495, "bike_id": "fbe5b32a5b317d7c659982e60e78f379", "lat": 38.9154835, "fusion_lon": 0.0, "fusion_lat": 0.0, "type": "electric_scooter", "name": "fbe5b32a5b317d7c659982e60e78f379", "is_disabled": 0, "rental_uris": {"ios": "https://dc.lft.to/lastmile_qr_scan", "android": "https://dc.lft.to/lastmile_qr_scan"}, "is_reserved": 0}, {"lon": -77.00670383333333, "bike_id": "4b06809542fa3e22a96d72c546f4c509", "lat": 38.9000835, "fusion_lon": 0.0, "fusion_lat": 0.0, "type": "electric_scooter", "name": "4b06809542fa3e22a96d72c546f4c509", "is_disabled": 0, "rental_uris": {"ios": "https://dc.lft.to/lastmile_qr_scan", "android": "https://dc.lft.to/lastmile_qr_scan"}, "is_reserved": 0}, {"lon": -77.01444883333333, "bike_id": "f0d65a0c4d284c8d9f93b3f5f23743f4", "lat": 38.876753, "fusion_lon": 0.0, "fusion_lat": 0.0, "type": "electric_bike", "name": "f0d65a0c4d284c8d9f93b3f5f23743f4", "is_disabled": 0, "rental_uris": {"ios": "https://dc.lft.to/lastmile_qr_scan", "android": "https://dc.lft.to/lastmile_qr_scan"}, "is_reserved": 0}, {"lon": -77.02860716666666, "bike_id": "c1d4b59f6bd65b6805525477ff1a9dbe", "lat": 38.885098, "fusion_lon": 0.0, "fusion_lat": 0.0, "type": "electric_scooter", "name": "c1d4b59f6bd65b6805525477ff1a9dbe", "is_disabled": 0, "rental_uris": {"ios": "https://dc.lft.to/lastmile_qr_scan", "android": "https://dc.lft.to/lastmile_qr_scan"}, "is_reserved": 0}, {"lon": -77.00656766666667, "bike_id": "53291deaaa46613cf9f34fa77fd08e26", "lat": 38.9446275, "fusion_lon": 0.0, "fusion_lat": 0.0, "type": "electric_scooter", "name": "53291deaaa46613cf9f34fa77fd08e26", "is_disabled": 0, "rental_uris": {"ios": "https://dc.lft.to/lastmile_qr_scan", "android": "https://dc.lft.to/lastmile_qr_scan"}, "is_reserved": 0}, {"lon": -77.0433205, "bike_id": "7b5f0003a42436dd1b429fa31bede15a", "lat": 38.9133235, "fusion_lon": 0.0, "fusion_lat": 0.0, "type": "electric_scooter", "name": "7b5f0003a42436dd1b429fa31bede15a", "is_disabled": 0, "rental_uris": {"ios": "https://dc.lft.to/lastmile_qr_scan", "android": "https://dc.lft.to/lastmile_qr_scan"}, "is_reserved": 0}, {"lon": -77.12979533333333, "bike_id": "a2709ecfb23c3086b79e6327a1659895", "lat": 38.7998535, "fusion_lon": 0.0, "fusion_lat": 0.0, "type": "electric_bike", "name": "a2709ecfb23c3086b79e6327a1659895", "is_disabled": 0, "rental_uris": {"ios": "https://dc.lft.to/lastmile_qr_scan", "android": "https://dc.lft.to/lastmile_qr_scan"}, "is_reserved": 0}, {"lon": -77.03865966666666, "bike_id": "9321de5ae83af53df3957bf3ccf3718f", "lat": 38.93249183333333, "fusion_lon": 0.0, "fusion_lat": 0.0, "type": "electric_scooter", "name": "9321de5ae83af53df3957bf3ccf3718f", "is_disabled": 0, "rental_uris": {"ios": "https://dc.lft.to/lastmile_qr_scan", "android": "https://dc.lft.to/lastmile_qr_scan"}, "is_reserved": 0}, {"lon": -77.025991, "bike_id": "13fc7a4a62182ca281d34be54ad35621", "lat": 38.9203975, "fusion_lon": 0.0, "fusion_lat": 0.0, "type": "electric_scooter", "name": "13fc7a4a62182ca281d34be54ad35621", "is_disabled": 0, "rental_uris": {"ios": "https://dc.lft.to/lastmile_qr_scan", "android": "https://dc.lft.to/lastmile_qr_scan"}, "is_reserved": 0}, {"lon": -77.03763333333333, "bike_id": "b3c0a433e908414adbb215f4e13983d5", "lat": 38.9201085, "fusion_lon": 0.0, "fusion_lat": 0.0, "type": "electric_scooter", "name": "b3c0a433e908414adbb215f4e13983d5", "is_disabled": 0, "rental_uris": {"ios": "https://dc.lft.to/lastmile_qr_scan", "android": "https://dc.lft.to/lastmile_qr_scan"}, "is_reserved": 0}, {"lon": -77.032891, "bike_id": "645f41781bde1eed49f92763685d12d6", "lat": 38.928835, "fusion_lon": 0.0, "fusion_lat": 0.0, "type": "electric_scooter", "name": "645f41781bde1eed49f92763685d12d6", "is_disabled": 0, "rental_uris": {"ios": "https://dc.lft.to/lastmile_qr_scan", "android": "https://dc.lft.to/lastmile_qr_scan"}, "is_reserved": 0}, {"lon": -77.031972, "bike_id": "56b6dd4252dbc20d197c22cad526666b", "lat": 38.903629, "fusion_lon": 0.0, "fusion_lat": 0.0, "type": "electric_scooter", "name": "56b6dd4252dbc20d197c22cad526666b", "is_disabled": 0, "rental_uris": {"ios": "https://dc.lft.to/lastmile_qr_scan", "android": "https://dc.lft.to/lastmile_qr_scan"}, "is_reserved": 0}, {"lon": -77.02468116666667, "bike_id": "963efd71a5857d60c587a92f51e367b1", "lat": 38.9039435, "fusion_lon": 0.0, "fusion_lat": 0.0, "type": "electric_scooter", "name": "963efd71a5857d60c587a92f51e367b1", "is_disabled": 0, "rental_uris": {"ios": "https://dc.lft.to/lastmile_qr_scan", "android": "https://dc.lft.to/lastmile_qr_scan"}, "is_reserved": 0}, {"lon": -77.031842, "bike_id": "4a7626106e94f913d9432ca7fad19e5a", "lat": 38.91239216666666, "fusion_lon": 0.0, "fusion_lat": 0.0, "type": "electric_scooter", "name": "4a7626106e94f913d9432ca7fad19e5a", "is_disabled": 0, "rental_uris": {"ios": "https://dc.lft.to/lastmile_qr_scan", "android": "https://dc.lft.to/lastmile_qr_scan"}, "is_reserved": 0}, {"lon": -77.04107916666666, "bike_id": "6dcb0bcbb4562c53f94b36af0836c06b", "lat": 38.927971, "fusion_lon": 0.0, "fusion_lat": 0.0, "type": "electric_scooter", "name": "6dcb0bcbb4562c53f94b36af0836c06b", "is_disabled": 0, "rental_uris": {"ios": "https://dc.lft.to/lastmile_qr_scan", "android": "https://dc.lft.to/lastmile_qr_scan"}, "is_reserved": 0}, {"lon": -77.03838616666667, "bike_id": "d806b4a6a2756b5d3a79909f3f0e326d", "lat": 38.915605166666666, "fusion_lon": 0.0, "fusion_lat": 0.0, "type": "electric_scooter", "name": "d806b4a6a2756b5d3a79909f3f0e326d", "is_disabled": 0, "rental_uris": {"ios": "https://dc.lft.to/lastmile_qr_scan", "android": "https://dc.lft.to/lastmile_qr_scan"}, "is_reserved": 0}, {"lon": -76.99138283333333, "bike_id": "913af0fbf991d4b9f65afd7fe9ce6f97", "lat": 38.88198216666667, "fusion_lon": 0.0, "fusion_lat": 0.0, "type": "electric_scooter", "name": "913af0fbf991d4b9f65afd7fe9ce6f97", "is_disabled": 0, "rental_uris": {"ios": "https://dc.lft.to/lastmile_qr_scan", "android": "https://dc.lft.to/lastmile_qr_scan"}, "is_reserved": 0}, {"lon": -77.00716083333333, "bike_id": "a09e9e35b586bc7fe43afa97d53687a0", "lat": 38.833377, "fusion_lon": 0.0, "fusion_lat": 0.0, "type": "electric_bike", "name": "a09e9e35b586bc7fe43afa97d53687a0", "is_disabled": 0, "rental_uris": {"ios": "https://dc.lft.to/lastmile_qr_scan", "android": "https://dc.lft.to/lastmile_qr_scan"}, "is_reserved": 0}, {"lon": -77.02315483333334, "bike_id": "73c9f0d101381f6df48fa3d98d0a43a1", "lat": 38.92076333333333, "fusion_lon": 0.0, "fusion_lat": 0.0, "type": "electric_scooter", "name": "73c9f0d101381f6df48fa3d98d0a43a1", "is_disabled": 0, "rental_uris": {"ios": "https://dc.lft.to/lastmile_qr_scan", "android": "https://dc.lft.to/lastmile_qr_scan"}, "is_reserved": 0}, {"lon": -77.009368, "bike_id": "23e8a964f53a27c8b9dbe4b32a7e48b3", "lat": 38.883134, "fusion_lon": 0.0, "fusion_lat": 0.0, "type": "electric_scooter", "name": "23e8a964f53a27c8b9dbe4b32a7e48b3", "is_disabled": 0, "rental_uris": {"ios": "https://dc.lft.to/lastmile_qr_scan", "android": "https://dc.lft.to/lastmile_qr_scan"}, "is_reserved": 0}, {"lon": -77.02422966666667, "bike_id": "45cfdc68cfddedd6c464b28164104391", "lat": 38.91402166666666, "fusion_lon": 0.0, "fusion_lat": 0.0, "type": "electric_scooter", "name": "45cfdc68cfddedd6c464b28164104391", "is_disabled": 0, "rental_uris": {"ios": "https://dc.lft.to/lastmile_qr_scan", "android": "https://dc.lft.to/lastmile_qr_scan"}, "is_reserved": 0}, {"lon": -77.02165466666666, "bike_id": "64c17f79d269fd15be92d938f1d56611", "lat": 38.887463833333335, "fusion_lon": 0.0, "fusion_lat": 0.0, "type": "electric_scooter", "name": "64c17f79d269fd15be92d938f1d56611", "is_disabled": 0, "rental_uris": {"ios": "https://dc.lft.to/lastmile_qr_scan", "android": "https://dc.lft.to/lastmile_qr_scan"}, "is_reserved": 0}, {"lon": -77.02406616666667, "bike_id": "45417b3de8bb605bd78aa74490bc12d2", "lat": 38.934765666666664, "fusion_lon": 0.0, "fusion_lat": 0.0, "type": "electric_scooter", "name": "45417b3de8bb605bd78aa74490bc12d2", "is_disabled": 0, "rental_uris": {"ios": "https://dc.lft.to/lastmile_qr_scan", "android": "https://dc.lft.to/lastmile_qr_scan"}, "is_reserved": 0}, {"lon": -77.0296575, "bike_id": "74d6e175eb6a73dee65ad6c199a59f2f", "lat": 38.916832166666666, "fusion_lon": 0.0, "fusion_lat": 0.0, "type": "electric_scooter", "name": "74d6e175eb6a73dee65ad6c199a59f2f", "is_disabled": 0, "rental_uris": {"ios": "https://dc.lft.to/lastmile_qr_scan", "android": "https://dc.lft.to/lastmile_qr_scan"}, "is_reserved": 0}, {"lon": -76.988783, "bike_id": "1d1f18f00c2c3d5894e6e3511d77fb8f", "lat": 38.866576, "fusion_lon": 0.0, "fusion_lat": 0.0, "type": "electric_scooter", "name": "1d1f18f00c2c3d5894e6e3511d77fb8f", "is_disabled": 0, "rental_uris": {"ios": "https://dc.lft.to/lastmile_qr_scan", "android": "https://dc.lft.to/lastmile_qr_scan"}, "is_reserved": 0}, {"lon": -77.03175783333333, "bike_id": "da9cec6a242202413553bc06f3579929", "lat": 38.89572733333333, "fusion_lon": 0.0, "fusion_lat": 0.0, "type": "electric_scooter", "name": "da9cec6a242202413553bc06f3579929", "is_disabled": 0, "rental_uris": {"ios": "https://dc.lft.to/lastmile_qr_scan", "android": "https://dc.lft.to/lastmile_qr_scan"}, "is_reserved": 0}, {"lon": -77.023021, "bike_id": "a9f916a30977bb00381c8caeedfc76a8", "lat": 38.940897, "fusion_lon": 0.0, "fusion_lat": 0.0, "type": "electric_scooter", "name": "a9f916a30977bb00381c8caeedfc76a8", "is_disabled": 0, "rental_uris": {"ios": "https://dc.lft.to/lastmile_qr_scan", "android": "https://dc.lft.to/lastmile_qr_scan"}, "is_reserved": 0}, {"lon": -77.04812866666667, "bike_id": "086f6c6b38bc1ea5b99e585525fc5a61", "lat": 38.91330683333333, "fusion_lon": 0.0, "fusion_lat": 0.0, "type": "electric_scooter", "name": "086f6c6b38bc1ea5b99e585525fc5a61", "is_disabled": 0, "rental_uris": {"ios": "https://dc.lft.to/lastmile_qr_scan", "android": "https://dc.lft.to/lastmile_qr_scan"}, "is_reserved": 0}, {"lon": -77.03982516666666, "bike_id": "0779d110fc43f03f7947e90611e4154a", "lat": 38.924545333333334, "fusion_lon": 0.0, "fusion_lat": 0.0, "type": "electric_scooter", "name": "0779d110fc43f03f7947e90611e4154a", "is_disabled": 0, "rental_uris": {"ios": "https://dc.lft.to/lastmile_qr_scan", "android": "https://dc.lft.to/lastmile_qr_scan"}, "is_reserved": 0}, {"lon": -77.02157066666666, "bike_id": "df6e780a732e34d044c05ae681eaa2af", "lat": 38.8921705, "fusion_lon": 0.0, "fusion_lat": 0.0, "type": "electric_scooter", "name": "df6e780a732e34d044c05ae681eaa2af", "is_disabled": 0, "rental_uris": {"ios": "https://dc.lft.to/lastmile_qr_scan", "android": "https://dc.lft.to/lastmile_qr_scan"}, "is_reserved": 0}, {"lon": -77.04662183333333, "bike_id": "c9ff210a128ae1020ec59a1127be3451", "lat": 38.9034285, "fusion_lon": 0.0, "fusion_lat": 0.0, "type": "electric_scooter", "name": "c9ff210a128ae1020ec59a1127be3451", "is_disabled": 0, "rental_uris": {"ios": "https://dc.lft.to/lastmile_qr_scan", "android": "https://dc.lft.to/lastmile_qr_scan"}, "is_reserved": 0}, {"lon": -77.0239215, "bike_id": "bea74210ba0e66531f8daa4b2261fca4", "lat": 38.91991066666667, "fusion_lon": 0.0, "fusion_lat": 0.0, "type": "electric_scooter", "name": "bea74210ba0e66531f8daa4b2261fca4", "is_disabled": 0, "rental_uris": {"ios": "https://dc.lft.to/lastmile_qr_scan", "android": "https://dc.lft.to/lastmile_qr_scan"}, "is_reserved": 0}, {"lon": -77.007414, "bike_id": "52249610c2e82f9aa915cdb147344447", "lat": 38.898480666666664, "fusion_lon": 0.0, "fusion_lat": 0.0, "type": "electric_bike", "name": "52249610c2e82f9aa915cdb147344447", "is_disabled": 0, "rental_uris": {"ios": "https://dc.lft.to/lastmile_qr_scan", "android": "https://dc.lft.to/lastmile_qr_scan"}, "is_reserved": 0}, {"lon": -77.02599166666667, "bike_id": "06864ae34915645a6f9139a5b83fd53e", "lat": 38.92659416666667, "fusion_lon": 0.0, "fusion_lat": 0.0, "type": "electric_scooter", "name": "06864ae34915645a6f9139a5b83fd53e", "is_disabled": 0, "rental_uris": {"ios": "https://dc.lft.to/lastmile_qr_scan", "android": "https://dc.lft.to/lastmile_qr_scan"}, "is_reserved": 0}, {"lon": -77.0508745, "bike_id": "6dcb4dccaebf64289df6b0153d1faf65", "lat": 39.036748333333335, "fusion_lon": 0.0, "fusion_lat": 0.0, "type": "electric_bike", "name": "6dcb4dccaebf64289df6b0153d1faf65", "is_disabled": 0, "rental_uris": {"ios": "https://dc.lft.to/lastmile_qr_scan", "android": "https://dc.lft.to/lastmile_qr_scan"}, "is_reserved": 0}, {"lon": -77.00336533333333, "bike_id": "a439a2ca9ccc0e2b8bd7047d5ebad287", "lat": 38.90576466666667, "fusion_lon": 0.0, "fusion_lat": 0.0, "type": "electric_scooter", "name": "a439a2ca9ccc0e2b8bd7047d5ebad287", "is_disabled": 0, "rental_uris": {"ios": "https://dc.lft.to/lastmile_qr_scan", "android": "https://dc.lft.to/lastmile_qr_scan"}, "is_reserved": 0}, {"lon": -77.02212883333333, "bike_id": "cb707aef85c85248e5e337e7221b9fe4", "lat": 38.95100133333333, "fusion_lon": 0.0, "fusion_lat": 0.0, "type": "electric_scooter", "name": "cb707aef85c85248e5e337e7221b9fe4", "is_disabled": 0, "rental_uris": {"ios": "https://dc.lft.to/lastmile_qr_scan", "android": "https://dc.lft.to/lastmile_qr_scan"}, "is_reserved": 0}, {"lon": -77.02611933333333, "bike_id": "a112a08a1786c7d0d2f37117c44ca779", "lat": 38.91406516666667, "fusion_lon": 0.0, "fusion_lat": 0.0, "type": "electric_scooter", "name": "a112a08a1786c7d0d2f37117c44ca779", "is_disabled": 0, "rental_uris": {"ios": "https://dc.lft.to/lastmile_qr_scan", "android": "https://dc.lft.to/lastmile_qr_scan"}, "is_reserved": 0}, {"lon": -77.005934, "bike_id": "6b3558a4c749bbe5bc424ab106dbe1f2", "lat": 38.87677883333333, "fusion_lon": 0.0, "fusion_lat": 0.0, "type": "electric_scooter", "name": "6b3558a4c749bbe5bc424ab106dbe1f2", "is_disabled": 0, "rental_uris": {"ios": "https://dc.lft.to/lastmile_qr_scan", "android": "https://dc.lft.to/lastmile_qr_scan"}, "is_reserved": 0}, {"lon": -77.01922, "bike_id": "bdd944c7ecd5436d7d6cf73bb4108e5b", "lat": 38.892453333333336, "fusion_lon": 0.0, "fusion_lat": 0.0, "type": "electric_scooter", "name": "bdd944c7ecd5436d7d6cf73bb4108e5b", "is_disabled": 0, "rental_uris": {"ios": "https://dc.lft.to/lastmile_qr_scan", "android": "https://dc.lft.to/lastmile_qr_scan"}, "is_reserved": 0}, {"lon": -77.045423, "bike_id": "556ebdc0cbc6b0ac64a30b640b4e8879", "lat": 38.913268333333335, "fusion_lon": 0.0, "fusion_lat": 0.0, "type": "electric_scooter", "name": "556ebdc0cbc6b0ac64a30b640b4e8879", "is_disabled": 0, "rental_uris": {"ios": "https://dc.lft.to/lastmile_qr_scan", "android": "https://dc.lft.to/lastmile_qr_scan"}, "is_reserved": 0}, {"lon": -77.020107, "bike_id": "d21b8f753926e6d1f6ef8a0888101cf0", "lat": 38.9240805, "fusion_lon": 0.0, "fusion_lat": 0.0, "type": "electric_scooter", "name": "d21b8f753926e6d1f6ef8a0888101cf0", "is_disabled": 0, "rental_uris": {"ios": "https://dc.lft.to/lastmile_qr_scan", "android": "https://dc.lft.to/lastmile_qr_scan"}, "is_reserved": 0}, {"lon": -76.98391033333333, "bike_id": "42162cce4df61d760effba219285607c", "lat": 38.90471566666667, "fusion_lon": 0.0, "fusion_lat": 0.0, "type": "electric_scooter", "name": "42162cce4df61d760effba219285607c", "is_disabled": 0, "rental_uris": {"ios": "https://dc.lft.to/lastmile_qr_scan", "android": "https://dc.lft.to/lastmile_qr_scan"}, "is_reserved": 0}, {"lon": -77.00297683333334, "bike_id": "54ff60eb8b7b3f3a4751078bf20f0541", "lat": 38.909118, "fusion_lon": 0.0, "fusion_lat": 0.0, "type": "electric_scooter", "name": "54ff60eb8b7b3f3a4751078bf20f0541", "is_disabled": 0, "rental_uris": {"ios": "https://dc.lft.to/lastmile_qr_scan", "android": "https://dc.lft.to/lastmile_qr_scan"}, "is_reserved": 0}, {"lon": -77.1015605, "bike_id": "221e8ab686387f49eb6b4dae96fc16ad", "lat": 38.92526383333333, "fusion_lon": 0.0, "fusion_lat": 0.0, "type": "electric_scooter", "name": "221e8ab686387f49eb6b4dae96fc16ad", "is_disabled": 0, "rental_uris": {"ios": "https://dc.lft.to/lastmile_qr_scan", "android": "https://dc.lft.to/lastmile_qr_scan"}, "is_reserved": 0}, {"lon": -76.9801275, "bike_id": "f5efcc790333b210da803df0d1f69d2f", "lat": 38.853186, "fusion_lon": 0.0, "fusion_lat": 0.0, "type": "electric_bike", "name": "f5efcc790333b210da803df0d1f69d2f", "is_disabled": 0, "rental_uris": {"ios": "https://dc.lft.to/lastmile_qr_scan", "android": "https://dc.lft.to/lastmile_qr_scan"}, "is_reserved": 0}, {"lon": -77.01673416666667, "bike_id": "7b46b6919474023da7694cc6ed28bcad", "lat": 38.88066933333333, "fusion_lon": 0.0, "fusion_lat": 0.0, "type": "electric_bike", "name": "7b46b6919474023da7694cc6ed28bcad", "is_disabled": 0, "rental_uris": {"ios": "https://dc.lft.to/lastmile_qr_scan", "android": "https://dc.lft.to/lastmile_qr_scan"}, "is_reserved": 0}, {"lon": -77.0237355, "bike_id": "74a2c77fc05fac5345c3a020f6985fac", "lat": 38.90196566666667, "fusion_lon": 0.0, "fusion_lat": 0.0, "type": "electric_scooter", "name": "74a2c77fc05fac5345c3a020f6985fac", "is_disabled": 0, "rental_uris": {"ios": "https://dc.lft.to/lastmile_qr_scan", "android": "https://dc.lft.to/lastmile_qr_scan"}, "is_reserved": 0}, {"lon": -77.0216195, "bike_id": "b4fa4cf5acd7847dbb52ff171005da06", "lat": 38.926152, "fusion_lon": 0.0, "fusion_lat": 0.0, "type": "electric_scooter", "name": "b4fa4cf5acd7847dbb52ff171005da06", "is_disabled": 0, "rental_uris": {"ios": "https://dc.lft.to/lastmile_qr_scan", "android": "https://dc.lft.to/lastmile_qr_scan"}, "is_reserved": 0}, {"lon": -77.020839, "bike_id": "65c66912c94e932255641e7b78a2e39c", "lat": 38.881880833333334, "fusion_lon": 0.0, "fusion_lat": 0.0, "type": "electric_scooter", "name": "65c66912c94e932255641e7b78a2e39c", "is_disabled": 0, "rental_uris": {"ios": "https://dc.lft.to/lastmile_qr_scan", "android": "https://dc.lft.to/lastmile_qr_scan"}, "is_reserved": 0}, {"lon": -77.023245, "bike_id": "b6cba5ee081ac680218006fa4613c5a6", "lat": 38.955255333333334, "fusion_lon": 0.0, "fusion_lat": 0.0, "type": "electric_scooter", "name": "b6cba5ee081ac680218006fa4613c5a6", "is_disabled": 0, "rental_uris": {"ios": "https://dc.lft.to/lastmile_qr_scan", "android": "https://dc.lft.to/lastmile_qr_scan"}, "is_reserved": 0}, {"lon": -77.0021535, "bike_id": "b886865dc633ba2693fa7dcb9d8b382c", "lat": 38.900392, "fusion_lon": 0.0, "fusion_lat": 0.0, "type": "electric_scooter", "name": "b886865dc633ba2693fa7dcb9d8b382c", "is_disabled": 0, "rental_uris": {"ios": "https://dc.lft.to/lastmile_qr_scan", "android": "https://dc.lft.to/lastmile_qr_scan"}, "is_reserved": 0}, {"lon": -76.94577983333333, "bike_id": "50629097712f21fa7b8132028d6204de", "lat": 38.93753566666667, "fusion_lon": 0.0, "fusion_lat": 0.0, "type": "electric_bike", "name": "50629097712f21fa7b8132028d6204de", "is_disabled": 0, "rental_uris": {"ios": "https://dc.lft.to/lastmile_qr_scan", "android": "https://dc.lft.to/lastmile_qr_scan"}, "is_reserved": 0}, {"lon": -76.98507133333334, "bike_id": "64335b3a57c92b6525b10b3495eff8d0", "lat": 38.903444, "fusion_lon": 0.0, "fusion_lat": 0.0, "type": "electric_scooter", "name": "64335b3a57c92b6525b10b3495eff8d0", "is_disabled": 0, "rental_uris": {"ios": "https://dc.lft.to/lastmile_qr_scan", "android": "https://dc.lft.to/lastmile_qr_scan"}, "is_reserved": 0}, {"lon": -77.03871583333333, "bike_id": "a2afd15777f02e2589c3737562aa72d9", "lat": 38.9071665, "fusion_lon": 0.0, "fusion_lat": 0.0, "type": "electric_scooter", "name": "a2afd15777f02e2589c3737562aa72d9", "is_disabled": 0, "rental_uris": {"ios": "https://dc.lft.to/lastmile_qr_scan", "android": "https://dc.lft.to/lastmile_qr_scan"}, "is_reserved": 0}, {"lon": -77.02389783333334, "bike_id": "946201fd3373985c0711dff8d3cd5a85", "lat": 38.9061985, "fusion_lon": 0.0, "fusion_lat": 0.0, "type": "electric_scooter", "name": "946201fd3373985c0711dff8d3cd5a85", "is_disabled": 0, "rental_uris": {"ios": "https://dc.lft.to/lastmile_qr_scan", "android": "https://dc.lft.to/lastmile_qr_scan"}, "is_reserved": 0}, {"lon": -77.03456383333334, "bike_id": "8acedc09fb79815c75678ce1453836b1", "lat": 38.91664566666667, "fusion_lon": 0.0, "fusion_lat": 0.0, "type": "electric_scooter", "name": "8acedc09fb79815c75678ce1453836b1", "is_disabled": 0, "rental_uris": {"ios": "https://dc.lft.to/lastmile_qr_scan", "android": "https://dc.lft.to/lastmile_qr_scan"}, "is_reserved": 0}, {"lon": -77.02711933333333, "bike_id": "45b03fc72a5adea6d44cdefb7a537807", "lat": 38.918098, "fusion_lon": 0.0, "fusion_lat": 0.0, "type": "electric_scooter", "name": "45b03fc72a5adea6d44cdefb7a537807", "is_disabled": 0, "rental_uris": {"ios": "https://dc.lft.to/lastmile_qr_scan", "android": "https://dc.lft.to/lastmile_qr_scan"}, "is_reserved": 0}, {"lon": -77.04038833333334, "bike_id": "cf6ae40e101451235ad446079013e767", "lat": 38.9126845, "fusion_lon": 0.0, "fusion_lat": 0.0, "type": "electric_scooter", "name": "cf6ae40e101451235ad446079013e767", "is_disabled": 0, "rental_uris": {"ios": "https://dc.lft.to/lastmile_qr_scan", "android": "https://dc.lft.to/lastmile_qr_scan"}, "is_reserved": 0}, {"lon": -77.01745316666667, "bike_id": "c5005fbbfa88703903168891aaa008c7", "lat": 38.876696, "fusion_lon": 0.0, "fusion_lat": 0.0, "type": "electric_scooter", "name": "c5005fbbfa88703903168891aaa008c7", "is_disabled": 0, "rental_uris": {"ios": "https://dc.lft.to/lastmile_qr_scan", "android": "https://dc.lft.to/lastmile_qr_scan"}, "is_reserved": 0}, {"lon": -77.04319483333333, "bike_id": "575cef028de029a9e373348809352dd7", "lat": 38.91881883333333, "fusion_lon": 0.0, "fusion_lat": 0.0, "type": "electric_scooter", "name": "575cef028de029a9e373348809352dd7", "is_disabled": 0, "rental_uris": {"ios": "https://dc.lft.to/lastmile_qr_scan", "android": "https://dc.lft.to/lastmile_qr_scan"}, "is_reserved": 0}, {"lon": -77.0424215, "bike_id": "8f7bbd2645609c3dca19658b5f9fce42", "lat": 38.92218866666666, "fusion_lon": 0.0, "fusion_lat": 0.0, "type": "electric_scooter", "name": "8f7bbd2645609c3dca19658b5f9fce42", "is_disabled": 0, "rental_uris": {"ios": "https://dc.lft.to/lastmile_qr_scan", "android": "https://dc.lft.to/lastmile_qr_scan"}, "is_reserved": 0}, {"lon": -77.0386445, "bike_id": "f5ec3b023691963f2effe7b1605e5789", "lat": 38.91414666666667, "fusion_lon": 0.0, "fusion_lat": 0.0, "type": "electric_scooter", "name": "f5ec3b023691963f2effe7b1605e5789", "is_disabled": 0, "rental_uris": {"ios": "https://dc.lft.to/lastmile_qr_scan", "android": "https://dc.lft.to/lastmile_qr_scan"}, "is_reserved": 0}, {"lon": -77.00813616666667, "bike_id": "438c63376907a9ddfe67b04476018d9c", "lat": 38.87644016666667, "fusion_lon": 0.0, "fusion_lat": 0.0, "type": "electric_scooter", "name": "438c63376907a9ddfe67b04476018d9c", "is_disabled": 0, "rental_uris": {"ios": "https://dc.lft.to/lastmile_qr_scan", "android": "https://dc.lft.to/lastmile_qr_scan"}, "is_reserved": 0}, {"lon": -77.02964816666666, "bike_id": "d0679d0a3f512f4b858532f49f2905cb", "lat": 38.92291216666667, "fusion_lon": 0.0, "fusion_lat": 0.0, "type": "electric_scooter", "name": "d0679d0a3f512f4b858532f49f2905cb", "is_disabled": 0, "rental_uris": {"ios": "https://dc.lft.to/lastmile_qr_scan", "android": "https://dc.lft.to/lastmile_qr_scan"}, "is_reserved": 0}, {"lon": -77.03954966666667, "bike_id": "3a0cd57c9ff2dce345feb1592f4988f3", "lat": 38.91362633333333, "fusion_lon": 0.0, "fusion_lat": 0.0, "type": "electric_scooter", "name": "3a0cd57c9ff2dce345feb1592f4988f3", "is_disabled": 0, "rental_uris": {"ios": "https://dc.lft.to/lastmile_qr_scan", "android": "https://dc.lft.to/lastmile_qr_scan"}, "is_reserved": 0}, {"lon": -77.02763733333333, "bike_id": "ddf2135475208028f8ad6a12e06d37a8", "lat": 38.9542725, "fusion_lon": 0.0, "fusion_lat": 0.0, "type": "electric_scooter", "name": "ddf2135475208028f8ad6a12e06d37a8", "is_disabled": 0, "rental_uris": {"ios": "https://dc.lft.to/lastmile_qr_scan", "android": "https://dc.lft.to/lastmile_qr_scan"}, "is_reserved": 0}, {"lon": -76.96599966666666, "bike_id": "459c7806298b04b0c08c57c373cfc38d", "lat": 38.871088, "fusion_lon": 0.0, "fusion_lat": 0.0, "type": "electric_scooter", "name": "459c7806298b04b0c08c57c373cfc38d", "is_disabled": 0, "rental_uris": {"ios": "https://dc.lft.to/lastmile_qr_scan", "android": "https://dc.lft.to/lastmile_qr_scan"}, "is_reserved": 0}, {"lon": -77.0202825, "bike_id": "3eed5e75674feb024fb31bd5bc0b60be", "lat": 38.905638, "fusion_lon": 0.0, "fusion_lat": 0.0, "type": "electric_scooter", "name": "3eed5e75674feb024fb31bd5bc0b60be", "is_disabled": 0, "rental_uris": {"ios": "https://dc.lft.to/lastmile_qr_scan", "android": "https://dc.lft.to/lastmile_qr_scan"}, "is_reserved": 0}, {"lon": -77.04021166666666, "bike_id": "a887810e5d94e2f3ae2f943489cdf70d", "lat": 38.9217595, "fusion_lon": 0.0, "fusion_lat": 0.0, "type": "electric_scooter", "name": "a887810e5d94e2f3ae2f943489cdf70d", "is_disabled": 0, "rental_uris": {"ios": "https://dc.lft.to/lastmile_qr_scan", "android": "https://dc.lft.to/lastmile_qr_scan"}, "is_reserved": 0}, {"lon": -77.03857383333333, "bike_id": "4cdd0189dc3859e849574f1a0660c981", "lat": 38.91710883333333, "fusion_lon": 0.0, "fusion_lat": 0.0, "type": "electric_scooter", "name": "4cdd0189dc3859e849574f1a0660c981", "is_disabled": 0, "rental_uris": {"ios": "https://dc.lft.to/lastmile_qr_scan", "android": "https://dc.lft.to/lastmile_qr_scan"}, "is_reserved": 0}, {"lon": -77.02711516666666, "bike_id": "2698b9a0e5c0f2a1d2a858dd177c59b2", "lat": 38.9180715, "fusion_lon": 0.0, "fusion_lat": 0.0, "type": "electric_scooter", "name": "2698b9a0e5c0f2a1d2a858dd177c59b2", "is_disabled": 0, "rental_uris": {"ios": "https://dc.lft.to/lastmile_qr_scan", "android": "https://dc.lft.to/lastmile_qr_scan"}, "is_reserved": 0}, {"lon": -77.04451083333333, "bike_id": "e6781f6937f57864b19aa4ea0fe90eea", "lat": 38.91841266666667, "fusion_lon": 0.0, "fusion_lat": 0.0, "type": "electric_scooter", "name": "e6781f6937f57864b19aa4ea0fe90eea", "is_disabled": 0, "rental_uris": {"ios": "https://dc.lft.to/lastmile_qr_scan", "android": "https://dc.lft.to/lastmile_qr_scan"}, "is_reserved": 0}, {"lon": -77.03455016666666, "bike_id": "6a0f3d573fd43235f70d7fa18746d153", "lat": 38.9343715, "fusion_lon": 0.0, "fusion_lat": 0.0, "type": "electric_scooter", "name": "6a0f3d573fd43235f70d7fa18746d153", "is_disabled": 0, "rental_uris": {"ios": "https://dc.lft.to/lastmile_qr_scan", "android": "https://dc.lft.to/lastmile_qr_scan"}, "is_reserved": 0}, {"lon": -77.026229, "bike_id": "3ac6a1921164ab6f39aab4b731be12f8", "lat": 38.96221966666667, "fusion_lon": 0.0, "fusion_lat": 0.0, "type": "electric_bike", "name": "3ac6a1921164ab6f39aab4b731be12f8", "is_disabled": 0, "rental_uris": {"ios": "https://dc.lft.to/lastmile_qr_scan", "android": "https://dc.lft.to/lastmile_qr_scan"}, "is_reserved": 0}, {"lon": -77.02291083333333, "bike_id": "2d82d09cc1a040e6a91cb072916e3bc6", "lat": 38.92230583333333, "fusion_lon": 0.0, "fusion_lat": 0.0, "type": "electric_scooter", "name": "2d82d09cc1a040e6a91cb072916e3bc6", "is_disabled": 0, "rental_uris": {"ios": "https://dc.lft.to/lastmile_qr_scan", "android": "https://dc.lft.to/lastmile_qr_scan"}, "is_reserved": 0}, {"lon": -77.0459825, "bike_id": "56e4901f0ecd9736d83dc0282e1865a0", "lat": 39.02456883333333, "fusion_lon": 0.0, "fusion_lat": 0.0, "type": "electric_bike", "name": "56e4901f0ecd9736d83dc0282e1865a0", "is_disabled": 0, "rental_uris": {"ios": "https://dc.lft.to/lastmile_qr_scan", "android": "https://dc.lft.to/lastmile_qr_scan"}, "is_reserved": 0}, {"lon": -76.999602, "bike_id": "71b45ef50947e074a9012130a70248f9", "lat": 38.908651166666665, "fusion_lon": 0.0, "fusion_lat": 0.0, "type": "electric_bike", "name": "71b45ef50947e074a9012130a70248f9", "is_disabled": 0, "rental_uris": {"ios": "https://dc.lft.to/lastmile_qr_scan", "android": "https://dc.lft.to/lastmile_qr_scan"}, "is_reserved": 0}, {"lon": -77.02971666666667, "bike_id": "1538c36bc56e847dea8fefeeb680bf36", "lat": 38.916804166666665, "fusion_lon": 0.0, "fusion_lat": 0.0, "type": "electric_scooter", "name": "1538c36bc56e847dea8fefeeb680bf36", "is_disabled": 0, "rental_uris": {"ios": "https://dc.lft.to/lastmile_qr_scan", "android": "https://dc.lft.to/lastmile_qr_scan"}, "is_reserved": 0}, {"lon": -76.97444616666667, "bike_id": "0f8c6022beea1020b9b382a878e0305d", "lat": 38.86523483333333, "fusion_lon": 0.0, "fusion_lat": 0.0, "type": "electric_scooter", "name": "0f8c6022beea1020b9b382a878e0305d", "is_disabled": 0, "rental_uris": {"ios": "https://dc.lft.to/lastmile_qr_scan", "android": "https://dc.lft.to/lastmile_qr_scan"}, "is_reserved": 0}, {"lon": -77.02525633333333, "bike_id": "44c4d9a41fd2667662b8848492154449", "lat": 38.93750983333334, "fusion_lon": 0.0, "fusion_lat": 0.0, "type": "electric_scooter", "name": "44c4d9a41fd2667662b8848492154449", "is_disabled": 0, "rental_uris": {"ios": "https://dc.lft.to/lastmile_qr_scan", "android": "https://dc.lft.to/lastmile_qr_scan"}, "is_reserved": 0}, {"lon": -77.030422, "bike_id": "effca495ab1da822154e83abe38f0625", "lat": 38.913368166666665, "fusion_lon": 0.0, "fusion_lat": 0.0, "type": "electric_scooter", "name": "effca495ab1da822154e83abe38f0625", "is_disabled": 0, "rental_uris": {"ios": "https://dc.lft.to/lastmile_qr_scan", "android": "https://dc.lft.to/lastmile_qr_scan"}, "is_reserved": 0}, {"lon": -77.04586483333334, "bike_id": "140b62286e8472ffb27ce2a239bc264e", "lat": 38.91868816666667, "fusion_lon": 0.0, "fusion_lat": 0.0, "type": "electric_scooter", "name": "140b62286e8472ffb27ce2a239bc264e", "is_disabled": 0, "rental_uris": {"ios": "https://dc.lft.to/lastmile_qr_scan", "android": "https://dc.lft.to/lastmile_qr_scan"}, "is_reserved": 0}, {"lon": -76.98563983333334, "bike_id": "f24d412c79117563237954de8fc4c700", "lat": 38.883474166666666, "fusion_lon": 0.0, "fusion_lat": 0.0, "type": "electric_scooter", "name": "f24d412c79117563237954de8fc4c700", "is_disabled": 0, "rental_uris": {"ios": "https://dc.lft.to/lastmile_qr_scan", "android": "https://dc.lft.to/lastmile_qr_scan"}, "is_reserved": 0}, {"lon": -77.02160916666666, "bike_id": "8a7685b55625952c3495844aca4c4be5", "lat": 38.9031755, "fusion_lon": 0.0, "fusion_lat": 0.0, "type": "electric_scooter", "name": "8a7685b55625952c3495844aca4c4be5", "is_disabled": 0, "rental_uris": {"ios": "https://dc.lft.to/lastmile_qr_scan", "android": "https://dc.lft.to/lastmile_qr_scan"}, "is_reserved": 0}, {"lon": -77.0278775, "bike_id": "837f392909e360946c8a2c9c2f7cec89", "lat": 38.92972866666667, "fusion_lon": 0.0, "fusion_lat": 0.0, "type": "electric_scooter", "name": "837f392909e360946c8a2c9c2f7cec89", "is_disabled": 0, "rental_uris": {"ios": "https://dc.lft.to/lastmile_qr_scan", "android": "https://dc.lft.to/lastmile_qr_scan"}, "is_reserved": 0}, {"lon": -77.03223683333333, "bike_id": "519b84101f180bc44a70e37a0cb6e1b9", "lat": 38.9315765, "fusion_lon": 0.0, "fusion_lat": 0.0, "type": "electric_scooter", "name": "519b84101f180bc44a70e37a0cb6e1b9", "is_disabled": 0, "rental_uris": {"ios": "https://dc.lft.to/lastmile_qr_scan", "android": "https://dc.lft.to/lastmile_qr_scan"}, "is_reserved": 0}, {"lon": -77.03034616666666, "bike_id": "64cd4034c51f4ce5ec338aa944963c88", "lat": 38.883777333333335, "fusion_lon": 0.0, "fusion_lat": 0.0, "type": "electric_scooter", "name": "64cd4034c51f4ce5ec338aa944963c88", "is_disabled": 0, "rental_uris": {"ios": "https://dc.lft.to/lastmile_qr_scan", "android": "https://dc.lft.to/lastmile_qr_scan"}, "is_reserved": 0}, {"lon": -76.9764165, "bike_id": "e7517a15c58a593b0c232c87a939072d", "lat": 38.88775716666667, "fusion_lon": 0.0, "fusion_lat": 0.0, "type": "electric_scooter", "name": "e7517a15c58a593b0c232c87a939072d", "is_disabled": 0, "rental_uris": {"ios": "https://dc.lft.to/lastmile_qr_scan", "android": "https://dc.lft.to/lastmile_qr_scan"}, "is_reserved": 0}, {"lon": -77.02399516666667, "bike_id": "38c30eb5f2f886894629d4dcb27541f9", "lat": 38.917074166666666, "fusion_lon": 0.0, "fusion_lat": 0.0, "type": "electric_scooter", "name": "38c30eb5f2f886894629d4dcb27541f9", "is_disabled": 0, "rental_uris": {"ios": "https://dc.lft.to/lastmile_qr_scan", "android": "https://dc.lft.to/lastmile_qr_scan"}, "is_reserved": 0}, {"lon": -77.032273, "bike_id": "56836c845b4a87e9ad6a06c3d46bce7b", "lat": 38.89672816666667, "fusion_lon": 0.0, "fusion_lat": 0.0, "type": "electric_scooter", "name": "56836c845b4a87e9ad6a06c3d46bce7b", "is_disabled": 0, "rental_uris": {"ios": "https://dc.lft.to/lastmile_qr_scan", "android": "https://dc.lft.to/lastmile_qr_scan"}, "is_reserved": 0}, {"lon": -77.06138733333333, "bike_id": "6430c11964aee12f20b870f65f91617b", "lat": 38.9052935, "fusion_lon": 0.0, "fusion_lat": 0.0, "type": "electric_scooter", "name": "6430c11964aee12f20b870f65f91617b", "is_disabled": 0, "rental_uris": {"ios": "https://dc.lft.to/lastmile_qr_scan", "android": "https://dc.lft.to/lastmile_qr_scan"}, "is_reserved": 0}, {"lon": -77.01656366666667, "bike_id": "21623160717da37589c39eb6eab4f60f", "lat": 38.881213833333334, "fusion_lon": 0.0, "fusion_lat": 0.0, "type": "electric_scooter", "name": "21623160717da37589c39eb6eab4f60f", "is_disabled": 0, "rental_uris": {"ios": "https://dc.lft.to/lastmile_qr_scan", "android": "https://dc.lft.to/lastmile_qr_scan"}, "is_reserved": 0}, {"lon": -77.03835983333333, "bike_id": "c402843018804acad53f3f8ae211a0fa", "lat": 38.910931166666664, "fusion_lon": 0.0, "fusion_lat": 0.0, "type": "electric_scooter", "name": "c402843018804acad53f3f8ae211a0fa", "is_disabled": 0, "rental_uris": {"ios": "https://dc.lft.to/lastmile_qr_scan", "android": "https://dc.lft.to/lastmile_qr_scan"}, "is_reserved": 0}, {"lon": -77.0385805, "bike_id": "3c05785489ca04e4a1a3a38cd22f90c8", "lat": 38.9170975, "fusion_lon": 0.0, "fusion_lat": 0.0, "type": "electric_scooter", "name": "3c05785489ca04e4a1a3a38cd22f90c8", "is_disabled": 0, "rental_uris": {"ios": "https://dc.lft.to/lastmile_qr_scan", "android": "https://dc.lft.to/lastmile_qr_scan"}, "is_reserved": 0}, {"lon": -77.03321533333333, "bike_id": "a5c611d63900405a81a1d9e1d9553b8a", "lat": 38.91399216666667, "fusion_lon": 0.0, "fusion_lat": 0.0, "type": "electric_scooter", "name": "a5c611d63900405a81a1d9e1d9553b8a", "is_disabled": 0, "rental_uris": {"ios": "https://dc.lft.to/lastmile_qr_scan", "android": "https://dc.lft.to/lastmile_qr_scan"}, "is_reserved": 0}, {"lon": -77.05310866666666, "bike_id": "bd10b8da66507698b168ce259f677aa7", "lat": 38.90073833333334, "fusion_lon": 0.0, "fusion_lat": 0.0, "type": "electric_scooter", "name": "bd10b8da66507698b168ce259f677aa7", "is_disabled": 0, "rental_uris": {"ios": "https://dc.lft.to/lastmile_qr_scan", "android": "https://dc.lft.to/lastmile_qr_scan"}, "is_reserved": 0}, {"lon": -77.04709233333334, "bike_id": "9ef1e1d501bd81ddd512966f0c57678f", "lat": 38.9222885, "fusion_lon": 0.0, "fusion_lat": 0.0, "type": "electric_scooter", "name": "9ef1e1d501bd81ddd512966f0c57678f", "is_disabled": 0, "rental_uris": {"ios": "https://dc.lft.to/lastmile_qr_scan", "android": "https://dc.lft.to/lastmile_qr_scan"}, "is_reserved": 0}, {"lon": -77.13930033333334, "bike_id": "ff58b314fdf5fd77eb6ef5cec75b8103", "lat": 38.87300166666667, "fusion_lon": 0.0, "fusion_lat": 0.0, "type": "electric_bike", "name": "ff58b314fdf5fd77eb6ef5cec75b8103", "is_disabled": 0, "rental_uris": {"ios": "https://dc.lft.to/lastmile_qr_scan", "android": "https://dc.lft.to/lastmile_qr_scan"}, "is_reserved": 0}, {"lon": -77.03431833333333, "bike_id": "34cd5a986cb58db4debdfce60988208e", "lat": 38.96535216666667, "fusion_lon": 0.0, "fusion_lat": 0.0, "type": "electric_bike", "name": "34cd5a986cb58db4debdfce60988208e", "is_disabled": 0, "rental_uris": {"ios": "https://dc.lft.to/lastmile_qr_scan", "android": "https://dc.lft.to/lastmile_qr_scan"}, "is_reserved": 0}, {"lon": -76.995349, "bike_id": "1d6636438f40cd8131ab6ed895cdfa83", "lat": 38.862061833333335, "fusion_lon": 0.0, "fusion_lat": 0.0, "type": "electric_scooter", "name": "1d6636438f40cd8131ab6ed895cdfa83", "is_disabled": 0, "rental_uris": {"ios": "https://dc.lft.to/lastmile_qr_scan", "android": "https://dc.lft.to/lastmile_qr_scan"}, "is_reserved": 0}, {"lon": -77.05567283333333, "bike_id": "994a1630f6548aced4a7d867c7fc07c1", "lat": 38.897308, "fusion_lon": 0.0, "fusion_lat": 0.0, "type": "electric_scooter", "name": "994a1630f6548aced4a7d867c7fc07c1", "is_disabled": 0, "rental_uris": {"ios": "https://dc.lft.to/lastmile_qr_scan", "android": "https://dc.lft.to/lastmile_qr_scan"}, "is_reserved": 0}, {"lon": -76.94653066666666, "bike_id": "6cab27d7aaf49193d6fc9def19c8c1f1", "lat": 38.898237333333334, "fusion_lon": 0.0, "fusion_lat": 0.0, "type": "electric_scooter", "name": "6cab27d7aaf49193d6fc9def19c8c1f1", "is_disabled": 0, "rental_uris": {"ios": "https://dc.lft.to/lastmile_qr_scan", "android": "https://dc.lft.to/lastmile_qr_scan"}, "is_reserved": 0}, {"lon": -76.9902825, "bike_id": "9e746cf63bbf82262c6eb964419b2e66", "lat": 38.89598516666667, "fusion_lon": 0.0, "fusion_lat": 0.0, "type": "electric_scooter", "name": "9e746cf63bbf82262c6eb964419b2e66", "is_disabled": 0, "rental_uris": {"ios": "https://dc.lft.to/lastmile_qr_scan", "android": "https://dc.lft.to/lastmile_qr_scan"}, "is_reserved": 0}, {"lon": -77.0176095, "bike_id": "3a05a870c345c15aae0b46f7d387dfae", "lat": 38.900308, "fusion_lon": 0.0, "fusion_lat": 0.0, "type": "electric_scooter", "name": "3a05a870c345c15aae0b46f7d387dfae", "is_disabled": 0, "rental_uris": {"ios": "https://dc.lft.to/lastmile_qr_scan", "android": "https://dc.lft.to/lastmile_qr_scan"}, "is_reserved": 0}, {"lon": -76.98225866666667, "bike_id": "82093677b75b22ec3e4cb23cc2f0d5f1", "lat": 38.864721, "fusion_lon": 0.0, "fusion_lat": 0.0, "type": "electric_scooter", "name": "82093677b75b22ec3e4cb23cc2f0d5f1", "is_disabled": 0, "rental_uris": {"ios": "https://dc.lft.to/lastmile_qr_scan", "android": "https://dc.lft.to/lastmile_qr_scan"}, "is_reserved": 0}, {"lon": -77.03263383333334, "bike_id": "4aeb7911705ab6971578a6a266ea3693", "lat": 38.932323, "fusion_lon": 0.0, "fusion_lat": 0.0, "type": "electric_scooter", "name": "4aeb7911705ab6971578a6a266ea3693", "is_disabled": 0, "rental_uris": {"ios": "https://dc.lft.to/lastmile_qr_scan", "android": "https://dc.lft.to/lastmile_qr_scan"}, "is_reserved": 0}, {"lon": -77.04905033333333, "bike_id": "1d8bdd933c494ae0d819f85f73af8763", "lat": 38.91598, "fusion_lon": 0.0, "fusion_lat": 0.0, "type": "electric_scooter", "name": "1d8bdd933c494ae0d819f85f73af8763", "is_disabled": 0, "rental_uris": {"ios": "https://dc.lft.to/lastmile_qr_scan", "android": "https://dc.lft.to/lastmile_qr_scan"}, "is_reserved": 0}, {"lon": -77.02582416666667, "bike_id": "c03c03bc660a64524a49db0d0a91e5c6", "lat": 38.914055166666664, "fusion_lon": 0.0, "fusion_lat": 0.0, "type": "electric_scooter", "name": "c03c03bc660a64524a49db0d0a91e5c6", "is_disabled": 0, "rental_uris": {"ios": "https://dc.lft.to/lastmile_qr_scan", "android": "https://dc.lft.to/lastmile_qr_scan"}, "is_reserved": 0}, {"lon": -77.01588133333334, "bike_id": "457c84428df4a27446e6b12c963593b7", "lat": 38.916492, "fusion_lon": 0.0, "fusion_lat": 0.0, "type": "electric_scooter", "name": "457c84428df4a27446e6b12c963593b7", "is_disabled": 0, "rental_uris": {"ios": "https://dc.lft.to/lastmile_qr_scan", "android": "https://dc.lft.to/lastmile_qr_scan"}, "is_reserved": 0}, {"lon": -76.93748633333334, "bike_id": "25f420bc3b8b2fbfd88dc30ac5eb8f50", "lat": 38.89047683333333, "fusion_lon": 0.0, "fusion_lat": 0.0, "type": "electric_scooter", "name": "25f420bc3b8b2fbfd88dc30ac5eb8f50", "is_disabled": 0, "rental_uris": {"ios": "https://dc.lft.to/lastmile_qr_scan", "android": "https://dc.lft.to/lastmile_qr_scan"}, "is_reserved": 0}, {"lon": -77.0344965, "bike_id": "090ed7f8cb5a9756bc30fe4616452774", "lat": 38.908635, "fusion_lon": 0.0, "fusion_lat": 0.0, "type": "electric_scooter", "name": "090ed7f8cb5a9756bc30fe4616452774", "is_disabled": 0, "rental_uris": {"ios": "https://dc.lft.to/lastmile_qr_scan", "android": "https://dc.lft.to/lastmile_qr_scan"}, "is_reserved": 0}, {"lon": -77.0359585, "bike_id": "2465cf17aeaa6ce7f879b78bde5f33ab", "lat": 38.92678133333333, "fusion_lon": 0.0, "fusion_lat": 0.0, "type": "electric_scooter", "name": "2465cf17aeaa6ce7f879b78bde5f33ab", "is_disabled": 0, "rental_uris": {"ios": "https://dc.lft.to/lastmile_qr_scan", "android": "https://dc.lft.to/lastmile_qr_scan"}, "is_reserved": 0}, {"lon": -77.02696433333334, "bike_id": "f943e5a66fad501ef8ae9932762df5e2", "lat": 38.906479, "fusion_lon": 0.0, "fusion_lat": 0.0, "type": "electric_scooter", "name": "f943e5a66fad501ef8ae9932762df5e2", "is_disabled": 0, "rental_uris": {"ios": "https://dc.lft.to/lastmile_qr_scan", "android": "https://dc.lft.to/lastmile_qr_scan"}, "is_reserved": 0}, {"lon": -77.04319283333334, "bike_id": "4468920707fc021bb767c3f7a6c3b4b0", "lat": 38.921981833333334, "fusion_lon": 0.0, "fusion_lat": 0.0, "type": "electric_scooter", "name": "4468920707fc021bb767c3f7a6c3b4b0", "is_disabled": 0, "rental_uris": {"ios": "https://dc.lft.to/lastmile_qr_scan", "android": "https://dc.lft.to/lastmile_qr_scan"}, "is_reserved": 0}, {"lon": -77.1160525, "bike_id": "80f9d882c991e196b6d683113081f9a9", "lat": 38.85487, "fusion_lon": 0.0, "fusion_lat": 0.0, "type": "electric_bike", "name": "80f9d882c991e196b6d683113081f9a9", "is_disabled": 0, "rental_uris": {"ios": "https://dc.lft.to/lastmile_qr_scan", "android": "https://dc.lft.to/lastmile_qr_scan"}, "is_reserved": 0}, {"lon": -77.04873833333333, "bike_id": "0b7b308255ea954f78fdaa6b9b982e37", "lat": 38.892461, "fusion_lon": 0.0, "fusion_lat": 0.0, "type": "electric_scooter", "name": "0b7b308255ea954f78fdaa6b9b982e37", "is_disabled": 0, "rental_uris": {"ios": "https://dc.lft.to/lastmile_qr_scan", "android": "https://dc.lft.to/lastmile_qr_scan"}, "is_reserved": 0}, {"lon": -77.02547483333333, "bike_id": "494ced15bed114d074ce047172fb8931", "lat": 38.930854833333335, "fusion_lon": 0.0, "fusion_lat": 0.0, "type": "electric_scooter", "name": "494ced15bed114d074ce047172fb8931", "is_disabled": 0, "rental_uris": {"ios": "https://dc.lft.to/lastmile_qr_scan", "android": "https://dc.lft.to/lastmile_qr_scan"}, "is_reserved": 0}, {"lon": -77.036707, "bike_id": "edd2e8f8d23836d203c84d3efa517f59", "lat": 38.9095665, "fusion_lon": 0.0, "fusion_lat": 0.0, "type": "electric_scooter", "name": "edd2e8f8d23836d203c84d3efa517f59", "is_disabled": 0, "rental_uris": {"ios": "https://dc.lft.to/lastmile_qr_scan", "android": "https://dc.lft.to/lastmile_qr_scan"}, "is_reserved": 0}, {"lon": -77.02397083333334, "bike_id": "09406d2f3e745546d984d19b0a7046d7", "lat": 38.9060105, "fusion_lon": 0.0, "fusion_lat": 0.0, "type": "electric_scooter", "name": "09406d2f3e745546d984d19b0a7046d7", "is_disabled": 0, "rental_uris": {"ios": "https://dc.lft.to/lastmile_qr_scan", "android": "https://dc.lft.to/lastmile_qr_scan"}, "is_reserved": 0}, {"lon": -77.03636933333334, "bike_id": "acafecf5ad058ac8ea778713b224eff4", "lat": 38.91308633333333, "fusion_lon": 0.0, "fusion_lat": 0.0, "type": "electric_scooter", "name": "acafecf5ad058ac8ea778713b224eff4", "is_disabled": 0, "rental_uris": {"ios": "https://dc.lft.to/lastmile_qr_scan", "android": "https://dc.lft.to/lastmile_qr_scan"}, "is_reserved": 0}, {"lon": -77.00969466666666, "bike_id": "72ed96d6946713c45a1836f3b66d3a21", "lat": 38.91414533333333, "fusion_lon": 0.0, "fusion_lat": 0.0, "type": "electric_scooter", "name": "72ed96d6946713c45a1836f3b66d3a21", "is_disabled": 0, "rental_uris": {"ios": "https://dc.lft.to/lastmile_qr_scan", "android": "https://dc.lft.to/lastmile_qr_scan"}, "is_reserved": 0}, {"lon": -77.0226915, "bike_id": "d858f8d3114ec6952057c7692787dad3", "lat": 38.92722666666667, "fusion_lon": 0.0, "fusion_lat": 0.0, "type": "electric_scooter", "name": "d858f8d3114ec6952057c7692787dad3", "is_disabled": 0, "rental_uris": {"ios": "https://dc.lft.to/lastmile_qr_scan", "android": "https://dc.lft.to/lastmile_qr_scan"}, "is_reserved": 0}, {"lon": -76.99351316666667, "bike_id": "6fa23257a37caad8dca17c8d9b77067b", "lat": 38.8450765, "fusion_lon": 0.0, "fusion_lat": 0.0, "type": "electric_bike", "name": "6fa23257a37caad8dca17c8d9b77067b", "is_disabled": 0, "rental_uris": {"ios": "https://dc.lft.to/lastmile_qr_scan", "android": "https://dc.lft.to/lastmile_qr_scan"}, "is_reserved": 0}, {"lon": -77.02971066666667, "bike_id": "79965449fb430e5119ad5637bc38a8e4", "lat": 38.91682866666667, "fusion_lon": 0.0, "fusion_lat": 0.0, "type": "electric_scooter", "name": "79965449fb430e5119ad5637bc38a8e4", "is_disabled": 0, "rental_uris": {"ios": "https://dc.lft.to/lastmile_qr_scan", "android": "https://dc.lft.to/lastmile_qr_scan"}, "is_reserved": 0}, {"lon": -77.04582083333334, "bike_id": "05b63f3b5d45501d8c7addaf1140e099", "lat": 38.921248166666665, "fusion_lon": 0.0, "fusion_lat": 0.0, "type": "electric_scooter", "name": "05b63f3b5d45501d8c7addaf1140e099", "is_disabled": 0, "rental_uris": {"ios": "https://dc.lft.to/lastmile_qr_scan", "android": "https://dc.lft.to/lastmile_qr_scan"}, "is_reserved": 0}, {"lon": -77.03292533333334, "bike_id": "c1f96bcf1c1acace1afee1a8c4ead6b2", "lat": 38.9235595, "fusion_lon": 0.0, "fusion_lat": 0.0, "type": "electric_scooter", "name": "c1f96bcf1c1acace1afee1a8c4ead6b2", "is_disabled": 0, "rental_uris": {"ios": "https://dc.lft.to/lastmile_qr_scan", "android": "https://dc.lft.to/lastmile_qr_scan"}, "is_reserved": 0}, {"lon": -77.000439, "bike_id": "a9b816c44543c0635869ce52dee65df0", "lat": 38.876537166666665, "fusion_lon": 0.0, "fusion_lat": 0.0, "type": "electric_scooter", "name": "a9b816c44543c0635869ce52dee65df0", "is_disabled": 0, "rental_uris": {"ios": "https://dc.lft.to/lastmile_qr_scan", "android": "https://dc.lft.to/lastmile_qr_scan"}, "is_reserved": 0}, {"lon": -77.038316, "bike_id": "b5718e3cf7a3b552f10186361af3784d", "lat": 38.9035425, "fusion_lon": 0.0, "fusion_lat": 0.0, "type": "electric_scooter", "name": "b5718e3cf7a3b552f10186361af3784d", "is_disabled": 0, "rental_uris": {"ios": "https://dc.lft.to/lastmile_qr_scan", "android": "https://dc.lft.to/lastmile_qr_scan"}, "is_reserved": 0},