{"data": {"bikes": [{"rental_uris": {"ios": "https://dc.lft.to/lastmile_qr_scan", "android": "https://dc.lft.to/lastmile_qr_scan"}, "lon": -76.98567916666667, "type": "electric_scooter", "fusion_lat": 0.0, "lat": 38.861475666666664, "name": "f4fac7f989f4ebff6f457193551bb812", "fusion_lon": 0.0, "bike_id": "f4fac7f989f4ebff6f457193551bb812", "is_disabled": 0, "is_reserved": 0}, {"rental_uris": {"ios": "https://dc.lft.to/lastmile_qr_scan", "android": "https://dc.lft.to/lastmile_qr_scan"}, "lon": -77.03850783333333, "type": "electric_scooter", "fusion_lat": 0.0, "lat": 38.90946866666667, "name": "1dec9dc5f0c9cb2cf350baf8491de88c", "fusion_lon": 0.0, "bike_id": "1dec9dc5f0c9cb2cf350baf8491de88c", "is_disabled": 0, "is_reserved": 0}, {"rental_uris": {"ios": "https://dc.lft.to/lastmile_qr_scan", "android": "https://dc.lft.to/lastmile_qr_scan"}, "lon": -77.04322083333334, "type": "electric_scooter", "fusion_lat": 0.0, "lat": 38.92610366666667, "name": "228966dfc44f3ca3082f1277dd5a9266", "fusion_lon": 0.0, "bike_id": "228966dfc44f3ca3082f1277dd5a9266", "is_disabled": 0, "is_reserved": 0}, {"rental_uris": {"ios": "https://dc.lft.to/lastmile_qr_scan", "android": "https://dc.lft.to/lastmile_qr_scan"}, "lon": -77.046324, "type": "electric_scooter", "fusion_lat": 0.0, "lat": 38.89221583333333, "name": "9bd65ab5f052a49262071752267e8ba4", "fusion_lon": 0.0, "bike_id": "9bd65ab5f052a49262071752267e8ba4", "is_disabled": 0, "is_reserved": 0}, {"rental_uris": {"ios": "https://dc.lft.to/lastmile_qr_scan", "android": "https://dc.lft.to/lastmile_qr_scan"}, "lon": -76.98369766666667, "type": "electric_scooter", "fusion_lat": 0.0, "lat": 38.86028233333333, "name": "dac7bc3c2eb1206c11914db77cbc795e", "fusion_lon": 0.0, "bike_id": "dac7bc3c2eb1206c11914db77cbc795e", "is_disabled": 0, "is_reserved": 0}, {"rental_uris": {"ios": "https://dc.lft.to/lastmile_qr_scan", "android": "https://dc.lft.to/lastmile_qr_scan"}, "lon": -77.04049166666667, "type": "electric_bike", "fusion_lat": 0.0, "lat": 38.80412833333333, "name": "b7bdb9be3792658e5e73f0bb1b2560e6", "fusion_lon": 0.0, "bike_id": "b7bdb9be3792658e5e73f0bb1b2560e6", "is_disabled": 0, "is_reserved": 0}, {"rental_uris": {"ios": "https://dc.lft.to/lastmile_qr_scan", "android": "https://dc.lft.to/lastmile_qr_scan"}, "lon": -76.975036, "type": "electric_bike", "fusion_lat": 0.0, "lat": 38.919312833333336, "name": "d10a3f2e97b228e1f89d12da7c7f9524", "fusion_lon": 0.0, "bike_id": "d10a3f2e97b228e1f89d12da7c7f9524", "is_disabled": 0, "is_reserved": 0}, {"rental_uris": {"ios": "https://dc.lft.to/lastmile_qr_scan", "android": "https://dc.lft.to/lastmile_qr_scan"}, "lon": -76.9732795, "type": "electric_scooter", "fusion_lat": 0.0, "lat": 38.93031166666667, "name": "36dda65cd6ef8315b34c37df9988379a", "fusion_lon": 0.0, "bike_id": "36dda65cd6ef8315b34c37df9988379a", "is_disabled": 0, "is_reserved": 0}, {"rental_uris": {"ios": "https://dc.lft.to/lastmile_qr_scan", "android": "https://dc.lft.to/lastmile_qr_scan"}, "lon": -76.97559866666667, "type": "electric_scooter", "fusion_lat": 0.0, "lat": 38.90447483333333, "name": "5b4052a8ac0983f35900a3719bccd015", "fusion_lon": 0.0, "bike_id": "5b4052a8ac0983f35900a3719bccd015", "is_disabled": 0, "is_reserved": 0}, {"rental_uris": {"ios": "https://dc.lft.to/lastmile_qr_scan", "android": "https://dc.lft.to/lastmile_qr_scan"}, "lon": -77.04254266666666, "type": "electric_scooter", "fusion_lat": 0.0, "lat": 38.908568833333334, "name": "6027b3859c6fd076a1dc8fd3b2d1e296", "fusion_lon": 0.0, "bike_id": "6027b3859c6fd076a1dc8fd3b2d1e296", "is_disabled": 0, "is_reserved": 0}, {"rental_uris": {"ios": "https://dc.lft.to/lastmile_qr_scan", "android": "https://dc.lft.to/lastmile_qr_scan"}, "lon": -76.99608616666667, "type": "electric_scooter", "fusion_lat": 0.0, "lat": 38.88625033333334, "name": "6da8e85981d0115ffbcfb0c9f96196b2", "fusion_lon": 0.0, "bike_id": "6da8e85981d0115ffbcfb0c9f96196b2", "is_disabled": 0, "is_reserved": 0}, {"rental_uris": {"ios": "https://dc.lft.to/lastmile_qr_scan", "android": "https://dc.lft.to/lastmile_qr_scan"}, "lon": -77.04489383333333, "type": "electric_scooter", "fusion_lat": 0.0, "lat": 38.91518383333333, "name": "c4a8550bbc20439a0764f41dee1eafb3", "fusion_lon": 0.0, "bike_id": "c4a8550bbc20439a0764f41dee1eafb3", "is_disabled": 0, "is_reserved": 0}, {"rental_uris": {"ios": "https://dc.lft.to/lastmile_qr_scan", "android": "https://dc.lft.to/lastmile_qr_scan"}, "lon": -77.01096683333333, "type": "electric_scooter", "fusion_lat": 0.0, "lat": 38.91561, "name": "d935a164a8813a11606181d2ad01af80", "fusion_lon": 0.0, "bike_id": "d935a164a8813a11606181d2ad01af80", "is_disabled": 0, "is_reserved": 0}, {"rental_uris": {"ios": "https://dc.lft.to/lastmile_qr_scan", "android": "https://dc.lft.to/lastmile_qr_scan"}, "lon": -77.039261, "type": "electric_scooter", "fusion_lat": 0.0, "lat": 38.917571833333334, "name": "424f029908017e4d3a0601475e804b76", "fusion_lon": 0.0, "bike_id": "424f029908017e4d3a0601475e804b76", "is_disabled": 0, "is_reserved": 0}, {"rental_uris": {"ios": "https://dc.lft.to/lastmile_qr_scan", "android": "https://dc.lft.to/lastmile_qr_scan"}, "lon": -77.14119266666667, "type": "electric_bike", "fusion_lat": 0.0, "lat": 38.81601366666666, "name": "a729a4b5beed9cb0886c742d091760f6", "fusion_lon": 0.0, "bike_id": "a729a4b5beed9cb0886c742d091760f6", "is_disabled": 0, "is_reserved": 0}, {"rental_uris": {"ios": "https://dc.lft.to/lastmile_qr_scan", "android": "https://dc.lft.to/lastmile_qr_scan"}, "lon": -77.03444633333334, "type": "electric_scooter", "fusion_lat": 0.0, "lat": 38.90547083333333, "name": "925db8a66bb468d23780386c72bd9e06", "fusion_lon": 0.0, "bike_id": "925db8a66bb468d23780386c72bd9e06", "is_disabled": 0, "is_reserved": 0}, {"rental_uris": {"ios": "https://dc.lft.to/lastmile_qr_scan", "android": "https://dc.lft.to/lastmile_qr_scan"}, "lon": -76.9959165, "type": "electric_scooter", "fusion_lat": 0.0, "lat": 38.92229583333334, "name": "ea38c4e9d963f089bb25039b52a3702d", "fusion_lon": 0.0, "bike_id": "ea38c4e9d963f089bb25039b52a3702d", "is_disabled": 0, "is_reserved": 0}, {"rental_uris": {"ios": "https://dc.lft.to/lastmile_qr_scan", "android": "https://dc.lft.to/lastmile_qr_scan"}, "lon": -77.0002525, "type": "electric_scooter", "fusion_lat": 0.0, "lat": 38.8740115, "name": "be4db0e6826b20fcf50ed9fc4446b387", "fusion_lon": 0.0, "bike_id": "be4db0e6826b20fcf50ed9fc4446b387", "is_disabled": 0, "is_reserved": 0}, {"rental_uris": {"ios": "https://dc.lft.to/lastmile_qr_scan", "android": "https://dc.lft.to/lastmile_qr_scan"}, "lon": -77.02969066666667, "type": "electric_scooter", "fusion_lat": 0.0, "lat": 38.9404605, "name": "604a47f9217f3dadc53a79163ff9970d", "fusion_lon": 0.0, "bike_id": "604a47f9217f3dadc53a79163ff9970d", "is_disabled": 0, "is_reserved": 0}, {"rental_uris": {"ios": "https://dc.lft.to/lastmile_qr_scan", "android": "https://dc.lft.to/lastmile_qr_scan"}, "lon": -77.00655516666667, "type": "electric_scooter", "fusion_lat": 0.0, "lat": 38.8748025, "name": "ab642a2348a228de7a5a298d1d6b5a8f", "fusion_lon": 0.0, "bike_id": "ab642a2348a228de7a5a298d1d6b5a8f", "is_disabled": 0, "is_reserved": 0}, {"rental_uris": {"ios": "https://dc.lft.to/lastmile_qr_scan", "android": "https://dc.lft.to/lastmile_qr_scan"}, "lon": -77.03932566666667, "type": "electric_scooter", "fusion_lat": 0.0, "lat": 38.926221166666664, "name": "e2402b7d095fa2ce12642b3fa8dc05ba", "fusion_lon": 0.0, "bike_id": "e2402b7d095fa2ce12642b3fa8dc05ba", "is_disabled": 0, "is_reserved": 0}, {"rental_uris": {"ios": "https://dc.lft.to/lastmile_qr_scan", "android": "https://dc.lft.to/lastmile_qr_scan"}, "lon": -77.00796583333333, "type": "electric_bike", "fusion_lat": 0.0, "lat": 38.9491065, "name": "0b91d800720618bf79144d1158ed541a", "fusion_lon": 0.0, "bike_id": "0b91d800720618bf79144d1158ed541a", "is_disabled": 0, "is_reserved": 0}, {"rental_uris": {"ios": "https://dc.lft.to/lastmile_qr_scan", "android": "https://dc.lft.to/lastmile_qr_scan"}, "lon": -77.0276545, "type": "electric_scooter", "fusion_lat": 0.0, "lat": 38.89197266666667, "name": "f0cc5e7d126fe202241171ac3d535521", "fusion_lon": 0.0, "bike_id": "f0cc5e7d126fe202241171ac3d535521", "is_disabled": 0, "is_reserved": 0}, {"rental_uris": {"ios": "https://dc.lft.to/lastmile_qr_scan", "android": "https://dc.lft.to/lastmile_qr_scan"}, "lon": -77.038375, "type": "electric_scooter", "fusion_lat": 0.0, "lat": 38.903591, "name": "49b6b6cf5aa1ea2ee9660508999d8701", "fusion_lon": 0.0, "bike_id": "49b6b6cf5aa1ea2ee9660508999d8701", "is_disabled": 0, "is_reserved": 0}, {"rental_uris": {"ios": "https://dc.lft.to/lastmile_qr_scan", "android": "https://dc.lft.to/lastmile_qr_scan"}, "lon": -77.01325316666667, "type": "electric_scooter", "fusion_lat": 0.0, "lat": 38.89232533333333, "name": "b3b5542d158609c3fd22fed98cb8ddfb", "fusion_lon": 0.0, "bike_id": "b3b5542d158609c3fd22fed98cb8ddfb", "is_disabled": 0, "is_reserved": 0}, {"rental_uris": {"ios": "https://dc.lft.to/lastmile_qr_scan", "android": "https://dc.lft.to/lastmile_qr_scan"}, "lon": -77.00045666666666, "type": "electric_bike", "fusion_lat": 0.0, "lat": 38.8744465, "name": "d7280b17160e10682fef87333ba83ba3", "fusion_lon": 0.0, "bike_id": "d7280b17160e10682fef87333ba83ba3", "is_disabled": 0, "is_reserved": 0}, {"rental_uris": {"ios": "https://dc.lft.to/lastmile_qr_scan", "android": "https://dc.lft.to/lastmile_qr_scan"}, "lon": -77.02133383333333, "type": "electric_scooter", "fusion_lat": 0.0, "lat": 38.90003133333333, "name": "664b965355bde55fb0b9ca548ca481f5", "fusion_lon": 0.0, "bike_id": "664b965355bde55fb0b9ca548ca481f5", "is_disabled": 0, "is_reserved": 0}, {"rental_uris": {"ios": "https://dc.lft.to/lastmile_qr_scan", "android": "https://dc.lft.to/lastmile_qr_scan"}, "lon": -76.9844035, "type": "electric_scooter", "fusion_lat": 0.0, "lat": 38.914227, "name": "112749703c0bd2892da3c6bce62c526e", "fusion_lon": 0.0, "bike_id": "112749703c0bd2892da3c6bce62c526e", "is_disabled": 0, "is_reserved": 0}, {"rental_uris": {"ios": "https://dc.lft.to/lastmile_qr_scan", "android": "https://dc.lft.to/lastmile_qr_scan"}, "lon": -77.04813883333334, "type": "electric_scooter", "fusion_lat": 0.0, "lat": 38.913395333333334, "name": "626e0fc40b13e6a23ac51c018b0cc7b3", "fusion_lon": 0.0, "bike_id": "626e0fc40b13e6a23ac51c018b0cc7b3", "is_disabled": 0, "is_reserved": 0}, {"rental_uris": {"ios": "https://dc.lft.to/lastmile_qr_scan", "android": "https://dc.lft.to/lastmile_qr_scan"}, "lon": -77.026925, "type": "electric_scooter", "fusion_lat": 0.0, "lat": 38.903643333333335, "name": "e1d2bc4194e4eb0a37d75409ebbd23b6", "fusion_lon": 0.0, "bike_id": "e1d2bc4194e4eb0a37d75409ebbd23b6", "is_disabled": 0, "is_reserved": 0}, {"rental_uris": {"ios": "https://dc.lft.to/lastmile_qr_scan", "android": "https://dc.lft.to/lastmile_qr_scan"}, "lon": -77.02833883333334, "type": "electric_scooter", "fusion_lat": 0.0, "lat": 38.9248035, "name": "b535f012ffbf4e09214f3804ec8236ff", "fusion_lon": 0.0, "bike_id": "b535f012ffbf4e09214f3804ec8236ff", "is_disabled": 0, "is_reserved": 0}, {"rental_uris": {"ios": "https://dc.lft.to/lastmile_qr_scan", "android": "https://dc.lft.to/lastmile_qr_scan"}, "lon": -77.06524666666667, "type": "electric_scooter", "fusion_lat": 0.0, "lat": 38.934727333333335, "name": "f9a5442c3b11f743484b1e4f0da695e8", "fusion_lon": 0.0, "bike_id": "f9a5442c3b11f743484b1e4f0da695e8", "is_disabled": 0, "is_reserved": 0}, {"rental_uris": {"ios": "https://dc.lft.to/lastmile_qr_scan", "android": "https://dc.lft.to/lastmile_qr_scan"}, "lon": -77.02531883333333, "type": "electric_scooter", "fusion_lat": 0.0, "lat": 38.918153833333335, "name": "4d1b579df8b260af046f2cc01d850577", "fusion_lon": 0.0, "bike_id": "4d1b579df8b260af046f2cc01d850577", "is_disabled": 0, "is_reserved": 0}, {"rental_uris": {"ios": "https://dc.lft.to/lastmile_qr_scan", "android": "https://dc.lft.to/lastmile_qr_scan"}, "lon": -77.0956325, "type": "electric_bike", "fusion_lat": 0.0, "lat": 38.91700066666667, "name": "f89a284ec54b45fcca78af960ed29aee", "fusion_lon": 0.0, "bike_id": "f89a284ec54b45fcca78af960ed29aee", "is_disabled": 0, "is_reserved": 0}, {"rental_uris": {"ios": "https://dc.lft.to/lastmile_qr_scan", "android": "https://dc.lft.to/lastmile_qr_scan"}, "lon": -76.9081655, "type": "electric_bike", "fusion_lat": 0.0, "lat": 38.99455916666667, "name": "3ff404886d81db2e704e9e934c563a58", "fusion_lon": 0.0, "bike_id": "3ff404886d81db2e704e9e934c563a58", "is_disabled": 0, "is_reserved": 0}, {"rental_uris": {"ios": "https://dc.lft.to/lastmile_qr_scan", "android": "https://dc.lft.to/lastmile_qr_scan"}, "lon": -76.93174166666667, "type": "electric_scooter", "fusion_lat": 0.0, "lat": 38.898857166666666, "name": "bde7ba01a3b26126dc255014d3d9207e", "fusion_lon": 0.0, "bike_id": "bde7ba01a3b26126dc255014d3d9207e", "is_disabled": 0, "is_reserved": 0}, {"rental_uris": {"ios": "https://dc.lft.to/lastmile_qr_scan", "android": "https://dc.lft.to/lastmile_qr_scan"}, "lon": -77.02654783333334, "type": "electric_scooter", "fusion_lat": 0.0, "lat": 38.8810435, "name": "c5b6ef353bfe9e4c2ea25d163fa2e48c", "fusion_lon": 0.0, "bike_id": "c5b6ef353bfe9e4c2ea25d163fa2e48c", "is_disabled": 0, "is_reserved": 0}, {"rental_uris": {"ios": "https://dc.lft.to/lastmile_qr_scan", "android": "https://dc.lft.to/lastmile_qr_scan"}, "lon": -77.02103516666666, "type": "electric_scooter", "fusion_lat": 0.0, "lat": 38.9311455, "name": "71894cb7ff2bdf8acc1c66b3ddd52554", "fusion_lon": 0.0, "bike_id": "71894cb7ff2bdf8acc1c66b3ddd52554", "is_disabled": 0, "is_reserved": 0}, {"rental_uris": {"ios": "https://dc.lft.to/lastmile_qr_scan", "android": "https://dc.lft.to/lastmile_qr_scan"}, "lon": -77.00030866666667, "type": "electric_scooter", "fusion_lat": 0.0, "lat": 38.876430166666665, "name": "1737836839306f0a1406dadf97017500", "fusion_lon": 0.0, "bike_id": "1737836839306f0a1406dadf97017500", "is_disabled": 0, "is_reserved": 0}, {"rental_uris": {"ios": "https://dc.lft.to/lastmile_qr_scan", "android": "https://dc.lft.to/lastmile_qr_scan"}, "lon": -77.03784966666667, "type": "electric_scooter", "fusion_lat": 0.0, "lat": 38.930254833333336, "name": "96bced53f50e179398e7e38da15b5aa5", "fusion_lon": 0.0, "bike_id": "96bced53f50e179398e7e38da15b5aa5", "is_disabled": 0, "is_reserved": 0}, {"rental_uris": {"ios": "https://dc.lft.to/lastmile_qr_scan", "android": "https://dc.lft.to/lastmile_qr_scan"}, "lon": -77.04158716666667, "type": "electric_scooter", "fusion_lat": 0.0, "lat": 38.9148565, "name": "03d861eb7ae2de67cf059b12ae0f155c", "fusion_lon": 0.0, "bike_id": "03d861eb7ae2de67cf059b12ae0f155c", "is_disabled": 0, "is_reserved": 0}, {"rental_uris": {"ios": "https://dc.lft.to/lastmile_qr_scan", "android": "https://dc.lft.to/lastmile_qr_scan"}, "lon": -77.016082, "type": "electric_scooter", "fusion_lat": 0.0, "lat": 38.911317, "name": "072e1728877eb08db8502379a1283f8a", "fusion_lon": 0.0, "bike_id": "072e1728877eb08db8502379a1283f8a", "is_disabled": 0, "is_reserved": 0}, {"rental_uris": {"ios": "https://dc.lft.to/lastmile_qr_scan", "android": "https://dc.lft.to/lastmile_qr_scan"}, "lon": -76.983606, "type": "electric_scooter", "fusion_lat": 0.0, "lat": 38.882711666666665, "name": "159b31c990877392a5f96b8a6b95c66b", "fusion_lon": 0.0, "bike_id": "159b31c990877392a5f96b8a6b95c66b", "is_disabled": 0, "is_reserved": 0}, {"rental_uris": {"ios": "https://dc.lft.to/lastmile_qr_scan", "android": "https://dc.lft.to/lastmile_qr_scan"}, "lon": -76.9992575, "type": "electric_scooter", "fusion_lat": 0.0, "lat": 38.909104666666664, "name": "5f7a82f6ceefc0935b84f41cdd9fa9eb", "fusion_lon": 0.0, "bike_id": "5f7a82f6ceefc0935b84f41cdd9fa9eb", "is_disabled": 0, "is_reserved": 0}, {"rental_uris": {"ios": "https://dc.lft.to/lastmile_qr_scan", "android": "https://dc.lft.to/lastmile_qr_scan"}, "lon": -77.03525883333333, "type": "electric_scooter", "fusion_lat": 0.0, "lat": 38.92330366666667, "name": "16024ea6cb12ef227db25d75e57e0ae3", "fusion_lon": 0.0, "bike_id": "16024ea6cb12ef227db25d75e57e0ae3", "is_disabled": 0, "is_reserved": 0}, {"rental_uris": {"ios": "https://dc.lft.to/lastmile_qr_scan", "android": "https://dc.lft.to/lastmile_qr_scan"}, "lon": -77.026008, "type": "electric_scooter", "fusion_lat": 0.0, "lat": 38.91669733333333, "name": "b326bfc4fcaa140df1aff66d17795573", "fusion_lon": 0.0, "bike_id": "b326bfc4fcaa140df1aff66d17795573", "is_disabled": 0, "is_reserved": 0}, {"rental_uris": {"ios": "https://dc.lft.to/lastmile_qr_scan", "android": "https://dc.lft.to/lastmile_qr_scan"}, "lon": -76.98235, "type": "electric_scooter", "fusion_lat": 0.0, "lat": 38.867625, "name": "6dcd9e8a3ac6be4da1a9515fa3b4810b", "fusion_lon": 0.0, "bike_id": "6dcd9e8a3ac6be4da1a9515fa3b4810b", "is_disabled": 0, "is_reserved": 0}, {"rental_uris": {"ios": "https://dc.lft.to/lastmile_qr_scan", "android": "https://dc.lft.to/lastmile_qr_scan"}, "lon": -77.0437505, "type": "electric_scooter", "fusion_lat": 0.0, "lat": 38.91557016666667, "name": "90886e399d923afbaad88480dc338ae7", "fusion_lon": 0.0, "bike_id": "90886e399d923afbaad88480dc338ae7", "is_disabled": 0, "is_reserved": 0}, {"rental_uris": {"ios": "https://dc.lft.to/lastmile_qr_scan", "android": "https://dc.lft.to/lastmile_qr_scan"}, "lon": -76.98760316666667, "type": "electric_scooter", "fusion_lat": 0.0, "lat": 38.84500083333333, "name": "57920c9985d45d7ad628347b06eec8e2", "fusion_lon": 0.0, "bike_id": "57920c9985d45d7ad628347b06eec8e2", "is_disabled": 0, "is_reserved": 0}, {"rental_uris": {"ios": "https://dc.lft.to/lastmile_qr_scan", "android": "https://dc.lft.to/lastmile_qr_scan"}, "lon": -77.0350185, "type": "electric_scooter", "fusion_lat": 0.0, "lat": 38.91872216666667, "name": "4103aba6347a849688532cf9b5c58997", "fusion_lon": 0.0, "bike_id": "4103aba6347a849688532cf9b5c58997", "is_disabled": 0, "is_reserved": 0}, {"rental_uris": {"ios": "https://dc.lft.to/lastmile_qr_scan", "android": "https://dc.lft.to/lastmile_qr_scan"}, "lon": -77.03361516666666, "type": "electric_scooter", "fusion_lat": 0.0, "lat": 38.928646666666666, "name": "e344adf78b7c260bcbc7a2e9fb30fdbb", "fusion_lon": 0.0, "bike_id": "e344adf78b7c260bcbc7a2e9fb30fdbb", "is_disabled": 0, "is_reserved": 0}, {"rental_uris": {"ios": "https://dc.lft.to/lastmile_qr_scan", "android": "https://dc.lft.to/lastmile_qr_scan"}, "lon": -77.0551135, "type": "electric_scooter", "fusion_lat": 0.0, "lat": 38.928253166666664, "name": "8538f3507899378d8322d22420432f3a", "fusion_lon": 0.0, "bike_id": "8538f3507899378d8322d22420432f3a", "is_disabled": 0, "is_reserved": 0}, {"rental_uris": {"ios": "https://dc.lft.to/lastmile_qr_scan", "android": "https://dc.lft.to/lastmile_qr_scan"}, "lon": -77.02573466666666, "type": "electric_scooter", "fusion_lat": 0.0, "lat": 38.88741433333333, "name": "ddd590097c565a1276bc153c1bae52a4", "fusion_lon": 0.0, "bike_id": "ddd590097c565a1276bc153c1bae52a4", "is_disabled": 0, "is_reserved": 0}, {"rental_uris": {"ios": "https://dc.lft.to/lastmile_qr_scan", "android": "https://dc.lft.to/lastmile_qr_scan"}, "lon": -77.05752716666667, "type": "electric_scooter", "fusion_lat": 0.0, "lat": 38.934148666666665, "name": "73b0d11f1c78ac775546317b55277ad6", "fusion_lon": 0.0, "bike_id": "73b0d11f1c78ac775546317b55277ad6", "is_disabled": 0, "is_reserved": 0}, {"rental_uris": {"ios": "https://dc.lft.to/lastmile_qr_scan", "android": "https://dc.lft.to/lastmile_qr_scan"}, "lon": -77.07184916666667, "type": "electric_scooter", "fusion_lat": 0.0, "lat": 38.91994116666667, "name": "16038f8813a7193f0600836e1fab8fd4", "fusion_lon": 0.0, "bike_id": "16038f8813a7193f0600836e1fab8fd4", "is_disabled": 0, "is_reserved": 0}, {"rental_uris": {"ios": "https://dc.lft.to/lastmile_qr_scan", "android": "https://dc.lft.to/lastmile_qr_scan"}, "lon": -77.00572433333333, "type": "electric_scooter", "fusion_lat": 0.0, "lat": 38.898243, "name": "a22a81fdada59b446dc413e3aca45a62", "fusion_lon": 0.0, "bike_id": "a22a81fdada59b446dc413e3aca45a62", "is_disabled": 0, "is_reserved": 0}, {"rental_uris": {"ios": "https://dc.lft.to/lastmile_qr_scan", "android": "https://dc.lft.to/lastmile_qr_scan"}, "lon": -77.00157233333333, "type": "electric_scooter", "fusion_lat": 0.0, "lat": 38.907486, "name": "72c7bdfd98cf4eb0207b9b21e3c13e41", "fusion_lon": 0.0, "bike_id": "72c7bdfd98cf4eb0207b9b21e3c13e41", "is_disabled": 0, "is_reserved": 0}, {"rental_uris": {"ios": "https://dc.lft.to/lastmile_qr_scan", "android": "https://dc.lft.to/lastmile_qr_scan"}, "lon": -76.977034, "type": "electric_scooter", "fusion_lat": 0.0, "lat": 38.8988755, "name": "16b354c0fb8cbcd5b518d9d830ea1ce0", "fusion_lon": 0.0, "bike_id": "16b354c0fb8cbcd5b518d9d830ea1ce0", "is_disabled": 0, "is_reserved": 0}, {"rental_uris": {"ios": "https://dc.lft.to/lastmile_qr_scan", "android": "https://dc.lft.to/lastmile_qr_scan"}, "lon": -77.021509, "type": "electric_scooter", "fusion_lat": 0.0, "lat": 38.930010833333334, "name": "62f3a6a51598c413c6df9cfb0ac8288e", "fusion_lon": 0.0, "bike_id": "62f3a6a51598c413c6df9cfb0ac8288e", "is_disabled": 0, "is_reserved": 0}, {"rental_uris": {"ios": "https://dc.lft.to/lastmile_qr_scan", "android": "https://dc.lft.to/lastmile_qr_scan"}, "lon": -77.0231725, "type": "electric_scooter", "fusion_lat": 0.0, "lat": 38.9288635, "name": "1994985655fd4af98abb7121bceb5b69", "fusion_lon": 0.0, "bike_id": "1994985655fd4af98abb7121bceb5b69", "is_disabled": 0, "is_reserved": 0}, {"rental_uris": {"ios": "https://dc.lft.to/lastmile_qr_scan", "android": "https://dc.lft.to/lastmile_qr_scan"}, "lon": -76.9721815, "type": "electric_bike", "fusion_lat": 0.0, "lat": 38.844817666666664, "name": "7c268fd7a8490b271c452c5bbe9564a0", "fusion_lon": 0.0, "bike_id": "7c268fd7a8490b271c452c5bbe9564a0", "is_disabled": 0, "is_reserved": 0}, {"rental_uris": {"ios": "https://dc.lft.to/lastmile_qr_scan", "android": "https://dc.lft.to/lastmile_qr_scan"}, "lon": -76.99005466666667, "type": "electric_scooter", "fusion_lat": 0.0, "lat": 38.865049166666665, "name": "a5518563b09d6e59ae88fada1fb20626", "fusion_lon": 0.0, "bike_id": "a5518563b09d6e59ae88fada1fb20626", "is_disabled": 0, "is_reserved": 0}, {"rental_uris": {"ios": "https://dc.lft.to/lastmile_qr_scan", "android": "https://dc.lft.to/lastmile_qr_scan"}, "lon": -77.00258766666667, "type": "electric_scooter", "fusion_lat": 0.0, "lat": 38.901211, "name": "abbae4fbb885d3f14b5e914bdb065a2a", "fusion_lon": 0.0, "bike_id": "abbae4fbb885d3f14b5e914bdb065a2a", "is_disabled": 0, "is_reserved": 0}, {"rental_uris": {"ios": "https://dc.lft.to/lastmile_qr_scan", "android": "https://dc.lft.to/lastmile_qr_scan"}, "lon": -76.9997825, "type": "electric_scooter", "fusion_lat": 0.0, "lat": 38.838337, "name": "6c9fb50d045728e216754d836b19c6d5", "fusion_lon": 0.0, "bike_id": "6c9fb50d045728e216754d836b19c6d5", "is_disabled": 0, "is_reserved": 0}, {"rental_uris": {"ios": "https://dc.lft.to/lastmile_qr_scan", "android": "https://dc.lft.to/lastmile_qr_scan"}, "lon": -77.03464166666667, "type": "electric_scooter", "fusion_lat": 0.0, "lat": 38.909019666666666, "name": "0c6c0e2b602bce968aa56f4e71829ccf", "fusion_lon": 0.0, "bike_id": "0c6c0e2b602bce968aa56f4e71829ccf", "is_disabled": 0, "is_reserved": 0}, {"rental_uris": {"ios": "https://dc.lft.to/lastmile_qr_scan", "android": "https://dc.lft.to/lastmile_qr_scan"}, "lon": -77.040298, "type": "electric_scooter", "fusion_lat": 0.0, "lat": 38.92344083333333, "name": "d11ae6125e8e860358547f803334d816", "fusion_lon": 0.0, "bike_id": "d11ae6125e8e860358547f803334d816", "is_disabled": 0, "is_reserved": 0}, {"rental_uris": {"ios": "https://dc.lft.to/lastmile_qr_scan", "android": "https://dc.lft.to/lastmile_qr_scan"}, "lon": -77.03901166666667, "type": "electric_scooter", "fusion_lat": 0.0, "lat": 38.92331466666667, "name": "4bb8203087964c99e236a175bc10a8e5", "fusion_lon": 0.0, "bike_id": "4bb8203087964c99e236a175bc10a8e5", "is_disabled": 0, "is_reserved": 0}, {"rental_uris": {"ios": "https://dc.lft.to/lastmile_qr_scan", "android": "https://dc.lft.to/lastmile_qr_scan"}, "lon": -77.03916616666666, "type": "electric_scooter", "fusion_lat": 0.0, "lat": 38.9111065, "name": "67d353618f17aad59d7874212d11ec16", "fusion_lon": 0.0, "bike_id": "67d353618f17aad59d7874212d11ec16", "is_disabled": 0, "is_reserved": 0}, {"rental_uris": {"ios": "https://dc.lft.to/lastmile_qr_scan", "android": "https://dc.lft.to/lastmile_qr_scan"}, "lon": -77.07272733333333, "type": "electric_scooter", "fusion_lat": 0.0, "lat": 38.934791833333335, "name": "7e66987a998b2cd5a3c7f8e0101a69be", "fusion_lon": 0.0, "bike_id": "7e66987a998b2cd5a3c7f8e0101a69be", "is_disabled": 0, "is_reserved": 0}, {"rental_uris": {"ios": "https://dc.lft.to/lastmile_qr_scan", "android": "https://dc.lft.to/lastmile_qr_scan"}, "lon": -77.04287966666666, "type": "electric_scooter", "fusion_lat": 0.0, "lat": 38.9226245, "name": "4f12734f3d42fe5e2d04b16dfa039330", "fusion_lon": 0.0, "bike_id": "4f12734f3d42fe5e2d04b16dfa039330", "is_disabled": 0, "is_reserved": 0}, {"rental_uris": {"ios": "https://dc.lft.to/lastmile_qr_scan", "android": "https://dc.lft.to/lastmile_qr_scan"}, "lon": -77.00089216666667, "type": "electric_scooter", "fusion_lat": 0.0, "lat": 38.90753733333333, "name": "a6aad02f782c6b9e824bb7a7e3772e79", "fusion_lon": 0.0, "bike_id": "a6aad02f782c6b9e824bb7a7e3772e79", "is_disabled": 0, "is_reserved": 0}, {"rental_uris": {"ios": "https://dc.lft.to/lastmile_qr_scan", "android": "https://dc.lft.to/lastmile_qr_scan"}, "lon": -77.04991683333333, "type": "electric_scooter", "fusion_lat": 0.0, "lat": 38.901182, "name": "cd32bf6fc060ad6a9f783b28c3d890c5", "fusion_lon": 0.0, "bike_id": "cd32bf6fc060ad6a9f783b28c3d890c5", "is_disabled": 0, "is_reserved": 0}, {"rental_uris": {"ios": "https://dc.lft.to/lastmile_qr_scan", "android": "https://dc.lft.to/lastmile_qr_scan"}, "lon": -77.041556, "type": "electric_scooter", "fusion_lat": 0.0, "lat": 38.919171, "name": "2e83ba53b27caef90d6195977699a981", "fusion_lon": 0.0, "bike_id": "2e83ba53b27caef90d6195977699a981", "is_disabled": 0, "is_reserved": 0}, {"rental_uris": {"ios": "https://dc.lft.to/lastmile_qr_scan", "android": "https://dc.lft.to/lastmile_qr_scan"}, "lon": -77.01116916666666, "type": "electric_scooter", "fusion_lat": 0.0, "lat": 38.8949885, "name": "735fa7555c231dea2b10e5fab0223cf6", "fusion_lon": 0.0, "bike_id": "735fa7555c231dea2b10e5fab0223cf6", "is_disabled": 0, "is_reserved": 0}, {"rental_uris": {"ios": "https://dc.lft.to/lastmile_qr_scan", "android": "https://dc.lft.to/lastmile_qr_scan"}, "lon": -77.018433, "type": "electric_scooter", "fusion_lat": 0.0, "lat": 38.91960533333334, "name": "b2857da662d70039f4f05e1d0a1577a5", "fusion_lon": 0.0, "bike_id": "b2857da662d70039f4f05e1d0a1577a5", "is_disabled": 0, "is_reserved": 0}, {"rental_uris": {"ios": "https://dc.lft.to/lastmile_qr_scan", "android": "https://dc.lft.to/lastmile_qr_scan"}, "lon": -77.02559883333333, "type": "electric_scooter", "fusion_lat": 0.0, "lat": 38.925327333333335, "name": "1e55f14b83118cd260d9c27d8dc495ea", "fusion_lon": 0.0, "bike_id": "1e55f14b83118cd260d9c27d8dc495ea", "is_disabled": 0, "is_reserved": 0}, {"rental_uris": {"ios": "https://dc.lft.to/lastmile_qr_scan", "android": "https://dc.lft.to/lastmile_qr_scan"}, "lon": -76.99944583333334, "type": "electric_scooter", "fusion_lat": 0.0, "lat": 38.8429145, "name": "0d20d37f5578caf32598986c1578f44c", "fusion_lon": 0.0, "bike_id": "0d20d37f5578caf32598986c1578f44c", "is_disabled": 0, "is_reserved": 0}, {"rental_uris": {"ios": "https://dc.lft.to/lastmile_qr_scan", "android": "https://dc.lft.to/lastmile_qr_scan"}, "lon": -77.04646283333334, "type": "electric_bike", "fusion_lat": 0.0, "lat": 38.85210083333333, "name": "cd16ea480f83ca5167c0360cc508bdb1", "fusion_lon": 0.0, "bike_id": "cd16ea480f83ca5167c0360cc508bdb1", "is_disabled": 0, "is_reserved": 0}, {"rental_uris": {"ios": "https://dc.lft.to/lastmile_qr_scan", "android": "https://dc.lft.to/lastmile_qr_scan"}, "lon": -77.04189683333334, "type": "electric_scooter", "fusion_lat": 0.0, "lat": 38.92018066666667, "name": "d61fead05e406df42fd4899b88291aca", "fusion_lon": 0.0, "bike_id": "d61fead05e406df42fd4899b88291aca", "is_disabled": 0, "is_reserved": 0}, {"rental_uris": {"ios": "https://dc.lft.to/lastmile_qr_scan", "android": "https://dc.lft.to/lastmile_qr_scan"}, "lon": -77.03325533333333, "type": "electric_scooter", "fusion_lat": 0.0, "lat": 38.90035233333333, "name": "008d5263d6f4a0f37cf8b5d7cecd1435", "fusion_lon": 0.0, "bike_id": "008d5263d6f4a0f37cf8b5d7cecd1435", "is_disabled": 0, "is_reserved": 0}, {"rental_uris": {"ios": "https://dc.lft.to/lastmile_qr_scan", "android": "https://dc.lft.to/lastmile_qr_scan"}, "lon": -77.04381916666667, "type": "electric_scooter", "fusion_lat": 0.0, "lat": 38.91780083333333, "name": "ec76e61b7adc6a00cac350ac721ac29e", "fusion_lon": 0.0, "bike_id": "ec76e61b7adc6a00cac350ac721ac29e", "is_disabled": 0, "is_reserved": 0}, {"rental_uris": {"ios": "https://dc.lft.to/lastmile_qr_scan", "android": "https://dc.lft.to/lastmile_qr_scan"}, "lon": -76.94716183333334, "type": "electric_scooter", "fusion_lat": 0.0, "lat": 38.897004833333334, "name": "c885097fc6097dbfc33830f9b6c2b04f", "fusion_lon": 0.0, "bike_id": "c885097fc6097dbfc33830f9b6c2b04f", "is_disabled": 0, "is_reserved": 0}, {"rental_uris": {"ios": "https://dc.lft.to/lastmile_qr_scan", "android": "https://dc.lft.to/lastmile_qr_scan"}, "lon": -77.04192633333334, "type": "electric_scooter", "fusion_lat": 0.0, "lat": 38.926322, "name": "eaea5efcc0a86c3e150822141a50207a", "fusion_lon": 0.0, "bike_id": "eaea5efcc0a86c3e150822141a50207a", "is_disabled": 0, "is_reserved": 0}, {"rental_uris": {"ios": "https://dc.lft.to/lastmile_qr_scan", "android": "https://dc.lft.to/lastmile_qr_scan"}, "lon": -77.00737883333333, "type": "electric_scooter", "fusion_lat": 0.0, "lat": 38.95518783333333, "name": "974fe7a331ef69d7b3ba78149558a841", "fusion_lon": 0.0, "bike_id": "974fe7a331ef69d7b3ba78149558a841", "is_disabled": 0, "is_reserved": 0}, {"rental_uris": {"ios": "https://dc.lft.to/lastmile_qr_scan", "android": "https://dc.lft.to/lastmile_qr_scan"}, "lon": -77.02504433333333, "type": "electric_scooter", "fusion_lat": 0.0, "lat": 38.918168, "name": "525900da78878816c815761f8dcbb87a", "fusion_lon": 0.0, "bike_id": "525900da78878816c815761f8dcbb87a", "is_disabled": 0, "is_reserved": 0}, {"rental_uris": {"ios": "https://dc.lft.to/lastmile_qr_scan", "android": "https://dc.lft.to/lastmile_qr_scan"}, "lon": -77.032658, "type": "electric_scooter", "fusion_lat": 0.0, "lat": 38.932345833333336, "name": "d238dd82540fec0978076069b1fe7877", "fusion_lon": 0.0, "bike_id": "d238dd82540fec0978076069b1fe7877", "is_disabled": 0, "is_reserved": 0}, {"rental_uris": {"ios": "https://dc.lft.to/lastmile_qr_scan", "android": "https://dc.lft.to/lastmile_qr_scan"}, "lon": -77.02350316666667, "type": "electric_scooter", "fusion_lat": 0.0, "lat": 38.92275383333333, "name": "6d0eacef894a862fc941202b659486ca", "fusion_lon": 0.0, "bike_id": "6d0eacef894a862fc941202b659486ca", "is_disabled": 0, "is_reserved": 0}, {"rental_uris": {"ios": "https://dc.lft.to/lastmile_qr_scan", "android": "https://dc.lft.to/lastmile_qr_scan"}, "lon": -77.034803, "type": "electric_scooter", "fusion_lat": 0.0, "lat": 38.902407, "name": "3347442f59645496307552d1fb24f11b", "fusion_lon": 0.0, "bike_id": "3347442f59645496307552d1fb24f11b", "is_disabled": 0, "is_reserved": 0}, {"rental_uris": {"ios": "https://dc.lft.to/lastmile_qr_scan", "android": "https://dc.lft.to/lastmile_qr_scan"}, "lon": -77.0678185, "type": "electric_scooter", "fusion_lat": 0.0, "lat": 38.952115166666665, "name": "b525a421123ef0e5e714cdba16be0ff7", "fusion_lon": 0.0, "bike_id": "b525a421123ef0e5e714cdba16be0ff7", "is_disabled": 0, "is_reserved": 0}, {"rental_uris": {"ios": "https://dc.lft.to/lastmile_qr_scan", "android": "https://dc.lft.to/lastmile_qr_scan"}, "lon": -77.0213, "type": "electric_scooter", "fusion_lat": 0.0, "lat": 38.909732, "name": "e19d38136814f3c17c489223a5878c70", "fusion_lon": 0.0, "bike_id": "e19d38136814f3c17c489223a5878c70", "is_disabled": 0, "is_reserved": 0}, {"rental_uris": {"ios": "https://dc.lft.to/lastmile_qr_scan", "android": "https://dc.lft.to/lastmile_qr_scan"}, "lon": -77.039684, "type": "electric_scooter", "fusion_lat": 0.0, "lat": 38.90262083333333, "name": "506a2cbaf730080112cc1fdeed3d6a05", "fusion_lon": 0.0, "bike_id": "506a2cbaf730080112cc1fdeed3d6a05", "is_disabled": 0, "is_reserved": 0}, {"rental_uris": {"ios": "https://dc.lft.to/lastmile_qr_scan", "android": "https://dc.lft.to/lastmile_qr_scan"}, "lon": -77.002056, "type": "electric_scooter", "fusion_lat": 0.0, "lat": 38.90210283333333, "name": "a03052d2874af0ed04b8f1b37574bc4c", "fusion_lon": 0.0, "bike_id": "a03052d2874af0ed04b8f1b37574bc4c", "is_disabled": 0, "is_reserved": 0}, {"rental_uris": {"ios": "https://dc.lft.to/lastmile_qr_scan", "android": "https://dc.lft.to/lastmile_qr_scan"}, "lon": -77.0021, "type": "electric_scooter", "fusion_lat": 0.0, "lat": 38.9022005, "name": "6e70c4fe0f39fc3fc320fa1364a7be89", "fusion_lon": 0.0, "bike_id": "6e70c4fe0f39fc3fc320fa1364a7be89", "is_disabled": 0, "is_reserved": 0}, {"rental_uris": {"ios": "https://dc.lft.to/lastmile_qr_scan", "android": "https://dc.lft.to/lastmile_qr_scan"}, "lon": -77.0515445, "type": "electric_scooter", "fusion_lat": 0.0, "lat": 38.89770266666667, "name": "097ae84bd5727ee2702d5e1bd16194a2", "fusion_lon": 0.0, "bike_id": "097ae84bd5727ee2702d5e1bd16194a2", "is_disabled": 0, "is_reserved": 0}, {"rental_uris": {"ios": "https://dc.lft.to/lastmile_qr_scan", "android": "https://dc.lft.to/lastmile_qr_scan"}, "lon": -77.04668516666666, "type": "electric_scooter", "fusion_lat": 0.0, "lat": 38.89338583333333, "name": "10e31097be28c7fb77826743f2431ffd", "fusion_lon": 0.0, "bike_id": "10e31097be28c7fb77826743f2431ffd", "is_disabled": 0, "is_reserved": 0}, {"rental_uris": {"ios": "https://dc.lft.to/lastmile_qr_scan", "android": "https://dc.lft.to/lastmile_qr_scan"}, "lon": -76.994646, "type": "electric_bike", "fusion_lat": 0.0, "lat": 38.94064866666667, "name": "cfa327522f15aad3f111a39d41f8aad2", "fusion_lon": 0.0, "bike_id": "cfa327522f15aad3f111a39d41f8aad2", "is_disabled": 0, "is_reserved": 0}, {"rental_uris": {"ios": "https://dc.lft.to/lastmile_qr_scan", "android": "https://dc.lft.to/lastmile_qr_scan"}, "lon": -77.1202025, "type": "electric_bike", "fusion_lat": 0.0, "lat": 38.85509716666667, "name": "26b7556f57dae22017645486b5aaa07c", "fusion_lon": 0.0, "bike_id": "26b7556f57dae22017645486b5aaa07c", "is_disabled": 0, "is_reserved": 0}, {"rental_uris": {"ios": "https://dc.lft.to/lastmile_qr_scan", "android": "https://dc.lft.to/lastmile_qr_scan"}, "lon": -76.94971216666667, "type": "electric_scooter", "fusion_lat": 0.0, "lat": 38.89374516666667, "name": "331a7dd57def362e03493587d0686726", "fusion_lon": 0.0, "bike_id": "331a7dd57def362e03493587d0686726", "is_disabled": 0, "is_reserved": 0}, {"rental_uris": {"ios": "https://dc.lft.to/lastmile_qr_scan", "android": "https://dc.lft.to/lastmile_qr_scan"}, "lon": -77.03204566666666, "type": "electric_scooter", "fusion_lat": 0.0, "lat": 38.91741866666667, "name": "a721bb89736fdd2856f42abcfb26ece5", "fusion_lon": 0.0, "bike_id": "a721bb89736fdd2856f42abcfb26ece5", "is_disabled": 0, "is_reserved": 0}, {"rental_uris": {"ios": "https://dc.lft.to/lastmile_qr_scan", "android": "https://dc.lft.to/lastmile_qr_scan"}, "lon": -76.93173783333333, "type": "electric_scooter", "fusion_lat": 0.0, "lat": 38.8988175, "name": "6bd8f936f7664e05260d17bc081ff383", "fusion_lon": 0.0, "bike_id": "6bd8f936f7664e05260d17bc081ff383", "is_disabled": 0, "is_reserved": 0}, {"rental_uris": {"ios": "https://dc.lft.to/lastmile_qr_scan", "android": "https://dc.lft.to/lastmile_qr_scan"}, "lon": -77.03173283333334, "type": "electric_scooter", "fusion_lat": 0.0, "lat": 38.886256333333336, "name": "fb77aa00ecd493d8f855af9737e6150b", "fusion_lon": 0.0, "bike_id": "fb77aa00ecd493d8f855af9737e6150b", "is_disabled": 0, "is_reserved": 0}, {"rental_uris": {"ios": "https://dc.lft.to/lastmile_qr_scan", "android": "https://dc.lft.to/lastmile_qr_scan"}, "lon": -77.02624666666667, "type": "electric_scooter", "fusion_lat": 0.0, "lat": 38.9278735, "name": "0c9233f7e036fb55f3cb3994410b5590", "fusion_lon": 0.0, "bike_id": "0c9233f7e036fb55f3cb3994410b5590", "is_disabled": 0, "is_reserved": 0}, {"rental_uris": {"ios": "https://dc.lft.to/lastmile_qr_scan", "android": "https://dc.lft.to/lastmile_qr_scan"}, "lon": -77.02926916666667, "type": "electric_scooter", "fusion_lat": 0.0, "lat": 38.8821825, "name": "98f6a3360d84d1cdee7792750002d8e9", "fusion_lon": 0.0, "bike_id": "98f6a3360d84d1cdee7792750002d8e9", "is_disabled": 0, "is_reserved": 0}, {"rental_uris": {"ios": "https://dc.lft.to/lastmile_qr_scan", "android": "https://dc.lft.to/lastmile_qr_scan"}, "lon": -77.073602, "type": "electric_scooter", "fusion_lat": 0.0, "lat": 38.93739683333333, "name": "f94ded5d23b48b47ad6060399afe15b7", "fusion_lon": 0.0, "bike_id": "f94ded5d23b48b47ad6060399afe15b7", "is_disabled": 0, "is_reserved": 0}, {"rental_uris": {"ios": "https://dc.lft.to/lastmile_qr_scan", "android": "https://dc.lft.to/lastmile_qr_scan"}, "lon": -77.01868583333334, "type": "electric_scooter", "fusion_lat": 0.0, "lat": 38.948989833333336, "name": "74489a91987bdb3d42c78102dcf366be", "fusion_lon": 0.0, "bike_id": "74489a91987bdb3d42c78102dcf366be", "is_disabled": 0, "is_reserved": 0}, {"rental_uris": {"ios": "https://dc.lft.to/lastmile_qr_scan", "android": "https://dc.lft.to/lastmile_qr_scan"}, "lon": -76.97630216666667, "type": "electric_scooter", "fusion_lat": 0.0, "lat": 38.90570533333333, "name": "0fd22592e5f916a4d033aeec62a10302", "fusion_lon": 0.0, "bike_id": "0fd22592e5f916a4d033aeec62a10302", "is_disabled": 0, "is_reserved": 0}, {"rental_uris": {"ios": "https://dc.lft.to/lastmile_qr_scan", "android": "https://dc.lft.to/lastmile_qr_scan"}, "lon": -77.04807733333334, "type": "electric_scooter", "fusion_lat": 0.0, "lat": 38.89731733333333, "name": "47d503aa1ebfdbbcf4918fd20668111e", "fusion_lon": 0.0, "bike_id": "47d503aa1ebfdbbcf4918fd20668111e", "is_disabled": 0, "is_reserved": 0}, {"rental_uris": {"ios": "https://dc.lft.to/lastmile_qr_scan", "android": "https://dc.lft.to/lastmile_qr_scan"}, "lon": -77.0664325, "type": "electric_scooter", "fusion_lat": 0.0, "lat": 38.913771833333335, "name": "2bad9cf74449b373e6821c6afd3ea362", "fusion_lon": 0.0, "bike_id": "2bad9cf74449b373e6821c6afd3ea362", "is_disabled": 0, "is_reserved": 0}, {"rental_uris": {"ios": "https://dc.lft.to/lastmile_qr_scan", "android": "https://dc.lft.to/lastmile_qr_scan"}, "lon": -77.02979533333334, "type": "electric_bike", "fusion_lat": 0.0, "lat": 38.936992000000004, "name": "921afad941ae92267d759c691ec2e7f7", "fusion_lon": 0.0, "bike_id": "921afad941ae92267d759c691ec2e7f7", "is_disabled": 0, "is_reserved": 0}, {"rental_uris": {"ios": "https://dc.lft.to/lastmile_qr_scan", "android": "https://dc.lft.to/lastmile_qr_scan"}, "lon": -77.0319355, "type": "electric_scooter", "fusion_lat": 0.0, "lat": 38.90839883333334, "name": "dd47bede0578a32a6f3b00d9536223a4", "fusion_lon": 0.0, "bike_id": "dd47bede0578a32a6f3b00d9536223a4", "is_disabled": 0, "is_reserved": 0}, {"rental_uris": {"ios": "https://dc.lft.to/lastmile_qr_scan", "android": "https://dc.lft.to/lastmile_qr_scan"}, "lon": -76.96526466666667, "type": "electric_scooter", "fusion_lat": 0.0, "lat": 38.876281166666665, "name": "37a1d71072c45c7ae7a111dd92037076", "fusion_lon": 0.0, "bike_id": "37a1d71072c45c7ae7a111dd92037076", "is_disabled": 0, "is_reserved": 0}, {"rental_uris": {"ios": "https://dc.lft.to/lastmile_qr_scan", "android": "https://dc.lft.to/lastmile_qr_scan"}, "lon": -77.05579233333333, "type": "electric_scooter", "fusion_lat": 0.0, "lat": 38.8997225, "name": "8639d3de816109e63122e3d4cb9d4009", "fusion_lon": 0.0, "bike_id": "8639d3de816109e63122e3d4cb9d4009", "is_disabled": 0, "is_reserved": 0}, {"rental_uris": {"ios": "https://dc.lft.to/lastmile_qr_scan", "android": "https://dc.lft.to/lastmile_qr_scan"}, "lon": -77.04604916666666, "type": "electric_scooter", "fusion_lat": 0.0, "lat": 38.90253, "name": "34989d8002c0f692c4e4d10e9e1fc49a", "fusion_lon": 0.0, "bike_id": "34989d8002c0f692c4e4d10e9e1fc49a", "is_disabled": 0, "is_reserved": 0}, {"rental_uris": {"ios": "https://dc.lft.to/lastmile_qr_scan", "android": "https://dc.lft.to/lastmile_qr_scan"}, "lon": -76.993387, "type": "electric_bike", "fusion_lat": 0.0, "lat": 38.961957166666664, "name": "d4b0db328969954a285b789da190c7f6", "fusion_lon": 0.0, "bike_id": "d4b0db328969954a285b789da190c7f6", "is_disabled": 0, "is_reserved": 0}, {"rental_uris": {"ios": "https://dc.lft.to/lastmile_qr_scan", "android": "https://dc.lft.to/lastmile_qr_scan"}, "lon": -77.01512566666666, "type": "electric_scooter", "fusion_lat": 0.0, "lat": 38.916105, "name": "5a8e876d513dde2570a77e18fe9e51bc", "fusion_lon": 0.0, "bike_id": "5a8e876d513dde2570a77e18fe9e51bc", "is_disabled": 0, "is_reserved": 0}, {"rental_uris": {"ios": "https://dc.lft.to/lastmile_qr_scan", "android": "https://dc.lft.to/lastmile_qr_scan"}, "lon": -77.1262685, "type": "electric_bike", "fusion_lat": 0.0, "lat": 39.058123, "name": "ba6afed9a7e1cf5dbeced7aebf60787e", "fusion_lon": 0.0, "bike_id": "ba6afed9a7e1cf5dbeced7aebf60787e", "is_disabled": 0, "is_reserved": 0}, {"rental_uris": {"ios": "https://dc.lft.to/lastmile_qr_scan", "android": "https://dc.lft.to/lastmile_qr_scan"}, "lon": -77.03213066666666, "type": "electric_scooter", "fusion_lat": 0.0, "lat": 38.8922025, "name": "150f74d69a50baab8e20abc3c7f9ab7d", "fusion_lon": 0.0, "bike_id": "150f74d69a50baab8e20abc3c7f9ab7d", "is_disabled": 0, "is_reserved": 0}, {"rental_uris": {"ios": "https://dc.lft.to/lastmile_qr_scan", "android": "https://dc.lft.to/lastmile_qr_scan"}, "lon": -77.020417, "type": "electric_scooter", "fusion_lat": 0.0, "lat": 38.915549166666665, "name": "aa97a3814e1fb00a473070aa583cb0cd", "fusion_lon": 0.0, "bike_id": "aa97a3814e1fb00a473070aa583cb0cd", "is_disabled": 0, "is_reserved": 0}, {"rental_uris": {"ios": "https://dc.lft.to/lastmile_qr_scan", "android": "https://dc.lft.to/lastmile_qr_scan"}, "lon": -77.03325766666667, "type": "electric_scooter", "fusion_lat": 0.0, "lat": 38.89906366666666, "name": "66934000a9617ae207c77834dd24b31c", "fusion_lon": 0.0, "bike_id": "66934000a9617ae207c77834dd24b31c", "is_disabled": 0, "is_reserved": 0}, {"rental_uris": {"ios": "https://dc.lft.to/lastmile_qr_scan", "android": "https://dc.lft.to/lastmile_qr_scan"}, "lon": -77.04869483333333, "type": "electric_scooter", "fusion_lat": 0.0, "lat": 38.90599866666667, "name": "aa92a46cc1228b9fb0de8da8128057b8", "fusion_lon": 0.0, "bike_id": "aa92a46cc1228b9fb0de8da8128057b8", "is_disabled": 0, "is_reserved": 0}, {"rental_uris": {"ios": "https://dc.lft.to/lastmile_qr_scan", "android": "https://dc.lft.to/lastmile_qr_scan"}, "lon": -77.03417583333334, "type": "electric_scooter", "fusion_lat": 0.0, "lat": 38.9354045, "name": "5656f03e388608787e01288398779451", "fusion_lon": 0.0, "bike_id": "5656f03e388608787e01288398779451", "is_disabled": 0, "is_reserved": 0}, {"rental_uris": {"ios": "https://dc.lft.to/lastmile_qr_scan", "android": "https://dc.lft.to/lastmile_qr_scan"}, "lon": -77.0296615, "type": "electric_scooter", "fusion_lat": 0.0, "lat": 38.8921785, "name": "68be8a1efac9ed0dd8687f866051c1a1", "fusion_lon": 0.0, "bike_id": "68be8a1efac9ed0dd8687f866051c1a1", "is_disabled": 0, "is_reserved": 0}, {"rental_uris": {"ios": "https://dc.lft.to/lastmile_qr_scan", "android": "https://dc.lft.to/lastmile_qr_scan"}, "lon": -77.0716215, "type": "electric_scooter", "fusion_lat": 0.0, "lat": 38.90774483333333, "name": "20b31292d169a90d0f235a365e13f80e", "fusion_lon": 0.0, "bike_id": "20b31292d169a90d0f235a365e13f80e", "is_disabled": 0, "is_reserved": 0}, {"rental_uris": {"ios": "https://dc.lft.to/lastmile_qr_scan", "android": "https://dc.lft.to/lastmile_qr_scan"}, "lon": -77.03270333333333, "type": "electric_scooter", "fusion_lat": 0.0, "lat": 38.928790666666664, "name": "3273f218d898630bbc5acdcbfabc26b2", "fusion_lon": 0.0, "bike_id": "3273f218d898630bbc5acdcbfabc26b2", "is_disabled": 0, "is_reserved": 0}, {"rental_uris": {"ios": "https://dc.lft.to/lastmile_qr_scan", "android": "https://dc.lft.to/lastmile_qr_scan"}, "lon": -77.0313675, "type": "electric_scooter", "fusion_lat": 0.0, "lat": 38.910355333333335, "name": "906deb7869e0b5a26a2a37d22d071b08", "fusion_lon": 0.0, "bike_id": "906deb7869e0b5a26a2a37d22d071b08", "is_disabled": 0, "is_reserved": 0}, {"rental_uris": {"ios": "https://dc.lft.to/lastmile_qr_scan", "android": "https://dc.lft.to/lastmile_qr_scan"}, "lon": -76.978258, "type": "electric_bike", "fusion_lat": 0.0, "lat": 38.8461385, "name": "2ca980dc30c360b63c948d143273a5cf", "fusion_lon": 0.0, "bike_id": "2ca980dc30c360b63c948d143273a5cf", "is_disabled": 0, "is_reserved": 0}, {"rental_uris": {"ios": "https://dc.lft.to/lastmile_qr_scan", "android": "https://dc.lft.to/lastmile_qr_scan"}, "lon": -77.04325183333333, "type": "electric_scooter", "fusion_lat": 0.0, "lat": 38.903677333333334, "name": "662763d98d79e74d94e76aba7140e815", "fusion_lon": 0.0, "bike_id": "662763d98d79e74d94e76aba7140e815", "is_disabled": 0, "is_reserved": 0}, {"rental_uris": {"ios": "https://dc.lft.to/lastmile_qr_scan", "android": "https://dc.lft.to/lastmile_qr_scan"}, "lon": -77.0199775, "type": "electric_scooter", "fusion_lat": 0.0, "lat": 38.8974075, "name": "661da48ac8af3bf981af8f7c6506d337", "fusion_lon": 0.0, "bike_id": "661da48ac8af3bf981af8f7c6506d337", "is_disabled": 0, "is_reserved": 0}, {"rental_uris": {"ios": "https://dc.lft.to/lastmile_qr_scan", "android": "https://dc.lft.to/lastmile_qr_scan"}, "lon": -76.9839125, "type": "electric_bike", "fusion_lat": 0.0, "lat": 38.922017333333336, "name": "c191b8deb1e140a897ed3ad04aec44ca", "fusion_lon": 0.0, "bike_id": "c191b8deb1e140a897ed3ad04aec44ca", "is_disabled": 0, "is_reserved": 0}, {"rental_uris": {"ios": "https://dc.lft.to/lastmile_qr_scan", "android": "https://dc.lft.to/lastmile_qr_scan"}, "lon": -77.03489983333333, "type": "electric_scooter", "fusion_lat": 0.0, "lat": 38.903734666666665, "name": "326b3b9f72d0ff6510e91be4cc81a700", "fusion_lon": 0.0, "bike_id": "326b3b9f72d0ff6510e91be4cc81a700", "is_disabled": 0, "is_reserved": 0}, {"rental_uris": {"ios": "https://dc.lft.to/lastmile_qr_scan", "android": "https://dc.lft.to/lastmile_qr_scan"}, "lon": -77.04673366666667, "type": "electric_scooter", "fusion_lat": 0.0, "lat": 38.91316233333333, "name": "8d0306baacdd135d925a03efcce33f82", "fusion_lon": 0.0, "bike_id": "8d0306baacdd135d925a03efcce33f82", "is_disabled": 0, "is_reserved": 0}, {"rental_uris": {"ios": "https://dc.lft.to/lastmile_qr_scan", "android": "https://dc.lft.to/lastmile_qr_scan"}, "lon": -76.9762065, "type": "electric_bike", "fusion_lat": 0.0, "lat": 38.895725666666664, "name": "679d6871ec641093a306df51c8fada16", "fusion_lon": 0.0, "bike_id": "679d6871ec641093a306df51c8fada16", "is_disabled": 0, "is_reserved": 0}, {"rental_uris": {"ios": "https://dc.lft.to/lastmile_qr_scan", "android": "https://dc.lft.to/lastmile_qr_scan"}, "lon": -77.03282, "type": "electric_scooter", "fusion_lat": 0.0, "lat": 38.904643166666666, "name": "af9dadfc5df0642506aeea4451e3ef10", "fusion_lon": 0.0, "bike_id": "af9dadfc5df0642506aeea4451e3ef10", "is_disabled": 0, "is_reserved": 0}, {"rental_uris": {"ios": "https://dc.lft.to/lastmile_qr_scan", "android": "https://dc.lft.to/lastmile_qr_scan"}, "lon": -77.01078166666667, "type": "electric_scooter", "fusion_lat": 0.0, "lat": 38.895105666666666, "name": "e4137dd08055328d59b21bd61dde42e7", "fusion_lon": 0.0, "bike_id": "e4137dd08055328d59b21bd61dde42e7", "is_disabled": 0, "is_reserved": 0}, {"rental_uris": {"ios": "https://dc.lft.to/lastmile_qr_scan", "android": "https://dc.lft.to/lastmile_qr_scan"}, "lon": -77.01211216666667, "type": "electric_scooter", "fusion_lat": 0.0, "lat": 38.8708985, "name": "e76bc9af1fbc825069f2b1db5a6245c3", "fusion_lon": 0.0, "bike_id": "e76bc9af1fbc825069f2b1db5a6245c3", "is_disabled": 0, "is_reserved": 0}, {"rental_uris": {"ios": "https://dc.lft.to/lastmile_qr_scan", "android": "https://dc.lft.to/lastmile_qr_scan"}, "lon": -77.04161433333333, "type": "electric_scooter", "fusion_lat": 0.0, "lat": 38.905416833333334, "name": "1e7508a8e233783fa39e23a8046e319c", "fusion_lon": 0.0, "bike_id": "1e7508a8e233783fa39e23a8046e319c", "is_disabled": 0, "is_reserved": 0}, {"rental_uris": {"ios": "https://dc.lft.to/lastmile_qr_scan", "android": "https://dc.lft.to/lastmile_qr_scan"}, "lon": -77.01868716666667, "type": "electric_scooter", "fusion_lat": 0.0, "lat": 38.91572, "name": "5aec091eeaceb7f5bff1cd481a341629", "fusion_lon": 0.0, "bike_id": "5aec091eeaceb7f5bff1cd481a341629", "is_disabled": 0, "is_reserved": 0}, {"rental_uris": {"ios": "https://dc.lft.to/lastmile_qr_scan", "android": "https://dc.lft.to/lastmile_qr_scan"}, "lon": -77.0194885, "type": "electric_scooter", "fusion_lat": 0.0, "lat": 38.903597500000004, "name": "540b140e57956643c932464aaf94e682", "fusion_lon": 0.0, "bike_id": "540b140e57956643c932464aaf94e682", "is_disabled": 0, "is_reserved": 0}, {"rental_uris": {"ios": "https://dc.lft.to/lastmile_qr_scan", "android": "https://dc.lft.to/lastmile_qr_scan"}, "lon": -77.04114966666667, "type": "electric_scooter", "fusion_lat": 0.0, "lat": 38.9244645, "name": "a2065ef519e0db2acc688f9437279b7b", "fusion_lon": 0.0, "bike_id": "a2065ef519e0db2acc688f9437279b7b", "is_disabled": 0, "is_reserved": 0}, {"rental_uris": {"ios": "https://dc.lft.to/lastmile_qr_scan", "android": "https://dc.lft.to/lastmile_qr_scan"}, "lon": -77.002438, "type": "electric_scooter", "fusion_lat": 0.0, "lat": 38.91267533333333, "name": "ed7c8a24b132deb68a0103adffcf5030", "fusion_lon": 0.0, "bike_id": "ed7c8a24b132deb68a0103adffcf5030", "is_disabled": 0, "is_reserved": 0}, {"rental_uris": {"ios": "https://dc.lft.to/lastmile_qr_scan", "android": "https://dc.lft.to/lastmile_qr_scan"}, "lon": -77.04244916666667, "type": "electric_scooter", "fusion_lat": 0.0, "lat": 38.90713083333333, "name": "080f07b2d0f0cc8212cf26ba7fc424e6", "fusion_lon": 0.0, "bike_id": "080f07b2d0f0cc8212cf26ba7fc424e6", "is_disabled": 0, "is_reserved": 0}, {"rental_uris": {"ios": "https://dc.lft.to/lastmile_qr_scan", "android": "https://dc.lft.to/lastmile_qr_scan"}, "lon": -77.0340765, "type": "electric_scooter", "fusion_lat": 0.0, "lat": 38.90342616666667, "name": "a32973a58151b8bac47a3449813d1b7a", "fusion_lon": 0.0, "bike_id": "a32973a58151b8bac47a3449813d1b7a", "is_disabled": 0, "is_reserved": 0}, {"rental_uris": {"ios": "https://dc.lft.to/lastmile_qr_scan", "android": "https://dc.lft.to/lastmile_qr_scan"}, "lon": -76.9371705, "type": "electric_scooter", "fusion_lat": 0.0, "lat": 38.8959005, "name": "658d295651907ba826962d16e4e1070a", "fusion_lon": 0.0, "bike_id": "658d295651907ba826962d16e4e1070a", "is_disabled": 0, "is_reserved": 0}, {"rental_uris": {"ios": "https://dc.lft.to/lastmile_qr_scan", "android": "https://dc.lft.to/lastmile_qr_scan"}, "lon": -76.97407183333334, "type": "electric_scooter", "fusion_lat": 0.0, "lat": 38.9015865, "name": "35d91e51fd97feee228e81221629f335", "fusion_lon": 0.0, "bike_id": "35d91e51fd97feee228e81221629f335", "is_disabled": 0, "is_reserved": 0}, {"rental_uris": {"ios": "https://dc.lft.to/lastmile_qr_scan", "android": "https://dc.lft.to/lastmile_qr_scan"}, "lon": -76.979284, "type": "electric_scooter", "fusion_lat": 0.0, "lat": 38.906697, "name": "4c4625a4c87f0fb01013900c67337a50", "fusion_lon": 0.0, "bike_id": "4c4625a4c87f0fb01013900c67337a50", "is_disabled": 0, "is_reserved": 0}, {"rental_uris": {"ios": "https://dc.lft.to/lastmile_qr_scan", "android": "https://dc.lft.to/lastmile_qr_scan"}, "lon": -77.02970333333333, "type": "electric_scooter", "fusion_lat": 0.0, "lat": 38.9232945, "name": "3cf950af1aeae3dd792fedf8c082bf0b", "fusion_lon": 0.0, "bike_id": "3cf950af1aeae3dd792fedf8c082bf0b", "is_disabled": 0, "is_reserved": 0}, {"rental_uris": {"ios": "https://dc.lft.to/lastmile_qr_scan", "android": "https://dc.lft.to/lastmile_qr_scan"}, "lon": -77.0023115, "type": "electric_scooter", "fusion_lat": 0.0, "lat": 38.91176383333333, "name": "a6eb88af55d8df9a67a90ea6927903dd", "fusion_lon": 0.0, "bike_id": "a6eb88af55d8df9a67a90ea6927903dd", "is_disabled": 0, "is_reserved": 0}, {"rental_uris": {"ios": "https://dc.lft.to/lastmile_qr_scan", "android": "https://dc.lft.to/lastmile_qr_scan"}, "lon": -76.9730565, "type": "electric_scooter", "fusion_lat": 0.0, "lat": 38.919875166666664, "name": "3b9e197c2b8514d42433c1bc6eeb74f2", "fusion_lon": 0.0, "bike_id": "3b9e197c2b8514d42433c1bc6eeb74f2", "is_disabled": 0, "is_reserved": 0}, {"rental_uris": {"ios": "https://dc.lft.to/lastmile_qr_scan", "android": "https://dc.lft.to/lastmile_qr_scan"}, "lon": -77.0345945, "type": "electric_scooter", "fusion_lat": 0.0, "lat": 38.92349016666667, "name": "484cc294561159946540d0662c7b906c", "fusion_lon": 0.0, "bike_id": "484cc294561159946540d0662c7b906c", "is_disabled": 0, "is_reserved": 0}, {"rental_uris": {"ios": "https://dc.lft.to/lastmile_qr_scan", "android": "https://dc.lft.to/lastmile_qr_scan"}, "lon": -77.07100016666666, "type": "electric_bike", "fusion_lat": 0.0, "lat": 38.91449266666667, "name": "2c0c26eb1eec478c70e46be17cba1d22", "fusion_lon": 0.0, "bike_id": "2c0c26eb1eec478c70e46be17cba1d22", "is_disabled": 0, "is_reserved": 0}, {"rental_uris": {"ios": "https://dc.lft.to/lastmile_qr_scan", "android": "https://dc.lft.to/lastmile_qr_scan"}, "lon": -77.02179966666667, "type": "electric_scooter", "fusion_lat": 0.0, "lat": 38.88034783333333, "name": "77ec3776228d5d8d1112b13335a7ead4", "fusion_lon": 0.0, "bike_id": "77ec3776228d5d8d1112b13335a7ead4", "is_disabled": 0, "is_reserved": 0}, {"rental_uris": {"ios": "https://dc.lft.to/lastmile_qr_scan", "android": "https://dc.lft.to/lastmile_qr_scan"}, "lon": -77.04780933333333, "type": "electric_scooter", "fusion_lat": 0.0, "lat": 38.899637, "name": "225acd6e6b9c81ddb9cd222e51ba887b", "fusion_lon": 0.0, "bike_id": "225acd6e6b9c81ddb9cd222e51ba887b", "is_disabled": 0, "is_reserved": 0}, {"rental_uris": {"ios": "https://dc.lft.to/lastmile_qr_scan", "android": "https://dc.lft.to/lastmile_qr_scan"}, "lon": -77.033614, "type": "electric_scooter", "fusion_lat": 0.0, "lat": 38.932190166666665, "name": "82669821451197e5b4b0149f006feb0c", "fusion_lon": 0.0, "bike_id": "82669821451197e5b4b0149f006feb0c", "is_disabled": 0, "is_reserved": 0}, {"rental_uris": {"ios": "https://dc.lft.to/lastmile_qr_scan", "android": "https://dc.lft.to/lastmile_qr_scan"}, "lon": -76.98091316666667, "type": "electric_bike", "fusion_lat": 0.0, "lat": 38.88133916666666, "name": "e1cf3ba2e168e52b73f6a8aee4b8cca6", "fusion_lon": 0.0, "bike_id": "e1cf3ba2e168e52b73f6a8aee4b8cca6", "is_disabled": 0, "is_reserved": 0}, {"rental_uris": {"ios": "https://dc.lft.to/lastmile_qr_scan", "android": "https://dc.lft.to/lastmile_qr_scan"}, "lon": -77.03650283333333, "type": "electric_scooter", "fusion_lat": 0.0, "lat": 38.918128833333334, "name": "0c1cd389ff8368258027dfb9fb036a57", "fusion_lon": 0.0, "bike_id": "0c1cd389ff8368258027dfb9fb036a57", "is_disabled": 0, "is_reserved": 0}, {"rental_uris": {"ios": "https://dc.lft.to/lastmile_qr_scan", "android": "https://dc.lft.to/lastmile_qr_scan"}, "lon": -77.00599716666666, "type": "electric_scooter", "fusion_lat": 0.0, "lat": 38.8849135, "name": "430d676d82447f13d639e23aec459689", "fusion_lon": 0.0, "bike_id": "430d676d82447f13d639e23aec459689", "is_disabled": 0, "is_reserved": 0}, {"rental_uris": {"ios": "https://dc.lft.to/lastmile_qr_scan", "android": "https://dc.lft.to/lastmile_qr_scan"}, "lon": -77.0371175, "type": "electric_scooter", "fusion_lat": 0.0, "lat": 38.90702983333333, "name": "a485cf47054d48be76d4bf3d4f5e514a", "fusion_lon": 0.0, "bike_id": "a485cf47054d48be76d4bf3d4f5e514a", "is_disabled": 0, "is_reserved": 0}, {"rental_uris": {"ios": "https://dc.lft.to/lastmile_qr_scan", "android": "https://dc.lft.to/lastmile_qr_scan"}, "lon": -77.038349, "type": "electric_scooter", "fusion_lat": 0.0, "lat": 38.907499666666666, "name": "06986928feb4fa45e59374956dbd1d92", "fusion_lon": 0.0, "bike_id": "06986928feb4fa45e59374956dbd1d92", "is_disabled": 0, "is_reserved": 0}, {"rental_uris": {"ios": "https://dc.lft.to/lastmile_qr_scan", "android": "https://dc.lft.to/lastmile_qr_scan"}, "lon": -77.02781166666666, "type": "electric_scooter", "fusion_lat": 0.0, "lat": 38.953809, "name": "0dfc34a65464bb217bde546e17b16360", "fusion_lon": 0.0, "bike_id": "0dfc34a65464bb217bde546e17b16360", "is_disabled": 0, "is_reserved": 0}, {"rental_uris": {"ios": "https://dc.lft.to/lastmile_qr_scan", "android": "https://dc.lft.to/lastmile_qr_scan"}, "lon": -77.07719516666667, "type": "electric_scooter", "fusion_lat": 0.0, "lat": 38.94706933333333, "name": "a108495ed49ab1609c4793f9fe3abfd1", "fusion_lon": 0.0, "bike_id": "a108495ed49ab1609c4793f9fe3abfd1", "is_disabled": 0, "is_reserved": 0}, {"rental_uris": {"ios": "https://dc.lft.to/lastmile_qr_scan", "android": "https://dc.lft.to/lastmile_qr_scan"}, "lon": -77.02544683333333, "type": "electric_scooter", "fusion_lat": 0.0, "lat": 38.924042, "name": "0b1bc78cd7a33c8fa8cc33be823a95ac", "fusion_lon": 0.0, "bike_id": "0b1bc78cd7a33c8fa8cc33be823a95ac", "is_disabled": 0, "is_reserved": 0}, {"rental_uris": {"ios": "https://dc.lft.to/lastmile_qr_scan", "android": "https://dc.lft.to/lastmile_qr_scan"}, "lon": -77.03180883333333, "type": "electric_scooter", "fusion_lat": 0.0, "lat": 38.914628, "name": "7eaec081fb560dcc545775552fee7d9b", "fusion_lon": 0.0, "bike_id": "7eaec081fb560dcc545775552fee7d9b", "is_disabled": 0, "is_reserved": 0}, {"rental_uris": {"ios": "https://dc.lft.to/lastmile_qr_scan", "android": "https://dc.lft.to/lastmile_qr_scan"}, "lon": -77.02008116666667, "type": "electric_scooter", "fusion_lat": 0.0, "lat": 38.91307883333333, "name": "ad56a6acd82863c393f2ec0753da0173", "fusion_lon": 0.0, "bike_id": "ad56a6acd82863c393f2ec0753da0173", "is_disabled": 0, "is_reserved": 0}, {"rental_uris": {"ios": "https://dc.lft.to/lastmile_qr_scan", "android": "https://dc.lft.to/lastmile_qr_scan"}, "lon": -76.9463215, "type": "electric_scooter", "fusion_lat": 0.0, "lat": 38.89829683333333, "name": "3cd0bde23fa578a5ff7b73a6596f06db", "fusion_lon": 0.0, "bike_id": "3cd0bde23fa578a5ff7b73a6596f06db", "is_disabled": 0, "is_reserved": 0}, {"rental_uris": {"ios": "https://dc.lft.to/lastmile_qr_scan", "android": "https://dc.lft.to/lastmile_qr_scan"}, "lon": -77.03626583333333, "type": "electric_scooter", "fusion_lat": 0.0, "lat": 38.9032505, "name": "dce5bfaac8415ad89cec7b5fa6a4fe91", "fusion_lon": 0.0, "bike_id": "dce5bfaac8415ad89cec7b5fa6a4fe91", "is_disabled": 0, "is_reserved": 0}, {"rental_uris": {"ios": "https://dc.lft.to/lastmile_qr_scan", "android": "https://dc.lft.to/lastmile_qr_scan"}, "lon": -77.0360735, "type": "electric_scooter", "fusion_lat": 0.0, "lat": 38.9348295, "name": "1ccf504287a7845f3454b2c1b56f38d9", "fusion_lon": 0.0, "bike_id": "1ccf504287a7845f3454b2c1b56f38d9", "is_disabled": 0, "is_reserved": 0}, {"rental_uris": {"ios": "https://dc.lft.to/lastmile_qr_scan", "android": "https://dc.lft.to/lastmile_qr_scan"}, "lon": -77.00974783333334, "type": "electric_scooter", "fusion_lat": 0.0, "lat": 38.895760333333335, "name": "6a5149fc9ce45595df934ca4f25e2a45", "fusion_lon": 0.0, "bike_id": "6a5149fc9ce45595df934ca4f25e2a45", "is_disabled": 0, "is_reserved": 0}, {"rental_uris": {"ios": "https://dc.lft.to/lastmile_qr_scan", "android": "https://dc.lft.to/lastmile_qr_scan"}, "lon": -77.01384666666667, "type": "electric_scooter", "fusion_lat": 0.0, "lat": 38.928543166666664, "name": "9cdc5da9e5ede61a6cdcef8778f6e3d1", "fusion_lon": 0.0, "bike_id": "9cdc5da9e5ede61a6cdcef8778f6e3d1", "is_disabled": 0, "is_reserved": 0}, {"rental_uris": {"ios": "https://dc.lft.to/lastmile_qr_scan", "android": "https://dc.lft.to/lastmile_qr_scan"}, "lon": -77.02842633333333, "type": "electric_scooter", "fusion_lat": 0.0, "lat": 38.93414033333333, "name": "97315a26a0c39a19a5b220b9962160b7", "fusion_lon": 0.0, "bike_id": "97315a26a0c39a19a5b220b9962160b7", "is_disabled": 0, "is_reserved": 0}, {"rental_uris": {"ios": "https://dc.lft.to/lastmile_qr_scan", "android": "https://dc.lft.to/lastmile_qr_scan"}, "lon": -76.9895055, "type": "electric_scooter", "fusion_lat": 0.0, "lat": 38.90136916666667, "name": "556a669c926cfb95f9fa015128c83a4f", "fusion_lon": 0.0, "bike_id": "556a669c926cfb95f9fa015128c83a4f", "is_disabled": 0, "is_reserved": 0}, {"rental_uris": {"ios": "https://dc.lft.to/lastmile_qr_scan", "android": "https://dc.lft.to/lastmile_qr_scan"}, "lon": -76.99925633333334, "type": "electric_scooter", "fusion_lat": 0.0, "lat": 38.909061, "name": "3dd540e47d4971b1de8049ececcd5bb9", "fusion_lon": 0.0, "bike_id": "3dd540e47d4971b1de8049ececcd5bb9", "is_disabled": 0, "is_reserved": 0}, {"rental_uris": {"ios": "https://dc.lft.to/lastmile_qr_scan", "android": "https://dc.lft.to/lastmile_qr_scan"}, "lon": -77.027046, "type": "electric_scooter", "fusion_lat": 0.0, "lat": 38.949936, "name": "9aada416255eb39fa64533ae735883b4", "fusion_lon": 0.0, "bike_id": "9aada416255eb39fa64533ae735883b4", "is_disabled": 0, "is_reserved": 0}, {"rental_uris": {"ios": "https://dc.lft.to/lastmile_qr_scan", "android": "https://dc.lft.to/lastmile_qr_scan"}, "lon": -77.00613666666666, "type": "electric_scooter", "fusion_lat": 0.0, "lat": 38.9025895, "name": "75f199814b416a96d6fc3097a2af58ec", "fusion_lon": 0.0, "bike_id": "75f199814b416a96d6fc3097a2af58ec", "is_disabled": 0, "is_reserved": 0}, {"rental_uris": {"ios": "https://dc.lft.to/lastmile_qr_scan", "android": "https://dc.lft.to/lastmile_qr_scan"}, "lon": -76.98966666666666, "type": "electric_scooter", "fusion_lat": 0.0, "lat": 38.9024275, "name": "e7baa283e59e928ae5686859243262b6", "fusion_lon": 0.0, "bike_id": "e7baa283e59e928ae5686859243262b6", "is_disabled": 0, "is_reserved": 0}, {"rental_uris": {"ios": "https://dc.lft.to/lastmile_qr_scan", "android": "https://dc.lft.to/lastmile_qr_scan"}, "lon": -77.03145783333333, "type": "electric_scooter", "fusion_lat": 0.0, "lat": 38.91685566666666, "name": "30def724b79e9680e7f0dbb72f7d53bf", "fusion_lon": 0.0, "bike_id": "30def724b79e9680e7f0dbb72f7d53bf", "is_disabled": 0, "is_reserved": 0}, {"rental_uris": {"ios": "https://dc.lft.to/lastmile_qr_scan", "android": "https://dc.lft.to/lastmile_qr_scan"}, "lon": -77.11419433333333, "type": "electric_bike", "fusion_lat": 0.0, "lat": 38.84281383333333, "name": "4d36be15939ca14c718735be40204b04", "fusion_lon": 0.0, "bike_id": "4d36be15939ca14c718735be40204b04", "is_disabled": 0, "is_reserved": 0}, {"rental_uris": {"ios": "https://dc.lft.to/lastmile_qr_scan", "android": "https://dc.lft.to/lastmile_qr_scan"}, "lon": -77.023507, "type": "electric_scooter", "fusion_lat": 0.0, "lat": 38.93376333333333, "name": "73df36224a7ebb24307f9b4abdb95f2f", "fusion_lon": 0.0, "bike_id": "73df36224a7ebb24307f9b4abdb95f2f", "is_disabled": 0, "is_reserved": 0}, {"rental_uris": {"ios": "https://dc.lft.to/lastmile_qr_scan", "android": "https://dc.lft.to/lastmile_qr_scan"}, "lon": -77.00777716666667, "type": "electric_scooter", "fusion_lat": 0.0, "lat": 38.87090516666667, "name": "11e4ad4ab0d7463be56f941f6c6bc7ef", "fusion_lon": 0.0, "bike_id": "11e4ad4ab0d7463be56f941f6c6bc7ef", "is_disabled": 0, "is_reserved": 0}, {"rental_uris": {"ios": "https://dc.lft.to/lastmile_qr_scan", "android": "https://dc.lft.to/lastmile_qr_scan"}, "lon": -76.97263716666667, "type": "electric_bike", "fusion_lat": 0.0, "lat": 38.919121, "name": "ee4623315dbb60c8505e43f8d949cfdd", "fusion_lon": 0.0, "bike_id": "ee4623315dbb60c8505e43f8d949cfdd", "is_disabled": 0, "is_reserved": 0}, {"rental_uris": {"ios": "https://dc.lft.to/lastmile_qr_scan", "android": "https://dc.lft.to/lastmile_qr_scan"}, "lon": -77.05094166666667, "type": "electric_bike", "fusion_lat": 0.0, "lat": 38.813295, "name": "e9c76e2fc068319eb3c18780a6e8eef2", "fusion_lon": 0.0, "bike_id": "e9c76e2fc068319eb3c18780a6e8eef2", "is_disabled": 0, "is_reserved": 0}, {"rental_uris": {"ios": "https://dc.lft.to/lastmile_qr_scan", "android": "https://dc.lft.to/lastmile_qr_scan"}, "lon": -77.02344366666667, "type": "electric_scooter", "fusion_lat": 0.0, "lat": 38.9313285, "name": "fbd3069fa56cc275293e7adf32e8a792", "fusion_lon": 0.0, "bike_id": "fbd3069fa56cc275293e7adf32e8a792", "is_disabled": 0, "is_reserved": 0}, {"rental_uris": {"ios": "https://dc.lft.to/lastmile_qr_scan", "android": "https://dc.lft.to/lastmile_qr_scan"}, "lon": -77.07905866666667, "type": "electric_bike", "fusion_lat": 0.0, "lat": 38.83927633333333, "name": "9dc4aa0cd3bc20c90749239af6af5234", "fusion_lon": 0.0, "bike_id": "9dc4aa0cd3bc20c90749239af6af5234", "is_disabled": 0, "is_reserved": 0}, {"rental_uris": {"ios": "https://dc.lft.to/lastmile_qr_scan", "android": "https://dc.lft.to/lastmile_qr_scan"}, "lon": -77.01158516666666, "type": "electric_scooter", "fusion_lat": 0.0, "lat": 38.913278166666665, "name": "82bf195cdd0ae7ce4c06fbee1a8b9ae0", "fusion_lon": 0.0, "bike_id": "82bf195cdd0ae7ce4c06fbee1a8b9ae0", "is_disabled": 0, "is_reserved": 0}, {"rental_uris": {"ios": "https://dc.lft.to/lastmile_qr_scan", "android": "https://dc.lft.to/lastmile_qr_scan"}, "lon": -77.0297455, "type": "electric_scooter", "fusion_lat": 0.0, "lat": 38.8956425, "name": "a171e923eb1f03836fd12538ea234162", "fusion_lon": 0.0, "bike_id": "a171e923eb1f03836fd12538ea234162", "is_disabled": 0, "is_reserved": 0}, {"rental_uris": {"ios": "https://dc.lft.to/lastmile_qr_scan", "android": "https://dc.lft.to/lastmile_qr_scan"}, "lon": -77.0152955, "type": "electric_scooter", "fusion_lat": 0.0, "lat": 38.88735483333333, "name": "566fe2224815653253a0db31c5d31a21", "fusion_lon": 0.0, "bike_id": "566fe2224815653253a0db31c5d31a21", "is_disabled": 0, "is_reserved": 0}, {"rental_uris": {"ios": "https://dc.lft.to/lastmile_qr_scan", "android": "https://dc.lft.to/lastmile_qr_scan"}, "lon": -77.02717633333333, "type": "electric_scooter", "fusion_lat": 0.0, "lat": 38.8812195, "name": "7646a5270f0f3336fe0000c57a871128", "fusion_lon": 0.0, "bike_id": "7646a5270f0f3336fe0000c57a871128", "is_disabled": 0, "is_reserved": 0}, {"rental_uris": {"ios": "https://dc.lft.to/lastmile_qr_scan", "android": "https://dc.lft.to/lastmile_qr_scan"}, "lon": -77.0116815, "type": "electric_scooter", "fusion_lat": 0.0, "lat": 38.897026, "name": "ae95ad05a79dec84f04980c68ecb5196", "fusion_lon": 0.0, "bike_id": "ae95ad05a79dec84f04980c68ecb5196", "is_disabled": 0, "is_reserved": 0}, {"rental_uris": {"ios": "https://dc.lft.to/lastmile_qr_scan", "android": "https://dc.lft.to/lastmile_qr_scan"}, "lon": -77.03654, "type": "electric_scooter", "fusion_lat": 0.0, "lat": 38.92910216666667, "name": "b2e55491730c7a45c470bf8eae3cb4a6", "fusion_lon": 0.0, "bike_id": "b2e55491730c7a45c470bf8eae3cb4a6", "is_disabled": 0, "is_reserved": 0}, {"rental_uris": {"ios": "https://dc.lft.to/lastmile_qr_scan", "android": "https://dc.lft.to/lastmile_qr_scan"}, "lon": -77.0448165, "type": "electric_scooter", "fusion_lat": 0.0, "lat": 38.906561833333335, "name": "f1b58404c11331d3ad5b57b825bdaf25", "fusion_lon": 0.0, "bike_id": "f1b58404c11331d3ad5b57b825bdaf25", "is_disabled": 0, "is_reserved": 0}, {"rental_uris": {"ios": "https://dc.lft.to/lastmile_qr_scan", "android": "https://dc.lft.to/lastmile_qr_scan"}, "lon": -77.01256116666667, "type": "electric_scooter", "fusion_lat": 0.0, "lat": 38.8996895, "name": "71e16a8df85569548d41a38435b9efed", "fusion_lon": 0.0, "bike_id": "71e16a8df85569548d41a38435b9efed", "is_disabled": 0, "is_reserved": 0}, {"rental_uris": {"ios": "https://dc.lft.to/lastmile_qr_scan", "android": "https://dc.lft.to/lastmile_qr_scan"}, "lon": -77.014403, "type": "electric_scooter", "fusion_lat": 0.0, "lat": 38.8776785, "name": "d98030d12b47ac4b1a387895c0051da0", "fusion_lon": 0.0, "bike_id": "d98030d12b47ac4b1a387895c0051da0", "is_disabled": 0, "is_reserved": 0}, {"rental_uris": {"ios": "https://dc.lft.to/lastmile_qr_scan", "android": "https://dc.lft.to/lastmile_qr_scan"}, "lon": -77.05260966666667, "type": "electric_scooter", "fusion_lat": 0.0, "lat": 38.92371333333333, "name": "b0b60d2df76e7196f8cce916f73405ef", "fusion_lon": 0.0, "bike_id": "b0b60d2df76e7196f8cce916f73405ef", "is_disabled": 0, "is_reserved": 0}, {"rental_uris": {"ios": "https://dc.lft.to/lastmile_qr_scan", "android": "https://dc.lft.to/lastmile_qr_scan"}, "lon": -77.13596483333333, "type": "electric_bike", "fusion_lat": 0.0, "lat": 39.053461, "name": "fc3b48662c199d338ac95d5d83d887fb", "fusion_lon": 0.0, "bike_id": "fc3b48662c199d338ac95d5d83d887fb", "is_disabled": 0, "is_reserved": 0}, {"rental_uris": {"ios": "https://dc.lft.to/lastmile_qr_scan", "android": "https://dc.lft.to/lastmile_qr_scan"}, "lon": -77.04309283333333, "type": "electric_scooter", "fusion_lat": 0.0, "lat": 38.92255816666667, "name": "81e46c383abaec0b59fd7179bbe42776", "fusion_lon": 0.0, "bike_id": "81e46c383abaec0b59fd7179bbe42776", "is_disabled": 0, "is_reserved": 0}, {"rental_uris": {"ios": "https://dc.lft.to/lastmile_qr_scan", "android": "https://dc.lft.to/lastmile_qr_scan"}, "lon": -77.03629216666667, "type": "electric_scooter", "fusion_lat": 0.0, "lat": 38.913027666666665, "name": "7d036f440ee17ea062505a55ca575e4f", "fusion_lon": 0.0, "bike_id": "7d036f440ee17ea062505a55ca575e4f", "is_disabled": 0, "is_reserved": 0}, {"rental_uris": {"ios": "https://dc.lft.to/lastmile_qr_scan", "android": "https://dc.lft.to/lastmile_qr_scan"}, "lon": -76.9489825, "type": "electric_scooter", "fusion_lat": 0.0, "lat": 38.894610166666666, "name": "55a1eb9ea6a036321335e95d55b1ae3d", "fusion_lon": 0.0, "bike_id": "55a1eb9ea6a036321335e95d55b1ae3d", "is_disabled": 0, "is_reserved": 0}, {"rental_uris": {"ios": "https://dc.lft.to/lastmile_qr_scan", "android": "https://dc.lft.to/lastmile_qr_scan"}, "lon": -76.98609533333334, "type": "electric_scooter", "fusion_lat": 0.0, "lat": 38.86813933333333, "name": "91c5b9bac3aab95f3a9c8a2ca6103be1", "fusion_lon": 0.0, "bike_id": "91c5b9bac3aab95f3a9c8a2ca6103be1", "is_disabled": 0, "is_reserved": 0}, {"rental_uris": {"ios": "https://dc.lft.to/lastmile_qr_scan", "android": "https://dc.lft.to/lastmile_qr_scan"}, "lon": -77.02043483333334, "type": "electric_scooter", "fusion_lat": 0.0, "lat": 38.91553183333333, "name": "73cf32354aa1b2125205274e74d98421", "fusion_lon": 0.0, "bike_id": "73cf32354aa1b2125205274e74d98421", "is_disabled": 0, "is_reserved": 0}, {"rental_uris": {"ios": "https://dc.lft.to/lastmile_qr_scan", "android": "https://dc.lft.to/lastmile_qr_scan"}, "lon": -77.05221916666666, "type": "electric_scooter", "fusion_lat": 0.0, "lat": 38.92485083333333, "name": "40730a7b8260695680898437e229bdaf", "fusion_lon": 0.0, "bike_id": "40730a7b8260695680898437e229bdaf", "is_disabled": 0, "is_reserved": 0}, {"rental_uris": {"ios": "https://dc.lft.to/lastmile_qr_scan", "android": "https://dc.lft.to/lastmile_qr_scan"}, "lon": -77.00496166666667, "type": "electric_scooter", "fusion_lat": 0.0, "lat": 38.8789435, "name": "8ae519d58e9c4fa41414ddea627c6796", "fusion_lon": 0.0, "bike_id": "8ae519d58e9c4fa41414ddea627c6796", "is_disabled": 0, "is_reserved": 0}, {"rental_uris": {"ios": "https://dc.lft.to/lastmile_qr_scan", "android": "https://dc.lft.to/lastmile_qr_scan"}, "lon": -76.9864335, "type": "electric_scooter", "fusion_lat": 0.0, "lat": 38.900007, "name": "904158bf7cd1f7488522029114ba33af", "fusion_lon": 0.0, "bike_id": "904158bf7cd1f7488522029114ba33af", "is_disabled": 0, "is_reserved": 0}, {"rental_uris": {"ios": "https://dc.lft.to/lastmile_qr_scan", "android": "https://dc.lft.to/lastmile_qr_scan"}, "lon": -77.04122366666667, "type": "electric_scooter", "fusion_lat": 0.0, "lat": 38.93401133333333, "name": "a3e0b87c683e07adc31bfe965da3c137", "fusion_lon": 0.0, "bike_id": "a3e0b87c683e07adc31bfe965da3c137", "is_disabled": 0, "is_reserved": 0}, {"rental_uris": {"ios": "https://dc.lft.to/lastmile_qr_scan", "android": "https://dc.lft.to/lastmile_qr_scan"}, "lon": -77.00342433333333, "type": "electric_scooter", "fusion_lat": 0.0, "lat": 38.892530666666666, "name": "d3b6671214039e254be90dc37f8a2669", "fusion_lon": 0.0, "bike_id": "d3b6671214039e254be90dc37f8a2669", "is_disabled": 0, "is_reserved": 0}, {"rental_uris": {"ios": "https://dc.lft.to/lastmile_qr_scan", "android": "https://dc.lft.to/lastmile_qr_scan"}, "lon": -76.99005716666667, "type": "electric_scooter", "fusion_lat": 0.0, "lat": 38.865023, "name": "f14965d1aa2029400ff642360d1848fd", "fusion_lon": 0.0, "bike_id": "f14965d1aa2029400ff642360d1848fd", "is_disabled": 0, "is_reserved": 0}, {"rental_uris": {"ios": "https://dc.lft.to/lastmile_qr_scan", "android": "https://dc.lft.to/lastmile_qr_scan"}, "lon": -77.10027816666667, "type": "electric_bike", "fusion_lat": 0.0, "lat": 38.990621, "name": "5c79de6fb664a8e7e9bd60d3dd4fd8f5", "fusion_lon": 0.0, "bike_id": "5c79de6fb664a8e7e9bd60d3dd4fd8f5", "is_disabled": 0, "is_reserved": 0}, {"rental_uris": {"ios": "https://dc.lft.to/lastmile_qr_scan", "android": "https://dc.lft.to/lastmile_qr_scan"}, "lon": -77.03208366666667, "type": "electric_scooter", "fusion_lat": 0.0, "lat": 38.92007533333334, "name": "f9b1d1b18f1491c1936364690e2e0077", "fusion_lon": 0.0, "bike_id": "f9b1d1b18f1491c1936364690e2e0077", "is_disabled": 0, "is_reserved": 0}, {"rental_uris": {"ios": "https://dc.lft.to/lastmile_qr_scan", "android": "https://dc.lft.to/lastmile_qr_scan"}, "lon": -77.034345, "type": "electric_scooter", "fusion_lat": 0.0, "lat": 38.93969166666667, "name": "08c62cc2f8eff6efd34fcefc968b70d2", "fusion_lon": 0.0, "bike_id": "08c62cc2f8eff6efd34fcefc968b70d2", "is_disabled": 0, "is_reserved": 0}, {"rental_uris": {"ios": "https://dc.lft.to/lastmile_qr_scan", "android": "https://dc.lft.to/lastmile_qr_scan"}, "lon": -77.04898966666667, "type": "electric_bike", "fusion_lat": 0.0, "lat": 38.874902666666664, "name": "679609b7203ba2160c298136b0fa8054", "fusion_lon": 0.0, "bike_id": "679609b7203ba2160c298136b0fa8054", "is_disabled": 0, "is_reserved": 0}, {"rental_uris": {"ios": "https://dc.lft.to/lastmile_qr_scan", "android": "https://dc.lft.to/lastmile_qr_scan"}, "lon": -77.03202316666666, "type": "electric_scooter", "fusion_lat": 0.0, "lat": 38.90732833333333, "name": "da400939044e39a67b25bffb2581fc98", "fusion_lon": 0.0, "bike_id": "da400939044e39a67b25bffb2581fc98", "is_disabled": 0, "is_reserved": 0}, {"rental_uris": {"ios": "https://dc.lft.to/lastmile_qr_scan", "android": "https://dc.lft.to/lastmile_qr_scan"}, "lon": -76.98569833333333, "type": "electric_scooter", "fusion_lat": 0.0, "lat": 38.89879716666667, "name": "6ca639d30e2c992fbe71b6246bb20cd4", "fusion_lon": 0.0, "bike_id": "6ca639d30e2c992fbe71b6246bb20cd4", "is_disabled": 0, "is_reserved": 0}, {"rental_uris": {"ios": "https://dc.lft.to/lastmile_qr_scan", "android": "https://dc.lft.to/lastmile_qr_scan"}, "lon": -76.99602866666666, "type": "electric_scooter", "fusion_lat": 0.0, "lat": 38.90029333333333, "name": "222f7b63bcdb3cfca455c1ac7b614e70", "fusion_lon": 0.0, "bike_id": "222f7b63bcdb3cfca455c1ac7b614e70", "is_disabled": 0, "is_reserved": 0}, {"rental_uris": {"ios": "https://dc.lft.to/lastmile_qr_scan", "android": "https://dc.lft.to/lastmile_qr_scan"}, "lon": -77.03998, "type": "electric_scooter", "fusion_lat": 0.0, "lat": 38.913307833333334, "name": "048e48b2330a8468f7ce81e2274e0ced", "fusion_lon": 0.0, "bike_id": "048e48b2330a8468f7ce81e2274e0ced", "is_disabled": 0, "is_reserved": 0}, {"rental_uris": {"ios": "https://dc.lft.to/lastmile_qr_scan", "android": "https://dc.lft.to/lastmile_qr_scan"}, "lon": -77.0181355, "type": "electric_scooter", "fusion_lat": 0.0, "lat": 38.91201366666667, "name": "d35b8ce90ce6afd3d4e69e083af098c1", "fusion_lon": 0.0, "bike_id": "d35b8ce90ce6afd3d4e69e083af098c1", "is_disabled": 0, "is_reserved": 0}, {"rental_uris": {"ios": "https://dc.lft.to/lastmile_qr_scan", "android": "https://dc.lft.to/lastmile_qr_scan"}, "lon": -77.04684033333334, "type": "electric_scooter", "fusion_lat": 0.0, "lat": 38.89221116666667, "name": "886bb8e48725a7c1b79190187bb3564c", "fusion_lon": 0.0, "bike_id": "886bb8e48725a7c1b79190187bb3564c", "is_disabled": 0, "is_reserved": 0}, {"rental_uris": {"ios": "https://dc.lft.to/lastmile_qr_scan", "android": "https://dc.lft.to/lastmile_qr_scan"}, "lon": -76.94652366666666, "type": "electric_scooter", "fusion_lat": 0.0, "lat": 38.8982675, "name": "efa96890a0727fd9dd0150d18c6d6114", "fusion_lon": 0.0, "bike_id": "efa96890a0727fd9dd0150d18c6d6114", "is_disabled": 0, "is_reserved": 0}, {"rental_uris": {"ios": "https://dc.lft.to/lastmile_qr_scan", "android": "https://dc.lft.to/lastmile_qr_scan"}, "lon": -77.06278216666666, "type": "electric_scooter", "fusion_lat": 0.0, "lat": 38.90676933333334, "name": "57700bbf583845841ec524d43ce6481c", "fusion_lon": 0.0, "bike_id": "57700bbf583845841ec524d43ce6481c", "is_disabled": 0, "is_reserved": 0}, {"rental_uris": {"ios": "https://dc.lft.to/lastmile_qr_scan", "android": "https://dc.lft.to/lastmile_qr_scan"}, "lon": -77.03999683333333, "type": "electric_scooter", "fusion_lat": 0.0, "lat": 38.91414283333334, "name": "c36113d987a7272ba841bf674da7e7b4", "fusion_lon": 0.0, "bike_id": "c36113d987a7272ba841bf674da7e7b4", "is_disabled": 0, "is_reserved": 0}, {"rental_uris": {"ios": "https://dc.lft.to/lastmile_qr_scan", "android": "https://dc.lft.to/lastmile_qr_scan"}, "lon": -77.016147, "type": "electric_scooter", "fusion_lat": 0.0, "lat": 38.876871, "name": "352615d87bba74b4c32fd11f3ace1899", "fusion_lon": 0.0, "bike_id": "352615d87bba74b4c32fd11f3ace1899", "is_disabled": 0, "is_reserved": 0}, {"rental_uris": {"ios": "https://dc.lft.to/lastmile_qr_scan", "android": "https://dc.lft.to/lastmile_qr_scan"}, "lon": -77.02418016666667, "type": "electric_scooter", "fusion_lat": 0.0, "lat": 38.91823616666667, "name": "a746c372edcd16dc3be883cb9d002fcb", "fusion_lon": 0.0, "bike_id": "a746c372edcd16dc3be883cb9d002fcb", "is_disabled": 0, "is_reserved": 0}, {"rental_uris": {"ios": "https://dc.lft.to/lastmile_qr_scan", "android": "https://dc.lft.to/lastmile_qr_scan"}, "lon": -77.00115166666667, "type": "electric_scooter", "fusion_lat": 0.0, "lat": 38.89435666666667, "name": "3f7f2afd95a77618dec95e0866c756c7", "fusion_lon": 0.0, "bike_id": "3f7f2afd95a77618dec95e0866c756c7", "is_disabled": 0, "is_reserved": 0}, {"rental_uris": {"ios": "https://dc.lft.to/lastmile_qr_scan", "android": "https://dc.lft.to/lastmile_qr_scan"}, "lon": -77.032532, "type": "electric_scooter", "fusion_lat": 0.0, "lat": 38.93523866666666, "name": "1d4e26f83df6ab6d9b255e3d10a770f8", "fusion_lon": 0.0, "bike_id": "1d4e26f83df6ab6d9b255e3d10a770f8", "is_disabled": 0, "is_reserved": 0}, {"rental_uris": {"ios": "https://dc.lft.to/lastmile_qr_scan", "android": "https://dc.lft.to/lastmile_qr_scan"}, "lon": -77.03127916666666, "type": "electric_scooter", "fusion_lat": 0.0, "lat": 38.92374516666667, "name": "152411492c3abfd743eb7ebb1c5764a6", "fusion_lon": 0.0, "bike_id": "152411492c3abfd743eb7ebb1c5764a6", "is_disabled": 0, "is_reserved": 0}, {"rental_uris": {"ios": "https://dc.lft.to/lastmile_qr_scan", "android": "https://dc.lft.to/lastmile_qr_scan"}, "lon": -77.05002466666667, "type": "electric_scooter", "fusion_lat": 0.0, "lat": 38.8922865, "name": "dfc57e4b02aaa502673ef167b02db4e0", "fusion_lon": 0.0, "bike_id": "dfc57e4b02aaa502673ef167b02db4e0", "is_disabled": 0, "is_reserved": 0}, {"rental_uris": {"ios": "https://dc.lft.to/lastmile_qr_scan", "android": "https://dc.lft.to/lastmile_qr_scan"}, "lon": -76.93828533333334, "type": "electric_scooter", "fusion_lat": 0.0, "lat": 38.89760783333333, "name": "a2e4b6a85dc36ce7dc2341ce380beda1", "fusion_lon": 0.0, "bike_id": "a2e4b6a85dc36ce7dc2341ce380beda1", "is_disabled": 0, "is_reserved": 0}, {"rental_uris": {"ios": "https://dc.lft.to/lastmile_qr_scan", "android": "https://dc.lft.to/lastmile_qr_scan"}, "lon": -77.03430216666666, "type": "electric_scooter", "fusion_lat": 0.0, "lat": 38.919136333333334, "name": "706816ff8f229654e6daa17b79b814b9", "fusion_lon": 0.0, "bike_id": "706816ff8f229654e6daa17b79b814b9", "is_disabled": 0, "is_reserved": 0}, {"rental_uris": {"ios": "https://dc.lft.to/lastmile_qr_scan", "android": "https://dc.lft.to/lastmile_qr_scan"}, "lon": -77.04426366666667, "type": "electric_scooter", "fusion_lat": 0.0, "lat": 38.921209833333336, "name": "23ca867b874f74b184cecbc43e019248", "fusion_lon": 0.0, "bike_id": "23ca867b874f74b184cecbc43e019248", "is_disabled": 0, "is_reserved": 0}, {"rental_uris": {"ios": "https://dc.lft.to/lastmile_qr_scan", "android": "https://dc.lft.to/lastmile_qr_scan"}, "lon": -77.0355735, "type": "electric_scooter", "fusion_lat": 0.0, "lat": 38.924041833333334, "name": "c0b2facef118a5fd93a07d8a6a88d29d", "fusion_lon": 0.0, "bike_id": "c0b2facef118a5fd93a07d8a6a88d29d", "is_disabled": 0, "is_reserved": 0}, {"rental_uris": {"ios": "https://dc.lft.to/lastmile_qr_scan", "android": "https://dc.lft.to/lastmile_qr_scan"}, "lon": -77.0272015, "type": "electric_scooter", "fusion_lat": 0.0, "lat": 38.892211333333336, "name": "feff3151eeb22cb51792ee71472b953d", "fusion_lon": 0.0, "bike_id": "feff3151eeb22cb51792ee71472b953d", "is_disabled": 0, "is_reserved": 0}, {"rental_uris": {"ios": "https://dc.lft.to/lastmile_qr_scan", "android": "https://dc.lft.to/lastmile_qr_scan"}, "lon": -76.9948515, "type": "electric_scooter", "fusion_lat": 0.0, "lat": 38.931977, "name": "de5489c0e94ad016b3be0c7eccb5681c", "fusion_lon": 0.0, "bike_id": "de5489c0e94ad016b3be0c7eccb5681c", "is_disabled": 0, "is_reserved": 0}, {"rental_uris": {"ios": "https://dc.lft.to/lastmile_qr_scan", "android": "https://dc.lft.to/lastmile_qr_scan"}, "lon": -77.022079, "type": "electric_scooter", "fusion_lat": 0.0, "lat": 38.905676666666665, "name": "1b2acce8490525d736564762706316cf", "fusion_lon": 0.0, "bike_id": "1b2acce8490525d736564762706316cf", "is_disabled": 0, "is_reserved": 0}, {"rental_uris": {"ios": "https://dc.lft.to/lastmile_qr_scan", "android": "https://dc.lft.to/lastmile_qr_scan"}, "lon": -77.03303866666667, "type": "electric_scooter", "fusion_lat": 0.0, "lat": 38.908990833333334, "name": "1189ba5b0f8094b34b2e360329dd2bf8", "fusion_lon": 0.0, "bike_id": "1189ba5b0f8094b34b2e360329dd2bf8", "is_disabled": 0, "is_reserved": 0}, {"rental_uris": {"ios": "https://dc.lft.to/lastmile_qr_scan", "android": "https://dc.lft.to/lastmile_qr_scan"}, "lon": -77.04539466666667, "type": "electric_scooter", "fusion_lat": 0.0, "lat": 38.89479333333333, "name": "8a8fa5b2ed0a363eb442fe18a4e641f0", "fusion_lon": 0.0, "bike_id": "8a8fa5b2ed0a363eb442fe18a4e641f0", "is_disabled": 0, "is_reserved": 0}, {"rental_uris": {"ios": "https://dc.lft.to/lastmile_qr_scan", "android": "https://dc.lft.to/lastmile_qr_scan"}, "lon": -77.02700316666666, "type": "electric_scooter", "fusion_lat": 0.0, "lat": 38.90945083333333, "name": "1aac6657e1869296aa97e267e29256d7", "fusion_lon": 0.0, "bike_id": "1aac6657e1869296aa97e267e29256d7", "is_disabled": 0, "is_reserved": 0}, {"rental_uris": {"ios": "https://dc.lft.to/lastmile_qr_scan", "android": "https://dc.lft.to/lastmile_qr_scan"}, "lon": -76.98365783333334, "type": "electric_scooter", "fusion_lat": 0.0, "lat": 38.91508183333333, "name": "15cc5e222cb0392f822a71684ab300e4", "fusion_lon": 0.0, "bike_id": "15cc5e222cb0392f822a71684ab300e4", "is_disabled": 0, "is_reserved": 0}, {"rental_uris": {"ios": "https://dc.lft.to/lastmile_qr_scan", "android": "https://dc.lft.to/lastmile_qr_scan"}, "lon": -77.05517366666666, "type": "electric_scooter", "fusion_lat": 0.0, "lat": 38.89961683333333, "name": "8bd9b275c6c430607583212264f6993b", "fusion_lon": 0.0, "bike_id": "8bd9b275c6c430607583212264f6993b", "is_disabled": 0, "is_reserved": 0}, {"rental_uris": {"ios": "https://dc.lft.to/lastmile_qr_scan", "android": "https://dc.lft.to/lastmile_qr_scan"}, "lon": -77.026972, "type": "electric_scooter", "fusion_lat": 0.0, "lat": 38.90668316666667, "name": "6a1c8976bb36519e2aa20e0ff964c88c", "fusion_lon": 0.0, "bike_id": "6a1c8976bb36519e2aa20e0ff964c88c", "is_disabled": 0, "is_reserved": 0}, {"rental_uris": {"ios": "https://dc.lft.to/lastmile_qr_scan", "android": "https://dc.lft.to/lastmile_qr_scan"}, "lon": -77.03187733333333, "type": "electric_scooter", "fusion_lat": 0.0, "lat": 38.89809783333333, "name": "05340b2b1ebf24744601d25c312bbad4", "fusion_lon": 0.0, "bike_id": "05340b2b1ebf24744601d25c312bbad4", "is_disabled": 0, "is_reserved": 0}, {"rental_uris": {"ios": "https://dc.lft.to/lastmile_qr_scan", "android": "https://dc.lft.to/lastmile_qr_scan"}, "lon": -77.07308166666667, "type": "electric_scooter", "fusion_lat": 0.0, "lat": 38.936128, "name": "06106ee421c072715e232ff3317d1b2d", "fusion_lon": 0.0, "bike_id": "06106ee421c072715e232ff3317d1b2d", "is_disabled": 0, "is_reserved": 0}, {"rental_uris": {"ios": "https://dc.lft.to/lastmile_qr_scan", "android": "https://dc.lft.to/lastmile_qr_scan"}, "lon": -77.0265635, "type": "electric_scooter", "fusion_lat": 0.0, "lat": 38.881052833333335, "name": "8282005d2e9037a244271ced36c000a7", "fusion_lon": 0.0, "bike_id": "8282005d2e9037a244271ced36c000a7", "is_disabled": 0, "is_reserved": 0}, {"rental_uris": {"ios": "https://dc.lft.to/lastmile_qr_scan", "android": "https://dc.lft.to/lastmile_qr_scan"}, "lon": -77.0284695, "type": "electric_scooter", "fusion_lat": 0.0, "lat": 38.93450566666667, "name": "1e4fb3aaff4169dd3ae65973f4d0dcc3", "fusion_lon": 0.0, "bike_id": "1e4fb3aaff4169dd3ae65973f4d0dcc3", "is_disabled": 0, "is_reserved": 0}, {"rental_uris": {"ios": "https://dc.lft.to/lastmile_qr_scan", "android": "https://dc.lft.to/lastmile_qr_scan"}, "lon": -76.9547095, "type": "electric_bike", "fusion_lat": 0.0, "lat": 38.886356666666664, "name": "72b6c0e4767316cc3c695fab18ddb1a9", "fusion_lon": 0.0, "bike_id": "72b6c0e4767316cc3c695fab18ddb1a9", "is_disabled": 0, "is_reserved": 0}, {"rental_uris": {"ios": "https://dc.lft.to/lastmile_qr_scan", "android": "https://dc.lft.to/lastmile_qr_scan"}, "lon": -77.02666033333334, "type": "electric_scooter", "fusion_lat": 0.0, "lat": 38.928742666666665, "name": "aeb3d3c1e6a41379add1f978362bde19", "fusion_lon": 0.0, "bike_id": "aeb3d3c1e6a41379add1f978362bde19", "is_disabled": 0, "is_reserved": 0}, {"rental_uris": {"ios": "https://dc.lft.to/lastmile_qr_scan", "android": "https://dc.lft.to/lastmile_qr_scan"}, "lon": -77.0066845, "type": "electric_scooter", "fusion_lat": 0.0, "lat": 38.876538, "name": "849967edffbea35ce18f770d4cd1f8c0", "fusion_lon": 0.0, "bike_id": "849967edffbea35ce18f770d4cd1f8c0", "is_disabled": 0, "is_reserved": 0}, {"rental_uris": {"ios": "https://dc.lft.to/lastmile_qr_scan", "android": "https://dc.lft.to/lastmile_qr_scan"}, "lon": -76.99065633333333, "type": "electric_scooter", "fusion_lat": 0.0, "lat": 38.863523, "name": "821b6e934ec43c25465f78c22d354a39", "fusion_lon": 0.0, "bike_id": "821b6e934ec43c25465f78c22d354a39", "is_disabled": 0, "is_reserved": 0}, {"rental_uris": {"ios": "https://dc.lft.to/lastmile_qr_scan", "android": "https://dc.lft.to/lastmile_qr_scan"}, "lon": -77.03644666666666, "type": "electric_scooter", "fusion_lat": 0.0, "lat": 38.913004, "name": "172cdb6ef5a4f843a66026f929f2740c", "fusion_lon": 0.0, "bike_id": "172cdb6ef5a4f843a66026f929f2740c", "is_disabled": 0, "is_reserved": 0}, {"rental_uris": {"ios": "https://dc.lft.to/lastmile_qr_scan", "android": "https://dc.lft.to/lastmile_qr_scan"}, "lon": -77.03195716666667, "type": "electric_scooter", "fusion_lat": 0.0, "lat": 38.900180666666664, "name": "2c9fcd9f903fc9266339912e7708e09c", "fusion_lon": 0.0, "bike_id": "2c9fcd9f903fc9266339912e7708e09c", "is_disabled": 0, "is_reserved": 0}, {"rental_uris": {"ios": "https://dc.lft.to/lastmile_qr_scan", "android": "https://dc.lft.to/lastmile_qr_scan"}, "lon": -77.00605816666666, "type": "electric_scooter", "fusion_lat": 0.0, "lat": 38.902634666666664, "name": "7f91e4e4a644535ee3136ab049d308fb", "fusion_lon": 0.0, "bike_id": "7f91e4e4a644535ee3136ab049d308fb", "is_disabled": 0, "is_reserved": 0}, {"rental_uris": {"ios": "https://dc.lft.to/lastmile_qr_scan", "android": "https://dc.lft.to/lastmile_qr_scan"}, "lon": -76.93114566666667, "type": "electric_scooter", "fusion_lat": 0.0, "lat": 38.898297666666664, "name": "05712d64768e78582641a1a08fc36973", "fusion_lon": 0.0, "bike_id": "05712d64768e78582641a1a08fc36973", "is_disabled": 0, "is_reserved": 0}, {"rental_uris": {"ios": "https://dc.lft.to/lastmile_qr_scan", "android": "https://dc.lft.to/lastmile_qr_scan"}, "lon": -77.02685783333334, "type": "electric_scooter", "fusion_lat": 0.0, "lat": 38.892194333333336, "name": "5c4f3e51ee226b4d3055d913fecb5586", "fusion_lon": 0.0, "bike_id": "5c4f3e51ee226b4d3055d913fecb5586", "is_disabled": 0, "is_reserved": 0}, {"rental_uris": {"ios": "https://dc.lft.to/lastmile_qr_scan", "android": "https://dc.lft.to/lastmile_qr_scan"}, "lon": -77.00739866666666, "type": "electric_scooter", "fusion_lat": 0.0, "lat": 38.9058635, "name": "425e49f2e44e342cb407041f183c3cea", "fusion_lon": 0.0, "bike_id": "425e49f2e44e342cb407041f183c3cea", "is_disabled": 0, "is_reserved": 0}, {"rental_uris": {"ios": "https://dc.lft.to/lastmile_qr_scan", "android": "https://dc.lft.to/lastmile_qr_scan"}, "lon": -76.99682383333334, "type": "electric_scooter", "fusion_lat": 0.0, "lat": 38.910107833333335, "name": "4dfd37878da5faf53ed90b9a08262e69", "fusion_lon": 0.0, "bike_id": "4dfd37878da5faf53ed90b9a08262e69", "is_disabled": 0, "is_reserved": 0}, {"rental_uris": {"ios": "https://dc.lft.to/lastmile_qr_scan", "android": "https://dc.lft.to/lastmile_qr_scan"}, "lon": -77.025885, "type": "electric_scooter", "fusion_lat": 0.0, "lat": 38.892399166666664, "name": "e741d773fc2e34eedc7ff59599691b7d", "fusion_lon": 0.0, "bike_id": "e741d773fc2e34eedc7ff59599691b7d", "is_disabled": 0, "is_reserved": 0}, {"rental_uris": {"ios": "https://dc.lft.to/lastmile_qr_scan", "android": "https://dc.lft.to/lastmile_qr_scan"}, "lon": -76.99563083333334, "type": "electric_scooter", "fusion_lat": 0.0, "lat": 38.92863783333333, "name": "783e695a6bb727a278539fda47109ee5", "fusion_lon": 0.0, "bike_id": "783e695a6bb727a278539fda47109ee5", "is_disabled": 0, "is_reserved": 0}, {"rental_uris": {"ios": "https://dc.lft.to/lastmile_qr_scan", "android": "https://dc.lft.to/lastmile_qr_scan"}, "lon": -76.9388235, "type": "electric_scooter", "fusion_lat": 0.0, "lat": 38.900811833333336, "name": "1598207aeedab99d99cd96af87f6e893", "fusion_lon": 0.0, "bike_id": "1598207aeedab99d99cd96af87f6e893", "is_disabled": 0, "is_reserved": 0}, {"rental_uris": {"ios": "https://dc.lft.to/lastmile_qr_scan", "android": "https://dc.lft.to/lastmile_qr_scan"}, "lon": -77.03718966666666, "type": "electric_scooter", "fusion_lat": 0.0, "lat": 38.911193, "name": "2e0bc91a302f2b56ce75d23c15bdca73", "fusion_lon": 0.0, "bike_id": "2e0bc91a302f2b56ce75d23c15bdca73", "is_disabled": 0, "is_reserved": 0}, {"rental_uris": {"ios": "https://dc.lft.to/lastmile_qr_scan", "android": "https://dc.lft.to/lastmile_qr_scan"}, "lon": -77.02420816666667, "type": "electric_scooter", "fusion_lat": 0.0, "lat": 38.91854633333333, "name": "f4f8f1bca1b832fbf532584bbdc7113c", "fusion_lon": 0.0, "bike_id": "f4f8f1bca1b832fbf532584bbdc7113c", "is_disabled": 0, "is_reserved": 0}, {"rental_uris": {"ios": "https://dc.lft.to/lastmile_qr_scan", "android": "https://dc.lft.to/lastmile_qr_scan"}, "lon": -77.0882, "type": "electric_bike", "fusion_lat": 0.0, "lat": 38.90975616666667, "name": "0fca731076fdbdaa960d99a47a92f746", "fusion_lon": 0.0, "bike_id": "0fca731076fdbdaa960d99a47a92f746", "is_disabled": 0, "is_reserved": 0}, {"rental_uris": {"ios": "https://dc.lft.to/lastmile_qr_scan", "android": "https://dc.lft.to/lastmile_qr_scan"}, "lon": -77.05119366666666, "type": "electric_bike", "fusion_lat": 0.0, "lat": 38.99965, "name": "1fe1c8cb43acd71f859b332307db1b03", "fusion_lon": 0.0, "bike_id": "1fe1c8cb43acd71f859b332307db1b03", "is_disabled": 0, "is_reserved": 0}, {"rental_uris": {"ios": "https://dc.lft.to/lastmile_qr_scan", "android": "https://dc.lft.to/lastmile_qr_scan"}, "lon": -77.01637366666667, "type": "electric_scooter", "fusion_lat": 0.0, "lat": 38.9034195, "name": "d3548ee99f336af73e2eb89cba479221", "fusion_lon": 0.0, "bike_id": "d3548ee99f336af73e2eb89cba479221", "is_disabled": 0, "is_reserved": 0}, {"rental_uris": {"ios": "https://dc.lft.to/lastmile_qr_scan", "android": "https://dc.lft.to/lastmile_qr_scan"}, "lon": -76.986126, "type": "electric_bike", "fusion_lat": 0.0, "lat": 38.906253, "name": "484d6168f8f21ec721cd2578c123e8fc", "fusion_lon": 0.0, "bike_id": "484d6168f8f21ec721cd2578c123e8fc", "is_disabled": 0, "is_reserved": 0}, {"rental_uris": {"ios": "https://dc.lft.to/lastmile_qr_scan", "android": "https://dc.lft.to/lastmile_qr_scan"}, "lon": -77.02417666666666, "type": "electric_scooter", "fusion_lat": 0.0, "lat": 38.918237166666664, "name": "8896cb3a8cea2df34a822a3885d840c3", "fusion_lon": 0.0, "bike_id": "8896cb3a8cea2df34a822a3885d840c3", "is_disabled": 0, "is_reserved": 0}, {"rental_uris": {"ios": "https://dc.lft.to/lastmile_qr_scan", "android": "https://dc.lft.to/lastmile_qr_scan"}, "lon": -77.03876283333334, "type": "electric_scooter", "fusion_lat": 0.0, "lat": 38.923138333333334, "name": "37c428f341e7a484b5ceff6b4cd1a2b1", "fusion_lon": 0.0, "bike_id": "37c428f341e7a484b5ceff6b4cd1a2b1", "is_disabled": 0, "is_reserved": 0}, {"rental_uris": {"ios": "https://dc.lft.to/lastmile_qr_scan", "android": "https://dc.lft.to/lastmile_qr_scan"}, "lon": -76.989853, "type": "electric_scooter", "fusion_lat": 0.0, "lat": 38.89044833333333, "name": "e21ba8e30397ea83988585f01528c8c1", "fusion_lon": 0.0, "bike_id": "e21ba8e30397ea83988585f01528c8c1", "is_disabled": 0, "is_reserved": 0}, {"rental_uris": {"ios": "https://dc.lft.to/lastmile_qr_scan", "android": "https://dc.lft.to/lastmile_qr_scan"}, "lon": -77.05123333333333, "type": "electric_scooter", "fusion_lat": 0.0, "lat": 38.92361533333333, "name": "95639a051693fc2683d2be31b1ef448f", "fusion_lon": 0.0, "bike_id": "95639a051693fc2683d2be31b1ef448f", "is_disabled": 0, "is_reserved": 0}, {"rental_uris": {"ios": "https://dc.lft.to/lastmile_qr_scan", "android": "https://dc.lft.to/lastmile_qr_scan"}, "lon": -77.00133416666667, "type": "electric_scooter", "fusion_lat": 0.0, "lat": 38.90410333333333, "name": "59d5ee03a970b0dfaa0750340bf5c025", "fusion_lon": 0.0, "bike_id": "59d5ee03a970b0dfaa0750340bf5c025", "is_disabled": 0, "is_reserved": 0}, {"rental_uris": {"ios": "https://dc.lft.to/lastmile_qr_scan", "android": "https://dc.lft.to/lastmile_qr_scan"}, "lon": -77.005951, "type": "electric_scooter", "fusion_lat": 0.0, "lat": 38.90551216666667, "name": "ff9914b68eb3ca24310787abee7f0a05", "fusion_lon": 0.0, "bike_id": "ff9914b68eb3ca24310787abee7f0a05", "is_disabled": 0, "is_reserved": 0}, {"rental_uris": {"ios": "https://dc.lft.to/lastmile_qr_scan", "android": "https://dc.lft.to/lastmile_qr_scan"}, "lon": -77.019732, "type": "electric_scooter", "fusion_lat": 0.0, "lat": 38.87827633333333, "name": "da73002eb09706c47b95a06f22b64508", "fusion_lon": 0.0, "bike_id": "da73002eb09706c47b95a06f22b64508", "is_disabled": 0, "is_reserved": 0}, {"rental_uris": {"ios": "https://dc.lft.to/lastmile_qr_scan", "android": "https://dc.lft.to/lastmile_qr_scan"}, "lon": -77.04709033333333, "type": "electric_scooter", "fusion_lat": 0.0, "lat": 38.90966433333333, "name": "91f0f7def8832d22c4f75fdded9b0ef6", "fusion_lon": 0.0, "bike_id": "91f0f7def8832d22c4f75fdded9b0ef6", "is_disabled": 0, "is_reserved": 0}, {"rental_uris": {"ios": "https://dc.lft.to/lastmile_qr_scan", "android": "https://dc.lft.to/lastmile_qr_scan"}, "lon": -77.071581, "type": "electric_scooter", "fusion_lat": 0.0, "lat": 38.907388166666664, "name": "db97fd1cd61aed9fa682923c2aa3de50", "fusion_lon": 0.0, "bike_id": "db97fd1cd61aed9fa682923c2aa3de50", "is_disabled": 0, "is_reserved": 0}, {"rental_uris": {"ios": "https://dc.lft.to/lastmile_qr_scan", "android": "https://dc.lft.to/lastmile_qr_scan"}, "lon": -76.96501216666667, "type": "electric_bike", "fusion_lat": 0.0, "lat": 38.875514833333334, "name": "a20abd385547bfa70151a889f2cb6afd", "fusion_lon": 0.0, "bike_id": "a20abd385547bfa70151a889f2cb6afd", "is_disabled": 0, "is_reserved": 0}, {"rental_uris": {"ios": "https://dc.lft.to/lastmile_qr_scan", "android": "https://dc.lft.to/lastmile_qr_scan"}, "lon": -76.95206366666666, "type": "electric_bike", "fusion_lat": 0.0, "lat": 38.93669333333333, "name": "30164fb29b7cbcfcddc2a6d7507beabb", "fusion_lon": 0.0, "bike_id": "30164fb29b7cbcfcddc2a6d7507beabb", "is_disabled": 0, "is_reserved": 0}, {"rental_uris": {"ios": "https://dc.lft.to/lastmile_qr_scan", "android": "https://dc.lft.to/lastmile_qr_scan"}, "lon": -76.93184266666667, "type": "electric_scooter", "fusion_lat": 0.0, "lat": 38.898755, "name": "2ef3a16a5dad6cdd98179265bdb18e01", "fusion_lon": 0.0, "bike_id": "2ef3a16a5dad6cdd98179265bdb18e01", "is_disabled": 0, "is_reserved": 0}, {"rental_uris": {"ios": "https://dc.lft.to/lastmile_qr_scan", "android": "https://dc.lft.to/lastmile_qr_scan"}, "lon": -77.0087385, "type": "electric_scooter", "fusion_lat": 0.0, "lat": 38.911777, "name": "b0e9e0da1d290f7336c41f9d737965ce", "fusion_lon": 0.0, "bike_id": "b0e9e0da1d290f7336c41f9d737965ce", "is_disabled": 0, "is_reserved": 0}, {"rental_uris": {"ios": "https://dc.lft.to/lastmile_qr_scan", "android": "https://dc.lft.to/lastmile_qr_scan"}, "lon": -77.0343955, "type": "electric_scooter", "fusion_lat": 0.0, "lat": 38.918368666666666, "name": "3d85b67cba92a787f4467c284c35880e", "fusion_lon": 0.0, "bike_id": "3d85b67cba92a787f4467c284c35880e", "is_disabled": 0, "is_reserved": 0}, {"rental_uris": {"ios": "https://dc.lft.to/lastmile_qr_scan", "android": "https://dc.lft.to/lastmile_qr_scan"}, "lon": -77.01297533333333, "type": "electric_scooter", "fusion_lat": 0.0, "lat": 38.9126775, "name": "f0c44fe202f72f56582851cd1868bfaf", "fusion_lon": 0.0, "bike_id": "f0c44fe202f72f56582851cd1868bfaf", "is_disabled": 0, "is_reserved": 0}, {"rental_uris": {"ios": "https://dc.lft.to/lastmile_qr_scan", "android": "https://dc.lft.to/lastmile_qr_scan"}, "lon": -77.02448933333334, "type": "electric_scooter", "fusion_lat": 0.0, "lat": 38.89716716666667, "name": "9de7bbd6ffe3ddea29a6eda743e9c6ac", "fusion_lon": 0.0, "bike_id": "9de7bbd6ffe3ddea29a6eda743e9c6ac", "is_disabled": 0, "is_reserved": 0}, {"rental_uris": {"ios": "https://dc.lft.to/lastmile_qr_scan", "android": "https://dc.lft.to/lastmile_qr_scan"}, "lon": -77.04418766666667, "type": "electric_scooter", "fusion_lat": 0.0, "lat": 38.905906333333334, "name": "96f7649185f12d554c5149055a9cd14a", "fusion_lon": 0.0, "bike_id": "96f7649185f12d554c5149055a9cd14a", "is_disabled": 0, "is_reserved": 0}, {"rental_uris": {"ios": "https://dc.lft.to/lastmile_qr_scan", "android": "https://dc.lft.to/lastmile_qr_scan"}, "lon": -77.032085, "type": "electric_scooter", "fusion_lat": 0.0, "lat": 38.907678, "name": "b54ca9fd36709f2f3c25376b55c0d4d1", "fusion_lon": 0.0, "bike_id": "b54ca9fd36709f2f3c25376b55c0d4d1", "is_disabled": 0, "is_reserved": 0}, {"rental_uris": {"ios": "https://dc.lft.to/lastmile_qr_scan", "android": "https://dc.lft.to/lastmile_qr_scan"}, "lon": -77.044346, "type": "electric_scooter", "fusion_lat": 0.0, "lat": 38.905777666666665, "name": "02a62f1b2a9f9c237794f2506230e9c3", "fusion_lon": 0.0, "bike_id": "02a62f1b2a9f9c237794f2506230e9c3", "is_disabled": 0, "is_reserved": 0}, {"rental_uris": {"ios": "https://dc.lft.to/lastmile_qr_scan", "android": "https://dc.lft.to/lastmile_qr_scan"}, "lon": -77.02558283333333, "type": "electric_scooter", "fusion_lat": 0.0, "lat": 38.939755, "name": "33f7a2b9802c592ed78eed40304dbc21", "fusion_lon": 0.0, "bike_id": "33f7a2b9802c592ed78eed40304dbc21", "is_disabled": 0, "is_reserved": 0}, {"rental_uris": {"ios": "https://dc.lft.to/lastmile_qr_scan", "android": "https://dc.lft.to/lastmile_qr_scan"}, "lon": -77.03837633333333, "type": "electric_scooter", "fusion_lat": 0.0, "lat": 38.913323, "name": "1d2fb29e0cc86f895425a71454f52a99", "fusion_lon": 0.0, "bike_id": "1d2fb29e0cc86f895425a71454f52a99", "is_disabled": 0, "is_reserved": 0}, {"rental_uris": {"ios": "https://dc.lft.to/lastmile_qr_scan", "android": "https://dc.lft.to/lastmile_qr_scan"}, "lon": -77.00368666666667, "type": "electric_scooter", "fusion_lat": 0.0, "lat": 38.876604, "name": "b978b694c6c91e54cf1ec898ce78367e", "fusion_lon": 0.0, "bike_id": "b978b694c6c91e54cf1ec898ce78367e", "is_disabled": 0, "is_reserved": 0}, {"rental_uris": {"ios": "https://dc.lft.to/lastmile_qr_scan", "android": "https://dc.lft.to/lastmile_qr_scan"},