{"data": {"bikes": [{"name": "4b4043cb0fbb2501df113f0781637fcc", "lon": -77.07148166666667, "lat": 38.920299, "type": "electric_scooter", "fusion_lon": 0.0, "is_reserved": 0, "bike_id": "4b4043cb0fbb2501df113f0781637fcc", "fusion_lat": 0.0, "is_disabled": 0, "rental_uris": {"ios": "https://dc.lft.to/lastmile_qr_scan", "android": "https://dc.lft.to/lastmile_qr_scan"}}, {"name": "18d01008163ed46e1e1845ad8d1bc0fd", "lon": -77.04020183333333, "lat": 38.923552666666666, "type": "electric_scooter", "fusion_lon": 0.0, "is_reserved": 0, "bike_id": "18d01008163ed46e1e1845ad8d1bc0fd", "fusion_lat": 0.0, "is_disabled": 0, "rental_uris": {"ios": "https://dc.lft.to/lastmile_qr_scan", "android": "https://dc.lft.to/lastmile_qr_scan"}}, {"name": "f7aa6d2114d09c962f129b2f521b822c", "lon": -77.03864066666667, "lat": 38.903791, "type": "electric_scooter", "fusion_lon": 0.0, "is_reserved": 0, "bike_id": "f7aa6d2114d09c962f129b2f521b822c", "fusion_lat": 0.0, "is_disabled": 0, "rental_uris": {"ios": "https://dc.lft.to/lastmile_qr_scan", "android": "https://dc.lft.to/lastmile_qr_scan"}}, {"name": "946becb7d202cf09cc4f0c09944e64bf", "lon": -77.00259033333333, "lat": 38.922396166666665, "type": "electric_scooter", "fusion_lon": 0.0, "is_reserved": 0, "bike_id": "946becb7d202cf09cc4f0c09944e64bf", "fusion_lat": 0.0, "is_disabled": 0, "rental_uris": {"ios": "https://dc.lft.to/lastmile_qr_scan", "android": "https://dc.lft.to/lastmile_qr_scan"}}, {"name": "728970088c9967003245126c8a0746a1", "lon": -77.02439466666667, "lat": 38.909669, "type": "electric_scooter", "fusion_lon": 0.0, "is_reserved": 0, "bike_id": "728970088c9967003245126c8a0746a1", "fusion_lat": 0.0, "is_disabled": 0, "rental_uris": {"ios": "https://dc.lft.to/lastmile_qr_scan", "android": "https://dc.lft.to/lastmile_qr_scan"}}, {"name": "2aada35db78a596244e9452384a237bf", "lon": -77.00890133333333, "lat": 38.924859166666664, "type": "electric_scooter", "fusion_lon": 0.0, "is_reserved": 0, "bike_id": "2aada35db78a596244e9452384a237bf", "fusion_lat": 0.0, "is_disabled": 0, "rental_uris": {"ios": "https://dc.lft.to/lastmile_qr_scan", "android": "https://dc.lft.to/lastmile_qr_scan"}}, {"name": "6ec1d1fa2293b56a278c7182852e7838", "lon": -77.03656566666666, "lat": 38.91799483333333, "type": "electric_scooter", "fusion_lon": 0.0, "is_reserved": 0, "bike_id": "6ec1d1fa2293b56a278c7182852e7838", "fusion_lat": 0.0, "is_disabled": 0, "rental_uris": {"ios": "https://dc.lft.to/lastmile_qr_scan", "android": "https://dc.lft.to/lastmile_qr_scan"}}, {"name": "58fc658ff269ce1104bd827de9bbb12e", "lon": -77.02203083333333, "lat": 38.88640816666667, "type": "electric_scooter", "fusion_lon": 0.0, "is_reserved": 0, "bike_id": "58fc658ff269ce1104bd827de9bbb12e", "fusion_lat": 0.0, "is_disabled": 0, "rental_uris": {"ios": "https://dc.lft.to/lastmile_qr_scan", "android": "https://dc.lft.to/lastmile_qr_scan"}}, {"name": "bbad78550256560531871c413875010a", "lon": -77.037097, "lat": 38.92034133333333, "type": "electric_bike", "fusion_lon": 0.0, "is_reserved": 0, "bike_id": "bbad78550256560531871c413875010a", "fusion_lat": 0.0, "is_disabled": 0, "rental_uris": {"ios": "https://dc.lft.to/lastmile_qr_scan", "android": "https://dc.lft.to/lastmile_qr_scan"}}, {"name": "0967ac5f7f120ec3347c20e6fbe36497", "lon": -77.08585116666667, "lat": 38.844386666666665, "type": "electric_bike", "fusion_lon": 0.0, "is_reserved": 0, "bike_id": "0967ac5f7f120ec3347c20e6fbe36497", "fusion_lat": 0.0, "is_disabled": 0, "rental_uris": {"ios": "https://dc.lft.to/lastmile_qr_scan", "android": "https://dc.lft.to/lastmile_qr_scan"}}, {"name": "20fbf31794d67b796037c851a05a4cdb", "lon": -77.03841566666667, "lat": 38.902743666666666, "type": "electric_scooter", "fusion_lon": 0.0, "is_reserved": 0, "bike_id": "20fbf31794d67b796037c851a05a4cdb", "fusion_lat": 0.0, "is_disabled": 0, "rental_uris": {"ios": "https://dc.lft.to/lastmile_qr_scan", "android": "https://dc.lft.to/lastmile_qr_scan"}}, {"name": "cff518940bc48ebd902de686c290cada", "lon": -77.03474433333334, "lat": 38.92536833333333, "type": "electric_scooter", "fusion_lon": 0.0, "is_reserved": 0, "bike_id": "cff518940bc48ebd902de686c290cada", "fusion_lat": 0.0, "is_disabled": 0, "rental_uris": {"ios": "https://dc.lft.to/lastmile_qr_scan", "android": "https://dc.lft.to/lastmile_qr_scan"}}, {"name": "d5a3bbe8986e08dcd00df7b3dcb587d3", "lon": -76.99335616666667, "lat": 38.92445633333333, "type": "electric_scooter", "fusion_lon": 0.0, "is_reserved": 0, "bike_id": "d5a3bbe8986e08dcd00df7b3dcb587d3", "fusion_lat": 0.0, "is_disabled": 0, "rental_uris": {"ios": "https://dc.lft.to/lastmile_qr_scan", "android": "https://dc.lft.to/lastmile_qr_scan"}}, {"name": "9defac51d8781a5e00c0a46dadb1e8e4", "lon": -76.98499716666667, "lat": 38.915075333333334, "type": "electric_scooter", "fusion_lon": 0.0, "is_reserved": 0, "bike_id": "9defac51d8781a5e00c0a46dadb1e8e4", "fusion_lat": 0.0, "is_disabled": 0, "rental_uris": {"ios": "https://dc.lft.to/lastmile_qr_scan", "android": "https://dc.lft.to/lastmile_qr_scan"}}, {"name": "58f2b1409a308ba863f03952a48d5455", "lon": -77.0430275, "lat": 38.9233215, "type": "electric_scooter", "fusion_lon": 0.0, "is_reserved": 0, "bike_id": "58f2b1409a308ba863f03952a48d5455", "fusion_lat": 0.0, "is_disabled": 0, "rental_uris": {"ios": "https://dc.lft.to/lastmile_qr_scan", "android": "https://dc.lft.to/lastmile_qr_scan"}}, {"name": "3820b9792e54d22ff285e77215057575", "lon": -77.057403, "lat": 38.9338705, "type": "electric_scooter", "fusion_lon": 0.0, "is_reserved": 0, "bike_id": "3820b9792e54d22ff285e77215057575", "fusion_lat": 0.0, "is_disabled": 0, "rental_uris": {"ios": "https://dc.lft.to/lastmile_qr_scan", "android": "https://dc.lft.to/lastmile_qr_scan"}}, {"name": "9c21d410cfc93166a81fcc2f2efc1a39", "lon": -76.97236483333333, "lat": 38.9490045, "type": "electric_bike", "fusion_lon": 0.0, "is_reserved": 0, "bike_id": "9c21d410cfc93166a81fcc2f2efc1a39", "fusion_lat": 0.0, "is_disabled": 0, "rental_uris": {"ios": "https://dc.lft.to/lastmile_qr_scan", "android": "https://dc.lft.to/lastmile_qr_scan"}}, {"name": "a2180b8200e5c0e2301a426ddbd31234", "lon": -77.03897283333333, "lat": 38.92243116666667, "type": "electric_scooter", "fusion_lon": 0.0, "is_reserved": 0, "bike_id": "a2180b8200e5c0e2301a426ddbd31234", "fusion_lat": 0.0, "is_disabled": 0, "rental_uris": {"ios": "https://dc.lft.to/lastmile_qr_scan", "android": "https://dc.lft.to/lastmile_qr_scan"}}, {"name": "c5a6d3b5847e1d3b52e9bd05a2f16b5a", "lon": -77.02929733333333, "lat": 38.9297055, "type": "electric_scooter", "fusion_lon": 0.0, "is_reserved": 0, "bike_id": "c5a6d3b5847e1d3b52e9bd05a2f16b5a", "fusion_lat": 0.0, "is_disabled": 0, "rental_uris": {"ios": "https://dc.lft.to/lastmile_qr_scan", "android": "https://dc.lft.to/lastmile_qr_scan"}}, {"name": "24f6e4f90782a39a03d08218242de890", "lon": -77.03118566666667, "lat": 38.91563766666667, "type": "electric_scooter", "fusion_lon": 0.0, "is_reserved": 0, "bike_id": "24f6e4f90782a39a03d08218242de890", "fusion_lat": 0.0, "is_disabled": 0, "rental_uris": {"ios": "https://dc.lft.to/lastmile_qr_scan", "android": "https://dc.lft.to/lastmile_qr_scan"}}, {"name": "080f2ffc7bb94a718aaffb2af77690f8", "lon": -77.03275566666667, "lat": 38.932465, "type": "electric_scooter", "fusion_lon": 0.0, "is_reserved": 0, "bike_id": "080f2ffc7bb94a718aaffb2af77690f8", "fusion_lat": 0.0, "is_disabled": 0, "rental_uris": {"ios": "https://dc.lft.to/lastmile_qr_scan", "android": "https://dc.lft.to/lastmile_qr_scan"}}, {"name": "36f9f3b848277b4220b2517f3a18e365", "lon": -77.02903466666666, "lat": 38.9332745, "type": "electric_scooter", "fusion_lon": 0.0, "is_reserved": 0, "bike_id": "36f9f3b848277b4220b2517f3a18e365", "fusion_lat": 0.0, "is_disabled": 0, "rental_uris": {"ios": "https://dc.lft.to/lastmile_qr_scan", "android": "https://dc.lft.to/lastmile_qr_scan"}}, {"name": "5627a5a66db986c0bd33b3dee67d2010", "lon": -77.05093333333333, "lat": 38.901751833333336, "type": "electric_scooter", "fusion_lon": 0.0, "is_reserved": 0, "bike_id": "5627a5a66db986c0bd33b3dee67d2010", "fusion_lat": 0.0, "is_disabled": 0, "rental_uris": {"ios": "https://dc.lft.to/lastmile_qr_scan", "android": "https://dc.lft.to/lastmile_qr_scan"}}, {"name": "10650ea75e4f37dff36e893f2a70a28b", "lon": -76.99774516666666, "lat": 38.84423183333333, "type": "electric_scooter", "fusion_lon": 0.0, "is_reserved": 0, "bike_id": "10650ea75e4f37dff36e893f2a70a28b", "fusion_lat": 0.0, "is_disabled": 0, "rental_uris": {"ios": "https://dc.lft.to/lastmile_qr_scan", "android": "https://dc.lft.to/lastmile_qr_scan"}}, {"name": "7b6cd60c04c4e3178a9df4fa54b4f131", "lon": -77.0486195, "lat": 38.915206833333336, "type": "electric_scooter", "fusion_lon": 0.0, "is_reserved": 0, "bike_id": "7b6cd60c04c4e3178a9df4fa54b4f131", "fusion_lat": 0.0, "is_disabled": 0, "rental_uris": {"ios": "https://dc.lft.to/lastmile_qr_scan", "android": "https://dc.lft.to/lastmile_qr_scan"}}, {"name": "a8a7dcb50aec6e859a2e8f4c7aaf5ab3", "lon": -76.9887385, "lat": 38.89033833333333, "type": "electric_scooter", "fusion_lon": 0.0, "is_reserved": 0, "bike_id": "a8a7dcb50aec6e859a2e8f4c7aaf5ab3", "fusion_lat": 0.0, "is_disabled": 0, "rental_uris": {"ios": "https://dc.lft.to/lastmile_qr_scan", "android": "https://dc.lft.to/lastmile_qr_scan"}}, {"name": "53608e8c0155f3a92f7ee5995fe7a5ed", "lon": -77.02162366666667, "lat": 38.89722533333333, "type": "electric_scooter", "fusion_lon": 0.0, "is_reserved": 0, "bike_id": "53608e8c0155f3a92f7ee5995fe7a5ed", "fusion_lat": 0.0, "is_disabled": 0, "rental_uris": {"ios": "https://dc.lft.to/lastmile_qr_scan", "android": "https://dc.lft.to/lastmile_qr_scan"}}, {"name": "0ffaf6bd57cc3d76241b6b527450274c", "lon": -77.00775916666667, "lat": 38.905714833333334, "type": "electric_scooter", "fusion_lon": 0.0, "is_reserved": 0, "bike_id": "0ffaf6bd57cc3d76241b6b527450274c", "fusion_lat": 0.0, "is_disabled": 0, "rental_uris": {"ios": "https://dc.lft.to/lastmile_qr_scan", "android": "https://dc.lft.to/lastmile_qr_scan"}}, {"name": "63e89267dc1df24199525aa7534f7c08", "lon": -77.02322083333334, "lat": 38.930596, "type": "electric_scooter", "fusion_lon": 0.0, "is_reserved": 0, "bike_id": "63e89267dc1df24199525aa7534f7c08", "fusion_lat": 0.0, "is_disabled": 0, "rental_uris": {"ios": "https://dc.lft.to/lastmile_qr_scan", "android": "https://dc.lft.to/lastmile_qr_scan"}}, {"name": "124c11dc15584ba109ecd61894a9472f", "lon": -77.0363405, "lat": 38.92245783333333, "type": "electric_scooter", "fusion_lon": 0.0, "is_reserved": 0, "bike_id": "124c11dc15584ba109ecd61894a9472f", "fusion_lat": 0.0, "is_disabled": 0, "rental_uris": {"ios": "https://dc.lft.to/lastmile_qr_scan", "android": "https://dc.lft.to/lastmile_qr_scan"}}, {"name": "5c917e19e7bc0d7f25940302d1c3ea0d", "lon": -77.105979, "lat": 38.9289055, "type": "electric_bike", "fusion_lon": 0.0, "is_reserved": 0, "bike_id": "5c917e19e7bc0d7f25940302d1c3ea0d", "fusion_lat": 0.0, "is_disabled": 0, "rental_uris": {"ios": "https://dc.lft.to/lastmile_qr_scan", "android": "https://dc.lft.to/lastmile_qr_scan"}}, {"name": "a1d5a5e512cce316ae3f8392d8ac16f1", "lon": -77.03178833333334, "lat": 38.91789216666667, "type": "electric_scooter", "fusion_lon": 0.0, "is_reserved": 0, "bike_id": "a1d5a5e512cce316ae3f8392d8ac16f1", "fusion_lat": 0.0, "is_disabled": 0, "rental_uris": {"ios": "https://dc.lft.to/lastmile_qr_scan", "android": "https://dc.lft.to/lastmile_qr_scan"}}, {"name": "7b8fa1261e6ff64f243e32a03dcf48c6", "lon": -77.04151866666666, "lat": 38.91915933333333, "type": "electric_scooter", "fusion_lon": 0.0, "is_reserved": 0, "bike_id": "7b8fa1261e6ff64f243e32a03dcf48c6", "fusion_lat": 0.0, "is_disabled": 0, "rental_uris": {"ios": "https://dc.lft.to/lastmile_qr_scan", "android": "https://dc.lft.to/lastmile_qr_scan"}}, {"name": "845b086c4f265031f71ab644ffb4f515", "lon": -76.95749266666667, "lat": 38.884297833333335, "type": "electric_scooter", "fusion_lon": 0.0, "is_reserved": 0, "bike_id": "845b086c4f265031f71ab644ffb4f515", "fusion_lat": 0.0, "is_disabled": 0, "rental_uris": {"ios": "https://dc.lft.to/lastmile_qr_scan", "android": "https://dc.lft.to/lastmile_qr_scan"}}, {"name": "2f0db222a10369e874113c1c2f503f0b", "lon": -77.031958, "lat": 38.917832833333335, "type": "electric_scooter", "fusion_lon": 0.0, "is_reserved": 0, "bike_id": "2f0db222a10369e874113c1c2f503f0b", "fusion_lat": 0.0, "is_disabled": 0, "rental_uris": {"ios": "https://dc.lft.to/lastmile_qr_scan", "android": "https://dc.lft.to/lastmile_qr_scan"}}, {"name": "f11c18fba0da2a28db81b29b01df514c", "lon": -77.04249716666666, "lat": 38.90832483333333, "type": "electric_scooter", "fusion_lon": 0.0, "is_reserved": 0, "bike_id": "f11c18fba0da2a28db81b29b01df514c", "fusion_lat": 0.0, "is_disabled": 0, "rental_uris": {"ios": "https://dc.lft.to/lastmile_qr_scan", "android": "https://dc.lft.to/lastmile_qr_scan"}}, {"name": "f9a4303236683988c68d904292d1ce70", "lon": -77.0236805, "lat": 38.91344983333333, "type": "electric_scooter", "fusion_lon": 0.0, "is_reserved": 0, "bike_id": "f9a4303236683988c68d904292d1ce70", "fusion_lat": 0.0, "is_disabled": 0, "rental_uris": {"ios": "https://dc.lft.to/lastmile_qr_scan", "android": "https://dc.lft.to/lastmile_qr_scan"}}, {"name": "a9fa48c0d4ffeac12e7ed61d1f51e591", "lon": -77.0020075, "lat": 38.9002835, "type": "electric_scooter", "fusion_lon": 0.0, "is_reserved": 0, "bike_id": "a9fa48c0d4ffeac12e7ed61d1f51e591", "fusion_lat": 0.0, "is_disabled": 0, "rental_uris": {"ios": "https://dc.lft.to/lastmile_qr_scan", "android": "https://dc.lft.to/lastmile_qr_scan"}}, {"name": "ede14805132c89cf60ff0bdbd0db1e15", "lon": -77.0174335, "lat": 38.887335, "type": "electric_scooter", "fusion_lon": 0.0, "is_reserved": 0, "bike_id": "ede14805132c89cf60ff0bdbd0db1e15", "fusion_lat": 0.0, "is_disabled": 0, "rental_uris": {"ios": "https://dc.lft.to/lastmile_qr_scan", "android": "https://dc.lft.to/lastmile_qr_scan"}}, {"name": "c0172a359f8ebbe4f68ccb0239d08d08", "lon": -77.0495745, "lat": 38.90080366666667, "type": "electric_scooter", "fusion_lon": 0.0, "is_reserved": 0, "bike_id": "c0172a359f8ebbe4f68ccb0239d08d08", "fusion_lat": 0.0, "is_disabled": 0, "rental_uris": {"ios": "https://dc.lft.to/lastmile_qr_scan", "android": "https://dc.lft.to/lastmile_qr_scan"}}, {"name": "0677224ebfda3df9cc9c6815ff7c6a90", "lon": -77.02938083333333, "lat": 38.907411833333335, "type": "electric_scooter", "fusion_lon": 0.0, "is_reserved": 0, "bike_id": "0677224ebfda3df9cc9c6815ff7c6a90", "fusion_lat": 0.0, "is_disabled": 0, "rental_uris": {"ios": "https://dc.lft.to/lastmile_qr_scan", "android": "https://dc.lft.to/lastmile_qr_scan"}}, {"name": "f8b667daff713b63d957351e8aabfc43", "lon": -77.04333216666667, "lat": 38.892186833333334, "type": "electric_scooter", "fusion_lon": 0.0, "is_reserved": 0, "bike_id": "f8b667daff713b63d957351e8aabfc43", "fusion_lat": 0.0, "is_disabled": 0, "rental_uris": {"ios": "https://dc.lft.to/lastmile_qr_scan", "android": "https://dc.lft.to/lastmile_qr_scan"}}, {"name": "f4a55c2ae4b1a4cd1621d8ae39148ddd", "lon": -76.9853375, "lat": 38.866468166666664, "type": "electric_scooter", "fusion_lon": 0.0, "is_reserved": 0, "bike_id": "f4a55c2ae4b1a4cd1621d8ae39148ddd", "fusion_lat": 0.0, "is_disabled": 0, "rental_uris": {"ios": "https://dc.lft.to/lastmile_qr_scan", "android": "https://dc.lft.to/lastmile_qr_scan"}}, {"name": "61e01c85fda3fd1500e0adb3047e465a", "lon": -77.04422333333333, "lat": 38.905713, "type": "electric_scooter", "fusion_lon": 0.0, "is_reserved": 0, "bike_id": "61e01c85fda3fd1500e0adb3047e465a", "fusion_lat": 0.0, "is_disabled": 0, "rental_uris": {"ios": "https://dc.lft.to/lastmile_qr_scan", "android": "https://dc.lft.to/lastmile_qr_scan"}}, {"name": "8e73816a7e072d7e0bbad337fd780be1", "lon": -77.04858716666666, "lat": 38.906358, "type": "electric_scooter", "fusion_lon": 0.0, "is_reserved": 0, "bike_id": "8e73816a7e072d7e0bbad337fd780be1", "fusion_lat": 0.0, "is_disabled": 0, "rental_uris": {"ios": "https://dc.lft.to/lastmile_qr_scan", "android": "https://dc.lft.to/lastmile_qr_scan"}}, {"name": "bff71a4bcdffdc3a032d4c7bab76108c", "lon": -77.02694616666666, "lat": 38.900784333333334, "type": "electric_scooter", "fusion_lon": 0.0, "is_reserved": 0, "bike_id": "bff71a4bcdffdc3a032d4c7bab76108c", "fusion_lat": 0.0, "is_disabled": 0, "rental_uris": {"ios": "https://dc.lft.to/lastmile_qr_scan", "android": "https://dc.lft.to/lastmile_qr_scan"}}, {"name": "4e2fe0f02afc439f927eb66bb30cbb17", "lon": -77.0088525, "lat": 38.88183733333334, "type": "electric_scooter", "fusion_lon": 0.0, "is_reserved": 0, "bike_id": "4e2fe0f02afc439f927eb66bb30cbb17", "fusion_lat": 0.0, "is_disabled": 0, "rental_uris": {"ios": "https://dc.lft.to/lastmile_qr_scan", "android": "https://dc.lft.to/lastmile_qr_scan"}}, {"name": "af92010b50e25e421ab546bb2fd7c1f4", "lon": -77.0431015, "lat": 38.926536166666665, "type": "electric_scooter", "fusion_lon": 0.0, "is_reserved": 0, "bike_id": "af92010b50e25e421ab546bb2fd7c1f4", "fusion_lat": 0.0, "is_disabled": 0, "rental_uris": {"ios": "https://dc.lft.to/lastmile_qr_scan", "android": "https://dc.lft.to/lastmile_qr_scan"}}, {"name": "3a55955f661d97fb4a230ce648af1bdf", "lon": -77.0407215, "lat": 38.917678333333335, "type": "electric_scooter", "fusion_lon": 0.0, "is_reserved": 0, "bike_id": "3a55955f661d97fb4a230ce648af1bdf", "fusion_lat": 0.0, "is_disabled": 0, "rental_uris": {"ios": "https://dc.lft.to/lastmile_qr_scan", "android": "https://dc.lft.to/lastmile_qr_scan"}}, {"name": "64a6c051abb476645a9723b4e5c08628", "lon": -77.042089, "lat": 38.92079483333333, "type": "electric_bike", "fusion_lon": 0.0, "is_reserved": 0, "bike_id": "64a6c051abb476645a9723b4e5c08628", "fusion_lat": 0.0, "is_disabled": 0, "rental_uris": {"ios": "https://dc.lft.to/lastmile_qr_scan", "android": "https://dc.lft.to/lastmile_qr_scan"}}, {"name": "53dd7553e6355522bafb5f1772920b8b", "lon": -76.99267566666667, "lat": 38.886374833333335, "type": "electric_scooter", "fusion_lon": 0.0, "is_reserved": 0, "bike_id": "53dd7553e6355522bafb5f1772920b8b", "fusion_lat": 0.0, "is_disabled": 0, "rental_uris": {"ios": "https://dc.lft.to/lastmile_qr_scan", "android": "https://dc.lft.to/lastmile_qr_scan"}}, {"name": "14951c644ba5ba972264aa2591bed1c9", "lon": -77.02382483333334, "lat": 38.896245, "type": "electric_scooter", "fusion_lon": 0.0, "is_reserved": 0, "bike_id": "14951c644ba5ba972264aa2591bed1c9", "fusion_lat": 0.0, "is_disabled": 0, "rental_uris": {"ios": "https://dc.lft.to/lastmile_qr_scan", "android": "https://dc.lft.to/lastmile_qr_scan"}}, {"name": "544bd2a0f5d94d4c71ba2180955d652b", "lon": -77.0319775, "lat": 38.91356183333333, "type": "electric_scooter", "fusion_lon": 0.0, "is_reserved": 0, "bike_id": "544bd2a0f5d94d4c71ba2180955d652b", "fusion_lat": 0.0, "is_disabled": 0, "rental_uris": {"ios": "https://dc.lft.to/lastmile_qr_scan", "android": "https://dc.lft.to/lastmile_qr_scan"}}, {"name": "edc5f5b2761b1c7e2cc87165516f2b63", "lon": -77.038574, "lat": 38.915505833333334, "type": "electric_scooter", "fusion_lon": 0.0, "is_reserved": 0, "bike_id": "edc5f5b2761b1c7e2cc87165516f2b63", "fusion_lat": 0.0, "is_disabled": 0, "rental_uris": {"ios": "https://dc.lft.to/lastmile_qr_scan", "android": "https://dc.lft.to/lastmile_qr_scan"}}, {"name": "ae792a84f18d15d5596d3f4b09017157", "lon": -77.02929433333334, "lat": 38.89937616666667, "type": "electric_scooter", "fusion_lon": 0.0, "is_reserved": 0, "bike_id": "ae792a84f18d15d5596d3f4b09017157", "fusion_lat": 0.0, "is_disabled": 0, "rental_uris": {"ios": "https://dc.lft.to/lastmile_qr_scan", "android": "https://dc.lft.to/lastmile_qr_scan"}}, {"name": "e15bb0a7a7da7107d8bd68272913bbdc", "lon": -76.9888505, "lat": 38.86648616666667, "type": "electric_scooter", "fusion_lon": 0.0, "is_reserved": 0, "bike_id": "e15bb0a7a7da7107d8bd68272913bbdc", "fusion_lat": 0.0, "is_disabled": 0, "rental_uris": {"ios": "https://dc.lft.to/lastmile_qr_scan", "android": "https://dc.lft.to/lastmile_qr_scan"}}, {"name": "33a78b9957a04a8c054a288fa41dcb15", "lon": -77.037578, "lat": 38.916902, "type": "electric_bike", "fusion_lon": 0.0, "is_reserved": 0, "bike_id": "33a78b9957a04a8c054a288fa41dcb15", "fusion_lat": 0.0, "is_disabled": 0, "rental_uris": {"ios": "https://dc.lft.to/lastmile_qr_scan", "android": "https://dc.lft.to/lastmile_qr_scan"}}, {"name": "ccdd2b16dc91e850c0abc1e7c6e3e953", "lon": -77.03857933333333, "lat": 38.912525, "type": "electric_scooter", "fusion_lon": 0.0, "is_reserved": 0, "bike_id": "ccdd2b16dc91e850c0abc1e7c6e3e953", "fusion_lat": 0.0, "is_disabled": 0, "rental_uris": {"ios": "https://dc.lft.to/lastmile_qr_scan", "android": "https://dc.lft.to/lastmile_qr_scan"}}, {"name": "924d1f6c68e3e035660a564c0d4d959b", "lon": -77.04800633333333, "lat": 38.89220366666667, "type": "electric_scooter", "fusion_lon": 0.0, "is_reserved": 0, "bike_id": "924d1f6c68e3e035660a564c0d4d959b", "fusion_lat": 0.0, "is_disabled": 0, "rental_uris": {"ios": "https://dc.lft.to/lastmile_qr_scan", "android": "https://dc.lft.to/lastmile_qr_scan"}}, {"name": "911336a8f3da2b3294e365708ae16da6", "lon": -77.22579566666667, "lat": 38.929649166666664, "type": "electric_bike", "fusion_lon": 0.0, "is_reserved": 0, "bike_id": "911336a8f3da2b3294e365708ae16da6", "fusion_lat": 0.0, "is_disabled": 0, "rental_uris": {"ios": "https://dc.lft.to/lastmile_qr_scan", "android": "https://dc.lft.to/lastmile_qr_scan"}}, {"name": "76e9610691dce9bbbf37d55c4a69f483", "lon": -76.93751733333333, "lat": 38.890418333333336, "type": "electric_scooter", "fusion_lon": 0.0, "is_reserved": 0, "bike_id": "76e9610691dce9bbbf37d55c4a69f483", "fusion_lat": 0.0, "is_disabled": 0, "rental_uris": {"ios": "https://dc.lft.to/lastmile_qr_scan", "android": "https://dc.lft.to/lastmile_qr_scan"}}, {"name": "d712b6b9c97a56c6549d9ca78bb877bd", "lon": -77.06012016666666, "lat": 38.901762166666664, "type": "electric_scooter", "fusion_lon": 0.0, "is_reserved": 0, "bike_id": "d712b6b9c97a56c6549d9ca78bb877bd", "fusion_lat": 0.0, "is_disabled": 0, "rental_uris": {"ios": "https://dc.lft.to/lastmile_qr_scan", "android": "https://dc.lft.to/lastmile_qr_scan"}}, {"name": "279cd489e2cee5501f59f1daf90c6710", "lon": -77.07902933333334, "lat": 38.947976, "type": "electric_scooter", "fusion_lon": 0.0, "is_reserved": 0, "bike_id": "279cd489e2cee5501f59f1daf90c6710", "fusion_lat": 0.0, "is_disabled": 0, "rental_uris": {"ios": "https://dc.lft.to/lastmile_qr_scan", "android": "https://dc.lft.to/lastmile_qr_scan"}}, {"name": "4c2e629260ac2e9d2f7878427e73bbc5", "lon": -77.03665366666667, "lat": 38.927202666666666, "type": "electric_scooter", "fusion_lon": 0.0, "is_reserved": 0, "bike_id": "4c2e629260ac2e9d2f7878427e73bbc5", "fusion_lat": 0.0, "is_disabled": 0, "rental_uris": {"ios": "https://dc.lft.to/lastmile_qr_scan", "android": "https://dc.lft.to/lastmile_qr_scan"}}, {"name": "a85fc00917156ea46436bbc9574aac2c", "lon": -77.04006033333333, "lat": 38.9184045, "type": "electric_scooter", "fusion_lon": 0.0, "is_reserved": 0, "bike_id": "a85fc00917156ea46436bbc9574aac2c", "fusion_lat": 0.0, "is_disabled": 0, "rental_uris": {"ios": "https://dc.lft.to/lastmile_qr_scan", "android": "https://dc.lft.to/lastmile_qr_scan"}}, {"name": "32256883c343caeea4a88752ebbb1f63", "lon": -77.01414233333334, "lat": 38.927812, "type": "electric_scooter", "fusion_lon": 0.0, "is_reserved": 0, "bike_id": "32256883c343caeea4a88752ebbb1f63", "fusion_lat": 0.0, "is_disabled": 0, "rental_uris": {"ios": "https://dc.lft.to/lastmile_qr_scan", "android": "https://dc.lft.to/lastmile_qr_scan"}}, {"name": "bf531e49c3b2a426a9367c22faabc66d", "lon": -77.011027, "lat": 38.96305783333333, "type": "electric_bike", "fusion_lon": 0.0, "is_reserved": 0, "bike_id": "bf531e49c3b2a426a9367c22faabc66d", "fusion_lat": 0.0, "is_disabled": 0, "rental_uris": {"ios": "https://dc.lft.to/lastmile_qr_scan", "android": "https://dc.lft.to/lastmile_qr_scan"}}, {"name": "f7610cd36b1c6fc5e060fcf3aabc22f1", "lon": -77.02714866666666, "lat": 38.9245435, "type": "electric_scooter", "fusion_lon": 0.0, "is_reserved": 0, "bike_id": "f7610cd36b1c6fc5e060fcf3aabc22f1", "fusion_lat": 0.0, "is_disabled": 0, "rental_uris": {"ios": "https://dc.lft.to/lastmile_qr_scan", "android": "https://dc.lft.to/lastmile_qr_scan"}}, {"name": "778d34fb33ef4f026a21ea4d886ac82d", "lon": -77.03065883333333, "lat": 38.904307833333334, "type": "electric_scooter", "fusion_lon": 0.0, "is_reserved": 0, "bike_id": "778d34fb33ef4f026a21ea4d886ac82d", "fusion_lat": 0.0, "is_disabled": 0, "rental_uris": {"ios": "https://dc.lft.to/lastmile_qr_scan", "android": "https://dc.lft.to/lastmile_qr_scan"}}, {"name": "2ac7af944e2052da48fdfbb25e513479", "lon": -76.99901783333334, "lat": 38.948217166666666, "type": "electric_scooter", "fusion_lon": 0.0, "is_reserved": 0, "bike_id": "2ac7af944e2052da48fdfbb25e513479", "fusion_lat": 0.0, "is_disabled": 0, "rental_uris": {"ios": "https://dc.lft.to/lastmile_qr_scan", "android": "https://dc.lft.to/lastmile_qr_scan"}}, {"name": "77e9fa641e71f87417f598b14aab2592", "lon": -77.02714816666666, "lat": 38.906782666666665, "type": "electric_scooter", "fusion_lon": 0.0, "is_reserved": 0, "bike_id": "77e9fa641e71f87417f598b14aab2592", "fusion_lat": 0.0, "is_disabled": 0, "rental_uris": {"ios": "https://dc.lft.to/lastmile_qr_scan", "android": "https://dc.lft.to/lastmile_qr_scan"}}, {"name": "da2ddb58ed58260a7523d9a1d5311109", "lon": -77.002382, "lat": 38.957183666666666, "type": "electric_scooter", "fusion_lon": 0.0, "is_reserved": 0, "bike_id": "da2ddb58ed58260a7523d9a1d5311109", "fusion_lat": 0.0, "is_disabled": 0, "rental_uris": {"ios": "https://dc.lft.to/lastmile_qr_scan", "android": "https://dc.lft.to/lastmile_qr_scan"}}, {"name": "c1082ff1fd95c849988a592bb5e4b544", "lon": -77.02433166666667, "lat": 38.90968783333334, "type": "electric_scooter", "fusion_lon": 0.0, "is_reserved": 0, "bike_id": "c1082ff1fd95c849988a592bb5e4b544", "fusion_lat": 0.0, "is_disabled": 0, "rental_uris": {"ios": "https://dc.lft.to/lastmile_qr_scan", "android": "https://dc.lft.to/lastmile_qr_scan"}}, {"name": "d89ba12e14480da378e07db50761de4c", "lon": -76.93638016666667, "lat": 38.871459, "type": "electric_bike", "fusion_lon": 0.0, "is_reserved": 0, "bike_id": "d89ba12e14480da378e07db50761de4c", "fusion_lat": 0.0, "is_disabled": 0, "rental_uris": {"ios": "https://dc.lft.to/lastmile_qr_scan", "android": "https://dc.lft.to/lastmile_qr_scan"}}, {"name": "b05d997684d680f548d850fb2f92d46d", "lon": -76.99013933333333, "lat": 38.9050335, "type": "electric_scooter", "fusion_lon": 0.0, "is_reserved": 0, "bike_id": "b05d997684d680f548d850fb2f92d46d", "fusion_lat": 0.0, "is_disabled": 0, "rental_uris": {"ios": "https://dc.lft.to/lastmile_qr_scan", "android": "https://dc.lft.to/lastmile_qr_scan"}}, {"name": "5c3c3d971be1c67eee377494bcf8b840", "lon": -77.03760866666667, "lat": 38.91688383333333, "type": "electric_scooter", "fusion_lon": 0.0, "is_reserved": 0, "bike_id": "5c3c3d971be1c67eee377494bcf8b840", "fusion_lat": 0.0, "is_disabled": 0, "rental_uris": {"ios": "https://dc.lft.to/lastmile_qr_scan", "android": "https://dc.lft.to/lastmile_qr_scan"}}, {"name": "a87148d5f1e47ccb836faac423275fad", "lon": -77.044687, "lat": 38.918912166666665, "type": "electric_scooter", "fusion_lon": 0.0, "is_reserved": 0, "bike_id": "a87148d5f1e47ccb836faac423275fad", "fusion_lat": 0.0, "is_disabled": 0, "rental_uris": {"ios": "https://dc.lft.to/lastmile_qr_scan", "android": "https://dc.lft.to/lastmile_qr_scan"}}, {"name": "6e2cdf9e58361c35801f7db1ccbe683b", "lon": -77.0018495, "lat": 38.90007816666667, "type": "electric_scooter", "fusion_lon": 0.0, "is_reserved": 0, "bike_id": "6e2cdf9e58361c35801f7db1ccbe683b", "fusion_lat": 0.0, "is_disabled": 0, "rental_uris": {"ios": "https://dc.lft.to/lastmile_qr_scan", "android": "https://dc.lft.to/lastmile_qr_scan"}}, {"name": "32343b15bb9d91b293a4a26f0caabb0f", "lon": -77.05916533333334, "lat": 38.90099266666667, "type": "electric_scooter", "fusion_lon": 0.0, "is_reserved": 0, "bike_id": "32343b15bb9d91b293a4a26f0caabb0f", "fusion_lat": 0.0, "is_disabled": 0, "rental_uris": {"ios": "https://dc.lft.to/lastmile_qr_scan", "android": "https://dc.lft.to/lastmile_qr_scan"}}, {"name": "6042ff5403cc059cda345d085918425e", "lon": -77.04712566666667, "lat": 38.897423333333336, "type": "electric_scooter", "fusion_lon": 0.0, "is_reserved": 0, "bike_id": "6042ff5403cc059cda345d085918425e", "fusion_lat": 0.0, "is_disabled": 0, "rental_uris": {"ios": "https://dc.lft.to/lastmile_qr_scan", "android": "https://dc.lft.to/lastmile_qr_scan"}}, {"name": "14e509881aa2119b8877b24554bba08a", "lon": -77.01530466666667, "lat": 38.88736266666667, "type": "electric_scooter", "fusion_lon": 0.0, "is_reserved": 0, "bike_id": "14e509881aa2119b8877b24554bba08a", "fusion_lat": 0.0, "is_disabled": 0, "rental_uris": {"ios": "https://dc.lft.to/lastmile_qr_scan", "android": "https://dc.lft.to/lastmile_qr_scan"}}, {"name": "768f9a3e03b03447b4b6934b65ef2c09", "lon": -76.96598733333333, "lat": 38.873881, "type": "electric_scooter", "fusion_lon": 0.0, "is_reserved": 0, "bike_id": "768f9a3e03b03447b4b6934b65ef2c09", "fusion_lat": 0.0, "is_disabled": 0, "rental_uris": {"ios": "https://dc.lft.to/lastmile_qr_scan", "android": "https://dc.lft.to/lastmile_qr_scan"}}, {"name": "f94f2941a7dd976e3d4bb75b2263569b", "lon": -76.980859, "lat": 38.953499, "type": "electric_bike", "fusion_lon": 0.0, "is_reserved": 0, "bike_id": "f94f2941a7dd976e3d4bb75b2263569b", "fusion_lat": 0.0, "is_disabled": 0, "rental_uris": {"ios": "https://dc.lft.to/lastmile_qr_scan", "android": "https://dc.lft.to/lastmile_qr_scan"}}, {"name": "86c10562bc8e1ec8ed5808572e24b55b", "lon": -77.046945, "lat": 38.921713833333335, "type": "electric_scooter", "fusion_lon": 0.0, "is_reserved": 0, "bike_id": "86c10562bc8e1ec8ed5808572e24b55b", "fusion_lat": 0.0, "is_disabled": 0, "rental_uris": {"ios": "https://dc.lft.to/lastmile_qr_scan", "android": "https://dc.lft.to/lastmile_qr_scan"}}, {"name": "fab6944d0968ad6e7057b4b68a62dc1c", "lon": -77.0119575, "lat": 38.9170425, "type": "electric_scooter", "fusion_lon": 0.0, "is_reserved": 0, "bike_id": "fab6944d0968ad6e7057b4b68a62dc1c", "fusion_lat": 0.0, "is_disabled": 0, "rental_uris": {"ios": "https://dc.lft.to/lastmile_qr_scan", "android": "https://dc.lft.to/lastmile_qr_scan"}}, {"name": "9e9fa85eacaa4ad437c69b128cd88b45", "lon": -77.01743833333333, "lat": 38.88738333333333, "type": "electric_scooter", "fusion_lon": 0.0, "is_reserved": 0, "bike_id": "9e9fa85eacaa4ad437c69b128cd88b45", "fusion_lat": 0.0, "is_disabled": 0, "rental_uris": {"ios": "https://dc.lft.to/lastmile_qr_scan", "android": "https://dc.lft.to/lastmile_qr_scan"}}, {"name": "988f7b5d2a08e051a915136e823feead", "lon": -77.05135366666667, "lat": 38.904331166666665, "type": "electric_scooter", "fusion_lon": 0.0, "is_reserved": 0, "bike_id": "988f7b5d2a08e051a915136e823feead", "fusion_lat": 0.0, "is_disabled": 0, "rental_uris": {"ios": "https://dc.lft.to/lastmile_qr_scan", "android": "https://dc.lft.to/lastmile_qr_scan"}}, {"name": "6ab1c7b4edf70f2884f5b96f3d19df64", "lon": -76.96870083333333, "lat": 38.870922, "type": "electric_scooter", "fusion_lon": 0.0, "is_reserved": 0, "bike_id": "6ab1c7b4edf70f2884f5b96f3d19df64", "fusion_lat": 0.0, "is_disabled": 0, "rental_uris": {"ios": "https://dc.lft.to/lastmile_qr_scan", "android": "https://dc.lft.to/lastmile_qr_scan"}}, {"name": "f49f4b222b479127950d7cab06ab9662", "lon": -77.02686266666667, "lat": 38.927770333333335, "type": "electric_scooter", "fusion_lon": 0.0, "is_reserved": 0, "bike_id": "f49f4b222b479127950d7cab06ab9662", "fusion_lat": 0.0, "is_disabled": 0, "rental_uris": {"ios": "https://dc.lft.to/lastmile_qr_scan", "android": "https://dc.lft.to/lastmile_qr_scan"}}, {"name": "0817d5deba870010ff28186cebfaab73", "lon": -76.96006016666666, "lat": 38.89644783333333, "type": "electric_scooter", "fusion_lon": 0.0, "is_reserved": 0, "bike_id": "0817d5deba870010ff28186cebfaab73", "fusion_lat": 0.0, "is_disabled": 0, "rental_uris": {"ios": "https://dc.lft.to/lastmile_qr_scan", "android": "https://dc.lft.to/lastmile_qr_scan"}}, {"name": "4e32477abef9dff7bd41c5a968dd55da", "lon": -76.98966766666666, "lat": 38.865337, "type": "electric_scooter", "fusion_lon": 0.0, "is_reserved": 0, "bike_id": "4e32477abef9dff7bd41c5a968dd55da", "fusion_lat": 0.0, "is_disabled": 0, "rental_uris": {"ios": "https://dc.lft.to/lastmile_qr_scan", "android": "https://dc.lft.to/lastmile_qr_scan"}}, {"name": "719ba44b834693f1a6e3c92ef0a00fe5", "lon": -77.0343825, "lat": 38.91010166666667, "type": "electric_scooter", "fusion_lon": 0.0, "is_reserved": 0, "bike_id": "719ba44b834693f1a6e3c92ef0a00fe5", "fusion_lat": 0.0, "is_disabled": 0, "rental_uris": {"ios": "https://dc.lft.to/lastmile_qr_scan", "android": "https://dc.lft.to/lastmile_qr_scan"}}, {"name": "c6d5d1123cbbab3b42e1296c2c9ec227", "lon": -77.03843283333333, "lat": 38.92164833333333, "type": "electric_scooter", "fusion_lon": 0.0, "is_reserved": 0, "bike_id": "c6d5d1123cbbab3b42e1296c2c9ec227", "fusion_lat": 0.0, "is_disabled": 0, "rental_uris": {"ios": "https://dc.lft.to/lastmile_qr_scan", "android": "https://dc.lft.to/lastmile_qr_scan"}}, {"name": "588503436af255ad2ba8dfbab6649499", "lon": -77.03116683333333, "lat": 38.91689933333333, "type": "electric_scooter", "fusion_lon": 0.0, "is_reserved": 0, "bike_id": "588503436af255ad2ba8dfbab6649499", "fusion_lat": 0.0, "is_disabled": 0, "rental_uris": {"ios": "https://dc.lft.to/lastmile_qr_scan", "android": "https://dc.lft.to/lastmile_qr_scan"}}, {"name": "18c84226ec13d6e4a13f9cb7b9332cb8", "lon": -77.01143166666667, "lat": 38.906445833333336, "type": "electric_scooter", "fusion_lon": 0.0, "is_reserved": 0, "bike_id": "18c84226ec13d6e4a13f9cb7b9332cb8", "fusion_lat": 0.0, "is_disabled": 0, "rental_uris": {"ios": "https://dc.lft.to/lastmile_qr_scan", "android": "https://dc.lft.to/lastmile_qr_scan"}}, {"name": "cdc282c59357ee0ea750f3e38417da3c", "lon": -77.01187033333333, "lat": 38.90964, "type": "electric_scooter", "fusion_lon": 0.0, "is_reserved": 0, "bike_id": "cdc282c59357ee0ea750f3e38417da3c", "fusion_lat": 0.0, "is_disabled": 0, "rental_uris": {"ios": "https://dc.lft.to/lastmile_qr_scan", "android": "https://dc.lft.to/lastmile_qr_scan"}}, {"name": "bedf7c7826f6eaf860bdd88c8267ab6a", "lon": -76.99876366666666, "lat": 38.92054983333333, "type": "electric_scooter", "fusion_lon": 0.0, "is_reserved": 0, "bike_id": "bedf7c7826f6eaf860bdd88c8267ab6a", "fusion_lat": 0.0, "is_disabled": 0, "rental_uris": {"ios": "https://dc.lft.to/lastmile_qr_scan", "android": "https://dc.lft.to/lastmile_qr_scan"}}, {"name": "71d6740936a987da6dc295fde85676a9", "lon": -77.02318766666667, "lat": 38.93060666666667, "type": "electric_scooter", "fusion_lon": 0.0, "is_reserved": 0, "bike_id": "71d6740936a987da6dc295fde85676a9", "fusion_lat": 0.0, "is_disabled": 0, "rental_uris": {"ios": "https://dc.lft.to/lastmile_qr_scan", "android": "https://dc.lft.to/lastmile_qr_scan"}}, {"name": "bfe85ce24c2a253f20d19da5b6844aeb", "lon": -77.0141645, "lat": 38.927882833333335, "type": "electric_scooter", "fusion_lon": 0.0, "is_reserved": 0, "bike_id": "bfe85ce24c2a253f20d19da5b6844aeb", "fusion_lat": 0.0, "is_disabled": 0, "rental_uris": {"ios": "https://dc.lft.to/lastmile_qr_scan", "android": "https://dc.lft.to/lastmile_qr_scan"}}, {"name": "ad3924253b36c0820e8c797eb8f73483", "lon": -77.037301, "lat": 38.93567916666667, "type": "electric_scooter", "fusion_lon": 0.0, "is_reserved": 0, "bike_id": "ad3924253b36c0820e8c797eb8f73483", "fusion_lat": 0.0, "is_disabled": 0, "rental_uris": {"ios": "https://dc.lft.to/lastmile_qr_scan", "android": "https://dc.lft.to/lastmile_qr_scan"}}, {"name": "afb882bc1901c2709cc3e06d902daeb6", "lon": -77.0591055, "lat": 38.90310816666667, "type": "electric_scooter", "fusion_lon": 0.0, "is_reserved": 0, "bike_id": "afb882bc1901c2709cc3e06d902daeb6", "fusion_lat": 0.0, "is_disabled": 0, "rental_uris": {"ios": "https://dc.lft.to/lastmile_qr_scan", "android": "https://dc.lft.to/lastmile_qr_scan"}}, {"name": "a5792690cf2711ff0c4d088284f9098f", "lon": -77.01817633333333, "lat": 38.92209533333333, "type": "electric_scooter", "fusion_lon": 0.0, "is_reserved": 0, "bike_id": "a5792690cf2711ff0c4d088284f9098f", "fusion_lat": 0.0, "is_disabled": 0, "rental_uris": {"ios": "https://dc.lft.to/lastmile_qr_scan", "android": "https://dc.lft.to/lastmile_qr_scan"}}, {"name": "63707854c9b67b3bf69a04749b1b94ce", "lon": -77.02937516666667, "lat": 38.90742816666667, "type": "electric_scooter", "fusion_lon": 0.0, "is_reserved": 0, "bike_id": "63707854c9b67b3bf69a04749b1b94ce", "fusion_lat": 0.0, "is_disabled": 0, "rental_uris": {"ios": "https://dc.lft.to/lastmile_qr_scan", "android": "https://dc.lft.to/lastmile_qr_scan"}}, {"name": "0a6e525bbbfbcd1d566af8f6a32d32c5", "lon": -77.208241, "lat": 38.92456466666667, "type": "electric_bike", "fusion_lon": 0.0, "is_reserved": 0, "bike_id": "0a6e525bbbfbcd1d566af8f6a32d32c5", "fusion_lat": 0.0, "is_disabled": 0, "rental_uris": {"ios": "https://dc.lft.to/lastmile_qr_scan", "android": "https://dc.lft.to/lastmile_qr_scan"}}, {"name": "52aab8e59babb8820a21f635b173fdc2", "lon": -77.02438983333333, "lat": 38.924935166666664, "type": "electric_scooter", "fusion_lon": 0.0, "is_reserved": 0, "bike_id": "52aab8e59babb8820a21f635b173fdc2", "fusion_lat": 0.0, "is_disabled": 0, "rental_uris": {"ios": "https://dc.lft.to/lastmile_qr_scan", "android": "https://dc.lft.to/lastmile_qr_scan"}}, {"name": "7660ed6e70aaca5a4df4fd8af1d17c40", "lon": -77.05647333333333, "lat": 38.90765316666667, "type": "electric_scooter", "fusion_lon": 0.0, "is_reserved": 0, "bike_id": "7660ed6e70aaca5a4df4fd8af1d17c40", "fusion_lat": 0.0, "is_disabled": 0, "rental_uris": {"ios": "https://dc.lft.to/lastmile_qr_scan", "android": "https://dc.lft.to/lastmile_qr_scan"}}, {"name": "28a656b0471227a1fb903b2f1552f65e", "lon": -77.1248265, "lat": 38.827850833333336, "type": "electric_bike", "fusion_lon": 0.0, "is_reserved": 0, "bike_id": "28a656b0471227a1fb903b2f1552f65e", "fusion_lat": 0.0, "is_disabled": 0, "rental_uris": {"ios": "https://dc.lft.to/lastmile_qr_scan", "android": "https://dc.lft.to/lastmile_qr_scan"}}, {"name": "78fa21c1b580324f110239d65ccbaf65", "lon": -76.98998616666667, "lat": 38.86421383333333, "type": "electric_scooter", "fusion_lon": 0.0, "is_reserved": 0, "bike_id": "78fa21c1b580324f110239d65ccbaf65", "fusion_lat": 0.0, "is_disabled": 0, "rental_uris": {"ios": "https://dc.lft.to/lastmile_qr_scan", "android": "https://dc.lft.to/lastmile_qr_scan"}}, {"name": "9879becc65554b2a3bbd6d6bd5c3ddeb", "lon": -76.97242033333333, "lat": 38.85455916666667, "type": "electric_bike", "fusion_lon": 0.0, "is_reserved": 0, "bike_id": "9879becc65554b2a3bbd6d6bd5c3ddeb", "fusion_lat": 0.0, "is_disabled": 0, "rental_uris": {"ios": "https://dc.lft.to/lastmile_qr_scan", "android": "https://dc.lft.to/lastmile_qr_scan"}}, {"name": "b12def2a2464de97f31e7336c87a609a", "lon": -77.01300816666667, "lat": 38.930133, "type": "electric_scooter", "fusion_lon": 0.0, "is_reserved": 0, "bike_id": "b12def2a2464de97f31e7336c87a609a", "fusion_lat": 0.0, "is_disabled": 0, "rental_uris": {"ios": "https://dc.lft.to/lastmile_qr_scan", "android": "https://dc.lft.to/lastmile_qr_scan"}}, {"name": "c2b00f879cc9242be3a64cf72d4643cd", "lon": -77.0254915, "lat": 38.942239, "type": "electric_scooter", "fusion_lon": 0.0, "is_reserved": 0, "bike_id": "c2b00f879cc9242be3a64cf72d4643cd", "fusion_lat": 0.0, "is_disabled": 0, "rental_uris": {"ios": "https://dc.lft.to/lastmile_qr_scan", "android": "https://dc.lft.to/lastmile_qr_scan"}}, {"name": "cdadafee3bb32752ee0c2e11b5b3810d", "lon": -77.03518133333333, "lat": 38.92152883333333, "type": "electric_scooter", "fusion_lon": 0.0, "is_reserved": 0, "bike_id": "cdadafee3bb32752ee0c2e11b5b3810d", "fusion_lat": 0.0, "is_disabled": 0, "rental_uris": {"ios": "https://dc.lft.to/lastmile_qr_scan", "android": "https://dc.lft.to/lastmile_qr_scan"}}, {"name": "4f77037db1d30136aa25e0c144158ca7", "lon": -77.022853, "lat": 38.9168105, "type": "electric_scooter", "fusion_lon": 0.0, "is_reserved": 0, "bike_id": "4f77037db1d30136aa25e0c144158ca7", "fusion_lat": 0.0, "is_disabled": 0, "rental_uris": {"ios": "https://dc.lft.to/lastmile_qr_scan", "android": "https://dc.lft.to/lastmile_qr_scan"}}, {"name": "69ebd2fc485bdd71e151976122ada941", "lon": -77.0292, "lat": 38.92099, "type": "electric_bike", "fusion_lon": 0.0, "is_reserved": 0, "bike_id": "69ebd2fc485bdd71e151976122ada941", "fusion_lat": 0.0, "is_disabled": 0, "rental_uris": {"ios": "https://dc.lft.to/lastmile_qr_scan", "android": "https://dc.lft.to/lastmile_qr_scan"}}, {"name": "b30975d348bc85f943288eafb2e74ff2", "lon": -77.05324183333333, "lat": 38.92796083333333, "type": "electric_scooter", "fusion_lon": 0.0, "is_reserved": 0, "bike_id": "b30975d348bc85f943288eafb2e74ff2", "fusion_lat": 0.0, "is_disabled": 0, "rental_uris": {"ios": "https://dc.lft.to/lastmile_qr_scan", "android": "https://dc.lft.to/lastmile_qr_scan"}}, {"name": "23fc70db60ca778888bb910f82eaca8e", "lon": -77.00775066666667, "lat": 38.9266885, "type": "electric_scooter", "fusion_lon": 0.0, "is_reserved": 0, "bike_id": "23fc70db60ca778888bb910f82eaca8e", "fusion_lat": 0.0, "is_disabled": 0, "rental_uris": {"ios": "https://dc.lft.to/lastmile_qr_scan", "android": "https://dc.lft.to/lastmile_qr_scan"}}, {"name": "f1a18f4be962ac68a741b1c0f35dc53a", "lon": -77.03160833333334, "lat": 38.9118965, "type": "electric_scooter", "fusion_lon": 0.0, "is_reserved": 0, "bike_id": "f1a18f4be962ac68a741b1c0f35dc53a", "fusion_lat": 0.0, "is_disabled": 0, "rental_uris": {"ios": "https://dc.lft.to/lastmile_qr_scan", "android": "https://dc.lft.to/lastmile_qr_scan"}}, {"name": "d4143c727478ef8ac5813087495de50f", "lon": -77.03217716666667, "lat": 38.936159833333335, "type": "electric_scooter", "fusion_lon": 0.0, "is_reserved": 0, "bike_id": "d4143c727478ef8ac5813087495de50f", "fusion_lat": 0.0, "is_disabled": 0, "rental_uris": {"ios": "https://dc.lft.to/lastmile_qr_scan", "android": "https://dc.lft.to/lastmile_qr_scan"}}, {"name": "4b35d74e50b2d6e2b4f163b8f7ca57fd", "lon": -77.01304033333334, "lat": 38.92998433333333, "type": "electric_scooter", "fusion_lon": 0.0, "is_reserved": 0, "bike_id": "4b35d74e50b2d6e2b4f163b8f7ca57fd", "fusion_lat": 0.0, "is_disabled": 0, "rental_uris": {"ios": "https://dc.lft.to/lastmile_qr_scan", "android": "https://dc.lft.to/lastmile_qr_scan"}}, {"name": "e711129ed4a0b28217aa5547410646ec", "lon": -77.02160433333333, "lat": 38.92611183333333, "type": "electric_scooter", "fusion_lon": 0.0, "is_reserved": 0, "bike_id": "e711129ed4a0b28217aa5547410646ec", "fusion_lat": 0.0, "is_disabled": 0, "rental_uris": {"ios": "https://dc.lft.to/lastmile_qr_scan", "android": "https://dc.lft.to/lastmile_qr_scan"}}, {"name": "f30712c8ca83bf657d09c622a500e8ed", "lon": -76.95015533333333, "lat": 38.89387266666667, "type": "electric_scooter", "fusion_lon": 0.0, "is_reserved": 0, "bike_id": "f30712c8ca83bf657d09c622a500e8ed", "fusion_lat": 0.0, "is_disabled": 0, "rental_uris": {"ios": "https://dc.lft.to/lastmile_qr_scan", "android": "https://dc.lft.to/lastmile_qr_scan"}}, {"name": "dee7aee27b97766372da8ec2b42c966f", "lon": -77.03572616666666, "lat": 38.927950333333335, "type": "electric_scooter", "fusion_lon": 0.0, "is_reserved": 0, "bike_id": "dee7aee27b97766372da8ec2b42c966f", "fusion_lat": 0.0, "is_disabled": 0, "rental_uris": {"ios": "https://dc.lft.to/lastmile_qr_scan", "android": "https://dc.lft.to/lastmile_qr_scan"}}, {"name": "951a5b53e795efeb1eb770e52f2f897a", "lon": -77.03472283333333, "lat": 38.92059833333333, "type": "electric_scooter", "fusion_lon": 0.0, "is_reserved": 0, "bike_id": "951a5b53e795efeb1eb770e52f2f897a", "fusion_lat": 0.0, "is_disabled": 0, "rental_uris": {"ios": "https://dc.lft.to/lastmile_qr_scan", "android": "https://dc.lft.to/lastmile_qr_scan"}}, {"name": "f44328ef60590fe699e05f7dbca79bd6", "lon": -77.0271825, "lat": 38.92457, "type": "electric_scooter", "fusion_lon": 0.0, "is_reserved": 0, "bike_id": "f44328ef60590fe699e05f7dbca79bd6", "fusion_lat": 0.0, "is_disabled": 0, "rental_uris": {"ios": "https://dc.lft.to/lastmile_qr_scan", "android": "https://dc.lft.to/lastmile_qr_scan"}}, {"name": "148a972087cf35e5305dc65d098827b3", "lon": -76.988211, "lat": 38.900324166666664, "type": "electric_scooter", "fusion_lon": 0.0, "is_reserved": 0, "bike_id": "148a972087cf35e5305dc65d098827b3", "fusion_lat": 0.0, "is_disabled": 0, "rental_uris": {"ios": "https://dc.lft.to/lastmile_qr_scan", "android": "https://dc.lft.to/lastmile_qr_scan"}}, {"name": "a4af1afa1d1fe7f1e75e5bb9f508bae3", "lon": -77.016629, "lat": 38.88111466666667, "type": "electric_scooter", "fusion_lon": 0.0, "is_reserved": 0, "bike_id": "a4af1afa1d1fe7f1e75e5bb9f508bae3", "fusion_lat": 0.0, "is_disabled": 0, "rental_uris": {"ios": "https://dc.lft.to/lastmile_qr_scan", "android": "https://dc.lft.to/lastmile_qr_scan"}}, {"name": "7722937018335d27f8bf98ac70763b91", "lon": -77.02718766666666, "lat": 38.94085033333333, "type": "electric_scooter", "fusion_lon": 0.0, "is_reserved": 0, "bike_id": "7722937018335d27f8bf98ac70763b91", "fusion_lat": 0.0, "is_disabled": 0, "rental_uris": {"ios": "https://dc.lft.to/lastmile_qr_scan", "android": "https://dc.lft.to/lastmile_qr_scan"}}, {"name": "66b69232d9745697f8d833cc5b03dc1b", "lon": -77.03268433333334, "lat": 38.928393, "type": "electric_scooter", "fusion_lon": 0.0, "is_reserved": 0, "bike_id": "66b69232d9745697f8d833cc5b03dc1b", "fusion_lat": 0.0, "is_disabled": 0, "rental_uris": {"ios": "https://dc.lft.to/lastmile_qr_scan", "android": "https://dc.lft.to/lastmile_qr_scan"}}, {"name": "b4da09cf6b75284d4907d2d6d9e22e43", "lon": -77.04997533333334, "lat": 38.892290333333335, "type": "electric_scooter", "fusion_lon": 0.0, "is_reserved": 0, "bike_id": "b4da09cf6b75284d4907d2d6d9e22e43", "fusion_lat": 0.0, "is_disabled": 0, "rental_uris": {"ios": "https://dc.lft.to/lastmile_qr_scan", "android": "https://dc.lft.to/lastmile_qr_scan"}}, {"name": "f737374f9fb98a66da0de45eb4b731cb", "lon": -77.10088133333333, "lat": 38.95956016666667, "type": "electric_bike", "fusion_lon": 0.0, "is_reserved": 0, "bike_id": "f737374f9fb98a66da0de45eb4b731cb", "fusion_lat": 0.0, "is_disabled": 0, "rental_uris": {"ios": "https://dc.lft.to/lastmile_qr_scan", "android": "https://dc.lft.to/lastmile_qr_scan"}}, {"name": "a88cb1c61bf399b5753cd54558a319a3", "lon": -77.03785916666666, "lat": 38.9247895, "type": "electric_scooter", "fusion_lon": 0.0, "is_reserved": 0, "bike_id": "a88cb1c61bf399b5753cd54558a319a3", "fusion_lat": 0.0, "is_disabled": 0, "rental_uris": {"ios": "https://dc.lft.to/lastmile_qr_scan", "android": "https://dc.lft.to/lastmile_qr_scan"}}, {"name": "f0f36b9c6b38254e9430707670f63374", "lon": -77.03406716666667, "lat": 38.92039616666667, "type": "electric_scooter", "fusion_lon": 0.0, "is_reserved": 0, "bike_id": "f0f36b9c6b38254e9430707670f63374", "fusion_lat": 0.0, "is_disabled": 0, "rental_uris": {"ios": "https://dc.lft.to/lastmile_qr_scan", "android": "https://dc.lft.to/lastmile_qr_scan"}}, {"name": "4ec57b7a560f3bf04c7f0015ac44844b", "lon": -77.03943633333333, "lat": 38.9141235, "type": "electric_scooter", "fusion_lon": 0.0, "is_reserved": 0, "bike_id": "4ec57b7a560f3bf04c7f0015ac44844b", "fusion_lat": 0.0, "is_disabled": 0, "rental_uris": {"ios": "https://dc.lft.to/lastmile_qr_scan", "android": "https://dc.lft.to/lastmile_qr_scan"}}, {"name": "981c0d6856f0db95df54c0a34f97d4c3", "lon": -77.0310195, "lat": 38.950718, "type": "electric_scooter", "fusion_lon": 0.0, "is_reserved": 0, "bike_id": "981c0d6856f0db95df54c0a34f97d4c3", "fusion_lat": 0.0, "is_disabled": 0, "rental_uris": {"ios": "https://dc.lft.to/lastmile_qr_scan", "android": "https://dc.lft.to/lastmile_qr_scan"}}, {"name": "e53295e45d768e5087176a518134eba1", "lon": -77.045217, "lat": 38.934585, "type": "electric_bike", "fusion_lon": 0.0, "is_reserved": 0, "bike_id": "e53295e45d768e5087176a518134eba1", "fusion_lat": 0.0, "is_disabled": 0, "rental_uris": {"ios": "https://dc.lft.to/lastmile_qr_scan", "android": "https://dc.lft.to/lastmile_qr_scan"}}, {"name": "099bf3d0c632bd40b33bb2e82dda847b", "lon": -76.96907916666666, "lat": 38.84611816666666, "type": "electric_bike", "fusion_lon": 0.0, "is_reserved": 0, "bike_id": "099bf3d0c632bd40b33bb2e82dda847b", "fusion_lat": 0.0, "is_disabled": 0, "rental_uris": {"ios": "https://dc.lft.to/lastmile_qr_scan", "android": "https://dc.lft.to/lastmile_qr_scan"}}, {"name": "8fb92658dea832c626d27807e62f6283", "lon": -77.0839675, "lat": 38.90802083333333, "type": "electric_scooter", "fusion_lon": 0.0, "is_reserved": 0, "bike_id": "8fb92658dea832c626d27807e62f6283", "fusion_lat": 0.0, "is_disabled": 0, "rental_uris": {"ios": "https://dc.lft.to/lastmile_qr_scan", "android": "https://dc.lft.to/lastmile_qr_scan"}}, {"name": "f0952842fbcabe6d4e1de337e97af4f2", "lon": -76.9977445, "lat": 38.86208416666667, "type": "electric_bike", "fusion_lon": 0.0, "is_reserved": 0, "bike_id": "f0952842fbcabe6d4e1de337e97af4f2", "fusion_lat": 0.0, "is_disabled": 0, "rental_uris": {"ios": "https://dc.lft.to/lastmile_qr_scan", "android": "https://dc.lft.to/lastmile_qr_scan"}}, {"name": "b50f5d5be7f137769df4aa9e7355b45d", "lon": -77.04484833333333, "lat": 38.842906666666664, "type": "electric_bike", "fusion_lon": 0.0, "is_reserved": 0, "bike_id": "b50f5d5be7f137769df4aa9e7355b45d", "fusion_lat": 0.0, "is_disabled": 0, "rental_uris": {"ios": "https://dc.lft.to/lastmile_qr_scan", "android": "https://dc.lft.to/lastmile_qr_scan"}}, {"name": "a1b921216e690aff51acb472e1557818", "lon": -77.03429666666666, "lat": 38.90594866666667, "type": "electric_scooter", "fusion_lon": 0.0, "is_reserved": 0, "bike_id": "a1b921216e690aff51acb472e1557818", "fusion_lat": 0.0, "is_disabled": 0, "rental_uris": {"ios": "https://dc.lft.to/lastmile_qr_scan", "android": "https://dc.lft.to/lastmile_qr_scan"}}, {"name": "ba61b62551f9b2beb721a219d779f712", "lon": -77.07261183333334, "lat": 38.93342666666667, "type": "electric_bike", "fusion_lon": 0.0, "is_reserved": 0, "bike_id": "ba61b62551f9b2beb721a219d779f712", "fusion_lat": 0.0, "is_disabled": 0, "rental_uris": {"ios": "https://dc.lft.to/lastmile_qr_scan", "android": "https://dc.lft.to/lastmile_qr_scan"}}, {"name": "f4b66bb9ab2cdf53481274e9fa8259fc", "lon": -76.94932066666667, "lat": 38.893442666666665, "type": "electric_scooter", "fusion_lon": 0.0, "is_reserved": 0, "bike_id": "f4b66bb9ab2cdf53481274e9fa8259fc", "fusion_lat": 0.0, "is_disabled": 0, "rental_uris": {"ios": "https://dc.lft.to/lastmile_qr_scan", "android": "https://dc.lft.to/lastmile_qr_scan"}}, {"name": "686cf265e60be0f514854dcd0fa8dd38", "lon": -77.04500233333333, "lat": 38.911925833333335, "type": "electric_scooter", "fusion_lon": 0.0, "is_reserved": 0, "bike_id": "686cf265e60be0f514854dcd0fa8dd38", "fusion_lat": 0.0, "is_disabled": 0, "rental_uris": {"ios": "https://dc.lft.to/lastmile_qr_scan", "android": "https://dc.lft.to/lastmile_qr_scan"}}, {"name": "77d051af9420c03a778a9f924f909ea6", "lon": -77.00558816666667, "lat": 38.87894516666667, "type": "electric_scooter", "fusion_lon": 0.0, "is_reserved": 0, "bike_id": "77d051af9420c03a778a9f924f909ea6", "fusion_lat": 0.0, "is_disabled": 0, "rental_uris": {"ios": "https://dc.lft.to/lastmile_qr_scan", "android": "https://dc.lft.to/lastmile_qr_scan"}}, {"name": "af7cf62d549676ac4558008a5b754559", "lon": -76.9983685, "lat": 38.884695666666666, "type": "electric_scooter", "fusion_lon": 0.0, "is_reserved": 0, "bike_id": "af7cf62d549676ac4558008a5b754559", "fusion_lat": 0.0, "is_disabled": 0, "rental_uris": {"ios": "https://dc.lft.to/lastmile_qr_scan", "android": "https://dc.lft.to/lastmile_qr_scan"}}, {"name": "4c4947f34f864aa71e5c327a49ff6668", "lon": -77.04286016666667, "lat": 38.908585, "type": "electric_scooter", "fusion_lon": 0.0, "is_reserved": 0, "bike_id": "4c4947f34f864aa71e5c327a49ff6668", "fusion_lat": 0.0, "is_disabled": 0, "rental_uris": {"ios": "https://dc.lft.to/lastmile_qr_scan", "android": "https://dc.lft.to/lastmile_qr_scan"}}, {"name": "ce6a83297d381f023b83371755f2966b", "lon": -77.047633, "lat": 38.90063833333333, "type": "electric_scooter", "fusion_lon": 0.0, "is_reserved": 0, "bike_id": "ce6a83297d381f023b83371755f2966b", "fusion_lat": 0.0, "is_disabled": 0, "rental_uris": {"ios": "https://dc.lft.to/lastmile_qr_scan", "android": "https://dc.lft.to/lastmile_qr_scan"}}, {"name": "2d136a3b476bb83b96558f8487989d4e", "lon": -77.02687583333334, "lat": 38.90967716666667, "type": "electric_scooter", "fusion_lon": 0.0, "is_reserved": 0, "bike_id": "2d136a3b476bb83b96558f8487989d4e", "fusion_lat": 0.0, "is_disabled": 0, "rental_uris": {"ios": "https://dc.lft.to/lastmile_qr_scan", "android": "https://dc.lft.to/lastmile_qr_scan"}}, {"name": "77423fed5ce8174686bac5617bc2ec78", "lon": -77.0209165, "lat": 38.93714266666667, "type": "electric_bike", "fusion_lon": 0.0, "is_reserved": 0, "bike_id": "77423fed5ce8174686bac5617bc2ec78", "fusion_lat": 0.0, "is_disabled": 0, "rental_uris": {"ios": "https://dc.lft.to/lastmile_qr_scan", "android": "https://dc.lft.to/lastmile_qr_scan"}}, {"name": "2806837391e82c866bc0035b4e208d0a", "lon": -77.02708616666666, "lat": 38.9047705, "type": "electric_scooter", "fusion_lon": 0.0, "is_reserved": 0, "bike_id": "2806837391e82c866bc0035b4e208d0a", "fusion_lat": 0.0, "is_disabled": 0, "rental_uris": {"ios": "https://dc.lft.to/lastmile_qr_scan", "android": "https://dc.lft.to/lastmile_qr_scan"}}, {"name": "938e09f150be76b5e82ca008b0495425", "lon": -77.034657, "lat": 38.922530333333334, "type": "electric_scooter", "fusion_lon": 0.0, "is_reserved": 0, "bike_id": "938e09f150be76b5e82ca008b0495425", "fusion_lat": 0.0, "is_disabled": 0, "rental_uris": {"ios": "https://dc.lft.to/lastmile_qr_scan", "android": "https://dc.lft.to/lastmile_qr_scan"}}, {"name": "961d4f345c80e1bcbbf2572e9267aa44", "lon": -77.00962233333334, "lat": 38.91407266666667, "type": "electric_scooter", "fusion_lon": 0.0, "is_reserved": 0, "bike_id": "961d4f345c80e1bcbbf2572e9267aa44", "fusion_lat": 0.0, "is_disabled": 0, "rental_uris": {"ios": "https://dc.lft.to/lastmile_qr_scan", "android": "https://dc.lft.to/lastmile_qr_scan"}}, {"name": "7819ac247ca113b26bbfbe3bddb412b6", "lon": -76.93753316666667, "lat": 38.89048066666667, "type": "electric_scooter", "fusion_lon": 0.0, "is_reserved": 0, "bike_id": "7819ac247ca113b26bbfbe3bddb412b6", "fusion_lat": 0.0, "is_disabled": 0, "rental_uris": {"ios": "https://dc.lft.to/lastmile_qr_scan", "android": "https://dc.lft.to/lastmile_qr_scan"}}, {"name": "204871dd467ef2c0e3cd5d79c05c1263", "lon": -77.026907, "lat": 38.90664483333333, "type": "electric_scooter", "fusion_lon": 0.0, "is_reserved": 0, "bike_id": "204871dd467ef2c0e3cd5d79c05c1263", "fusion_lat": 0.0, "is_disabled": 0, "rental_uris": {"ios": "https://dc.lft.to/lastmile_qr_scan", "android": "https://dc.lft.to/lastmile_qr_scan"}}, {"name": "f1da4798b2ea782434c525e16e64eaf1", "lon": -77.02198933333334, "lat": 38.8985715, "type": "electric_scooter", "fusion_lon": 0.0, "is_reserved": 0, "bike_id": "f1da4798b2ea782434c525e16e64eaf1", "fusion_lat": 0.0, "is_disabled": 0, "rental_uris": {"ios": "https://dc.lft.to/lastmile_qr_scan", "android": "https://dc.lft.to/lastmile_qr_scan"}}, {"name": "ab93eb4adf6a79a998d8a3e365f80592", "lon": -77.02843116666666, "lat": 38.9341505, "type": "electric_scooter", "fusion_lon": 0.0, "is_reserved": 0, "bike_id": "ab93eb4adf6a79a998d8a3e365f80592", "fusion_lat": 0.0, "is_disabled": 0, "rental_uris": {"ios": "https://dc.lft.to/lastmile_qr_scan", "android": "https://dc.lft.to/lastmile_qr_scan"}}, {"name": "32d0265bdf3b7e8f0469dfccf923b5c6", "lon": -77.06010633333334, "lat": 38.904376166666665, "type": "electric_scooter", "fusion_lon": 0.0, "is_reserved": 0, "bike_id": "32d0265bdf3b7e8f0469dfccf923b5c6", "fusion_lat": 0.0, "is_disabled": 0, "rental_uris": {"ios": "https://dc.lft.to/lastmile_qr_scan", "android": "https://dc.lft.to/lastmile_qr_scan"}}, {"name": "65f65da5ccac9ae997eb80773fa0dd7b", "lon": -77.05298, "lat": 38.9278545, "type": "electric_scooter", "fusion_lon": 0.0, "is_reserved": 0, "bike_id": "65f65da5ccac9ae997eb80773fa0dd7b", "fusion_lat": 0.0, "is_disabled": 0, "rental_uris": {"ios": "https://dc.lft.to/lastmile_qr_scan", "android": "https://dc.lft.to/lastmile_qr_scan"}}, {"name": "401866b46a07a66fe3651c1b6c621792", "lon": -76.9806165, "lat": 38.901679, "type": "electric_scooter", "fusion_lon": 0.0, "is_reserved": 0, "bike_id": "401866b46a07a66fe3651c1b6c621792", "fusion_lat": 0.0, "is_disabled": 0, "rental_uris": {"ios": "https://dc.lft.to/lastmile_qr_scan", "android": "https://dc.lft.to/lastmile_qr_scan"}}, {"name": "f6bc91baa21eea1c897f3f217165dff2", "lon": -77.05878833333334, "lat": 38.918191, "type": "electric_scooter", "fusion_lon": 0.0, "is_reserved": 0, "bike_id": "f6bc91baa21eea1c897f3f217165dff2", "fusion_lat": 0.0, "is_disabled": 0, "rental_uris": {"ios": "https://dc.lft.to/lastmile_qr_scan", "android": "https://dc.lft.to/lastmile_qr_scan"}}, {"name": "fa13866917a7bfa93208609b4e675778", "lon": -76.93344316666666, "lat": 38.888140666666665, "type": "electric_scooter", "fusion_lon": 0.0, "is_reserved": 0, "bike_id": "fa13866917a7bfa93208609b4e675778", "fusion_lat": 0.0, "is_disabled": 0, "rental_uris": {"ios": "https://dc.lft.to/lastmile_qr_scan", "android": "https://dc.lft.to/lastmile_qr_scan"}}, {"name": "eabecfbc2a318b29969dc1dee54df60c", "lon": -77.03235966666666, "lat": 38.91551066666667, "type": "electric_scooter", "fusion_lon": 0.0, "is_reserved": 0, "bike_id": "eabecfbc2a318b29969dc1dee54df60c", "fusion_lat": 0.0, "is_disabled": 0, "rental_uris": {"ios": "https://dc.lft.to/lastmile_qr_scan", "android": "https://dc.lft.to/lastmile_qr_scan"}}, {"name": "5628e7320357dbefe6c61ff11bc74eed", "lon": -76.98390066666667, "lat": 38.86697233333334, "type": "electric_scooter", "fusion_lon": 0.0, "is_reserved": 0, "bike_id": "5628e7320357dbefe6c61ff11bc74eed", "fusion_lat": 0.0, "is_disabled": 0, "rental_uris": {"ios": "https://dc.lft.to/lastmile_qr_scan", "android": "https://dc.lft.to/lastmile_qr_scan"}}, {"name": "8921032ed8e0770170e026873bc17670", "lon": -77.05007016666667, "lat": 38.8923055, "type": "electric_scooter", "fusion_lon": 0.0, "is_reserved": 0, "bike_id": "8921032ed8e0770170e026873bc17670", "fusion_lat": 0.0, "is_disabled": 0, "rental_uris": {"ios": "https://dc.lft.to/lastmile_qr_scan", "android": "https://dc.lft.to/lastmile_qr_scan"}}, {"name": "3c507375f53010540806f1c64c039da0", "lon": -77.02208316666666, "lat": 38.90565133333333, "type": "electric_scooter", "fusion_lon": 0.0, "is_reserved": 0, "bike_id": "3c507375f53010540806f1c64c039da0", "fusion_lat": 0.0, "is_disabled": 0, "rental_uris": {"ios": "https://dc.lft.to/lastmile_qr_scan", "android": "https://dc.lft.to/lastmile_qr_scan"}}, {"name": "48e61b0e07e48253542653770fa475e9", "lon": -77.0123565, "lat": 38.915457, "type": "electric_scooter", "fusion_lon": 0.0, "is_reserved": 0, "bike_id": "48e61b0e07e48253542653770fa475e9", "fusion_lat": 0.0, "is_disabled": 0, "rental_uris": {"ios": "https://dc.lft.to/lastmile_qr_scan", "android": "https://dc.lft.to/lastmile_qr_scan"}}, {"name": "b793316ae7b926337b15b206765f64fc", "lon": -77.04338866666667, "lat": 38.904865666666666, "type": "electric_scooter", "fusion_lon": 0.0, "is_reserved": 0, "bike_id": "b793316ae7b926337b15b206765f64fc", "fusion_lat": 0.0, "is_disabled": 0, "rental_uris": {"ios": "https://dc.lft.to/lastmile_qr_scan", "android": "https://dc.lft.to/lastmile_qr_scan"}}, {"name": "7bf05528ca5af76d9de82e540fd69a93", "lon": -77.0236505, "lat": 38.90219, "type": "electric_scooter", "fusion_lon": 0.0, "is_reserved": 0, "bike_id": "7bf05528ca5af76d9de82e540fd69a93", "fusion_lat": 0.0, "is_disabled": 0, "rental_uris": {"ios": "https://dc.lft.to/lastmile_qr_scan", "android": "https://dc.lft.to/lastmile_qr_scan"}}, {"name": "008a0d109323a248e028fccda554f804", "lon": -77.02679116666667, "lat": 38.8962165, "type": "electric_scooter", "fusion_lon": 0.0, "is_reserved": 0, "bike_id": "008a0d109323a248e028fccda554f804", "fusion_lat": 0.0, "is_disabled": 0, "rental_uris": {"ios": "https://dc.lft.to/lastmile_qr_scan", "android": "https://dc.lft.to/lastmile_qr_scan"}}, {"name": "4a702b15f0e7d2932ceed89674b20d51", "lon": -76.9906475, "lat": 38.90417933333333, "type": "electric_scooter", "fusion_lon": 0.0, "is_reserved": 0, "bike_id": "4a702b15f0e7d2932ceed89674b20d51", "fusion_lat": 0.0, "is_disabled": 0, "rental_uris": {"ios": "https://dc.lft.to/lastmile_qr_scan", "android": "https://dc.lft.to/lastmile_qr_scan"}}, {"name": "6f68cc6df1b60c41cf52fcc52d3893c5", "lon": -77.02528216666667, "lat": 38.90957916666667, "type": "electric_scooter", "fusion_lon": 0.0, "is_reserved": 0, "bike_id": "6f68cc6df1b60c41cf52fcc52d3893c5", "fusion_lat": 0.0, "is_disabled": 0, "rental_uris": {"ios": "https://dc.lft.to/lastmile_qr_scan", "android": "https://dc.lft.to/lastmile_qr_scan"}}, {"name": "eedebcd7a913d16e0dea002a37f50d8b", "lon": -76.99353583333334, "lat": 38.8450405, "type": "electric_bike", "fusion_lon": 0.0, "is_reserved": 0, "bike_id": "eedebcd7a913d16e0dea002a37f50d8b", "fusion_lat": 0.0, "is_disabled": 0, "rental_uris": {"ios": "https://dc.lft.to/lastmile_qr_scan", "android": "https://dc.lft.to/lastmile_qr_scan"}}, {"name": "888f40edc76d45bfd119a09ec47403c0", "lon": -76.99833, "lat": 38.88319383333334, "type": "electric_scooter", "fusion_lon": 0.0, "is_reserved": 0, "bike_id": "888f40edc76d45bfd119a09ec47403c0", "fusion_lat": 0.0, "is_disabled": 0, "rental_uris": {"ios": "https://dc.lft.to/lastmile_qr_scan", "android": "https://dc.lft.to/lastmile_qr_scan"}}, {"name": "114f69cf143933309aa0f4ab57d8ad23", "lon": -77.030661, "lat": 38.92727133333333, "type": "electric_scooter", "fusion_lon": 0.0, "is_reserved": 0, "bike_id": "114f69cf143933309aa0f4ab57d8ad23", "fusion_lat": 0.0, "is_disabled": 0, "rental_uris": {"ios": "https://dc.lft.to/lastmile_qr_scan", "android": "https://dc.lft.to/lastmile_qr_scan"}}, {"name": "7fadc40596df5f1f696a95f79fa15f5b", "lon": -77.03180516666667, "lat": 38.9177255, "type": "electric_scooter", "fusion_lon": 0.0, "is_reserved": 0, "bike_id": "7fadc40596df5f1f696a95f79fa15f5b", "fusion_lat": 0.0, "is_disabled": 0, "rental_uris": {"ios": "https://dc.lft.to/lastmile_qr_scan", "android": "https://dc.lft.to/lastmile_qr_scan"}}, {"name": "c55c23384abd8a7fddb504013bbc113e", "lon": -77.04985283333333, "lat": 38.90117266666667, "type": "electric_scooter", "fusion_lon": 0.0, "is_reserved": 0, "bike_id": "c55c23384abd8a7fddb504013bbc113e", "fusion_lat": 0.0, "is_disabled": 0, "rental_uris": {"ios": "https://dc.lft.to/lastmile_qr_scan", "android": "https://dc.lft.to/lastmile_qr_scan"}}, {"name": "02ef606c807816a45fef78fc839aa252", "lon": -77.033713, "lat": 38.920463166666664, "type": "electric_scooter", "fusion_lon": 0.0, "is_reserved": 0, "bike_id": "02ef606c807816a45fef78fc839aa252", "fusion_lat": 0.0, "is_disabled": 0, "rental_uris": {"ios": "https://dc.lft.to/lastmile_qr_scan", "android": "https://dc.lft.to/lastmile_qr_scan"}}, {"name": "927731652164f1ada7a71e850d36f711", "lon": -77.03015983333333, "lat": 38.991461, "type": "electric_bike", "fusion_lon": 0.0, "is_reserved": 0, "bike_id": "927731652164f1ada7a71e850d36f711", "fusion_lat": 0.0, "is_disabled": 0, "rental_uris": {"ios": "https://dc.lft.to/lastmile_qr_scan", "android": "https://dc.lft.to/lastmile_qr_scan"}}, {"name": "a16d32064c0f9c3e05526916df5b91bb", "lon": -77.00123816666667, "lat": 38.877906333333335, "type": "electric_scooter", "fusion_lon": 0.0, "is_reserved": 0, "bike_id": "a16d32064c0f9c3e05526916df5b91bb", "fusion_lat": 0.0, "is_disabled": 0, "rental_uris": {"ios": "https://dc.lft.to/lastmile_qr_scan", "android": "https://dc.lft.to/lastmile_qr_scan"}}, {"name": "e6d8a638ec14b70ebc781489dd814987", "lon": -77.02706883333333, "lat": 38.9066665, "type": "electric_scooter", "fusion_lon": 0.0, "is_reserved": 0, "bike_id": "e6d8a638ec14b70ebc781489dd814987", "fusion_lat": 0.0, "is_disabled": 0, "rental_uris": {"ios": "https://dc.lft.to/lastmile_qr_scan", "android": "https://dc.lft.to/lastmile_qr_scan"}}, {"name": "dab32e8fb32ff70ef5d219d00a390bae", "lon": -77.0400135, "lat": 38.8886705, "type": "electric_scooter", "fusion_lon": 0.0, "is_reserved": 0, "bike_id": "dab32e8fb32ff70ef5d219d00a390bae", "fusion_lat": 0.0, "is_disabled": 0, "rental_uris": {"ios": "https://dc.lft.to/lastmile_qr_scan", "android": "https://dc.lft.to/lastmile_qr_scan"}}, {"name": "7780feff9dc03ced1c7e7c67820dc687", "lon": -77.03476566666667, "lat": 38.905644, "type": "electric_scooter", "fusion_lon": 0.0, "is_reserved": 0, "bike_id": "7780feff9dc03ced1c7e7c67820dc687", "fusion_lat": 0.0, "is_disabled": 0, "rental_uris": {"ios": "https://dc.lft.to/lastmile_qr_scan", "android": "https://dc.lft.to/lastmile_qr_scan"}}, {"name": "3fce442bc50c2b672f0e438590aac4be", "lon": -76.9903275, "lat": 38.898504333333335, "type": "electric_scooter", "fusion_lon": 0.0, "is_reserved": 0, "bike_id": "3fce442bc50c2b672f0e438590aac4be", "fusion_lat": 0.0, "is_disabled": 0, "rental_uris": {"ios": "https://dc.lft.to/lastmile_qr_scan", "android": "https://dc.lft.to/lastmile_qr_scan"}}, {"name": "47a56f82d74dfc8fc41a6c330233eb00", "lon": -76.90705833333334, "lat": 38.895929, "type": "electric_bike", "fusion_lon": 0.0, "is_reserved": 0, "bike_id": "47a56f82d74dfc8fc41a6c330233eb00", "fusion_lat": 0.0, "is_disabled": 0, "rental_uris": {"ios": "https://dc.lft.to/lastmile_qr_scan", "android": "https://dc.lft.to/lastmile_qr_scan"}}, {"name": "ba946ca6e9920cbb7da10dcac8a8235e", "lon": -77.03802216666666, "lat": 38.9066515, "type": "electric_scooter", "fusion_lon": 0.0, "is_reserved": 0, "bike_id": "ba946ca6e9920cbb7da10dcac8a8235e", "fusion_lat": 0.0, "is_disabled": 0, "rental_uris": {"ios": "https://dc.lft.to/lastmile_qr_scan", "android": "https://dc.lft.to/lastmile_qr_scan"}}, {"name": "310ae575c1bc75b9792e394b96a17df3", "lon": -76.99813233333333, "lat": 38.84429516666667, "type": "electric_scooter", "fusion_lon": 0.0, "is_reserved": 0, "bike_id": "310ae575c1bc75b9792e394b96a17df3", "fusion_lat": 0.0, "is_disabled": 0, "rental_uris": {"ios": "https://dc.lft.to/lastmile_qr_scan", "android": "https://dc.lft.to/lastmile_qr_scan"}}, {"name": "6082de828fada0f906f8f0294db35af7", "lon": -77.04333366666667, "lat": 38.90758683333333, "type": "electric_scooter", "fusion_lon": 0.0, "is_reserved": 0, "bike_id": "6082de828fada0f906f8f0294db35af7", "fusion_lat": 0.0, "is_disabled": 0, "rental_uris": {"ios": "https://dc.lft.to/lastmile_qr_scan", "android": "https://dc.lft.to/lastmile_qr_scan"}}, {"name": "78d9d657b1c6da9ca00f5037bb0cb5b2", "lon": -76.99765566666667, "lat": 38.900326, "type": "electric_scooter", "fusion_lon": 0.0, "is_reserved": 0, "bike_id": "78d9d657b1c6da9ca00f5037bb0cb5b2", "fusion_lat": 0.0, "is_disabled": 0, "rental_uris": {"ios": "https://dc.lft.to/lastmile_qr_scan", "android": "https://dc.lft.to/lastmile_qr_scan"}}, {"name": "94a3b7b92fbb11f4890b1e1c9815561f", "lon": -77.002009, "lat": 38.902354333333335, "type": "electric_scooter", "fusion_lon": 0.0, "is_reserved": 0, "bike_id": "94a3b7b92fbb11f4890b1e1c9815561f", "fusion_lat": 0.0, "is_disabled": 0, "rental_uris": {"ios": "https://dc.lft.to/lastmile_qr_scan", "android": "https://dc.lft.to/lastmile_qr_scan"}}, {"name": "29de42be4edd00b86a67255864b1e211", "lon": -77.04592066666666, "lat": 38.9026535, "type": "electric_scooter", "fusion_lon": 0.0, "is_reserved": 0, "bike_id": "29de42be4edd00b86a67255864b1e211", "fusion_lat": 0.0, "is_disabled": 0, "rental_uris": {"ios": "https://dc.lft.to/lastmile_qr_scan", "android": "https://dc.lft.to/lastmile_qr_scan"}}, {"name": "620c21a5b9d8799d05ffd2d18fb49ee2", "lon": -77.01989433333334, "lat": 38.922745666666664, "type": "electric_bike", "fusion_lon": 0.0, "is_reserved": 0, "bike_id": "620c21a5b9d8799d05ffd2d18fb49ee2", "fusion_lat": 0.0, "is_disabled": 0, "rental_uris": {"ios": "https://dc.lft.to/lastmile_qr_scan", "android": "https://dc.lft.to/lastmile_qr_scan"}}, {"name": "6f728f0e31cc4d45ec623e907ec37486", "lon": -76.989243, "lat": 38.8581125, "type": "electric_scooter", "fusion_lon": 0.0, "is_reserved": 0, "bike_id": "6f728f0e31cc4d45ec623e907ec37486", "fusion_lat": 0.0, "is_disabled": 0, "rental_uris": {"ios": "https://dc.lft.to/lastmile_qr_scan", "android": "https://dc.lft.to/lastmile_qr_scan"}}, {"name": "eb1bc28bd69257d32ef6fa78fc6ed682", "lon": -77.0344135, "lat": 38.91802216666667, "type": "electric_scooter", "fusion_lon": 0.0, "is_reserved": 0, "bike_id": "eb1bc28bd69257d32ef6fa78fc6ed682", "fusion_lat": 0.0, "is_disabled": 0, "rental_uris": {"ios": "https://dc.lft.to/lastmile_qr_scan", "android": "https://dc.lft.to/lastmile_qr_scan"}}, {"name": "00007bd8c55a77a03bf19fa1bbde0c82", "lon": -77.03693083333333, "lat": 38.93557533333333, "type": "electric_bike", "fusion_lon": 0.0, "is_reserved": 0, "bike_id": "00007bd8c55a77a03bf19fa1bbde0c82", "fusion_lat": 0.0, "is_disabled": 0, "rental_uris": {"ios": "https://dc.lft.to/lastmile_qr_scan", "android": "https://dc.lft.to/lastmile_qr_scan"}}, {"name": "fcbe6ba974ca74900447cea9bf9df9ec", "lon": -77.01197966666666, "lat": 38.870988, "type": "electric_scooter", "fusion_lon": 0.0, "is_reserved": 0, "bike_id": "fcbe6ba974ca74900447cea9bf9df9ec", "fusion_lat": 0.0, "is_disabled": 0, "rental_uris": {"ios": "https://dc.lft.to/lastmile_qr_scan", "android": "https://dc.lft.to/lastmile_qr_scan"}}, {"name": "8f95a4b81ac75fef3b8b743b251eb054", "lon": -77.02186183333333, "lat": 38.908280833333336, "type": "electric_scooter", "fusion_lon": 0.0, "is_reserved": 0, "bike_id": "8f95a4b81ac75fef3b8b743b251eb054", "fusion_lat": 0.0, "is_disabled": 0, "rental_uris": {"ios": "https://dc.lft.to/lastmile_qr_scan", "android": "https://dc.lft.to/lastmile_qr_scan"}}, {"name": "4af9161cab55c7c32ff3debd59c5b046", "lon": -77.03868016666667, "lat": 38.921485, "type": "electric_scooter", "fusion_lon": 0.0, "is_reserved": 0, "bike_id": "4af9161cab55c7c32ff3debd59c5b046", "fusion_lat": 0.0, "is_disabled": 0, "rental_uris": {"ios": "https://dc.lft.to/lastmile_qr_scan", "android": "https://dc.lft.to/lastmile_qr_scan"}}, {"name": "cb41c1f4b144c6181840fb20c212d6eb", "lon": -77.1874145, "lat": 38.893515, "type": "electric_bike", "fusion_lon": 0.0, "is_reserved": 0, "bike_id": "cb41c1f4b144c6181840fb20c212d6eb", "fusion_lat": 0.0, "is_disabled": 0, "rental_uris": {"ios": "https://dc.lft.to/lastmile_qr_scan", "android": "https://dc.lft.to/lastmile_qr_scan"}}, {"name": "9d56d25cd0a7a2187815ead97aa9ab09", "lon": -77.02157533333333, "lat": 38.92613983333333, "type": "electric_scooter", "fusion_lon": 0.0, "is_reserved": 0, "bike_id": "9d56d25cd0a7a2187815ead97aa9ab09", "fusion_lat": 0.0, "is_disabled": 0, "rental_uris": {"ios": "https://dc.lft.to/lastmile_qr_scan", "android": "https://dc.lft.to/lastmile_qr_scan"}}, {"name": "65ae15c45efe027e2f63459e5b3ef7bd", "lon": -77.0670525, "lat": 38.9506065, "type": "electric_scooter", "fusion_lon": 0.0, "is_reserved": 0, "bike_id": "65ae15c45efe027e2f63459e5b3ef7bd", "fusion_lat": 0.0, "is_disabled": 0, "rental_uris": {"ios": "https://dc.lft.to/lastmile_qr_scan", "android": "https://dc.lft.to/lastmile_qr_scan"}}, {"name": "57d91006f7b9993c85e11d58fd1f9781", "lon": -77.04450083333333, "lat": 38.90371, "type": "electric_scooter", "fusion_lon": 0.0, "is_reserved": 0, "bike_id": "57d91006f7b9993c85e11d58fd1f9781", "fusion_lat": 0.0, "is_disabled": 0, "rental_uris": {"ios": "https://dc.lft.to/lastmile_qr_scan", "android": "https://dc.lft.to/lastmile_qr_scan"}}, {"name": "33f52f5fbfa12cd16d071190b2da54b7", "lon": -77.00195783333334, "lat": 38.90242933333333, "type": "electric_scooter", "fusion_lon": 0.0, "is_reserved": 0, "bike_id": "33f52f5fbfa12cd16d071190b2da54b7", "fusion_lat": 0.0, "is_disabled": 0, "rental_uris": {"ios": "https://dc.lft.to/lastmile_qr_scan", "android": "https://dc.lft.to/lastmile_qr_scan"}}, {"name": "861de6ab1cee015e37179dc87536bb6c", "lon": -77.04810883333333, "lat": 38.90036633333333, "type": "electric_scooter", "fusion_lon": 0.0, "is_reserved": 0, "bike_id": "861de6ab1cee015e37179dc87536bb6c", "fusion_lat": 0.0, "is_disabled": 0, "rental_uris": {"ios": "https://dc.lft.to/lastmile_qr_scan", "android": "https://dc.lft.to/lastmile_qr_scan"}}, {"name": "6563dd9a33c3e10f145a86bf047230b0", "lon": -77.043692, "lat": 38.89217816666667, "type": "electric_scooter", "fusion_lon": 0.0, "is_reserved": 0, "bike_id": "6563dd9a33c3e10f145a86bf047230b0", "fusion_lat": 0.0, "is_disabled": 0, "rental_uris": {"ios": "https://dc.lft.to/lastmile_qr_scan", "android": "https://dc.lft.to/lastmile_qr_scan"}}, {"name": "9653f879296d9494a19cf1931aef85bb", "lon": -77.03822733333334, "lat": 38.9246475, "type": "electric_scooter", "fusion_lon": 0.0, "is_reserved": 0, "bike_id": "9653f879296d9494a19cf1931aef85bb", "fusion_lat": 0.0, "is_disabled": 0, "rental_uris": {"ios": "https://dc.lft.to/lastmile_qr_scan", "android": "https://dc.lft.to/lastmile_qr_scan"}}, {"name": "f45caf34e5bd96feac2bb87fe761314f", "lon": -77.0348735, "lat": 38.92477483333333, "type": "electric_scooter", "fusion_lon": 0.0, "is_reserved": 0, "bike_id": "f45caf34e5bd96feac2bb87fe761314f", "fusion_lat": 0.0, "is_disabled": 0, "rental_uris": {"ios": "https://dc.lft.to/lastmile_qr_scan", "android": "https://dc.lft.to/lastmile_qr_scan"}}, {"name": "41820b6caa940f38ae4a66958efc90ad", "lon": -77.00208716666667, "lat": 38.900284, "type": "electric_scooter", "fusion_lon": 0.0, "is_reserved": 0, "bike_id": "41820b6caa940f38ae4a66958efc90ad", "fusion_lat": 0.0, "is_disabled": 0, "rental_uris": {"ios": "https://dc.lft.to/lastmile_qr_scan", "android": "https://dc.lft.to/lastmile_qr_scan"}}, {"name": "903e31b82b01bd826b6deb1c9cc71a1b", "lon": -77.0325785, "lat": 38.919863166666666, "type": "electric_scooter", "fusion_lon": 0.0, "is_reserved": 0, "bike_id": "903e31b82b01bd826b6deb1c9cc71a1b", "fusion_lat": 0.0, "is_disabled": 0, "rental_uris": {"ios": "https://dc.lft.to/lastmile_qr_scan", "android": "https://dc.lft.to/lastmile_qr_scan"}}, {"name": "718dc5abf726c2cabc5ae2ca37081048", "lon": -77.03365166666667, "lat": 38.935832833333336, "type": "electric_scooter", "fusion_lon": 0.0, "is_reserved": 0, "bike_id": "718dc5abf726c2cabc5ae2ca37081048", "fusion_lat": 0.0, "is_disabled": 0, "rental_uris": {"ios": "https://dc.lft.to/lastmile_qr_scan", "android": "https://dc.lft.to/lastmile_qr_scan"}}, {"name": "218e8fec2a41e2c216dd30ba5ea28649", "lon": -76.97356233333333, "lat": 38.864209833333334, "type": "electric_scooter", "fusion_lon": 0.0, "is_reserved": 0, "bike_id": "218e8fec2a41e2c216dd30ba5ea28649", "fusion_lat": 0.0, "is_disabled": 0, "rental_uris": {"ios": "https://dc.lft.to/lastmile_qr_scan", "android": "https://dc.lft.to/lastmile_qr_scan"}}, {"name": "f02c05a0775fbe08f90c8a6f5d73c395", "lon": -77.00801233333334, "lat": 38.949220833333335, "type": "electric_bike", "fusion_lon": 0.0, "is_reserved": 0, "bike_id": "f02c05a0775fbe08f90c8a6f5d73c395", "fusion_lat": 0.0, "is_disabled": 0, "rental_uris": {"ios": "https://dc.lft.to/lastmile_qr_scan", "android": "https://dc.lft.to/lastmile_qr_scan"}}, {"name": "de78734be91faaa4acbfc0d7da925eb8", "lon": -77.02956816666666, "lat": 38.92324583333333, "type": "electric_scooter", "fusion_lon": 0.0, "is_reserved": 0, "bike_id": "de78734be91faaa4acbfc0d7da925eb8", "fusion_lat": 0.0, "is_disabled": 0, "rental_uris": {"ios": "https://dc.lft.to/lastmile_qr_scan", "android": "https://dc.lft.to/lastmile_qr_scan"}}, {"name": "624e612b274d80b42ade892dcb656818", "lon": -77.03248516666666, "lat": 38.91180716666667, "type": "electric_scooter", "fusion_lon": 0.0, "is_reserved": 0, "bike_id": "624e612b274d80b42ade892dcb656818", "fusion_lat": 0.0, "is_disabled": 0, "rental_uris": {"ios": "https://dc.lft.to/lastmile_qr_scan", "android": "https://dc.lft.to/lastmile_qr_scan"}}, {"name": "3b7de19abc39e32235c4b2f1dec60f47", "lon": -77.0235495, "lat": 38.919601166666666, "type": "electric_scooter", "fusion_lon": 0.0, "is_reserved": 0, "bike_id": "3b7de19abc39e32235c4b2f1dec60f47", "fusion_lat": 0.0, "is_disabled": 0, "rental_uris": {"ios": "https://dc.lft.to/lastmile_qr_scan", "android": "https://dc.lft.to/lastmile_qr_scan"}}, {"name": "7a57367b38a3a8009f8a56a12f33b9ed", "lon": -77.02961933333333, "lat": 38.927749666666664, "type": "electric_bike", "fusion_lon": 0.0, "is_reserved": 0, "bike_id": "7a57367b38a3a8009f8a56a12f33b9ed", "fusion_lat": 0.0, "is_disabled": 0, "rental_uris": {"ios": "https://dc.lft.to/lastmile_qr_scan", "android": "https://dc.lft.to/lastmile_qr_scan"}}, {"name": "559f449d0a31e5d56b76a36b38b0184c", "lon": -77.00753983333334, "lat": 38.910253833333336, "type": "electric_scooter", "fusion_lon": 0.0, "is_reserved": 0, "bike_id": "559f449d0a31e5d56b76a36b38b0184c", "fusion_lat": 0.0, "is_disabled": 0, "rental_uris": {"ios": "https://dc.lft.to/lastmile_qr_scan", "android": "https://dc.lft.to/lastmile_qr_scan"}}, {"name": "ca777dad3c282c70ec26e2ddeb7e5bcf", "lon": -77.01608316666666, "lat": 38.89963916666667, "type": "electric_scooter", "fusion_lon": 0.0, "is_reserved": 0, "bike_id": "ca777dad3c282c70ec26e2ddeb7e5bcf", "fusion_lat": 0.0, "is_disabled": 0, "rental_uris": {"ios": "https://dc.lft.to/lastmile_qr_scan", "android": "https://dc.lft.to/lastmile_qr_scan"}}, {"name": "344849d9874b9d5326b812df5a3a22cf", "lon": -77.04344383333333, "lat": 38.9234775, "type": "electric_scooter", "fusion_lon": 0.0, "is_reserved": 0, "bike_id": "344849d9874b9d5326b812df5a3a22cf", "fusion_lat": 0.0, "is_disabled": 0, "rental_uris": {"ios": "https://dc.lft.to/lastmile_qr_scan", "android": "https://dc.lft.to/lastmile_qr_scan"}}, {"name": "46694f2f70397f3733b2df15ec53bb65", "lon": -77.04687616666666, "lat": 39.02391933333333, "type": "electric_bike", "fusion_lon": 0.0, "is_reserved": 0, "bike_id": "46694f2f70397f3733b2df15ec53bb65", "fusion_lat": 0.0, "is_disabled": 0, "rental_uris": {"ios": "https://dc.lft.to/lastmile_qr_scan", "android": "https://dc.lft.to/lastmile_qr_scan"}}, {"name": "7d4c61203770ad44e84e90a516dc5d0a", "lon": -77.06283116666667, "lat": 38.9649575, "type": "electric_scooter", "fusion_lon": 0.0, "is_reserved": 0, "bike_id": "7d4c61203770ad44e84e90a516dc5d0a", "fusion_lat": 0.0, "is_disabled": 0, "rental_uris": {"ios": "https://dc.lft.to/lastmile_qr_scan", "android": "https://dc.lft.to/lastmile_qr_scan"}}, {"name": "33df35fd6ae88be2d0666996b283ed2d", "lon": -77.03500366666667, "lat": 38.917121333333334, "type": "electric_scooter", "fusion_lon": 0.0, "is_reserved": 0, "bike_id": "33df35fd6ae88be2d0666996b283ed2d", "fusion_lat": 0.0, "is_disabled": 0, "rental_uris": {"ios": "https://dc.lft.to/lastmile_qr_scan", "android": "https://dc.lft.to/lastmile_qr_scan"}}, {"name": "800a1258e38e5caf912904a3ce47b396", "lon": -77.0347125, "lat": 38.9056815, "type": "electric_scooter", "fusion_lon": 0.0, "is_reserved": 0, "bike_id": "800a1258e38e5caf912904a3ce47b396", "fusion_lat": 0.0, "is_disabled": 0, "rental_uris": {"ios": "https://dc.lft.to/lastmile_qr_scan", "android": "https://dc.lft.to/lastmile_qr_scan"}}, {"name": "02bef4383a13de1299a18f7583d7da99", "lon": -77.02959433333334, "lat": 38.90520433333333, "type": "electric_scooter", "fusion_lon": 0.0, "is_reserved": 0, "bike_id": "02bef4383a13de1299a18f7583d7da99", "fusion_lat": 0.0, "is_disabled": 0, "rental_uris": {"ios": "https://dc.lft.to/lastmile_qr_scan", "android": "https://dc.lft.to/lastmile_qr_scan"}}, {"name": "8234e0ca58f556da3b1de12b9914a0ce", "lon": -77.03635966666667, "lat": 38.923433833333334, "type": "electric_scooter", "fusion_lon": 0.0, "is_reserved": 0, "bike_id": "8234e0ca58f556da3b1de12b9914a0ce", "fusion_lat": 0.0, "is_disabled": 0, "rental_uris": {"ios": "https://dc.lft.to/lastmile_qr_scan", "android": "https://dc.lft.to/lastmile_qr_scan"}}, {"name": "95974a3e85799e3ac630a49d40a4fe6f", "lon": -77.05004316666667, "lat": 38.906251833333336, "type": "electric_scooter", "fusion_lon": 0.0, "is_reserved": 0, "bike_id": "95974a3e85799e3ac630a49d40a4fe6f", "fusion_lat": 0.0, "is_disabled": 0, "rental_uris": {"ios": "https://dc.lft.to/lastmile_qr_scan", "android": "https://dc.lft.to/lastmile_qr_scan"}}, {"name": "c72e8af16555581b764417175970a8f5", "lon": -77.043163, "lat": 38.905103, "type": "electric_scooter", "fusion_lon": 0.0, "is_reserved": 0, "bike_id": "c72e8af16555581b764417175970a8f5", "fusion_lat": 0.0, "is_disabled": 0, "rental_uris": {"ios": "https://dc.lft.to/lastmile_qr_scan", "android": "https://dc.lft.to/lastmile_qr_scan"}}, {"name": "cef9572de09e08ab60427258abc670f5", "lon": -77.10322633333334, "lat": 38.87416533333333, "type": "electric_bike", "fusion_lon": 0.0, "is_reserved": 0, "bike_id": "cef9572de09e08ab60427258abc670f5", "fusion_lat": 0.0, "is_disabled": 0, "rental_uris": {"ios": "https://dc.lft.to/lastmile_qr_scan", "android": "https://dc.lft.to/lastmile_qr_scan"}}, {"name": "3225b36ab27cdbb93986fa8d57efd674", "lon": -77.04355666666666, "lat": 38.917882166666665, "type": "electric_scooter", "fusion_lon": 0.0, "is_reserved": 0, "bike_id": "3225b36ab27cdbb93986fa8d57efd674", "fusion_lat": 0.0, "is_disabled": 0, "rental_uris": {"ios": "https://dc.lft.to/lastmile_qr_scan", "android": "https://dc.lft.to/lastmile_qr_scan"}}, {"name": "7eaf7c2bc9002d77e70e5ee7ba215fb1", "lon": -76.96259133333334, "lat": 38.8824255, "type": "electric_bike", "fusion_lon": 0.0, "is_reserved": 0, "bike_id": "7eaf7c2bc9002d77e70e5ee7ba215fb1", "fusion_lat": 0.0, "is_disabled": 0, "rental_uris": {"ios": "https://dc.lft.to/lastmile_qr_scan", "android": "https://dc.lft.to/lastmile_qr_scan"}}, {"name": "2bafa15ea0f20c9fa4ff5207913f2a1f", "lon": -77.01610583333333, "lat": 38.895069666666664, "type": "electric_scooter", "fusion_lon": 0.0, "is_reserved": 0, "bike_id": "2bafa15ea0f20c9fa4ff5207913f2a1f", "fusion_lat": 0.0, "is_disabled": 0, "rental_uris": {"ios": "https://dc.lft.to/lastmile_qr_scan", "android": "https://dc.lft.to/lastmile_qr_scan"}}, {"name": "589a8f11cde54cb3471ac8775cb50bed", "lon": -77.03466633333333, "lat": 38.9170605, "type": "electric_scooter", "fusion_lon": 0.0, "is_reserved": 0, "bike_id": "589a8f11cde54cb3471ac8775cb50bed", "fusion_lat": 0.0, "is_disabled": 0, "rental_uris": {"ios": "https://dc.lft.to/lastmile_qr_scan", "android": "https://dc.lft.to/lastmile_qr_scan"}}, {"name": "cca71c24b01c54091c6d6d3d9e7e4f74", "lon": -77.0318105, "lat": 38.90818183333333, "type": "electric_scooter", "fusion_lon": 0.0, "is_reserved": 0, "bike_id": "cca71c24b01c54091c6d6d3d9e7e4f74", "fusion_lat": 0.0, "is_disabled": 0, "rental_uris": {"ios": "https://dc.lft.to/lastmile_qr_scan", "android": "https://dc.lft.to/lastmile_qr_scan"}}, {"name": "c0101e934a7da164ca6d1db4f38a1e4b", "lon": -77.0308155, "lat": 38.917629, "type": "electric_scooter", "fusion_lon": 0.0, "is_reserved": 0, "bike_id": "c0101e934a7da164ca6d1db4f38a1e4b", "fusion_lat": 0.0, "is_disabled": 0, "rental_uris": {"ios": "https://dc.lft.to/lastmile_qr_scan", "android": "https://dc.lft.to/lastmile_qr_scan"}}, {"name": "80d3ee73051b7ecbf5ed0fa2943724f1", "lon": -77.021527, "lat": 38.901568166666664, "type": "electric_scooter", "fusion_lon": 0.0, "is_reserved": 0, "bike_id": "80d3ee73051b7ecbf5ed0fa2943724f1", "fusion_lat": 0.0, "is_disabled": 0, "rental_uris": {"ios": "https://dc.lft.to/lastmile_qr_scan", "android": "https://dc.lft.to/lastmile_qr_scan"}}, {"name": "feafa6d1ca71c66253b11e3845c1b2a1", "lon": -76.97647766666667, "lat": 38.89854316666667, "type": "electric_scooter", "fusion_lon": 0.0, "is_reserved": 0, "bike_id": "feafa6d1ca71c66253b11e3845c1b2a1", "fusion_lat": 0.0, "is_disabled": 0, "rental_uris": {"ios": "https://dc.lft.to/lastmile_qr_scan", "android": "https://dc.lft.to/lastmile_qr_scan"}}, {"name": "69f15e7c2e98a2382abb54ba798b7756", "lon": -77.034071, "lat": 38.923097166666665, "type": "electric_scooter", "fusion_lon": 0.0, "is_reserved": 0, "bike_id": "69f15e7c2e98a2382abb54ba798b7756", "fusion_lat": 0.0, "is_disabled": 0, "rental_uris": {"ios": "https://dc.lft.to/lastmile_qr_scan", "android": "https://dc.lft.to/lastmile_qr_scan"}}, {"name": "0f20998d330478d640a006c67504c1c4", "lon": -77.03949166666666, "lat": 38.915557166666666, "type": "electric_scooter", "fusion_lon": 0.0, "is_reserved": 0, "bike_id": "0f20998d330478d640a006c67504c1c4", "fusion_lat": 0.0, "is_disabled": 0, "rental_uris": {"ios": "https://dc.lft.to/lastmile_qr_scan", "android": "https://dc.lft.to/lastmile_qr_scan"}}, {"name": "b3d8e2ef6447e7dba57d93c94c9af5e8", "lon": -77.02680283333333, "lat": 38.92781333333333, "type": "electric_scooter", "fusion_lon": 0.0, "is_reserved": 0, "bike_id": "b3d8e2ef6447e7dba57d93c94c9af5e8", "fusion_lat": 0.0, "is_disabled": 0, "rental_uris": {"ios": "https://dc.lft.to/lastmile_qr_scan", "android": "https://dc.lft.to/lastmile_qr_scan"}}, {"name": "d0427843eeb2d37418560c9183b122fa", "lon": -77.02610016666667, "lat": 38.90131733333333, "type": "electric_scooter", "fusion_lon": 0.0, "is_reserved": 0, "bike_id": "d0427843eeb2d37418560c9183b122fa", "fusion_lat": 0.0, "is_disabled": 0, "rental_uris": {"ios": "https://dc.lft.to/lastmile_qr_scan", "android": "https://dc.lft.to/lastmile_qr_scan"}}, {"name": "0d8f88550abdd912d760624915de3914", "lon": -76.99386366666667, "lat": 38.897305, "type": "electric_scooter", "fusion_lon": 0.0, "is_reserved": 0, "bike_id": "0d8f88550abdd912d760624915de3914", "fusion_lat": 0.0, "is_disabled": 0, "rental_uris": {"ios": "https://dc.lft.to/lastmile_qr_scan", "android": "https://dc.lft.to/lastmile_qr_scan"}}, {"name": "0fb217c8cd5c53fbbfd93c12f875f8e8", "lon": -77.02954516666667, "lat": 38.923262, "type": "electric_scooter", "fusion_lon": 0.0, "is_reserved": 0, "bike_id": "0fb217c8cd5c53fbbfd93c12f875f8e8", "fusion_lat": 0.0, "is_disabled": 0, "rental_uris": {"ios": "https://dc.lft.to/lastmile_qr_scan", "android": "https://dc.lft.to/lastmile_qr_scan"}}, {"name": "2661944b21adccb08645d4d458f49d5b", "lon": -76.99948916666666, "lat": 38.84291366666667, "type": "electric_scooter", "fusion_lon": 0.0, "is_reserved": 0, "bike_id": "2661944b21adccb08645d4d458f49d5b", "fusion_lat": 0.0, "is_disabled": 0, "rental_uris": {"ios": "https://dc.lft.to/lastmile_qr_scan", "android": "https://dc.lft.to/lastmile_qr_scan"}}, {"name": "a839905a754660c39b12e8e08f06a298", "lon": -77.03277466666667, "lat": 38.932521, "type": "electric_scooter", "fusion_lon": 0.0, "is_reserved": 0, "bike_id": "a839905a754660c39b12e8e08f06a298", "fusion_lat": 0.0, "is_disabled": 0, "rental_uris": {"ios": "https://dc.lft.to/lastmile_qr_scan", "android": "https://dc.lft.to/lastmile_qr_scan"}}, {"name": "d985ca7f46b143edeeb15730ef8f9618", "lon": -77.08279516666667, "lat": 38.930125333333336, "type": "electric_scooter", "fusion_lon": 0.0, "is_reserved": 0, "bike_id": "d985ca7f46b143edeeb15730ef8f9618", "fusion_lat": 0.0, "is_disabled": 0, "rental_uris": {"ios": "https://dc.lft.to/lastmile_qr_scan", "android": "https://dc.lft.to/lastmile_qr_scan"}}, {"name": "ea9683c2aee6e9816c334e30c8d91cd7", "lon": -77.04339316666666, "lat": 38.90619233333334, "type": "electric_scooter", "fusion_lon": 0.0, "is_reserved": 0, "bike_id": "ea9683c2aee6e9816c334e30c8d91cd7", "fusion_lat": 0.0, "is_disabled": 0, "rental_uris": {"ios": "https://dc.lft.to/lastmile_qr_scan", "android": "https://dc.lft.to/lastmile_qr_scan"}}, {"name": "d2fee5875bafbd8e80d18bf3de7a7f26", "lon": -77.03389233333333, "lat": 38.92166866666667, "type": "electric_scooter", "fusion_lon": 0.0, "is_reserved": 0, "bike_id": "d2fee5875bafbd8e80d18bf3de7a7f26", "fusion_lat": 0.0, "is_disabled": 0, "rental_uris": {"ios": "https://dc.lft.to/lastmile_qr_scan", "android": "https://dc.lft.to/lastmile_qr_scan"}}, {"name": "75dcdb33036b2d456b74cd1c7e7a0330", "lon": -77.04254483333334, "lat": 38.92063133333333, "type": "electric_scooter", "fusion_lon": 0.0, "is_reserved": 0, "bike_id": "75dcdb33036b2d456b74cd1c7e7a0330", "fusion_lat": 0.0, "is_disabled": 0, "rental_uris": {"ios": "https://dc.lft.to/lastmile_qr_scan", "android": "https://dc.lft.to/lastmile_qr_scan"}}, {"name": "874ae40a1436a0dda55c78c487222ae1", "lon": -77.03055733333333, "lat": 38.92369983333333, "type": "electric_scooter", "fusion_lon": 0.0, "is_reserved": 0, "bike_id": "874ae40a1436a0dda55c78c487222ae1", "fusion_lat": 0.0, "is_disabled": 0, "rental_uris": {"ios": "https://dc.lft.to/lastmile_qr_scan", "android": "https://dc.lft.to/lastmile_qr_scan"}}, {"name": "e53a61c3a0a22e24b5fd0543bba00cf6", "lon": -77.0240745, "lat": 38.909569, "type": "electric_scooter", "fusion_lon": 0.0, "is_reserved": 0, "bike_id": "e53a61c3a0a22e24b5fd0543bba00cf6", "fusion_lat": 0.0, "is_disabled": 0, "rental_uris": {"ios": "https://dc.lft.to/lastmile_qr_scan", "android": "https://dc.lft.to/lastmile_qr_scan"}}, {"name": "45e2d4a2781a474be173ad4e748810e6", "lon": -77.0460715, "lat": 38.91921166666667, "type": "electric_scooter", "fusion_lon": 0.0, "is_reserved": 0, "bike_id": "45e2d4a2781a474be173ad4e748810e6", "fusion_lat": 0.0, "is_disabled": 0, "rental_uris": {"ios": "https://dc.lft.to/lastmile_qr_scan", "android": "https://dc.lft.to/lastmile_qr_scan"}}, {"name": "5e767b6d215fe41ff6ed785a9d5037a4", "lon": -77.02195383333333, "lat": 38.901975, "type": "electric_scooter", "fusion_lon": 0.0, "is_reserved": 0, "bike_id": "5e767b6d215fe41ff6ed785a9d5037a4", "fusion_lat": 0.0, "is_disabled": 0, "rental_uris": {"ios": "https://dc.lft.to/lastmile_qr_scan", "android": "https://dc.lft.to/lastmile_qr_scan"}}, {"name": "4d41a3ed8062c4e380215bf147c7f1b3", "lon": -77.02943316666666, "lat": 38.91557133333333, "type": "electric_scooter", "fusion_lon": 0.0, "is_reserved": 0, "bike_id": "4d41a3ed8062c4e380215bf147c7f1b3", "fusion_lat": 0.0, "is_disabled": 0, "rental_uris": {"ios": "https://dc.lft.to/lastmile_qr_scan", "android": "https://dc.lft.to/lastmile_qr_scan"}}, {"name": "06a36cb735a7e47e7e8ab3ea139745b0", "lon": -77.02135916666667, "lat": 38.90156116666667, "type": "electric_scooter", "fusion_lon": 0.0, "is_reserved": 0, "bike_id": "06a36cb735a7e47e7e8ab3ea139745b0", "fusion_lat": 0.0, "is_disabled": 0, "rental_uris": {"ios": "https://dc.lft.to/lastmile_qr_scan", "android": "https://dc.lft.to/lastmile_qr_scan"}}, {"name": "ab60054ff98c500243402225f9f7653d", "lon": -77.03498266666666, "lat": 38.917067333333335, "type": "electric_scooter", "fusion_lon": 0.0, "is_reserved": 0, "bike_id": "ab60054ff98c500243402225f9f7653d", "fusion_lat": 0.0, "is_disabled": 0, "rental_uris": {"ios": "https://dc.lft.to/lastmile_qr_scan", "android": "https://dc.lft.to/lastmile_qr_scan"}}, {"name": "41acef01f478d6909fd31ddb5c55a7ba", "lon": -76.94631783333334, "lat": 38.898421166666665, "type": "electric_scooter", "fusion_lon": 0.0, "is_reserved": 0, "bike_id": "41acef01f478d6909fd31ddb5c55a7ba", "fusion_lat": 0.0, "is_disabled": 0, "rental_uris": {"ios": "https://dc.lft.to/lastmile_qr_scan", "android": "https://dc.lft.to/lastmile_qr_scan"}}, {"name": "75a0e24f8c536fd139f346ac77b354b9", "lon": -77.02200516666667, "lat": 38.901988833333334, "type": "electric_scooter", "fusion_lon": 0.0, "is_reserved": 0, "bike_id": "75a0e24f8c536fd139f346ac77b354b9", "fusion_lat": 0.0, "is_disabled": 0, "rental_uris": {"ios": "https://dc.lft.to/lastmile_qr_scan", "android": "https://dc.lft.to/lastmile_qr_scan"}}, {"name": "a5df58dd101b879786ab7fdf21bb16cb", "lon": -77.04654866666667, "lat": 38.9158795, "type": "electric_scooter", "fusion_lon": 0.0, "is_reserved": 0, "bike_id": "a5df58dd101b879786ab7fdf21bb16cb", "fusion_lat": 0.0, "is_disabled": 0, "rental_uris": {"ios": "https://dc.lft.to/lastmile_qr_scan", "android": "https://dc.lft.to/lastmile_qr_scan"}}, {"name": "593536c79ec21dd1a074577e2ec15810", "lon": -76.96987316666667, "lat": 38.8561875, "type": "electric_scooter", "fusion_lon": 0.0, "is_reserved": 0, "bike_id": "593536c79ec21dd1a074577e2ec15810", "fusion_lat": 0.0, "is_disabled": 0, "rental_uris": {"ios": "https://dc.lft.to/lastmile_qr_scan", "android": "https://dc.lft.to/lastmile_qr_scan"}}, {"name": "3e19193e37fb7df10133d8bede1d3c57", "lon": -77.03438216666666, "lat": 38.910112833333336, "type": "electric_scooter", "fusion_lon": 0.0, "is_reserved": 0, "bike_id": "3e19193e37fb7df10133d8bede1d3c57", "fusion_lat": 0.0, "is_disabled": 0, "rental_uris": {"ios": "https://dc.lft.to/lastmile_qr_scan", "android": "https://dc.lft.to/lastmile_qr_scan"}}, {"name": "4d3b0db98134501f6b0adc6e46d73190", "lon": -77.02415783333333, "lat": 38.957327666666664, "type": "electric_scooter", "fusion_lon": 0.0, "is_reserved": 0, "bike_id": "4d3b0db98134501f6b0adc6e46d73190", "fusion_lat": 0.0, "is_disabled": 0, "rental_uris": {"ios": "https://dc.lft.to/lastmile_qr_scan", "android": "https://dc.lft.to/lastmile_qr_scan"}}, {"name": "40b3a95a03df021a30d5e39a20ebe3ca", "lon": -76.98057083333333, "lat": 38.9569795, "type": "electric_bike", "fusion_lon": 0.0, "is_reserved": 0, "bike_id": "40b3a95a03df021a30d5e39a20ebe3ca", "fusion_lat": 0.0, "is_disabled": 0, "rental_uris": {"ios": "https://dc.lft.to/lastmile_qr_scan", "android": "https://dc.lft.to/lastmile_qr_scan"}}, {"name": "a47015bb4bb425a055278a3966d2755f", "lon": -77.03878133333333, "lat": 38.932501, "type": "electric_scooter", "fusion_lon": 0.0, "is_reserved": 0, "bike_id": "a47015bb4bb425a055278a3966d2755f", "fusion_lat": 0.0, "is_disabled": 0, "rental_uris": {"ios": "https://dc.lft.to/lastmile_qr_scan", "android": "https://dc.lft.to/lastmile_qr_scan"}}, {"name": "1aaba579350ba1557f423ce5adf7e0dd", "lon": -77.160894, "lat": 38.88683366666667, "type": "electric_bike", "fusion_lon": 0.0, "is_reserved": 0, "bike_id": "1aaba579350ba1557f423ce5adf7e0dd", "fusion_lat": 0.0, "is_disabled": 0, "rental_uris": {"ios": "https://dc.lft.to/lastmile_qr_scan", "android": "https://dc.lft.to/lastmile_qr_scan"}}, {"name": "82b2f2c023d11abfd6fb95370b7c07c7", "lon": -77.06266266666667, "lat": 38.9054495, "type": "electric_scooter", "fusion_lon": 0.0, "is_reserved": 0, "bike_id": "82b2f2c023d11abfd6fb95370b7c07c7", "fusion_lat": 0.0, "is_disabled": 0, "rental_uris": {"ios": "https://dc.lft.to/lastmile_qr_scan", "android": "https://dc.lft.to/lastmile_qr_scan"}}, {"name": "c6517ae492d9abbd196f41398a49382e", "lon": -77.07915, "lat": 38.8022525, "type": "electric_bike", "fusion_lon": 0.0, "is_reserved": 0, "bike_id": "c6517ae492d9abbd196f41398a49382e", "fusion_lat": 0.0, "is_disabled": 0, "rental_uris": {"ios": "https://dc.lft.to/lastmile_qr_scan", "android": "https://dc.lft.to/lastmile_qr_scan"}}, {"name": "ae1d44c4e0e8850237c3299d62714876", "lon": -77.02171833333334, "lat": 38.90561316666667, "type": "electric_scooter", "fusion_lon": 0.0, "is_reserved": 0, "bike_id": "ae1d44c4e0e8850237c3299d62714876", "fusion_lat": 0.0, "is_disabled": 0, "rental_uris": {"ios": "https://dc.lft.to/lastmile_qr_scan", "android": "https://dc.lft.to/lastmile_qr_scan"}}, {"name": "82ea888f7c04360816711b88a6dc5f06", "lon": -76.99515883333333, "lat": 38.883717833333336, "type": "electric_scooter", "fusion_lon": 0.0, "is_reserved": 0, "bike_id": "82ea888f7c04360816711b88a6dc5f06", "fusion_lat": 0.0, "is_disabled": 0, "rental_uris": {"ios": "https://dc.lft.to/lastmile_qr_scan", "android": "https://dc.lft.to/lastmile_qr_scan"}}, {"name": "3a9c4c1f44fd0998e6504e4d5dcf17a2", "lon": -77.0181995, "lat": 38.920393833333335, "type": "electric_scooter", "fusion_lon": 0.0, "is_reserved": 0, "bike_id": "3a9c4c1f44fd0998e6504e4d5dcf17a2", "fusion_lat": 0.0, "is_disabled": 0, "rental_uris": {"ios": "https://dc.lft.to/lastmile_qr_scan", "android": "https://dc.lft.to/lastmile_qr_scan"}}, {"name": "76d42bec7d986cbb63fbe05b3aee4add", "lon": -77.04001933333333, "lat": 38.92570933333333, "type": "electric_scooter", "fusion_lon": 0.0, "is_reserved": 0, "bike_id": "76d42bec7d986cbb63fbe05b3aee4add", "fusion_lat": 0.0, "is_disabled": 0, "rental_uris": {"ios": "https://dc.lft.to/lastmile_qr_scan", "android": "https://dc.lft.to/lastmile_qr_scan"}}, {"name": "07a9bdde0a8453c550c18bf580d703a4", "lon": -76.98883516666666, "lat": 38.86661816666667, "type": "electric_scooter", "fusion_lon": 0.0, "is_reserved": 0, "bike_id": "07a9bdde0a8453c550c18bf580d703a4", "fusion_lat": 0.0, "is_disabled": 0, "rental_uris": {"ios": "https://dc.lft.to/lastmile_qr_scan", "android": "https://dc.lft.to/lastmile_qr_scan"}}, {"name": "84b17ca2be9f0ea6a3c3b31e8ac93413", "lon": -77.01453183333334, "lat": 38.8766295, "type": "electric_bike", "fusion_lon": 0.0, "is_reserved": 0, "bike_id": "84b17ca2be9f0ea6a3c3b31e8ac93413", "fusion_lat": 0.0, "is_disabled": 0, "rental_uris": {"ios": "https://dc.lft.to/lastmile_qr_scan", "android": "https://dc.lft.to/lastmile_qr_scan"}}, {"name": "6f2b8e4ff59298f268646d94ca059753", "lon": -77.02644133333334, "lat": 38.892224166666665, "type": "electric_scooter", "fusion_lon": 0.0, "is_reserved": 0, "bike_id": "6f2b8e4ff59298f268646d94ca059753", "fusion_lat": 0.0, "is_disabled": 0, "rental_uris": {"ios": "https://dc.lft.to/lastmile_qr_scan", "android": "https://dc.lft.to/lastmile_qr_scan"}}, {"name": "016f12cd6596c8ab5cf72e40f1dbcf0d", "lon": -77.025023, "lat": 38.905515666666666, "type": "electric_scooter", "fusion_lon": 0.0, "is_reserved": 0, "bike_id": "016f12cd6596c8ab5cf72e40f1dbcf0d", "fusion_lat": 0.0, "is_disabled": 0, "rental_uris": {"ios": "https://dc.lft.to/lastmile_qr_scan", "android": "https://dc.lft.to/lastmile_qr_scan"}}, {"name": "9428cdd0c533d1a256545a5ca2c7f955", "lon": -77.03474466666667, "lat": 38.917101333333335, "type": "electric_scooter", "fusion_lon": 0.0, "is_reserved": 0, "bike_id": "9428cdd0c533d1a256545a5ca2c7f955", "fusion_lat": 0.0, "is_disabled": 0, "rental_uris": {"ios": "https://dc.lft.to/lastmile_qr_scan", "android": "https://dc.lft.to/lastmile_qr_scan"}}, {"name": "40b468f33f35853740a8c15dcc946fee", "lon": -77.0282205, "lat": 38.9140305, "type": "electric_scooter", "fusion_lon": 0.0, "is_reserved": 0, "bike_id": "40b468f33f35853740a8c15dcc946fee", "fusion_lat": 0.0, "is_disabled": 0, "rental_uris": {"ios": "https://dc.lft.to/lastmile_qr_scan", "android": "https://dc.lft.to/lastmile_qr_scan"}}, {"name": "ddafb6e4cb3e9e6fb34cd642a7f8f36d", "lon": -77.0232795, "lat": 38.92702933333333, "type": "electric_scooter", "fusion_lon": 0.0, "is_reserved": 0, "bike_id": "ddafb6e4cb3e9e6fb34cd642a7f8f36d", "fusion_lat": 0.0, "is_disabled": 0, "rental_uris": {"ios": "https://dc.lft.to/lastmile_qr_scan", "android": "https://dc.lft.to/lastmile_qr_scan"}}, {"name": "7b9fc3a8e64a46c8324819273d22cccb", "lon": -77.05696016666667, "lat": 38.90614, "type": "electric_scooter", "fusion_lon": 0.0, "is_reserved": 0, "bike_id": "7b9fc3a8e64a46c8324819273d22cccb", "fusion_lat": 0.0, "is_disabled": 0, "rental_uris": {"ios": "https://dc.lft.to/lastmile_qr_scan", "android": "https://dc.lft.to/lastmile_qr_scan"}}, {"name": "00211f1fcd6c68d712dfe606af85cded", "lon": -77.06701133333334, "lat": 38.831761, "type": "electric_bike", "fusion_lon": 0.0, "is_reserved": 0, "bike_id": "00211f1fcd6c68d712dfe606af85cded", "fusion_lat": 0.0, "is_disabled": 0, "rental_uris": {"ios": "https://dc.lft.to/lastmile_qr_scan", "android": "https://dc.lft.to/lastmile_qr_scan"}}, {"name": "e2ba6aa6caaa79b7ec7d299c09a39d30", "lon": -77.02984733333334, "lat": 38.9056795, "type": "electric_scooter", "fusion_lon": 0.0, "is_reserved": 0, "bike_id": "e2ba6aa6caaa79b7ec7d299c09a39d30", "fusion_lat": 0.0, "is_disabled": 0, "rental_uris": {"ios": "https://dc.lft.to/lastmile_qr_scan", "android": "https://dc.lft.to/lastmile_qr_scan"}}, {"name": "536d283e4a520382d1410b4ca0093c34", "lon": -77.01749916666667, "lat": 38.92036016666667, "type": "electric_scooter", "fusion_lon": 0.0, "is_reserved": 0, "bike_id": "536d283e4a520382d1410b4ca0093c34", "fusion_lat": 0.0, "is_disabled": 0, "rental_uris": {"ios": "https://dc.lft.to/lastmile_qr_scan", "android": "https://dc.lft.to/lastmile_qr_scan"}}, {"name": "b76a6f7bc3dc12c36cc4416051c42cde", "lon": -77.02377433333334, "lat": 38.90632316666667, "type": "electric_scooter", "fusion_lon": 0.0, "is_reserved": 0, "bike_id": "b76a6f7bc3dc12c36cc4416051c42cde", "fusion_lat": 0.0, "is_disabled": 0, "rental_uris": {"ios": "https://dc.lft.to/lastmile_qr_scan", "android": "https://dc.lft.to/lastmile_qr_scan"}}, {"name": "bfad4ca2b83a5ea4f3c1ff7a71af722b", "lon": -77.03493666666667, "lat": 38.924781333333335, "type": "electric_scooter", "fusion_lon": 0.0, "is_reserved": 0, "bike_id": "bfad4ca2b83a5ea4f3c1ff7a71af722b", "fusion_lat": 0.0, "is_disabled": 0, "rental_uris": {"ios": "https://dc.lft.to/lastmile_qr_scan", "android": "https://dc.lft.to/lastmile_qr_scan"}},