{"data": {"bikes": [{"rental_uris": {"ios": "https://dc.lft.to/lastmile_qr_scan", "android": "https://dc.lft.to/lastmile_qr_scan"}, "lon": -77.03338, "type": "electric_scooter", "fusion_lat": 0.0, "lat": 38.89859383333334, "name": "485cac7f887ab1350ad424992c218d22", "fusion_lon": 0.0, "bike_id": "485cac7f887ab1350ad424992c218d22", "is_disabled": 0, "is_reserved": 0}, {"rental_uris": {"ios": "https://dc.lft.to/lastmile_qr_scan", "android": "https://dc.lft.to/lastmile_qr_scan"}, "lon": -77.01939016666667, "type": "electric_scooter", "fusion_lat": 0.0, "lat": 38.94924666666667, "name": "8d2d830cecf271821cf65ccc4585b89e", "fusion_lon": 0.0, "bike_id": "8d2d830cecf271821cf65ccc4585b89e", "is_disabled": 0, "is_reserved": 0}, {"rental_uris": {"ios": "https://dc.lft.to/lastmile_qr_scan", "android": "https://dc.lft.to/lastmile_qr_scan"}, "lon": -77.06387766666667, "type": "electric_scooter", "fusion_lat": 0.0, "lat": 38.90837916666667, "name": "bb0b6106ef3f9827ec589e76c033a2da", "fusion_lon": 0.0, "bike_id": "bb0b6106ef3f9827ec589e76c033a2da", "is_disabled": 0, "is_reserved": 0}, {"rental_uris": {"ios": "https://dc.lft.to/lastmile_qr_scan", "android": "https://dc.lft.to/lastmile_qr_scan"}, "lon": -77.027264, "type": "electric_scooter", "fusion_lat": 0.0, "lat": 38.937924, "name": "426e1fce1497ea23d168127e0b7f9124", "fusion_lon": 0.0, "bike_id": "426e1fce1497ea23d168127e0b7f9124", "is_disabled": 0, "is_reserved": 0}, {"rental_uris": {"ios": "https://dc.lft.to/lastmile_qr_scan", "android": "https://dc.lft.to/lastmile_qr_scan"}, "lon": -77.03079316666667, "type": "electric_scooter", "fusion_lat": 0.0, "lat": 38.89986733333333, "name": "dba08ff8707052af7bc1e9306612672f", "fusion_lon": 0.0, "bike_id": "dba08ff8707052af7bc1e9306612672f", "is_disabled": 0, "is_reserved": 0}, {"rental_uris": {"ios": "https://dc.lft.to/lastmile_qr_scan", "android": "https://dc.lft.to/lastmile_qr_scan"}, "lon": -77.03853216666667, "type": "electric_scooter", "fusion_lat": 0.0, "lat": 38.913318333333336, "name": "d2c3cd593b9adfa3ffb1e57dbd771bd5", "fusion_lon": 0.0, "bike_id": "d2c3cd593b9adfa3ffb1e57dbd771bd5", "is_disabled": 0, "is_reserved": 0}, {"rental_uris": {"ios": "https://dc.lft.to/lastmile_qr_scan", "android": "https://dc.lft.to/lastmile_qr_scan"}, "lon": -77.03795166666667, "type": "electric_scooter", "fusion_lat": 0.0, "lat": 38.9121795, "name": "228df06fb98dcb53cdc0deb09658e5a3", "fusion_lon": 0.0, "bike_id": "228df06fb98dcb53cdc0deb09658e5a3", "is_disabled": 0, "is_reserved": 0}, {"rental_uris": {"ios": "https://dc.lft.to/lastmile_qr_scan", "android": "https://dc.lft.to/lastmile_qr_scan"}, "lon": -77.051508, "type": "electric_scooter", "fusion_lat": 0.0, "lat": 38.905405, "name": "538af76b7f540dd4c4b8b1357840fb1e", "fusion_lon": 0.0, "bike_id": "538af76b7f540dd4c4b8b1357840fb1e", "is_disabled": 0, "is_reserved": 0}, {"rental_uris": {"ios": "https://dc.lft.to/lastmile_qr_scan", "android": "https://dc.lft.to/lastmile_qr_scan"}, "lon": -77.03818833333334, "type": "electric_scooter", "fusion_lat": 0.0, "lat": 38.906817, "name": "dad68e339fb7a76e975d20d11a68187a", "fusion_lon": 0.0, "bike_id": "dad68e339fb7a76e975d20d11a68187a", "is_disabled": 0, "is_reserved": 0}, {"rental_uris": {"ios": "https://dc.lft.to/lastmile_qr_scan", "android": "https://dc.lft.to/lastmile_qr_scan"}, "lon": -77.0383365, "type": "electric_scooter", "fusion_lat": 0.0, "lat": 38.91248, "name": "e0654cbe2b30790684ff4c91c6f8b239", "fusion_lon": 0.0, "bike_id": "e0654cbe2b30790684ff4c91c6f8b239", "is_disabled": 0, "is_reserved": 0}, {"rental_uris": {"ios": "https://dc.lft.to/lastmile_qr_scan", "android": "https://dc.lft.to/lastmile_qr_scan"}, "lon": -77.040351, "type": "electric_scooter", "fusion_lat": 0.0, "lat": 38.924298666666665, "name": "e1a9ce483d5c0e97daf44e94829e22c5", "fusion_lon": 0.0, "bike_id": "e1a9ce483d5c0e97daf44e94829e22c5", "is_disabled": 0, "is_reserved": 0}, {"rental_uris": {"ios": "https://dc.lft.to/lastmile_qr_scan", "android": "https://dc.lft.to/lastmile_qr_scan"}, "lon": -77.0433445, "type": "electric_scooter", "fusion_lat": 0.0, "lat": 38.89656466666667, "name": "26613f370c03f4d7345dfbb55440c4b1", "fusion_lon": 0.0, "bike_id": "26613f370c03f4d7345dfbb55440c4b1", "is_disabled": 0, "is_reserved": 0}, {"rental_uris": {"ios": "https://dc.lft.to/lastmile_qr_scan", "android": "https://dc.lft.to/lastmile_qr_scan"}, "lon": -77.04405916666667, "type": "electric_scooter", "fusion_lat": 0.0, "lat": 38.909187833333334, "name": "9cc53b46053d85ac03d7508fa8970cc6", "fusion_lon": 0.0, "bike_id": "9cc53b46053d85ac03d7508fa8970cc6", "is_disabled": 0, "is_reserved": 0}, {"rental_uris": {"ios": "https://dc.lft.to/lastmile_qr_scan", "android": "https://dc.lft.to/lastmile_qr_scan"}, "lon": -76.94748483333333, "type": "electric_scooter", "fusion_lat": 0.0, "lat": 38.8969935, "name": "627d299bb003e7d376fff4d394e48de6", "fusion_lon": 0.0, "bike_id": "627d299bb003e7d376fff4d394e48de6", "is_disabled": 0, "is_reserved": 0}, {"rental_uris": {"ios": "https://dc.lft.to/lastmile_qr_scan", "android": "https://dc.lft.to/lastmile_qr_scan"}, "lon": -77.02732633333333, "type": "electric_scooter", "fusion_lat": 0.0, "lat": 38.92476533333333, "name": "698f517a1d1fb9566d974aa4391c39c5", "fusion_lon": 0.0, "bike_id": "698f517a1d1fb9566d974aa4391c39c5", "is_disabled": 0, "is_reserved": 0}, {"rental_uris": {"ios": "https://dc.lft.to/lastmile_qr_scan", "android": "https://dc.lft.to/lastmile_qr_scan"}, "lon": -77.041863, "type": "electric_scooter", "fusion_lat": 0.0, "lat": 38.920239333333335, "name": "fac429d9bf9e056abe24ffc24f5283b7", "fusion_lon": 0.0, "bike_id": "fac429d9bf9e056abe24ffc24f5283b7", "is_disabled": 0, "is_reserved": 0}, {"rental_uris": {"ios": "https://dc.lft.to/lastmile_qr_scan", "android": "https://dc.lft.to/lastmile_qr_scan"}, "lon": -77.0272265, "type": "electric_scooter", "fusion_lat": 0.0, "lat": 38.92479733333333, "name": "f9af2ce1165405102dea4b4a2b10bc63", "fusion_lon": 0.0, "bike_id": "f9af2ce1165405102dea4b4a2b10bc63", "is_disabled": 0, "is_reserved": 0}, {"rental_uris": {"ios": "https://dc.lft.to/lastmile_qr_scan", "android": "https://dc.lft.to/lastmile_qr_scan"}, "lon": -77.04378983333334, "type": "electric_scooter", "fusion_lat": 0.0, "lat": 38.9178365, "name": "81e57950e71da7dbfb775dc3020fa74c", "fusion_lon": 0.0, "bike_id": "81e57950e71da7dbfb775dc3020fa74c", "is_disabled": 0, "is_reserved": 0}, {"rental_uris": {"ios": "https://dc.lft.to/lastmile_qr_scan", "android": "https://dc.lft.to/lastmile_qr_scan"}, "lon": -77.04646333333334, "type": "electric_bike", "fusion_lat": 0.0, "lat": 38.852131666666665, "name": "78233ae899f46bd77db9ec537ffed77e", "fusion_lon": 0.0, "bike_id": "78233ae899f46bd77db9ec537ffed77e", "is_disabled": 0, "is_reserved": 0}, {"rental_uris": {"ios": "https://dc.lft.to/lastmile_qr_scan", "android": "https://dc.lft.to/lastmile_qr_scan"}, "lon": -77.03313583333333, "type": "electric_scooter", "fusion_lat": 0.0, "lat": 38.900370833333334, "name": "533d5bdb06b01fdcef671deb19962da7", "fusion_lon": 0.0, "bike_id": "533d5bdb06b01fdcef671deb19962da7", "is_disabled": 0, "is_reserved": 0}, {"rental_uris": {"ios": "https://dc.lft.to/lastmile_qr_scan", "android": "https://dc.lft.to/lastmile_qr_scan"}, "lon": -77.0418955, "type": "electric_scooter", "fusion_lat": 0.0, "lat": 38.926227, "name": "2ecac7704ac433fe913ddd63355d3a98", "fusion_lon": 0.0, "bike_id": "2ecac7704ac433fe913ddd63355d3a98", "is_disabled": 0, "is_reserved": 0}, {"rental_uris": {"ios": "https://dc.lft.to/lastmile_qr_scan", "android": "https://dc.lft.to/lastmile_qr_scan"}, "lon": -77.04154216666667, "type": "electric_scooter", "fusion_lat": 0.0, "lat": 38.919173, "name": "7f6011aced306d00858fbccce6d74ae6", "fusion_lon": 0.0, "bike_id": "7f6011aced306d00858fbccce6d74ae6", "is_disabled": 0, "is_reserved": 0}, {"rental_uris": {"ios": "https://dc.lft.to/lastmile_qr_scan", "android": "https://dc.lft.to/lastmile_qr_scan"}, "lon": -77.01089083333333, "type": "electric_scooter", "fusion_lat": 0.0, "lat": 38.895042833333335, "name": "f03320049b4b90a0dcf42c085dffd4e8", "fusion_lon": 0.0, "bike_id": "f03320049b4b90a0dcf42c085dffd4e8", "is_disabled": 0, "is_reserved": 0}, {"rental_uris": {"ios": "https://dc.lft.to/lastmile_qr_scan", "android": "https://dc.lft.to/lastmile_qr_scan"}, "lon": -77.018028, "type": "electric_scooter", "fusion_lat": 0.0, "lat": 38.91976433333333, "name": "ec7686e38ecaeebbc362bc0d5efa4003", "fusion_lon": 0.0, "bike_id": "ec7686e38ecaeebbc362bc0d5efa4003", "is_disabled": 0, "is_reserved": 0}, {"rental_uris": {"ios": "https://dc.lft.to/lastmile_qr_scan", "android": "https://dc.lft.to/lastmile_qr_scan"}, "lon": -77.02563583333334, "type": "electric_scooter", "fusion_lat": 0.0, "lat": 38.925355333333336, "name": "b4ebd8f1faae6260a3998787f394d06c", "fusion_lon": 0.0, "bike_id": "b4ebd8f1faae6260a3998787f394d06c", "is_disabled": 0, "is_reserved": 0}, {"rental_uris": {"ios": "https://dc.lft.to/lastmile_qr_scan", "android": "https://dc.lft.to/lastmile_qr_scan"}, "lon": -77.0234505, "type": "electric_scooter", "fusion_lat": 0.0, "lat": 38.96207733333333, "name": "ec7d54ae444a7fad43fab780db7d277d", "fusion_lon": 0.0, "bike_id": "ec7d54ae444a7fad43fab780db7d277d", "is_disabled": 0, "is_reserved": 0}, {"rental_uris": {"ios": "https://dc.lft.to/lastmile_qr_scan", "android": "https://dc.lft.to/lastmile_qr_scan"}, "lon": -77.00566866666666, "type": "electric_scooter", "fusion_lat": 0.0, "lat": 38.927223833333336, "name": "f129b0ef351293cc70e49b4773d26dbf", "fusion_lon": 0.0, "bike_id": "f129b0ef351293cc70e49b4773d26dbf", "is_disabled": 0, "is_reserved": 0}, {"rental_uris": {"ios": "https://dc.lft.to/lastmile_qr_scan", "android": "https://dc.lft.to/lastmile_qr_scan"}, "lon": -77.05733233333333, "type": "electric_scooter", "fusion_lat": 0.0, "lat": 38.93370783333334, "name": "f9ea04348c654d7d3a4d20d7ccd397d0", "fusion_lon": 0.0, "bike_id": "f9ea04348c654d7d3a4d20d7ccd397d0", "is_disabled": 0, "is_reserved": 0}, {"rental_uris": {"ios": "https://dc.lft.to/lastmile_qr_scan", "android": "https://dc.lft.to/lastmile_qr_scan"}, "lon": -77.00523833333334, "type": "electric_scooter", "fusion_lat": 0.0, "lat": 38.92903616666667, "name": "1bc95eac81dd80f7d6e086084bd36e74", "fusion_lon": 0.0, "bike_id": "1bc95eac81dd80f7d6e086084bd36e74", "is_disabled": 0, "is_reserved": 0}, {"rental_uris": {"ios": "https://dc.lft.to/lastmile_qr_scan", "android": "https://dc.lft.to/lastmile_qr_scan"}, "lon": -77.06357216666666, "type": "electric_scooter", "fusion_lat": 0.0, "lat": 38.94449683333333, "name": "0f43d9d4291a83f61d3dccf8f795ed1a", "fusion_lon": 0.0, "bike_id": "0f43d9d4291a83f61d3dccf8f795ed1a", "is_disabled": 0, "is_reserved": 0}, {"rental_uris": {"ios": "https://dc.lft.to/lastmile_qr_scan", "android": "https://dc.lft.to/lastmile_qr_scan"}, "lon": -77.04815733333334, "type": "electric_scooter", "fusion_lat": 0.0, "lat": 38.897501166666665, "name": "89f16772f8d186a8ef75df193d350a2b", "fusion_lon": 0.0, "bike_id": "89f16772f8d186a8ef75df193d350a2b", "is_disabled": 0, "is_reserved": 0}, {"rental_uris": {"ios": "https://dc.lft.to/lastmile_qr_scan", "android": "https://dc.lft.to/lastmile_qr_scan"}, "lon": -77.03959183333333, "type": "electric_scooter", "fusion_lat": 0.0, "lat": 38.914841, "name": "916ea6d19c236ef9325066e23fcddd3b", "fusion_lon": 0.0, "bike_id": "916ea6d19c236ef9325066e23fcddd3b", "is_disabled": 0, "is_reserved": 0}, {"rental_uris": {"ios": "https://dc.lft.to/lastmile_qr_scan", "android": "https://dc.lft.to/lastmile_qr_scan"}, "lon": -77.03538716666667, "type": "electric_scooter", "fusion_lat": 0.0, "lat": 38.926008333333336, "name": "890624408862eca3d62b9731bd8e2b80", "fusion_lon": 0.0, "bike_id": "890624408862eca3d62b9731bd8e2b80", "is_disabled": 0, "is_reserved": 0}, {"rental_uris": {"ios": "https://dc.lft.to/lastmile_qr_scan", "android": "https://dc.lft.to/lastmile_qr_scan"}, "lon": -77.0726885, "type": "electric_scooter", "fusion_lat": 0.0, "lat": 38.93479266666667, "name": "e1361a24f2e966dcff3c5a48f9072aa4", "fusion_lon": 0.0, "bike_id": "e1361a24f2e966dcff3c5a48f9072aa4", "is_disabled": 0, "is_reserved": 0}, {"rental_uris": {"ios": "https://dc.lft.to/lastmile_qr_scan", "android": "https://dc.lft.to/lastmile_qr_scan"}, "lon": -77.03025216666667, "type": "electric_scooter", "fusion_lat": 0.0, "lat": 38.931059166666664, "name": "f11f61496c26030f355acc0c3d6acf61", "fusion_lon": 0.0, "bike_id": "f11f61496c26030f355acc0c3d6acf61", "is_disabled": 0, "is_reserved": 0}, {"rental_uris": {"ios": "https://dc.lft.to/lastmile_qr_scan", "android": "https://dc.lft.to/lastmile_qr_scan"}, "lon": -77.05319683333333, "type": "electric_scooter", "fusion_lat": 0.0, "lat": 38.92356366666667, "name": "8a2bb3b8996c92316282393a780a3ed0", "fusion_lon": 0.0, "bike_id": "8a2bb3b8996c92316282393a780a3ed0", "is_disabled": 0, "is_reserved": 0}, {"rental_uris": {"ios": "https://dc.lft.to/lastmile_qr_scan", "android": "https://dc.lft.to/lastmile_qr_scan"}, "lon": -77.02196983333333, "type": "electric_scooter", "fusion_lat": 0.0, "lat": 38.89630583333334, "name": "c0e747ea3f0b1645d7bc428462fdae51", "fusion_lon": 0.0, "bike_id": "c0e747ea3f0b1645d7bc428462fdae51", "is_disabled": 0, "is_reserved": 0}, {"rental_uris": {"ios": "https://dc.lft.to/lastmile_qr_scan", "android": "https://dc.lft.to/lastmile_qr_scan"}, "lon": -77.03880933333333, "type": "electric_scooter", "fusion_lat": 0.0, "lat": 38.90813283333333, "name": "21d1898a276faa52a48d2c35d572a3b7", "fusion_lon": 0.0, "bike_id": "21d1898a276faa52a48d2c35d572a3b7", "is_disabled": 0, "is_reserved": 0}, {"rental_uris": {"ios": "https://dc.lft.to/lastmile_qr_scan", "android": "https://dc.lft.to/lastmile_qr_scan"}, "lon": -77.01183366666666, "type": "electric_scooter", "fusion_lat": 0.0, "lat": 38.900294333333335, "name": "7476b0b445c828d07b5c5fe6394a66ab", "fusion_lon": 0.0, "bike_id": "7476b0b445c828d07b5c5fe6394a66ab", "is_disabled": 0, "is_reserved": 0}, {"rental_uris": {"ios": "https://dc.lft.to/lastmile_qr_scan", "android": "https://dc.lft.to/lastmile_qr_scan"}, "lon": -77.0255985, "type": "electric_scooter", "fusion_lat": 0.0, "lat": 38.895157, "name": "40ad99ae2008f3f5b1b32538b65ec41f", "fusion_lon": 0.0, "bike_id": "40ad99ae2008f3f5b1b32538b65ec41f", "is_disabled": 0, "is_reserved": 0}, {"rental_uris": {"ios": "https://dc.lft.to/lastmile_qr_scan", "android": "https://dc.lft.to/lastmile_qr_scan"}, "lon": -77.0442205, "type": "electric_scooter", "fusion_lat": 0.0, "lat": 38.926101333333335, "name": "25148830dbf787d1c21b2c45191b0eb0", "fusion_lon": 0.0, "bike_id": "25148830dbf787d1c21b2c45191b0eb0", "is_disabled": 0, "is_reserved": 0}, {"rental_uris": {"ios": "https://dc.lft.to/lastmile_qr_scan", "android": "https://dc.lft.to/lastmile_qr_scan"}, "lon": -77.0135875, "type": "electric_scooter", "fusion_lat": 0.0, "lat": 38.95289266666666, "name": "70b90781e7f1cd61e70d4847d137b668", "fusion_lon": 0.0, "bike_id": "70b90781e7f1cd61e70d4847d137b668", "is_disabled": 0, "is_reserved": 0}, {"rental_uris": {"ios": "https://dc.lft.to/lastmile_qr_scan", "android": "https://dc.lft.to/lastmile_qr_scan"}, "lon": -77.02423216666666, "type": "electric_scooter", "fusion_lat": 0.0, "lat": 38.8922175, "name": "6efe6d37403e2aa538c62e5f6f7f8df7", "fusion_lon": 0.0, "bike_id": "6efe6d37403e2aa538c62e5f6f7f8df7", "is_disabled": 0, "is_reserved": 0}, {"rental_uris": {"ios": "https://dc.lft.to/lastmile_qr_scan", "android": "https://dc.lft.to/lastmile_qr_scan"}, "lon": -76.9837425, "type": "electric_scooter", "fusion_lat": 0.0, "lat": 38.9153735, "name": "285eec4bb934ebc0fa110babeaee936e", "fusion_lon": 0.0, "bike_id": "285eec4bb934ebc0fa110babeaee936e", "is_disabled": 0, "is_reserved": 0}, {"rental_uris": {"ios": "https://dc.lft.to/lastmile_qr_scan", "android": "https://dc.lft.to/lastmile_qr_scan"}, "lon": -77.01229883333333, "type": "electric_scooter", "fusion_lat": 0.0, "lat": 38.8641035, "name": "854564aa58b1a017a2d362f82c122bd9", "fusion_lon": 0.0, "bike_id": "854564aa58b1a017a2d362f82c122bd9", "is_disabled": 0, "is_reserved": 0}, {"rental_uris": {"ios": "https://dc.lft.to/lastmile_qr_scan", "android": "https://dc.lft.to/lastmile_qr_scan"}, "lon": -77.009539, "type": "electric_scooter", "fusion_lat": 0.0, "lat": 38.90733916666667, "name": "7070183f47668817cc8c2e78a0cecae1", "fusion_lon": 0.0, "bike_id": "7070183f47668817cc8c2e78a0cecae1", "is_disabled": 0, "is_reserved": 0}, {"rental_uris": {"ios": "https://dc.lft.to/lastmile_qr_scan", "android": "https://dc.lft.to/lastmile_qr_scan"}, "lon": -76.93345766666667, "type": "electric_scooter", "fusion_lat": 0.0, "lat": 38.89912016666667, "name": "7305a3831739f78d41d724b230bf66b0", "fusion_lon": 0.0, "bike_id": "7305a3831739f78d41d724b230bf66b0", "is_disabled": 0, "is_reserved": 0}, {"rental_uris": {"ios": "https://dc.lft.to/lastmile_qr_scan", "android": "https://dc.lft.to/lastmile_qr_scan"}, "lon": -77.04082066666666, "type": "electric_scooter", "fusion_lat": 0.0, "lat": 38.9073165, "name": "4725b128a318c689d1daf9d32b4d4d25", "fusion_lon": 0.0, "bike_id": "4725b128a318c689d1daf9d32b4d4d25", "is_disabled": 0, "is_reserved": 0}, {"rental_uris": {"ios": "https://dc.lft.to/lastmile_qr_scan", "android": "https://dc.lft.to/lastmile_qr_scan"}, "lon": -77.0043975, "type": "electric_scooter", "fusion_lat": 0.0, "lat": 38.876855666666664, "name": "ce529b384bcf161983799596547c3738", "fusion_lon": 0.0, "bike_id": "ce529b384bcf161983799596547c3738", "is_disabled": 0, "is_reserved": 0}, {"rental_uris": {"ios": "https://dc.lft.to/lastmile_qr_scan", "android": "https://dc.lft.to/lastmile_qr_scan"}, "lon": -77.04389233333333, "type": "electric_scooter", "fusion_lat": 0.0, "lat": 38.922765, "name": "973c8c35ce17fdccf310f71a599e064f", "fusion_lon": 0.0, "bike_id": "973c8c35ce17fdccf310f71a599e064f", "is_disabled": 0, "is_reserved": 0}, {"rental_uris": {"ios": "https://dc.lft.to/lastmile_qr_scan", "android": "https://dc.lft.to/lastmile_qr_scan"}, "lon": -77.0200135, "type": "electric_scooter", "fusion_lat": 0.0, "lat": 38.892453, "name": "d913eb63cadbf3a2866f9c4d2d84e7db", "fusion_lon": 0.0, "bike_id": "d913eb63cadbf3a2866f9c4d2d84e7db", "is_disabled": 0, "is_reserved": 0}, {"rental_uris": {"ios": "https://dc.lft.to/lastmile_qr_scan", "android": "https://dc.lft.to/lastmile_qr_scan"}, "lon": -76.99032966666667, "type": "electric_scooter", "fusion_lat": 0.0, "lat": 38.858704833333334, "name": "4e0c5132c7bdc834f206ff0b15b7b7ae", "fusion_lon": 0.0, "bike_id": "4e0c5132c7bdc834f206ff0b15b7b7ae", "is_disabled": 0, "is_reserved": 0}, {"rental_uris": {"ios": "https://dc.lft.to/lastmile_qr_scan", "android": "https://dc.lft.to/lastmile_qr_scan"}, "lon": -77.0151695, "type": "electric_scooter", "fusion_lat": 0.0, "lat": 38.918693166666664, "name": "5ce0f700d75e05bbc6a0c0df90d84804", "fusion_lon": 0.0, "bike_id": "5ce0f700d75e05bbc6a0c0df90d84804", "is_disabled": 0, "is_reserved": 0}, {"rental_uris": {"ios": "https://dc.lft.to/lastmile_qr_scan", "android": "https://dc.lft.to/lastmile_qr_scan"}, "lon": -76.97192633333333, "type": "electric_scooter", "fusion_lat": 0.0, "lat": 38.912606833333335, "name": "03c86405165c62800f1cde096a076c23", "fusion_lon": 0.0, "bike_id": "03c86405165c62800f1cde096a076c23", "is_disabled": 0, "is_reserved": 0}, {"rental_uris": {"ios": "https://dc.lft.to/lastmile_qr_scan", "android": "https://dc.lft.to/lastmile_qr_scan"}, "lon": -77.06692466666667, "type": "electric_scooter", "fusion_lat": 0.0, "lat": 38.90978466666667, "name": "c8dd1cec605da186691d51627d16fc76", "fusion_lon": 0.0, "bike_id": "c8dd1cec605da186691d51627d16fc76", "is_disabled": 0, "is_reserved": 0}, {"rental_uris": {"ios": "https://dc.lft.to/lastmile_qr_scan", "android": "https://dc.lft.to/lastmile_qr_scan"}, "lon": -77.02939733333334, "type": "electric_scooter", "fusion_lat": 0.0, "lat": 38.91684933333333, "name": "acf04683f14483c53f1b2bbbaed81c7e", "fusion_lon": 0.0, "bike_id": "acf04683f14483c53f1b2bbbaed81c7e", "is_disabled": 0, "is_reserved": 0}, {"rental_uris": {"ios": "https://dc.lft.to/lastmile_qr_scan", "android": "https://dc.lft.to/lastmile_qr_scan"}, "lon": -76.97613066666666, "type": "electric_bike", "fusion_lat": 0.0, "lat": 38.91314366666667, "name": "4e2074dc255ce99c2856e34dfa402620", "fusion_lon": 0.0, "bike_id": "4e2074dc255ce99c2856e34dfa402620", "is_disabled": 0, "is_reserved": 0}, {"rental_uris": {"ios": "https://dc.lft.to/lastmile_qr_scan", "android": "https://dc.lft.to/lastmile_qr_scan"}, "lon": -77.0025815, "type": "electric_bike", "fusion_lat": 0.0, "lat": 38.91174783333334, "name": "f369080b9de61174afe0669ba39001dd", "fusion_lon": 0.0, "bike_id": "f369080b9de61174afe0669ba39001dd", "is_disabled": 0, "is_reserved": 0}, {"rental_uris": {"ios": "https://dc.lft.to/lastmile_qr_scan", "android": "https://dc.lft.to/lastmile_qr_scan"}, "lon": -77.01823216666666, "type": "electric_scooter", "fusion_lat": 0.0, "lat": 38.90814783333333, "name": "695459874254ab45faa4eb104ae2aec4", "fusion_lon": 0.0, "bike_id": "695459874254ab45faa4eb104ae2aec4", "is_disabled": 0, "is_reserved": 0}, {"rental_uris": {"ios": "https://dc.lft.to/lastmile_qr_scan", "android": "https://dc.lft.to/lastmile_qr_scan"}, "lon": -77.0231935, "type": "electric_scooter", "fusion_lat": 0.0, "lat": 38.88741233333333, "name": "493e80bbd1902e51f75382f2bb9d8795", "fusion_lon": 0.0, "bike_id": "493e80bbd1902e51f75382f2bb9d8795", "is_disabled": 0, "is_reserved": 0}, {"rental_uris": {"ios": "https://dc.lft.to/lastmile_qr_scan", "android": "https://dc.lft.to/lastmile_qr_scan"}, "lon": -77.03524533333334, "type": "electric_scooter", "fusion_lat": 0.0, "lat": 38.922178333333335, "name": "7f0f798c2cc498d63447d9281e5c53e9", "fusion_lon": 0.0, "bike_id": "7f0f798c2cc498d63447d9281e5c53e9", "is_disabled": 0, "is_reserved": 0}, {"rental_uris": {"ios": "https://dc.lft.to/lastmile_qr_scan", "android": "https://dc.lft.to/lastmile_qr_scan"}, "lon": -77.04137066666667, "type": "electric_scooter", "fusion_lat": 0.0, "lat": 38.921665, "name": "c2d6af68a83b519a32d89dd4f3e40cea", "fusion_lon": 0.0, "bike_id": "c2d6af68a83b519a32d89dd4f3e40cea", "is_disabled": 0, "is_reserved": 0}, {"rental_uris": {"ios": "https://dc.lft.to/lastmile_qr_scan", "android": "https://dc.lft.to/lastmile_qr_scan"}, "lon": -76.99820433333333, "type": "electric_scooter", "fusion_lat": 0.0, "lat": 38.88872516666667, "name": "49040687a53e49366d40e4aca6dc69e2", "fusion_lon": 0.0, "bike_id": "49040687a53e49366d40e4aca6dc69e2", "is_disabled": 0, "is_reserved": 0}, {"rental_uris": {"ios": "https://dc.lft.to/lastmile_qr_scan", "android": "https://dc.lft.to/lastmile_qr_scan"}, "lon": -77.0355925, "type": "electric_bike", "fusion_lat": 0.0, "lat": 38.964764, "name": "3a98e04ac5c612a79aa5ad15d083f096", "fusion_lon": 0.0, "bike_id": "3a98e04ac5c612a79aa5ad15d083f096", "is_disabled": 0, "is_reserved": 0}, {"rental_uris": {"ios": "https://dc.lft.to/lastmile_qr_scan", "android": "https://dc.lft.to/lastmile_qr_scan"}, "lon": -77.04333016666666, "type": "electric_scooter", "fusion_lat": 0.0, "lat": 38.896444333333335, "name": "5d3c122e58eb5408a550eba5daecf273", "fusion_lon": 0.0, "bike_id": "5d3c122e58eb5408a550eba5daecf273", "is_disabled": 0, "is_reserved": 0}, {"rental_uris": {"ios": "https://dc.lft.to/lastmile_qr_scan", "android": "https://dc.lft.to/lastmile_qr_scan"}, "lon": -77.01623616666667, "type": "electric_scooter", "fusion_lat": 0.0, "lat": 38.9070775, "name": "e0a97be1161f7ff26c8d0bcf846305f8", "fusion_lon": 0.0, "bike_id": "e0a97be1161f7ff26c8d0bcf846305f8", "is_disabled": 0, "is_reserved": 0}, {"rental_uris": {"ios": "https://dc.lft.to/lastmile_qr_scan", "android": "https://dc.lft.to/lastmile_qr_scan"}, "lon": -77.01881216666666, "type": "electric_scooter", "fusion_lat": 0.0, "lat": 38.91194216666667, "name": "0fdede029b5baa9f77f7e626a14e744a", "fusion_lon": 0.0, "bike_id": "0fdede029b5baa9f77f7e626a14e744a", "is_disabled": 0, "is_reserved": 0}, {"rental_uris": {"ios": "https://dc.lft.to/lastmile_qr_scan", "android": "https://dc.lft.to/lastmile_qr_scan"}, "lon": -77.04372683333334, "type": "electric_scooter", "fusion_lat": 0.0, "lat": 38.91787983333333, "name": "847d43921349c8464e1f3811c7e10d69", "fusion_lon": 0.0, "bike_id": "847d43921349c8464e1f3811c7e10d69", "is_disabled": 0, "is_reserved": 0}, {"rental_uris": {"ios": "https://dc.lft.to/lastmile_qr_scan", "android": "https://dc.lft.to/lastmile_qr_scan"}, "lon": -77.0255565, "type": "electric_scooter", "fusion_lat": 0.0, "lat": 38.884302, "name": "1febd360cb27270223fc0fd9a234ba70", "fusion_lon": 0.0, "bike_id": "1febd360cb27270223fc0fd9a234ba70", "is_disabled": 0, "is_reserved": 0}, {"rental_uris": {"ios": "https://dc.lft.to/lastmile_qr_scan", "android": "https://dc.lft.to/lastmile_qr_scan"}, "lon": -76.98513083333333, "type": "electric_scooter", "fusion_lat": 0.0, "lat": 38.90610616666667, "name": "e1262bfbcf652c0f22ff115cbfcc9aaf", "fusion_lon": 0.0, "bike_id": "e1262bfbcf652c0f22ff115cbfcc9aaf", "is_disabled": 0, "is_reserved": 0}, {"rental_uris": {"ios": "https://dc.lft.to/lastmile_qr_scan", "android": "https://dc.lft.to/lastmile_qr_scan"}, "lon": -76.99966466666666, "type": "electric_scooter", "fusion_lat": 0.0, "lat": 38.90930316666667, "name": "814dca5a52fa6749d16d10b9e433a641", "fusion_lon": 0.0, "bike_id": "814dca5a52fa6749d16d10b9e433a641", "is_disabled": 0, "is_reserved": 0}, {"rental_uris": {"ios": "https://dc.lft.to/lastmile_qr_scan", "android": "https://dc.lft.to/lastmile_qr_scan"}, "lon": -77.01889116666666, "type": "electric_scooter", "fusion_lat": 0.0, "lat": 38.906108333333336, "name": "c581f25d60a751e8decdf339dfb192ef", "fusion_lon": 0.0, "bike_id": "c581f25d60a751e8decdf339dfb192ef", "is_disabled": 0, "is_reserved": 0}, {"rental_uris": {"ios": "https://dc.lft.to/lastmile_qr_scan", "android": "https://dc.lft.to/lastmile_qr_scan"}, "lon": -77.00214766666667, "type": "electric_scooter", "fusion_lat": 0.0, "lat": 38.900263333333335, "name": "75d8fea98688a0fb37dc22546233c636", "fusion_lon": 0.0, "bike_id": "75d8fea98688a0fb37dc22546233c636", "is_disabled": 0, "is_reserved": 0}, {"rental_uris": {"ios": "https://dc.lft.to/lastmile_qr_scan", "android": "https://dc.lft.to/lastmile_qr_scan"}, "lon": -77.0055385, "type": "electric_scooter", "fusion_lat": 0.0, "lat": 38.87679283333333, "name": "bfcfd4d2f3d975b87a5c83cb3698031d", "fusion_lon": 0.0, "bike_id": "bfcfd4d2f3d975b87a5c83cb3698031d", "is_disabled": 0, "is_reserved": 0}, {"rental_uris": {"ios": "https://dc.lft.to/lastmile_qr_scan", "android": "https://dc.lft.to/lastmile_qr_scan"}, "lon": -77.02614483333333, "type": "electric_scooter", "fusion_lat": 0.0, "lat": 38.95185466666667, "name": "fef659c32e54a0c58f9854f33ab72bb1", "fusion_lon": 0.0, "bike_id": "fef659c32e54a0c58f9854f33ab72bb1", "is_disabled": 0, "is_reserved": 0}, {"rental_uris": {"ios": "https://dc.lft.to/lastmile_qr_scan", "android": "https://dc.lft.to/lastmile_qr_scan"}, "lon": -77.04072533333333, "type": "electric_bike", "fusion_lat": 0.0, "lat": 38.8124835, "name": "937e1e43585318e2eddff87094b9fd38", "fusion_lon": 0.0, "bike_id": "937e1e43585318e2eddff87094b9fd38", "is_disabled": 0, "is_reserved": 0}, {"rental_uris": {"ios": "https://dc.lft.to/lastmile_qr_scan", "android": "https://dc.lft.to/lastmile_qr_scan"}, "lon": -77.02988433333333, "type": "electric_scooter", "fusion_lat": 0.0, "lat": 38.9563045, "name": "1234561a9b3408928c5760cbdaec2a6b", "fusion_lon": 0.0, "bike_id": "1234561a9b3408928c5760cbdaec2a6b", "is_disabled": 0, "is_reserved": 0}, {"rental_uris": {"ios": "https://dc.lft.to/lastmile_qr_scan", "android": "https://dc.lft.to/lastmile_qr_scan"}, "lon": -77.05753033333333, "type": "electric_scooter", "fusion_lat": 0.0, "lat": 38.924622, "name": "8be17b044c206fa984a931bf3035bed3", "fusion_lon": 0.0, "bike_id": "8be17b044c206fa984a931bf3035bed3", "is_disabled": 0, "is_reserved": 0}, {"rental_uris": {"ios": "https://dc.lft.to/lastmile_qr_scan", "android": "https://dc.lft.to/lastmile_qr_scan"}, "lon": -77.06450466666666, "type": "electric_scooter", "fusion_lat": 0.0, "lat": 38.9465845, "name": "61b1d146fb738a4f35370d5de2345b0e", "fusion_lon": 0.0, "bike_id": "61b1d146fb738a4f35370d5de2345b0e", "is_disabled": 0, "is_reserved": 0}, {"rental_uris": {"ios": "https://dc.lft.to/lastmile_qr_scan", "android": "https://dc.lft.to/lastmile_qr_scan"}, "lon": -76.9938125, "type": "electric_scooter", "fusion_lat": 0.0, "lat": 38.90053866666667, "name": "49a6d5e16c57cb89dd0dcf69e4e1a9eb", "fusion_lon": 0.0, "bike_id": "49a6d5e16c57cb89dd0dcf69e4e1a9eb", "is_disabled": 0, "is_reserved": 0}, {"rental_uris": {"ios": "https://dc.lft.to/lastmile_qr_scan", "android": "https://dc.lft.to/lastmile_qr_scan"}, "lon": -76.93884633333333, "type": "electric_bike", "fusion_lat": 0.0, "lat": 38.883325, "name": "be469df46bbb08f2f84b0f89df0af227", "fusion_lon": 0.0, "bike_id": "be469df46bbb08f2f84b0f89df0af227", "is_disabled": 0, "is_reserved": 0}, {"rental_uris": {"ios": "https://dc.lft.to/lastmile_qr_scan", "android": "https://dc.lft.to/lastmile_qr_scan"}, "lon": -77.05223, "type": "electric_scooter", "fusion_lat": 0.0, "lat": 38.92500033333334, "name": "ccc156edb208edccae1bec83ee8b197e", "fusion_lon": 0.0, "bike_id": "ccc156edb208edccae1bec83ee8b197e", "is_disabled": 0, "is_reserved": 0}, {"rental_uris": {"ios": "https://dc.lft.to/lastmile_qr_scan", "android": "https://dc.lft.to/lastmile_qr_scan"}, "lon": -77.02979866666666, "type": "electric_scooter", "fusion_lat": 0.0, "lat": 38.94604616666667, "name": "ecc6bf8167da9d2f80bdde8d154eb420", "fusion_lon": 0.0, "bike_id": "ecc6bf8167da9d2f80bdde8d154eb420", "is_disabled": 0, "is_reserved": 0}, {"rental_uris": {"ios": "https://dc.lft.to/lastmile_qr_scan", "android": "https://dc.lft.to/lastmile_qr_scan"}, "lon": -77.058815, "type": "electric_scooter", "fusion_lat": 0.0, "lat": 38.936411, "name": "d7b345be5bd738266a71167f9372b265", "fusion_lon": 0.0, "bike_id": "d7b345be5bd738266a71167f9372b265", "is_disabled": 0, "is_reserved": 0}, {"rental_uris": {"ios": "https://dc.lft.to/lastmile_qr_scan", "android": "https://dc.lft.to/lastmile_qr_scan"}, "lon": -77.0298205, "type": "electric_scooter", "fusion_lat": 0.0, "lat": 38.94517366666667, "name": "077f03a245ddbc79f4859aa0e79723ae", "fusion_lon": 0.0, "bike_id": "077f03a245ddbc79f4859aa0e79723ae", "is_disabled": 0, "is_reserved": 0}, {"rental_uris": {"ios": "https://dc.lft.to/lastmile_qr_scan", "android": "https://dc.lft.to/lastmile_qr_scan"}, "lon": -77.0327125, "type": "electric_scooter", "fusion_lat": 0.0, "lat": 38.91981166666667, "name": "9152ec0133619029fa489c22d8f680ef", "fusion_lon": 0.0, "bike_id": "9152ec0133619029fa489c22d8f680ef", "is_disabled": 0, "is_reserved": 0}, {"rental_uris": {"ios": "https://dc.lft.to/lastmile_qr_scan", "android": "https://dc.lft.to/lastmile_qr_scan"}, "lon": -77.02567366666666, "type": "electric_scooter", "fusion_lat": 0.0, "lat": 38.972425666666666, "name": "b0dee37cb42d3db4b4f00ac87e2022b5", "fusion_lon": 0.0, "bike_id": "b0dee37cb42d3db4b4f00ac87e2022b5", "is_disabled": 0, "is_reserved": 0}, {"rental_uris": {"ios": "https://dc.lft.to/lastmile_qr_scan", "android": "https://dc.lft.to/lastmile_qr_scan"}, "lon": -77.04159833333334, "type": "electric_scooter", "fusion_lat": 0.0, "lat": 38.91488616666667, "name": "01838b5cb854e728b5951f7740f1d3d9", "fusion_lon": 0.0, "bike_id": "01838b5cb854e728b5951f7740f1d3d9", "is_disabled": 0, "is_reserved": 0}, {"rental_uris": {"ios": "https://dc.lft.to/lastmile_qr_scan", "android": "https://dc.lft.to/lastmile_qr_scan"}, "lon": -77.089375, "type": "electric_bike", "fusion_lat": 0.0, "lat": 38.8410775, "name": "9426194eaa28a04490e84e2596e05235", "fusion_lon": 0.0, "bike_id": "9426194eaa28a04490e84e2596e05235", "is_disabled": 0, "is_reserved": 0}, {"rental_uris": {"ios": "https://dc.lft.to/lastmile_qr_scan", "android": "https://dc.lft.to/lastmile_qr_scan"}, "lon": -77.02718833333333, "type": "electric_scooter", "fusion_lat": 0.0, "lat": 38.911647333333335, "name": "d4c6bc909fafe90481452f34a9d539df", "fusion_lon": 0.0, "bike_id": "d4c6bc909fafe90481452f34a9d539df", "is_disabled": 0, "is_reserved": 0}, {"rental_uris": {"ios": "https://dc.lft.to/lastmile_qr_scan", "android": "https://dc.lft.to/lastmile_qr_scan"}, "lon": -77.03954716666667, "type": "electric_scooter", "fusion_lat": 0.0, "lat": 38.926137, "name": "57cf84003d83f60e39251ad8bb5edca0", "fusion_lon": 0.0, "bike_id": "57cf84003d83f60e39251ad8bb5edca0", "is_disabled": 0, "is_reserved": 0}, {"rental_uris": {"ios": "https://dc.lft.to/lastmile_qr_scan", "android": "https://dc.lft.to/lastmile_qr_scan"}, "lon": -77.02178366666666, "type": "electric_scooter", "fusion_lat": 0.0, "lat": 38.89728366666667, "name": "e68ee42ced95086dbab390b08d63f89f", "fusion_lon": 0.0, "bike_id": "e68ee42ced95086dbab390b08d63f89f", "is_disabled": 0, "is_reserved": 0}, {"rental_uris": {"ios": "https://dc.lft.to/lastmile_qr_scan", "android": "https://dc.lft.to/lastmile_qr_scan"}, "lon": -76.95734433333334, "type": "electric_scooter", "fusion_lat": 0.0, "lat": 38.89220666666667, "name": "f1ead4db5d2fccfe3743f0ab5e8c05a5", "fusion_lon": 0.0, "bike_id": "f1ead4db5d2fccfe3743f0ab5e8c05a5", "is_disabled": 0, "is_reserved": 0}, {"rental_uris": {"ios": "https://dc.lft.to/lastmile_qr_scan", "android": "https://dc.lft.to/lastmile_qr_scan"}, "lon": -77.13182966666666, "type": "electric_bike", "fusion_lat": 0.0, "lat": 38.86911966666667, "name": "c5c0b5c4c4b9c67a72ac62963fa1b7c8", "fusion_lon": 0.0, "bike_id": "c5c0b5c4c4b9c67a72ac62963fa1b7c8", "is_disabled": 0, "is_reserved": 0}, {"rental_uris": {"ios": "https://dc.lft.to/lastmile_qr_scan", "android": "https://dc.lft.to/lastmile_qr_scan"}, "lon": -77.02492116666667, "type": "electric_scooter", "fusion_lat": 0.0, "lat": 38.9018275, "name": "e771c2e03924884bc6f28809fe1acb9b", "fusion_lon": 0.0, "bike_id": "e771c2e03924884bc6f28809fe1acb9b", "is_disabled": 0, "is_reserved": 0}, {"rental_uris": {"ios": "https://dc.lft.to/lastmile_qr_scan", "android": "https://dc.lft.to/lastmile_qr_scan"}, "lon": -77.02999433333333, "type": "electric_bike", "fusion_lat": 0.0, "lat": 38.90030183333333, "name": "c4ac1944a74d1fa522f12e931bdd5b34", "fusion_lon": 0.0, "bike_id": "c4ac1944a74d1fa522f12e931bdd5b34", "is_disabled": 0, "is_reserved": 0}, {"rental_uris": {"ios": "https://dc.lft.to/lastmile_qr_scan", "android": "https://dc.lft.to/lastmile_qr_scan"}, "lon": -77.037934, "type": "electric_bike", "fusion_lat": 0.0, "lat": 38.99673, "name": "36ab85fe5ff8585f2f23b5f2abbb8ddb", "fusion_lon": 0.0, "bike_id": "36ab85fe5ff8585f2f23b5f2abbb8ddb", "is_disabled": 0, "is_reserved": 0}, {"rental_uris": {"ios": "https://dc.lft.to/lastmile_qr_scan", "android": "https://dc.lft.to/lastmile_qr_scan"}, "lon": -77.03827933333334, "type": "electric_scooter", "fusion_lat": 0.0, "lat": 38.921729666666664, "name": "f7ed1889077842e74170ede6f534ec72", "fusion_lon": 0.0, "bike_id": "f7ed1889077842e74170ede6f534ec72", "is_disabled": 0, "is_reserved": 0}, {"rental_uris": {"ios": "https://dc.lft.to/lastmile_qr_scan", "android": "https://dc.lft.to/lastmile_qr_scan"}, "lon": -77.04814983333333, "type": "electric_scooter", "fusion_lat": 0.0, "lat": 38.91657516666667, "name": "59da64cb465b951554d411da10e4103b", "fusion_lon": 0.0, "bike_id": "59da64cb465b951554d411da10e4103b", "is_disabled": 0, "is_reserved": 0}, {"rental_uris": {"ios": "https://dc.lft.to/lastmile_qr_scan", "android": "https://dc.lft.to/lastmile_qr_scan"}, "lon": -77.018884, "type": "electric_scooter", "fusion_lat": 0.0, "lat": 38.90620116666667, "name": "efb6a33a6a3f24a3f759278ecec9f9e5", "fusion_lon": 0.0, "bike_id": "efb6a33a6a3f24a3f759278ecec9f9e5", "is_disabled": 0, "is_reserved": 0}, {"rental_uris": {"ios": "https://dc.lft.to/lastmile_qr_scan", "android": "https://dc.lft.to/lastmile_qr_scan"}, "lon": -77.04307516666667, "type": "electric_scooter", "fusion_lat": 0.0, "lat": 38.90723033333333, "name": "acae5b5cfec0452e0c969de9805dfc03", "fusion_lon": 0.0, "bike_id": "acae5b5cfec0452e0c969de9805dfc03", "is_disabled": 0, "is_reserved": 0}, {"rental_uris": {"ios": "https://dc.lft.to/lastmile_qr_scan", "android": "https://dc.lft.to/lastmile_qr_scan"}, "lon": -77.04034033333333, "type": "electric_scooter", "fusion_lat": 0.0, "lat": 38.924313833333336, "name": "48f53121a5d523253f21de6eb75af2ca", "fusion_lon": 0.0, "bike_id": "48f53121a5d523253f21de6eb75af2ca", "is_disabled": 0, "is_reserved": 0}, {"rental_uris": {"ios": "https://dc.lft.to/lastmile_qr_scan", "android": "https://dc.lft.to/lastmile_qr_scan"}, "lon": -77.0135885, "type": "electric_scooter", "fusion_lat": 0.0, "lat": 38.919837666666666, "name": "fa0190408115b99745ccca51f4736f6c", "fusion_lon": 0.0, "bike_id": "fa0190408115b99745ccca51f4736f6c", "is_disabled": 0, "is_reserved": 0}, {"rental_uris": {"ios": "https://dc.lft.to/lastmile_qr_scan", "android": "https://dc.lft.to/lastmile_qr_scan"}, "lon": -77.0326375, "type": "electric_scooter", "fusion_lat": 0.0, "lat": 38.91987566666667, "name": "47080c8c47128ef74019bd9b246dede1", "fusion_lon": 0.0, "bike_id": "47080c8c47128ef74019bd9b246dede1", "is_disabled": 0, "is_reserved": 0}, {"rental_uris": {"ios": "https://dc.lft.to/lastmile_qr_scan", "android": "https://dc.lft.to/lastmile_qr_scan"}, "lon": -77.03330366666667, "type": "electric_scooter", "fusion_lat": 0.0, "lat": 38.903131333333334, "name": "1e19a4d79ef7243e13f62e3f911f58b7", "fusion_lon": 0.0, "bike_id": "1e19a4d79ef7243e13f62e3f911f58b7", "is_disabled": 0, "is_reserved": 0}, {"rental_uris": {"ios": "https://dc.lft.to/lastmile_qr_scan", "android": "https://dc.lft.to/lastmile_qr_scan"}, "lon": -77.03062816666667, "type": "electric_scooter", "fusion_lat": 0.0, "lat": 38.88044583333333, "name": "bbf6c3f16852b3d4732a377eef39899e", "fusion_lon": 0.0, "bike_id": "bbf6c3f16852b3d4732a377eef39899e", "is_disabled": 0, "is_reserved": 0}, {"rental_uris": {"ios": "https://dc.lft.to/lastmile_qr_scan", "android": "https://dc.lft.to/lastmile_qr_scan"}, "lon": -77.039381, "type": "electric_scooter", "fusion_lat": 0.0, "lat": 38.93149316666667, "name": "4210b91e532f2d52775d3e53f12d8dbf", "fusion_lon": 0.0, "bike_id": "4210b91e532f2d52775d3e53f12d8dbf", "is_disabled": 0, "is_reserved": 0}, {"rental_uris": {"ios": "https://dc.lft.to/lastmile_qr_scan", "android": "https://dc.lft.to/lastmile_qr_scan"}, "lon": -77.05077666666666, "type": "electric_scooter", "fusion_lat": 0.0, "lat": 38.90554483333333, "name": "4d1bddfa642acc328252b40247636e85", "fusion_lon": 0.0, "bike_id": "4d1bddfa642acc328252b40247636e85", "is_disabled": 0, "is_reserved": 0}, {"rental_uris": {"ios": "https://dc.lft.to/lastmile_qr_scan", "android": "https://dc.lft.to/lastmile_qr_scan"}, "lon": -77.0395715, "type": "electric_scooter", "fusion_lat": 0.0, "lat": 38.89852916666667, "name": "9f32a46b16c55afe1f4b6add909d36bb", "fusion_lon": 0.0, "bike_id": "9f32a46b16c55afe1f4b6add909d36bb", "is_disabled": 0, "is_reserved": 0}, {"rental_uris": {"ios": "https://dc.lft.to/lastmile_qr_scan", "android": "https://dc.lft.to/lastmile_qr_scan"}, "lon": -76.94940666666666, "type": "electric_scooter", "fusion_lat": 0.0, "lat": 38.883789, "name": "7bfbdb113fb86648887616b2599ee3d0", "fusion_lon": 0.0, "bike_id": "7bfbdb113fb86648887616b2599ee3d0", "is_disabled": 0, "is_reserved": 0}, {"rental_uris": {"ios": "https://dc.lft.to/lastmile_qr_scan", "android": "https://dc.lft.to/lastmile_qr_scan"}, "lon": -76.97729483333333, "type": "electric_scooter", "fusion_lat": 0.0, "lat": 38.87293666666667, "name": "af33a04c55068244ecd07d6c28155975", "fusion_lon": 0.0, "bike_id": "af33a04c55068244ecd07d6c28155975", "is_disabled": 0, "is_reserved": 0}, {"rental_uris": {"ios": "https://dc.lft.to/lastmile_qr_scan", "android": "https://dc.lft.to/lastmile_qr_scan"}, "lon": -77.04683433333334, "type": "electric_scooter", "fusion_lat": 0.0, "lat": 38.90864716666667, "name": "28ed597154efa01780e7866682aac8fc", "fusion_lon": 0.0, "bike_id": "28ed597154efa01780e7866682aac8fc", "is_disabled": 0, "is_reserved": 0}, {"rental_uris": {"ios": "https://dc.lft.to/lastmile_qr_scan", "android": "https://dc.lft.to/lastmile_qr_scan"}, "lon": -77.01731, "type": "electric_scooter", "fusion_lat": 0.0, "lat": 38.882009, "name": "7e789dadeae041d7a0f2b863e65c305d", "fusion_lon": 0.0, "bike_id": "7e789dadeae041d7a0f2b863e65c305d", "is_disabled": 0, "is_reserved": 0}, {"rental_uris": {"ios": "https://dc.lft.to/lastmile_qr_scan", "android": "https://dc.lft.to/lastmile_qr_scan"}, "lon": -77.00565983333334, "type": "electric_scooter", "fusion_lat": 0.0, "lat": 38.880465666666666, "name": "c79beda0c4f5b88c933f707d29091450", "fusion_lon": 0.0, "bike_id": "c79beda0c4f5b88c933f707d29091450", "is_disabled": 0, "is_reserved": 0}, {"rental_uris": {"ios": "https://dc.lft.to/lastmile_qr_scan", "android": "https://dc.lft.to/lastmile_qr_scan"}, "lon": -77.05196016666666, "type": "electric_scooter", "fusion_lat": 0.0, "lat": 38.92443933333333, "name": "34599a0d9c860c45cf7be06963e543de", "fusion_lon": 0.0, "bike_id": "34599a0d9c860c45cf7be06963e543de", "is_disabled": 0, "is_reserved": 0}, {"rental_uris": {"ios": "https://dc.lft.to/lastmile_qr_scan", "android": "https://dc.lft.to/lastmile_qr_scan"}, "lon": -77.066378, "type": "electric_scooter", "fusion_lat": 0.0, "lat": 38.9280585, "name": "0d6f9f531ef01cf6ffbaa6be48a4758a", "fusion_lon": 0.0, "bike_id": "0d6f9f531ef01cf6ffbaa6be48a4758a", "is_disabled": 0, "is_reserved": 0}, {"rental_uris": {"ios": "https://dc.lft.to/lastmile_qr_scan", "android": "https://dc.lft.to/lastmile_qr_scan"}, "lon": -77.04887583333333, "type": "electric_scooter", "fusion_lat": 0.0, "lat": 38.903532166666665, "name": "8e27ec5713a60bf48b5896028389b2f0", "fusion_lon": 0.0, "bike_id": "8e27ec5713a60bf48b5896028389b2f0", "is_disabled": 0, "is_reserved": 0}, {"rental_uris": {"ios": "https://dc.lft.to/lastmile_qr_scan", "android": "https://dc.lft.to/lastmile_qr_scan"}, "lon": -77.0233545, "type": "electric_scooter", "fusion_lat": 0.0, "lat": 38.92937833333333, "name": "1445537ae22f9bf92b7a8f682f8603e3", "fusion_lon": 0.0, "bike_id": "1445537ae22f9bf92b7a8f682f8603e3", "is_disabled": 0, "is_reserved": 0}, {"rental_uris": {"ios": "https://dc.lft.to/lastmile_qr_scan", "android": "https://dc.lft.to/lastmile_qr_scan"}, "lon": -76.98903633333333, "type": "electric_scooter", "fusion_lat": 0.0, "lat": 38.866948666666666, "name": "f20133a86761d4c748040395e48b6ad8", "fusion_lon": 0.0, "bike_id": "f20133a86761d4c748040395e48b6ad8", "is_disabled": 0, "is_reserved": 0}, {"rental_uris": {"ios": "https://dc.lft.to/lastmile_qr_scan", "android": "https://dc.lft.to/lastmile_qr_scan"}, "lon": -76.9952105, "type": "electric_scooter", "fusion_lat": 0.0, "lat": 38.883726833333334, "name": "981f3745e6022288e91f5dd08d940864", "fusion_lon": 0.0, "bike_id": "981f3745e6022288e91f5dd08d940864", "is_disabled": 0, "is_reserved": 0}, {"rental_uris": {"ios": "https://dc.lft.to/lastmile_qr_scan", "android": "https://dc.lft.to/lastmile_qr_scan"}, "lon": -76.92715983333333, "type": "electric_scooter", "fusion_lat": 0.0, "lat": 38.887664666666666, "name": "67fde9e31941028e8344c5659df8cb80", "fusion_lon": 0.0, "bike_id": "67fde9e31941028e8344c5659df8cb80", "is_disabled": 0, "is_reserved": 0}, {"rental_uris": {"ios": "https://dc.lft.to/lastmile_qr_scan", "android": "https://dc.lft.to/lastmile_qr_scan"}, "lon": -77.08049416666667, "type": "electric_bike", "fusion_lat": 0.0, "lat": 38.848443333333336, "name": "7553d88f649cbb85b85ccd66757f850f", "fusion_lon": 0.0, "bike_id": "7553d88f649cbb85b85ccd66757f850f", "is_disabled": 0, "is_reserved": 0}, {"rental_uris": {"ios": "https://dc.lft.to/lastmile_qr_scan", "android": "https://dc.lft.to/lastmile_qr_scan"}, "lon": -77.036416, "type": "electric_scooter", "fusion_lat": 0.0, "lat": 38.902811, "name": "bbabf1fad221c6171f9372d850c91a35", "fusion_lon": 0.0, "bike_id": "bbabf1fad221c6171f9372d850c91a35", "is_disabled": 0, "is_reserved": 0}, {"rental_uris": {"ios": "https://dc.lft.to/lastmile_qr_scan", "android": "https://dc.lft.to/lastmile_qr_scan"}, "lon": -77.0386755, "type": "electric_scooter", "fusion_lat": 0.0, "lat": 38.915570333333335, "name": "d5de6e0ac5ee5c7ef2c117b493f0c064", "fusion_lon": 0.0, "bike_id": "d5de6e0ac5ee5c7ef2c117b493f0c064", "is_disabled": 0, "is_reserved": 0}, {"rental_uris": {"ios": "https://dc.lft.to/lastmile_qr_scan", "android": "https://dc.lft.to/lastmile_qr_scan"}, "lon": -76.9851705, "type": "electric_scooter", "fusion_lat": 0.0, "lat": 38.910053, "name": "2e214a0371e4377d5af2c5bdcae7e086", "fusion_lon": 0.0, "bike_id": "2e214a0371e4377d5af2c5bdcae7e086", "is_disabled": 0, "is_reserved": 0}, {"rental_uris": {"ios": "https://dc.lft.to/lastmile_qr_scan", "android": "https://dc.lft.to/lastmile_qr_scan"}, "lon": -77.0033795, "type": "electric_bike", "fusion_lat": 0.0, "lat": 38.876582666666664, "name": "a0d4c62fc915805596879fd5ed1d3707", "fusion_lon": 0.0, "bike_id": "a0d4c62fc915805596879fd5ed1d3707", "is_disabled": 0, "is_reserved": 0}, {"rental_uris": {"ios": "https://dc.lft.to/lastmile_qr_scan", "android": "https://dc.lft.to/lastmile_qr_scan"}, "lon": -77.0384, "type": "electric_scooter", "fusion_lat": 0.0, "lat": 38.907523, "name": "3a80d289e22811dd588addad793eda07", "fusion_lon": 0.0, "bike_id": "3a80d289e22811dd588addad793eda07", "is_disabled": 0, "is_reserved": 0}, {"rental_uris": {"ios": "https://dc.lft.to/lastmile_qr_scan", "android": "https://dc.lft.to/lastmile_qr_scan"}, "lon": -76.98603833333334, "type": "electric_scooter", "fusion_lat": 0.0, "lat": 38.87840766666667, "name": "f43b9ab6127d7b8a370fc16b2c9125e5", "fusion_lon": 0.0, "bike_id": "f43b9ab6127d7b8a370fc16b2c9125e5", "is_disabled": 0, "is_reserved": 0}, {"rental_uris": {"ios": "https://dc.lft.to/lastmile_qr_scan", "android": "https://dc.lft.to/lastmile_qr_scan"}, "lon": -76.97409383333333, "type": "electric_scooter", "fusion_lat": 0.0, "lat": 38.90238816666667, "name": "9f4c97ebc23410dcabfaf1c46d080b05", "fusion_lon": 0.0, "bike_id": "9f4c97ebc23410dcabfaf1c46d080b05", "is_disabled": 0, "is_reserved": 0}, {"rental_uris": {"ios": "https://dc.lft.to/lastmile_qr_scan", "android": "https://dc.lft.to/lastmile_qr_scan"}, "lon": -77.01112866666666, "type": "electric_scooter", "fusion_lat": 0.0, "lat": 38.870824999999996, "name": "44436b88fc279c9aab6f8fac47c2be9c", "fusion_lon": 0.0, "bike_id": "44436b88fc279c9aab6f8fac47c2be9c", "is_disabled": 0, "is_reserved": 0}, {"rental_uris": {"ios": "https://dc.lft.to/lastmile_qr_scan", "android": "https://dc.lft.to/lastmile_qr_scan"}, "lon": -77.03411883333334, "type": "electric_scooter", "fusion_lat": 0.0, "lat": 38.92423433333333, "name": "5cb5509afd934dddc2752aeada50b62f", "fusion_lon": 0.0, "bike_id": "5cb5509afd934dddc2752aeada50b62f", "is_disabled": 0, "is_reserved": 0}, {"rental_uris": {"ios": "https://dc.lft.to/lastmile_qr_scan", "android": "https://dc.lft.to/lastmile_qr_scan"}, "lon": -76.928499, "type": "electric_scooter", "fusion_lat": 0.0, "lat": 38.883590833333336, "name": "d8fe00959bcac78d07f43830d6ce5a66", "fusion_lon": 0.0, "bike_id": "d8fe00959bcac78d07f43830d6ce5a66", "is_disabled": 0, "is_reserved": 0}, {"rental_uris": {"ios": "https://dc.lft.to/lastmile_qr_scan", "android": "https://dc.lft.to/lastmile_qr_scan"}, "lon": -77.03142066666666, "type": "electric_scooter", "fusion_lat": 0.0, "lat": 38.893435833333335, "name": "b93960abee1b108e9bf5c654acc53301", "fusion_lon": 0.0, "bike_id": "b93960abee1b108e9bf5c654acc53301", "is_disabled": 0, "is_reserved": 0}, {"rental_uris": {"ios": "https://dc.lft.to/lastmile_qr_scan", "android": "https://dc.lft.to/lastmile_qr_scan"}, "lon": -76.99459933333333, "type": "electric_scooter", "fusion_lat": 0.0, "lat": 38.8516415, "name": "35dc088fe1d85a83727eea879fe8a084", "fusion_lon": 0.0, "bike_id": "35dc088fe1d85a83727eea879fe8a084", "is_disabled": 0, "is_reserved": 0}, {"rental_uris": {"ios": "https://dc.lft.to/lastmile_qr_scan", "android": "https://dc.lft.to/lastmile_qr_scan"}, "lon": -77.03954433333334, "type": "electric_scooter", "fusion_lat": 0.0, "lat": 38.90261183333333, "name": "977b4446963d0114a72c5cd3425c47d7", "fusion_lon": 0.0, "bike_id": "977b4446963d0114a72c5cd3425c47d7", "is_disabled": 0, "is_reserved": 0}, {"rental_uris": {"ios": "https://dc.lft.to/lastmile_qr_scan", "android": "https://dc.lft.to/lastmile_qr_scan"}, "lon": -76.95680316666666, "type": "electric_bike", "fusion_lat": 0.0, "lat": 38.947282, "name": "b3d700ed53200295b15a53ee8d79d1a9", "fusion_lon": 0.0, "bike_id": "b3d700ed53200295b15a53ee8d79d1a9", "is_disabled": 0, "is_reserved": 0}, {"rental_uris": {"ios": "https://dc.lft.to/lastmile_qr_scan", "android": "https://dc.lft.to/lastmile_qr_scan"}, "lon": -77.0357125, "type": "electric_scooter", "fusion_lat": 0.0, "lat": 38.9397915, "name": "bfdb4cedc79e47d24c0ffb19f60a63e3", "fusion_lon": 0.0, "bike_id": "bfdb4cedc79e47d24c0ffb19f60a63e3", "is_disabled": 0, "is_reserved": 0}, {"rental_uris": {"ios": "https://dc.lft.to/lastmile_qr_scan", "android": "https://dc.lft.to/lastmile_qr_scan"}, "lon": -77.03880616666666, "type": "electric_scooter", "fusion_lat": 0.0, "lat": 38.92240266666667, "name": "8245bee1f0061f14a64680afea759729", "fusion_lon": 0.0, "bike_id": "8245bee1f0061f14a64680afea759729", "is_disabled": 0, "is_reserved": 0}, {"rental_uris": {"ios": "https://dc.lft.to/lastmile_qr_scan", "android": "https://dc.lft.to/lastmile_qr_scan"}, "lon": -76.93157416666666, "type": "electric_scooter", "fusion_lat": 0.0, "lat": 38.898770166666665, "name": "a54fe3660ee16230c146723d81e47ab7", "fusion_lon": 0.0, "bike_id": "a54fe3660ee16230c146723d81e47ab7", "is_disabled": 0, "is_reserved": 0}, {"rental_uris": {"ios": "https://dc.lft.to/lastmile_qr_scan", "android": "https://dc.lft.to/lastmile_qr_scan"}, "lon": -77.04570233333334, "type": "electric_scooter", "fusion_lat": 0.0, "lat": 38.91059933333333, "name": "a6afdd2f88f5322f8df23cb8e75e9f98", "fusion_lon": 0.0, "bike_id": "a6afdd2f88f5322f8df23cb8e75e9f98", "is_disabled": 0, "is_reserved": 0}, {"rental_uris": {"ios": "https://dc.lft.to/lastmile_qr_scan", "android": "https://dc.lft.to/lastmile_qr_scan"}, "lon": -76.948415, "type": "electric_scooter", "fusion_lat": 0.0, "lat": 38.8841225, "name": "9a7e1db939ba8393b58bc43e80aea2b3", "fusion_lon": 0.0, "bike_id": "9a7e1db939ba8393b58bc43e80aea2b3", "is_disabled": 0, "is_reserved": 0}, {"rental_uris": {"ios": "https://dc.lft.to/lastmile_qr_scan", "android": "https://dc.lft.to/lastmile_qr_scan"}, "lon": -76.928774, "type": "electric_scooter", "fusion_lat": 0.0, "lat": 38.88442116666667, "name": "70107addd056538d43033b71d0713725", "fusion_lon": 0.0, "bike_id": "70107addd056538d43033b71d0713725", "is_disabled": 0, "is_reserved": 0}, {"rental_uris": {"ios": "https://dc.lft.to/lastmile_qr_scan", "android": "https://dc.lft.to/lastmile_qr_scan"}, "lon": -77.04832566666667, "type": "electric_scooter", "fusion_lat": 0.0, "lat": 38.909673833333336, "name": "2313a3931234def995b33ed648768189", "fusion_lon": 0.0, "bike_id": "2313a3931234def995b33ed648768189", "is_disabled": 0, "is_reserved": 0}, {"rental_uris": {"ios": "https://dc.lft.to/lastmile_qr_scan", "android": "https://dc.lft.to/lastmile_qr_scan"}, "lon": -77.020177, "type": "electric_bike", "fusion_lat": 0.0, "lat": 38.9372485, "name": "85bba917ca53bc051fd9f1ee57d96335", "fusion_lon": 0.0, "bike_id": "85bba917ca53bc051fd9f1ee57d96335", "is_disabled": 0, "is_reserved": 0}, {"rental_uris": {"ios": "https://dc.lft.to/lastmile_qr_scan", "android": "https://dc.lft.to/lastmile_qr_scan"}, "lon": -77.02692133333333, "type": "electric_scooter", "fusion_lat": 0.0, "lat": 38.909462166666664, "name": "4daf94289d102887c11b71fb13fccd8b", "fusion_lon": 0.0, "bike_id": "4daf94289d102887c11b71fb13fccd8b", "is_disabled": 0, "is_reserved": 0}, {"rental_uris": {"ios": "https://dc.lft.to/lastmile_qr_scan", "android": "https://dc.lft.to/lastmile_qr_scan"}, "lon": -76.983617, "type": "electric_scooter", "fusion_lat": 0.0, "lat": 38.9153005, "name": "3103a1be05ce118b6712cb11bccfcd09", "fusion_lon": 0.0, "bike_id": "3103a1be05ce118b6712cb11bccfcd09", "is_disabled": 0, "is_reserved": 0}, {"rental_uris": {"ios": "https://dc.lft.to/lastmile_qr_scan", "android": "https://dc.lft.to/lastmile_qr_scan"}, "lon": -77.02706733333333, "type": "electric_scooter", "fusion_lat": 0.0, "lat": 38.906734166666666, "name": "6d3b8e2bcca6a8f3551befe728c5e5d3", "fusion_lon": 0.0, "bike_id": "6d3b8e2bcca6a8f3551befe728c5e5d3", "is_disabled": 0, "is_reserved": 0}, {"rental_uris": {"ios": "https://dc.lft.to/lastmile_qr_scan", "android": "https://dc.lft.to/lastmile_qr_scan"}, "lon": -77.03191266666667, "type": "electric_scooter", "fusion_lat": 0.0, "lat": 38.90024483333333, "name": "f38890aa9bde28ec64e48c5f05fdbf5f", "fusion_lon": 0.0, "bike_id": "f38890aa9bde28ec64e48c5f05fdbf5f", "is_disabled": 0, "is_reserved": 0}, {"rental_uris": {"ios": "https://dc.lft.to/lastmile_qr_scan", "android": "https://dc.lft.to/lastmile_qr_scan"}, "lon": -77.0285115, "type": "electric_scooter", "fusion_lat": 0.0, "lat": 38.93452966666667, "name": "3668f098099649063b445c9813f58b06", "fusion_lon": 0.0, "bike_id": "3668f098099649063b445c9813f58b06", "is_disabled": 0, "is_reserved": 0}, {"rental_uris": {"ios": "https://dc.lft.to/lastmile_qr_scan", "android": "https://dc.lft.to/lastmile_qr_scan"}, "lon": -77.02656183333333, "type": "electric_scooter", "fusion_lat": 0.0, "lat": 38.881168833333334, "name": "0de35a4e98ecaa24ec6f3a1eb3fb2b9c", "fusion_lon": 0.0, "bike_id": "0de35a4e98ecaa24ec6f3a1eb3fb2b9c", "is_disabled": 0, "is_reserved": 0}, {"rental_uris": {"ios": "https://dc.lft.to/lastmile_qr_scan", "android": "https://dc.lft.to/lastmile_qr_scan"}, "lon": -77.07305583333333, "type": "electric_scooter", "fusion_lat": 0.0, "lat": 38.936108833333336, "name": "bbd24e6b76ee8c9d1b1b06368f090671", "fusion_lon": 0.0, "bike_id": "bbd24e6b76ee8c9d1b1b06368f090671", "is_disabled": 0, "is_reserved": 0}, {"rental_uris": {"ios": "https://dc.lft.to/lastmile_qr_scan", "android": "https://dc.lft.to/lastmile_qr_scan"}, "lon": -77.00655616666667, "type": "electric_scooter", "fusion_lat": 0.0, "lat": 38.876373666666666, "name": "70572cd4f9ccbf7dfb753fab08886747", "fusion_lon": 0.0, "bike_id": "70572cd4f9ccbf7dfb753fab08886747", "is_disabled": 0, "is_reserved": 0}, {"rental_uris": {"ios": "https://dc.lft.to/lastmile_qr_scan", "android": "https://dc.lft.to/lastmile_qr_scan"}, "lon": -77.033043, "type": "electric_scooter", "fusion_lat": 0.0, "lat": 38.9090655, "name": "88fe0add22c44967e33fdba24117a9ff", "fusion_lon": 0.0, "bike_id": "88fe0add22c44967e33fdba24117a9ff", "is_disabled": 0, "is_reserved": 0}, {"rental_uris": {"ios": "https://dc.lft.to/lastmile_qr_scan", "android": "https://dc.lft.to/lastmile_qr_scan"}, "lon": -76.990671, "type": "electric_scooter", "fusion_lat": 0.0, "lat": 38.863616666666665, "name": "d5f928330b7aee1db6c3404104e77334", "fusion_lon": 0.0, "bike_id": "d5f928330b7aee1db6c3404104e77334", "is_disabled": 0, "is_reserved": 0}, {"rental_uris": {"ios": "https://dc.lft.to/lastmile_qr_scan", "android": "https://dc.lft.to/lastmile_qr_scan"}, "lon": -77.03643583333333, "type": "electric_scooter", "fusion_lat": 0.0, "lat": 38.91303083333333, "name": "83b99c31c6b6d0be3ddf76b4bbe7c09f", "fusion_lon": 0.0, "bike_id": "83b99c31c6b6d0be3ddf76b4bbe7c09f", "is_disabled": 0, "is_reserved": 0}, {"rental_uris": {"ios": "https://dc.lft.to/lastmile_qr_scan", "android": "https://dc.lft.to/lastmile_qr_scan"}, "lon": -77.0384955, "type": "electric_scooter", "fusion_lat": 0.0, "lat": 38.9264805, "name": "23cd12f6292d59f8b60aabc0602b98ad", "fusion_lon": 0.0, "bike_id": "23cd12f6292d59f8b60aabc0602b98ad", "is_disabled": 0, "is_reserved": 0}, {"rental_uris": {"ios": "https://dc.lft.to/lastmile_qr_scan", "android": "https://dc.lft.to/lastmile_qr_scan"}, "lon": -77.05485083333333, "type": "electric_scooter", "fusion_lat": 0.0, "lat": 38.899706, "name": "9fc12b83b890d259cbb95f08322e5a65", "fusion_lon": 0.0, "bike_id": "9fc12b83b890d259cbb95f08322e5a65", "is_disabled": 0, "is_reserved": 0}, {"rental_uris": {"ios": "https://dc.lft.to/lastmile_qr_scan", "android": "https://dc.lft.to/lastmile_qr_scan"}, "lon": -77.0454175, "type": "electric_scooter", "fusion_lat": 0.0, "lat": 38.894794, "name": "444635f3f5bda75a32c3856e17ba8b4a", "fusion_lon": 0.0, "bike_id": "444635f3f5bda75a32c3856e17ba8b4a", "is_disabled": 0, "is_reserved": 0}, {"rental_uris": {"ios": "https://dc.lft.to/lastmile_qr_scan", "android": "https://dc.lft.to/lastmile_qr_scan"}, "lon": -77.03195883333333, "type": "electric_scooter", "fusion_lat": 0.0, "lat": 38.898354, "name": "7f82cb2c78ce315bd5eee23c7197cc89", "fusion_lon": 0.0, "bike_id": "7f82cb2c78ce315bd5eee23c7197cc89", "is_disabled": 0, "is_reserved": 0}, {"rental_uris": {"ios": "https://dc.lft.to/lastmile_qr_scan", "android": "https://dc.lft.to/lastmile_qr_scan"}, "lon": -77.020194, "type": "electric_scooter", "fusion_lat": 0.0, "lat": 38.897455, "name": "00dbee2f2ee5611f82c181ed5c02b024", "fusion_lon": 0.0, "bike_id": "00dbee2f2ee5611f82c181ed5c02b024", "is_disabled": 0, "is_reserved": 0}, {"rental_uris": {"ios": "https://dc.lft.to/lastmile_qr_scan", "android": "https://dc.lft.to/lastmile_qr_scan"}, "lon": -76.93159633333333, "type": "electric_scooter", "fusion_lat": 0.0, "lat": 38.89880383333333, "name": "b7d01c41474648efe74b72bb397425ed", "fusion_lon": 0.0, "bike_id": "b7d01c41474648efe74b72bb397425ed", "is_disabled": 0, "is_reserved": 0}, {"rental_uris": {"ios": "https://dc.lft.to/lastmile_qr_scan", "android": "https://dc.lft.to/lastmile_qr_scan"}, "lon": -77.02081683333333, "type": "electric_scooter", "fusion_lat": 0.0, "lat": 38.881820833333336, "name": "6040d158ed12e649b805416910e497b9", "fusion_lon": 0.0, "bike_id": "6040d158ed12e649b805416910e497b9", "is_disabled": 0, "is_reserved": 0}, {"rental_uris": {"ios": "https://dc.lft.to/lastmile_qr_scan", "android": "https://dc.lft.to/lastmile_qr_scan"}, "lon": -76.99180666666666, "type": "electric_scooter", "fusion_lat": 0.0, "lat": 38.90458616666667, "name": "73fd93368c3acbf7d9e2e3dfc21ff27c", "fusion_lon": 0.0, "bike_id": "73fd93368c3acbf7d9e2e3dfc21ff27c", "is_disabled": 0, "is_reserved": 0}, {"rental_uris": {"ios": "https://dc.lft.to/lastmile_qr_scan", "android": "https://dc.lft.to/lastmile_qr_scan"}, "lon": -76.87495716666666, "type": "electric_bike", "fusion_lat": 0.0, "lat": 38.990900333333336, "name": "5d9c2d6e06cb65f50087c35c4af548f2", "fusion_lon": 0.0, "bike_id": "5d9c2d6e06cb65f50087c35c4af548f2", "is_disabled": 0, "is_reserved": 0}, {"rental_uris": {"ios": "https://dc.lft.to/lastmile_qr_scan", "android": "https://dc.lft.to/lastmile_qr_scan"}, "lon": -77.0199545, "type": "electric_scooter", "fusion_lat": 0.0, "lat": 38.90014983333333, "name": "5c6dd0f009dd72eff4d86d43e1cb48b4", "fusion_lon": 0.0, "bike_id": "5c6dd0f009dd72eff4d86d43e1cb48b4", "is_disabled": 0, "is_reserved": 0}, {"rental_uris": {"ios": "https://dc.lft.to/lastmile_qr_scan", "android": "https://dc.lft.to/lastmile_qr_scan"}, "lon": -77.050858, "type": "electric_scooter", "fusion_lat": 0.0, "lat": 38.924539, "name": "99012b5747b3b95a77b766715345fee5", "fusion_lon": 0.0, "bike_id": "99012b5747b3b95a77b766715345fee5", "is_disabled": 0, "is_reserved": 0}, {"rental_uris": {"ios": "https://dc.lft.to/lastmile_qr_scan", "android": "https://dc.lft.to/lastmile_qr_scan"}, "lon": -76.99516866666667, "type": "electric_scooter", "fusion_lat": 0.0, "lat": 38.883749, "name": "0538cea4aaa1d1fe03a70b9300c402d6", "fusion_lon": 0.0, "bike_id": "0538cea4aaa1d1fe03a70b9300c402d6", "is_disabled": 0, "is_reserved": 0}, {"rental_uris": {"ios": "https://dc.lft.to/lastmile_qr_scan", "android": "https://dc.lft.to/lastmile_qr_scan"}, "lon": -77.112194, "type": "electric_bike", "fusion_lat": 0.0, "lat": 38.82868083333334, "name": "775f9fee96e0e9244b2969101ba4cebc", "fusion_lon": 0.0, "bike_id": "775f9fee96e0e9244b2969101ba4cebc", "is_disabled": 0, "is_reserved": 0}, {"rental_uris": {"ios": "https://dc.lft.to/lastmile_qr_scan", "android": "https://dc.lft.to/lastmile_qr_scan"}, "lon": -77.02202316666667, "type": "electric_scooter", "fusion_lat": 0.0, "lat": 38.9083815, "name": "9384f79ac0917e0c9da1f2c193c20402", "fusion_lon": 0.0, "bike_id": "9384f79ac0917e0c9da1f2c193c20402", "is_disabled": 0, "is_reserved": 0}, {"rental_uris": {"ios": "https://dc.lft.to/lastmile_qr_scan", "android": "https://dc.lft.to/lastmile_qr_scan"}, "lon": -77.03540516666666, "type": "electric_scooter", "fusion_lat": 0.0, "lat": 38.923441333333336, "name": "8dd2c54e7eda22eac043a4cb95a8e596", "fusion_lon": 0.0, "bike_id": "8dd2c54e7eda22eac043a4cb95a8e596", "is_disabled": 0, "is_reserved": 0}, {"rental_uris": {"ios": "https://dc.lft.to/lastmile_qr_scan", "android": "https://dc.lft.to/lastmile_qr_scan"}, "lon": -76.99868933333333, "type": "electric_scooter", "fusion_lat": 0.0, "lat": 38.90031883333333, "name": "0b0e7304f53a5a625522326026cb2027", "fusion_lon": 0.0, "bike_id": "0b0e7304f53a5a625522326026cb2027", "is_disabled": 0, "is_reserved": 0}, {"rental_uris": {"ios": "https://dc.lft.to/lastmile_qr_scan", "android": "https://dc.lft.to/lastmile_qr_scan"}, "lon": -77.00737783333334, "type": "electric_scooter", "fusion_lat": 0.0, "lat": 38.95521683333333, "name": "2a99c407bf15318a1f3501e9f034697a", "fusion_lon": 0.0, "bike_id": "2a99c407bf15318a1f3501e9f034697a", "is_disabled": 0, "is_reserved": 0}, {"rental_uris": {"ios": "https://dc.lft.to/lastmile_qr_scan", "android": "https://dc.lft.to/lastmile_qr_scan"}, "lon": -77.02506433333333, "type": "electric_scooter", "fusion_lat": 0.0, "lat": 38.918194166666666, "name": "b4005800f56ee8f4acea51d309821e02", "fusion_lon": 0.0, "bike_id": "b4005800f56ee8f4acea51d309821e02", "is_disabled": 0, "is_reserved": 0}, {"rental_uris": {"ios": "https://dc.lft.to/lastmile_qr_scan", "android": "https://dc.lft.to/lastmile_qr_scan"}, "lon": -77.03260033333333, "type": "electric_scooter", "fusion_lat": 0.0, "lat": 38.93231733333333, "name": "1ae9a5d12da7a0f1cda611e3730412e4", "fusion_lon": 0.0, "bike_id": "1ae9a5d12da7a0f1cda611e3730412e4", "is_disabled": 0, "is_reserved": 0}, {"rental_uris": {"ios": "https://dc.lft.to/lastmile_qr_scan", "android": "https://dc.lft.to/lastmile_qr_scan"}, "lon": -77.02350383333334, "type": "electric_scooter", "fusion_lat": 0.0, "lat": 38.9227715, "name": "d60bfe3cbe2c65d3b5d5b23a6b312b33", "fusion_lon": 0.0, "bike_id": "d60bfe3cbe2c65d3b5d5b23a6b312b33", "is_disabled": 0, "is_reserved": 0}, {"rental_uris": {"ios": "https://dc.lft.to/lastmile_qr_scan", "android": "https://dc.lft.to/lastmile_qr_scan"}, "lon": -77.03487333333334, "type": "electric_scooter", "fusion_lat": 0.0, "lat": 38.902623, "name": "047b6349c8659aa52c3b040f6841e873", "fusion_lon": 0.0, "bike_id": "047b6349c8659aa52c3b040f6841e873", "is_disabled": 0, "is_reserved": 0}, {"rental_uris": {"ios": "https://dc.lft.to/lastmile_qr_scan", "android": "https://dc.lft.to/lastmile_qr_scan"}, "lon": -77.02130666666666, "type": "electric_scooter", "fusion_lat": 0.0, "lat": 38.90972633333333, "name": "619bf4ea5838b005fe57b6533b8bedad", "fusion_lon": 0.0, "bike_id": "619bf4ea5838b005fe57b6533b8bedad", "is_disabled": 0, "is_reserved": 0}, {"rental_uris": {"ios": "https://dc.lft.to/lastmile_qr_scan", "android": "https://dc.lft.to/lastmile_qr_scan"}, "lon": -77.06789016666667, "type": "electric_scooter", "fusion_lat": 0.0, "lat": 38.952047666666665, "name": "86c02500d2fd88248efa4596a561c6f2", "fusion_lon": 0.0, "bike_id": "86c02500d2fd88248efa4596a561c6f2", "is_disabled": 0, "is_reserved": 0}, {"rental_uris": {"ios": "https://dc.lft.to/lastmile_qr_scan", "android": "https://dc.lft.to/lastmile_qr_scan"}, "lon": -77.00209483333333, "type": "electric_scooter", "fusion_lat": 0.0, "lat": 38.90221616666667, "name": "48b93ede8e1f4ceefda27c33d3ec6978", "fusion_lon": 0.0, "bike_id": "48b93ede8e1f4ceefda27c33d3ec6978", "is_disabled": 0, "is_reserved": 0}, {"rental_uris": {"ios": "https://dc.lft.to/lastmile_qr_scan", "android": "https://dc.lft.to/lastmile_qr_scan"}, "lon": -77.03712766666666, "type": "electric_scooter", "fusion_lat": 0.0, "lat": 38.92635283333333, "name": "834ded34e76320f54ca097d2487b3571", "fusion_lon": 0.0, "bike_id": "834ded34e76320f54ca097d2487b3571", "is_disabled": 0, "is_reserved": 0}, {"rental_uris": {"ios": "https://dc.lft.to/lastmile_qr_scan", "android": "https://dc.lft.to/lastmile_qr_scan"}, "lon": -77.026555, "type": "electric_scooter", "fusion_lat": 0.0, "lat": 38.89852466666667, "name": "d6a1eab3c7567a36457a94e09e7ae6ce", "fusion_lon": 0.0, "bike_id": "d6a1eab3c7567a36457a94e09e7ae6ce", "is_disabled": 0, "is_reserved": 0}, {"rental_uris": {"ios": "https://dc.lft.to/lastmile_qr_scan", "android": "https://dc.lft.to/lastmile_qr_scan"}, "lon": -77.00221466666666, "type": "electric_scooter", "fusion_lat": 0.0, "lat": 38.91337716666666, "name": "1ff57e5d1ff8808cf8e7f76e411c68fd", "fusion_lon": 0.0, "bike_id": "1ff57e5d1ff8808cf8e7f76e411c68fd", "is_disabled": 0, "is_reserved": 0}, {"rental_uris": {"ios": "https://dc.lft.to/lastmile_qr_scan", "android": "https://dc.lft.to/lastmile_qr_scan"}, "lon": -77.04029316666667, "type": "electric_bike", "fusion_lat": 0.0, "lat": 38.92372266666667, "name": "a2a44300f3c4183df934aa798ee1e9c2", "fusion_lon": 0.0, "bike_id": "a2a44300f3c4183df934aa798ee1e9c2", "is_disabled": 0, "is_reserved": 0}, {"rental_uris": {"ios": "https://dc.lft.to/lastmile_qr_scan", "android": "https://dc.lft.to/lastmile_qr_scan"}, "lon": -77.1250715, "type": "electric_bike", "fusion_lat": 0.0, "lat": 39.024256, "name": "4d31edad2cf218e39dbe762c67c00ed9", "fusion_lon": 0.0, "bike_id": "4d31edad2cf218e39dbe762c67c00ed9", "is_disabled": 0, "is_reserved": 0}, {"rental_uris": {"ios": "https://dc.lft.to/lastmile_qr_scan", "android": "https://dc.lft.to/lastmile_qr_scan"}, "lon": -77.02286866666667, "type": "electric_scooter", "fusion_lat": 0.0, "lat": 38.91960516666666, "name": "160f8ddb71a8d4af9bdb4f4ad1659480", "fusion_lon": 0.0, "bike_id": "160f8ddb71a8d4af9bdb4f4ad1659480", "is_disabled": 0, "is_reserved": 0}, {"rental_uris": {"ios": "https://dc.lft.to/lastmile_qr_scan", "android": "https://dc.lft.to/lastmile_qr_scan"}, "lon": -77.05146133333334, "type": "electric_scooter", "fusion_lat": 0.0, "lat": 38.89776466666667, "name": "aef2a080c73b60bbcc8d05e1a77e03b0", "fusion_lon": 0.0, "bike_id": "aef2a080c73b60bbcc8d05e1a77e03b0", "is_disabled": 0, "is_reserved": 0}, {"rental_uris": {"ios": "https://dc.lft.to/lastmile_qr_scan", "android": "https://dc.lft.to/lastmile_qr_scan"}, "lon": -76.99461116666667, "type": "electric_bike", "fusion_lat": 0.0, "lat": 38.94064233333334, "name": "4673e10fde27361ee170ab44d45709e3", "fusion_lon": 0.0, "bike_id": "4673e10fde27361ee170ab44d45709e3", "is_disabled": 0, "is_reserved": 0}, {"rental_uris": {"ios": "https://dc.lft.to/lastmile_qr_scan", "android": "https://dc.lft.to/lastmile_qr_scan"}, "lon": -76.93175583333333, "type": "electric_scooter", "fusion_lat": 0.0, "lat": 38.8988545, "name": "acd942dd6a833cd6d8db0c942d5d8846", "fusion_lon": 0.0, "bike_id": "acd942dd6a833cd6d8db0c942d5d8846", "is_disabled": 0, "is_reserved": 0}, {"rental_uris": {"ios": "https://dc.lft.to/lastmile_qr_scan", "android": "https://dc.lft.to/lastmile_qr_scan"}, "lon": -77.1201355, "type": "electric_bike", "fusion_lat": 0.0, "lat": 38.855105, "name": "bd14c2d44c09b7f7a6d03f1e06841608", "fusion_lon": 0.0, "bike_id": "bd14c2d44c09b7f7a6d03f1e06841608", "is_disabled": 0, "is_reserved": 0}, {"rental_uris": {"ios": "https://dc.lft.to/lastmile_qr_scan", "android": "https://dc.lft.to/lastmile_qr_scan"}, "lon": -76.94970283333333, "type": "electric_scooter", "fusion_lat": 0.0, "lat": 38.893711, "name": "5b748fa767df26c3bb97d1b29650b740", "fusion_lon": 0.0, "bike_id": "5b748fa767df26c3bb97d1b29650b740", "is_disabled": 0, "is_reserved": 0}, {"rental_uris": {"ios": "https://dc.lft.to/lastmile_qr_scan", "android": "https://dc.lft.to/lastmile_qr_scan"}, "lon": -77.01857333333334, "type": "electric_scooter", "fusion_lat": 0.0, "lat": 38.90082783333333, "name": "54d6152d8877987aafb7c37c38de8b1f", "fusion_lon": 0.0, "bike_id": "54d6152d8877987aafb7c37c38de8b1f", "is_disabled": 0, "is_reserved": 0}, {"rental_uris": {"ios": "https://dc.lft.to/lastmile_qr_scan", "android": "https://dc.lft.to/lastmile_qr_scan"}, "lon": -77.03168883333333, "type": "electric_scooter", "fusion_lat": 0.0, "lat": 38.88628633333333, "name": "fc8ec92ad5b9b685d6fcac038f49cc1b", "fusion_lon": 0.0, "bike_id": "fc8ec92ad5b9b685d6fcac038f49cc1b", "is_disabled": 0, "is_reserved": 0}, {"rental_uris": {"ios": "https://dc.lft.to/lastmile_qr_scan", "android": "https://dc.lft.to/lastmile_qr_scan"}, "lon": -77.0020605, "type": "electric_scooter", "fusion_lat": 0.0, "lat": 38.9021665, "name": "23c532d65560d509aa77a95c71212dc6", "fusion_lon": 0.0, "bike_id": "23c532d65560d509aa77a95c71212dc6", "is_disabled": 0, "is_reserved": 0}, {"rental_uris": {"ios": "https://dc.lft.to/lastmile_qr_scan", "android": "https://dc.lft.to/lastmile_qr_scan"}, "lon": -77.0466525, "type": "electric_scooter", "fusion_lat": 0.0, "lat": 38.893381, "name": "0eae7d0ba2b344c2ae801b5f6db5814d", "fusion_lon": 0.0, "bike_id": "0eae7d0ba2b344c2ae801b5f6db5814d", "is_disabled": 0, "is_reserved": 0}, {"rental_uris": {"ios": "https://dc.lft.to/lastmile_qr_scan", "android": "https://dc.lft.to/lastmile_qr_scan"}, "lon": -76.99485733333333, "type": "electric_scooter", "fusion_lat": 0.0, "lat": 38.862375166666666, "name": "b0dc530a44e69608a976997f7fb9250e", "fusion_lon": 0.0, "bike_id": "b0dc530a44e69608a976997f7fb9250e", "is_disabled": 0, "is_reserved": 0}, {"rental_uris": {"ios": "https://dc.lft.to/lastmile_qr_scan", "android": "https://dc.lft.to/lastmile_qr_scan"}, "lon": -77.0952475, "type": "electric_bike", "fusion_lat": 0.0, "lat": 38.8381125, "name": "7790eb73cc4e5cf6c35e6d448c694e3b", "fusion_lon": 0.0, "bike_id": "7790eb73cc4e5cf6c35e6d448c694e3b", "is_disabled": 0, "is_reserved": 0}, {"rental_uris": {"ios": "https://dc.lft.to/lastmile_qr_scan", "android": "https://dc.lft.to/lastmile_qr_scan"}, "lon": -77.04394, "type": "electric_scooter", "fusion_lat": 0.0, "lat": 38.902934333333334, "name": "05a170d8f327eba3915dc8a1563ca618", "fusion_lon": 0.0, "bike_id": "05a170d8f327eba3915dc8a1563ca618", "is_disabled": 0, "is_reserved": 0}, {"rental_uris": {"ios": "https://dc.lft.to/lastmile_qr_scan", "android": "https://dc.lft.to/lastmile_qr_scan"}, "lon": -77.03999283333333, "type": "electric_scooter", "fusion_lat": 0.0, "lat": 38.88889566666667, "name": "41d50d18f2fa3dde24f3d05f448f128a", "fusion_lon": 0.0, "bike_id": "41d50d18f2fa3dde24f3d05f448f128a", "is_disabled": 0, "is_reserved": 0}, {"rental_uris": {"ios": "https://dc.lft.to/lastmile_qr_scan", "android": "https://dc.lft.to/lastmile_qr_scan"}, "lon": -77.03830583333334, "type": "electric_scooter", "fusion_lat": 0.0, "lat": 38.92054566666667, "name": "874c872e5fdcb6c72cf79ec5d389c2b7", "fusion_lon": 0.0, "bike_id": "874c872e5fdcb6c72cf79ec5d389c2b7", "is_disabled": 0, "is_reserved": 0}, {"rental_uris": {"ios": "https://dc.lft.to/lastmile_qr_scan", "android": "https://dc.lft.to/lastmile_qr_scan"}, "lon": -77.0222075, "type": "electric_scooter", "fusion_lat": 0.0, "lat": 38.891953, "name": "a2ebef33f610d0fbbe6f508ccac15b60", "fusion_lon": 0.0, "bike_id": "a2ebef33f610d0fbbe6f508ccac15b60", "is_disabled": 0, "is_reserved": 0}, {"rental_uris": {"ios": "https://dc.lft.to/lastmile_qr_scan", "android": "https://dc.lft.to/lastmile_qr_scan"}, "lon": -77.03568433333334, "type": "electric_scooter", "fusion_lat": 0.0, "lat": 38.918164, "name": "9e5f6be7a56d4a2f5bb207615b436a16", "fusion_lon": 0.0, "bike_id": "9e5f6be7a56d4a2f5bb207615b436a16", "is_disabled": 0, "is_reserved": 0}, {"rental_uris": {"ios": "https://dc.lft.to/lastmile_qr_scan", "android": "https://dc.lft.to/lastmile_qr_scan"}, "lon": -77.028462, "type": "electric_scooter", "fusion_lat": 0.0, "lat": 38.89393233333333, "name": "16028c4897a981953aa4b22c1cbb6791", "fusion_lon": 0.0, "bike_id": "16028c4897a981953aa4b22c1cbb6791", "is_disabled": 0, "is_reserved": 0}, {"rental_uris": {"ios": "https://dc.lft.to/lastmile_qr_scan", "android": "https://dc.lft.to/lastmile_qr_scan"}, "lon": -77.0320125, "type": "electric_scooter", "fusion_lat": 0.0, "lat": 38.9174045, "name": "1f88059c671d3058be489d1289fcab75", "fusion_lon": 0.0, "bike_id": "1f88059c671d3058be489d1289fcab75", "is_disabled": 0, "is_reserved": 0}, {"rental_uris": {"ios": "https://dc.lft.to/lastmile_qr_scan", "android": "https://dc.lft.to/lastmile_qr_scan"}, "lon": -76.95816816666667, "type": "electric_scooter", "fusion_lat": 0.0, "lat": 38.89056266666667, "name": "e6d92dffea665703a981d807b8ce0f0f", "fusion_lon": 0.0, "bike_id": "e6d92dffea665703a981d807b8ce0f0f", "is_disabled": 0, "is_reserved": 0}, {"rental_uris": {"ios": "https://dc.lft.to/lastmile_qr_scan", "android": "https://dc.lft.to/lastmile_qr_scan"}, "lon": -77.031867, "type": "electric_scooter", "fusion_lat": 0.0, "lat": 38.909971, "name": "cbe1834421bca17651a3e900507e119b", "fusion_lon": 0.0, "bike_id": "cbe1834421bca17651a3e900507e119b", "is_disabled": 0, "is_reserved": 0}, {"rental_uris": {"ios": "https://dc.lft.to/lastmile_qr_scan", "android": "https://dc.lft.to/lastmile_qr_scan"}, "lon": -77.03254566666666, "type": "electric_scooter", "fusion_lat": 0.0, "lat": 38.918167, "name": "3411830c1e3395608c0d5fa199e51423", "fusion_lon": 0.0, "bike_id": "3411830c1e3395608c0d5fa199e51423", "is_disabled": 0, "is_reserved": 0}, {"rental_uris": {"ios": "https://dc.lft.to/lastmile_qr_scan", "android": "https://dc.lft.to/lastmile_qr_scan"}, "lon": -77.05589333333333, "type": "electric_scooter", "fusion_lat": 0.0, "lat": 38.9277675, "name": "c9fd42192bf0ecd1955e191da98cc69a", "fusion_lon": 0.0, "bike_id": "c9fd42192bf0ecd1955e191da98cc69a", "is_disabled": 0, "is_reserved": 0}, {"rental_uris": {"ios": "https://dc.lft.to/lastmile_qr_scan", "android": "https://dc.lft.to/lastmile_qr_scan"}, "lon": -77.044425, "type": "electric_scooter", "fusion_lat": 0.0, "lat": 38.91878083333334, "name": "0be7e3b9a7ac2ae02ac5ca1afa9e945b", "fusion_lon": 0.0, "bike_id": "0be7e3b9a7ac2ae02ac5ca1afa9e945b", "is_disabled": 0, "is_reserved": 0}, {"rental_uris": {"ios": "https://dc.lft.to/lastmile_qr_scan", "android": "https://dc.lft.to/lastmile_qr_scan"}, "lon": -77.0451995, "type": "electric_scooter", "fusion_lat": 0.0, "lat": 38.909772333333336, "name": "41370f5b9ff36e96b1afdc9cda4929bf", "fusion_lon": 0.0, "bike_id": "41370f5b9ff36e96b1afdc9cda4929bf", "is_disabled": 0, "is_reserved": 0}, {"rental_uris": {"ios": "https://dc.lft.to/lastmile_qr_scan", "android": "https://dc.lft.to/lastmile_qr_scan"}, "lon": -77.0334875, "type": "electric_scooter", "fusion_lat": 0.0, "lat": 38.8851065, "name": "56ca383d4e05194ce4576335a26e1a1d", "fusion_lon": 0.0, "bike_id": "56ca383d4e05194ce4576335a26e1a1d", "is_disabled": 0, "is_reserved": 0}, {"rental_uris": {"ios": "https://dc.lft.to/lastmile_qr_scan", "android": "https://dc.lft.to/lastmile_qr_scan"}, "lon": -77.03208516666666, "type": "electric_scooter", "fusion_lat": 0.0, "lat": 38.91310816666667, "name": "68935fb63a8d839e24e4e2acaed10fe5", "fusion_lon": 0.0, "bike_id": "68935fb63a8d839e24e4e2acaed10fe5", "is_disabled": 0, "is_reserved": 0}, {"rental_uris": {"ios": "https://dc.lft.to/lastmile_qr_scan", "android": "https://dc.lft.to/lastmile_qr_scan"}, "lon": -77.0013915, "type": "electric_scooter", "fusion_lat": 0.0, "lat": 38.904096833333334, "name": "924336e948598abf98f1399d7628a61c", "fusion_lon": 0.0, "bike_id": "924336e948598abf98f1399d7628a61c", "is_disabled": 0, "is_reserved": 0}, {"rental_uris": {"ios": "https://dc.lft.to/lastmile_qr_scan", "android": "https://dc.lft.to/lastmile_qr_scan"}, "lon": -77.10341533333333, "type": "electric_bike", "fusion_lat": 0.0, "lat": 38.852334166666665, "name": "83dee9b752fb81954057ccfb140ed973", "fusion_lon": 0.0, "bike_id": "83dee9b752fb81954057ccfb140ed973", "is_disabled": 0, "is_reserved": 0}, {"rental_uris": {"ios": "https://dc.lft.to/lastmile_qr_scan", "android": "https://dc.lft.to/lastmile_qr_scan"}, "lon": -77.00880033333334, "type": "electric_scooter", "fusion_lat": 0.0, "lat": 38.91405916666667, "name": "bf28d5ba2315fb049e67816309a9ef22", "fusion_lon": 0.0, "bike_id": "bf28d5ba2315fb049e67816309a9ef22", "is_disabled": 0, "is_reserved": 0}, {"rental_uris": {"ios": "https://dc.lft.to/lastmile_qr_scan", "android": "https://dc.lft.to/lastmile_qr_scan"}, "lon": -76.94793516666667, "type": "electric_scooter", "fusion_lat": 0.0, "lat": 38.896319166666665, "name": "a7330195e50711040c1d57b3ee9f01bc", "fusion_lon": 0.0, "bike_id": "a7330195e50711040c1d57b3ee9f01bc", "is_disabled": 0, "is_reserved": 0}, {"rental_uris": {"ios": "https://dc.lft.to/lastmile_qr_scan", "android": "https://dc.lft.to/lastmile_qr_scan"}, "lon": -77.02976266666667, "type": "electric_scooter", "fusion_lat": 0.0, "lat": 38.96231483333333, "name": "dd881e857f9f57d125f2ca11506d5a28", "fusion_lon": 0.0, "bike_id": "dd881e857f9f57d125f2ca11506d5a28", "is_disabled": 0, "is_reserved": 0}, {"rental_uris": {"ios": "https://dc.lft.to/lastmile_qr_scan", "android": "https://dc.lft.to/lastmile_qr_scan"}, "lon": -77.01105, "type": "electric_scooter", "fusion_lat": 0.0, "lat": 38.9155845, "name": "c016b31384703e9e1591c74e7245bac7", "fusion_lon": 0.0, "bike_id": "c016b31384703e9e1591c74e7245bac7", "is_disabled": 0, "is_reserved": 0}, {"rental_uris": {"ios": "https://dc.lft.to/lastmile_qr_scan", "android": "https://dc.lft.to/lastmile_qr_scan"}, "lon": -77.00255216666666, "type": "electric_scooter", "fusion_lat": 0.0, "lat": 38.91186, "name": "e112aed8359313523dc1c53ac07d28bd", "fusion_lon": 0.0, "bike_id": "e112aed8359313523dc1c53ac07d28bd", "is_disabled": 0, "is_reserved": 0}, {"rental_uris": {"ios": "https://dc.lft.to/lastmile_qr_scan", "android": "https://dc.lft.to/lastmile_qr_scan"}, "lon": -76.97617683333333, "type": "electric_bike", "fusion_lat": 0.0, "lat": 38.89580216666667, "name": "113cd5ba8fdf7b7b13d7c59fca60d3d6", "fusion_lon": 0.0, "bike_id": "113cd5ba8fdf7b7b13d7c59fca60d3d6", "is_disabled": 0, "is_reserved": 0}, {"rental_uris": {"ios": "https://dc.lft.to/lastmile_qr_scan", "android": "https://dc.lft.to/lastmile_qr_scan"}, "lon": -77.01214366666666, "type": "electric_scooter", "fusion_lat": 0.0, "lat": 38.870953666666665, "name": "ad27fd6135f770527ec67f151efcdee3", "fusion_lon": 0.0, "bike_id": "ad27fd6135f770527ec67f151efcdee3", "is_disabled": 0, "is_reserved": 0}, {"rental_uris": {"ios": "https://dc.lft.to/lastmile_qr_scan", "android": "https://dc.lft.to/lastmile_qr_scan"}, "lon": -77.03419816666667, "type": "electric_scooter", "fusion_lat": 0.0, "lat": 38.9035565, "name": "64bf4c25a108ae17d50aa624503b3c20", "fusion_lon": 0.0, "bike_id": "64bf4c25a108ae17d50aa624503b3c20", "is_disabled": 0, "is_reserved": 0}, {"rental_uris": {"ios": "https://dc.lft.to/lastmile_qr_scan", "android": "https://dc.lft.to/lastmile_qr_scan"}, "lon": -77.04153066666667, "type": "electric_scooter", "fusion_lat": 0.0, "lat": 38.9052905, "name": "c8de75032e0eac8f2b539eac67c8f165", "fusion_lon": 0.0, "bike_id": "c8de75032e0eac8f2b539eac67c8f165", "is_disabled": 0, "is_reserved": 0}, {"rental_uris": {"ios": "https://dc.lft.to/lastmile_qr_scan", "android": "https://dc.lft.to/lastmile_qr_scan"}, "lon": -77.042493, "type": "electric_scooter", "fusion_lat": 0.0, "lat": 38.907330333333334, "name": "fc6c42cf64bcec42bb079fc4701bb390", "fusion_lon": 0.0, "bike_id": "fc6c42cf64bcec42bb079fc4701bb390", "is_disabled": 0, "is_reserved": 0}, {"rental_uris": {"ios": "https://dc.lft.to/lastmile_qr_scan", "android": "https://dc.lft.to/lastmile_qr_scan"}, "lon": -76.93717633333333, "type": "electric_scooter", "fusion_lat": 0.0, "lat": 38.8958985, "name": "fb4901a49a9fdf5100277a68dd42d602", "fusion_lon": 0.0, "bike_id": "fb4901a49a9fdf5100277a68dd42d602", "is_disabled": 0, "is_reserved": 0}, {"rental_uris": {"ios": "https://dc.lft.to/lastmile_qr_scan", "android": "https://dc.lft.to/lastmile_qr_scan"}, "lon": -77.04110033333333, "type": "electric_scooter", "fusion_lat": 0.0, "lat": 38.9244835, "name": "888b9c3d959dcac4f1898d9dbc52db6b", "fusion_lon": 0.0, "bike_id": "888b9c3d959dcac4f1898d9dbc52db6b", "is_disabled": 0, "is_reserved": 0}, {"rental_uris": {"ios": "https://dc.lft.to/lastmile_qr_scan", "android": "https://dc.lft.to/lastmile_qr_scan"}, "lon": -77.00245766666667, "type": "electric_scooter", "fusion_lat": 0.0, "lat": 38.912696333333336, "name": "37b04feb4962ec20373fac7903d1f8ba", "fusion_lon": 0.0, "bike_id": "37b04feb4962ec20373fac7903d1f8ba", "is_disabled": 0, "is_reserved": 0}, {"rental_uris": {"ios": "https://dc.lft.to/lastmile_qr_scan", "android": "https://dc.lft.to/lastmile_qr_scan"}, "lon": -77.03297733333333, "type": "electric_scooter", "fusion_lat": 0.0, "lat": 38.909718833333336, "name": "3600b792c3f50ace12110595b8b9ac6f", "fusion_lon": 0.0, "bike_id": "3600b792c3f50ace12110595b8b9ac6f", "is_disabled": 0, "is_reserved": 0}, {"rental_uris": {"ios": "https://dc.lft.to/lastmile_qr_scan", "android": "https://dc.lft.to/lastmile_qr_scan"}, "lon": -77.0195225, "type": "electric_scooter", "fusion_lat": 0.0, "lat": 38.903633666666664, "name": "e55d3054ee0f5592ce51bd6896a1aeec", "fusion_lon": 0.0, "bike_id": "e55d3054ee0f5592ce51bd6896a1aeec", "is_disabled": 0, "is_reserved": 0}, {"rental_uris": {"ios": "https://dc.lft.to/lastmile_qr_scan", "android": "https://dc.lft.to/lastmile_qr_scan"}, "lon": -76.97406916666667, "type": "electric_scooter", "fusion_lat": 0.0, "lat": 38.901590166666665, "name": "11f30c10c0ba6120023d88964be00ccf", "fusion_lon": 0.0, "bike_id": "11f30c10c0ba6120023d88964be00ccf", "is_disabled": 0, "is_reserved": 0}, {"rental_uris": {"ios": "https://dc.lft.to/lastmile_qr_scan", "android": "https://dc.lft.to/lastmile_qr_scan"}, "lon": -76.97925116666667, "type": "electric_scooter", "fusion_lat": 0.0, "lat": 38.906741, "name": "893f972fde9d900b8167c62fafc02e75", "fusion_lon": 0.0, "bike_id": "893f972fde9d900b8167c62fafc02e75", "is_disabled": 0, "is_reserved": 0}, {"rental_uris": {"ios": "https://dc.lft.to/lastmile_qr_scan", "android": "https://dc.lft.to/lastmile_qr_scan"}, "lon": -77.0353985, "type": "electric_scooter", "fusion_lat": 0.0, "lat": 38.90382916666667, "name": "369a4404419f20982c2e7b8ed433b9ac", "fusion_lon": 0.0, "bike_id": "369a4404419f20982c2e7b8ed433b9ac", "is_disabled": 0, "is_reserved": 0}, {"rental_uris": {"ios": "https://dc.lft.to/lastmile_qr_scan", "android": "https://dc.lft.to/lastmile_qr_scan"}, "lon": -77.04667083333334, "type": "electric_scooter", "fusion_lat": 0.0, "lat": 38.913194, "name": "3ce681a82c73c332d0d8c576cb6cb072", "fusion_lon": 0.0, "bike_id": "3ce681a82c73c332d0d8c576cb6cb072", "is_disabled": 0, "is_reserved": 0}, {"rental_uris": {"ios": "https://dc.lft.to/lastmile_qr_scan", "android": "https://dc.lft.to/lastmile_qr_scan"}, "lon": -77.03242783333333, "type": "electric_scooter", "fusion_lat": 0.0, "lat": 38.904431833333334, "name": "35ae28c175b613885171196c69f78371", "fusion_lon": 0.0, "bike_id": "35ae28c175b613885171196c69f78371", "is_disabled": 0, "is_reserved": 0}, {"rental_uris": {"ios": "https://dc.lft.to/lastmile_qr_scan", "android": "https://dc.lft.to/lastmile_qr_scan"}, "lon": -77.01078483333333, "type": "electric_scooter", "fusion_lat": 0.0, "lat": 38.89503216666667, "name": "467679e15a3ee5bd1ce7e7dafb47850c", "fusion_lon": 0.0, "bike_id": "467679e15a3ee5bd1ce7e7dafb47850c", "is_disabled": 0, "is_reserved": 0}, {"rental_uris": {"ios": "https://dc.lft.to/lastmile_qr_scan", "android": "https://dc.lft.to/lastmile_qr_scan"}, "lon": -77.03796916666667, "type": "electric_scooter", "fusion_lat": 0.0, "lat": 38.926407833333336, "name": "c322a2951859ded4c2af24fd8bb93515", "fusion_lon": 0.0, "bike_id": "c322a2951859ded4c2af24fd8bb93515", "is_disabled": 0, "is_reserved": 0}, {"rental_uris": {"ios": "https://dc.lft.to/lastmile_qr_scan", "android": "https://dc.lft.to/lastmile_qr_scan"}, "lon": -76.946354, "type": "electric_scooter", "fusion_lat": 0.0, "lat": 38.898328666666664, "name": "fa6440d2826e7914d543fdee047675d4", "fusion_lon": 0.0, "bike_id": "fa6440d2826e7914d543fdee047675d4", "is_disabled": 0, "is_reserved": 0}, {"rental_uris": {"ios": "https://dc.lft.to/lastmile_qr_scan", "android": "https://dc.lft.to/lastmile_qr_scan"}, "lon": -76.95762866666666, "type": "electric_bike", "fusion_lat": 0.0, "lat": 38.88417666666667, "name": "32c15bc799d372db07efad906b3f1d28", "fusion_lon": 0.0, "bike_id": "32c15bc799d372db07efad906b3f1d28", "is_disabled": 0, "is_reserved": 0}, {"rental_uris": {"ios": "https://dc.lft.to/lastmile_qr_scan", "android": "https://dc.lft.to/lastmile_qr_scan"}, "lon": -77.02145383333334, "type": "electric_bike", "fusion_lat": 0.0, "lat": 38.948072333333336, "name": "7c9dc41656c388fcd9d79919fc64a153", "fusion_lon": 0.0, "bike_id": "7c9dc41656c388fcd9d79919fc64a153", "is_disabled": 0, "is_reserved": 0}, {"rental_uris": {"ios": "https://dc.lft.to/lastmile_qr_scan", "android": "https://dc.lft.to/lastmile_qr_scan"}, "lon": -76.87827733333333, "type": "electric_bike", "fusion_lat": 0.0, "lat": 38.992346166666664, "name": "63b4e90587f7372b5100714d81ba1840", "fusion_lon": 0.0, "bike_id": "63b4e90587f7372b5100714d81ba1840", "is_disabled": 0, "is_reserved": 0}, {"rental_uris": {"ios": "https://dc.lft.to/lastmile_qr_scan", "android": "https://dc.lft.to/lastmile_qr_scan"}, "lon": -76.97616433333333, "type": "electric_scooter", "fusion_lat": 0.0, "lat": 38.9038595, "name": "533616e67c8a5757afab0e4810a87526", "fusion_lon": 0.0, "bike_id": "533616e67c8a5757afab0e4810a87526", "is_disabled": 0, "is_reserved": 0}, {"rental_uris": {"ios": "https://dc.lft.to/lastmile_qr_scan", "android": "https://dc.lft.to/lastmile_qr_scan"}, "lon": -77.03837216666666, "type": "electric_scooter", "fusion_lat": 0.0, "lat": 38.921767, "name": "802238f310ec448218334ca5f14256bc", "fusion_lon": 0.0, "bike_id": "802238f310ec448218334ca5f14256bc", "is_disabled": 0, "is_reserved": 0}, {"rental_uris": {"ios": "https://dc.lft.to/lastmile_qr_scan", "android": "https://dc.lft.to/lastmile_qr_scan"}, "lon": -76.97747933333333, "type": "electric_scooter", "fusion_lat": 0.0, "lat": 38.90013, "name": "6ed7d4ceb0d8adeb2d08b6c776d6d9a7", "fusion_lon": 0.0, "bike_id": "6ed7d4ceb0d8adeb2d08b6c776d6d9a7", "is_disabled": 0, "is_reserved": 0}, {"rental_uris": {"ios": "https://dc.lft.to/lastmile_qr_scan", "android": "https://dc.lft.to/lastmile_qr_scan"}, "lon": -77.024774, "type": "electric_scooter", "fusion_lat": 0.0, "lat": 38.91816383333333, "name": "c90709b2fcfbe709269d23ea5135cc9f", "fusion_lon": 0.0, "bike_id": "c90709b2fcfbe709269d23ea5135cc9f", "is_disabled": 0, "is_reserved": 0}, {"rental_uris": {"ios": "https://dc.lft.to/lastmile_qr_scan", "android": "https://dc.lft.to/lastmile_qr_scan"}, "lon": -77.07563416666666, "type": "electric_scooter", "fusion_lat": 0.0, "lat": 38.920924666666664, "name": "7824ea9583835243d96f18186fd0ece6", "fusion_lon": 0.0, "bike_id": "7824ea9583835243d96f18186fd0ece6", "is_disabled": 0, "is_reserved": 0}, {"rental_uris": {"ios": "https://dc.lft.to/lastmile_qr_scan", "android": "https://dc.lft.to/lastmile_qr_scan"}, "lon": -77.01094316666666, "type": "electric_scooter", "fusion_lat": 0.0, "lat": 38.89469366666667, "name": "1aeb72621e3f93a837a963eddeafca89", "fusion_lon": 0.0, "bike_id": "1aeb72621e3f93a837a963eddeafca89", "is_disabled": 0, "is_reserved": 0}, {"rental_uris": {"ios": "https://dc.lft.to/lastmile_qr_scan", "android": "https://dc.lft.to/lastmile_qr_scan"}, "lon": -77.03807316666666, "type": "electric_bike", "fusion_lat": 0.0, "lat": 38.93066533333333, "name": "4b297309bbac272dc3d02b466b3b9163", "fusion_lon": 0.0, "bike_id": "4b297309bbac272dc3d02b466b3b9163", "is_disabled": 0, "is_reserved": 0}, {"rental_uris": {"ios": "https://dc.lft.to/lastmile_qr_scan", "android": "https://dc.lft.to/lastmile_qr_scan"}, "lon": -76.99970766666667, "type": "electric_scooter", "fusion_lat": 0.0, "lat": 38.908499166666665, "name": "bed2aa923d8b449e226f74a036fe44be", "fusion_lon": 0.0, "bike_id": "bed2aa923d8b449e226f74a036fe44be", "is_disabled": 0, "is_reserved": 0}, {"rental_uris": {"ios": "https://dc.lft.to/lastmile_qr_scan", "android": "https://dc.lft.to/lastmile_qr_scan"}, "lon": -77.042208, "type": "electric_scooter", "fusion_lat": 0.0, "lat": 38.911214666666666, "name": "f0b18bbd12046de9574cbd5e087c5071", "fusion_lon": 0.0, "bike_id": "f0b18bbd12046de9574cbd5e087c5071", "is_disabled": 0, "is_reserved": 0}, {"rental_uris": {"ios": "https://dc.lft.to/lastmile_qr_scan", "android": "https://dc.lft.to/lastmile_qr_scan"}, "lon": -76.998388, "type": "electric_bike", "fusion_lat": 0.0, "lat": 38.839118166666665, "name": "dc8feda3f0f7a73df5774d9b455a3ed9", "fusion_lon": 0.0, "bike_id": "dc8feda3f0f7a73df5774d9b455a3ed9", "is_disabled": 0, "is_reserved": 0}, {"rental_uris": {"ios": "https://dc.lft.to/lastmile_qr_scan", "android": "https://dc.lft.to/lastmile_qr_scan"}, "lon": -77.03003216666667, "type": "electric_scooter", "fusion_lat": 0.0, "lat": 38.934599, "name": "dce658e6d533383905f8397143f32427", "fusion_lon": 0.0, "bike_id": "dce658e6d533383905f8397143f32427", "is_disabled": 0, "is_reserved": 0}, {"rental_uris": {"ios": "https://dc.lft.to/lastmile_qr_scan", "android": "https://dc.lft.to/lastmile_qr_scan"}, "lon": -77.01412516666667, "type": "electric_scooter", "fusion_lat": 0.0, "lat": 38.91694366666667, "name": "3c16d2c365fe5d1223000c7d8b6a06c6", "fusion_lon": 0.0, "bike_id": "3c16d2c365fe5d1223000c7d8b6a06c6", "is_disabled": 0, "is_reserved": 0}, {"rental_uris": {"ios": "https://dc.lft.to/lastmile_qr_scan", "android": "https://dc.lft.to/lastmile_qr_scan"}, "lon": -77.0180365, "type": "electric_scooter", "fusion_lat": 0.0, "lat": 38.94201966666667, "name": "3f618a56565e059917a458b3a430943c", "fusion_lon": 0.0, "bike_id": "3f618a56565e059917a458b3a430943c", "is_disabled": 0, "is_reserved": 0}, {"rental_uris": {"ios": "https://dc.lft.to/lastmile_qr_scan", "android": "https://dc.lft.to/lastmile_qr_scan"}, "lon": -77.03645816666666, "type": "electric_scooter", "fusion_lat": 0.0, "lat": 38.9130575, "name": "03b2922e6904fcb4c0dfe4b267f210e1", "fusion_lon": 0.0, "bike_id": "03b2922e6904fcb4c0dfe4b267f210e1", "is_disabled": 0, "is_reserved": 0}, {"rental_uris": {"ios": "https://dc.lft.to/lastmile_qr_scan", "android": "https://dc.lft.to/lastmile_qr_scan"}, "lon": -77.00498266666666, "type": "electric_scooter", "fusion_lat": 0.0, "lat": 38.878884666666664, "name": "95e857082ced2d9287c466f6524749ec", "fusion_lon": 0.0, "bike_id": "95e857082ced2d9287c466f6524749ec", "is_disabled": 0, "is_reserved": 0}, {"rental_uris": {"ios": "https://dc.lft.to/lastmile_qr_scan", "android": "https://dc.lft.to/lastmile_qr_scan"}, "lon": -76.93569366666667, "type": "electric_bike", "fusion_lat": 0.0, "lat": 38.88531033333334, "name": "8c5048f4ea715e8187e4de806cf86b27", "fusion_lon": 0.0, "bike_id": "8c5048f4ea715e8187e4de806cf86b27", "is_disabled": 0, "is_reserved": 0}, {"rental_uris": {"ios": "https://dc.lft.to/lastmile_qr_scan", "android": "https://dc.lft.to/lastmile_qr_scan"}, "lon": -77.02572966666666, "type": "electric_scooter", "fusion_lat": 0.0, "lat": 38.88748183333333, "name": "7580909a4be2fa5df66a5960921c7c17", "fusion_lon": 0.0, "bike_id": "7580909a4be2fa5df66a5960921c7c17", "is_disabled": 0, "is_reserved": 0}, {"rental_uris": {"ios": "https://dc.lft.to/lastmile_qr_scan", "android": "https://dc.lft.to/lastmile_qr_scan"}, "lon": -77.04099216666667, "type": "electric_scooter", "fusion_lat": 0.0, "lat": 38.923663, "name": "cdc4a3c27e99f47b0984d156e6287efd", "fusion_lon": 0.0, "bike_id": "cdc4a3c27e99f47b0984d156e6287efd", "is_disabled": 0, "is_reserved": 0}, {"rental_uris": {"ios": "https://dc.lft.to/lastmile_qr_scan", "android": "https://dc.lft.to/lastmile_qr_scan"}, "lon": -77.0321, "type": "electric_scooter", "fusion_lat": 0.0, "lat": 38.925827, "name": "be7c48b93772bb5090400d3d9c4a3a40", "fusion_lon": 0.0, "bike_id": "be7c48b93772bb5090400d3d9c4a3a40", "is_disabled": 0, "is_reserved": 0}, {"rental_uris": {"ios": "https://dc.lft.to/lastmile_qr_scan", "android": "https://dc.lft.to/lastmile_qr_scan"}, "lon": -76.94966333333333, "type": "electric_scooter", "fusion_lat": 0.0, "lat": 38.8936845, "name": "7a7db3980ef570ab77dd5268e3de300e", "fusion_lon": 0.0, "bike_id": "7a7db3980ef570ab77dd5268e3de300e", "is_disabled": 0, "is_reserved": 0}, {"rental_uris": {"ios": "https://dc.lft.to/lastmile_qr_scan", "android": "https://dc.lft.to/lastmile_qr_scan"}, "lon": -77.03747883333334, "type": "electric_scooter", "fusion_lat": 0.0, "lat": 38.914890666666665, "name": "4683c09cf4ef3f4745eb859a1821de05", "fusion_lon": 0.0, "bike_id": "4683c09cf4ef3f4745eb859a1821de05", "is_disabled": 0, "is_reserved": 0}, {"rental_uris": {"ios": "https://dc.lft.to/lastmile_qr_scan", "android": "https://dc.lft.to/lastmile_qr_scan"}, "lon": -77.04147716666667, "type": "electric_scooter", "fusion_lat": 0.0, "lat": 38.9178695, "name": "2bea82289f736cd52b787569b42152b0", "fusion_lon": 0.0, "bike_id": "2bea82289f736cd52b787569b42152b0", "is_disabled": 0, "is_reserved": 0}, {"rental_uris": {"ios": "https://dc.lft.to/lastmile_qr_scan", "android": "https://dc.lft.to/lastmile_qr_scan"}, "lon": -76.980212, "type": "electric_scooter", "fusion_lat": 0.0, "lat": 38.903782666666665, "name": "e30ec25f28ad98f73a88c1cdd0f122be", "fusion_lon": 0.0, "bike_id": "e30ec25f28ad98f73a88c1cdd0f122be", "is_disabled": 0, "is_reserved": 0}, {"rental_uris": {"ios": "https://dc.lft.to/lastmile_qr_scan", "android": "https://dc.lft.to/lastmile_qr_scan"}, "lon": -77.01074083333333, "type": "electric_bike", "fusion_lat": 0.0, "lat": 38.96260183333333, "name": "223c5765f1e7d1d28f830d9bec808736", "fusion_lon": 0.0, "bike_id": "223c5765f1e7d1d28f830d9bec808736", "is_disabled": 0, "is_reserved": 0}, {"rental_uris": {"ios": "https://dc.lft.to/lastmile_qr_scan", "android": "https://dc.lft.to/lastmile_qr_scan"}, "lon": -77.098741, "type": "electric_bike", "fusion_lat": 0.0, "lat": 38.947937833333334, "name": "0f2ccb6513204c2fd64afa98dbbc4801", "fusion_lon": 0.0, "bike_id": "0f2ccb6513204c2fd64afa98dbbc4801", "is_disabled": 0, "is_reserved": 0}, {"rental_uris": {"ios": "https://dc.lft.to/lastmile_qr_scan", "android": "https://dc.lft.to/lastmile_qr_scan"}, "lon": -77.008237, "type": "electric_scooter", "fusion_lat": 0.0, "lat": 38.905666833333335, "name": "394d1846131c51cad3b95f4c1ff328bc", "fusion_lon": 0.0, "bike_id": "394d1846131c51cad3b95f4c1ff328bc", "is_disabled": 0, "is_reserved": 0}, {"rental_uris": {"ios": "https://dc.lft.to/lastmile_qr_scan", "android": "https://dc.lft.to/lastmile_qr_scan"}, "lon": -77.04219316666666, "type": "electric_scooter", "fusion_lat": 0.0, "lat": 38.91120016666667, "name": "16467fbd1c3f7129d6ab93e91302a6a7", "fusion_lon": 0.0, "bike_id": "16467fbd1c3f7129d6ab93e91302a6a7", "is_disabled": 0, "is_reserved": 0}, {"rental_uris": {"ios": "https://dc.lft.to/lastmile_qr_scan", "android": "https://dc.lft.to/lastmile_qr_scan"}, "lon": -77.04310166666667, "type": "electric_scooter", "fusion_lat": 0.0, "lat": 38.908835833333335, "name": "a49444a3e47194161e46ba2023d82a8e", "fusion_lon": 0.0, "bike_id": "a49444a3e47194161e46ba2023d82a8e", "is_disabled": 0, "is_reserved": 0}, {"rental_uris": {"ios": "https://dc.lft.to/lastmile_qr_scan", "android": "https://dc.lft.to/lastmile_qr_scan"}, "lon": -76.99586833333333, "type": "electric_scooter", "fusion_lat": 0.0, "lat": 38.95503983333333, "name": "f04c8926c9a33ad58ba629cb0b7ab3bc", "fusion_lon": 0.0, "bike_id": "f04c8926c9a33ad58ba629cb0b7ab3bc", "is_disabled": 0, "is_reserved": 0}, {"rental_uris": {"ios": "https://dc.lft.to/lastmile_qr_scan", "android": "https://dc.lft.to/lastmile_qr_scan"}, "lon": -77.04499616666666, "type": "electric_scooter", "fusion_lat": 0.0, "lat": 38.911073, "name": "f40825df6e60f9eb03504662c526a587", "fusion_lon": 0.0, "bike_id": "f40825df6e60f9eb03504662c526a587", "is_disabled": 0, "is_reserved": 0}, {"rental_uris": {"ios": "https://dc.lft.to/lastmile_qr_scan", "android": "https://dc.lft.to/lastmile_qr_scan"}, "lon": -76.97567933333333, "type": "electric_bike", "fusion_lat": 0.0, "lat": 38.925084166666664, "name": "fedbc70dcda2c6cbf27b64047b28c122", "fusion_lon": 0.0, "bike_id": "fedbc70dcda2c6cbf27b64047b28c122", "is_disabled": 0, "is_reserved": 0}, {"rental_uris": {"ios": "https://dc.lft.to/lastmile_qr_scan", "android": "https://dc.lft.to/lastmile_qr_scan"}, "lon": -77.032657, "type": "electric_bike", "fusion_lat": 0.0, "lat": 38.933043166666664, "name": "d5c04a747c9d78331ff25b11886d165b", "fusion_lon": 0.0, "bike_id": "d5c04a747c9d78331ff25b11886d165b", "is_disabled": 0, "is_reserved": 0}, {"rental_uris": {"ios": "https://dc.lft.to/lastmile_qr_scan", "android": "https://dc.lft.to/lastmile_qr_scan"}, "lon": -77.05020933333333, "type": "electric_scooter", "fusion_lat": 0.0, "lat": 38.923555, "name": "3a0daac53e6ecfdc495740bd2dad4f01", "fusion_lon": 0.0, "bike_id": "3a0daac53e6ecfdc495740bd2dad4f01", "is_disabled": 0, "is_reserved": 0}, {"rental_uris": {"ios": "https://dc.lft.to/lastmile_qr_scan", "android": "https://dc.lft.to/lastmile_qr_scan"}, "lon": -77.04175366666666, "type": "electric_scooter", "fusion_lat": 0.0, "lat": 38.91190316666667, "name": "b4ebdb7f98b2791c433574df3ac4e88d", "fusion_lon": 0.0, "bike_id": "b4ebdb7f98b2791c433574df3ac4e88d", "is_disabled": 0, "is_reserved": 0}, {"rental_uris": {"ios": "https://dc.lft.to/lastmile_qr_scan", "android": "https://dc.lft.to/lastmile_qr_scan"}, "lon": -77.02763216666666, "type": "electric_scooter", "fusion_lat": 0.0, "lat": 38.913440666666666, "name": "4072eb66b287f43dd57670b088e0f5ef", "fusion_lon": 0.0, "bike_id": "4072eb66b287f43dd57670b088e0f5ef", "is_disabled": 0, "is_reserved": 0}, {"rental_uris": {"ios": "https://dc.lft.to/lastmile_qr_scan", "android": "https://dc.lft.to/lastmile_qr_scan"}, "lon": -77.024332, "type": "electric_scooter", "fusion_lat": 0.0, "lat": 38.92062716666667, "name": "341af573595e97af59abcd1b7e907c2d", "fusion_lon": 0.0, "bike_id": "341af573595e97af59abcd1b7e907c2d", "is_disabled": 0, "is_reserved": 0}, {"rental_uris": {"ios": "https://dc.lft.to/lastmile_qr_scan", "android": "https://dc.lft.to/lastmile_qr_scan"}, "lon": -77.0739225, "type": "electric_bike", "fusion_lat": 0.0, "lat": 38.9618185, "name": "d6ff216c6b8719616a065262689124ca", "fusion_lon": 0.0, "bike_id": "d6ff216c6b8719616a065262689124ca", "is_disabled": 0, "is_reserved": 0}, {"rental_uris": {"ios": "https://dc.lft.to/lastmile_qr_scan", "android": "https://dc.lft.to/lastmile_qr_scan"}, "lon": -76.93174866666666, "type": "electric_scooter", "fusion_lat": 0.0, "lat": 38.89885133333333, "name": "bfcf6927cf761347aa4f0736751521d3", "fusion_lon": 0.0, "bike_id": "bfcf6927cf761347aa4f0736751521d3", "is_disabled": 0, "is_reserved": 0}, {"rental_uris": {"ios": "https://dc.lft.to/lastmile_qr_scan", "android": "https://dc.lft.to/lastmile_qr_scan"}, "lon": -77.03825383333333, "type": "electric_scooter", "fusion_lat": 0.0, "lat": 38.92073516666667, "name": "ca5930088229003a968b3987043df33e", "fusion_lon": 0.0, "bike_id": "ca5930088229003a968b3987043df33e", "is_disabled": 0, "is_reserved": 0}, {"rental_uris": {"ios": "https://dc.lft.to/lastmile_qr_scan", "android": "https://dc.lft.to/lastmile_qr_scan"}, "lon": -77.00258366666667, "type": "electric_scooter", "fusion_lat": 0.0, "lat": 38.91195466666667, "name": "2d94fabbd63841cc7a761e7120e10e1c", "fusion_lon": 0.0, "bike_id": "2d94fabbd63841cc7a761e7120e10e1c", "is_disabled": 0, "is_reserved": 0}, {"rental_uris": {"ios": "https://dc.lft.to/lastmile_qr_scan", "android": "https://dc.lft.to/lastmile_qr_scan"}, "lon": -77.03052966666667, "type": "electric_scooter", "fusion_lat": 0.0, "lat": 38.88407266666667, "name": "b89ded46928387e359e36d2a82a62fc5", "fusion_lon": 0.0, "bike_id": "b89ded46928387e359e36d2a82a62fc5", "is_disabled": 0, "is_reserved": 0}, {"rental_uris": {"ios": "https://dc.lft.to/lastmile_qr_scan", "android": "https://dc.lft.to/lastmile_qr_scan"}, "lon": -77.04193966666666, "type": "electric_scooter", "fusion_lat": 0.0, "lat": 38.918709666666665, "name": "856892d097bccb670d64ae663b4f4c3d", "fusion_lon": 0.0, "bike_id": "856892d097bccb670d64ae663b4f4c3d", "is_disabled": 0, "is_reserved": 0}, {"rental_uris": {"ios": "https://dc.lft.to/lastmile_qr_scan", "android": "https://dc.lft.to/lastmile_qr_scan"}, "lon": -77.04783933333333, "type": "electric_scooter", "fusion_lat": 0.0, "lat": 38.893646833333335, "name": "dc7167e27b0709cb1eb3f2161b446167", "fusion_lon": 0.0, "bike_id": "dc7167e27b0709cb1eb3f2161b446167", "is_disabled": 0, "is_reserved": 0}, {"rental_uris": {"ios": "https://dc.lft.to/lastmile_qr_scan", "android": "https://dc.lft.to/lastmile_qr_scan"},