{"data": {"bikes": [{"lat": 38.93241616666667, "type": "electric_scooter", "is_disabled": 0, "rental_uris": {"android": "https://dc.lft.to/lastmile_qr_scan", "ios": "https://dc.lft.to/lastmile_qr_scan"}, "is_reserved": 0, "bike_id": "995e649c84c44e02f75e36b12a85bc72", "name": "995e649c84c44e02f75e36b12a85bc72", "fusion_lon": 0.0, "lon": -77.03409966666666, "fusion_lat": 0.0}, {"lat": 38.918164166666664, "type": "electric_scooter", "is_disabled": 0, "rental_uris": {"android": "https://dc.lft.to/lastmile_qr_scan", "ios": "https://dc.lft.to/lastmile_qr_scan"}, "is_reserved": 0, "bike_id": "2d307cee81ccad48c06faab089f4780a", "name": "2d307cee81ccad48c06faab089f4780a", "fusion_lon": 0.0, "lon": -77.024776, "fusion_lat": 0.0}, {"lat": 38.9309855, "type": "electric_scooter", "is_disabled": 0, "rental_uris": {"android": "https://dc.lft.to/lastmile_qr_scan", "ios": "https://dc.lft.to/lastmile_qr_scan"}, "is_reserved": 0, "bike_id": "3248dee17fac94a909ee301c2d990747", "name": "3248dee17fac94a909ee301c2d990747", "fusion_lon": 0.0, "lon": -77.02472366666667, "fusion_lat": 0.0}, {"lat": 38.918841, "type": "electric_scooter", "is_disabled": 0, "rental_uris": {"android": "https://dc.lft.to/lastmile_qr_scan", "ios": "https://dc.lft.to/lastmile_qr_scan"}, "is_reserved": 0, "bike_id": "ed9b2279f8ae47837ee6277a83059a02", "name": "ed9b2279f8ae47837ee6277a83059a02", "fusion_lon": 0.0, "lon": -77.04170416666666, "fusion_lat": 0.0}, {"lat": 38.946240333333336, "type": "electric_bike", "is_disabled": 0, "rental_uris": {"android": "https://dc.lft.to/lastmile_qr_scan", "ios": "https://dc.lft.to/lastmile_qr_scan"}, "is_reserved": 0, "bike_id": "b663c3199b525e66bcb104ba74e5b04b", "name": "b663c3199b525e66bcb104ba74e5b04b", "fusion_lon": 0.0, "lon": -76.93411366666666, "fusion_lat": 0.0}, {"lat": 38.87630933333333, "type": "electric_scooter", "is_disabled": 0, "rental_uris": {"android": "https://dc.lft.to/lastmile_qr_scan", "ios": "https://dc.lft.to/lastmile_qr_scan"}, "is_reserved": 0, "bike_id": "e514d4cfde8eab3ffdcd864513b60774", "name": "e514d4cfde8eab3ffdcd864513b60774", "fusion_lon": 0.0, "lon": -77.0125745, "fusion_lat": 0.0}, {"lat": 38.887444, "type": "electric_scooter", "is_disabled": 0, "rental_uris": {"android": "https://dc.lft.to/lastmile_qr_scan", "ios": "https://dc.lft.to/lastmile_qr_scan"}, "is_reserved": 0, "bike_id": "4a593ffff679a7eac8a74172ae0b0344", "name": "4a593ffff679a7eac8a74172ae0b0344", "fusion_lon": 0.0, "lon": -77.0212265, "fusion_lat": 0.0}, {"lat": 38.91273133333333, "type": "electric_scooter", "is_disabled": 0, "rental_uris": {"android": "https://dc.lft.to/lastmile_qr_scan", "ios": "https://dc.lft.to/lastmile_qr_scan"}, "is_reserved": 0, "bike_id": "f42d6006ba7c938146d5c8f1145b0a1d", "name": "f42d6006ba7c938146d5c8f1145b0a1d", "fusion_lon": 0.0, "lon": -77.02267283333333, "fusion_lat": 0.0}, {"lat": 38.9044615, "type": "electric_scooter", "is_disabled": 0, "rental_uris": {"android": "https://dc.lft.to/lastmile_qr_scan", "ios": "https://dc.lft.to/lastmile_qr_scan"}, "is_reserved": 0, "bike_id": "db6a4fcffd06e564f412d3b2a727c00b", "name": "db6a4fcffd06e564f412d3b2a727c00b", "fusion_lon": 0.0, "lon": -77.03844916666667, "fusion_lat": 0.0}, {"lat": 38.92481516666667, "type": "electric_scooter", "is_disabled": 0, "rental_uris": {"android": "https://dc.lft.to/lastmile_qr_scan", "ios": "https://dc.lft.to/lastmile_qr_scan"}, "is_reserved": 0, "bike_id": "12a73084956f20ee676eaf3f3fcb979f", "name": "12a73084956f20ee676eaf3f3fcb979f", "fusion_lon": 0.0, "lon": -77.027221, "fusion_lat": 0.0}, {"lat": 38.90304733333333, "type": "electric_scooter", "is_disabled": 0, "rental_uris": {"android": "https://dc.lft.to/lastmile_qr_scan", "ios": "https://dc.lft.to/lastmile_qr_scan"}, "is_reserved": 0, "bike_id": "ff40791144305be77f8bcf4897459f97", "name": "ff40791144305be77f8bcf4897459f97", "fusion_lon": 0.0, "lon": -77.023668, "fusion_lat": 0.0}, {"lat": 38.93865133333333, "type": "electric_scooter", "is_disabled": 0, "rental_uris": {"android": "https://dc.lft.to/lastmile_qr_scan", "ios": "https://dc.lft.to/lastmile_qr_scan"}, "is_reserved": 0, "bike_id": "84bc036e594beb511adc447b81be9f9e", "name": "84bc036e594beb511adc447b81be9f9e", "fusion_lon": 0.0, "lon": -77.024817, "fusion_lat": 0.0}, {"lat": 38.90546233333333, "type": "electric_scooter", "is_disabled": 0, "rental_uris": {"android": "https://dc.lft.to/lastmile_qr_scan", "ios": "https://dc.lft.to/lastmile_qr_scan"}, "is_reserved": 0, "bike_id": "41979ea97bd6b85e62d981af47e64bd4", "name": "41979ea97bd6b85e62d981af47e64bd4", "fusion_lon": 0.0, "lon": -77.05702616666666, "fusion_lat": 0.0}, {"lat": 38.9169575, "type": "electric_scooter", "is_disabled": 0, "rental_uris": {"android": "https://dc.lft.to/lastmile_qr_scan", "ios": "https://dc.lft.to/lastmile_qr_scan"}, "is_reserved": 0, "bike_id": "bfa4833615f3e06cc8bdf119e80b723c", "name": "bfa4833615f3e06cc8bdf119e80b723c", "fusion_lon": 0.0, "lon": -77.04008416666667, "fusion_lat": 0.0}, {"lat": 38.90530666666667, "type": "electric_scooter", "is_disabled": 0, "rental_uris": {"android": "https://dc.lft.to/lastmile_qr_scan", "ios": "https://dc.lft.to/lastmile_qr_scan"}, "is_reserved": 0, "bike_id": "5cf06f09743bd019ac7b2f3dca89597b", "name": "5cf06f09743bd019ac7b2f3dca89597b", "fusion_lon": 0.0, "lon": -77.05973133333333, "fusion_lat": 0.0}, {"lat": 38.91935566666667, "type": "electric_bike", "is_disabled": 0, "rental_uris": {"android": "https://dc.lft.to/lastmile_qr_scan", "ios": "https://dc.lft.to/lastmile_qr_scan"}, "is_reserved": 0, "bike_id": "4858aa54cd4edf911a1b6db61bed7575", "name": "4858aa54cd4edf911a1b6db61bed7575", "fusion_lon": 0.0, "lon": -76.97502033333333, "fusion_lat": 0.0}, {"lat": 38.88314483333333, "type": "electric_scooter", "is_disabled": 0, "rental_uris": {"android": "https://dc.lft.to/lastmile_qr_scan", "ios": "https://dc.lft.to/lastmile_qr_scan"}, "is_reserved": 0, "bike_id": "28eb3d2c1ddb9c7f7a0b69503ddd01e4", "name": "28eb3d2c1ddb9c7f7a0b69503ddd01e4", "fusion_lon": 0.0, "lon": -77.01626566666667, "fusion_lat": 0.0}, {"lat": 38.8851825, "type": "electric_scooter", "is_disabled": 0, "rental_uris": {"android": "https://dc.lft.to/lastmile_qr_scan", "ios": "https://dc.lft.to/lastmile_qr_scan"}, "is_reserved": 0, "bike_id": "95c6c916ebe8224c625a630a10f2706e", "name": "95c6c916ebe8224c625a630a10f2706e", "fusion_lon": 0.0, "lon": -76.94825433333334, "fusion_lat": 0.0}, {"lat": 38.905178, "type": "electric_scooter", "is_disabled": 0, "rental_uris": {"android": "https://dc.lft.to/lastmile_qr_scan", "ios": "https://dc.lft.to/lastmile_qr_scan"}, "is_reserved": 0, "bike_id": "35c7c9c26a98e320a32b65ddf2889871", "name": "35c7c9c26a98e320a32b65ddf2889871", "fusion_lon": 0.0, "lon": -77.06524566666667, "fusion_lat": 0.0}, {"lat": 38.94301633333333, "type": "electric_scooter", "is_disabled": 0, "rental_uris": {"android": "https://dc.lft.to/lastmile_qr_scan", "ios": "https://dc.lft.to/lastmile_qr_scan"}, "is_reserved": 0, "bike_id": "37a5aa3a1864f21c19333b85571d37b0", "name": "37a5aa3a1864f21c19333b85571d37b0", "fusion_lon": 0.0, "lon": -77.0276085, "fusion_lat": 0.0}, {"lat": 38.8898815, "type": "electric_scooter", "is_disabled": 0, "rental_uris": {"android": "https://dc.lft.to/lastmile_qr_scan", "ios": "https://dc.lft.to/lastmile_qr_scan"}, "is_reserved": 0, "bike_id": "2a1f89c88d5c5fbc06fa6e58cf907315", "name": "2a1f89c88d5c5fbc06fa6e58cf907315", "fusion_lon": 0.0, "lon": -77.00336433333334, "fusion_lat": 0.0}, {"lat": 38.926490666666666, "type": "electric_scooter", "is_disabled": 0, "rental_uris": {"android": "https://dc.lft.to/lastmile_qr_scan", "ios": "https://dc.lft.to/lastmile_qr_scan"}, "is_reserved": 0, "bike_id": "7d2ff3d2d78c8db82e1181e5504ea3a9", "name": "7d2ff3d2d78c8db82e1181e5504ea3a9", "fusion_lon": 0.0, "lon": -77.03854816666667, "fusion_lat": 0.0}, {"lat": 38.899766, "type": "electric_scooter", "is_disabled": 0, "rental_uris": {"android": "https://dc.lft.to/lastmile_qr_scan", "ios": "https://dc.lft.to/lastmile_qr_scan"}, "is_reserved": 0, "bike_id": "efdf2f7e1bd1cf47acc73df5f6476160", "name": "efdf2f7e1bd1cf47acc73df5f6476160", "fusion_lon": 0.0, "lon": -77.05526516666667, "fusion_lat": 0.0}, {"lat": 38.904267833333336, "type": "electric_scooter", "is_disabled": 0, "rental_uris": {"android": "https://dc.lft.to/lastmile_qr_scan", "ios": "https://dc.lft.to/lastmile_qr_scan"}, "is_reserved": 0, "bike_id": "738c8b7397675fc1cc8c2b2e0a77856c", "name": "738c8b7397675fc1cc8c2b2e0a77856c", "fusion_lon": 0.0, "lon": -76.97903133333334, "fusion_lat": 0.0}, {"lat": 38.915377, "type": "electric_scooter", "is_disabled": 0, "rental_uris": {"android": "https://dc.lft.to/lastmile_qr_scan", "ios": "https://dc.lft.to/lastmile_qr_scan"}, "is_reserved": 0, "bike_id": "144b80bb50d7520df15a4fb6c70e3146", "name": "144b80bb50d7520df15a4fb6c70e3146", "fusion_lon": 0.0, "lon": -77.01224433333333, "fusion_lat": 0.0}, {"lat": 38.91412583333333, "type": "electric_scooter", "is_disabled": 0, "rental_uris": {"android": "https://dc.lft.to/lastmile_qr_scan", "ios": "https://dc.lft.to/lastmile_qr_scan"}, "is_reserved": 0, "bike_id": "7a21ffc35c2f05f81ecdac63c6a66846", "name": "7a21ffc35c2f05f81ecdac63c6a66846", "fusion_lon": 0.0, "lon": -77.04175383333333, "fusion_lat": 0.0}, {"lat": 38.89194616666666, "type": "electric_scooter", "is_disabled": 0, "rental_uris": {"android": "https://dc.lft.to/lastmile_qr_scan", "ios": "https://dc.lft.to/lastmile_qr_scan"}, "is_reserved": 0, "bike_id": "81512011038ba4e97ae1d7751d81b10a", "name": "81512011038ba4e97ae1d7751d81b10a", "fusion_lon": 0.0, "lon": -77.0029505, "fusion_lat": 0.0}, {"lat": 38.9182185, "type": "electric_scooter", "is_disabled": 0, "rental_uris": {"android": "https://dc.lft.to/lastmile_qr_scan", "ios": "https://dc.lft.to/lastmile_qr_scan"}, "is_reserved": 0, "bike_id": "d445a9f93d526fb5e65812c6131e56be", "name": "d445a9f93d526fb5e65812c6131e56be", "fusion_lon": 0.0, "lon": -77.0121155, "fusion_lat": 0.0}, {"lat": 38.92611216666667, "type": "electric_scooter", "is_disabled": 0, "rental_uris": {"android": "https://dc.lft.to/lastmile_qr_scan", "ios": "https://dc.lft.to/lastmile_qr_scan"}, "is_reserved": 0, "bike_id": "9bec252643710500f3f71b0b8e3fd0e6", "name": "9bec252643710500f3f71b0b8e3fd0e6", "fusion_lon": 0.0, "lon": -77.02164383333333, "fusion_lat": 0.0}, {"lat": 38.91315633333333, "type": "electric_scooter", "is_disabled": 0, "rental_uris": {"android": "https://dc.lft.to/lastmile_qr_scan", "ios": "https://dc.lft.to/lastmile_qr_scan"}, "is_reserved": 0, "bike_id": "18364efdf95c25d64e67dfdebbf636d9", "name": "18364efdf95c25d64e67dfdebbf636d9", "fusion_lon": 0.0, "lon": -77.04165166666667, "fusion_lat": 0.0}, {"lat": 38.922555333333335, "type": "electric_scooter", "is_disabled": 0, "rental_uris": {"android": "https://dc.lft.to/lastmile_qr_scan", "ios": "https://dc.lft.to/lastmile_qr_scan"}, "is_reserved": 0, "bike_id": "85b069786f593027496c17f44dd8abfe", "name": "85b069786f593027496c17f44dd8abfe", "fusion_lon": 0.0, "lon": -77.041293, "fusion_lat": 0.0}, {"lat": 38.89829666666667, "type": "electric_scooter", "is_disabled": 0, "rental_uris": {"android": "https://dc.lft.to/lastmile_qr_scan", "ios": "https://dc.lft.to/lastmile_qr_scan"}, "is_reserved": 0, "bike_id": "da61ff2dff335cb2c0bc3f22254e177c", "name": "da61ff2dff335cb2c0bc3f22254e177c", "fusion_lon": 0.0, "lon": -77.04721766666667, "fusion_lat": 0.0}, {"lat": 38.951241333333336, "type": "electric_scooter", "is_disabled": 0, "rental_uris": {"android": "https://dc.lft.to/lastmile_qr_scan", "ios": "https://dc.lft.to/lastmile_qr_scan"}, "is_reserved": 0, "bike_id": "78cb13d8a36ba492a19296ace182a4e9", "name": "78cb13d8a36ba492a19296ace182a4e9", "fusion_lon": 0.0, "lon": -77.0139735, "fusion_lat": 0.0}, {"lat": 38.90870366666667, "type": "electric_scooter", "is_disabled": 0, "rental_uris": {"android": "https://dc.lft.to/lastmile_qr_scan", "ios": "https://dc.lft.to/lastmile_qr_scan"}, "is_reserved": 0, "bike_id": "6b877f8ea955a413e4e0cf5047ffe952", "name": "6b877f8ea955a413e4e0cf5047ffe952", "fusion_lon": 0.0, "lon": -77.02685433333333, "fusion_lat": 0.0}, {"lat": 38.90329066666666, "type": "electric_scooter", "is_disabled": 0, "rental_uris": {"android": "https://dc.lft.to/lastmile_qr_scan", "ios": "https://dc.lft.to/lastmile_qr_scan"}, "is_reserved": 0, "bike_id": "96ca62c5b0cc3e3aec3df66a5c65e9ca", "name": "96ca62c5b0cc3e3aec3df66a5c65e9ca", "fusion_lon": 0.0, "lon": -77.03860966666667, "fusion_lat": 0.0}, {"lat": 38.9108155, "type": "electric_scooter", "is_disabled": 0, "rental_uris": {"android": "https://dc.lft.to/lastmile_qr_scan", "ios": "https://dc.lft.to/lastmile_qr_scan"}, "is_reserved": 0, "bike_id": "eeaff4b6758ac619c9f966669c4891ac", "name": "eeaff4b6758ac619c9f966669c4891ac", "fusion_lon": 0.0, "lon": -77.04481983333334, "fusion_lat": 0.0}, {"lat": 38.998706, "type": "electric_bike", "is_disabled": 0, "rental_uris": {"android": "https://dc.lft.to/lastmile_qr_scan", "ios": "https://dc.lft.to/lastmile_qr_scan"}, "is_reserved": 0, "bike_id": "8bd64326056d0c7ffd02d2f7cc5cbad8", "name": "8bd64326056d0c7ffd02d2f7cc5cbad8", "fusion_lon": 0.0, "lon": -77.02878983333333, "fusion_lat": 0.0}, {"lat": 38.8450325, "type": "electric_bike", "is_disabled": 0, "rental_uris": {"android": "https://dc.lft.to/lastmile_qr_scan", "ios": "https://dc.lft.to/lastmile_qr_scan"}, "is_reserved": 0, "bike_id": "aefed65fdda48cb23a8c2b8a27913185", "name": "aefed65fdda48cb23a8c2b8a27913185", "fusion_lon": 0.0, "lon": -76.97207316666666, "fusion_lat": 0.0}, {"lat": 38.93997133333333, "type": "electric_bike", "is_disabled": 0, "rental_uris": {"android": "https://dc.lft.to/lastmile_qr_scan", "ios": "https://dc.lft.to/lastmile_qr_scan"}, "is_reserved": 0, "bike_id": "bc9167da27e1d1ef84f16d838945f889", "name": "bc9167da27e1d1ef84f16d838945f889", "fusion_lon": 0.0, "lon": -77.0295895, "fusion_lat": 0.0}, {"lat": 38.916834, "type": "electric_scooter", "is_disabled": 0, "rental_uris": {"android": "https://dc.lft.to/lastmile_qr_scan", "ios": "https://dc.lft.to/lastmile_qr_scan"}, "is_reserved": 0, "bike_id": "5e3c12ef3a211ac24c1438a0460b7dc8", "name": "5e3c12ef3a211ac24c1438a0460b7dc8", "fusion_lon": 0.0, "lon": -77.03205566666666, "fusion_lat": 0.0}, {"lat": 38.901052166666666, "type": "electric_scooter", "is_disabled": 0, "rental_uris": {"android": "https://dc.lft.to/lastmile_qr_scan", "ios": "https://dc.lft.to/lastmile_qr_scan"}, "is_reserved": 0, "bike_id": "95a6d7c091bb2505ab67acf9e170f560", "name": "95a6d7c091bb2505ab67acf9e170f560", "fusion_lon": 0.0, "lon": -77.05136133333333, "fusion_lat": 0.0}, {"lat": 38.90754033333333, "type": "electric_scooter", "is_disabled": 0, "rental_uris": {"android": "https://dc.lft.to/lastmile_qr_scan", "ios": "https://dc.lft.to/lastmile_qr_scan"}, "is_reserved": 0, "bike_id": "15b2ed2c2bc2e463dca93452b3cacf7e", "name": "15b2ed2c2bc2e463dca93452b3cacf7e", "fusion_lon": 0.0, "lon": -77.00775916666667, "fusion_lat": 0.0}, {"lat": 38.92112616666667, "type": "electric_scooter", "is_disabled": 0, "rental_uris": {"android": "https://dc.lft.to/lastmile_qr_scan", "ios": "https://dc.lft.to/lastmile_qr_scan"}, "is_reserved": 0, "bike_id": "59c5f2b76250bd95eaaba6b0b884c838", "name": "59c5f2b76250bd95eaaba6b0b884c838", "fusion_lon": 0.0, "lon": -77.04385816666667, "fusion_lat": 0.0}, {"lat": 38.92441616666667, "type": "electric_scooter", "is_disabled": 0, "rental_uris": {"android": "https://dc.lft.to/lastmile_qr_scan", "ios": "https://dc.lft.to/lastmile_qr_scan"}, "is_reserved": 0, "bike_id": "1998189129414a1012a26e7939495ff9", "name": "1998189129414a1012a26e7939495ff9", "fusion_lon": 0.0, "lon": -77.02604483333333, "fusion_lat": 0.0}, {"lat": 38.896510666666664, "type": "electric_scooter", "is_disabled": 0, "rental_uris": {"android": "https://dc.lft.to/lastmile_qr_scan", "ios": "https://dc.lft.to/lastmile_qr_scan"}, "is_reserved": 0, "bike_id": "59c2853119fb1cca6304c26baec13117", "name": "59c2853119fb1cca6304c26baec13117", "fusion_lon": 0.0, "lon": -77.05009783333334, "fusion_lat": 0.0}, {"lat": 38.906515166666665, "type": "electric_scooter", "is_disabled": 0, "rental_uris": {"android": "https://dc.lft.to/lastmile_qr_scan", "ios": "https://dc.lft.to/lastmile_qr_scan"}, "is_reserved": 0, "bike_id": "962e72c13dd400cb1dd3d940a2ffc27f", "name": "962e72c13dd400cb1dd3d940a2ffc27f", "fusion_lon": 0.0, "lon": -77.0388675, "fusion_lat": 0.0}, {"lat": 38.90113566666667, "type": "electric_scooter", "is_disabled": 0, "rental_uris": {"android": "https://dc.lft.to/lastmile_qr_scan", "ios": "https://dc.lft.to/lastmile_qr_scan"}, "is_reserved": 0, "bike_id": "3239adee72cdcd780c862b2f54a6e702", "name": "3239adee72cdcd780c862b2f54a6e702", "fusion_lon": 0.0, "lon": -77.03146716666667, "fusion_lat": 0.0}, {"lat": 38.967325333333335, "type": "electric_scooter", "is_disabled": 0, "rental_uris": {"android": "https://dc.lft.to/lastmile_qr_scan", "ios": "https://dc.lft.to/lastmile_qr_scan"}, "is_reserved": 0, "bike_id": "909b5b17f201b84a905b9d943400ab53", "name": "909b5b17f201b84a905b9d943400ab53", "fusion_lon": 0.0, "lon": -77.0276055, "fusion_lat": 0.0}, {"lat": 38.91290033333333, "type": "electric_bike", "is_disabled": 0, "rental_uris": {"android": "https://dc.lft.to/lastmile_qr_scan", "ios": "https://dc.lft.to/lastmile_qr_scan"}, "is_reserved": 0, "bike_id": "35c61ddd45e5f4fc3f3375c6f05a3333", "name": "35c61ddd45e5f4fc3f3375c6f05a3333", "fusion_lon": 0.0, "lon": -77.02854266666667, "fusion_lat": 0.0}, {"lat": 38.8973225, "type": "electric_scooter", "is_disabled": 0, "rental_uris": {"android": "https://dc.lft.to/lastmile_qr_scan", "ios": "https://dc.lft.to/lastmile_qr_scan"}, "is_reserved": 0, "bike_id": "1601c2fd498e614a008c5cd4327ad76b", "name": "1601c2fd498e614a008c5cd4327ad76b", "fusion_lon": 0.0, "lon": -77.04696066666666, "fusion_lat": 0.0}, {"lat": 38.92229066666667, "type": "electric_scooter", "is_disabled": 0, "rental_uris": {"android": "https://dc.lft.to/lastmile_qr_scan", "ios": "https://dc.lft.to/lastmile_qr_scan"}, "is_reserved": 0, "bike_id": "8db249e02e53e3e2113a14fbc3632cfd", "name": "8db249e02e53e3e2113a14fbc3632cfd", "fusion_lon": 0.0, "lon": -76.97531516666666, "fusion_lat": 0.0}, {"lat": 38.89738833333333, "type": "electric_scooter", "is_disabled": 0, "rental_uris": {"android": "https://dc.lft.to/lastmile_qr_scan", "ios": "https://dc.lft.to/lastmile_qr_scan"}, "is_reserved": 0, "bike_id": "f90292ac62d4908b7c382c4f1c7bb92a", "name": "f90292ac62d4908b7c382c4f1c7bb92a", "fusion_lon": 0.0, "lon": -77.01314083333334, "fusion_lat": 0.0}, {"lat": 38.90469216666666, "type": "electric_scooter", "is_disabled": 0, "rental_uris": {"android": "https://dc.lft.to/lastmile_qr_scan", "ios": "https://dc.lft.to/lastmile_qr_scan"}, "is_reserved": 0, "bike_id": "d7c21e2f9f3fb05b478d207db144fc21", "name": "d7c21e2f9f3fb05b478d207db144fc21", "fusion_lon": 0.0, "lon": -77.032756, "fusion_lat": 0.0}, {"lat": 38.892282, "type": "electric_scooter", "is_disabled": 0, "rental_uris": {"android": "https://dc.lft.to/lastmile_qr_scan", "ios": "https://dc.lft.to/lastmile_qr_scan"}, "is_reserved": 0, "bike_id": "abe4aae53e3fbca71dea0dfa65981b02", "name": "abe4aae53e3fbca71dea0dfa65981b02", "fusion_lon": 0.0, "lon": -77.05003233333333, "fusion_lat": 0.0}, {"lat": 38.9192635, "type": "electric_scooter", "is_disabled": 0, "rental_uris": {"android": "https://dc.lft.to/lastmile_qr_scan", "ios": "https://dc.lft.to/lastmile_qr_scan"}, "is_reserved": 0, "bike_id": "c95871d1f6b7a63b3248bcdc20da70b9", "name": "c95871d1f6b7a63b3248bcdc20da70b9", "fusion_lon": 0.0, "lon": -77.04241083333334, "fusion_lat": 0.0}, {"lat": 38.89844733333334, "type": "electric_scooter", "is_disabled": 0, "rental_uris": {"android": "https://dc.lft.to/lastmile_qr_scan", "ios": "https://dc.lft.to/lastmile_qr_scan"}, "is_reserved": 0, "bike_id": "08468ff20e2e8af5cf26bef5299b4f81", "name": "08468ff20e2e8af5cf26bef5299b4f81", "fusion_lon": 0.0, "lon": -77.04878416666666, "fusion_lat": 0.0}, {"lat": 38.9056585, "type": "electric_scooter", "is_disabled": 0, "rental_uris": {"android": "https://dc.lft.to/lastmile_qr_scan", "ios": "https://dc.lft.to/lastmile_qr_scan"}, "is_reserved": 0, "bike_id": "2da14929e2764dedfa08463952f1ac6a", "name": "2da14929e2764dedfa08463952f1ac6a", "fusion_lon": 0.0, "lon": -77.04339216666666, "fusion_lat": 0.0}, {"lat": 38.901475166666664, "type": "electric_scooter", "is_disabled": 0, "rental_uris": {"android": "https://dc.lft.to/lastmile_qr_scan", "ios": "https://dc.lft.to/lastmile_qr_scan"}, "is_reserved": 0, "bike_id": "841f9a2c80bc1240875d3dde8bc64d82", "name": "841f9a2c80bc1240875d3dde8bc64d82", "fusion_lon": 0.0, "lon": -77.03245266666667, "fusion_lat": 0.0}, {"lat": 38.945193833333335, "type": "electric_bike", "is_disabled": 0, "rental_uris": {"android": "https://dc.lft.to/lastmile_qr_scan", "ios": "https://dc.lft.to/lastmile_qr_scan"}, "is_reserved": 0, "bike_id": "604b29dc70ba1cf23ee515afbe17c29a", "name": "604b29dc70ba1cf23ee515afbe17c29a", "fusion_lon": 0.0, "lon": -76.9909055, "fusion_lat": 0.0}, {"lat": 38.911858, "type": "electric_scooter", "is_disabled": 0, "rental_uris": {"android": "https://dc.lft.to/lastmile_qr_scan", "ios": "https://dc.lft.to/lastmile_qr_scan"}, "is_reserved": 0, "bike_id": "0fc2e704513693c528eff35845eb470e", "name": "0fc2e704513693c528eff35845eb470e", "fusion_lon": 0.0, "lon": -77.0397105, "fusion_lat": 0.0}, {"lat": 38.9168365, "type": "electric_scooter", "is_disabled": 0, "rental_uris": {"android": "https://dc.lft.to/lastmile_qr_scan", "ios": "https://dc.lft.to/lastmile_qr_scan"}, "is_reserved": 0, "bike_id": "6d3523cc7eed0a68cf8a0803467ad05f", "name": "6d3523cc7eed0a68cf8a0803467ad05f", "fusion_lon": 0.0, "lon": -77.03174566666667, "fusion_lat": 0.0}, {"lat": 38.8975135, "type": "electric_scooter", "is_disabled": 0, "rental_uris": {"android": "https://dc.lft.to/lastmile_qr_scan", "ios": "https://dc.lft.to/lastmile_qr_scan"}, "is_reserved": 0, "bike_id": "f62bdd8ed36cadd5806e4343330e445c", "name": "f62bdd8ed36cadd5806e4343330e445c", "fusion_lon": 0.0, "lon": -77.033353, "fusion_lat": 0.0}, {"lat": 38.88485583333333, "type": "electric_scooter", "is_disabled": 0, "rental_uris": {"android": "https://dc.lft.to/lastmile_qr_scan", "ios": "https://dc.lft.to/lastmile_qr_scan"}, "is_reserved": 0, "bike_id": "99f7d1f08d23771f9efdb6282686e738", "name": "99f7d1f08d23771f9efdb6282686e738", "fusion_lon": 0.0, "lon": -77.01526166666666, "fusion_lat": 0.0}, {"lat": 38.90581016666667, "type": "electric_scooter", "is_disabled": 0, "rental_uris": {"android": "https://dc.lft.to/lastmile_qr_scan", "ios": "https://dc.lft.to/lastmile_qr_scan"}, "is_reserved": 0, "bike_id": "78ef484c09233f0828712b7ea1987058", "name": "78ef484c09233f0828712b7ea1987058", "fusion_lon": 0.0, "lon": -77.021972, "fusion_lat": 0.0}, {"lat": 38.92608833333333, "type": "electric_scooter", "is_disabled": 0, "rental_uris": {"android": "https://dc.lft.to/lastmile_qr_scan", "ios": "https://dc.lft.to/lastmile_qr_scan"}, "is_reserved": 0, "bike_id": "dac5d778f56bd12da7de525edcfaf914", "name": "dac5d778f56bd12da7de525edcfaf914", "fusion_lon": 0.0, "lon": -77.02417933333334, "fusion_lat": 0.0}, {"lat": 38.90549883333333, "type": "electric_scooter", "is_disabled": 0, "rental_uris": {"android": "https://dc.lft.to/lastmile_qr_scan", "ios": "https://dc.lft.to/lastmile_qr_scan"}, "is_reserved": 0, "bike_id": "e43897d1242a10093e2c576ebdf021bd", "name": "e43897d1242a10093e2c576ebdf021bd", "fusion_lon": 0.0, "lon": -77.04649733333333, "fusion_lat": 0.0}, {"lat": 38.91571666666667, "type": "electric_scooter", "is_disabled": 0, "rental_uris": {"android": "https://dc.lft.to/lastmile_qr_scan", "ios": "https://dc.lft.to/lastmile_qr_scan"}, "is_reserved": 0, "bike_id": "818153bfaefa445aedf6543c7f534f28", "name": "818153bfaefa445aedf6543c7f534f28", "fusion_lon": 0.0, "lon": -77.04698333333333, "fusion_lat": 0.0}, {"lat": 38.876004333333334, "type": "electric_scooter", "is_disabled": 0, "rental_uris": {"android": "https://dc.lft.to/lastmile_qr_scan", "ios": "https://dc.lft.to/lastmile_qr_scan"}, "is_reserved": 0, "bike_id": "672f2fd9c5e3d06000ef0b40730efb12", "name": "672f2fd9c5e3d06000ef0b40730efb12", "fusion_lon": 0.0, "lon": -77.0057755, "fusion_lat": 0.0}, {"lat": 38.92545533333333, "type": "electric_scooter", "is_disabled": 0, "rental_uris": {"android": "https://dc.lft.to/lastmile_qr_scan", "ios": "https://dc.lft.to/lastmile_qr_scan"}, "is_reserved": 0, "bike_id": "62e36ba78da316d2c0150960ea39fa19", "name": "62e36ba78da316d2c0150960ea39fa19", "fusion_lon": 0.0, "lon": -77.02706616666667, "fusion_lat": 0.0}, {"lat": 38.919005166666665, "type": "electric_scooter", "is_disabled": 0, "rental_uris": {"android": "https://dc.lft.to/lastmile_qr_scan", "ios": "https://dc.lft.to/lastmile_qr_scan"}, "is_reserved": 0, "bike_id": "eed9a49c13dfb2c60a109e98186f4441", "name": "eed9a49c13dfb2c60a109e98186f4441", "fusion_lon": 0.0, "lon": -77.01754533333333, "fusion_lat": 0.0}, {"lat": 38.912636166666665, "type": "electric_scooter", "is_disabled": 0, "rental_uris": {"android": "https://dc.lft.to/lastmile_qr_scan", "ios": "https://dc.lft.to/lastmile_qr_scan"}, "is_reserved": 0, "bike_id": "007c7e60c0f5b4c93aef1d739ab2b5fa", "name": "007c7e60c0f5b4c93aef1d739ab2b5fa", "fusion_lon": 0.0, "lon": -77.041511, "fusion_lat": 0.0}, {"lat": 38.91811366666667, "type": "electric_scooter", "is_disabled": 0, "rental_uris": {"android": "https://dc.lft.to/lastmile_qr_scan", "ios": "https://dc.lft.to/lastmile_qr_scan"}, "is_reserved": 0, "bike_id": "86cc4406db4a9bbb18cc97d6459997bc", "name": "86cc4406db4a9bbb18cc97d6459997bc", "fusion_lon": 0.0, "lon": -77.04169583333334, "fusion_lat": 0.0}, {"lat": 38.899990333333335, "type": "electric_scooter", "is_disabled": 0, "rental_uris": {"android": "https://dc.lft.to/lastmile_qr_scan", "ios": "https://dc.lft.to/lastmile_qr_scan"}, "is_reserved": 0, "bike_id": "7ae1021cd9297da7e5d4e5344a3e13f0", "name": "7ae1021cd9297da7e5d4e5344a3e13f0", "fusion_lon": 0.0, "lon": -77.0500735, "fusion_lat": 0.0}, {"lat": 38.90162383333333, "type": "electric_scooter", "is_disabled": 0, "rental_uris": {"android": "https://dc.lft.to/lastmile_qr_scan", "ios": "https://dc.lft.to/lastmile_qr_scan"}, "is_reserved": 0, "bike_id": "fa2a8af5a510164cca1fd9ef3104661a", "name": "fa2a8af5a510164cca1fd9ef3104661a", "fusion_lon": 0.0, "lon": -76.98069883333334, "fusion_lat": 0.0}, {"lat": 38.89481583333333, "type": "electric_scooter", "is_disabled": 0, "rental_uris": {"android": "https://dc.lft.to/lastmile_qr_scan", "ios": "https://dc.lft.to/lastmile_qr_scan"}, "is_reserved": 0, "bike_id": "4901ad996d81f9334cd22c35d2450993", "name": "4901ad996d81f9334cd22c35d2450993", "fusion_lon": 0.0, "lon": -76.99413316666667, "fusion_lat": 0.0}, {"lat": 38.89675883333334, "type": "electric_scooter", "is_disabled": 0, "rental_uris": {"android": "https://dc.lft.to/lastmile_qr_scan", "ios": "https://dc.lft.to/lastmile_qr_scan"}, "is_reserved": 0, "bike_id": "db24c2185e34ee590aa464f7f6ca749a", "name": "db24c2185e34ee590aa464f7f6ca749a", "fusion_lon": 0.0, "lon": -76.99636616666666, "fusion_lat": 0.0}, {"lat": 38.903343666666665, "type": "electric_scooter", "is_disabled": 0, "rental_uris": {"android": "https://dc.lft.to/lastmile_qr_scan", "ios": "https://dc.lft.to/lastmile_qr_scan"}, "is_reserved": 0, "bike_id": "1a3e6b9a0340d973676d6e86ffd69501", "name": "1a3e6b9a0340d973676d6e86ffd69501", "fusion_lon": 0.0, "lon": -77.01628733333334, "fusion_lat": 0.0}, {"lat": 38.92813733333333, "type": "electric_scooter", "is_disabled": 0, "rental_uris": {"android": "https://dc.lft.to/lastmile_qr_scan", "ios": "https://dc.lft.to/lastmile_qr_scan"}, "is_reserved": 0, "bike_id": "d5674ec0944210b743fdac0143db6157", "name": "d5674ec0944210b743fdac0143db6157", "fusion_lon": 0.0, "lon": -77.00573033333333, "fusion_lat": 0.0}, {"lat": 38.863589833333336, "type": "electric_scooter", "is_disabled": 0, "rental_uris": {"android": "https://dc.lft.to/lastmile_qr_scan", "ios": "https://dc.lft.to/lastmile_qr_scan"}, "is_reserved": 0, "bike_id": "792b724cb8b80453d8fff5d25553df1b", "name": "792b724cb8b80453d8fff5d25553df1b", "fusion_lon": 0.0, "lon": -76.9905815, "fusion_lat": 0.0}, {"lat": 38.89973, "type": "electric_scooter", "is_disabled": 0, "rental_uris": {"android": "https://dc.lft.to/lastmile_qr_scan", "ios": "https://dc.lft.to/lastmile_qr_scan"}, "is_reserved": 0, "bike_id": "93c4d4f1c27a2cee2ded515d34c09f35", "name": "93c4d4f1c27a2cee2ded515d34c09f35", "fusion_lon": 0.0, "lon": -77.04776766666667, "fusion_lat": 0.0}, {"lat": 38.89977183333333, "type": "electric_scooter", "is_disabled": 0, "rental_uris": {"android": "https://dc.lft.to/lastmile_qr_scan", "ios": "https://dc.lft.to/lastmile_qr_scan"}, "is_reserved": 0, "bike_id": "eac8d09bd5f238b3cdba91d88ab856c5", "name": "eac8d09bd5f238b3cdba91d88ab856c5", "fusion_lon": 0.0, "lon": -77.0204715, "fusion_lat": 0.0}, {"lat": 38.89482066666667, "type": "electric_scooter", "is_disabled": 0, "rental_uris": {"android": "https://dc.lft.to/lastmile_qr_scan", "ios": "https://dc.lft.to/lastmile_qr_scan"}, "is_reserved": 0, "bike_id": "87e38a612e70e9f7c28f9870c1162429", "name": "87e38a612e70e9f7c28f9870c1162429", "fusion_lon": 0.0, "lon": -76.99514616666667, "fusion_lat": 0.0}, {"lat": 38.9174855, "type": "electric_scooter", "is_disabled": 0, "rental_uris": {"android": "https://dc.lft.to/lastmile_qr_scan", "ios": "https://dc.lft.to/lastmile_qr_scan"}, "is_reserved": 0, "bike_id": "39ea8dc04d425c5cce6b84c74f4510d6", "name": "39ea8dc04d425c5cce6b84c74f4510d6", "fusion_lon": 0.0, "lon": -77.0414885, "fusion_lat": 0.0}, {"lat": 38.934068833333335, "type": "electric_scooter", "is_disabled": 0, "rental_uris": {"android": "https://dc.lft.to/lastmile_qr_scan", "ios": "https://dc.lft.to/lastmile_qr_scan"}, "is_reserved": 0, "bike_id": "25c8ca9fec5f67e0952ff90c275eb013", "name": "25c8ca9fec5f67e0952ff90c275eb013", "fusion_lon": 0.0, "lon": -77.03262633333334, "fusion_lat": 0.0}, {"lat": 38.89749916666667, "type": "electric_scooter", "is_disabled": 0, "rental_uris": {"android": "https://dc.lft.to/lastmile_qr_scan", "ios": "https://dc.lft.to/lastmile_qr_scan"}, "is_reserved": 0, "bike_id": "b5c5c280da044f2883dea0068d427280", "name": "b5c5c280da044f2883dea0068d427280", "fusion_lon": 0.0, "lon": -77.05130316666667, "fusion_lat": 0.0}, {"lat": 38.8521145, "type": "electric_bike", "is_disabled": 0, "rental_uris": {"android": "https://dc.lft.to/lastmile_qr_scan", "ios": "https://dc.lft.to/lastmile_qr_scan"}, "is_reserved": 0, "bike_id": "7471b4ae86d6c899ad8be4e10d774536", "name": "7471b4ae86d6c899ad8be4e10d774536", "fusion_lon": 0.0, "lon": -77.12758766666667, "fusion_lat": 0.0}, {"lat": 38.897427, "type": "electric_scooter", "is_disabled": 0, "rental_uris": {"android": "https://dc.lft.to/lastmile_qr_scan", "ios": "https://dc.lft.to/lastmile_qr_scan"}, "is_reserved": 0, "bike_id": "8aed2d5b0d6594b35fe9701fe8eef193", "name": "8aed2d5b0d6594b35fe9701fe8eef193", "fusion_lon": 0.0, "lon": -77.04722233333334, "fusion_lat": 0.0}, {"lat": 38.911869833333334, "type": "electric_scooter", "is_disabled": 0, "rental_uris": {"android": "https://dc.lft.to/lastmile_qr_scan", "ios": "https://dc.lft.to/lastmile_qr_scan"}, "is_reserved": 0, "bike_id": "9cd2aaef42d9f6d7946f12eac43949ec", "name": "9cd2aaef42d9f6d7946f12eac43949ec", "fusion_lon": 0.0, "lon": -77.037391, "fusion_lat": 0.0}, {"lat": 38.91539366666667, "type": "electric_scooter", "is_disabled": 0, "rental_uris": {"android": "https://dc.lft.to/lastmile_qr_scan", "ios": "https://dc.lft.to/lastmile_qr_scan"}, "is_reserved": 0, "bike_id": "8127edfe6ee9871b0fdb3958a4a4cd6f", "name": "8127edfe6ee9871b0fdb3958a4a4cd6f", "fusion_lon": 0.0, "lon": -77.02205666666667, "fusion_lat": 0.0}, {"lat": 38.9180445, "type": "electric_scooter", "is_disabled": 0, "rental_uris": {"android": "https://dc.lft.to/lastmile_qr_scan", "ios": "https://dc.lft.to/lastmile_qr_scan"}, "is_reserved": 0, "bike_id": "f2b24733b72f232a77f8ba8d8006f1c5", "name": "f2b24733b72f232a77f8ba8d8006f1c5", "fusion_lon": 0.0, "lon": -77.0356175, "fusion_lat": 0.0}, {"lat": 38.9219545, "type": "electric_scooter", "is_disabled": 0, "rental_uris": {"android": "https://dc.lft.to/lastmile_qr_scan", "ios": "https://dc.lft.to/lastmile_qr_scan"}, "is_reserved": 0, "bike_id": "4142d2ba4caa1e71fc8b7dca47857921", "name": "4142d2ba4caa1e71fc8b7dca47857921", "fusion_lon": 0.0, "lon": -77.018533, "fusion_lat": 0.0}, {"lat": 38.8925, "type": "electric_scooter", "is_disabled": 0, "rental_uris": {"android": "https://dc.lft.to/lastmile_qr_scan", "ios": "https://dc.lft.to/lastmile_qr_scan"}, "is_reserved": 0, "bike_id": "1eb2974bcd97f3a7bbcf029cafe1b24d", "name": "1eb2974bcd97f3a7bbcf029cafe1b24d", "fusion_lon": 0.0, "lon": -76.99843316666667, "fusion_lat": 0.0}, {"lat": 38.882224, "type": "electric_scooter", "is_disabled": 0, "rental_uris": {"android": "https://dc.lft.to/lastmile_qr_scan", "ios": "https://dc.lft.to/lastmile_qr_scan"}, "is_reserved": 0, "bike_id": "b23702b5cd362caca579b254bd873659", "name": "b23702b5cd362caca579b254bd873659", "fusion_lon": 0.0, "lon": -76.99085016666666, "fusion_lat": 0.0}, {"lat": 38.865950166666664, "type": "electric_bike", "is_disabled": 0, "rental_uris": {"android": "https://dc.lft.to/lastmile_qr_scan", "ios": "https://dc.lft.to/lastmile_qr_scan"}, "is_reserved": 0, "bike_id": "8eb08a2be68563fc8443ecc737a85b3b", "name": "8eb08a2be68563fc8443ecc737a85b3b", "fusion_lon": 0.0, "lon": -76.93227583333334, "fusion_lat": 0.0}, {"lat": 38.88369333333333, "type": "electric_scooter", "is_disabled": 0, "rental_uris": {"android": "https://dc.lft.to/lastmile_qr_scan", "ios": "https://dc.lft.to/lastmile_qr_scan"}, "is_reserved": 0, "bike_id": "7513174401a8f4c9e82eee7c067fc7d9", "name": "7513174401a8f4c9e82eee7c067fc7d9", "fusion_lon": 0.0, "lon": -76.99519266666667, "fusion_lat": 0.0}, {"lat": 38.901325666666665, "type": "electric_scooter", "is_disabled": 0, "rental_uris": {"android": "https://dc.lft.to/lastmile_qr_scan", "ios": "https://dc.lft.to/lastmile_qr_scan"}, "is_reserved": 0, "bike_id": "1e91ea340f4c641fc66ec611cd119d3c", "name": "1e91ea340f4c641fc66ec611cd119d3c", "fusion_lon": 0.0, "lon": -77.03381266666666, "fusion_lat": 0.0}, {"lat": 38.9178535, "type": "electric_scooter", "is_disabled": 0, "rental_uris": {"android": "https://dc.lft.to/lastmile_qr_scan", "ios": "https://dc.lft.to/lastmile_qr_scan"}, "is_reserved": 0, "bike_id": "f3ae886e4f21bbc0dd139ba32cf3ad2a", "name": "f3ae886e4f21bbc0dd139ba32cf3ad2a", "fusion_lon": 0.0, "lon": -77.03190666666667, "fusion_lat": 0.0}, {"lat": 38.90743033333333, "type": "electric_scooter", "is_disabled": 0, "rental_uris": {"android": "https://dc.lft.to/lastmile_qr_scan", "ios": "https://dc.lft.to/lastmile_qr_scan"}, "is_reserved": 0, "bike_id": "640b0612e3fb585d41492a36d86f847b", "name": "640b0612e3fb585d41492a36d86f847b", "fusion_lon": 0.0, "lon": -77.03462333333333, "fusion_lat": 0.0}, {"lat": 38.89009083333333, "type": "electric_scooter", "is_disabled": 0, "rental_uris": {"android": "https://dc.lft.to/lastmile_qr_scan", "ios": "https://dc.lft.to/lastmile_qr_scan"}, "is_reserved": 0, "bike_id": "1c7056ee6dc54def93a720a15607672f", "name": "1c7056ee6dc54def93a720a15607672f", "fusion_lon": 0.0, "lon": -76.9373645, "fusion_lat": 0.0}, {"lat": 38.91989933333333, "type": "electric_scooter", "is_disabled": 0, "rental_uris": {"android": "https://dc.lft.to/lastmile_qr_scan", "ios": "https://dc.lft.to/lastmile_qr_scan"}, "is_reserved": 0, "bike_id": "cf7aa5d8180837153d9e3b6070fea440", "name": "cf7aa5d8180837153d9e3b6070fea440", "fusion_lon": 0.0, "lon": -76.983946, "fusion_lat": 0.0}, {"lat": 38.936056, "type": "electric_scooter", "is_disabled": 0, "rental_uris": {"android": "https://dc.lft.to/lastmile_qr_scan", "ios": "https://dc.lft.to/lastmile_qr_scan"}, "is_reserved": 0, "bike_id": "d119627a16b0efc5a66ac5497a6fbe26", "name": "d119627a16b0efc5a66ac5497a6fbe26", "fusion_lon": 0.0, "lon": -77.05859666666667, "fusion_lat": 0.0}, {"lat": 38.8955805, "type": "electric_scooter", "is_disabled": 0, "rental_uris": {"android": "https://dc.lft.to/lastmile_qr_scan", "ios": "https://dc.lft.to/lastmile_qr_scan"}, "is_reserved": 0, "bike_id": "6baa814776274fde50275ef15aea129f", "name": "6baa814776274fde50275ef15aea129f", "fusion_lon": 0.0, "lon": -77.04674883333334, "fusion_lat": 0.0}, {"lat": 38.86939533333333, "type": "electric_scooter", "is_disabled": 0, "rental_uris": {"android": "https://dc.lft.to/lastmile_qr_scan", "ios": "https://dc.lft.to/lastmile_qr_scan"}, "is_reserved": 0, "bike_id": "a4d276ea998baf8b8f487fe6c8edcf7a", "name": "a4d276ea998baf8b8f487fe6c8edcf7a", "fusion_lon": 0.0, "lon": -76.969599, "fusion_lat": 0.0}, {"lat": 39.01731916666667, "type": "electric_bike", "is_disabled": 0, "rental_uris": {"android": "https://dc.lft.to/lastmile_qr_scan", "ios": "https://dc.lft.to/lastmile_qr_scan"}, "is_reserved": 0, "bike_id": "11f7c0577582c75892b31e78518fb1e6", "name": "11f7c0577582c75892b31e78518fb1e6", "fusion_lon": 0.0, "lon": -77.06380933333334, "fusion_lat": 0.0}, {"lat": 38.963075833333335, "type": "electric_bike", "is_disabled": 0, "rental_uris": {"android": "https://dc.lft.to/lastmile_qr_scan", "ios": "https://dc.lft.to/lastmile_qr_scan"}, "is_reserved": 0, "bike_id": "5734cbcd405a0e0c2214dac36f88671f", "name": "5734cbcd405a0e0c2214dac36f88671f", "fusion_lon": 0.0, "lon": -77.05759566666667, "fusion_lat": 0.0}, {"lat": 38.86674033333333, "type": "electric_scooter", "is_disabled": 0, "rental_uris": {"android": "https://dc.lft.to/lastmile_qr_scan", "ios": "https://dc.lft.to/lastmile_qr_scan"}, "is_reserved": 0, "bike_id": "9e7b33f39eca6b525abc9cf49dc5a67b", "name": "9e7b33f39eca6b525abc9cf49dc5a67b", "fusion_lon": 0.0, "lon": -76.98893916666667, "fusion_lat": 0.0}, {"lat": 38.918605666666664, "type": "electric_bike", "is_disabled": 0, "rental_uris": {"android": "https://dc.lft.to/lastmile_qr_scan", "ios": "https://dc.lft.to/lastmile_qr_scan"}, "is_reserved": 0, "bike_id": "7810d93184bc54d3b34191350c0408ba", "name": "7810d93184bc54d3b34191350c0408ba", "fusion_lon": 0.0, "lon": -76.96089533333334, "fusion_lat": 0.0}, {"lat": 38.903049833333334, "type": "electric_scooter", "is_disabled": 0, "rental_uris": {"android": "https://dc.lft.to/lastmile_qr_scan", "ios": "https://dc.lft.to/lastmile_qr_scan"}, "is_reserved": 0, "bike_id": "c43f2787bc2b5338d0db52f6ce622631", "name": "c43f2787bc2b5338d0db52f6ce622631", "fusion_lon": 0.0, "lon": -77.0303115, "fusion_lat": 0.0}, {"lat": 38.879266, "type": "electric_scooter", "is_disabled": 0, "rental_uris": {"android": "https://dc.lft.to/lastmile_qr_scan", "ios": "https://dc.lft.to/lastmile_qr_scan"}, "is_reserved": 0, "bike_id": "5b4a11b75dd4a52827fb67c9ceb6531d", "name": "5b4a11b75dd4a52827fb67c9ceb6531d", "fusion_lon": 0.0, "lon": -76.99932333333334, "fusion_lat": 0.0}, {"lat": 38.88249966666667, "type": "electric_scooter", "is_disabled": 0, "rental_uris": {"android": "https://dc.lft.to/lastmile_qr_scan", "ios": "https://dc.lft.to/lastmile_qr_scan"}, "is_reserved": 0, "bike_id": "d34f93a3425794a2d31ce187b8368796", "name": "d34f93a3425794a2d31ce187b8368796", "fusion_lon": 0.0, "lon": -77.00347066666667, "fusion_lat": 0.0}, {"lat": 38.891974166666664, "type": "electric_scooter", "is_disabled": 0, "rental_uris": {"android": "https://dc.lft.to/lastmile_qr_scan", "ios": "https://dc.lft.to/lastmile_qr_scan"}, "is_reserved": 0, "bike_id": "8ad606272e07b28084fa45b296583356", "name": "8ad606272e07b28084fa45b296583356", "fusion_lon": 0.0, "lon": -77.00292833333333, "fusion_lat": 0.0}, {"lat": 38.833493833333335, "type": "electric_bike", "is_disabled": 0, "rental_uris": {"android": "https://dc.lft.to/lastmile_qr_scan", "ios": "https://dc.lft.to/lastmile_qr_scan"}, "is_reserved": 0, "bike_id": "5dca7909e5c8a0131cce3a2eb99d8a39", "name": "5dca7909e5c8a0131cce3a2eb99d8a39", "fusion_lon": 0.0, "lon": -76.965579, "fusion_lat": 0.0}, {"lat": 38.95058066666667, "type": "electric_bike", "is_disabled": 0, "rental_uris": {"android": "https://dc.lft.to/lastmile_qr_scan", "ios": "https://dc.lft.to/lastmile_qr_scan"}, "is_reserved": 0, "bike_id": "5b354dd57fc45c16fd01f9a12c395bc8", "name": "5b354dd57fc45c16fd01f9a12c395bc8", "fusion_lon": 0.0, "lon": -76.96737166666666, "fusion_lat": 0.0}, {"lat": 38.922502, "type": "electric_scooter", "is_disabled": 0, "rental_uris": {"android": "https://dc.lft.to/lastmile_qr_scan", "ios": "https://dc.lft.to/lastmile_qr_scan"}, "is_reserved": 0, "bike_id": "89477b768b41384ad7b7e882564bcdf3", "name": "89477b768b41384ad7b7e882564bcdf3", "fusion_lon": 0.0, "lon": -77.0308265, "fusion_lat": 0.0}, {"lat": 38.91188066666667, "type": "electric_scooter", "is_disabled": 0, "rental_uris": {"android": "https://dc.lft.to/lastmile_qr_scan", "ios": "https://dc.lft.to/lastmile_qr_scan"}, "is_reserved": 0, "bike_id": "0c12e127cac265029b2238d7188df799", "name": "0c12e127cac265029b2238d7188df799", "fusion_lon": 0.0, "lon": -77.03136116666667, "fusion_lat": 0.0}, {"lat": 38.90493083333333, "type": "electric_scooter", "is_disabled": 0, "rental_uris": {"android": "https://dc.lft.to/lastmile_qr_scan", "ios": "https://dc.lft.to/lastmile_qr_scan"}, "is_reserved": 0, "bike_id": "d8fa443fb2ffda65447df5b1af608c5b", "name": "d8fa443fb2ffda65447df5b1af608c5b", "fusion_lon": 0.0, "lon": -77.02936966666667, "fusion_lat": 0.0}, {"lat": 38.9170885, "type": "electric_scooter", "is_disabled": 0, "rental_uris": {"android": "https://dc.lft.to/lastmile_qr_scan", "ios": "https://dc.lft.to/lastmile_qr_scan"}, "is_reserved": 0, "bike_id": "15fd03751efb1f792db1e5321368d757", "name": "15fd03751efb1f792db1e5321368d757", "fusion_lon": 0.0, "lon": -77.02719866666666, "fusion_lat": 0.0}, {"lat": 38.9015785, "type": "electric_scooter", "is_disabled": 0, "rental_uris": {"android": "https://dc.lft.to/lastmile_qr_scan", "ios": "https://dc.lft.to/lastmile_qr_scan"}, "is_reserved": 0, "bike_id": "dd83bd961ece781cbfb93f52130c649f", "name": "dd83bd961ece781cbfb93f52130c649f", "fusion_lon": 0.0, "lon": -77.03998066666666, "fusion_lat": 0.0}, {"lat": 38.893519833333336, "type": "electric_scooter", "is_disabled": 0, "rental_uris": {"android": "https://dc.lft.to/lastmile_qr_scan", "ios": "https://dc.lft.to/lastmile_qr_scan"}, "is_reserved": 0, "bike_id": "e497be50a7446b2ee023415adf8aff45", "name": "e497be50a7446b2ee023415adf8aff45", "fusion_lon": 0.0, "lon": -76.98469583333333, "fusion_lat": 0.0}, {"lat": 38.90515166666667, "type": "electric_scooter", "is_disabled": 0, "rental_uris": {"android": "https://dc.lft.to/lastmile_qr_scan", "ios": "https://dc.lft.to/lastmile_qr_scan"}, "is_reserved": 0, "bike_id": "8b8634b288b8251265eba7cf7e7e232d", "name": "8b8634b288b8251265eba7cf7e7e232d", "fusion_lon": 0.0, "lon": -77.06528816666666, "fusion_lat": 0.0}, {"lat": 38.9012285, "type": "electric_scooter", "is_disabled": 0, "rental_uris": {"android": "https://dc.lft.to/lastmile_qr_scan", "ios": "https://dc.lft.to/lastmile_qr_scan"}, "is_reserved": 0, "bike_id": "134d7484d6c44a98a2cd002a6b1dd048", "name": "134d7484d6c44a98a2cd002a6b1dd048", "fusion_lon": 0.0, "lon": -76.9915035, "fusion_lat": 0.0}, {"lat": 38.91816216666667, "type": "electric_scooter", "is_disabled": 0, "rental_uris": {"android": "https://dc.lft.to/lastmile_qr_scan", "ios": "https://dc.lft.to/lastmile_qr_scan"}, "is_reserved": 0, "bike_id": "f95f7020c95353f1c55f34c5f31f1a60", "name": "f95f7020c95353f1c55f34c5f31f1a60", "fusion_lon": 0.0, "lon": -77.02475516666667, "fusion_lat": 0.0}, {"lat": 38.88659333333333, "type": "electric_scooter", "is_disabled": 0, "rental_uris": {"android": "https://dc.lft.to/lastmile_qr_scan", "ios": "https://dc.lft.to/lastmile_qr_scan"}, "is_reserved": 0, "bike_id": "e7991a192eb6e9d919e7adff6666463a", "name": "e7991a192eb6e9d919e7adff6666463a", "fusion_lon": 0.0, "lon": -77.03387766666667, "fusion_lat": 0.0}, {"lat": 38.9073235, "type": "electric_scooter", "is_disabled": 0, "rental_uris": {"android": "https://dc.lft.to/lastmile_qr_scan", "ios": "https://dc.lft.to/lastmile_qr_scan"}, "is_reserved": 0, "bike_id": "fcc7969440d7002ac3e006e89b8701e4", "name": "fcc7969440d7002ac3e006e89b8701e4", "fusion_lon": 0.0, "lon": -77.03451783333334, "fusion_lat": 0.0}, {"lat": 38.91964133333333, "type": "electric_scooter", "is_disabled": 0, "rental_uris": {"android": "https://dc.lft.to/lastmile_qr_scan", "ios": "https://dc.lft.to/lastmile_qr_scan"}, "is_reserved": 0, "bike_id": "b8529b0955683307c8e6a2f50e7b541f", "name": "b8529b0955683307c8e6a2f50e7b541f", "fusion_lon": 0.0, "lon": -77.04150783333333, "fusion_lat": 0.0}, {"lat": 38.90733383333333, "type": "electric_scooter", "is_disabled": 0, "rental_uris": {"android": "https://dc.lft.to/lastmile_qr_scan", "ios": "https://dc.lft.to/lastmile_qr_scan"}, "is_reserved": 0, "bike_id": "b6393f53a3e914da81cc4587fef67cb3", "name": "b6393f53a3e914da81cc4587fef67cb3", "fusion_lon": 0.0, "lon": -77.02284033333333, "fusion_lat": 0.0}, {"lat": 38.9096815, "type": "electric_scooter", "is_disabled": 0, "rental_uris": {"android": "https://dc.lft.to/lastmile_qr_scan", "ios": "https://dc.lft.to/lastmile_qr_scan"}, "is_reserved": 0, "bike_id": "ff52a1330e18f4410e729e9ca38b657a", "name": "ff52a1330e18f4410e729e9ca38b657a", "fusion_lon": 0.0, "lon": -77.03385316666666, "fusion_lat": 0.0}, {"lat": 38.882129166666665, "type": "electric_bike", "is_disabled": 0, "rental_uris": {"android": "https://dc.lft.to/lastmile_qr_scan", "ios": "https://dc.lft.to/lastmile_qr_scan"}, "is_reserved": 0, "bike_id": "77e14ddbfbcb585e8d190975199e32a3", "name": "77e14ddbfbcb585e8d190975199e32a3", "fusion_lon": 0.0, "lon": -77.1152225, "fusion_lat": 0.0}, {"lat": 38.908102666666665, "type": "electric_scooter", "is_disabled": 0, "rental_uris": {"android": "https://dc.lft.to/lastmile_qr_scan", "ios": "https://dc.lft.to/lastmile_qr_scan"}, "is_reserved": 0, "bike_id": "ffe0ec6a30c5f53611445daff56e5014", "name": "ffe0ec6a30c5f53611445daff56e5014", "fusion_lon": 0.0, "lon": -77.03391583333334, "fusion_lat": 0.0}, {"lat": 38.927480333333335, "type": "electric_scooter", "is_disabled": 0, "rental_uris": {"android": "https://dc.lft.to/lastmile_qr_scan", "ios": "https://dc.lft.to/lastmile_qr_scan"}, "is_reserved": 0, "bike_id": "5843337c23bc1879d3c19d213968cdeb", "name": "5843337c23bc1879d3c19d213968cdeb", "fusion_lon": 0.0, "lon": -77.03308983333334, "fusion_lat": 0.0}, {"lat": 38.901228333333336, "type": "electric_scooter", "is_disabled": 0, "rental_uris": {"android": "https://dc.lft.to/lastmile_qr_scan", "ios": "https://dc.lft.to/lastmile_qr_scan"}, "is_reserved": 0, "bike_id": "3e08e3b3962d1a6f2ffee8e0a7813ed5", "name": "3e08e3b3962d1a6f2ffee8e0a7813ed5", "fusion_lon": 0.0, "lon": -77.02788016666666, "fusion_lat": 0.0}, {"lat": 38.908249166666664, "type": "electric_scooter", "is_disabled": 0, "rental_uris": {"android": "https://dc.lft.to/lastmile_qr_scan", "ios": "https://dc.lft.to/lastmile_qr_scan"}, "is_reserved": 0, "bike_id": "020277733730ac7f6fdf4e10c9c16887", "name": "020277733730ac7f6fdf4e10c9c16887", "fusion_lon": 0.0, "lon": -77.03188216666666, "fusion_lat": 0.0}, {"lat": 38.88744483333333, "type": "electric_scooter", "is_disabled": 0, "rental_uris": {"android": "https://dc.lft.to/lastmile_qr_scan", "ios": "https://dc.lft.to/lastmile_qr_scan"}, "is_reserved": 0, "bike_id": "f3b3f0f7397271abd088ae8281b8952d", "name": "f3b3f0f7397271abd088ae8281b8952d", "fusion_lon": 0.0, "lon": -77.021222, "fusion_lat": 0.0}, {"lat": 38.89359016666667, "type": "electric_scooter", "is_disabled": 0, "rental_uris": {"android": "https://dc.lft.to/lastmile_qr_scan", "ios": "https://dc.lft.to/lastmile_qr_scan"}, "is_reserved": 0, "bike_id": "6f2ee333ab04bc748f4198c2ca2bce9f", "name": "6f2ee333ab04bc748f4198c2ca2bce9f", "fusion_lon": 0.0, "lon": -77.00335116666666, "fusion_lat": 0.0}, {"lat": 39.0580975, "type": "electric_bike", "is_disabled": 0, "rental_uris": {"android": "https://dc.lft.to/lastmile_qr_scan", "ios": "https://dc.lft.to/lastmile_qr_scan"}, "is_reserved": 0, "bike_id": "f54a6dca59a43e43a262c26fc0562d66", "name": "f54a6dca59a43e43a262c26fc0562d66", "fusion_lon": 0.0, "lon": -77.12626, "fusion_lat": 0.0}, {"lat": 38.89221633333333, "type": "electric_scooter", "is_disabled": 0, "rental_uris": {"android": "https://dc.lft.to/lastmile_qr_scan", "ios": "https://dc.lft.to/lastmile_qr_scan"}, "is_reserved": 0, "bike_id": "cdd32c00782fc6041acf914fcdeddc33", "name": "cdd32c00782fc6041acf914fcdeddc33", "fusion_lon": 0.0, "lon": -77.03181816666667, "fusion_lat": 0.0}, {"lat": 38.90511033333333, "type": "electric_scooter", "is_disabled": 0, "rental_uris": {"android": "https://dc.lft.to/lastmile_qr_scan", "ios": "https://dc.lft.to/lastmile_qr_scan"}, "is_reserved": 0, "bike_id": "54948efbd094e8c10ac60f9dee41bdd0", "name": "54948efbd094e8c10ac60f9dee41bdd0", "fusion_lon": 0.0, "lon": -77.06151716666666, "fusion_lat": 0.0}, {"lat": 38.887428666666665, "type": "electric_scooter", "is_disabled": 0, "rental_uris": {"android": "https://dc.lft.to/lastmile_qr_scan", "ios": "https://dc.lft.to/lastmile_qr_scan"}, "is_reserved": 0, "bike_id": "edb6dcf3bed2cb50dcc8f8252655bbd5", "name": "edb6dcf3bed2cb50dcc8f8252655bbd5", "fusion_lon": 0.0, "lon": -77.02224083333333, "fusion_lat": 0.0}, {"lat": 38.9019515, "type": "electric_scooter", "is_disabled": 0, "rental_uris": {"android": "https://dc.lft.to/lastmile_qr_scan", "ios": "https://dc.lft.to/lastmile_qr_scan"}, "is_reserved": 0, "bike_id": "6c4004094768536202878e459e10d2f1", "name": "6c4004094768536202878e459e10d2f1", "fusion_lon": 0.0, "lon": -77.0238195, "fusion_lat": 0.0}, {"lat": 38.929675833333334, "type": "electric_scooter", "is_disabled": 0, "rental_uris": {"android": "https://dc.lft.to/lastmile_qr_scan", "ios": "https://dc.lft.to/lastmile_qr_scan"}, "is_reserved": 0, "bike_id": "d636f55f61a5b4e0909df4329173b36a", "name": "d636f55f61a5b4e0909df4329173b36a", "fusion_lon": 0.0, "lon": -77.00535316666667, "fusion_lat": 0.0}, {"lat": 38.90200733333333, "type": "electric_scooter", "is_disabled": 0, "rental_uris": {"android": "https://dc.lft.to/lastmile_qr_scan", "ios": "https://dc.lft.to/lastmile_qr_scan"}, "is_reserved": 0, "bike_id": "17df4c462910fa480db2e29a6a690f0b", "name": "17df4c462910fa480db2e29a6a690f0b", "fusion_lon": 0.0, "lon": -77.06121316666666, "fusion_lat": 0.0}, {"lat": 38.902301, "type": "electric_scooter", "is_disabled": 0, "rental_uris": {"android": "https://dc.lft.to/lastmile_qr_scan", "ios": "https://dc.lft.to/lastmile_qr_scan"}, "is_reserved": 0, "bike_id": "8085387708471387a50bad5e2adb6038", "name": "8085387708471387a50bad5e2adb6038", "fusion_lon": 0.0, "lon": -77.04537566666667, "fusion_lat": 0.0}, {"lat": 38.896197666666666, "type": "electric_scooter", "is_disabled": 0, "rental_uris": {"android": "https://dc.lft.to/lastmile_qr_scan", "ios": "https://dc.lft.to/lastmile_qr_scan"}, "is_reserved": 0, "bike_id": "4e81c569f91afa0f2b4886e2f4974f26", "name": "4e81c569f91afa0f2b4886e2f4974f26", "fusion_lon": 0.0, "lon": -77.01086133333334, "fusion_lat": 0.0}, {"lat": 38.91980216666666, "type": "electric_scooter", "is_disabled": 0, "rental_uris": {"android": "https://dc.lft.to/lastmile_qr_scan", "ios": "https://dc.lft.to/lastmile_qr_scan"}, "is_reserved": 0, "bike_id": "fe69e47846df70d58ca492176f0ee4a9", "name": "fe69e47846df70d58ca492176f0ee4a9", "fusion_lon": 0.0, "lon": -77.02182483333333, "fusion_lat": 0.0}, {"lat": 38.91338066666667, "type": "electric_scooter", "is_disabled": 0, "rental_uris": {"android": "https://dc.lft.to/lastmile_qr_scan", "ios": "https://dc.lft.to/lastmile_qr_scan"}, "is_reserved": 0, "bike_id": "80c89a88ebbcec81d03e022c7b32d09d", "name": "80c89a88ebbcec81d03e022c7b32d09d", "fusion_lon": 0.0, "lon": -77.0324735, "fusion_lat": 0.0}, {"lat": 38.857913, "type": "electric_bike", "is_disabled": 0, "rental_uris": {"android": "https://dc.lft.to/lastmile_qr_scan", "ios": "https://dc.lft.to/lastmile_qr_scan"}, "is_reserved": 0, "bike_id": "a5adac7a0c3d6dfa99c5afe0900fe380", "name": "a5adac7a0c3d6dfa99c5afe0900fe380", "fusion_lon": 0.0, "lon": -77.09963983333333, "fusion_lat": 0.0}, {"lat": 38.9264535, "type": "electric_scooter", "is_disabled": 0, "rental_uris": {"android": "https://dc.lft.to/lastmile_qr_scan", "ios": "https://dc.lft.to/lastmile_qr_scan"}, "is_reserved": 0, "bike_id": "58cf320fc931468592311b41be3f4524", "name": "58cf320fc931468592311b41be3f4524", "fusion_lon": 0.0, "lon": -77.03712483333334, "fusion_lat": 0.0}, {"lat": 38.914168, "type": "electric_scooter", "is_disabled": 0, "rental_uris": {"android": "https://dc.lft.to/lastmile_qr_scan", "ios": "https://dc.lft.to/lastmile_qr_scan"}, "is_reserved": 0, "bike_id": "e9802f68af84530e15ef7622415f0b32", "name": "e9802f68af84530e15ef7622415f0b32", "fusion_lon": 0.0, "lon": -77.02539683333333, "fusion_lat": 0.0}, {"lat": 38.927891, "type": "electric_scooter", "is_disabled": 0, "rental_uris": {"android": "https://dc.lft.to/lastmile_qr_scan", "ios": "https://dc.lft.to/lastmile_qr_scan"}, "is_reserved": 0, "bike_id": "e558949806b3f279bc03d804ef368d16", "name": "e558949806b3f279bc03d804ef368d16", "fusion_lon": 0.0, "lon": -77.02731933333334, "fusion_lat": 0.0}, {"lat": 38.927869666666666, "type": "electric_scooter", "is_disabled": 0, "rental_uris": {"android": "https://dc.lft.to/lastmile_qr_scan", "ios": "https://dc.lft.to/lastmile_qr_scan"}, "is_reserved": 0, "bike_id": "d6cf73a08e23e485cd8d5d7ab6f674eb", "name": "d6cf73a08e23e485cd8d5d7ab6f674eb", "fusion_lon": 0.0, "lon": -77.02739733333334, "fusion_lat": 0.0}, {"lat": 38.900118166666665, "type": "electric_scooter", "is_disabled": 0, "rental_uris": {"android": "https://dc.lft.to/lastmile_qr_scan", "ios": "https://dc.lft.to/lastmile_qr_scan"}, "is_reserved": 0, "bike_id": "4c9abd3b910ba3c6f49e86e0834afe0e", "name": "4c9abd3b910ba3c6f49e86e0834afe0e", "fusion_lon": 0.0, "lon": -77.03322166666666, "fusion_lat": 0.0}, {"lat": 38.89850833333333, "type": "electric_scooter", "is_disabled": 0, "rental_uris": {"android": "https://dc.lft.to/lastmile_qr_scan", "ios": "https://dc.lft.to/lastmile_qr_scan"}, "is_reserved": 0, "bike_id": "46282c89fd131043320ffe9aa63e7eaa", "name": "46282c89fd131043320ffe9aa63e7eaa", "fusion_lon": 0.0, "lon": -76.99028266666667, "fusion_lat": 0.0}, {"lat": 38.92741983333333, "type": "electric_scooter", "is_disabled": 0, "rental_uris": {"android": "https://dc.lft.to/lastmile_qr_scan", "ios": "https://dc.lft.to/lastmile_qr_scan"}, "is_reserved": 0, "bike_id": "cca4e7681b1ea78746a9624a12e91034", "name": "cca4e7681b1ea78746a9624a12e91034", "fusion_lon": 0.0, "lon": -77.053606, "fusion_lat": 0.0}, {"lat": 38.874584, "type": "electric_scooter", "is_disabled": 0, "rental_uris": {"android": "https://dc.lft.to/lastmile_qr_scan", "ios": "https://dc.lft.to/lastmile_qr_scan"}, "is_reserved": 0, "bike_id": "9fc4003df62685055bb13fefa40b6a3f", "name": "9fc4003df62685055bb13fefa40b6a3f", "fusion_lon": 0.0, "lon": -77.00504983333333, "fusion_lat": 0.0}, {"lat": 38.90720066666667, "type": "electric_scooter", "is_disabled": 0, "rental_uris": {"android": "https://dc.lft.to/lastmile_qr_scan", "ios": "https://dc.lft.to/lastmile_qr_scan"}, "is_reserved": 0, "bike_id": "e2314919b208c0847834e9a700f1b93b", "name": "e2314919b208c0847834e9a700f1b93b", "fusion_lon": 0.0, "lon": -77.03862516666666, "fusion_lat": 0.0}, {"lat": 38.90582166666667, "type": "electric_scooter", "is_disabled": 0, "rental_uris": {"android": "https://dc.lft.to/lastmile_qr_scan", "ios": "https://dc.lft.to/lastmile_qr_scan"}, "is_reserved": 0, "bike_id": "7811e2455abd96c7ac8be8816249de9d", "name": "7811e2455abd96c7ac8be8816249de9d", "fusion_lon": 0.0, "lon": -77.008828, "fusion_lat": 0.0}, {"lat": 38.91382216666667, "type": "electric_scooter", "is_disabled": 0, "rental_uris": {"android": "https://dc.lft.to/lastmile_qr_scan", "ios": "https://dc.lft.to/lastmile_qr_scan"}, "is_reserved": 0, "bike_id": "d316f952b698b7c60f46be713e1e1bbb", "name": "d316f952b698b7c60f46be713e1e1bbb", "fusion_lon": 0.0, "lon": -77.01696616666666, "fusion_lat": 0.0}, {"lat": 38.906705333333335, "type": "electric_bike", "is_disabled": 0, "rental_uris": {"android": "https://dc.lft.to/lastmile_qr_scan", "ios": "https://dc.lft.to/lastmile_qr_scan"}, "is_reserved": 0, "bike_id": "9a5c0412b28c1a28f6c14cfb8d50e79a", "name": "9a5c0412b28c1a28f6c14cfb8d50e79a", "fusion_lon": 0.0, "lon": -77.07140066666666, "fusion_lat": 0.0}, {"lat": 38.91808533333333, "type": "electric_scooter", "is_disabled": 0, "rental_uris": {"android": "https://dc.lft.to/lastmile_qr_scan", "ios": "https://dc.lft.to/lastmile_qr_scan"}, "is_reserved": 0, "bike_id": "3533207ff084547520e6cd413a9a1536", "name": "3533207ff084547520e6cd413a9a1536", "fusion_lon": 0.0, "lon": -77.02688866666666, "fusion_lat": 0.0}, {"lat": 38.93909166666667, "type": "electric_scooter", "is_disabled": 0, "rental_uris": {"android": "https://dc.lft.to/lastmile_qr_scan", "ios": "https://dc.lft.to/lastmile_qr_scan"}, "is_reserved": 0, "bike_id": "09fc217382991adff3a6cc7b1e84b5b1", "name": "09fc217382991adff3a6cc7b1e84b5b1", "fusion_lon": 0.0, "lon": -77.02488016666666, "fusion_lat": 0.0}, {"lat": 38.94999166666667, "type": "electric_bike", "is_disabled": 0, "rental_uris": {"android": "https://dc.lft.to/lastmile_qr_scan", "ios": "https://dc.lft.to/lastmile_qr_scan"}, "is_reserved": 0, "bike_id": "cdc6bd92582823d7ef6b28e514cd4889", "name": "cdc6bd92582823d7ef6b28e514cd4889", "fusion_lon": 0.0, "lon": -77.35308416666666, "fusion_lat": 0.0}, {"lat": 38.88744466666667, "type": "electric_scooter", "is_disabled": 0, "rental_uris": {"android": "https://dc.lft.to/lastmile_qr_scan", "ios": "https://dc.lft.to/lastmile_qr_scan"}, "is_reserved": 0, "bike_id": "5769a52635e32529d4df9144bbae30dd", "name": "5769a52635e32529d4df9144bbae30dd", "fusion_lon": 0.0, "lon": -77.022232, "fusion_lat": 0.0}, {"lat": 38.915814833333336, "type": "electric_scooter", "is_disabled": 0, "rental_uris": {"android": "https://dc.lft.to/lastmile_qr_scan", "ios": "https://dc.lft.to/lastmile_qr_scan"}, "is_reserved": 0, "bike_id": "4999b9a295e2ab44b63db1b26566d4de", "name": "4999b9a295e2ab44b63db1b26566d4de", "fusion_lon": 0.0, "lon": -77.04677616666666, "fusion_lat": 0.0}, {"lat": 38.92459766666666, "type": "electric_scooter", "is_disabled": 0, "rental_uris": {"android": "https://dc.lft.to/lastmile_qr_scan", "ios": "https://dc.lft.to/lastmile_qr_scan"}, "is_reserved": 0, "bike_id": "83fd3f86869dad493cca11bf891eb2f1", "name": "83fd3f86869dad493cca11bf891eb2f1", "fusion_lon": 0.0, "lon": -76.99738783333333, "fusion_lat": 0.0}, {"lat": 38.898629166666666, "type": "electric_scooter", "is_disabled": 0, "rental_uris": {"android": "https://dc.lft.to/lastmile_qr_scan", "ios": "https://dc.lft.to/lastmile_qr_scan"}, "is_reserved": 0, "bike_id": "f64b0033ccae91ab1e2a062e179450b2", "name": "f64b0033ccae91ab1e2a062e179450b2", "fusion_lon": 0.0, "lon": -77.01618116666667, "fusion_lat": 0.0}, {"lat": 38.9081375, "type": "electric_scooter", "is_disabled": 0, "rental_uris": {"android": "https://dc.lft.to/lastmile_qr_scan", "ios": "https://dc.lft.to/lastmile_qr_scan"}, "is_reserved": 0, "bike_id": "ba13623e64cf4d8f7efb9b3153c966eb", "name": "ba13623e64cf4d8f7efb9b3153c966eb", "fusion_lon": 0.0, "lon": -77.03857083333334, "fusion_lat": 0.0}, {"lat": 38.901473833333334, "type": "electric_scooter", "is_disabled": 0, "rental_uris": {"android": "https://dc.lft.to/lastmile_qr_scan", "ios": "https://dc.lft.to/lastmile_qr_scan"}, "is_reserved": 0, "bike_id": "d2bc545a41f23c5295f190edeaaef9c7", "name": "d2bc545a41f23c5295f190edeaaef9c7", "fusion_lon": 0.0, "lon": -77.04396483333333, "fusion_lat": 0.0}, {"lat": 38.905813, "type": "electric_scooter", "is_disabled": 0, "rental_uris": {"android": "https://dc.lft.to/lastmile_qr_scan", "ios": "https://dc.lft.to/lastmile_qr_scan"}, "is_reserved": 0, "bike_id": "f5c07725533cb56a7631b3c028ec3aef", "name": "f5c07725533cb56a7631b3c028ec3aef", "fusion_lon": 0.0, "lon": -77.00784416666667, "fusion_lat": 0.0}, {"lat": 38.970639166666665, "type": "electric_bike", "is_disabled": 0, "rental_uris": {"android": "https://dc.lft.to/lastmile_qr_scan", "ios": "https://dc.lft.to/lastmile_qr_scan"}, "is_reserved": 0, "bike_id": "bb6d78bce740c9fbf9ac50fc140442cc", "name": "bb6d78bce740c9fbf9ac50fc140442cc", "fusion_lon": 0.0, "lon": -76.96058333333333, "fusion_lat": 0.0}, {"lat": 38.900099166666664, "type": "electric_scooter", "is_disabled": 0, "rental_uris": {"android": "https://dc.lft.to/lastmile_qr_scan", "ios": "https://dc.lft.to/lastmile_qr_scan"}, "is_reserved": 0, "bike_id": "d9e06679ba12a099e9d28209cb6f2da3", "name": "d9e06679ba12a099e9d28209cb6f2da3", "fusion_lon": 0.0, "lon": -76.9959325, "fusion_lat": 0.0}, {"lat": 38.8864345, "type": "electric_scooter", "is_disabled": 0, "rental_uris": {"android": "https://dc.lft.to/lastmile_qr_scan", "ios": "https://dc.lft.to/lastmile_qr_scan"}, "is_reserved": 0, "bike_id": "3f44ff8387d469837f5cd0ae86499d02", "name": "3f44ff8387d469837f5cd0ae86499d02", "fusion_lon": 0.0, "lon": -77.00094, "fusion_lat": 0.0}, {"lat": 38.920736833333336, "type": "electric_scooter", "is_disabled": 0, "rental_uris": {"android": "https://dc.lft.to/lastmile_qr_scan", "ios": "https://dc.lft.to/lastmile_qr_scan"}, "is_reserved": 0, "bike_id": "778604fccf71b5e430d515ef7522fce3", "name": "778604fccf71b5e430d515ef7522fce3", "fusion_lon": 0.0, "lon": -77.02389666666667, "fusion_lat": 0.0}, {"lat": 38.892198, "type": "electric_scooter", "is_disabled": 0, "rental_uris": {"android": "https://dc.lft.to/lastmile_qr_scan", "ios": "https://dc.lft.to/lastmile_qr_scan"}, "is_reserved": 0, "bike_id": "6e4f9d53577850e50a5d8ff2ae14abec", "name": "6e4f9d53577850e50a5d8ff2ae14abec", "fusion_lon": 0.0, "lon": -77.03982616666667, "fusion_lat": 0.0}, {"lat": 38.88719366666667, "type": "electric_bike", "is_disabled": 0, "rental_uris": {"android": "https://dc.lft.to/lastmile_qr_scan", "ios": "https://dc.lft.to/lastmile_qr_scan"}, "is_reserved": 0, "bike_id": "101b68d0f894d879a951b05fe4e42e22", "name": "101b68d0f894d879a951b05fe4e42e22", "fusion_lon": 0.0, "lon": -77.13308116666667, "fusion_lat": 0.0}, {"lat": 38.910201666666666, "type": "electric_scooter", "is_disabled": 0, "rental_uris": {"android": "https://dc.lft.to/lastmile_qr_scan", "ios": "https://dc.lft.to/lastmile_qr_scan"}, "is_reserved": 0, "bike_id": "b50a2b1cdc28c79f1eb65ca6fedc9552", "name": "b50a2b1cdc28c79f1eb65ca6fedc9552", "fusion_lon": 0.0, "lon": -77.036464, "fusion_lat": 0.0}, {"lat": 38.91137333333333, "type": "electric_scooter", "is_disabled": 0, "rental_uris": {"android": "https://dc.lft.to/lastmile_qr_scan", "ios": "https://dc.lft.to/lastmile_qr_scan"}, "is_reserved": 0, "bike_id": "e3a4fc8b32f8aac032f5149c79822509", "name": "e3a4fc8b32f8aac032f5149c79822509", "fusion_lon": 0.0, "lon": -77.0418995, "fusion_lat": 0.0}, {"lat": 38.91203933333333, "type": "electric_scooter", "is_disabled": 0, "rental_uris": {"android": "https://dc.lft.to/lastmile_qr_scan", "ios": "https://dc.lft.to/lastmile_qr_scan"}, "is_reserved": 0, "bike_id": "d8180f7a62f99974454814d7493d16d6", "name": "d8180f7a62f99974454814d7493d16d6", "fusion_lon": 0.0, "lon": -76.98480466666666, "fusion_lat": 0.0}, {"lat": 38.921704166666665, "type": "electric_scooter", "is_disabled": 0, "rental_uris": {"android": "https://dc.lft.to/lastmile_qr_scan", "ios": "https://dc.lft.to/lastmile_qr_scan"}, "is_reserved": 0, "bike_id": "302db7c79495335d5cfbcaf1be01f9f4", "name": "302db7c79495335d5cfbcaf1be01f9f4", "fusion_lon": 0.0, "lon": -77.04342533333333, "fusion_lat": 0.0}, {"lat": 38.907281, "type": "electric_scooter", "is_disabled": 0, "rental_uris": {"android": "https://dc.lft.to/lastmile_qr_scan", "ios": "https://dc.lft.to/lastmile_qr_scan"}, "is_reserved": 0, "bike_id": "ee7209442a4c57f4ca4007898cc9550a", "name": "ee7209442a4c57f4ca4007898cc9550a", "fusion_lon": 0.0, "lon": -77.02367683333334, "fusion_lat": 0.0}, {"lat": 38.904825, "type": "electric_scooter", "is_disabled": 0, "rental_uris": {"android": "https://dc.lft.to/lastmile_qr_scan", "ios": "https://dc.lft.to/lastmile_qr_scan"}, "is_reserved": 0, "bike_id": "1e139fc90c743291f3c56045f410265c", "name": "1e139fc90c743291f3c56045f410265c", "fusion_lon": 0.0, "lon": -77.04027333333333, "fusion_lat": 0.0}, {"lat": 38.8918265, "type": "electric_scooter", "is_disabled": 0, "rental_uris": {"android": "https://dc.lft.to/lastmile_qr_scan", "ios": "https://dc.lft.to/lastmile_qr_scan"}, "is_reserved": 0, "bike_id": "a63674103cdc9a3c03963bfe509514d0", "name": "a63674103cdc9a3c03963bfe509514d0", "fusion_lon": 0.0, "lon": -77.03175383333334, "fusion_lat": 0.0}, {"lat": 38.9013565, "type": "electric_scooter", "is_disabled": 0, "rental_uris": {"android": "https://dc.lft.to/lastmile_qr_scan", "ios": "https://dc.lft.to/lastmile_qr_scan"}, "is_reserved": 0, "bike_id": "027a1a436ae63b37d2d61d0948d87af7", "name": "027a1a436ae63b37d2d61d0948d87af7", "fusion_lon": 0.0, "lon": -77.03961616666666, "fusion_lat": 0.0}, {"lat": 38.900381833333334, "type": "electric_scooter", "is_disabled": 0, "rental_uris": {"android": "https://dc.lft.to/lastmile_qr_scan", "ios": "https://dc.lft.to/lastmile_qr_scan"}, "is_reserved": 0, "bike_id": "d5d5b6560fa0531ea2b63be80e9df3e2", "name": "d5d5b6560fa0531ea2b63be80e9df3e2", "fusion_lon": 0.0, "lon": -76.98817566666666, "fusion_lat": 0.0}, {"lat": 38.89734216666667, "type": "electric_scooter", "is_disabled": 0, "rental_uris": {"android": "https://dc.lft.to/lastmile_qr_scan", "ios": "https://dc.lft.to/lastmile_qr_scan"}, "is_reserved": 0, "bike_id": "c703560f65e274c9bcfcf31658aba966", "name": "c703560f65e274c9bcfcf31658aba966", "fusion_lon": 0.0, "lon": -77.02595633333334, "fusion_lat": 0.0}, {"lat": 38.936498666666665, "type": "electric_scooter", "is_disabled": 0, "rental_uris": {"android": "https://dc.lft.to/lastmile_qr_scan", "ios": "https://dc.lft.to/lastmile_qr_scan"}, "is_reserved": 0, "bike_id": "669e708338689cd2cd47f3be58f86371", "name": "669e708338689cd2cd47f3be58f86371", "fusion_lon": 0.0, "lon": -77.03682316666666, "fusion_lat": 0.0}, {"lat": 38.8551035, "type": "electric_bike", "is_disabled": 0, "rental_uris": {"android": "https://dc.lft.to/lastmile_qr_scan", "ios": "https://dc.lft.to/lastmile_qr_scan"}, "is_reserved": 0, "bike_id": "5b8bd47466225e6337c195a02efa5346", "name": "5b8bd47466225e6337c195a02efa5346", "fusion_lon": 0.0, "lon": -76.95843133333334, "fusion_lat": 0.0}, {"lat": 38.90057016666667, "type": "electric_scooter", "is_disabled": 0, "rental_uris": {"android": "https://dc.lft.to/lastmile_qr_scan", "ios": "https://dc.lft.to/lastmile_qr_scan"}, "is_reserved": 0, "bike_id": "d30f1fa4cc19ab3b31111fe99bbba8cc", "name": "d30f1fa4cc19ab3b31111fe99bbba8cc", "fusion_lon": 0.0, "lon": -77.00210316666667, "fusion_lat": 0.0}, {"lat": 38.927537, "type": "electric_scooter", "is_disabled": 0, "rental_uris": {"android": "https://dc.lft.to/lastmile_qr_scan", "ios": "https://dc.lft.to/lastmile_qr_scan"}, "is_reserved": 0, "bike_id": "a45d447bf65301acaf6b247df7f26d74", "name": "a45d447bf65301acaf6b247df7f26d74", "fusion_lon": 0.0, "lon": -77.0059235, "fusion_lat": 0.0}, {"lat": 38.91914833333333, "type": "electric_scooter", "is_disabled": 0, "rental_uris": {"android": "https://dc.lft.to/lastmile_qr_scan", "ios": "https://dc.lft.to/lastmile_qr_scan"}, "is_reserved": 0, "bike_id": "9a92714ff36edab92608107dbe3d6f3e", "name": "9a92714ff36edab92608107dbe3d6f3e", "fusion_lon": 0.0, "lon": -77.02372666666666, "fusion_lat": 0.0}, {"lat": 38.88304433333333, "type": "electric_scooter", "is_disabled": 0, "rental_uris": {"android": "https://dc.lft.to/lastmile_qr_scan", "ios": "https://dc.lft.to/lastmile_qr_scan"}, "is_reserved": 0, "bike_id": "18790973786b0b044868e8667cc6ec71", "name": "18790973786b0b044868e8667cc6ec71", "fusion_lon": 0.0, "lon": -77.01753033333334, "fusion_lat": 0.0}, {"lat": 38.90949783333333, "type": "electric_scooter", "is_disabled": 0, "rental_uris": {"android": "https://dc.lft.to/lastmile_qr_scan", "ios": "https://dc.lft.to/lastmile_qr_scan"}, "is_reserved": 0, "bike_id": "9c8ad25d440c2b27c7cf14c0b1ecf43d", "name": "9c8ad25d440c2b27c7cf14c0b1ecf43d", "fusion_lon": 0.0, "lon": -77.02685716666667, "fusion_lat": 0.0}, {"lat": 38.89687083333333, "type": "electric_scooter", "is_disabled": 0, "rental_uris": {"android": "https://dc.lft.to/lastmile_qr_scan", "ios": "https://dc.lft.to/lastmile_qr_scan"}, "is_reserved": 0, "bike_id": "88d1527d7f70ec54a402307684c16cf8", "name": "88d1527d7f70ec54a402307684c16cf8", "fusion_lon": 0.0, "lon": -77.00495816666667, "fusion_lat": 0.0}, {"lat": 38.9193765, "type": "electric_scooter", "is_disabled": 0, "rental_uris": {"android": "https://dc.lft.to/lastmile_qr_scan", "ios": "https://dc.lft.to/lastmile_qr_scan"}, "is_reserved": 0, "bike_id": "9ef1a7c1237834347fa289d9eaf1d494", "name": "9ef1a7c1237834347fa289d9eaf1d494", "fusion_lon": 0.0, "lon": -76.9807475, "fusion_lat": 0.0}, {"lat": 38.915602666666665, "type": "electric_scooter", "is_disabled": 0, "rental_uris": {"android": "https://dc.lft.to/lastmile_qr_scan", "ios": "https://dc.lft.to/lastmile_qr_scan"}, "is_reserved": 0, "bike_id": "1086cf314d57d02badbc3cf066809b3c", "name": "1086cf314d57d02badbc3cf066809b3c", "fusion_lon": 0.0, "lon": -77.032702, "fusion_lat": 0.0}, {"lat": 38.883155, "type": "electric_scooter", "is_disabled": 0, "rental_uris": {"android": "https://dc.lft.to/lastmile_qr_scan", "ios": "https://dc.lft.to/lastmile_qr_scan"}, "is_reserved": 0, "bike_id": "e213ca96138b60dd42be00abfd39d1e3", "name": "e213ca96138b60dd42be00abfd39d1e3", "fusion_lon": 0.0, "lon": -77.0060145, "fusion_lat": 0.0}, {"lat": 38.9133205, "type": "electric_scooter", "is_disabled": 0, "rental_uris": {"android": "https://dc.lft.to/lastmile_qr_scan", "ios": "https://dc.lft.to/lastmile_qr_scan"}, "is_reserved": 0, "bike_id": "398f4893c51da44179fb1e8be13450f9", "name": "398f4893c51da44179fb1e8be13450f9", "fusion_lon": 0.0, "lon": -77.02442483333333, "fusion_lat": 0.0}, {"lat": 38.91800883333333, "type": "electric_scooter", "is_disabled": 0, "rental_uris": {"android": "https://dc.lft.to/lastmile_qr_scan", "ios": "https://dc.lft.to/lastmile_qr_scan"}, "is_reserved": 0, "bike_id": "f085d682ff152f6b6b9c8d54c31489e2", "name": "f085d682ff152f6b6b9c8d54c31489e2", "fusion_lon": 0.0, "lon": -77.04034583333333, "fusion_lat": 0.0}, {"lat": 38.897302333333336, "type": "electric_scooter", "is_disabled": 0, "rental_uris": {"android": "https://dc.lft.to/lastmile_qr_scan", "ios": "https://dc.lft.to/lastmile_qr_scan"}, "is_reserved": 0, "bike_id": "cce9aa7f8be637d41f1ddc6c926b195d", "name": "cce9aa7f8be637d41f1ddc6c926b195d", "fusion_lon": 0.0, "lon": -77.024582, "fusion_lat": 0.0}, {"lat": 38.90461083333334, "type": "electric_scooter", "is_disabled": 0, "rental_uris": {"android": "https://dc.lft.to/lastmile_qr_scan", "ios": "https://dc.lft.to/lastmile_qr_scan"}, "is_reserved": 0, "bike_id": "dcd9b33ff3927c5f61acc3c460372a03", "name": "dcd9b33ff3927c5f61acc3c460372a03", "fusion_lon": 0.0, "lon": -77.02809183333333, "fusion_lat": 0.0}, {"lat": 38.89829133333333, "type": "electric_scooter", "is_disabled": 0, "rental_uris": {"android": "https://dc.lft.to/lastmile_qr_scan", "ios": "https://dc.lft.to/lastmile_qr_scan"}, "is_reserved": 0, "bike_id": "539972ee31c7f2b8ca1b030e7e2b3698", "name": "539972ee31c7f2b8ca1b030e7e2b3698", "fusion_lon": 0.0, "lon": -76.9463115, "fusion_lat": 0.0}, {"lat": 38.8690405, "type": "electric_bike", "is_disabled": 0, "rental_uris": {"android": "https://dc.lft.to/lastmile_qr_scan", "ios": "https://dc.lft.to/lastmile_qr_scan"}, "is_reserved": 0, "bike_id": "2201fa46e029590cad64bbd474e8d972", "name": "2201fa46e029590cad64bbd474e8d972", "fusion_lon": 0.0, "lon": -77.13179666666667, "fusion_lat": 0.0}, {"lat": 38.899549, "type": "electric_scooter", "is_disabled": 0, "rental_uris": {"android": "https://dc.lft.to/lastmile_qr_scan", "ios": "https://dc.lft.to/lastmile_qr_scan"}, "is_reserved": 0, "bike_id": "57425944481b845a4ca0474db8ccfc21", "name": "57425944481b845a4ca0474db8ccfc21", "fusion_lon": 0.0, "lon": -77.02943266666666, "fusion_lat": 0.0}, {"lat": 38.919903166666664, "type": "electric_bike", "is_disabled": 0, "rental_uris": {"android": "https://dc.lft.to/lastmile_qr_scan", "ios": "https://dc.lft.to/lastmile_qr_scan"}, "is_reserved": 0, "bike_id": "1bed00f7ca7d7152d927d49ab238262e", "name": "1bed00f7ca7d7152d927d49ab238262e", "fusion_lon": 0.0, "lon": -76.9731355, "fusion_lat": 0.0}, {"lat": 38.92714766666667, "type": "electric_scooter", "is_disabled": 0, "rental_uris": {"android": "https://dc.lft.to/lastmile_qr_scan", "ios": "https://dc.lft.to/lastmile_qr_scan"}, "is_reserved": 0, "bike_id": "7bff7ca3623db0c78d1a1f84abe8fe56", "name": "7bff7ca3623db0c78d1a1f84abe8fe56", "fusion_lon": 0.0, "lon": -77.041996, "fusion_lat": 0.0}, {"lat": 38.88489583333333, "type": "electric_scooter", "is_disabled": 0, "rental_uris": {"android": "https://dc.lft.to/lastmile_qr_scan", "ios": "https://dc.lft.to/lastmile_qr_scan"}, "is_reserved": 0, "bike_id": "88bd507000b98837a545d08ca7a74381", "name": "88bd507000b98837a545d08ca7a74381", "fusion_lon": 0.0, "lon": -77.02079483333333, "fusion_lat": 0.0}, {"lat": 38.97541233333333, "type": "electric_bike", "is_disabled": 0, "rental_uris": {"android": "https://dc.lft.to/lastmile_qr_scan", "ios": "https://dc.lft.to/lastmile_qr_scan"}, "is_reserved": 0, "bike_id": "dbef843785bf495aab9992c60c1f6fda", "name": "dbef843785bf495aab9992c60c1f6fda", "fusion_lon": 0.0, "lon": -76.99530333333334, "fusion_lat": 0.0}, {"lat": 38.90569683333333, "type": "electric_scooter", "is_disabled": 0, "rental_uris": {"android": "https://dc.lft.to/lastmile_qr_scan", "ios": "https://dc.lft.to/lastmile_qr_scan"}, "is_reserved": 0, "bike_id": "32e932db440d4bac108587a73eeca7e4", "name": "32e932db440d4bac108587a73eeca7e4", "fusion_lon": 0.0, "lon": -77.02208283333333, "fusion_lat": 0.0}, {"lat": 38.95514683333333, "type": "electric_bike", "is_disabled": 0, "rental_uris": {"android": "https://dc.lft.to/lastmile_qr_scan", "ios": "https://dc.lft.to/lastmile_qr_scan"}, "is_reserved": 0, "bike_id": "a9494eeed0d218791bf88fe08fc699b3", "name": "a9494eeed0d218791bf88fe08fc699b3", "fusion_lon": 0.0, "lon": -76.99987966666667, "fusion_lat": 0.0}, {"lat": 38.916941333333334, "type": "electric_scooter", "is_disabled": 0, "rental_uris": {"android": "https://dc.lft.to/lastmile_qr_scan", "ios": "https://dc.lft.to/lastmile_qr_scan"}, "is_reserved": 0, "bike_id": "389882e15d844474a3b2d29b67fd7d49", "name": "389882e15d844474a3b2d29b67fd7d49", "fusion_lon": 0.0, "lon": -77.029805, "fusion_lat": 0.0}, {"lat": 38.9365875, "type": "electric_scooter", "is_disabled": 0, "rental_uris": {"android": "https://dc.lft.to/lastmile_qr_scan", "ios": "https://dc.lft.to/lastmile_qr_scan"}, "is_reserved": 0, "bike_id": "f72693569bce4f18e7ea1bf6b21e27d7", "name": "f72693569bce4f18e7ea1bf6b21e27d7", "fusion_lon": 0.0, "lon": -77.03635483333333, "fusion_lat": 0.0}, {"lat": 38.9090715, "type": "electric_scooter", "is_disabled": 0, "rental_uris": {"android": "https://dc.lft.to/lastmile_qr_scan", "ios": "https://dc.lft.to/lastmile_qr_scan"}, "is_reserved": 0, "bike_id": "8d4dfc4624c63ff9203d19e4f2fb8535", "name": "8d4dfc4624c63ff9203d19e4f2fb8535", "fusion_lon": 0.0, "lon": -77.0339125, "fusion_lat": 0.0}, {"lat": 38.90124866666667, "type": "electric_scooter", "is_disabled": 0, "rental_uris": {"android": "https://dc.lft.to/lastmile_qr_scan", "ios": "https://dc.lft.to/lastmile_qr_scan"}, "is_reserved": 0, "bike_id": "64e42f318f3ac4f8183e9eb5dd972b25", "name": "64e42f318f3ac4f8183e9eb5dd972b25", "fusion_lon": 0.0, "lon": -77.04397716666666, "fusion_lat": 0.0}, {"lat": 38.89585866666667, "type": "electric_scooter", "is_disabled": 0, "rental_uris": {"android": "https://dc.lft.to/lastmile_qr_scan", "ios": "https://dc.lft.to/lastmile_qr_scan"}, "is_reserved": 0, "bike_id": "02f43c9aa67010a105e234f4d8a5f9dc", "name": "02f43c9aa67010a105e234f4d8a5f9dc", "fusion_lon": 0.0, "lon": -77.02312916666666, "fusion_lat": 0.0}, {"lat": 38.903944333333335, "type": "electric_scooter", "is_disabled": 0, "rental_uris": {"android": "https://dc.lft.to/lastmile_qr_scan", "ios": "https://dc.lft.to/lastmile_qr_scan"}, "is_reserved": 0, "bike_id": "9444749ce17c4890b035ff43f51c243b", "name": "9444749ce17c4890b035ff43f51c243b", "fusion_lon": 0.0, "lon": -77.02804816666666, "fusion_lat": 0.0}, {"lat": 38.88737733333333, "type": "electric_scooter", "is_disabled": 0, "rental_uris": {"android": "https://dc.lft.to/lastmile_qr_scan", "ios": "https://dc.lft.to/lastmile_qr_scan"}, "is_reserved": 0, "bike_id": "e0198e5face32ab37f8a5e65db7626c1", "name": "e0198e5face32ab37f8a5e65db7626c1", "fusion_lon": 0.0, "lon": -77.01530233333334, "fusion_lat": 0.0}, {"lat": 38.90126816666667, "type": "electric_scooter", "is_disabled": 0, "rental_uris": {"android": "https://dc.lft.to/lastmile_qr_scan", "ios": "https://dc.lft.to/lastmile_qr_scan"}, "is_reserved": 0, "bike_id": "15dc10c0550ec188ff4cd6ba8e067e3a", "name": "15dc10c0550ec188ff4cd6ba8e067e3a", "fusion_lon": 0.0, "lon": -77.04163866666667, "fusion_lat": 0.0}, {"lat": 38.89538183333333, "type": "electric_scooter", "is_disabled": 0, "rental_uris": {"android": "https://dc.lft.to/lastmile_qr_scan", "ios": "https://dc.lft.to/lastmile_qr_scan"}, "is_reserved": 0, "bike_id": "2a67d044ddbf5647c9637e991f41d0f3", "name": "2a67d044ddbf5647c9637e991f41d0f3", "fusion_lon": 0.0, "lon": -77.01621016666667, "fusion_lat": 0.0}, {"lat": 38.915911666666666, "type": "electric_bike", "is_disabled": 0, "rental_uris": {"android": "https://dc.lft.to/lastmile_qr_scan", "ios": "https://dc.lft.to/lastmile_qr_scan"}, "is_reserved": 0, "bike_id": "d2b76b7d20f59e24f700c12ae71f1d51", "name": "d2b76b7d20f59e24f700c12ae71f1d51", "fusion_lon": 0.0, "lon": -76.97149083333333, "fusion_lat": 0.0}, {"lat": 38.930006166666665, "type": "electric_scooter", "is_disabled": 0, "rental_uris": {"android": "https://dc.lft.to/lastmile_qr_scan", "ios": "https://dc.lft.to/lastmile_qr_scan"}, "is_reserved": 0, "bike_id": "858bc6235048ad33bf70722bfc6cf6df", "name": "858bc6235048ad33bf70722bfc6cf6df", "fusion_lon": 0.0, "lon": -77.02208016666667, "fusion_lat": 0.0}, {"lat": 38.9122125, "type": "electric_scooter", "is_disabled": 0, "rental_uris": {"android": "https://dc.lft.to/lastmile_qr_scan", "ios": "https://dc.lft.to/lastmile_qr_scan"}, "is_reserved": 0, "bike_id": "4606e9ad6621ab463424b6c422a81e8f", "name": "4606e9ad6621ab463424b6c422a81e8f", "fusion_lon": 0.0, "lon": -77.02712783333334, "fusion_lat": 0.0}, {"lat": 38.911025333333335, "type": "electric_scooter", "is_disabled": 0, "rental_uris": {"android": "https://dc.lft.to/lastmile_qr_scan", "ios": "https://dc.lft.to/lastmile_qr_scan"}, "is_reserved": 0, "bike_id": "5f64184aaccb83c386d1f41e2327d39c", "name": "5f64184aaccb83c386d1f41e2327d39c", "fusion_lon": 0.0, "lon": -77.03184766666666, "fusion_lat": 0.0}, {"lat": 38.8757435, "type": "electric_scooter", "is_disabled": 0, "rental_uris": {"android": "https://dc.lft.to/lastmile_qr_scan", "ios": "https://dc.lft.to/lastmile_qr_scan"}, "is_reserved": 0, "bike_id": "a8a867fbca93bb5a928ac42fb9be08b2", "name": "a8a867fbca93bb5a928ac42fb9be08b2", "fusion_lon": 0.0, "lon": -77.02073766666666, "fusion_lat": 0.0}, {"lat": 38.90356383333334, "type": "electric_scooter", "is_disabled": 0, "rental_uris": {"android": "https://dc.lft.to/lastmile_qr_scan", "ios": "https://dc.lft.to/lastmile_qr_scan"}, "is_reserved": 0, "bike_id": "f883014df7ab98d0eb272dfd0cb4d847", "name": "f883014df7ab98d0eb272dfd0cb4d847", "fusion_lon": 0.0, "lon": -77.01112266666667, "fusion_lat": 0.0}, {"lat": 38.90183016666667, "type": "electric_scooter", "is_disabled": 0, "rental_uris": {"android": "https://dc.lft.to/lastmile_qr_scan", "ios": "https://dc.lft.to/lastmile_qr_scan"}, "is_reserved": 0, "bike_id": "45cc7b9d3835263ed367e78bdec9ad76", "name": "45cc7b9d3835263ed367e78bdec9ad76", "fusion_lon": 0.0, "lon": -77.04773433333334, "fusion_lat": 0.0}, {"lat": 38.898404166666666, "type": "electric_scooter", "is_disabled": 0, "rental_uris": {"android": "https://dc.lft.to/lastmile_qr_scan", "ios": "https://dc.lft.to/lastmile_qr_scan"}, "is_reserved": 0, "bike_id": "30641c9cae2ae4e2af256ae9a145cf70", "name": "30641c9cae2ae4e2af256ae9a145cf70", "fusion_lon": 0.0, "lon": -77.0246785, "fusion_lat": 0.0}, {"lat": 38.91251883333334, "type": "electric_scooter", "is_disabled": 0, "rental_uris": {"android": "https://dc.lft.to/lastmile_qr_scan", "ios": "https://dc.lft.to/lastmile_qr_scan"}, "is_reserved": 0, "bike_id": "1b1d35dbae72ec8e96b22604759d74de", "name": "1b1d35dbae72ec8e96b22604759d74de", "fusion_lon": 0.0, "lon": -77.02427883333333, "fusion_lat": 0.0}, {"lat": 38.996694833333336, "type": "electric_bike", "is_disabled": 0, "rental_uris": {"android": "https://dc.lft.to/lastmile_qr_scan", "ios": "https://dc.lft.to/lastmile_qr_scan"}, "is_reserved": 0, "bike_id": "353178461cb77d3f5b8bd83a853d001b", "name": "353178461cb77d3f5b8bd83a853d001b", "fusion_lon": 0.0, "lon": -76.9914375, "fusion_lat": 0.0}, {"lat": 38.9167325, "type": "electric_scooter", "is_disabled": 0, "rental_uris": {"android": "https://dc.lft.to/lastmile_qr_scan", "ios": "https://dc.lft.to/lastmile_qr_scan"}, "is_reserved": 0, "bike_id": "79b7716b917da9c73305e918a2cab58f", "name": "79b7716b917da9c73305e918a2cab58f", "fusion_lon": 0.0, "lon": -77.0296785, "fusion_lat": 0.0}, {"lat": 38.89538816666666, "type": "electric_scooter", "is_disabled": 0, "rental_uris": {"android": "https://dc.lft.to/lastmile_qr_scan", "ios": "https://dc.lft.to/lastmile_qr_scan"}, "is_reserved": 0, "bike_id": "3c8f2b3b8cc45d52b2440631fb9fab62", "name": "3c8f2b3b8cc45d52b2440631fb9fab62", "fusion_lon": 0.0, "lon": -77.0412595, "fusion_lat": 0.0}, {"lat": 38.9057835, "type": "electric_scooter", "is_disabled": 0, "rental_uris": {"android": "https://dc.lft.to/lastmile_qr_scan", "ios": "https://dc.lft.to/lastmile_qr_scan"}, "is_reserved": 0, "bike_id": "783722a5a69579214f53560831328c6a", "name": "783722a5a69579214f53560831328c6a", "fusion_lon": 0.0, "lon": -77.00537683333333, "fusion_lat": 0.0}, {"lat": 38.925246333333334, "type": "electric_scooter", "is_disabled": 0, "rental_uris": {"android": "https://dc.lft.to/lastmile_qr_scan", "ios": "https://dc.lft.to/lastmile_qr_scan"}, "is_reserved": 0, "bike_id": "384f5bc3c78fa0efe0fa0f76638782c8", "name": "384f5bc3c78fa0efe0fa0f76638782c8", "fusion_lon": 0.0, "lon": -77.04416133333334, "fusion_lat": 0.0}, {"lat": 38.935253, "type": "electric_scooter", "is_disabled": 0, "rental_uris": {"android": "https://dc.lft.to/lastmile_qr_scan", "ios": "https://dc.lft.to/lastmile_qr_scan"}, "is_reserved": 0, "bike_id": "f31609f1db9e9df380d7e59ad5d6f8a7", "name": "f31609f1db9e9df380d7e59ad5d6f8a7", "fusion_lon": 0.0, "lon": -77.03258316666667, "fusion_lat": 0.0}, {"lat": 38.900383, "type": "electric_scooter", "is_disabled": 0, "rental_uris": {"android": "https://dc.lft.to/lastmile_qr_scan", "ios": "https://dc.lft.to/lastmile_qr_scan"}, "is_reserved": 0, "bike_id": "387b0d424ea592f6844a8c33829ab7bd", "name": "387b0d424ea592f6844a8c33829ab7bd", "fusion_lon": 0.0, "lon": -76.9882645, "fusion_lat": 0.0}, {"lat": 38.900228, "type": "electric_scooter", "is_disabled": 0, "rental_uris": {"android": "https://dc.lft.to/lastmile_qr_scan", "ios": "https://dc.lft.to/lastmile_qr_scan"}, "is_reserved": 0, "bike_id": "aa908ff49da7d29abec6018f17ffc5d4", "name": "aa908ff49da7d29abec6018f17ffc5d4", "fusion_lon": 0.0, "lon": -76.99868916666667, "fusion_lat": 0.0}, {"lat": 38.91649683333333, "type": "electric_scooter", "is_disabled": 0, "rental_uris": {"android": "https://dc.lft.to/lastmile_qr_scan", "ios": "https://dc.lft.to/lastmile_qr_scan"}, "is_reserved": 0, "bike_id": "a86d6422aae7fc8f45637d704aae2c3d", "name": "a86d6422aae7fc8f45637d704aae2c3d", "fusion_lon": 0.0, "lon": -77.047787, "fusion_lat": 0.0}, {"lat": 38.89223583333333, "type": "electric_scooter", "is_disabled": 0, "rental_uris": {"android": "https://dc.lft.to/lastmile_qr_scan", "ios": "https://dc.lft.to/lastmile_qr_scan"}, "is_reserved": 0, "bike_id": "bbe7a408f5e38f5348457b26ba694783", "name": "bbe7a408f5e38f5348457b26ba694783", "fusion_lon": 0.0, "lon": -77.04364116666666, "fusion_lat": 0.0}, {"lat": 38.90386183333333, "type": "electric_scooter", "is_disabled": 0, "rental_uris": {"android": "https://dc.lft.to/lastmile_qr_scan", "ios": "https://dc.lft.to/lastmile_qr_scan"}, "is_reserved": 0, "bike_id": "e10c514c03b2d03e61ce7e501cd1108e", "name": "e10c514c03b2d03e61ce7e501cd1108e", "fusion_lon": 0.0, "lon": -77.0486925, "fusion_lat": 0.0}, {"lat": 38.916221, "type": "electric_scooter", "is_disabled": 0, "rental_uris": {"android": "https://dc.lft.to/lastmile_qr_scan", "ios": "https://dc.lft.to/lastmile_qr_scan"}, "is_reserved": 0, "bike_id": "435c1b5499d92ef2a89511ec5c3e2b5d", "name": "435c1b5499d92ef2a89511ec5c3e2b5d", "fusion_lon": 0.0, "lon": -77.04019166666667, "fusion_lat": 0.0}, {"lat": 38.900099, "type": "electric_scooter", "is_disabled": 0, "rental_uris": {"android": "https://dc.lft.to/lastmile_qr_scan", "ios": "https://dc.lft.to/lastmile_qr_scan"}, "is_reserved": 0, "bike_id": "9c68c3afdd4fa9b9997c6598b56556ae", "name": "9c68c3afdd4fa9b9997c6598b56556ae", "fusion_lon": 0.0, "lon": -77.00676983333334, "fusion_lat": 0.0}, {"lat": 38.905091166666665, "type": "electric_scooter", "is_disabled": 0, "rental_uris": {"android": "https://dc.lft.to/lastmile_qr_scan", "ios": "https://dc.lft.to/lastmile_qr_scan"}, "is_reserved": 0, "bike_id": "28b9526015035467f166cee055f94f87", "name": "28b9526015035467f166cee055f94f87", "fusion_lon": 0.0, "lon": -77.04982033333333, "fusion_lat": 0.0}, {"lat": 38.90562283333333, "type": "electric_scooter", "is_disabled": 0, "rental_uris": {"android": "https://dc.lft.to/lastmile_qr_scan", "ios": "https://dc.lft.to/lastmile_qr_scan"}, "is_reserved": 0, "bike_id": "bc76c10c361b4f6af534bf0e197f2459", "name": "bc76c10c361b4f6af534bf0e197f2459", "fusion_lon": 0.0, "lon": -77.04664016666666, "fusion_lat": 0.0}, {"lat": 38.89835333333333, "type": "electric_scooter", "is_disabled": 0, "rental_uris": {"android": "https://dc.lft.to/lastmile_qr_scan", "ios": "https://dc.lft.to/lastmile_qr_scan"}, "is_reserved": 0, "bike_id": "1dc60129fdfa65b111302ac3681389b9", "name": "1dc60129fdfa65b111302ac3681389b9", "fusion_lon": 0.0, "lon": -76.9463185, "fusion_lat": 0.0}, {"lat": 38.907671666666666, "type": "electric_scooter", "is_disabled": 0, "rental_uris": {"android": "https://dc.lft.to/lastmile_qr_scan", "ios": "https://dc.lft.to/lastmile_qr_scan"}, "is_reserved": 0, "bike_id": "670dc22417c4eaa19b3a041d678b0204", "name": "670dc22417c4eaa19b3a041d678b0204", "fusion_lon": 0.0, "lon": -77.03841083333333, "fusion_lat": 0.0}, {"lat": 38.933969833333336, "type": "electric_scooter", "is_disabled": 0, "rental_uris": {"android": "https://dc.lft.to/lastmile_qr_scan", "ios": "https://dc.lft.to/lastmile_qr_scan"}, "is_reserved": 0, "bike_id": "ba01abe811cc61bc4df02c8c004f77e6", "name": "ba01abe811cc61bc4df02c8c004f77e6", "fusion_lon": 0.0, "lon": -77.04124483333334, "fusion_lat": 0.0}, {"lat": 38.8993475, "type": "electric_scooter", "is_disabled": 0, "rental_uris": {"android": "https://dc.lft.to/lastmile_qr_scan", "ios": "https://dc.lft.to/lastmile_qr_scan"}, "is_reserved": 0, "bike_id": "d27bb512558fc43cca1d9f0ee5515773", "name": "d27bb512558fc43cca1d9f0ee5515773", "fusion_lon": 0.0, "lon": -77.05474666666667, "fusion_lat": 0.0}, {"lat": 38.9140305, "type": "electric_scooter", "is_disabled": 0, "rental_uris": {"android": "https://dc.lft.to/lastmile_qr_scan", "ios": "https://dc.lft.to/lastmile_qr_scan"}, "is_reserved": 0, "bike_id": "bccace06f52457b77c1b7211d99fc3bb", "name": "bccace06f52457b77c1b7211d99fc3bb", "fusion_lon": 0.0, "lon": -77.03224933333334, "fusion_lat": 0.0}, {"lat": 38.9005695, "type": "electric_scooter", "is_disabled": 0, "rental_uris": {"android": "https://dc.lft.to/lastmile_qr_scan", "ios": "https://dc.lft.to/lastmile_qr_scan"}, "is_reserved": 0, "bike_id": "289500f9c0e01829a8eedf69bda95fca", "name": "289500f9c0e01829a8eedf69bda95fca", "fusion_lon": 0.0, "lon": -77.00751416666667, "fusion_lat": 0.0}, {"lat": 38.87775666666667, "type": "electric_scooter", "is_disabled": 0, "rental_uris": {"android": "https://dc.lft.to/lastmile_qr_scan", "ios": "https://dc.lft.to/lastmile_qr_scan"}, "is_reserved": 0, "bike_id": "9fe52678474f799565d458c6f2beabdc", "name": "9fe52678474f799565d458c6f2beabdc", "fusion_lon": 0.0, "lon": -77.014374, "fusion_lat": 0.0}, {"lat": 38.8487775, "type": "electric_scooter", "is_disabled": 0, "rental_uris": {"android": "https://dc.lft.to/lastmile_qr_scan", "ios": "https://dc.lft.to/lastmile_qr_scan"}, "is_reserved": 0, "bike_id": "d9dcec03ec9b379398feb857f5da6619", "name": "d9dcec03ec9b379398feb857f5da6619", "fusion_lon": 0.0, "lon": -77.00517333333333, "fusion_lat": 0.0}, {"lat": 38.901871166666666, "type": "electric_bike", "is_disabled": 0, "rental_uris": {"android": "https://dc.lft.to/lastmile_qr_scan", "ios": "https://dc.lft.to/lastmile_qr_scan"}, "is_reserved": 0, "bike_id": "cbc9b7a4e375b456f17c8fc7f4f0805a", "name": "cbc9b7a4e375b456f17c8fc7f4f0805a", "fusion_lon": 0.0, "lon": -77.03887116666667, "fusion_lat": 0.0}, {"lat": 38.92072116666667, "type": "electric_scooter", "is_disabled": 0, "rental_uris": {"android": "https://dc.lft.to/lastmile_qr_scan", "ios": "https://dc.lft.to/lastmile_qr_scan"}, "is_reserved": 0, "bike_id": "e6f16e4b8bbed7835a818626edcd522b", "name": "e6f16e4b8bbed7835a818626edcd522b", "fusion_lon": 0.0, "lon": -77.02386616666666, "fusion_lat": 0.0}, {"lat": 38.91812083333333, "type": "electric_scooter", "is_disabled": 0, "rental_uris": {"android": "https://dc.lft.to/lastmile_qr_scan", "ios": "https://dc.lft.to/lastmile_qr_scan"}, "is_reserved": 0, "bike_id": "06f42c59fc54e412a67eba976dea7a6a", "name": "06f42c59fc54e412a67eba976dea7a6a", "fusion_lon": 0.0, "lon": -77.04158233333334, "fusion_lat": 0.0}, {"lat": 38.915389166666664, "type": "electric_scooter", "is_disabled": 0, "rental_uris": {"android": "https://dc.lft.to/lastmile_qr_scan", "ios": "https://dc.lft.to/lastmile_qr_scan"}, "is_reserved": 0, "bike_id": "636c417147c4fdc38de2f77638b861e6", "name": "636c417147c4fdc38de2f77638b861e6", "fusion_lon": 0.0, "lon": -77.02203366666667, "fusion_lat": 0.0}, {"lat": 38.884927, "type": "electric_scooter", "is_disabled": 0, "rental_uris": {"android": "https://dc.lft.to/lastmile_qr_scan", "ios": "https://dc.lft.to/lastmile_qr_scan"}, "is_reserved": 0, "bike_id": "bc4cbee314f1daababc2680b7c695c5f", "name": "bc4cbee314f1daababc2680b7c695c5f", "fusion_lon": 0.0, "lon": -77.00713933333333, "fusion_lat": 0.0}, {"lat": 38.908491833333336, "type": "electric_scooter", "is_disabled": 0, "rental_uris": {"android": "https://dc.lft.to/lastmile_qr_scan", "ios": "https://dc.lft.to/lastmile_qr_scan"}, "is_reserved": 0, "bike_id": "02d6da8e37b292e7e4121144f02964ca", "name": "02d6da8e37b292e7e4121144f02964ca", "fusion_lon": 0.0, "lon": -76.998026, "fusion_lat": 0.0}, {"lat": 38.926011833333334, "type": "electric_scooter", "is_disabled": 0, "rental_uris": {"android": "https://dc.lft.to/lastmile_qr_scan", "ios": "https://dc.lft.to/lastmile_qr_scan"}, "is_reserved": 0, "bike_id": "d86a024923855de0eb58f3ba7729dc8e", "name": "d86a024923855de0eb58f3ba7729dc8e", "fusion_lon": 0.0, "lon": -77.02155366666666, "fusion_lat": 0.0}, {"lat": 38.985039666666665, "type": "electric_bike", "is_disabled": 0, "rental_uris": {"android": "https://dc.lft.to/lastmile_qr_scan", "ios": "https://dc.lft.to/lastmile_qr_scan"}, "is_reserved": 0, "bike_id": "e3c32f6ab801db6da96491464c93d5f1", "name": "e3c32f6ab801db6da96491464c93d5f1", "fusion_lon": 0.0, "lon": -76.9819555, "fusion_lat": 0.0}, {"lat": 38.89981016666667, "type": "electric_scooter", "is_disabled": 0, "rental_uris": {"android": "https://dc.lft.to/lastmile_qr_scan", "ios": "https://dc.lft.to/lastmile_qr_scan"}, "is_reserved": 0, "bike_id": "b51a21f4fa3ec17a97c2ce2c5758ebfd", "name": "b51a21f4fa3ec17a97c2ce2c5758ebfd", "fusion_lon": 0.0, "lon": -77.0297025, "fusion_lat": 0.0}, {"lat": 38.8910275, "type": "electric_scooter", "is_disabled": 0, "rental_uris": {"android": "https://dc.lft.to/lastmile_qr_scan", "ios": "https://dc.lft.to/lastmile_qr_scan"}, "is_reserved": 0, "bike_id": "7f024129358f5b84950de20f6d3373f7", "name": "7f024129358f5b84950de20f6d3373f7", "fusion_lon": 0.0, "lon": -77.00616533333333, "fusion_lat": 0.0}, {"lat": 38.91923883333333, "type": "electric_scooter", "is_disabled": 0, "rental_uris": {"android": "https://dc.lft.to/lastmile_qr_scan", "ios": "https://dc.lft.to/lastmile_qr_scan"}, "is_reserved": 0, "bike_id": "86a48d1b632f346145763f2f41414de0", "name": "86a48d1b632f346145763f2f41414de0", "fusion_lon": 0.0, "lon": -77.03171366666666, "fusion_lat": 0.0}, {"lat": 38.90238566666667, "type": "electric_scooter", "is_disabled": 0, "rental_uris": {"android": "https://dc.lft.to/lastmile_qr_scan", "ios": "https://dc.lft.to/lastmile_qr_scan"}, "is_reserved": 0, "bike_id": "819eda84e7dd4b9f1c0fa2f4f527a8eb", "name": "819eda84e7dd4b9f1c0fa2f4f527a8eb", "fusion_lon": 0.0, "lon": -77.04273266666667, "fusion_lat": 0.0}, {"lat": 38.921592, "type": "electric_scooter", "is_disabled": 0, "rental_uris": {"android": "https://dc.lft.to/lastmile_qr_scan", "ios": "https://dc.lft.to/lastmile_qr_scan"}, "is_reserved": 0, "bike_id": "ea9db8c7bf6f35314436928c78a05ad9", "name": "ea9db8c7bf6f35314436928c78a05ad9", "fusion_lon": 0.0, "lon": -77.04594833333333, "fusion_lat": 0.0}, {"lat": 38.90264716666667, "type": "electric_scooter", "is_disabled": 0, "rental_uris": {"android": "https://dc.lft.to/lastmile_qr_scan", "ios": "https://dc.lft.to/lastmile_qr_scan"}, "is_reserved": 0, "bike_id": "6ea96a7e81dcd940ac94e0196e49760a", "name": "6ea96a7e81dcd940ac94e0196e49760a", "fusion_lon": 0.0, "lon": -77.03631433333334, "fusion_lat": 0.0}, {"lat": 38.924261333333334, "type": "electric_scooter", "is_disabled": 0, "rental_uris": {"android": "https://dc.lft.to/lastmile_qr_scan", "ios": "https://dc.lft.to/lastmile_qr_scan"}, "is_reserved": 0, "bike_id": "85c339c521161fec7625fbbcefb46d9c", "name": "85c339c521161fec7625fbbcefb46d9c", "fusion_lon": 0.0, "lon": -77.04475166666667, "fusion_lat": 0.0}, {"lat": 38.895833833333334, "type": "electric_scooter", "is_disabled": 0, "rental_uris": {"android": "https://dc.lft.to/lastmile_qr_scan", "ios": "https://dc.lft.to/lastmile_qr_scan"}, "is_reserved": 0, "bike_id": "4f8247c8bc0c8f4ec6a6db686d0eacf6", "name": "4f8247c8bc0c8f4ec6a6db686d0eacf6", "fusion_lon": 0.0, "lon": -77.02296416666667, "fusion_lat": 0.0}, {"lat": 38.9352525, "type": "electric_scooter", "is_disabled": 0, "rental_uris": {"android": "https://dc.lft.to/lastmile_qr_scan", "ios": "https://dc.lft.to/lastmile_qr_scan"}, "is_reserved": 0, "bike_id": "7719924a3a4f0b9bed468cc9af30574b", "name": "7719924a3a4f0b9bed468cc9af30574b", "fusion_lon": 0.0, "lon": -77.03256516666667, "fusion_lat": 0.0}, {"lat": 38.91688533333333, "type": "electric_scooter", "is_disabled": 0, "rental_uris": {"android": "https://dc.lft.to/lastmile_qr_scan", "ios": "https://dc.lft.to/lastmile_qr_scan"}, "is_reserved": 0, "bike_id": "9b25a640610d4cdba8cb2e9d063976fd", "name": "9b25a640610d4cdba8cb2e9d063976fd", "fusion_lon": 0.0, "lon": -77.03598866666667, "fusion_lat": 0.0}, {"lat": 38.914860166666664, "type": "electric_scooter", "is_disabled": 0, "rental_uris": {"android": "https://dc.lft.to/lastmile_qr_scan", "ios": "https://dc.lft.to/lastmile_qr_scan"}, "is_reserved": 0, "bike_id": "ffd35ee341778ed7de0cebf21853f193", "name": "ffd35ee341778ed7de0cebf21853f193", "fusion_lon": 0.0, "lon": -77.03241183333333, "fusion_lat": 0.0}, {"lat": 38.88498383333334, "type": "electric_scooter", "is_disabled": 0, "rental_uris": {"android": "https://dc.lft.to/lastmile_qr_scan", "ios": "https://dc.lft.to/lastmile_qr_scan"}, "is_reserved": 0, "bike_id": "1bfd6a191885f25519360bf36531511b", "name": "1bfd6a191885f25519360bf36531511b", "fusion_lon": 0.0, "lon": -77.00895633333333, "fusion_lat": 0.0}, {"lat": 38.91266683333333, "type": "electric_scooter", "is_disabled": 0, "rental_uris": {"android": "https://dc.lft.to/lastmile_qr_scan", "ios": "https://dc.lft.to/lastmile_qr_scan"}, "is_reserved": 0, "bike_id": "bc7a1b4efcddd80db207c05774c08327", "name": "bc7a1b4efcddd80db207c05774c08327", "fusion_lon": 0.0, "lon": -77.04153383333333, "fusion_lat": 0.0}, {"lat": 38.93545316666667, "type": "electric_scooter", "is_disabled": 0, "rental_uris": {"android": "https://dc.lft.to/lastmile_qr_scan", "ios": "https://dc.lft.to/lastmile_qr_scan"}, "is_reserved": 0, "bike_id": "a4597f3ff5daef83c082076386dbd0ad", "name": "a4597f3ff5daef83c082076386dbd0ad", "fusion_lon": 0.0, "lon": -77.05812066666667, "fusion_lat": 0.0}, {"lat": 38.906191666666665, "type": "electric_scooter", "is_disabled": 0, "rental_uris": {"android": "https://dc.lft.to/lastmile_qr_scan", "ios": "https://dc.lft.to/lastmile_qr_scan"}, "is_reserved": 0, "bike_id": "a01475422b3745ef1d9e0dc613c956d5", "name": "a01475422b3745ef1d9e0dc613c956d5", "fusion_lon": 0.0, "lon": -77.04180233333334, "fusion_lat": 0.0}, {"lat": 38.904779833333336, "type": "electric_bike", "is_disabled": 0, "rental_uris": {"android": "https://dc.lft.to/lastmile_qr_scan", "ios": "https://dc.lft.to/lastmile_qr_scan"}, "is_reserved": 0, "bike_id": "4e1fe991f68627ff333a7a164024284b", "name": "4e1fe991f68627ff333a7a164024284b", "fusion_lon": 0.0, "lon": -77.007404, "fusion_lat": 0.0}, {"lat": 38.9110625, "type": "electric_scooter", "is_disabled": 0, "rental_uris": {"android": "https://dc.lft.to/lastmile_qr_scan", "ios": "https://dc.lft.to/lastmile_qr_scan"}, "is_reserved": 0, "bike_id": "8510041510a659391cfe97db50716483", "name": "8510041510a659391cfe97db50716483", "fusion_lon": 0.0, "lon": -77.027623, "fusion_lat": 0.0}, {"lat": 38.91545883333333, "type": "electric_scooter", "is_disabled": 0, "rental_uris": {"android": "https://dc.lft.to/lastmile_qr_scan", "ios": "https://dc.lft.to/lastmile_qr_scan"}, "is_reserved": 0, "bike_id": "526fc92909e64f4765cd6bac59488b71", "name": "526fc92909e64f4765cd6bac59488b71", "fusion_lon": 0.0, "lon": -76.98362516666667, "fusion_lat": 0.0}, {"lat": 38.92785533333333, "type": "electric_scooter", "is_disabled": 0, "rental_uris": {"android": "https://dc.lft.to/lastmile_qr_scan", "ios": "https://dc.lft.to/lastmile_qr_scan"}, "is_reserved": 0, "bike_id": "6717649bae8cd2d914df04688323cee8", "name": "6717649bae8cd2d914df04688323cee8", "fusion_lon": 0.0, "lon": -77.02739666666666, "fusion_lat": 0.0}, {"lat": 38.916782, "type": "electric_bike", "is_disabled": 0, "rental_uris": {"android": "https://dc.lft.to/lastmile_qr_scan", "ios": "https://dc.lft.to/lastmile_qr_scan"}, "is_reserved": 0, "bike_id": "f253bea0f35bb0ccc4b6d406c8d6e90b", "name": "f253bea0f35bb0ccc4b6d406c8d6e90b", "fusion_lon": 0.0, "lon": -77.09573816666666, "fusion_lat": 0.0}, {"lat": 38.909993166666666, "type": "electric_scooter", "is_disabled": 0, "rental_uris": {"android": "https://dc.lft.to/lastmile_qr_scan", "ios": "https://dc.lft.to/lastmile_qr_scan"}, "is_reserved": 0, "bike_id": "a626a3289f1349cebfc281ad122eedb3", "name": "a626a3289f1349cebfc281ad122eedb3", "fusion_lon": 0.0, "lon": -77.040031, "fusion_lat": 0.0}, {"lat": 38.9348075, "type": "electric_scooter", "is_disabled": 0, "rental_uris": {"android": "https://dc.lft.to/lastmile_qr_scan", "ios": "https://dc.lft.to/lastmile_qr_scan"}, "is_reserved": 0, "bike_id": "4ba85fee1435ef9c17170b353e66dade", "name": "4ba85fee1435ef9c17170b353e66dade", "fusion_lon": 0.0, "lon": -77.02403483333333, "fusion_lat": 0.0}, {"lat": 38.91804333333333, "type": "electric_scooter", "is_disabled": 0, "rental_uris": {"android": "https://dc.lft.to/lastmile_qr_scan", "ios": "https://dc.lft.to/lastmile_qr_scan"}, "is_reserved": 0, "bike_id": "14cc09e76a36b38b4aaf45c186a29900", "name": "14cc09e76a36b38b4aaf45c186a29900", "fusion_lon": 0.0, "lon": -77.03562066666667, "fusion_lat": 0.0}, {"lat": 38.924782666666665, "type": "electric_scooter", "is_disabled": 0, "rental_uris": {"android": "https://dc.lft.to/lastmile_qr_scan", "ios": "https://dc.lft.to/lastmile_qr_scan"}, "is_reserved": 0, "bike_id": "615c90b5a90b5e32adf1bf5e4857922c", "name": "615c90b5a90b5e32adf1bf5e4857922c", "fusion_lon": 0.0, "lon": -77.02996166666667, "fusion_lat": 0.0}, {"lat": 38.90613583333333, "type": "electric_scooter", "is_disabled": 0, "rental_uris": {"android": "https://dc.lft.to/lastmile_qr_scan", "ios": "https://dc.lft.to/lastmile_qr_scan"},