{"data": {"bikes": [{"rental_uris": {"android": "https://dc.lft.to/lastmile_qr_scan", "ios": "https://dc.lft.to/lastmile_qr_scan"}, "lon": -77.04208766666666, "name": "b9dbc0724611623042ceb1fd31b2b8fe", "lat": 38.9215485, "is_reserved": 0, "fusion_lat": 0.0, "bike_id": "b9dbc0724611623042ceb1fd31b2b8fe", "type": "electric_scooter", "is_disabled": 0, "fusion_lon": 0.0}, {"rental_uris": {"android": "https://dc.lft.to/lastmile_qr_scan", "ios": "https://dc.lft.to/lastmile_qr_scan"}, "lon": -77.01976266666667, "name": "8a90f44603c7908f0793009dffbac697", "lat": 38.899083833333336, "is_reserved": 0, "fusion_lat": 0.0, "bike_id": "8a90f44603c7908f0793009dffbac697", "type": "electric_scooter", "is_disabled": 0, "fusion_lon": 0.0}, {"rental_uris": {"android": "https://dc.lft.to/lastmile_qr_scan", "ios": "https://dc.lft.to/lastmile_qr_scan"}, "lon": -77.02804866666666, "name": "de2e28a15cb5d1f4a01242fbdc3cd0f3", "lat": 38.91751633333333, "is_reserved": 0, "fusion_lat": 0.0, "bike_id": "de2e28a15cb5d1f4a01242fbdc3cd0f3", "type": "electric_scooter", "is_disabled": 0, "fusion_lon": 0.0}, {"rental_uris": {"android": "https://dc.lft.to/lastmile_qr_scan", "ios": "https://dc.lft.to/lastmile_qr_scan"}, "lon": -77.02726066666666, "name": "57df1846d2b033c1accfe2b21aec6c40", "lat": 38.90355, "is_reserved": 0, "fusion_lat": 0.0, "bike_id": "57df1846d2b033c1accfe2b21aec6c40", "type": "electric_scooter", "is_disabled": 0, "fusion_lon": 0.0}, {"rental_uris": {"android": "https://dc.lft.to/lastmile_qr_scan", "ios": "https://dc.lft.to/lastmile_qr_scan"}, "lon": -77.0417095, "name": "22794b54a3e534a4eff6140b5ac8f1b8", "lat": 38.91392183333333, "is_reserved": 0, "fusion_lat": 0.0, "bike_id": "22794b54a3e534a4eff6140b5ac8f1b8", "type": "electric_scooter", "is_disabled": 0, "fusion_lon": 0.0}, {"rental_uris": {"android": "https://dc.lft.to/lastmile_qr_scan", "ios": "https://dc.lft.to/lastmile_qr_scan"}, "lon": -76.99411916666666, "name": "5db639a651dc8cd144dd84595112330e", "lat": 38.92178583333333, "is_reserved": 0, "fusion_lat": 0.0, "bike_id": "5db639a651dc8cd144dd84595112330e", "type": "electric_bike", "is_disabled": 0, "fusion_lon": 0.0}, {"rental_uris": {"android": "https://dc.lft.to/lastmile_qr_scan", "ios": "https://dc.lft.to/lastmile_qr_scan"}, "lon": -76.9853135, "name": "486497d13cfc41d717f85b464d532801", "lat": 38.90416183333333, "is_reserved": 0, "fusion_lat": 0.0, "bike_id": "486497d13cfc41d717f85b464d532801", "type": "electric_scooter", "is_disabled": 0, "fusion_lon": 0.0}, {"rental_uris": {"android": "https://dc.lft.to/lastmile_qr_scan", "ios": "https://dc.lft.to/lastmile_qr_scan"}, "lon": -77.03269183333333, "name": "b141037f54b1361dc7246fc15de3ff2a", "lat": 38.932143833333335, "is_reserved": 0, "fusion_lat": 0.0, "bike_id": "b141037f54b1361dc7246fc15de3ff2a", "type": "electric_scooter", "is_disabled": 0, "fusion_lon": 0.0}, {"rental_uris": {"android": "https://dc.lft.to/lastmile_qr_scan", "ios": "https://dc.lft.to/lastmile_qr_scan"}, "lon": -77.03231583333333, "name": "7df3761292e9185c9eb587b587207f53", "lat": 38.93706983333333, "is_reserved": 0, "fusion_lat": 0.0, "bike_id": "7df3761292e9185c9eb587b587207f53", "type": "electric_scooter", "is_disabled": 0, "fusion_lon": 0.0}, {"rental_uris": {"android": "https://dc.lft.to/lastmile_qr_scan", "ios": "https://dc.lft.to/lastmile_qr_scan"}, "lon": -77.04168266666667, "name": "40b5b0279566b029670ed414a8c8f591", "lat": 38.90831633333333, "is_reserved": 0, "fusion_lat": 0.0, "bike_id": "40b5b0279566b029670ed414a8c8f591", "type": "electric_scooter", "is_disabled": 0, "fusion_lon": 0.0}, {"rental_uris": {"android": "https://dc.lft.to/lastmile_qr_scan", "ios": "https://dc.lft.to/lastmile_qr_scan"}, "lon": -77.02229283333334, "name": "18b20e89edc0d9acf2372ae143326f27", "lat": 38.90163733333333, "is_reserved": 0, "fusion_lat": 0.0, "bike_id": "18b20e89edc0d9acf2372ae143326f27", "type": "electric_scooter", "is_disabled": 0, "fusion_lon": 0.0}, {"rental_uris": {"android": "https://dc.lft.to/lastmile_qr_scan", "ios": "https://dc.lft.to/lastmile_qr_scan"}, "lon": -76.97487783333334, "name": "1bb230d506e5900a5fab87d7443471f3", "lat": 38.86384733333333, "is_reserved": 0, "fusion_lat": 0.0, "bike_id": "1bb230d506e5900a5fab87d7443471f3", "type": "electric_bike", "is_disabled": 0, "fusion_lon": 0.0}, {"rental_uris": {"android": "https://dc.lft.to/lastmile_qr_scan", "ios": "https://dc.lft.to/lastmile_qr_scan"}, "lon": -76.99004716666667, "name": "03f8157506149b238c79e169582660e5", "lat": 38.8650695, "is_reserved": 0, "fusion_lat": 0.0, "bike_id": "03f8157506149b238c79e169582660e5", "type": "electric_scooter", "is_disabled": 0, "fusion_lon": 0.0}, {"rental_uris": {"android": "https://dc.lft.to/lastmile_qr_scan", "ios": "https://dc.lft.to/lastmile_qr_scan"}, "lon": -77.01418366666667, "name": "ef12c2c87e38ea060cb094dd7daea4b5", "lat": 38.90650266666667, "is_reserved": 0, "fusion_lat": 0.0, "bike_id": "ef12c2c87e38ea060cb094dd7daea4b5", "type": "electric_scooter", "is_disabled": 0, "fusion_lon": 0.0}, {"rental_uris": {"android": "https://dc.lft.to/lastmile_qr_scan", "ios": "https://dc.lft.to/lastmile_qr_scan"}, "lon": -76.98004016666667, "name": "c0b87c6c4d13dff3dfa1825199316619", "lat": 38.864317666666665, "is_reserved": 0, "fusion_lat": 0.0, "bike_id": "c0b87c6c4d13dff3dfa1825199316619", "type": "electric_scooter", "is_disabled": 0, "fusion_lon": 0.0}, {"rental_uris": {"android": "https://dc.lft.to/lastmile_qr_scan", "ios": "https://dc.lft.to/lastmile_qr_scan"}, "lon": -77.05124333333333, "name": "416aa610d2f9fafa8ef17abec3230600", "lat": 38.905022333333335, "is_reserved": 0, "fusion_lat": 0.0, "bike_id": "416aa610d2f9fafa8ef17abec3230600", "type": "electric_scooter", "is_disabled": 0, "fusion_lon": 0.0}, {"rental_uris": {"android": "https://dc.lft.to/lastmile_qr_scan", "ios": "https://dc.lft.to/lastmile_qr_scan"}, "lon": -77.04703016666667, "name": "d5cb8dadb719065f6d45835decb8fc7e", "lat": 38.9217245, "is_reserved": 0, "fusion_lat": 0.0, "bike_id": "d5cb8dadb719065f6d45835decb8fc7e", "type": "electric_scooter", "is_disabled": 0, "fusion_lon": 0.0}, {"rental_uris": {"android": "https://dc.lft.to/lastmile_qr_scan", "ios": "https://dc.lft.to/lastmile_qr_scan"}, "lon": -77.023768, "name": "b75b8bcc0af4676b4c2c70c7d4ef15cd", "lat": 38.907227166666665, "is_reserved": 0, "fusion_lat": 0.0, "bike_id": "b75b8bcc0af4676b4c2c70c7d4ef15cd", "type": "electric_scooter", "is_disabled": 0, "fusion_lon": 0.0}, {"rental_uris": {"android": "https://dc.lft.to/lastmile_qr_scan", "ios": "https://dc.lft.to/lastmile_qr_scan"}, "lon": -77.02722633333333, "name": "cfd7d83ed729856a2890994b3a8200f1", "lat": 38.911030333333336, "is_reserved": 0, "fusion_lat": 0.0, "bike_id": "cfd7d83ed729856a2890994b3a8200f1", "type": "electric_scooter", "is_disabled": 0, "fusion_lon": 0.0}, {"rental_uris": {"android": "https://dc.lft.to/lastmile_qr_scan", "ios": "https://dc.lft.to/lastmile_qr_scan"}, "lon": -77.0001535, "name": "4ca043901254e4e1042f5a081dd67bb8", "lat": 38.874854166666665, "is_reserved": 0, "fusion_lat": 0.0, "bike_id": "4ca043901254e4e1042f5a081dd67bb8", "type": "electric_scooter", "is_disabled": 0, "fusion_lon": 0.0}, {"rental_uris": {"android": "https://dc.lft.to/lastmile_qr_scan", "ios": "https://dc.lft.to/lastmile_qr_scan"}, "lon": -77.04490316666667, "name": "c0ce8cc0c21fb59fa2b298ff3b48b300", "lat": 38.912776666666666, "is_reserved": 0, "fusion_lat": 0.0, "bike_id": "c0ce8cc0c21fb59fa2b298ff3b48b300", "type": "electric_scooter", "is_disabled": 0, "fusion_lon": 0.0}, {"rental_uris": {"android": "https://dc.lft.to/lastmile_qr_scan", "ios": "https://dc.lft.to/lastmile_qr_scan"}, "lon": -77.02749416666667, "name": "5c2ac80845c8b2bf1f998a6fdfd86e3b", "lat": 38.94393383333333, "is_reserved": 0, "fusion_lat": 0.0, "bike_id": "5c2ac80845c8b2bf1f998a6fdfd86e3b", "type": "electric_scooter", "is_disabled": 0, "fusion_lon": 0.0}, {"rental_uris": {"android": "https://dc.lft.to/lastmile_qr_scan", "ios": "https://dc.lft.to/lastmile_qr_scan"}, "lon": -76.99597316666667, "name": "062038a46af03e663ed46563ad59eb43", "lat": 38.92847166666667, "is_reserved": 0, "fusion_lat": 0.0, "bike_id": "062038a46af03e663ed46563ad59eb43", "type": "electric_scooter", "is_disabled": 0, "fusion_lon": 0.0}, {"rental_uris": {"android": "https://dc.lft.to/lastmile_qr_scan", "ios": "https://dc.lft.to/lastmile_qr_scan"}, "lon": -77.02959333333334, "name": "b8e5762f8b0181b903514d4fca3c8e62", "lat": 38.92245616666666, "is_reserved": 0, "fusion_lat": 0.0, "bike_id": "b8e5762f8b0181b903514d4fca3c8e62", "type": "electric_scooter", "is_disabled": 0, "fusion_lon": 0.0}, {"rental_uris": {"android": "https://dc.lft.to/lastmile_qr_scan", "ios": "https://dc.lft.to/lastmile_qr_scan"}, "lon": -77.04013683333334, "name": "55fd20852f88335c110d7adc26db9c8b", "lat": 38.896283333333336, "is_reserved": 0, "fusion_lat": 0.0, "bike_id": "55fd20852f88335c110d7adc26db9c8b", "type": "electric_scooter", "is_disabled": 0, "fusion_lon": 0.0}, {"rental_uris": {"android": "https://dc.lft.to/lastmile_qr_scan", "ios": "https://dc.lft.to/lastmile_qr_scan"}, "lon": -77.03855533333333, "name": "a0f76da35dd8980920095c4d3d31ebfd", "lat": 38.90270433333333, "is_reserved": 0, "fusion_lat": 0.0, "bike_id": "a0f76da35dd8980920095c4d3d31ebfd", "type": "electric_scooter", "is_disabled": 0, "fusion_lon": 0.0}, {"rental_uris": {"android": "https://dc.lft.to/lastmile_qr_scan", "ios": "https://dc.lft.to/lastmile_qr_scan"}, "lon": -76.99040366666667, "name": "4a027d9d809b0878ea649318f6874dfe", "lat": 38.86389766666667, "is_reserved": 0, "fusion_lat": 0.0, "bike_id": "4a027d9d809b0878ea649318f6874dfe", "type": "electric_scooter", "is_disabled": 0, "fusion_lon": 0.0}, {"rental_uris": {"android": "https://dc.lft.to/lastmile_qr_scan", "ios": "https://dc.lft.to/lastmile_qr_scan"}, "lon": -77.03488716666666, "name": "bee53a966f778569ed232afb529c137e", "lat": 38.909727833333335, "is_reserved": 0, "fusion_lat": 0.0, "bike_id": "bee53a966f778569ed232afb529c137e", "type": "electric_scooter", "is_disabled": 0, "fusion_lon": 0.0}, {"rental_uris": {"android": "https://dc.lft.to/lastmile_qr_scan", "ios": "https://dc.lft.to/lastmile_qr_scan"}, "lon": -77.00420366666667, "name": "611c2fcd8056c7e7c693bc8fbe324cb1", "lat": 38.875819666666665, "is_reserved": 0, "fusion_lat": 0.0, "bike_id": "611c2fcd8056c7e7c693bc8fbe324cb1", "type": "electric_scooter", "is_disabled": 0, "fusion_lon": 0.0}, {"rental_uris": {"android": "https://dc.lft.to/lastmile_qr_scan", "ios": "https://dc.lft.to/lastmile_qr_scan"}, "lon": -77.04198583333333, "name": "35af8b24b9e83721777c4abd946a77c4", "lat": 38.8922275, "is_reserved": 0, "fusion_lat": 0.0, "bike_id": "35af8b24b9e83721777c4abd946a77c4", "type": "electric_scooter", "is_disabled": 0, "fusion_lon": 0.0}, {"rental_uris": {"android": "https://dc.lft.to/lastmile_qr_scan", "ios": "https://dc.lft.to/lastmile_qr_scan"}, "lon": -77.03869366666666, "name": "6d6c6add68c11e0a34b9e075e3341d79", "lat": 38.9905815, "is_reserved": 0, "fusion_lat": 0.0, "bike_id": "6d6c6add68c11e0a34b9e075e3341d79", "type": "electric_bike", "is_disabled": 0, "fusion_lon": 0.0}, {"rental_uris": {"android": "https://dc.lft.to/lastmile_qr_scan", "ios": "https://dc.lft.to/lastmile_qr_scan"}, "lon": -77.02697733333333, "name": "5df7be4659f282120b3323ceb91ecb72", "lat": 38.949808, "is_reserved": 0, "fusion_lat": 0.0, "bike_id": "5df7be4659f282120b3323ceb91ecb72", "type": "electric_scooter", "is_disabled": 0, "fusion_lon": 0.0}, {"rental_uris": {"android": "https://dc.lft.to/lastmile_qr_scan", "ios": "https://dc.lft.to/lastmile_qr_scan"}, "lon": -76.987343, "name": "6b72882b8b75074515e360eabab53752", "lat": 38.8354955, "is_reserved": 0, "fusion_lat": 0.0, "bike_id": "6b72882b8b75074515e360eabab53752", "type": "electric_bike", "is_disabled": 0, "fusion_lon": 0.0}, {"rental_uris": {"android": "https://dc.lft.to/lastmile_qr_scan", "ios": "https://dc.lft.to/lastmile_qr_scan"}, "lon": -77.0121785, "name": "d90ee56b42d02b0edb52aa0dffed0b80", "lat": 38.916834, "is_reserved": 0, "fusion_lat": 0.0, "bike_id": "d90ee56b42d02b0edb52aa0dffed0b80", "type": "electric_scooter", "is_disabled": 0, "fusion_lon": 0.0}, {"rental_uris": {"android": "https://dc.lft.to/lastmile_qr_scan", "ios": "https://dc.lft.to/lastmile_qr_scan"}, "lon": -76.98794316666667, "name": "e582dca8d875d29bf2d20eb03e99410b", "lat": 38.844895333333334, "is_reserved": 0, "fusion_lat": 0.0, "bike_id": "e582dca8d875d29bf2d20eb03e99410b", "type": "electric_scooter", "is_disabled": 0, "fusion_lon": 0.0}, {"rental_uris": {"android": "https://dc.lft.to/lastmile_qr_scan", "ios": "https://dc.lft.to/lastmile_qr_scan"}, "lon": -77.00235416666666, "name": "640649d35f271e30f625a5f895349e3f", "lat": 38.90779466666667, "is_reserved": 0, "fusion_lat": 0.0, "bike_id": "640649d35f271e30f625a5f895349e3f", "type": "electric_scooter", "is_disabled": 0, "fusion_lon": 0.0}, {"rental_uris": {"android": "https://dc.lft.to/lastmile_qr_scan", "ios": "https://dc.lft.to/lastmile_qr_scan"}, "lon": -77.017797, "name": "571d8529699bf96d9d5bedf0d7d57fbb", "lat": 38.887145833333335, "is_reserved": 0, "fusion_lat": 0.0, "bike_id": "571d8529699bf96d9d5bedf0d7d57fbb", "type": "electric_scooter", "is_disabled": 0, "fusion_lon": 0.0}, {"rental_uris": {"android": "https://dc.lft.to/lastmile_qr_scan", "ios": "https://dc.lft.to/lastmile_qr_scan"}, "lon": -77.02384316666667, "name": "8a458a8ffeb2ea8a4a0462dd119e01eb", "lat": 38.89223033333333, "is_reserved": 0, "fusion_lat": 0.0, "bike_id": "8a458a8ffeb2ea8a4a0462dd119e01eb", "type": "electric_scooter", "is_disabled": 0, "fusion_lon": 0.0}, {"rental_uris": {"android": "https://dc.lft.to/lastmile_qr_scan", "ios": "https://dc.lft.to/lastmile_qr_scan"}, "lon": -77.04231666666666, "name": "9a736d91543921e1294400531e525e45", "lat": 38.90291083333334, "is_reserved": 0, "fusion_lat": 0.0, "bike_id": "9a736d91543921e1294400531e525e45", "type": "electric_scooter", "is_disabled": 0, "fusion_lon": 0.0}, {"rental_uris": {"android": "https://dc.lft.to/lastmile_qr_scan", "ios": "https://dc.lft.to/lastmile_qr_scan"}, "lon": -77.04003833333333, "name": "a4d6800f04620f495a7860f95f87d003", "lat": 38.92170766666667, "is_reserved": 0, "fusion_lat": 0.0, "bike_id": "a4d6800f04620f495a7860f95f87d003", "type": "electric_scooter", "is_disabled": 0, "fusion_lon": 0.0}, {"rental_uris": {"android": "https://dc.lft.to/lastmile_qr_scan", "ios": "https://dc.lft.to/lastmile_qr_scan"}, "lon": -76.98679366666667, "name": "22b1417d91b44df897c5407d35133149", "lat": 38.89361566666667, "is_reserved": 0, "fusion_lat": 0.0, "bike_id": "22b1417d91b44df897c5407d35133149", "type": "electric_scooter", "is_disabled": 0, "fusion_lon": 0.0}, {"rental_uris": {"android": "https://dc.lft.to/lastmile_qr_scan", "ios": "https://dc.lft.to/lastmile_qr_scan"}, "lon": -77.00737516666666, "name": "63e321069929864f8d886c8f03536374", "lat": 38.8983515, "is_reserved": 0, "fusion_lat": 0.0, "bike_id": "63e321069929864f8d886c8f03536374", "type": "electric_scooter", "is_disabled": 0, "fusion_lon": 0.0}, {"rental_uris": {"android": "https://dc.lft.to/lastmile_qr_scan", "ios": "https://dc.lft.to/lastmile_qr_scan"}, "lon": -76.9882505, "name": "a22585b5c0966c545318be23b8a8d395", "lat": 38.890801833333335, "is_reserved": 0, "fusion_lat": 0.0, "bike_id": "a22585b5c0966c545318be23b8a8d395", "type": "electric_scooter", "is_disabled": 0, "fusion_lon": 0.0}, {"rental_uris": {"android": "https://dc.lft.to/lastmile_qr_scan", "ios": "https://dc.lft.to/lastmile_qr_scan"}, "lon": -77.0374715, "name": "6d735fe68a18543371383ce442fe7b4f", "lat": 38.91614783333333, "is_reserved": 0, "fusion_lat": 0.0, "bike_id": "6d735fe68a18543371383ce442fe7b4f", "type": "electric_scooter", "is_disabled": 0, "fusion_lon": 0.0}, {"rental_uris": {"android": "https://dc.lft.to/lastmile_qr_scan", "ios": "https://dc.lft.to/lastmile_qr_scan"}, "lon": -76.98407433333334, "name": "c1d703b91503c579e0383decb50f7278", "lat": 38.9081425, "is_reserved": 0, "fusion_lat": 0.0, "bike_id": "c1d703b91503c579e0383decb50f7278", "type": "electric_scooter", "is_disabled": 0, "fusion_lon": 0.0}, {"rental_uris": {"android": "https://dc.lft.to/lastmile_qr_scan", "ios": "https://dc.lft.to/lastmile_qr_scan"}, "lon": -77.03786583333333, "name": "c75c26104a8656c11a86a936afbcac4e", "lat": 38.926968333333335, "is_reserved": 0, "fusion_lat": 0.0, "bike_id": "c75c26104a8656c11a86a936afbcac4e", "type": "electric_scooter", "is_disabled": 0, "fusion_lon": 0.0}, {"rental_uris": {"android": "https://dc.lft.to/lastmile_qr_scan", "ios": "https://dc.lft.to/lastmile_qr_scan"}, "lon": -76.99739183333334, "name": "bff2117743dc76b0c2055902ebd21ee9", "lat": 38.86154766666667, "is_reserved": 0, "fusion_lat": 0.0, "bike_id": "bff2117743dc76b0c2055902ebd21ee9", "type": "electric_scooter", "is_disabled": 0, "fusion_lon": 0.0}, {"rental_uris": {"android": "https://dc.lft.to/lastmile_qr_scan", "ios": "https://dc.lft.to/lastmile_qr_scan"}, "lon": -77.02576133333334, "name": "fa9c321cf1f0f5e7f9065857d6abcdcb", "lat": 38.92046666666667, "is_reserved": 0, "fusion_lat": 0.0, "bike_id": "fa9c321cf1f0f5e7f9065857d6abcdcb", "type": "electric_scooter", "is_disabled": 0, "fusion_lon": 0.0}, {"rental_uris": {"android": "https://dc.lft.to/lastmile_qr_scan", "ios": "https://dc.lft.to/lastmile_qr_scan"}, "lon": -77.07279183333333, "name": "2139a90c7d16f901d3244d0a87f1f185", "lat": 38.934674333333334, "is_reserved": 0, "fusion_lat": 0.0, "bike_id": "2139a90c7d16f901d3244d0a87f1f185", "type": "electric_scooter", "is_disabled": 0, "fusion_lon": 0.0}, {"rental_uris": {"android": "https://dc.lft.to/lastmile_qr_scan", "ios": "https://dc.lft.to/lastmile_qr_scan"}, "lon": -77.00947383333333, "name": "90f66bc1076fc07f9a54b81a8cb195f4", "lat": 38.92124483333333, "is_reserved": 0, "fusion_lat": 0.0, "bike_id": "90f66bc1076fc07f9a54b81a8cb195f4", "type": "electric_bike", "is_disabled": 0, "fusion_lon": 0.0}, {"rental_uris": {"android": "https://dc.lft.to/lastmile_qr_scan", "ios": "https://dc.lft.to/lastmile_qr_scan"}, "lon": -76.94145183333333, "name": "4ca1d8c97a005464964652f13e1e3f50", "lat": 38.9017815, "is_reserved": 0, "fusion_lat": 0.0, "bike_id": "4ca1d8c97a005464964652f13e1e3f50", "type": "electric_scooter", "is_disabled": 0, "fusion_lon": 0.0}, {"rental_uris": {"android": "https://dc.lft.to/lastmile_qr_scan", "ios": "https://dc.lft.to/lastmile_qr_scan"}, "lon": -77.03643633333333, "name": "e804158fbb7b4523b8dab2a40c3cd64d", "lat": 38.901421166666665, "is_reserved": 0, "fusion_lat": 0.0, "bike_id": "e804158fbb7b4523b8dab2a40c3cd64d", "type": "electric_scooter", "is_disabled": 0, "fusion_lon": 0.0}, {"rental_uris": {"android": "https://dc.lft.to/lastmile_qr_scan", "ios": "https://dc.lft.to/lastmile_qr_scan"}, "lon": -77.02189316666667, "name": "3b4313ac29d2016dc379d3a68f3aa8e4", "lat": 38.90975783333333, "is_reserved": 0, "fusion_lat": 0.0, "bike_id": "3b4313ac29d2016dc379d3a68f3aa8e4", "type": "electric_scooter", "is_disabled": 0, "fusion_lon": 0.0}, {"rental_uris": {"android": "https://dc.lft.to/lastmile_qr_scan", "ios": "https://dc.lft.to/lastmile_qr_scan"}, "lon": -77.0022195, "name": "c26ee9330e6b7ed589ee56f97a7ca6b0", "lat": 38.894857333333334, "is_reserved": 0, "fusion_lat": 0.0, "bike_id": "c26ee9330e6b7ed589ee56f97a7ca6b0", "type": "electric_scooter", "is_disabled": 0, "fusion_lon": 0.0}, {"rental_uris": {"android": "https://dc.lft.to/lastmile_qr_scan", "ios": "https://dc.lft.to/lastmile_qr_scan"}, "lon": -76.98227966666667, "name": "acc3d698667e911c045b343457aa8e8e", "lat": 38.864732333333336, "is_reserved": 0, "fusion_lat": 0.0, "bike_id": "acc3d698667e911c045b343457aa8e8e", "type": "electric_scooter", "is_disabled": 0, "fusion_lon": 0.0}, {"rental_uris": {"android": "https://dc.lft.to/lastmile_qr_scan", "ios": "https://dc.lft.to/lastmile_qr_scan"}, "lon": -77.0248795, "name": "ffbad024e04f078f387fa53aeee923a6", "lat": 38.9418485, "is_reserved": 0, "fusion_lat": 0.0, "bike_id": "ffbad024e04f078f387fa53aeee923a6", "type": "electric_scooter", "is_disabled": 0, "fusion_lon": 0.0}, {"rental_uris": {"android": "https://dc.lft.to/lastmile_qr_scan", "ios": "https://dc.lft.to/lastmile_qr_scan"}, "lon": -77.02243616666667, "name": "7b2686e04ea81f0e42a777071c9e2539", "lat": 38.90858016666667, "is_reserved": 0, "fusion_lat": 0.0, "bike_id": "7b2686e04ea81f0e42a777071c9e2539", "type": "electric_scooter", "is_disabled": 0, "fusion_lon": 0.0}, {"rental_uris": {"android": "https://dc.lft.to/lastmile_qr_scan", "ios": "https://dc.lft.to/lastmile_qr_scan"}, "lon": -77.02697083333334, "name": "1c5395b6b035be2ca294adf6ff7698ee", "lat": 38.894570333333334, "is_reserved": 0, "fusion_lat": 0.0, "bike_id": "1c5395b6b035be2ca294adf6ff7698ee", "type": "electric_scooter", "is_disabled": 0, "fusion_lon": 0.0}, {"rental_uris": {"android": "https://dc.lft.to/lastmile_qr_scan", "ios": "https://dc.lft.to/lastmile_qr_scan"}, "lon": -77.0472885, "name": "54acdeb2105320a6412280ff1ad5a2fd", "lat": 38.897226333333336, "is_reserved": 0, "fusion_lat": 0.0, "bike_id": "54acdeb2105320a6412280ff1ad5a2fd", "type": "electric_scooter", "is_disabled": 0, "fusion_lon": 0.0}, {"rental_uris": {"android": "https://dc.lft.to/lastmile_qr_scan", "ios": "https://dc.lft.to/lastmile_qr_scan"}, "lon": -76.98438966666667, "name": "99221d8269028884ca265bf6ec689fd9", "lat": 38.85519016666667, "is_reserved": 0, "fusion_lat": 0.0, "bike_id": "99221d8269028884ca265bf6ec689fd9", "type": "electric_bike", "is_disabled": 0, "fusion_lon": 0.0}, {"rental_uris": {"android": "https://dc.lft.to/lastmile_qr_scan", "ios": "https://dc.lft.to/lastmile_qr_scan"}, "lon": -77.0045905, "name": "124b40a6f1e29e2d82a8294c35ad4503", "lat": 38.91241483333334, "is_reserved": 0, "fusion_lat": 0.0, "bike_id": "124b40a6f1e29e2d82a8294c35ad4503", "type": "electric_scooter", "is_disabled": 0, "fusion_lon": 0.0}, {"rental_uris": {"android": "https://dc.lft.to/lastmile_qr_scan", "ios": "https://dc.lft.to/lastmile_qr_scan"}, "lon": -77.0020245, "name": "f072e1a102f5bd122c37d4cfc2d514ef", "lat": 38.9003545, "is_reserved": 0, "fusion_lat": 0.0, "bike_id": "f072e1a102f5bd122c37d4cfc2d514ef", "type": "electric_scooter", "is_disabled": 0, "fusion_lon": 0.0}, {"rental_uris": {"android": "https://dc.lft.to/lastmile_qr_scan", "ios": "https://dc.lft.to/lastmile_qr_scan"}, "lon": -77.03846833333333, "name": "b1118b0297885b71dc49633dac68a728", "lat": 38.9265065, "is_reserved": 0, "fusion_lat": 0.0, "bike_id": "b1118b0297885b71dc49633dac68a728", "type": "electric_scooter", "is_disabled": 0, "fusion_lon": 0.0}, {"rental_uris": {"android": "https://dc.lft.to/lastmile_qr_scan", "ios": "https://dc.lft.to/lastmile_qr_scan"}, "lon": -76.99557983333334, "name": "1d055873f6591d5354e8965615f0b203", "lat": 38.900263833333334, "is_reserved": 0, "fusion_lat": 0.0, "bike_id": "1d055873f6591d5354e8965615f0b203", "type": "electric_scooter", "is_disabled": 0, "fusion_lon": 0.0}, {"rental_uris": {"android": "https://dc.lft.to/lastmile_qr_scan", "ios": "https://dc.lft.to/lastmile_qr_scan"}, "lon": -76.98358633333334, "name": "4bd5b798e85df303479fb1a835915ddc", "lat": 38.894361, "is_reserved": 0, "fusion_lat": 0.0, "bike_id": "4bd5b798e85df303479fb1a835915ddc", "type": "electric_scooter", "is_disabled": 0, "fusion_lon": 0.0}, {"rental_uris": {"android": "https://dc.lft.to/lastmile_qr_scan", "ios": "https://dc.lft.to/lastmile_qr_scan"}, "lon": -77.03843833333333, "name": "7264c5968ed7d6e27fcabf7689c1d498", "lat": 38.91211583333333, "is_reserved": 0, "fusion_lat": 0.0, "bike_id": "7264c5968ed7d6e27fcabf7689c1d498", "type": "electric_scooter", "is_disabled": 0, "fusion_lon": 0.0}, {"rental_uris": {"android": "https://dc.lft.to/lastmile_qr_scan", "ios": "https://dc.lft.to/lastmile_qr_scan"}, "lon": -77.01959566666666, "name": "15481bc6d2c49c857cb02bbfbbba8b5a", "lat": 38.89253566666667, "is_reserved": 0, "fusion_lat": 0.0, "bike_id": "15481bc6d2c49c857cb02bbfbbba8b5a", "type": "electric_scooter", "is_disabled": 0, "fusion_lon": 0.0}, {"rental_uris": {"android": "https://dc.lft.to/lastmile_qr_scan", "ios": "https://dc.lft.to/lastmile_qr_scan"}, "lon": -77.0242095, "name": "ea5e70a29c9a02042c7dab5ddaa724bc", "lat": 38.9265785, "is_reserved": 0, "fusion_lat": 0.0, "bike_id": "ea5e70a29c9a02042c7dab5ddaa724bc", "type": "electric_scooter", "is_disabled": 0, "fusion_lon": 0.0}, {"rental_uris": {"android": "https://dc.lft.to/lastmile_qr_scan", "ios": "https://dc.lft.to/lastmile_qr_scan"}, "lon": -77.0237555, "name": "b84097de3534846c05042d07ec95c594", "lat": 38.907267833333336, "is_reserved": 0, "fusion_lat": 0.0, "bike_id": "b84097de3534846c05042d07ec95c594", "type": "electric_scooter", "is_disabled": 0, "fusion_lon": 0.0}, {"rental_uris": {"android": "https://dc.lft.to/lastmile_qr_scan", "ios": "https://dc.lft.to/lastmile_qr_scan"}, "lon": -77.0000575, "name": "fc6e365a5bbeb81572c2b141e7dfc41c", "lat": 38.90244533333333, "is_reserved": 0, "fusion_lat": 0.0, "bike_id": "fc6e365a5bbeb81572c2b141e7dfc41c", "type": "electric_scooter", "is_disabled": 0, "fusion_lon": 0.0}, {"rental_uris": {"android": "https://dc.lft.to/lastmile_qr_scan", "ios": "https://dc.lft.to/lastmile_qr_scan"}, "lon": -77.029785, "name": "abdfc6d13980801cee896c331dcf5a7e", "lat": 38.905075833333335, "is_reserved": 0, "fusion_lat": 0.0, "bike_id": "abdfc6d13980801cee896c331dcf5a7e", "type": "electric_scooter", "is_disabled": 0, "fusion_lon": 0.0}, {"rental_uris": {"android": "https://dc.lft.to/lastmile_qr_scan", "ios": "https://dc.lft.to/lastmile_qr_scan"}, "lon": -77.05746583333334, "name": "617c3fa8fe540cb83d3964ced9409907", "lat": 38.933994166666665, "is_reserved": 0, "fusion_lat": 0.0, "bike_id": "617c3fa8fe540cb83d3964ced9409907", "type": "electric_scooter", "is_disabled": 0, "fusion_lon": 0.0}, {"rental_uris": {"android": "https://dc.lft.to/lastmile_qr_scan", "ios": "https://dc.lft.to/lastmile_qr_scan"}, "lon": -77.023328, "name": "6d2ec629dc4689265f23d0af32f23937", "lat": 38.914159833333336, "is_reserved": 0, "fusion_lat": 0.0, "bike_id": "6d2ec629dc4689265f23d0af32f23937", "type": "electric_scooter", "is_disabled": 0, "fusion_lon": 0.0}, {"rental_uris": {"android": "https://dc.lft.to/lastmile_qr_scan", "ios": "https://dc.lft.to/lastmile_qr_scan"}, "lon": -77.00109016666667, "name": "163c734c6fa489f88ce34873aa98f7ed", "lat": 38.873655666666664, "is_reserved": 0, "fusion_lat": 0.0, "bike_id": "163c734c6fa489f88ce34873aa98f7ed", "type": "electric_scooter", "is_disabled": 0, "fusion_lon": 0.0}, {"rental_uris": {"android": "https://dc.lft.to/lastmile_qr_scan", "ios": "https://dc.lft.to/lastmile_qr_scan"}, "lon": -77.02800466666666, "name": "46c3d0067806e7999e3c7b9716fa6426", "lat": 38.917631, "is_reserved": 0, "fusion_lat": 0.0, "bike_id": "46c3d0067806e7999e3c7b9716fa6426", "type": "electric_scooter", "is_disabled": 0, "fusion_lon": 0.0}, {"rental_uris": {"android": "https://dc.lft.to/lastmile_qr_scan", "ios": "https://dc.lft.to/lastmile_qr_scan"}, "lon": -77.03525316666666, "name": "a8e8def811499210789d889d6ba2db05", "lat": 38.925397, "is_reserved": 0, "fusion_lat": 0.0, "bike_id": "a8e8def811499210789d889d6ba2db05", "type": "electric_scooter", "is_disabled": 0, "fusion_lon": 0.0}, {"rental_uris": {"android": "https://dc.lft.to/lastmile_qr_scan", "ios": "https://dc.lft.to/lastmile_qr_scan"}, "lon": -77.03191716666667, "name": "c0c087242cdaa2b853ca8bf20a0e05e8", "lat": 38.909777, "is_reserved": 0, "fusion_lat": 0.0, "bike_id": "c0c087242cdaa2b853ca8bf20a0e05e8", "type": "electric_scooter", "is_disabled": 0, "fusion_lon": 0.0}, {"rental_uris": {"android": "https://dc.lft.to/lastmile_qr_scan", "ios": "https://dc.lft.to/lastmile_qr_scan"}, "lon": -77.01687233333334, "name": "5bd457103f262fe190d020648f8a1b47", "lat": 38.920538, "is_reserved": 0, "fusion_lat": 0.0, "bike_id": "5bd457103f262fe190d020648f8a1b47", "type": "electric_scooter", "is_disabled": 0, "fusion_lon": 0.0}, {"rental_uris": {"android": "https://dc.lft.to/lastmile_qr_scan", "ios": "https://dc.lft.to/lastmile_qr_scan"}, "lon": -77.0466015, "name": "c9d83fe0163381a974b48ecf60b7a184", "lat": 38.89967633333333, "is_reserved": 0, "fusion_lat": 0.0, "bike_id": "c9d83fe0163381a974b48ecf60b7a184", "type": "electric_scooter", "is_disabled": 0, "fusion_lon": 0.0}, {"rental_uris": {"android": "https://dc.lft.to/lastmile_qr_scan", "ios": "https://dc.lft.to/lastmile_qr_scan"}, "lon": -77.02687833333333, "name": "cfd11d973600fc2e512ffa322f8be415", "lat": 38.909526166666666, "is_reserved": 0, "fusion_lat": 0.0, "bike_id": "cfd11d973600fc2e512ffa322f8be415", "type": "electric_scooter", "is_disabled": 0, "fusion_lon": 0.0}, {"rental_uris": {"android": "https://dc.lft.to/lastmile_qr_scan", "ios": "https://dc.lft.to/lastmile_qr_scan"}, "lon": -77.03152516666667, "name": "247d167312f249576adf2f9dd98f216a", "lat": 38.927870666666664, "is_reserved": 0, "fusion_lat": 0.0, "bike_id": "247d167312f249576adf2f9dd98f216a", "type": "electric_scooter", "is_disabled": 0, "fusion_lon": 0.0}, {"rental_uris": {"android": "https://dc.lft.to/lastmile_qr_scan", "ios": "https://dc.lft.to/lastmile_qr_scan"}, "lon": -76.98798333333333, "name": "e901d60ac26fd09cefb401783454447b", "lat": 38.91234583333333, "is_reserved": 0, "fusion_lat": 0.0, "bike_id": "e901d60ac26fd09cefb401783454447b", "type": "electric_scooter", "is_disabled": 0, "fusion_lon": 0.0}, {"rental_uris": {"android": "https://dc.lft.to/lastmile_qr_scan", "ios": "https://dc.lft.to/lastmile_qr_scan"}, "lon": -77.0181285, "name": "c76be61cdc927ece27c107f1ede8994b", "lat": 38.973777166666665, "is_reserved": 0, "fusion_lat": 0.0, "bike_id": "c76be61cdc927ece27c107f1ede8994b", "type": "electric_scooter", "is_disabled": 0, "fusion_lon": 0.0}, {"rental_uris": {"android": "https://dc.lft.to/lastmile_qr_scan", "ios": "https://dc.lft.to/lastmile_qr_scan"}, "lon": -77.02978816666666, "name": "cb6c1f5fb6b5fc248410cab50e4a9acc", "lat": 38.904872166666664, "is_reserved": 0, "fusion_lat": 0.0, "bike_id": "cb6c1f5fb6b5fc248410cab50e4a9acc", "type": "electric_scooter", "is_disabled": 0, "fusion_lon": 0.0}, {"rental_uris": {"android": "https://dc.lft.to/lastmile_qr_scan", "ios": "https://dc.lft.to/lastmile_qr_scan"}, "lon": -77.03294116666666, "name": "c1fa43a94fd9f592511cf2def9b24f79", "lat": 38.90297433333333, "is_reserved": 0, "fusion_lat": 0.0, "bike_id": "c1fa43a94fd9f592511cf2def9b24f79", "type": "electric_scooter", "is_disabled": 0, "fusion_lon": 0.0}, {"rental_uris": {"android": "https://dc.lft.to/lastmile_qr_scan", "ios": "https://dc.lft.to/lastmile_qr_scan"}, "lon": -77.03095616666667, "name": "f1c2f455fcbf4d3a3d7bfe5caa4aa7ef", "lat": 38.92385766666666, "is_reserved": 0, "fusion_lat": 0.0, "bike_id": "f1c2f455fcbf4d3a3d7bfe5caa4aa7ef", "type": "electric_scooter", "is_disabled": 0, "fusion_lon": 0.0}, {"rental_uris": {"android": "https://dc.lft.to/lastmile_qr_scan", "ios": "https://dc.lft.to/lastmile_qr_scan"}, "lon": -77.0365005, "name": "5bc94fcbcc7fc2d05daaa727654cfc90", "lat": 38.91730666666667, "is_reserved": 0, "fusion_lat": 0.0, "bike_id": "5bc94fcbcc7fc2d05daaa727654cfc90", "type": "electric_scooter", "is_disabled": 0, "fusion_lon": 0.0}, {"rental_uris": {"android": "https://dc.lft.to/lastmile_qr_scan", "ios": "https://dc.lft.to/lastmile_qr_scan"}, "lon": -76.93126133333334, "name": "906fdc9dc781e0d203e658389928b518", "lat": 38.897869666666665, "is_reserved": 0, "fusion_lat": 0.0, "bike_id": "906fdc9dc781e0d203e658389928b518", "type": "electric_scooter", "is_disabled": 0, "fusion_lon": 0.0}, {"rental_uris": {"android": "https://dc.lft.to/lastmile_qr_scan", "ios": "https://dc.lft.to/lastmile_qr_scan"}, "lon": -77.01609883333333, "name": "564bc7f8f316ff70a875ab1350a4c09d", "lat": 38.903687833333336, "is_reserved": 0, "fusion_lat": 0.0, "bike_id": "564bc7f8f316ff70a875ab1350a4c09d", "type": "electric_scooter", "is_disabled": 0, "fusion_lon": 0.0}, {"rental_uris": {"android": "https://dc.lft.to/lastmile_qr_scan", "ios": "https://dc.lft.to/lastmile_qr_scan"}, "lon": -77.04374783333333, "name": "b6534cbb152fe904cf31150eadb7f66b", "lat": 38.892187, "is_reserved": 0, "fusion_lat": 0.0, "bike_id": "b6534cbb152fe904cf31150eadb7f66b", "type": "electric_scooter", "is_disabled": 0, "fusion_lon": 0.0}, {"rental_uris": {"android": "https://dc.lft.to/lastmile_qr_scan", "ios": "https://dc.lft.to/lastmile_qr_scan"}, "lon": -77.03861633333334, "name": "662a259957372ab6a98b1d6b06335d1b", "lat": 38.907823, "is_reserved": 0, "fusion_lat": 0.0, "bike_id": "662a259957372ab6a98b1d6b06335d1b", "type": "electric_scooter", "is_disabled": 0, "fusion_lon": 0.0}, {"rental_uris": {"android": "https://dc.lft.to/lastmile_qr_scan", "ios": "https://dc.lft.to/lastmile_qr_scan"}, "lon": -77.0175425, "name": "82b92a721655f309e7064170a8e15636", "lat": 38.8947085, "is_reserved": 0, "fusion_lat": 0.0, "bike_id": "82b92a721655f309e7064170a8e15636", "type": "electric_scooter", "is_disabled": 0, "fusion_lon": 0.0}, {"rental_uris": {"android": "https://dc.lft.to/lastmile_qr_scan", "ios": "https://dc.lft.to/lastmile_qr_scan"}, "lon": -76.98998383333333, "name": "add69e29fa95767ab387d77a98c47548", "lat": 38.865049166666665, "is_reserved": 0, "fusion_lat": 0.0, "bike_id": "add69e29fa95767ab387d77a98c47548", "type": "electric_scooter", "is_disabled": 0, "fusion_lon": 0.0}, {"rental_uris": {"android": "https://dc.lft.to/lastmile_qr_scan", "ios": "https://dc.lft.to/lastmile_qr_scan"}, "lon": -77.02418033333333, "name": "3276cc6db03fcca4646257b3b961b0fb", "lat": 38.911432, "is_reserved": 0, "fusion_lat": 0.0, "bike_id": "3276cc6db03fcca4646257b3b961b0fb", "type": "electric_scooter", "is_disabled": 0, "fusion_lon": 0.0}, {"rental_uris": {"android": "https://dc.lft.to/lastmile_qr_scan", "ios": "https://dc.lft.to/lastmile_qr_scan"}, "lon": -77.03791883333334, "name": "fcbc9a7d1685b70a758d8bdefeb2d5e0", "lat": 38.901531, "is_reserved": 0, "fusion_lat": 0.0, "bike_id": "fcbc9a7d1685b70a758d8bdefeb2d5e0", "type": "electric_scooter", "is_disabled": 0, "fusion_lon": 0.0}, {"rental_uris": {"android": "https://dc.lft.to/lastmile_qr_scan", "ios": "https://dc.lft.to/lastmile_qr_scan"}, "lon": -77.02406116666667, "name": "f0c63b49afdc135bb956c7fa7b0580fc", "lat": 38.91688883333333, "is_reserved": 0, "fusion_lat": 0.0, "bike_id": "f0c63b49afdc135bb956c7fa7b0580fc", "type": "electric_scooter", "is_disabled": 0, "fusion_lon": 0.0}, {"rental_uris": {"android": "https://dc.lft.to/lastmile_qr_scan", "ios": "https://dc.lft.to/lastmile_qr_scan"}, "lon": -77.0227635, "name": "51f32a7e0a44522c67e9a939f9026167", "lat": 38.895011833333335, "is_reserved": 0, "fusion_lat": 0.0, "bike_id": "51f32a7e0a44522c67e9a939f9026167", "type": "electric_scooter", "is_disabled": 0, "fusion_lon": 0.0}, {"rental_uris": {"android": "https://dc.lft.to/lastmile_qr_scan", "ios": "https://dc.lft.to/lastmile_qr_scan"}, "lon": -77.00059366666666, "name": "37d62b230c4e213116fa752057844ac8", "lat": 38.87682266666667, "is_reserved": 0, "fusion_lat": 0.0, "bike_id": "37d62b230c4e213116fa752057844ac8", "type": "electric_scooter", "is_disabled": 0, "fusion_lon": 0.0}, {"rental_uris": {"android": "https://dc.lft.to/lastmile_qr_scan", "ios": "https://dc.lft.to/lastmile_qr_scan"}, "lon": -77.074322, "name": "db79e5538b77af746c2c8ac6123233cc", "lat": 38.935967833333336, "is_reserved": 0, "fusion_lat": 0.0, "bike_id": "db79e5538b77af746c2c8ac6123233cc", "type": "electric_scooter", "is_disabled": 0, "fusion_lon": 0.0}, {"rental_uris": {"android": "https://dc.lft.to/lastmile_qr_scan", "ios": "https://dc.lft.to/lastmile_qr_scan"}, "lon": -77.03308083333333, "name": "793c0ae760296c04204f85b6f620f2c8", "lat": 38.9111765, "is_reserved": 0, "fusion_lat": 0.0, "bike_id": "793c0ae760296c04204f85b6f620f2c8", "type": "electric_scooter", "is_disabled": 0, "fusion_lon": 0.0}, {"rental_uris": {"android": "https://dc.lft.to/lastmile_qr_scan", "ios": "https://dc.lft.to/lastmile_qr_scan"}, "lon": -77.02651116666667, "name": "ae126bb47fc24f7952fa1285435cf7f5", "lat": 38.93866466666667, "is_reserved": 0, "fusion_lat": 0.0, "bike_id": "ae126bb47fc24f7952fa1285435cf7f5", "type": "electric_scooter", "is_disabled": 0, "fusion_lon": 0.0}, {"rental_uris": {"android": "https://dc.lft.to/lastmile_qr_scan", "ios": "https://dc.lft.to/lastmile_qr_scan"}, "lon": -76.9985, "name": "72fa1e54ee7e8a4a572b3e7a5a7ed733", "lat": 38.900264166666666, "is_reserved": 0, "fusion_lat": 0.0, "bike_id": "72fa1e54ee7e8a4a572b3e7a5a7ed733", "type": "electric_scooter", "is_disabled": 0, "fusion_lon": 0.0}, {"rental_uris": {"android": "https://dc.lft.to/lastmile_qr_scan", "ios": "https://dc.lft.to/lastmile_qr_scan"}, "lon": -76.97966433333333, "name": "d802bf65ba52ff80b4e3c51141fb3858", "lat": 38.89223, "is_reserved": 0, "fusion_lat": 0.0, "bike_id": "d802bf65ba52ff80b4e3c51141fb3858", "type": "electric_scooter", "is_disabled": 0, "fusion_lon": 0.0}, {"rental_uris": {"android": "https://dc.lft.to/lastmile_qr_scan", "ios": "https://dc.lft.to/lastmile_qr_scan"}, "lon": -76.9850605, "name": "ccddfdb280fc430f541db18dbeb0cd2c", "lat": 38.90674716666667, "is_reserved": 0, "fusion_lat": 0.0, "bike_id": "ccddfdb280fc430f541db18dbeb0cd2c", "type": "electric_bike", "is_disabled": 0, "fusion_lon": 0.0}, {"rental_uris": {"android": "https://dc.lft.to/lastmile_qr_scan", "ios": "https://dc.lft.to/lastmile_qr_scan"}, "lon": -77.03710433333333, "name": "875ae7f826335b25e867e9c99af98f23", "lat": 38.936649833333334, "is_reserved": 0, "fusion_lat": 0.0, "bike_id": "875ae7f826335b25e867e9c99af98f23", "type": "electric_scooter", "is_disabled": 0, "fusion_lon": 0.0}, {"rental_uris": {"android": "https://dc.lft.to/lastmile_qr_scan", "ios": "https://dc.lft.to/lastmile_qr_scan"}, "lon": -77.0119365, "name": "fce562a1f94352c4d8e05e60c33f6177", "lat": 38.91571733333333, "is_reserved": 0, "fusion_lat": 0.0, "bike_id": "fce562a1f94352c4d8e05e60c33f6177", "type": "electric_scooter", "is_disabled": 0, "fusion_lon": 0.0}, {"rental_uris": {"android": "https://dc.lft.to/lastmile_qr_scan", "ios": "https://dc.lft.to/lastmile_qr_scan"}, "lon": -77.040217, "name": "db958b084e7988ede1a16b79fb2be435", "lat": 38.996282, "is_reserved": 0, "fusion_lat": 0.0, "bike_id": "db958b084e7988ede1a16b79fb2be435", "type": "electric_bike", "is_disabled": 0, "fusion_lon": 0.0}, {"rental_uris": {"android": "https://dc.lft.to/lastmile_qr_scan", "ios": "https://dc.lft.to/lastmile_qr_scan"}, "lon": -77.03071316666667, "name": "9e2293f93b2db23d4c93bfe3614cdd5d", "lat": 38.93088816666667, "is_reserved": 0, "fusion_lat": 0.0, "bike_id": "9e2293f93b2db23d4c93bfe3614cdd5d", "type": "electric_scooter", "is_disabled": 0, "fusion_lon": 0.0}, {"rental_uris": {"android": "https://dc.lft.to/lastmile_qr_scan", "ios": "https://dc.lft.to/lastmile_qr_scan"}, "lon": -77.03538916666666, "name": "98e4fdf720133b183ea308d0607533cc", "lat": 38.924989, "is_reserved": 0, "fusion_lat": 0.0, "bike_id": "98e4fdf720133b183ea308d0607533cc", "type": "electric_scooter", "is_disabled": 0, "fusion_lon": 0.0}, {"rental_uris": {"android": "https://dc.lft.to/lastmile_qr_scan", "ios": "https://dc.lft.to/lastmile_qr_scan"}, "lon": -77.02244466666667, "name": "319da08ed79d1310f3b6b26cc6015c53", "lat": 38.924677333333335, "is_reserved": 0, "fusion_lat": 0.0, "bike_id": "319da08ed79d1310f3b6b26cc6015c53", "type": "electric_scooter", "is_disabled": 0, "fusion_lon": 0.0}, {"rental_uris": {"android": "https://dc.lft.to/lastmile_qr_scan", "ios": "https://dc.lft.to/lastmile_qr_scan"}, "lon": -77.04536183333333, "name": "7af6b0254aa75f27faffd669ad97faa3", "lat": 38.9132875, "is_reserved": 0, "fusion_lat": 0.0, "bike_id": "7af6b0254aa75f27faffd669ad97faa3", "type": "electric_scooter", "is_disabled": 0, "fusion_lon": 0.0}, {"rental_uris": {"android": "https://dc.lft.to/lastmile_qr_scan", "ios": "https://dc.lft.to/lastmile_qr_scan"}, "lon": -77.027628, "name": "f4d890421245d82108f6777443c86d41", "lat": 38.91698683333333, "is_reserved": 0, "fusion_lat": 0.0, "bike_id": "f4d890421245d82108f6777443c86d41", "type": "electric_scooter", "is_disabled": 0, "fusion_lon": 0.0}, {"rental_uris": {"android": "https://dc.lft.to/lastmile_qr_scan", "ios": "https://dc.lft.to/lastmile_qr_scan"}, "lon": -77.0319825, "name": "c5f92472bed51818de668fdbc370a65e", "lat": 38.9013295, "is_reserved": 0, "fusion_lat": 0.0, "bike_id": "c5f92472bed51818de668fdbc370a65e", "type": "electric_scooter", "is_disabled": 0, "fusion_lon": 0.0}, {"rental_uris": {"android": "https://dc.lft.to/lastmile_qr_scan", "ios": "https://dc.lft.to/lastmile_qr_scan"}, "lon": -77.02193883333334, "name": "3c51070c29731c1088263eb47d86a409", "lat": 38.92833366666667, "is_reserved": 0, "fusion_lat": 0.0, "bike_id": "3c51070c29731c1088263eb47d86a409", "type": "electric_scooter", "is_disabled": 0, "fusion_lon": 0.0}, {"rental_uris": {"android": "https://dc.lft.to/lastmile_qr_scan", "ios": "https://dc.lft.to/lastmile_qr_scan"}, "lon": -77.02809916666666, "name": "512b869a63a8e577eb827fa408cf5eec", "lat": 38.916488, "is_reserved": 0, "fusion_lat": 0.0, "bike_id": "512b869a63a8e577eb827fa408cf5eec", "type": "electric_scooter", "is_disabled": 0, "fusion_lon": 0.0}, {"rental_uris": {"android": "https://dc.lft.to/lastmile_qr_scan", "ios": "https://dc.lft.to/lastmile_qr_scan"}, "lon": -77.04514333333333, "name": "ac2475e188b41a41adb09d2f7468c5cf", "lat": 38.89223583333333, "is_reserved": 0, "fusion_lat": 0.0, "bike_id": "ac2475e188b41a41adb09d2f7468c5cf", "type": "electric_scooter", "is_disabled": 0, "fusion_lon": 0.0}, {"rental_uris": {"android": "https://dc.lft.to/lastmile_qr_scan", "ios": "https://dc.lft.to/lastmile_qr_scan"}, "lon": -76.981949, "name": "8fe4d037e7add1d22abfce6823d9d1cb", "lat": 38.86595466666667, "is_reserved": 0, "fusion_lat": 0.0, "bike_id": "8fe4d037e7add1d22abfce6823d9d1cb", "type": "electric_scooter", "is_disabled": 0, "fusion_lon": 0.0}, {"rental_uris": {"android": "https://dc.lft.to/lastmile_qr_scan", "ios": "https://dc.lft.to/lastmile_qr_scan"}, "lon": -77.020921, "name": "a0c5a1cd1375075885c7f9f9754160eb", "lat": 38.9271145, "is_reserved": 0, "fusion_lat": 0.0, "bike_id": "a0c5a1cd1375075885c7f9f9754160eb", "type": "electric_scooter", "is_disabled": 0, "fusion_lon": 0.0}, {"rental_uris": {"android": "https://dc.lft.to/lastmile_qr_scan", "ios": "https://dc.lft.to/lastmile_qr_scan"}, "lon": -77.04407533333334, "name": "3abcba3142394af67ceba55a144e73c3", "lat": 38.9121335, "is_reserved": 0, "fusion_lat": 0.0, "bike_id": "3abcba3142394af67ceba55a144e73c3", "type": "electric_scooter", "is_disabled": 0, "fusion_lon": 0.0}, {"rental_uris": {"android": "https://dc.lft.to/lastmile_qr_scan", "ios": "https://dc.lft.to/lastmile_qr_scan"}, "lon": -77.03333633333334, "name": "e1270b36fbe64502870d28b1207b38cc", "lat": 38.8985, "is_reserved": 0, "fusion_lat": 0.0, "bike_id": "e1270b36fbe64502870d28b1207b38cc", "type": "electric_scooter", "is_disabled": 0, "fusion_lon": 0.0}, {"rental_uris": {"android": "https://dc.lft.to/lastmile_qr_scan", "ios": "https://dc.lft.to/lastmile_qr_scan"}, "lon": -77.04341266666667, "name": "fa4824062e140261958c974685ad3766", "lat": 38.90722383333333, "is_reserved": 0, "fusion_lat": 0.0, "bike_id": "fa4824062e140261958c974685ad3766", "type": "electric_scooter", "is_disabled": 0, "fusion_lon": 0.0}, {"rental_uris": {"android": "https://dc.lft.to/lastmile_qr_scan", "ios": "https://dc.lft.to/lastmile_qr_scan"}, "lon": -77.04337733333334, "name": "ed1361d722a8c48fba423be985a795b1", "lat": 38.89727516666667, "is_reserved": 0, "fusion_lat": 0.0, "bike_id": "ed1361d722a8c48fba423be985a795b1", "type": "electric_scooter", "is_disabled": 0, "fusion_lon": 0.0}, {"rental_uris": {"android": "https://dc.lft.to/lastmile_qr_scan", "ios": "https://dc.lft.to/lastmile_qr_scan"}, "lon": -77.01357716666666, "name": "fc8ee43935246134806143f1c5cefc08", "lat": 38.9162695, "is_reserved": 0, "fusion_lat": 0.0, "bike_id": "fc8ee43935246134806143f1c5cefc08", "type": "electric_scooter", "is_disabled": 0, "fusion_lon": 0.0}, {"rental_uris": {"android": "https://dc.lft.to/lastmile_qr_scan", "ios": "https://dc.lft.to/lastmile_qr_scan"}, "lon": -77.073802, "name": "60b60b9981bb8f7c28f96db18abb0a4b", "lat": 38.961805166666664, "is_reserved": 0, "fusion_lat": 0.0, "bike_id": "60b60b9981bb8f7c28f96db18abb0a4b", "type": "electric_bike", "is_disabled": 0, "fusion_lon": 0.0}, {"rental_uris": {"android": "https://dc.lft.to/lastmile_qr_scan", "ios": "https://dc.lft.to/lastmile_qr_scan"}, "lon": -77.03124716666666, "name": "6edcab974f33a357646ec2662ad8665e", "lat": 38.9169295, "is_reserved": 0, "fusion_lat": 0.0, "bike_id": "6edcab974f33a357646ec2662ad8665e", "type": "electric_scooter", "is_disabled": 0, "fusion_lon": 0.0}, {"rental_uris": {"android": "https://dc.lft.to/lastmile_qr_scan", "ios": "https://dc.lft.to/lastmile_qr_scan"}, "lon": -77.0433645, "name": "0c524432f5c4cb4ee606a33d319747b4", "lat": 38.9041905, "is_reserved": 0, "fusion_lat": 0.0, "bike_id": "0c524432f5c4cb4ee606a33d319747b4", "type": "electric_scooter", "is_disabled": 0, "fusion_lon": 0.0}, {"rental_uris": {"android": "https://dc.lft.to/lastmile_qr_scan", "ios": "https://dc.lft.to/lastmile_qr_scan"}, "lon": -77.01890666666667, "name": "6a198d72d729c01e1cc2e6fd315178c7", "lat": 38.90494366666667, "is_reserved": 0, "fusion_lat": 0.0, "bike_id": "6a198d72d729c01e1cc2e6fd315178c7", "type": "electric_bike", "is_disabled": 0, "fusion_lon": 0.0}, {"rental_uris": {"android": "https://dc.lft.to/lastmile_qr_scan", "ios": "https://dc.lft.to/lastmile_qr_scan"}, "lon": -76.970544, "name": "9dbbfed9bfb89bfb1eb7fb78edfaf7aa", "lat": 38.958731666666665, "is_reserved": 0, "fusion_lat": 0.0, "bike_id": "9dbbfed9bfb89bfb1eb7fb78edfaf7aa", "type": "electric_bike", "is_disabled": 0, "fusion_lon": 0.0}, {"rental_uris": {"android": "https://dc.lft.to/lastmile_qr_scan", "ios": "https://dc.lft.to/lastmile_qr_scan"}, "lon": -77.01375883333333, "name": "e7e1bfad0f3d2a0eb0ed77968353e09b", "lat": 38.879004, "is_reserved": 0, "fusion_lat": 0.0, "bike_id": "e7e1bfad0f3d2a0eb0ed77968353e09b", "type": "electric_scooter", "is_disabled": 0, "fusion_lon": 0.0}, {"rental_uris": {"android": "https://dc.lft.to/lastmile_qr_scan", "ios": "https://dc.lft.to/lastmile_qr_scan"}, "lon": -77.04001483333333, "name": "0d792a13260bf315848357e52f18056e", "lat": 38.934255666666665, "is_reserved": 0, "fusion_lat": 0.0, "bike_id": "0d792a13260bf315848357e52f18056e", "type": "electric_scooter", "is_disabled": 0, "fusion_lon": 0.0}, {"rental_uris": {"android": "https://dc.lft.to/lastmile_qr_scan", "ios": "https://dc.lft.to/lastmile_qr_scan"}, "lon": -77.0367765, "name": "e33675c5987a8b0db14a94161b31f197", "lat": 38.92153883333334, "is_reserved": 0, "fusion_lat": 0.0, "bike_id": "e33675c5987a8b0db14a94161b31f197", "type": "electric_scooter", "is_disabled": 0, "fusion_lon": 0.0}, {"rental_uris": {"android": "https://dc.lft.to/lastmile_qr_scan", "ios": "https://dc.lft.to/lastmile_qr_scan"}, "lon": -77.04513483333334, "name": "bea831857bae24942790ad8d274780fc", "lat": 38.896051666666665, "is_reserved": 0, "fusion_lat": 0.0, "bike_id": "bea831857bae24942790ad8d274780fc", "type": "electric_scooter", "is_disabled": 0, "fusion_lon": 0.0}, {"rental_uris": {"android": "https://dc.lft.to/lastmile_qr_scan", "ios": "https://dc.lft.to/lastmile_qr_scan"}, "lon": -77.03854683333333, "name": "6e8459b1bf36c65fc1fb8bbaa34cbe86", "lat": 38.9026685, "is_reserved": 0, "fusion_lat": 0.0, "bike_id": "6e8459b1bf36c65fc1fb8bbaa34cbe86", "type": "electric_scooter", "is_disabled": 0, "fusion_lon": 0.0}, {"rental_uris": {"android": "https://dc.lft.to/lastmile_qr_scan", "ios": "https://dc.lft.to/lastmile_qr_scan"}, "lon": -77.0323805, "name": "2162756423107ee20734f082c93fffb6", "lat": 38.92688716666667, "is_reserved": 0, "fusion_lat": 0.0, "bike_id": "2162756423107ee20734f082c93fffb6", "type": "electric_scooter", "is_disabled": 0, "fusion_lon": 0.0}, {"rental_uris": {"android": "https://dc.lft.to/lastmile_qr_scan", "ios": "https://dc.lft.to/lastmile_qr_scan"}, "lon": -77.0222555, "name": "9ec8dd99933d65fb9edb2bdcf3257892", "lat": 38.91256533333333, "is_reserved": 0, "fusion_lat": 0.0, "bike_id": "9ec8dd99933d65fb9edb2bdcf3257892", "type": "electric_scooter", "is_disabled": 0, "fusion_lon": 0.0}, {"rental_uris": {"android": "https://dc.lft.to/lastmile_qr_scan", "ios": "https://dc.lft.to/lastmile_qr_scan"}, "lon": -77.04016866666667, "name": "d4977ede95ae8e808be85af8a73e2bd4", "lat": 38.90331833333333, "is_reserved": 0, "fusion_lat": 0.0, "bike_id": "d4977ede95ae8e808be85af8a73e2bd4", "type": "electric_scooter", "is_disabled": 0, "fusion_lon": 0.0}, {"rental_uris": {"android": "https://dc.lft.to/lastmile_qr_scan", "ios": "https://dc.lft.to/lastmile_qr_scan"}, "lon": -77.03167616666667, "name": "3906442a48fcfe561f6f3354ebeca4ff", "lat": 38.92094866666667, "is_reserved": 0, "fusion_lat": 0.0, "bike_id": "3906442a48fcfe561f6f3354ebeca4ff", "type": "electric_scooter", "is_disabled": 0, "fusion_lon": 0.0}, {"rental_uris": {"android": "https://dc.lft.to/lastmile_qr_scan", "ios": "https://dc.lft.to/lastmile_qr_scan"}, "lon": -77.04373883333334, "name": "77364b0b59c008be47e5d415637ae32c", "lat": 38.90039316666667, "is_reserved": 0, "fusion_lat": 0.0, "bike_id": "77364b0b59c008be47e5d415637ae32c", "type": "electric_scooter", "is_disabled": 0, "fusion_lon": 0.0}, {"rental_uris": {"android": "https://dc.lft.to/lastmile_qr_scan", "ios": "https://dc.lft.to/lastmile_qr_scan"}, "lon": -77.02958666666666, "name": "72c48d1361dc32d657dbbfd961e7ab18", "lat": 38.904948166666664, "is_reserved": 0, "fusion_lat": 0.0, "bike_id": "72c48d1361dc32d657dbbfd961e7ab18", "type": "electric_scooter", "is_disabled": 0, "fusion_lon": 0.0}, {"rental_uris": {"android": "https://dc.lft.to/lastmile_qr_scan", "ios": "https://dc.lft.to/lastmile_qr_scan"}, "lon": -77.01151816666666, "name": "473d503119b1d7cfbc2c12938642c18f", "lat": 38.95689183333333, "is_reserved": 0, "fusion_lat": 0.0, "bike_id": "473d503119b1d7cfbc2c12938642c18f", "type": "electric_scooter", "is_disabled": 0, "fusion_lon": 0.0}, {"rental_uris": {"android": "https://dc.lft.to/lastmile_qr_scan", "ios": "https://dc.lft.to/lastmile_qr_scan"}, "lon": -77.03952683333333, "name": "bde723058ff0bc8a0d845ad4e660a349", "lat": 38.902673166666666, "is_reserved": 0, "fusion_lat": 0.0, "bike_id": "bde723058ff0bc8a0d845ad4e660a349", "type": "electric_scooter", "is_disabled": 0, "fusion_lon": 0.0}, {"rental_uris": {"android": "https://dc.lft.to/lastmile_qr_scan", "ios": "https://dc.lft.to/lastmile_qr_scan"}, "lon": -77.00109666666667, "name": "9208475914bd4b46b4a6edd250b103d6", "lat": 38.900165, "is_reserved": 0, "fusion_lat": 0.0, "bike_id": "9208475914bd4b46b4a6edd250b103d6", "type": "electric_scooter", "is_disabled": 0, "fusion_lon": 0.0}, {"rental_uris": {"android": "https://dc.lft.to/lastmile_qr_scan", "ios": "https://dc.lft.to/lastmile_qr_scan"}, "lon": -77.1330635, "name": "8b7886fe6747abb55c7b66951ad7557d", "lat": 38.88716, "is_reserved": 0, "fusion_lat": 0.0, "bike_id": "8b7886fe6747abb55c7b66951ad7557d", "type": "electric_bike", "is_disabled": 0, "fusion_lon": 0.0}, {"rental_uris": {"android": "https://dc.lft.to/lastmile_qr_scan", "ios": "https://dc.lft.to/lastmile_qr_scan"}, "lon": -77.0501255, "name": "06af24628bbcf495f4182e927a45029f", "lat": 38.817034666666665, "is_reserved": 0, "fusion_lat": 0.0, "bike_id": "06af24628bbcf495f4182e927a45029f", "type": "electric_bike", "is_disabled": 0, "fusion_lon": 0.0}, {"rental_uris": {"android": "https://dc.lft.to/lastmile_qr_scan", "ios": "https://dc.lft.to/lastmile_qr_scan"}, "lon": -76.982446, "name": "c31a1a6fc894c3a90bfdce77f751b41b", "lat": 38.89979816666666, "is_reserved": 0, "fusion_lat": 0.0, "bike_id": "c31a1a6fc894c3a90bfdce77f751b41b", "type": "electric_scooter", "is_disabled": 0, "fusion_lon": 0.0}, {"rental_uris": {"android": "https://dc.lft.to/lastmile_qr_scan", "ios": "https://dc.lft.to/lastmile_qr_scan"}, "lon": -77.06827416666667, "name": "663ead735568b9aa7b0168547541f8d4", "lat": 38.91805766666667, "is_reserved": 0, "fusion_lat": 0.0, "bike_id": "663ead735568b9aa7b0168547541f8d4", "type": "electric_scooter", "is_disabled": 0, "fusion_lon": 0.0}, {"rental_uris": {"android": "https://dc.lft.to/lastmile_qr_scan", "ios": "https://dc.lft.to/lastmile_qr_scan"}, "lon": -76.99033733333333, "name": "2be0a80339fa200950c869d62159f37e", "lat": 38.93876983333333, "is_reserved": 0, "fusion_lat": 0.0, "bike_id": "2be0a80339fa200950c869d62159f37e", "type": "electric_bike", "is_disabled": 0, "fusion_lon": 0.0}, {"rental_uris": {"android": "https://dc.lft.to/lastmile_qr_scan", "ios": "https://dc.lft.to/lastmile_qr_scan"}, "lon": -77.02485133333333, "name": "39025e2bfe9306bfaca48c1b1e5bd76a", "lat": 38.94184683333334, "is_reserved": 0, "fusion_lat": 0.0, "bike_id": "39025e2bfe9306bfaca48c1b1e5bd76a", "type": "electric_scooter", "is_disabled": 0, "fusion_lon": 0.0}, {"rental_uris": {"android": "https://dc.lft.to/lastmile_qr_scan", "ios": "https://dc.lft.to/lastmile_qr_scan"}, "lon": -77.0228665, "name": "8007af19807cf9cb9c0e46dafa4d47d7", "lat": 38.91674183333333, "is_reserved": 0, "fusion_lat": 0.0, "bike_id": "8007af19807cf9cb9c0e46dafa4d47d7", "type": "electric_scooter", "is_disabled": 0, "fusion_lon": 0.0}, {"rental_uris": {"android": "https://dc.lft.to/lastmile_qr_scan", "ios": "https://dc.lft.to/lastmile_qr_scan"}, "lon": -77.03820966666666, "name": "7744af44b751ef6bd0b76badeb70dcfb", "lat": 38.91254816666667, "is_reserved": 0, "fusion_lat": 0.0, "bike_id": "7744af44b751ef6bd0b76badeb70dcfb", "type": "electric_scooter", "is_disabled": 0, "fusion_lon": 0.0}, {"rental_uris": {"android": "https://dc.lft.to/lastmile_qr_scan", "ios": "https://dc.lft.to/lastmile_qr_scan"}, "lon": -76.97541316666667, "name": "60e6b20422e0ed5052ecbe1969fb96d2", "lat": 38.90326233333333, "is_reserved": 0, "fusion_lat": 0.0, "bike_id": "60e6b20422e0ed5052ecbe1969fb96d2", "type": "electric_scooter", "is_disabled": 0, "fusion_lon": 0.0}, {"rental_uris": {"android": "https://dc.lft.to/lastmile_qr_scan", "ios": "https://dc.lft.to/lastmile_qr_scan"}, "lon": -77.0326725, "name": "c2f8fd90da5360d85b5220bd31a1b7fd", "lat": 38.9356915, "is_reserved": 0, "fusion_lat": 0.0, "bike_id": "c2f8fd90da5360d85b5220bd31a1b7fd", "type": "electric_scooter", "is_disabled": 0, "fusion_lon": 0.0}, {"rental_uris": {"android": "https://dc.lft.to/lastmile_qr_scan", "ios": "https://dc.lft.to/lastmile_qr_scan"}, "lon": -77.04036483333333, "name": "bab7477725c76fe6528675e2c66d5a10", "lat": 38.92460483333333, "is_reserved": 0, "fusion_lat": 0.0, "bike_id": "bab7477725c76fe6528675e2c66d5a10", "type": "electric_scooter", "is_disabled": 0, "fusion_lon": 0.0}, {"rental_uris": {"android": "https://dc.lft.to/lastmile_qr_scan", "ios": "https://dc.lft.to/lastmile_qr_scan"}, "lon": -77.06403633333333, "name": "ed4baf5da26287da16347eef77f20a8d", "lat": 38.84348133333334, "is_reserved": 0, "fusion_lat": 0.0, "bike_id": "ed4baf5da26287da16347eef77f20a8d", "type": "electric_bike", "is_disabled": 0, "fusion_lon": 0.0}, {"rental_uris": {"android": "https://dc.lft.to/lastmile_qr_scan", "ios": "https://dc.lft.to/lastmile_qr_scan"}, "lon": -76.92882783333333, "name": "bec046c367a5043d2d8f43febee5b089", "lat": 38.883633333333336, "is_reserved": 0, "fusion_lat": 0.0, "bike_id": "bec046c367a5043d2d8f43febee5b089", "type": "electric_scooter", "is_disabled": 0, "fusion_lon": 0.0}, {"rental_uris": {"android": "https://dc.lft.to/lastmile_qr_scan", "ios": "https://dc.lft.to/lastmile_qr_scan"}, "lon": -77.01415233333333, "name": "6dfd0d89911a7964b2d4f4f57b92e9df", "lat": 38.92822016666667, "is_reserved": 0, "fusion_lat": 0.0, "bike_id": "6dfd0d89911a7964b2d4f4f57b92e9df", "type": "electric_scooter", "is_disabled": 0, "fusion_lon": 0.0}, {"rental_uris": {"android": "https://dc.lft.to/lastmile_qr_scan", "ios": "https://dc.lft.to/lastmile_qr_scan"}, "lon": -77.03192516666667, "name": "9a5a89adc9c776858ee3285aba0503b9", "lat": 38.898329333333336, "is_reserved": 0, "fusion_lat": 0.0, "bike_id": "9a5a89adc9c776858ee3285aba0503b9", "type": "electric_scooter", "is_disabled": 0, "fusion_lon": 0.0}, {"rental_uris": {"android": "https://dc.lft.to/lastmile_qr_scan", "ios": "https://dc.lft.to/lastmile_qr_scan"}, "lon": -77.04343, "name": "9bfbf8a4d347fc343dcfc2f866862d2f", "lat": 38.931329833333336, "is_reserved": 0, "fusion_lat": 0.0, "bike_id": "9bfbf8a4d347fc343dcfc2f866862d2f", "type": "electric_scooter", "is_disabled": 0, "fusion_lon": 0.0}, {"rental_uris": {"android": "https://dc.lft.to/lastmile_qr_scan", "ios": "https://dc.lft.to/lastmile_qr_scan"}, "lon": -77.0248105, "name": "d356959ce45fd97543544de5722385b8", "lat": 38.93883983333333, "is_reserved": 0, "fusion_lat": 0.0, "bike_id": "d356959ce45fd97543544de5722385b8", "type": "electric_scooter", "is_disabled": 0, "fusion_lon": 0.0}, {"rental_uris": {"android": "https://dc.lft.to/lastmile_qr_scan", "ios": "https://dc.lft.to/lastmile_qr_scan"}, "lon": -77.02742416666666, "name": "629b3bef5f2428f98dff247f225ba76e", "lat": 38.92773733333333, "is_reserved": 0, "fusion_lat": 0.0, "bike_id": "629b3bef5f2428f98dff247f225ba76e", "type": "electric_scooter", "is_disabled": 0, "fusion_lon": 0.0}, {"rental_uris": {"android": "https://dc.lft.to/lastmile_qr_scan", "ios": "https://dc.lft.to/lastmile_qr_scan"}, "lon": -77.00987333333333, "name": "b25fdf48e9c164eb8efc34f709153d3b", "lat": 38.87289766666667, "is_reserved": 0, "fusion_lat": 0.0, "bike_id": "b25fdf48e9c164eb8efc34f709153d3b", "type": "electric_scooter", "is_disabled": 0, "fusion_lon": 0.0}, {"rental_uris": {"android": "https://dc.lft.to/lastmile_qr_scan", "ios": "https://dc.lft.to/lastmile_qr_scan"}, "lon": -76.95696716666667, "name": "ce59b92aa5239a1035a68964104279aa", "lat": 38.892137166666664, "is_reserved": 0, "fusion_lat": 0.0, "bike_id": "ce59b92aa5239a1035a68964104279aa", "type": "electric_scooter", "is_disabled": 0, "fusion_lon": 0.0}, {"rental_uris": {"android": "https://dc.lft.to/lastmile_qr_scan", "ios": "https://dc.lft.to/lastmile_qr_scan"}, "lon": -77.01407183333333, "name": "2c177ce8b7beb4a74beec74cb3c42f0e", "lat": 38.9051325, "is_reserved": 0, "fusion_lat": 0.0, "bike_id": "2c177ce8b7beb4a74beec74cb3c42f0e", "type": "electric_scooter", "is_disabled": 0, "fusion_lon": 0.0}, {"rental_uris": {"android": "https://dc.lft.to/lastmile_qr_scan", "ios": "https://dc.lft.to/lastmile_qr_scan"}, "lon": -76.94435333333334, "name": "e7fa177ac46469d2869c87a74aa66b1f", "lat": 38.99230716666667, "is_reserved": 0, "fusion_lat": 0.0, "bike_id": "e7fa177ac46469d2869c87a74aa66b1f", "type": "electric_bike", "is_disabled": 0, "fusion_lon": 0.0}, {"rental_uris": {"android": "https://dc.lft.to/lastmile_qr_scan", "ios": "https://dc.lft.to/lastmile_qr_scan"}, "lon": -77.04401766666666, "name": "df68293a95cf31898e531c8d739c6776", "lat": 38.913532333333336, "is_reserved": 0, "fusion_lat": 0.0, "bike_id": "df68293a95cf31898e531c8d739c6776", "type": "electric_scooter", "is_disabled": 0, "fusion_lon": 0.0}, {"rental_uris": {"android": "https://dc.lft.to/lastmile_qr_scan", "ios": "https://dc.lft.to/lastmile_qr_scan"}, "lon": -77.025766, "name": "a1601d23f0daf16baea773e1e749bd18", "lat": 38.9204515, "is_reserved": 0, "fusion_lat": 0.0, "bike_id": "a1601d23f0daf16baea773e1e749bd18", "type": "electric_scooter", "is_disabled": 0, "fusion_lon": 0.0}, {"rental_uris": {"android": "https://dc.lft.to/lastmile_qr_scan", "ios": "https://dc.lft.to/lastmile_qr_scan"}, "lon": -77.02577033333333, "name": "e3e55e412b17d2596f9ee14541856807", "lat": 38.89541033333333, "is_reserved": 0, "fusion_lat": 0.0, "bike_id": "e3e55e412b17d2596f9ee14541856807", "type": "electric_scooter", "is_disabled": 0, "fusion_lon": 0.0}, {"rental_uris": {"android": "https://dc.lft.to/lastmile_qr_scan", "ios": "https://dc.lft.to/lastmile_qr_scan"}, "lon": -77.01169716666666, "name": "059dfef420e0e56126bc3a129c033c62", "lat": 38.921333, "is_reserved": 0, "fusion_lat": 0.0, "bike_id": "059dfef420e0e56126bc3a129c033c62", "type": "electric_scooter", "is_disabled": 0, "fusion_lon": 0.0}, {"rental_uris": {"android": "https://dc.lft.to/lastmile_qr_scan", "ios": "https://dc.lft.to/lastmile_qr_scan"}, "lon": -77.00542466666667, "name": "0b80f5aa726a29622ad48f28b3aafab1", "lat": 38.905741166666665, "is_reserved": 0, "fusion_lat": 0.0, "bike_id": "0b80f5aa726a29622ad48f28b3aafab1", "type": "electric_scooter", "is_disabled": 0, "fusion_lon": 0.0}, {"rental_uris": {"android": "https://dc.lft.to/lastmile_qr_scan", "ios": "https://dc.lft.to/lastmile_qr_scan"}, "lon": -77.12062483333334, "name": "78da5ada293c2257aaadaf63aed17d94", "lat": 38.855324333333336, "is_reserved": 0, "fusion_lat": 0.0, "bike_id": "78da5ada293c2257aaadaf63aed17d94", "type": "electric_bike", "is_disabled": 0, "fusion_lon": 0.0}, {"rental_uris": {"android": "https://dc.lft.to/lastmile_qr_scan", "ios": "https://dc.lft.to/lastmile_qr_scan"}, "lon": -76.99945683333334, "name": "7c167a2bef10ae4fafb65f7fe924f640", "lat": 38.940649666666665, "is_reserved": 0, "fusion_lat": 0.0, "bike_id": "7c167a2bef10ae4fafb65f7fe924f640", "type": "electric_scooter", "is_disabled": 0, "fusion_lon": 0.0}, {"rental_uris": {"android": "https://dc.lft.to/lastmile_qr_scan", "ios": "https://dc.lft.to/lastmile_qr_scan"}, "lon": -77.1201835, "name": "b2be61bf4cdd6cc177d601b4903c6480", "lat": 38.85786783333333, "is_reserved": 0, "fusion_lat": 0.0, "bike_id": "b2be61bf4cdd6cc177d601b4903c6480", "type": "electric_bike", "is_disabled": 0, "fusion_lon": 0.0}, {"rental_uris": {"android": "https://dc.lft.to/lastmile_qr_scan", "ios": "https://dc.lft.to/lastmile_qr_scan"}, "lon": -77.045573, "name": "c808d4574db199400d60263d0d7fce5f", "lat": 38.9195525, "is_reserved": 0, "fusion_lat": 0.0, "bike_id": "c808d4574db199400d60263d0d7fce5f", "type": "electric_scooter", "is_disabled": 0, "fusion_lon": 0.0}, {"rental_uris": {"android": "https://dc.lft.to/lastmile_qr_scan", "ios": "https://dc.lft.to/lastmile_qr_scan"}, "lon": -77.040195, "name": "05aa917adaade4ecff6f06c74975e5eb", "lat": 38.90302533333333, "is_reserved": 0, "fusion_lat": 0.0, "bike_id": "05aa917adaade4ecff6f06c74975e5eb", "type": "electric_scooter", "is_disabled": 0, "fusion_lon": 0.0}, {"rental_uris": {"android": "https://dc.lft.to/lastmile_qr_scan", "ios": "https://dc.lft.to/lastmile_qr_scan"}, "lon": -77.0331025, "name": "e998b8a310b9eefb411fd2643e13e458", "lat": 38.898269, "is_reserved": 0, "fusion_lat": 0.0, "bike_id": "e998b8a310b9eefb411fd2643e13e458", "type": "electric_scooter", "is_disabled": 0, "fusion_lon": 0.0}, {"rental_uris": {"android": "https://dc.lft.to/lastmile_qr_scan", "ios": "https://dc.lft.to/lastmile_qr_scan"}, "lon": -77.02164366666666, "name": "cdee65180d00c3ecf969272a0c7ca080", "lat": 38.92506433333333, "is_reserved": 0, "fusion_lat": 0.0, "bike_id": "cdee65180d00c3ecf969272a0c7ca080", "type": "electric_scooter", "is_disabled": 0, "fusion_lon": 0.0}, {"rental_uris": {"android": "https://dc.lft.to/lastmile_qr_scan", "ios": "https://dc.lft.to/lastmile_qr_scan"}, "lon": -77.00595366666667, "name": "adc5d630945430aac34ef500387ff151", "lat": 38.90567166666666, "is_reserved": 0, "fusion_lat": 0.0, "bike_id": "adc5d630945430aac34ef500387ff151", "type": "electric_scooter", "is_disabled": 0, "fusion_lon": 0.0}, {"rental_uris": {"android": "https://dc.lft.to/lastmile_qr_scan", "ios": "https://dc.lft.to/lastmile_qr_scan"}, "lon": -77.00867733333334, "name": "ccfd4b5625283a784115a4d1e8af0e18", "lat": 38.96742716666667, "is_reserved": 0, "fusion_lat": 0.0, "bike_id": "ccfd4b5625283a784115a4d1e8af0e18", "type": "electric_scooter", "is_disabled": 0, "fusion_lon": 0.0}, {"rental_uris": {"android": "https://dc.lft.to/lastmile_qr_scan", "ios": "https://dc.lft.to/lastmile_qr_scan"}, "lon": -77.0021405, "name": "38fb420dd9c59cb4be580034aa3f0450", "lat": 38.9085665, "is_reserved": 0, "fusion_lat": 0.0, "bike_id": "38fb420dd9c59cb4be580034aa3f0450", "type": "electric_scooter", "is_disabled": 0, "fusion_lon": 0.0}, {"rental_uris": {"android": "https://dc.lft.to/lastmile_qr_scan", "ios": "https://dc.lft.to/lastmile_qr_scan"}, "lon": -76.970541, "name": "5acd70a6e7e21830474affa64792195e", "lat": 38.9846035, "is_reserved": 0, "fusion_lat": 0.0, "bike_id": "5acd70a6e7e21830474affa64792195e", "type": "electric_bike", "is_disabled": 0, "fusion_lon": 0.0}, {"rental_uris": {"android": "https://dc.lft.to/lastmile_qr_scan", "ios": "https://dc.lft.to/lastmile_qr_scan"}, "lon": -77.02330616666667, "name": "538f3d24d8ec11be70c7c8190783e62e", "lat": 38.919699, "is_reserved": 0, "fusion_lat": 0.0, "bike_id": "538f3d24d8ec11be70c7c8190783e62e", "type": "electric_scooter", "is_disabled": 0, "fusion_lon": 0.0}, {"rental_uris": {"android": "https://dc.lft.to/lastmile_qr_scan", "ios": "https://dc.lft.to/lastmile_qr_scan"}, "lon": -77.0322605, "name": "9fdf9179324ed0853106b7ea8957a7ed", "lat": 38.9104755, "is_reserved": 0, "fusion_lat": 0.0, "bike_id": "9fdf9179324ed0853106b7ea8957a7ed", "type": "electric_scooter", "is_disabled": 0, "fusion_lon": 0.0}, {"rental_uris": {"android": "https://dc.lft.to/lastmile_qr_scan", "ios": "https://dc.lft.to/lastmile_qr_scan"}, "lon": -77.01232466666667, "name": "0fb50fb67e74b49180705c9492678654", "lat": 38.872091, "is_reserved": 0, "fusion_lat": 0.0, "bike_id": "0fb50fb67e74b49180705c9492678654", "type": "electric_scooter", "is_disabled": 0, "fusion_lon": 0.0}, {"rental_uris": {"android": "https://dc.lft.to/lastmile_qr_scan", "ios": "https://dc.lft.to/lastmile_qr_scan"}, "lon": -77.0560215, "name": "ba6ac9e4d581292f33f1a971e968b9f0", "lat": 38.936992333333336, "is_reserved": 0, "fusion_lat": 0.0, "bike_id": "ba6ac9e4d581292f33f1a971e968b9f0", "type": "electric_scooter", "is_disabled": 0, "fusion_lon": 0.0}, {"rental_uris": {"android": "https://dc.lft.to/lastmile_qr_scan", "ios": "https://dc.lft.to/lastmile_qr_scan"}, "lon": -76.9989285, "name": "0a17d9b58a996d3c7fd5720914c72e2d", "lat": 38.909502, "is_reserved": 0, "fusion_lat": 0.0, "bike_id": "0a17d9b58a996d3c7fd5720914c72e2d", "type": "electric_bike", "is_disabled": 0, "fusion_lon": 0.0}, {"rental_uris": {"android": "https://dc.lft.to/lastmile_qr_scan", "ios": "https://dc.lft.to/lastmile_qr_scan"}, "lon": -76.91601866666667, "name": "8727955400f7d63004c050f4e8eafd3d", "lat": 38.87978366666667, "is_reserved": 0, "fusion_lat": 0.0, "bike_id": "8727955400f7d63004c050f4e8eafd3d", "type": "electric_bike", "is_disabled": 0, "fusion_lon": 0.0}, {"rental_uris": {"android": "https://dc.lft.to/lastmile_qr_scan", "ios": "https://dc.lft.to/lastmile_qr_scan"}, "lon": -77.02296866666667, "name": "60ef6d25bec2dcd3edae873f3775792e", "lat": 38.92085183333333, "is_reserved": 0, "fusion_lat": 0.0, "bike_id": "60ef6d25bec2dcd3edae873f3775792e", "type": "electric_scooter", "is_disabled": 0, "fusion_lon": 0.0}, {"rental_uris": {"android": "https://dc.lft.to/lastmile_qr_scan", "ios": "https://dc.lft.to/lastmile_qr_scan"}, "lon": -77.04342516666667, "name": "c920728d8bf4ce9556cea5a522d8d85b", "lat": 38.904266666666665, "is_reserved": 0, "fusion_lat": 0.0, "bike_id": "c920728d8bf4ce9556cea5a522d8d85b", "type": "electric_scooter", "is_disabled": 0, "fusion_lon": 0.0}, {"rental_uris": {"android": "https://dc.lft.to/lastmile_qr_scan", "ios": "https://dc.lft.to/lastmile_qr_scan"}, "lon": -77.02413983333334, "name": "3794484a28faea61ad13e871d401c3de", "lat": 38.912117, "is_reserved": 0, "fusion_lat": 0.0, "bike_id": "3794484a28faea61ad13e871d401c3de", "type": "electric_scooter", "is_disabled": 0, "fusion_lon": 0.0}, {"rental_uris": {"android": "https://dc.lft.to/lastmile_qr_scan", "ios": "https://dc.lft.to/lastmile_qr_scan"}, "lon": -77.03872033333333, "name": "ef76828588de198c18824112cc973a28", "lat": 38.92262216666666, "is_reserved": 0, "fusion_lat": 0.0, "bike_id": "ef76828588de198c18824112cc973a28", "type": "electric_scooter", "is_disabled": 0, "fusion_lon": 0.0}, {"rental_uris": {"android": "https://dc.lft.to/lastmile_qr_scan", "ios": "https://dc.lft.to/lastmile_qr_scan"}, "lon": -77.03662916666667, "name": "afb83cb29626a04ce1c5fa22a9652952", "lat": 38.9100165, "is_reserved": 0, "fusion_lat": 0.0, "bike_id": "afb83cb29626a04ce1c5fa22a9652952", "type": "electric_scooter", "is_disabled": 0, "fusion_lon": 0.0}, {"rental_uris": {"android": "https://dc.lft.to/lastmile_qr_scan", "ios": "https://dc.lft.to/lastmile_qr_scan"}, "lon": -77.00069083333334, "name": "490904077b047926a66aeb78264228f6", "lat": 38.886776833333336, "is_reserved": 0, "fusion_lat": 0.0, "bike_id": "490904077b047926a66aeb78264228f6", "type": "electric_scooter", "is_disabled": 0, "fusion_lon": 0.0}, {"rental_uris": {"android": "https://dc.lft.to/lastmile_qr_scan", "ios": "https://dc.lft.to/lastmile_qr_scan"}, "lon": -77.00239333333333, "name": "e639f656a2eb85c8802323ab8b501af0", "lat": 38.876207666666666, "is_reserved": 0, "fusion_lat": 0.0, "bike_id": "e639f656a2eb85c8802323ab8b501af0", "type": "electric_scooter", "is_disabled": 0, "fusion_lon": 0.0}, {"rental_uris": {"android": "https://dc.lft.to/lastmile_qr_scan", "ios": "https://dc.lft.to/lastmile_qr_scan"}, "lon": -77.034269, "name": "19c5bc4e6f9b19eb915ea122dedd0cb4", "lat": 38.919163166666664, "is_reserved": 0, "fusion_lat": 0.0, "bike_id": "19c5bc4e6f9b19eb915ea122dedd0cb4", "type": "electric_scooter", "is_disabled": 0, "fusion_lon": 0.0}, {"rental_uris": {"android": "https://dc.lft.to/lastmile_qr_scan", "ios": "https://dc.lft.to/lastmile_qr_scan"}, "lon": -77.00889266666667, "name": "100fe44412122b6a726b46d7adcf38c6", "lat": 38.876778, "is_reserved": 0, "fusion_lat": 0.0, "bike_id": "100fe44412122b6a726b46d7adcf38c6", "type": "electric_scooter", "is_disabled": 0, "fusion_lon": 0.0}, {"rental_uris": {"android": "https://dc.lft.to/lastmile_qr_scan", "ios": "https://dc.lft.to/lastmile_qr_scan"}, "lon": -77.00048883333334, "name": "685a32ad9648a3451539fae0b05270aa", "lat": 38.918983833333336, "is_reserved": 0, "fusion_lat": 0.0, "bike_id": "685a32ad9648a3451539fae0b05270aa", "type": "electric_scooter", "is_disabled": 0, "fusion_lon": 0.0}, {"rental_uris": {"android": "https://dc.lft.to/lastmile_qr_scan", "ios": "https://dc.lft.to/lastmile_qr_scan"}, "lon": -77.01484616666667, "name": "74abd83fdd8b638572da75989a97988e", "lat": 38.919266666666665, "is_reserved": 0, "fusion_lat": 0.0, "bike_id": "74abd83fdd8b638572da75989a97988e", "type": "electric_scooter", "is_disabled": 0, "fusion_lon": 0.0}, {"rental_uris": {"android": "https://dc.lft.to/lastmile_qr_scan", "ios": "https://dc.lft.to/lastmile_qr_scan"}, "lon": -77.03639083333333, "name": "6205ec43c356e7d56c46dc24adcb9f1d", "lat": 38.9168135, "is_reserved": 0, "fusion_lat": 0.0, "bike_id": "6205ec43c356e7d56c46dc24adcb9f1d", "type": "electric_scooter", "is_disabled": 0, "fusion_lon": 0.0}, {"rental_uris": {"android": "https://dc.lft.to/lastmile_qr_scan", "ios": "https://dc.lft.to/lastmile_qr_scan"}, "lon": -77.02351866666666, "name": "cab6f116920309ec90a8f27fd193f6f1", "lat": 38.93001066666667, "is_reserved": 0, "fusion_lat": 0.0, "bike_id": "cab6f116920309ec90a8f27fd193f6f1", "type": "electric_scooter", "is_disabled": 0, "fusion_lon": 0.0}, {"rental_uris": {"android": "https://dc.lft.to/lastmile_qr_scan", "ios": "https://dc.lft.to/lastmile_qr_scan"}, "lon": -77.04693683333333, "name": "28dac1fecc66905ef32d72d815d53f67", "lat": 38.892218666666665, "is_reserved": 0, "fusion_lat": 0.0, "bike_id": "28dac1fecc66905ef32d72d815d53f67", "type": "electric_scooter", "is_disabled": 0, "fusion_lon": 0.0}, {"rental_uris": {"android": "https://dc.lft.to/lastmile_qr_scan", "ios": "https://dc.lft.to/lastmile_qr_scan"}, "lon": -77.01142266666666, "name": "8635ef1e828c8adad603f3fd14bae4da", "lat": 38.90015066666667, "is_reserved": 0, "fusion_lat": 0.0, "bike_id": "8635ef1e828c8adad603f3fd14bae4da", "type": "electric_scooter", "is_disabled": 0, "fusion_lon": 0.0}, {"rental_uris": {"android": "https://dc.lft.to/lastmile_qr_scan", "ios": "https://dc.lft.to/lastmile_qr_scan"}, "lon": -76.94256616666667, "name": "f42921c169628770a8f57f4e04aa3660", "lat": 38.898496, "is_reserved": 0, "fusion_lat": 0.0, "bike_id": "f42921c169628770a8f57f4e04aa3660", "type": "electric_scooter", "is_disabled": 0, "fusion_lon": 0.0}, {"rental_uris": {"android": "https://dc.lft.to/lastmile_qr_scan", "ios": "https://dc.lft.to/lastmile_qr_scan"}, "lon": -77.03287, "name": "5f76de3b31e366ac34f7a726d557dbb2", "lat": 38.93685266666667, "is_reserved": 0, "fusion_lat": 0.0, "bike_id": "5f76de3b31e366ac34f7a726d557dbb2", "type": "electric_scooter", "is_disabled": 0, "fusion_lon": 0.0}, {"rental_uris": {"android": "https://dc.lft.to/lastmile_qr_scan", "ios": "https://dc.lft.to/lastmile_qr_scan"}, "lon": -77.04164683333333, "name": "4cb264388d37430708d2887891b5a5ad", "lat": 38.89234966666667, "is_reserved": 0, "fusion_lat": 0.0, "bike_id": "4cb264388d37430708d2887891b5a5ad", "type": "electric_scooter", "is_disabled": 0, "fusion_lon": 0.0}, {"rental_uris": {"android": "https://dc.lft.to/lastmile_qr_scan", "ios": "https://dc.lft.to/lastmile_qr_scan"}, "lon": -76.94894, "name": "e5e13140fa74c2f1aae3dfd7a00808dc", "lat": 38.895340833333336, "is_reserved": 0, "fusion_lat": 0.0, "bike_id": "e5e13140fa74c2f1aae3dfd7a00808dc", "type": "electric_scooter", "is_disabled": 0, "fusion_lon": 0.0}, {"rental_uris": {"android": "https://dc.lft.to/lastmile_qr_scan", "ios": "https://dc.lft.to/lastmile_qr_scan"}, "lon": -77.021569, "name": "e5f226dffb48a387268219ae9ce563b7", "lat": 38.9260245, "is_reserved": 0, "fusion_lat": 0.0, "bike_id": "e5f226dffb48a387268219ae9ce563b7", "type": "electric_scooter", "is_disabled": 0, "fusion_lon": 0.0}, {"rental_uris": {"android": "https://dc.lft.to/lastmile_qr_scan", "ios": "https://dc.lft.to/lastmile_qr_scan"}, "lon": -77.031874, "name": "4eca69af0d060759ab962aea70abeca6", "lat": 38.89250366666667, "is_reserved": 0, "fusion_lat": 0.0, "bike_id": "4eca69af0d060759ab962aea70abeca6", "type": "electric_scooter", "is_disabled": 0, "fusion_lon": 0.0}, {"rental_uris": {"android": "https://dc.lft.to/lastmile_qr_scan", "ios": "https://dc.lft.to/lastmile_qr_scan"}, "lon": -77.04697116666667, "name": "9cc0e6ecca5749060212115bbbc1cd6f", "lat": 38.921014, "is_reserved": 0, "fusion_lat": 0.0, "bike_id": "9cc0e6ecca5749060212115bbbc1cd6f", "type": "electric_scooter", "is_disabled": 0, "fusion_lon": 0.0}, {"rental_uris": {"android": "https://dc.lft.to/lastmile_qr_scan", "ios": "https://dc.lft.to/lastmile_qr_scan"}, "lon": -76.94856833333333, "name": "d4cb725719748eb51ed971c2d16cd41d", "lat": 38.883007166666665, "is_reserved": 0, "fusion_lat": 0.0, "bike_id": "d4cb725719748eb51ed971c2d16cd41d", "type": "electric_scooter", "is_disabled": 0, "fusion_lon": 0.0}, {"rental_uris": {"android": "https://dc.lft.to/lastmile_qr_scan", "ios": "https://dc.lft.to/lastmile_qr_scan"}, "lon": -76.947764, "name": "81be11e933acced24eaee8a0df685e26", "lat": 38.896133, "is_reserved": 0, "fusion_lat": 0.0, "bike_id": "81be11e933acced24eaee8a0df685e26", "type": "electric_scooter", "is_disabled": 0, "fusion_lon": 0.0}, {"rental_uris": {"android": "https://dc.lft.to/lastmile_qr_scan", "ios": "https://dc.lft.to/lastmile_qr_scan"}, "lon": -76.95161133333333, "name": "5a2ce4d2982d03e45f5c3521f5fc3b31", "lat": 38.885195, "is_reserved": 0, "fusion_lat": 0.0, "bike_id": "5a2ce4d2982d03e45f5c3521f5fc3b31", "type": "electric_bike", "is_disabled": 0, "fusion_lon": 0.0}, {"rental_uris": {"android": "https://dc.lft.to/lastmile_qr_scan", "ios": "https://dc.lft.to/lastmile_qr_scan"}, "lon": -76.990031, "name": "21c5bfd5d724d28da690ee1695281146", "lat": 38.8650405, "is_reserved": 0, "fusion_lat": 0.0, "bike_id": "21c5bfd5d724d28da690ee1695281146", "type": "electric_scooter", "is_disabled": 0, "fusion_lon": 0.0}, {"rental_uris": {"android": "https://dc.lft.to/lastmile_qr_scan", "ios": "https://dc.lft.to/lastmile_qr_scan"}, "lon": -77.02183716666667, "name": "91f971b89a80fdb7580da8299ab71fb1", "lat": 38.915684, "is_reserved": 0, "fusion_lat": 0.0, "bike_id": "91f971b89a80fdb7580da8299ab71fb1", "type": "electric_scooter", "is_disabled": 0, "fusion_lon": 0.0}, {"rental_uris": {"android": "https://dc.lft.to/lastmile_qr_scan", "ios": "https://dc.lft.to/lastmile_qr_scan"}, "lon": -76.98822266666667, "name": "45a52d1773fd9aa3c4e76dfbe502c4fe", "lat": 38.900367833333334, "is_reserved": 0, "fusion_lat": 0.0, "bike_id": "45a52d1773fd9aa3c4e76dfbe502c4fe", "type": "electric_scooter", "is_disabled": 0, "fusion_lon": 0.0}, {"rental_uris": {"android": "https://dc.lft.to/lastmile_qr_scan", "ios": "https://dc.lft.to/lastmile_qr_scan"}, "lon": -77.03199766666667, "name": "a0e21bf7654fe03277f6f0fdf202ba9b", "lat": 38.90375216666666, "is_reserved": 0, "fusion_lat": 0.0, "bike_id": "a0e21bf7654fe03277f6f0fdf202ba9b", "type": "electric_scooter", "is_disabled": 0, "fusion_lon": 0.0}, {"rental_uris": {"android": "https://dc.lft.to/lastmile_qr_scan", "ios": "https://dc.lft.to/lastmile_qr_scan"}, "lon": -76.9983855, "name": "de69911c89eb36d4aee418911c5184df", "lat": 38.899933833333336, "is_reserved": 0, "fusion_lat": 0.0, "bike_id": "de69911c89eb36d4aee418911c5184df", "type": "electric_bike", "is_disabled": 0, "fusion_lon": 0.0}, {"rental_uris": {"android": "https://dc.lft.to/lastmile_qr_scan", "ios": "https://dc.lft.to/lastmile_qr_scan"}, "lon": -77.01430166666667, "name": "756903b8b27e9efcec05e21291a7982f", "lat": 38.928746333333336, "is_reserved": 0, "fusion_lat": 0.0, "bike_id": "756903b8b27e9efcec05e21291a7982f", "type": "electric_scooter", "is_disabled": 0, "fusion_lon": 0.0}, {"rental_uris": {"android": "https://dc.lft.to/lastmile_qr_scan", "ios": "https://dc.lft.to/lastmile_qr_scan"}, "lon": -77.0190625, "name": "6d686c3c6ac6b9970899170bd36a89f3", "lat": 38.92366033333333, "is_reserved": 0, "fusion_lat": 0.0, "bike_id": "6d686c3c6ac6b9970899170bd36a89f3", "type": "electric_scooter", "is_disabled": 0, "fusion_lon": 0.0}, {"rental_uris": {"android": "https://dc.lft.to/lastmile_qr_scan", "ios": "https://dc.lft.to/lastmile_qr_scan"}, "lon": -77.0273815, "name": "67cc57ab877d4dcb66efc110de2acede", "lat": 38.92768933333333, "is_reserved": 0, "fusion_lat": 0.0, "bike_id": "67cc57ab877d4dcb66efc110de2acede", "type": "electric_scooter", "is_disabled": 0, "fusion_lon": 0.0}, {"rental_uris": {"android": "https://dc.lft.to/lastmile_qr_scan", "ios": "https://dc.lft.to/lastmile_qr_scan"}, "lon": -77.018892, "name": "37adbc9846ad7bb3b0fe5a7c8f5bc0c6", "lat": 38.8747505, "is_reserved": 0, "fusion_lat": 0.0, "bike_id": "37adbc9846ad7bb3b0fe5a7c8f5bc0c6", "type": "electric_scooter", "is_disabled": 0, "fusion_lon": 0.0}, {"rental_uris": {"android": "https://dc.lft.to/lastmile_qr_scan", "ios": "https://dc.lft.to/lastmile_qr_scan"}, "lon": -77.033813, "name": "d78064f87807a6f8f035ece560d1e43d", "lat": 38.90196366666667, "is_reserved": 0, "fusion_lat": 0.0, "bike_id": "d78064f87807a6f8f035ece560d1e43d", "type": "electric_scooter", "is_disabled": 0, "fusion_lon": 0.0}, {"rental_uris": {"android": "https://dc.lft.to/lastmile_qr_scan", "ios": "https://dc.lft.to/lastmile_qr_scan"}, "lon": -77.04327333333333, "name": "4f9ce6b558fc89d14a6b73a34c418c84", "lat": 38.905746, "is_reserved": 0, "fusion_lat": 0.0, "bike_id": "4f9ce6b558fc89d14a6b73a34c418c84", "type": "electric_scooter", "is_disabled": 0, "fusion_lon": 0.0}, {"rental_uris": {"android": "https://dc.lft.to/lastmile_qr_scan", "ios": "https://dc.lft.to/lastmile_qr_scan"}, "lon": -77.02696666666667, "name": "705b931d39f129c5543cc3222c67e829", "lat": 38.91751, "is_reserved": 0, "fusion_lat": 0.0, "bike_id": "705b931d39f129c5543cc3222c67e829", "type": "electric_scooter", "is_disabled": 0, "fusion_lon": 0.0}, {"rental_uris": {"android": "https://dc.lft.to/lastmile_qr_scan", "ios": "https://dc.lft.to/lastmile_qr_scan"}, "lon": -77.02347033333334, "name": "2be3dcc332e58594ed9b982faf382c8a", "lat": 38.93531266666667, "is_reserved": 0, "fusion_lat": 0.0, "bike_id": "2be3dcc332e58594ed9b982faf382c8a", "type": "electric_scooter", "is_disabled": 0, "fusion_lon": 0.0}, {"rental_uris": {"android": "https://dc.lft.to/lastmile_qr_scan", "ios": "https://dc.lft.to/lastmile_qr_scan"}, "lon": -77.04197116666667, "name": "0310acfe254bda621bcf02fec0e98592", "lat": 38.89222433333333, "is_reserved": 0, "fusion_lat": 0.0, "bike_id": "0310acfe254bda621bcf02fec0e98592", "type": "electric_scooter", "is_disabled": 0, "fusion_lon": 0.0}, {"rental_uris": {"android": "https://dc.lft.to/lastmile_qr_scan", "ios": "https://dc.lft.to/lastmile_qr_scan"}, "lon": -77.022995, "name": "54ee1d5cd70dbe8de46e3f7e9aa8bf90", "lat": 38.91789966666666, "is_reserved": 0, "fusion_lat": 0.0, "bike_id": "54ee1d5cd70dbe8de46e3f7e9aa8bf90", "type": "electric_scooter", "is_disabled": 0, "fusion_lon": 0.0}, {"rental_uris": {"android": "https://dc.lft.to/lastmile_qr_scan", "ios": "https://dc.lft.to/lastmile_qr_scan"}, "lon": -77.04767283333334, "name": "f5218cf0e7902e7aafc9e0690c7d3b38", "lat": 38.91755116666667, "is_reserved": 0, "fusion_lat": 0.0, "bike_id": "f5218cf0e7902e7aafc9e0690c7d3b38", "type": "electric_scooter", "is_disabled": 0, "fusion_lon": 0.0}, {"rental_uris": {"android": "https://dc.lft.to/lastmile_qr_scan", "ios": "https://dc.lft.to/lastmile_qr_scan"}, "lon": -77.04310133333334, "name": "ab44191dcc448d2716c84a0cf296954d", "lat": 38.923284833333334, "is_reserved": 0, "fusion_lat": 0.0, "bike_id": "ab44191dcc448d2716c84a0cf296954d", "type": "electric_scooter", "is_disabled": 0, "fusion_lon": 0.0}, {"rental_uris": {"android": "https://dc.lft.to/lastmile_qr_scan", "ios": "https://dc.lft.to/lastmile_qr_scan"}, "lon": -77.05268383333333, "name": "1bd2ca5316d09f878c416d2d51ef7197", "lat": 38.91012533333333, "is_reserved": 0, "fusion_lat": 0.0, "bike_id": "1bd2ca5316d09f878c416d2d51ef7197", "type": "electric_scooter", "is_disabled": 0, "fusion_lon": 0.0}, {"rental_uris": {"android": "https://dc.lft.to/lastmile_qr_scan", "ios": "https://dc.lft.to/lastmile_qr_scan"}, "lon": -77.04463066666666, "name": "e8e162a60c4c296db317be93974b05cd", "lat": 38.902847, "is_reserved": 0, "fusion_lat": 0.0, "bike_id": "e8e162a60c4c296db317be93974b05cd", "type": "electric_scooter", "is_disabled": 0, "fusion_lon": 0.0}, {"rental_uris": {"android": "https://dc.lft.to/lastmile_qr_scan", "ios": "https://dc.lft.to/lastmile_qr_scan"}, "lon": -76.99621233333333, "name": "cd4773584648ab4a04425542d38cff1b", "lat": 38.950722999999996, "is_reserved": 0, "fusion_lat": 0.0, "bike_id": "cd4773584648ab4a04425542d38cff1b", "type": "electric_scooter", "is_disabled": 0, "fusion_lon": 0.0}, {"rental_uris": {"android": "https://dc.lft.to/lastmile_qr_scan", "ios": "https://dc.lft.to/lastmile_qr_scan"}, "lon": -77.03382883333333, "name": "74f47b64ce41b863841c33438e2de9db", "lat": 38.92538416666667, "is_reserved": 0, "fusion_lat": 0.0, "bike_id": "74f47b64ce41b863841c33438e2de9db", "type": "electric_scooter", "is_disabled": 0, "fusion_lon": 0.0}, {"rental_uris": {"android": "https://dc.lft.to/lastmile_qr_scan", "ios": "https://dc.lft.to/lastmile_qr_scan"}, "lon": -76.99276733333333, "name": "141475ced17bd149038f7dad7d4934b7", "lat": 38.972559333333336, "is_reserved": 0, "fusion_lat": 0.0, "bike_id": "141475ced17bd149038f7dad7d4934b7", "type": "electric_bike", "is_disabled": 0, "fusion_lon": 0.0}, {"rental_uris": {"android": "https://dc.lft.to/lastmile_qr_scan", "ios": "https://dc.lft.to/lastmile_qr_scan"}, "lon": -77.007561, "name": "25f77ef861fa9c452fc3300899fda71a", "lat": 38.87112483333333, "is_reserved": 0, "fusion_lat": 0.0, "bike_id": "25f77ef861fa9c452fc3300899fda71a", "type": "electric_scooter", "is_disabled": 0, "fusion_lon": 0.0}, {"rental_uris": {"android": "https://dc.lft.to/lastmile_qr_scan", "ios": "https://dc.lft.to/lastmile_qr_scan"}, "lon": -77.053357, "name": "f5535c48dfda4ae8c501df5800a9f2a5", "lat": 39.040812833333334, "is_reserved": 0, "fusion_lat": 0.0, "bike_id": "f5535c48dfda4ae8c501df5800a9f2a5", "type": "electric_bike", "is_disabled": 0, "fusion_lon": 0.0}, {"rental_uris": {"android": "https://dc.lft.to/lastmile_qr_scan", "ios": "https://dc.lft.to/lastmile_qr_scan"}, "lon": -77.032836, "name": "7e6d8ddb32267529768fc25e7906ad07", "lat": 38.922773166666666, "is_reserved": 0, "fusion_lat": 0.0, "bike_id": "7e6d8ddb32267529768fc25e7906ad07", "type": "electric_scooter", "is_disabled": 0, "fusion_lon": 0.0}, {"rental_uris": {"android": "https://dc.lft.to/lastmile_qr_scan", "ios": "https://dc.lft.to/lastmile_qr_scan"}, "lon": -77.08630116666667, "name": "054088a27528bdf63e815ada39faac4e", "lat": 38.88073416666667, "is_reserved": 0, "fusion_lat": 0.0, "bike_id": "054088a27528bdf63e815ada39faac4e", "type": "electric_bike", "is_disabled": 0, "fusion_lon": 0.0}, {"rental_uris": {"android": "https://dc.lft.to/lastmile_qr_scan", "ios": "https://dc.lft.to/lastmile_qr_scan"}, "lon": -77.03240016666666, "name": "419dcb9a63e47b9a33b1b601ea8868a2", "lat": 38.9272595, "is_reserved": 0, "fusion_lat": 0.0, "bike_id": "419dcb9a63e47b9a33b1b601ea8868a2", "type": "electric_scooter", "is_disabled": 0, "fusion_lon": 0.0}, {"rental_uris": {"android": "https://dc.lft.to/lastmile_qr_scan", "ios": "https://dc.lft.to/lastmile_qr_scan"}, "lon": -77.03346583333334, "name": "8fe19ac00b39da1693357d1b099d5adf", "lat": 38.93583316666667, "is_reserved": 0, "fusion_lat": 0.0, "bike_id": "8fe19ac00b39da1693357d1b099d5adf", "type": "electric_scooter", "is_disabled": 0, "fusion_lon": 0.0}, {"rental_uris": {"android": "https://dc.lft.to/lastmile_qr_scan", "ios": "https://dc.lft.to/lastmile_qr_scan"}, "lon": -77.0456285, "name": "c3bcf629426ddf1029de17658700f94c", "lat": 38.90860166666667, "is_reserved": 0, "fusion_lat": 0.0, "bike_id": "c3bcf629426ddf1029de17658700f94c", "type": "electric_scooter", "is_disabled": 0, "fusion_lon": 0.0}, {"rental_uris": {"android": "https://dc.lft.to/lastmile_qr_scan", "ios": "https://dc.lft.to/lastmile_qr_scan"}, "lon": -77.038521, "name": "0cefbd31d8f2070906b96656f423d19e", "lat": 38.90264583333333, "is_reserved": 0, "fusion_lat": 0.0, "bike_id": "0cefbd31d8f2070906b96656f423d19e", "type": "electric_scooter", "is_disabled": 0, "fusion_lon": 0.0}, {"rental_uris": {"android": "https://dc.lft.to/lastmile_qr_scan", "ios": "https://dc.lft.to/lastmile_qr_scan"}, "lon": -77.03258433333333, "name": "2334ce17b4999e5f15a8380243e6f1ce", "lat": 38.9388, "is_reserved": 0, "fusion_lat": 0.0, "bike_id": "2334ce17b4999e5f15a8380243e6f1ce", "type": "electric_scooter", "is_disabled": 0, "fusion_lon": 0.0}, {"rental_uris": {"android": "https://dc.lft.to/lastmile_qr_scan", "ios": "https://dc.lft.to/lastmile_qr_scan"}, "lon": -77.029515, "name": "994e15433fb19fef19024bb862ca11d2", "lat": 38.916787166666666, "is_reserved": 0, "fusion_lat": 0.0, "bike_id": "994e15433fb19fef19024bb862ca11d2", "type": "electric_scooter", "is_disabled": 0, "fusion_lon": 0.0}, {"rental_uris": {"android": "https://dc.lft.to/lastmile_qr_scan", "ios": "https://dc.lft.to/lastmile_qr_scan"}, "lon": -77.03637133333334, "name": "4cd7b6864fc83bb9c98f631b98893c7c", "lat": 38.918626333333336, "is_reserved": 0, "fusion_lat": 0.0, "bike_id": "4cd7b6864fc83bb9c98f631b98893c7c", "type": "electric_scooter", "is_disabled": 0, "fusion_lon": 0.0}, {"rental_uris": {"android": "https://dc.lft.to/lastmile_qr_scan", "ios": "https://dc.lft.to/lastmile_qr_scan"}, "lon": -77.01265433333333, "name": "37867a53e75182234efd45fb9bcb2166", "lat": 38.86456416666667, "is_reserved": 0, "fusion_lat": 0.0, "bike_id": "37867a53e75182234efd45fb9bcb2166", "type": "electric_bike", "is_disabled": 0, "fusion_lon": 0.0}, {"rental_uris": {"android": "https://dc.lft.to/lastmile_qr_scan", "ios": "https://dc.lft.to/lastmile_qr_scan"}, "lon": -77.036429, "name": "2cccc5108c8ee1da7c09f4a96adde18c", "lat": 38.91610933333333, "is_reserved": 0, "fusion_lat": 0.0, "bike_id": "2cccc5108c8ee1da7c09f4a96adde18c", "type": "electric_scooter", "is_disabled": 0, "fusion_lon": 0.0}, {"rental_uris": {"android": "https://dc.lft.to/lastmile_qr_scan", "ios": "https://dc.lft.to/lastmile_qr_scan"}, "lon": -77.02153533333333, "name": "3898d5abf55887bede9ff5600533896f", "lat": 38.94133033333333, "is_reserved": 0, "fusion_lat": 0.0, "bike_id": "3898d5abf55887bede9ff5600533896f", "type": "electric_scooter", "is_disabled": 0, "fusion_lon": 0.0}, {"rental_uris": {"android": "https://dc.lft.to/lastmile_qr_scan", "ios": "https://dc.lft.to/lastmile_qr_scan"}, "lon": -77.04344416666666, "name": "a4a341f67eb4f8fd9da31caf76c4fadf", "lat": 38.908772, "is_reserved": 0, "fusion_lat": 0.0, "bike_id": "a4a341f67eb4f8fd9da31caf76c4fadf", "type": "electric_scooter", "is_disabled": 0, "fusion_lon": 0.0}, {"rental_uris": {"android": "https://dc.lft.to/lastmile_qr_scan", "ios": "https://dc.lft.to/lastmile_qr_scan"}, "lon": -77.06844766666667, "name": "da15cd5ab67e3857a76258f4438877f4", "lat": 38.917247, "is_reserved": 0, "fusion_lat": 0.0, "bike_id": "da15cd5ab67e3857a76258f4438877f4", "type": "electric_scooter", "is_disabled": 0, "fusion_lon": 0.0}, {"rental_uris": {"android": "https://dc.lft.to/lastmile_qr_scan", "ios": "https://dc.lft.to/lastmile_qr_scan"}, "lon": -77.02690183333333, "name": "018d3227559c9f77550fd0a0bb5c50ba", "lat": 38.9183555, "is_reserved": 0, "fusion_lat": 0.0, "bike_id": "018d3227559c9f77550fd0a0bb5c50ba", "type": "electric_scooter", "is_disabled": 0, "fusion_lon": 0.0}, {"rental_uris": {"android": "https://dc.lft.to/lastmile_qr_scan", "ios": "https://dc.lft.to/lastmile_qr_scan"}, "lon": -77.00579, "name": "659d7730ff0479ff467858ad317e12de", "lat": 38.875622166666666, "is_reserved": 0, "fusion_lat": 0.0, "bike_id": "659d7730ff0479ff467858ad317e12de", "type": "electric_scooter", "is_disabled": 0, "fusion_lon": 0.0}, {"rental_uris": {"android": "https://dc.lft.to/lastmile_qr_scan", "ios": "https://dc.lft.to/lastmile_qr_scan"}, "lon": -76.9836295, "name": "702e97cc5642d0d7ec63493982fb033f", "lat": 38.915048666666664, "is_reserved": 0, "fusion_lat": 0.0, "bike_id": "702e97cc5642d0d7ec63493982fb033f", "type": "electric_scooter", "is_disabled": 0, "fusion_lon": 0.0}, {"rental_uris": {"android": "https://dc.lft.to/lastmile_qr_scan", "ios": "https://dc.lft.to/lastmile_qr_scan"}, "lon": -77.0075785, "name": "f3c4cf5ba688e8adce57ec6e6c2bffc2", "lat": 38.99782733333333, "is_reserved": 0, "fusion_lat": 0.0, "bike_id": "f3c4cf5ba688e8adce57ec6e6c2bffc2", "type": "electric_bike", "is_disabled": 0, "fusion_lon": 0.0}, {"rental_uris": {"android": "https://dc.lft.to/lastmile_qr_scan", "ios": "https://dc.lft.to/lastmile_qr_scan"}, "lon": -77.03499933333333, "name": "8e2607043d1a8a450f35c43531a49c94", "lat": 38.92153966666667, "is_reserved": 0, "fusion_lat": 0.0, "bike_id": "8e2607043d1a8a450f35c43531a49c94", "type": "electric_scooter", "is_disabled": 0, "fusion_lon": 0.0}, {"rental_uris": {"android": "https://dc.lft.to/lastmile_qr_scan", "ios": "https://dc.lft.to/lastmile_qr_scan"}, "lon": -77.01073433333333, "name": "66ffe7cee4e67150696ebd2602a69fcd", "lat": 38.909601333333335, "is_reserved": 0, "fusion_lat": 0.0, "bike_id": "66ffe7cee4e67150696ebd2602a69fcd", "type": "electric_scooter", "is_disabled": 0, "fusion_lon": 0.0}, {"rental_uris": {"android": "https://dc.lft.to/lastmile_qr_scan", "ios": "https://dc.lft.to/lastmile_qr_scan"}, "lon": -76.97253766666667, "name": "40d03b73495342c772c31ee866a1646f", "lat": 38.957399833333334, "is_reserved": 0, "fusion_lat": 0.0, "bike_id": "40d03b73495342c772c31ee866a1646f", "type": "electric_bike", "is_disabled": 0, "fusion_lon": 0.0}, {"rental_uris": {"android": "https://dc.lft.to/lastmile_qr_scan", "ios": "https://dc.lft.to/lastmile_qr_scan"}, "lon": -77.04344533333334, "name": "c8453d4caca275183b3b6954802e4540", "lat": 38.908747166666664, "is_reserved": 0, "fusion_lat": 0.0, "bike_id": "c8453d4caca275183b3b6954802e4540", "type": "electric_scooter", "is_disabled": 0, "fusion_lon": 0.0}, {"rental_uris": {"android": "https://dc.lft.to/lastmile_qr_scan", "ios": "https://dc.lft.to/lastmile_qr_scan"}, "lon": -76.9996355, "name": "c95400481c2d5ee2e31554361028415c", "lat": 38.874175666666666, "is_reserved": 0, "fusion_lat": 0.0, "bike_id": "c95400481c2d5ee2e31554361028415c", "type": "electric_scooter", "is_disabled": 0, "fusion_lon": 0.0}, {"rental_uris": {"android": "https://dc.lft.to/lastmile_qr_scan", "ios": "https://dc.lft.to/lastmile_qr_scan"}, "lon": -77.043412, "name": "6b90d977a28eaea97ebf366f83d9a79a", "lat": 38.9087715, "is_reserved": 0, "fusion_lat": 0.0, "bike_id": "6b90d977a28eaea97ebf366f83d9a79a", "type": "electric_scooter", "is_disabled": 0, "fusion_lon": 0.0}, {"rental_uris": {"android": "https://dc.lft.to/lastmile_qr_scan", "ios": "https://dc.lft.to/lastmile_qr_scan"}, "lon": -77.08186616666667, "name": "ee1ad87191ff6badc79af7f49903bddc", "lat": 38.933392, "is_reserved": 0, "fusion_lat": 0.0, "bike_id": "ee1ad87191ff6badc79af7f49903bddc", "type": "electric_scooter", "is_disabled": 0, "fusion_lon": 0.0}, {"rental_uris": {"android": "https://dc.lft.to/lastmile_qr_scan", "ios": "https://dc.lft.to/lastmile_qr_scan"}, "lon": -77.0263415, "name": "60a0831c46e91582281a3a0e6021a2bc", "lat": 38.8944315, "is_reserved": 0, "fusion_lat": 0.0, "bike_id": "60a0831c46e91582281a3a0e6021a2bc", "type": "electric_scooter", "is_disabled": 0, "fusion_lon": 0.0}, {"rental_uris": {"android": "https://dc.lft.to/lastmile_qr_scan", "ios": "https://dc.lft.to/lastmile_qr_scan"}, "lon": -77.03849533333333, "name": "736f8802d32cf55495641a80924c8f8a", "lat": 38.91774, "is_reserved": 0, "fusion_lat": 0.0, "bike_id": "736f8802d32cf55495641a80924c8f8a", "type": "electric_scooter", "is_disabled": 0, "fusion_lon": 0.0}, {"rental_uris": {"android": "https://dc.lft.to/lastmile_qr_scan", "ios": "https://dc.lft.to/lastmile_qr_scan"}, "lon": -77.03196683333333, "name": "13f887a10b04aeff106916b3f97b775e", "lat": 38.920508833333336, "is_reserved": 0, "fusion_lat": 0.0, "bike_id": "13f887a10b04aeff106916b3f97b775e", "type": "electric_scooter", "is_disabled": 0, "fusion_lon": 0.0}, {"rental_uris": {"android": "https://dc.lft.to/lastmile_qr_scan", "ios": "https://dc.lft.to/lastmile_qr_scan"}, "lon": -76.99831866666666, "name": "fa6ccfa19168716514cef6b77f1ed89d", "lat": 38.903785, "is_reserved": 0, "fusion_lat": 0.0, "bike_id": "fa6ccfa19168716514cef6b77f1ed89d", "type": "electric_scooter", "is_disabled": 0, "fusion_lon": 0.0}, {"rental_uris": {"android": "https://dc.lft.to/lastmile_qr_scan", "ios": "https://dc.lft.to/lastmile_qr_scan"}, "lon": -77.014774, "name": "bc20ccb3a3e9616aac91883bafef8470", "lat": 38.914111, "is_reserved": 0, "fusion_lat": 0.0, "bike_id": "bc20ccb3a3e9616aac91883bafef8470", "type": "electric_scooter", "is_disabled": 0, "fusion_lon": 0.0}, {"rental_uris": {"android": "https://dc.lft.to/lastmile_qr_scan", "ios": "https://dc.lft.to/lastmile_qr_scan"}, "lon": -77.000715, "name": "6ad69096e3ceef8a86f28db646842e0b", "lat": 38.925523166666665, "is_reserved": 0, "fusion_lat": 0.0, "bike_id": "6ad69096e3ceef8a86f28db646842e0b", "type": "electric_scooter", "is_disabled": 0, "fusion_lon": 0.0}, {"rental_uris": {"android": "https://dc.lft.to/lastmile_qr_scan", "ios": "https://dc.lft.to/lastmile_qr_scan"}, "lon": -76.97255216666667, "name": "aa9cea21dfb491f7583e79151206a362", "lat": 38.957452333333336, "is_reserved": 0, "fusion_lat": 0.0, "bike_id": "aa9cea21dfb491f7583e79151206a362", "type": "electric_bike", "is_disabled": 0, "fusion_lon": 0.0}, {"rental_uris": {"android": "https://dc.lft.to/lastmile_qr_scan", "ios": "https://dc.lft.to/lastmile_qr_scan"}, "lon": -77.00801966666667, "name": "207f8502a0c381851019f6435a597753", "lat": 38.9492085, "is_reserved": 0, "fusion_lat": 0.0, "bike_id": "207f8502a0c381851019f6435a597753", "type": "electric_bike", "is_disabled": 0, "fusion_lon": 0.0}, {"rental_uris": {"android": "https://dc.lft.to/lastmile_qr_scan", "ios": "https://dc.lft.to/lastmile_qr_scan"}, "lon": -77.03641083333333, "name": "975b740fdc8aa7665a44d38c70c6d7ff", "lat": 38.909970666666666, "is_reserved": 0, "fusion_lat": 0.0, "bike_id": "975b740fdc8aa7665a44d38c70c6d7ff", "type": "electric_scooter", "is_disabled": 0, "fusion_lon": 0.0}, {"rental_uris": {"android": "https://dc.lft.to/lastmile_qr_scan", "ios": "https://dc.lft.to/lastmile_qr_scan"}, "lon": -76.94980766666667, "name": "cc661216e0758660902f7fa9451e06df", "lat": 38.884624, "is_reserved": 0, "fusion_lat": 0.0, "bike_id": "cc661216e0758660902f7fa9451e06df", "type": "electric_scooter", "is_disabled": 0, "fusion_lon": 0.0}, {"rental_uris": {"android": "https://dc.lft.to/lastmile_qr_scan", "ios": "https://dc.lft.to/lastmile_qr_scan"}, "lon": -77.02157533333333, "name": "75b3b888e2b96ccae5fa2cb29fad34c7", "lat": 38.92604983333333, "is_reserved": 0, "fusion_lat": 0.0, "bike_id": "75b3b888e2b96ccae5fa2cb29fad34c7", "type": "electric_scooter", "is_disabled": 0, "fusion_lon": 0.0}, {"rental_uris": {"android": "https://dc.lft.to/lastmile_qr_scan", "ios": "https://dc.lft.to/lastmile_qr_scan"}, "lon": -77.02796183333334, "name": "2234d17ba92817832dfc7b6fa2dad7ea", "lat": 38.8990845, "is_reserved": 0, "fusion_lat": 0.0, "bike_id": "2234d17ba92817832dfc7b6fa2dad7ea", "type": "electric_scooter", "is_disabled": 0, "fusion_lon": 0.0}, {"rental_uris": {"android": "https://dc.lft.to/lastmile_qr_scan", "ios": "https://dc.lft.to/lastmile_qr_scan"}, "lon": -77.0232685, "name": "38dad51b10309ccc52643416431ce697", "lat": 38.92874366666667, "is_reserved": 0, "fusion_lat": 0.0, "bike_id": "38dad51b10309ccc52643416431ce697", "type": "electric_scooter", "is_disabled": 0, "fusion_lon": 0.0}, {"rental_uris": {"android": "https://dc.lft.to/lastmile_qr_scan", "ios": "https://dc.lft.to/lastmile_qr_scan"}, "lon": -77.07479766666667, "name": "c04013fea3e1e007f9f3f4ca3d7a2043", "lat": 38.90708133333333, "is_reserved": 0, "fusion_lat": 0.0, "bike_id": "c04013fea3e1e007f9f3f4ca3d7a2043", "type": "electric_scooter", "is_disabled": 0, "fusion_lon": 0.0}, {"rental_uris": {"android": "https://dc.lft.to/lastmile_qr_scan", "ios": "https://dc.lft.to/lastmile_qr_scan"}, "lon": -77.01003983333334, "name": "56acbd80266c343c57340da3dad256d1", "lat": 38.915647166666666, "is_reserved": 0, "fusion_lat": 0.0, "bike_id": "56acbd80266c343c57340da3dad256d1", "type": "electric_scooter", "is_disabled": 0, "fusion_lon": 0.0}, {"rental_uris": {"android": "https://dc.lft.to/lastmile_qr_scan", "ios": "https://dc.lft.to/lastmile_qr_scan"}, "lon": -76.99810383333333, "name": "3aadf0f35bfac73320ae9d792406dec7", "lat": 38.932322, "is_reserved": 0, "fusion_lat": 0.0, "bike_id": "3aadf0f35bfac73320ae9d792406dec7", "type": "electric_scooter", "is_disabled": 0, "fusion_lon": 0.0}, {"rental_uris": {"android": "https://dc.lft.to/lastmile_qr_scan", "ios": "https://dc.lft.to/lastmile_qr_scan"}, "lon": -77.04079683333333, "name": "53c66892bc884145919394a23861b396", "lat": 38.91704333333333, "is_reserved": 0, "fusion_lat": 0.0, "bike_id": "53c66892bc884145919394a23861b396", "type": "electric_scooter", "is_disabled": 0, "fusion_lon": 0.0}, {"rental_uris": {"android": "https://dc.lft.to/lastmile_qr_scan", "ios": "https://dc.lft.to/lastmile_qr_scan"}, "lon": -77.024108, "name": "d15f4a6c37ac2ecd6c422718a60d2eb1", "lat": 38.9191625, "is_reserved": 0, "fusion_lat": 0.0, "bike_id": "d15f4a6c37ac2ecd6c422718a60d2eb1", "type": "electric_scooter", "is_disabled": 0, "fusion_lon": 0.0}, {"rental_uris": {"android": "https://dc.lft.to/lastmile_qr_scan", "ios": "https://dc.lft.to/lastmile_qr_scan"}, "lon": -77.03863266666667, "name": "65ad10cbf5a8306e03217791828169cb", "lat": 38.917062666666666, "is_reserved": 0, "fusion_lat": 0.0, "bike_id": "65ad10cbf5a8306e03217791828169cb", "type": "electric_scooter", "is_disabled": 0, "fusion_lon": 0.0}, {"rental_uris": {"android": "https://dc.lft.to/lastmile_qr_scan", "ios": "https://dc.lft.to/lastmile_qr_scan"}, "lon": -77.01363366666666, "name": "4172be6a2ae503efa0ae7ef2b0d0867f", "lat": 38.911123333333336, "is_reserved": 0, "fusion_lat": 0.0, "bike_id": "4172be6a2ae503efa0ae7ef2b0d0867f", "type": "electric_scooter", "is_disabled": 0, "fusion_lon": 0.0}, {"rental_uris": {"android": "https://dc.lft.to/lastmile_qr_scan", "ios": "https://dc.lft.to/lastmile_qr_scan"}, "lon": -77.03848883333333, "name": "ceb73b8300f6a8129eb11afd18606db1", "lat": 38.902656, "is_reserved": 0, "fusion_lat": 0.0, "bike_id": "ceb73b8300f6a8129eb11afd18606db1", "type": "electric_scooter", "is_disabled": 0, "fusion_lon": 0.0}, {"rental_uris": {"android": "https://dc.lft.to/lastmile_qr_scan", "ios": "https://dc.lft.to/lastmile_qr_scan"}, "lon": -77.03500433333333, "name": "b750c3f53da676b54471f441c5d21652", "lat": 38.928796, "is_reserved": 0, "fusion_lat": 0.0, "bike_id": "b750c3f53da676b54471f441c5d21652", "type": "electric_scooter", "is_disabled": 0, "fusion_lon": 0.0},