{"data": {"bikes": [{"rental_uris": {"ios": "https://dc.lft.to/lastmile_qr_scan", "android": "https://dc.lft.to/lastmile_qr_scan"}, "type": "electric_scooter", "name": "2f722e4103a4383f9529ff726bdde1c9", "is_reserved": 0, "lon": -77.0488315, "is_disabled": 0, "fusion_lat": 0.0, "lat": 38.9194105, "bike_id": "2f722e4103a4383f9529ff726bdde1c9", "fusion_lon": 0.0}, {"rental_uris": {"ios": "https://dc.lft.to/lastmile_qr_scan", "android": "https://dc.lft.to/lastmile_qr_scan"}, "type": "electric_scooter", "name": "4d0e7a4eb73a30a8c0bf30665d239c9e", "is_reserved": 0, "lon": -77.0371525, "is_disabled": 0, "fusion_lat": 0.0, "lat": 38.91486666666667, "bike_id": "4d0e7a4eb73a30a8c0bf30665d239c9e", "fusion_lon": 0.0}, {"rental_uris": {"ios": "https://dc.lft.to/lastmile_qr_scan", "android": "https://dc.lft.to/lastmile_qr_scan"}, "type": "electric_bike", "name": "a62f21266221b848fbab2e6671988f21", "is_reserved": 0, "lon": -76.94164966666666, "is_disabled": 0, "fusion_lat": 0.0, "lat": 38.86557283333333, "bike_id": "a62f21266221b848fbab2e6671988f21", "fusion_lon": 0.0}, {"rental_uris": {"ios": "https://dc.lft.to/lastmile_qr_scan", "android": "https://dc.lft.to/lastmile_qr_scan"}, "type": "electric_scooter", "name": "354213360c5cd3307df2eb6d30cc78b5", "is_reserved": 0, "lon": -77.03870166666667, "is_disabled": 0, "fusion_lat": 0.0, "lat": 38.92153116666667, "bike_id": "354213360c5cd3307df2eb6d30cc78b5", "fusion_lon": 0.0}, {"rental_uris": {"ios": "https://dc.lft.to/lastmile_qr_scan", "android": "https://dc.lft.to/lastmile_qr_scan"}, "type": "electric_scooter", "name": "206b540e51fd59eda626cd296caae1a5", "is_reserved": 0, "lon": -77.02618733333334, "is_disabled": 0, "fusion_lat": 0.0, "lat": 38.90730633333333, "bike_id": "206b540e51fd59eda626cd296caae1a5", "fusion_lon": 0.0}, {"rental_uris": {"ios": "https://dc.lft.to/lastmile_qr_scan", "android": "https://dc.lft.to/lastmile_qr_scan"}, "type": "electric_scooter", "name": "3d79fb41f057eec41bdaaac83087b8ba", "is_reserved": 0, "lon": -77.009886, "is_disabled": 0, "fusion_lat": 0.0, "lat": 38.872917666666666, "bike_id": "3d79fb41f057eec41bdaaac83087b8ba", "fusion_lon": 0.0}, {"rental_uris": {"ios": "https://dc.lft.to/lastmile_qr_scan", "android": "https://dc.lft.to/lastmile_qr_scan"}, "type": "electric_scooter", "name": "b7b7f49d7ad6deb7c5af2a234542c400", "is_reserved": 0, "lon": -77.03358866666666, "is_disabled": 0, "fusion_lat": 0.0, "lat": 38.91061066666666, "bike_id": "b7b7f49d7ad6deb7c5af2a234542c400", "fusion_lon": 0.0}, {"rental_uris": {"ios": "https://dc.lft.to/lastmile_qr_scan", "android": "https://dc.lft.to/lastmile_qr_scan"}, "type": "electric_scooter", "name": "e3d3a311a131035c408368373f93cacd", "is_reserved": 0, "lon": -77.01740933333333, "is_disabled": 0, "fusion_lat": 0.0, "lat": 38.9124565, "bike_id": "e3d3a311a131035c408368373f93cacd", "fusion_lon": 0.0}, {"rental_uris": {"ios": "https://dc.lft.to/lastmile_qr_scan", "android": "https://dc.lft.to/lastmile_qr_scan"}, "type": "electric_scooter", "name": "34821bf9e0f48c8fc598b2858f58e3ad", "is_reserved": 0, "lon": -77.04508716666666, "is_disabled": 0, "fusion_lat": 0.0, "lat": 38.9078735, "bike_id": "34821bf9e0f48c8fc598b2858f58e3ad", "fusion_lon": 0.0}, {"rental_uris": {"ios": "https://dc.lft.to/lastmile_qr_scan", "android": "https://dc.lft.to/lastmile_qr_scan"}, "type": "electric_scooter", "name": "305f859e333711290d9f9fefee5e0461", "is_reserved": 0, "lon": -76.98038333333334, "is_disabled": 0, "fusion_lat": 0.0, "lat": 38.91683066666667, "bike_id": "305f859e333711290d9f9fefee5e0461", "fusion_lon": 0.0}, {"rental_uris": {"ios": "https://dc.lft.to/lastmile_qr_scan", "android": "https://dc.lft.to/lastmile_qr_scan"}, "type": "electric_scooter", "name": "fdf0653ce63bd5f4192712b46a051b95", "is_reserved": 0, "lon": -77.04393766666666, "is_disabled": 0, "fusion_lat": 0.0, "lat": 38.92358616666667, "bike_id": "fdf0653ce63bd5f4192712b46a051b95", "fusion_lon": 0.0}, {"rental_uris": {"ios": "https://dc.lft.to/lastmile_qr_scan", "android": "https://dc.lft.to/lastmile_qr_scan"}, "type": "electric_scooter", "name": "b18cc1cfd1f0757b9e4dab8dc3a7675e", "is_reserved": 0, "lon": -77.021302, "is_disabled": 0, "fusion_lat": 0.0, "lat": 38.92698883333333, "bike_id": "b18cc1cfd1f0757b9e4dab8dc3a7675e", "fusion_lon": 0.0}, {"rental_uris": {"ios": "https://dc.lft.to/lastmile_qr_scan", "android": "https://dc.lft.to/lastmile_qr_scan"}, "type": "electric_scooter", "name": "83a7b56e228e49a663784cd43a0a0dcb", "is_reserved": 0, "lon": -77.02331283333334, "is_disabled": 0, "fusion_lat": 0.0, "lat": 38.923036, "bike_id": "83a7b56e228e49a663784cd43a0a0dcb", "fusion_lon": 0.0}, {"rental_uris": {"ios": "https://dc.lft.to/lastmile_qr_scan", "android": "https://dc.lft.to/lastmile_qr_scan"}, "type": "electric_scooter", "name": "d856cc039d9d5ba916d3e98097eaf73b", "is_reserved": 0, "lon": -77.06555016666667, "is_disabled": 0, "fusion_lat": 0.0, "lat": 38.9117355, "bike_id": "d856cc039d9d5ba916d3e98097eaf73b", "fusion_lon": 0.0}, {"rental_uris": {"ios": "https://dc.lft.to/lastmile_qr_scan", "android": "https://dc.lft.to/lastmile_qr_scan"}, "type": "electric_scooter", "name": "e3d0753d616136789a68a5cfad00130f", "is_reserved": 0, "lon": -77.02708266666667, "is_disabled": 0, "fusion_lat": 0.0, "lat": 38.918223833333336, "bike_id": "e3d0753d616136789a68a5cfad00130f", "fusion_lon": 0.0}, {"rental_uris": {"ios": "https://dc.lft.to/lastmile_qr_scan", "android": "https://dc.lft.to/lastmile_qr_scan"}, "type": "electric_scooter", "name": "5e8a968b4ad98f5b1134d6ee4fb4decc", "is_reserved": 0, "lon": -77.03453283333333, "is_disabled": 0, "fusion_lat": 0.0, "lat": 38.937471, "bike_id": "5e8a968b4ad98f5b1134d6ee4fb4decc", "fusion_lon": 0.0}, {"rental_uris": {"ios": "https://dc.lft.to/lastmile_qr_scan", "android": "https://dc.lft.to/lastmile_qr_scan"}, "type": "electric_scooter", "name": "bdec801f57a9342adffc90b601cd5f57", "is_reserved": 0, "lon": -76.982583, "is_disabled": 0, "fusion_lat": 0.0, "lat": 38.866304, "bike_id": "bdec801f57a9342adffc90b601cd5f57", "fusion_lon": 0.0}, {"rental_uris": {"ios": "https://dc.lft.to/lastmile_qr_scan", "android": "https://dc.lft.to/lastmile_qr_scan"}, "type": "electric_scooter", "name": "34666a3a65a6dc4c2882ece5a80c0a2f", "is_reserved": 0, "lon": -77.03253683333334, "is_disabled": 0, "fusion_lat": 0.0, "lat": 38.91191666666667, "bike_id": "34666a3a65a6dc4c2882ece5a80c0a2f", "fusion_lon": 0.0}, {"rental_uris": {"ios": "https://dc.lft.to/lastmile_qr_scan", "android": "https://dc.lft.to/lastmile_qr_scan"}, "type": "electric_scooter", "name": "c8b7b541166aee7fa6a191fc7eceddbe", "is_reserved": 0, "lon": -76.983532, "is_disabled": 0, "fusion_lat": 0.0, "lat": 38.8874435, "bike_id": "c8b7b541166aee7fa6a191fc7eceddbe", "fusion_lon": 0.0}, {"rental_uris": {"ios": "https://dc.lft.to/lastmile_qr_scan", "android": "https://dc.lft.to/lastmile_qr_scan"}, "type": "electric_scooter", "name": "c4843554fd21602a233e2972a3c1b3dc", "is_reserved": 0, "lon": -77.05269483333333, "is_disabled": 0, "fusion_lat": 0.0, "lat": 38.92426316666667, "bike_id": "c4843554fd21602a233e2972a3c1b3dc", "fusion_lon": 0.0}, {"rental_uris": {"ios": "https://dc.lft.to/lastmile_qr_scan", "android": "https://dc.lft.to/lastmile_qr_scan"}, "type": "electric_scooter", "name": "18a846ed4a3f37beac21c44c814fa445", "is_reserved": 0, "lon": -77.01672166666667, "is_disabled": 0, "fusion_lat": 0.0, "lat": 38.881142, "bike_id": "18a846ed4a3f37beac21c44c814fa445", "fusion_lon": 0.0}, {"rental_uris": {"ios": "https://dc.lft.to/lastmile_qr_scan", "android": "https://dc.lft.to/lastmile_qr_scan"}, "type": "electric_scooter", "name": "a122e7e542a33f402905dff4309fcf8f", "is_reserved": 0, "lon": -77.00522966666666, "is_disabled": 0, "fusion_lat": 0.0, "lat": 38.87925716666667, "bike_id": "a122e7e542a33f402905dff4309fcf8f", "fusion_lon": 0.0}, {"rental_uris": {"ios": "https://dc.lft.to/lastmile_qr_scan", "android": "https://dc.lft.to/lastmile_qr_scan"}, "type": "electric_scooter", "name": "54d7ae99af0f6d72e95f31c90bb9096c", "is_reserved": 0, "lon": -77.03284216666667, "is_disabled": 0, "fusion_lat": 0.0, "lat": 38.93258733333333, "bike_id": "54d7ae99af0f6d72e95f31c90bb9096c", "fusion_lon": 0.0}, {"rental_uris": {"ios": "https://dc.lft.to/lastmile_qr_scan", "android": "https://dc.lft.to/lastmile_qr_scan"}, "type": "electric_scooter", "name": "8bf7de954fd5fe22b880b2f2bcad64fa", "is_reserved": 0, "lon": -76.97382583333334, "is_disabled": 0, "fusion_lat": 0.0, "lat": 38.8500545, "bike_id": "8bf7de954fd5fe22b880b2f2bcad64fa", "fusion_lon": 0.0}, {"rental_uris": {"ios": "https://dc.lft.to/lastmile_qr_scan", "android": "https://dc.lft.to/lastmile_qr_scan"}, "type": "electric_scooter", "name": "76f2deecd67e4fcb97699674448f9143", "is_reserved": 0, "lon": -77.045097, "is_disabled": 0, "fusion_lat": 0.0, "lat": 38.90798516666667, "bike_id": "76f2deecd67e4fcb97699674448f9143", "fusion_lon": 0.0}, {"rental_uris": {"ios": "https://dc.lft.to/lastmile_qr_scan", "android": "https://dc.lft.to/lastmile_qr_scan"}, "type": "electric_bike", "name": "40a788658bbba8ca3383830d5595a5c8", "is_reserved": 0, "lon": -77.04298416666667, "is_disabled": 0, "fusion_lat": 0.0, "lat": 39.03427933333333, "bike_id": "40a788658bbba8ca3383830d5595a5c8", "fusion_lon": 0.0}, {"rental_uris": {"ios": "https://dc.lft.to/lastmile_qr_scan", "android": "https://dc.lft.to/lastmile_qr_scan"}, "type": "electric_scooter", "name": "9c22a272e470914b1eb3aa6ea861ea06", "is_reserved": 0, "lon": -77.03639616666666, "is_disabled": 0, "fusion_lat": 0.0, "lat": 38.91825716666666, "bike_id": "9c22a272e470914b1eb3aa6ea861ea06", "fusion_lon": 0.0}, {"rental_uris": {"ios": "https://dc.lft.to/lastmile_qr_scan", "android": "https://dc.lft.to/lastmile_qr_scan"}, "type": "electric_scooter", "name": "1be0eade4e5a07641c9dd2b27698dadb", "is_reserved": 0, "lon": -76.9810435, "is_disabled": 0, "fusion_lat": 0.0, "lat": 38.90252866666667, "bike_id": "1be0eade4e5a07641c9dd2b27698dadb", "fusion_lon": 0.0}, {"rental_uris": {"ios": "https://dc.lft.to/lastmile_qr_scan", "android": "https://dc.lft.to/lastmile_qr_scan"}, "type": "electric_scooter", "name": "1c3d1e4ce6d5aaa6f73d4a4046d7ab48", "is_reserved": 0, "lon": -77.07449883333334, "is_disabled": 0, "fusion_lat": 0.0, "lat": 38.93784983333333, "bike_id": "1c3d1e4ce6d5aaa6f73d4a4046d7ab48", "fusion_lon": 0.0}, {"rental_uris": {"ios": "https://dc.lft.to/lastmile_qr_scan", "android": "https://dc.lft.to/lastmile_qr_scan"}, "type": "electric_scooter", "name": "d9297cf67b28271b849b62c25015a3a0", "is_reserved": 0, "lon": -77.01001266666667, "is_disabled": 0, "fusion_lat": 0.0, "lat": 38.906332166666665, "bike_id": "d9297cf67b28271b849b62c25015a3a0", "fusion_lon": 0.0}, {"rental_uris": {"ios": "https://dc.lft.to/lastmile_qr_scan", "android": "https://dc.lft.to/lastmile_qr_scan"}, "type": "electric_scooter", "name": "3a8086dac35cc2964fefde81ea2fbae2", "is_reserved": 0, "lon": -77.0021745, "is_disabled": 0, "fusion_lat": 0.0, "lat": 38.914651666666664, "bike_id": "3a8086dac35cc2964fefde81ea2fbae2", "fusion_lon": 0.0}, {"rental_uris": {"ios": "https://dc.lft.to/lastmile_qr_scan", "android": "https://dc.lft.to/lastmile_qr_scan"}, "type": "electric_scooter", "name": "cd1105c3fdb6b0d498e85c164c0623af", "is_reserved": 0, "lon": -77.01764483333334, "is_disabled": 0, "fusion_lat": 0.0, "lat": 38.900389, "bike_id": "cd1105c3fdb6b0d498e85c164c0623af", "fusion_lon": 0.0}, {"rental_uris": {"ios": "https://dc.lft.to/lastmile_qr_scan", "android": "https://dc.lft.to/lastmile_qr_scan"}, "type": "electric_scooter", "name": "cd1c46073b18a5e128f7b1f782566069", "is_reserved": 0, "lon": -76.99343816666666, "is_disabled": 0, "fusion_lat": 0.0, "lat": 38.87693016666667, "bike_id": "cd1c46073b18a5e128f7b1f782566069", "fusion_lon": 0.0}, {"rental_uris": {"ios": "https://dc.lft.to/lastmile_qr_scan", "android": "https://dc.lft.to/lastmile_qr_scan"}, "type": "electric_bike", "name": "b6fbb5dcb5fa61ca0c2055217e4c64d1", "is_reserved": 0, "lon": -77.11355766666667, "is_disabled": 0, "fusion_lat": 0.0, "lat": 38.84192266666667, "bike_id": "b6fbb5dcb5fa61ca0c2055217e4c64d1", "fusion_lon": 0.0}, {"rental_uris": {"ios": "https://dc.lft.to/lastmile_qr_scan", "android": "https://dc.lft.to/lastmile_qr_scan"}, "type": "electric_scooter", "name": "e436be19ee6261c25e18c88a98c13090", "is_reserved": 0, "lon": -76.93129383333333, "is_disabled": 0, "fusion_lat": 0.0, "lat": 38.87645916666666, "bike_id": "e436be19ee6261c25e18c88a98c13090", "fusion_lon": 0.0}, {"rental_uris": {"ios": "https://dc.lft.to/lastmile_qr_scan", "android": "https://dc.lft.to/lastmile_qr_scan"}, "type": "electric_scooter", "name": "67a35e22e5635dab64a4ae6bbb23af79", "is_reserved": 0, "lon": -77.03218066666666, "is_disabled": 0, "fusion_lat": 0.0, "lat": 38.90734233333333, "bike_id": "67a35e22e5635dab64a4ae6bbb23af79", "fusion_lon": 0.0}, {"rental_uris": {"ios": "https://dc.lft.to/lastmile_qr_scan", "android": "https://dc.lft.to/lastmile_qr_scan"}, "type": "electric_scooter", "name": "5f6268757c2c1a91b6135193068ee12f", "is_reserved": 0, "lon": -77.000953, "is_disabled": 0, "fusion_lat": 0.0, "lat": 38.90845916666667, "bike_id": "5f6268757c2c1a91b6135193068ee12f", "fusion_lon": 0.0}, {"rental_uris": {"ios": "https://dc.lft.to/lastmile_qr_scan", "android": "https://dc.lft.to/lastmile_qr_scan"}, "type": "electric_scooter", "name": "a83da893f781bb2869a68518fd6a23b6", "is_reserved": 0, "lon": -77.0021605, "is_disabled": 0, "fusion_lat": 0.0, "lat": 38.900189, "bike_id": "a83da893f781bb2869a68518fd6a23b6", "fusion_lon": 0.0}, {"rental_uris": {"ios": "https://dc.lft.to/lastmile_qr_scan", "android": "https://dc.lft.to/lastmile_qr_scan"}, "type": "electric_scooter", "name": "d74e69295ad703a50f81d3de663e5823", "is_reserved": 0, "lon": -77.08777233333333, "is_disabled": 0, "fusion_lat": 0.0, "lat": 38.935602833333334, "bike_id": "d74e69295ad703a50f81d3de663e5823", "fusion_lon": 0.0}, {"rental_uris": {"ios": "https://dc.lft.to/lastmile_qr_scan", "android": "https://dc.lft.to/lastmile_qr_scan"}, "type": "electric_bike", "name": "f7a961bb479485719b05311a2c3c329b", "is_reserved": 0, "lon": -76.9936725, "is_disabled": 0, "fusion_lat": 0.0, "lat": 38.92738666666666, "bike_id": "f7a961bb479485719b05311a2c3c329b", "fusion_lon": 0.0}, {"rental_uris": {"ios": "https://dc.lft.to/lastmile_qr_scan", "android": "https://dc.lft.to/lastmile_qr_scan"}, "type": "electric_scooter", "name": "1814352d3e742601ae087565aac6aa79", "is_reserved": 0, "lon": -77.0631955, "is_disabled": 0, "fusion_lat": 0.0, "lat": 38.9134065, "bike_id": "1814352d3e742601ae087565aac6aa79", "fusion_lon": 0.0}, {"rental_uris": {"ios": "https://dc.lft.to/lastmile_qr_scan", "android": "https://dc.lft.to/lastmile_qr_scan"}, "type": "electric_bike", "name": "a904dc3f3d0e434c4ab6cf635836418b", "is_reserved": 0, "lon": -77.11286266666667, "is_disabled": 0, "fusion_lat": 0.0, "lat": 38.8310495, "bike_id": "a904dc3f3d0e434c4ab6cf635836418b", "fusion_lon": 0.0}, {"rental_uris": {"ios": "https://dc.lft.to/lastmile_qr_scan", "android": "https://dc.lft.to/lastmile_qr_scan"}, "type": "electric_scooter", "name": "f934bb3838d77668a88f5324c6f48936", "is_reserved": 0, "lon": -76.98695483333333, "is_disabled": 0, "fusion_lat": 0.0, "lat": 38.907011833333335, "bike_id": "f934bb3838d77668a88f5324c6f48936", "fusion_lon": 0.0}, {"rental_uris": {"ios": "https://dc.lft.to/lastmile_qr_scan", "android": "https://dc.lft.to/lastmile_qr_scan"}, "type": "electric_scooter", "name": "fe079f04169f883971777f9516bf2115", "is_reserved": 0, "lon": -77.00819216666666, "is_disabled": 0, "fusion_lat": 0.0, "lat": 38.91561083333333, "bike_id": "fe079f04169f883971777f9516bf2115", "fusion_lon": 0.0}, {"rental_uris": {"ios": "https://dc.lft.to/lastmile_qr_scan", "android": "https://dc.lft.to/lastmile_qr_scan"}, "type": "electric_scooter", "name": "f4fb8af1c37784653b2af547d9616412", "is_reserved": 0, "lon": -77.04019916666667, "is_disabled": 0, "fusion_lat": 0.0, "lat": 38.92166433333333, "bike_id": "f4fb8af1c37784653b2af547d9616412", "fusion_lon": 0.0}, {"rental_uris": {"ios": "https://dc.lft.to/lastmile_qr_scan", "android": "https://dc.lft.to/lastmile_qr_scan"}, "type": "electric_scooter", "name": "82a857d84ae28c22eb60c14aab89071f", "is_reserved": 0, "lon": -77.02185683333333, "is_disabled": 0, "fusion_lat": 0.0, "lat": 38.92918066666667, "bike_id": "82a857d84ae28c22eb60c14aab89071f", "fusion_lon": 0.0}, {"rental_uris": {"ios": "https://dc.lft.to/lastmile_qr_scan", "android": "https://dc.lft.to/lastmile_qr_scan"}, "type": "electric_scooter", "name": "e217885656304c6ca5eb5ddca5432ff9", "is_reserved": 0, "lon": -77.0306835, "is_disabled": 0, "fusion_lat": 0.0, "lat": 38.9238255, "bike_id": "e217885656304c6ca5eb5ddca5432ff9", "fusion_lon": 0.0}, {"rental_uris": {"ios": "https://dc.lft.to/lastmile_qr_scan", "android": "https://dc.lft.to/lastmile_qr_scan"}, "type": "electric_scooter", "name": "22a6d88fecf6de785d19dde7cf27aa3d", "is_reserved": 0, "lon": -77.02864483333333, "is_disabled": 0, "fusion_lat": 0.0, "lat": 38.907315833333335, "bike_id": "22a6d88fecf6de785d19dde7cf27aa3d", "fusion_lon": 0.0}, {"rental_uris": {"ios": "https://dc.lft.to/lastmile_qr_scan", "android": "https://dc.lft.to/lastmile_qr_scan"}, "type": "electric_scooter", "name": "9bb1d1308dfab8a834f80e0014de47c9", "is_reserved": 0, "lon": -77.00872283333334, "is_disabled": 0, "fusion_lat": 0.0, "lat": 38.91258633333333, "bike_id": "9bb1d1308dfab8a834f80e0014de47c9", "fusion_lon": 0.0}, {"rental_uris": {"ios": "https://dc.lft.to/lastmile_qr_scan", "android": "https://dc.lft.to/lastmile_qr_scan"}, "type": "electric_scooter", "name": "0a747a2e9111ce6ae133fe229c7e2534", "is_reserved": 0, "lon": -77.04731766666667, "is_disabled": 0, "fusion_lat": 0.0, "lat": 38.89610283333333, "bike_id": "0a747a2e9111ce6ae133fe229c7e2534", "fusion_lon": 0.0}, {"rental_uris": {"ios": "https://dc.lft.to/lastmile_qr_scan", "android": "https://dc.lft.to/lastmile_qr_scan"}, "type": "electric_scooter", "name": "6aca1f19e37924492376a163daa73386", "is_reserved": 0, "lon": -77.03520516666667, "is_disabled": 0, "fusion_lat": 0.0, "lat": 38.92217266666667, "bike_id": "6aca1f19e37924492376a163daa73386", "fusion_lon": 0.0}, {"rental_uris": {"ios": "https://dc.lft.to/lastmile_qr_scan", "android": "https://dc.lft.to/lastmile_qr_scan"}, "type": "electric_scooter", "name": "7da354a6cca8c64ac86861ac4aaba17c", "is_reserved": 0, "lon": -76.99841533333333, "is_disabled": 0, "fusion_lat": 0.0, "lat": 38.903006, "bike_id": "7da354a6cca8c64ac86861ac4aaba17c", "fusion_lon": 0.0}, {"rental_uris": {"ios": "https://dc.lft.to/lastmile_qr_scan", "android": "https://dc.lft.to/lastmile_qr_scan"}, "type": "electric_scooter", "name": "118cfea4c9492a4ab75279c754dfebc7", "is_reserved": 0, "lon": -77.05061333333333, "is_disabled": 0, "fusion_lat": 0.0, "lat": 38.923616833333334, "bike_id": "118cfea4c9492a4ab75279c754dfebc7", "fusion_lon": 0.0}, {"rental_uris": {"ios": "https://dc.lft.to/lastmile_qr_scan", "android": "https://dc.lft.to/lastmile_qr_scan"}, "type": "electric_scooter", "name": "7419f07d616b1d60e0b2c1135e6b3bd3", "is_reserved": 0, "lon": -77.03708333333333, "is_disabled": 0, "fusion_lat": 0.0, "lat": 38.926549333333334, "bike_id": "7419f07d616b1d60e0b2c1135e6b3bd3", "fusion_lon": 0.0}, {"rental_uris": {"ios": "https://dc.lft.to/lastmile_qr_scan", "android": "https://dc.lft.to/lastmile_qr_scan"}, "type": "electric_scooter", "name": "52155a6484a56a8970dea926ffd6b185", "is_reserved": 0, "lon": -77.00582833333333, "is_disabled": 0, "fusion_lat": 0.0, "lat": 38.90927933333333, "bike_id": "52155a6484a56a8970dea926ffd6b185", "fusion_lon": 0.0}, {"rental_uris": {"ios": "https://dc.lft.to/lastmile_qr_scan", "android": "https://dc.lft.to/lastmile_qr_scan"}, "type": "electric_scooter", "name": "f2b633c4967b24a67a89065e3dcf3460", "is_reserved": 0, "lon": -76.99406966666666, "is_disabled": 0, "fusion_lat": 0.0, "lat": 38.87784683333334, "bike_id": "f2b633c4967b24a67a89065e3dcf3460", "fusion_lon": 0.0}, {"rental_uris": {"ios": "https://dc.lft.to/lastmile_qr_scan", "android": "https://dc.lft.to/lastmile_qr_scan"}, "type": "electric_scooter", "name": "180ec0cabb4c490f2f507e87d6b71d51", "is_reserved": 0, "lon": -77.03473183333334, "is_disabled": 0, "fusion_lat": 0.0, "lat": 38.93023083333333, "bike_id": "180ec0cabb4c490f2f507e87d6b71d51", "fusion_lon": 0.0}, {"rental_uris": {"ios": "https://dc.lft.to/lastmile_qr_scan", "android": "https://dc.lft.to/lastmile_qr_scan"}, "type": "electric_bike", "name": "4e473527d0a2f73a10bd621f8ab75249", "is_reserved": 0, "lon": -76.9029775, "is_disabled": 0, "fusion_lat": 0.0, "lat": 39.00296, "bike_id": "4e473527d0a2f73a10bd621f8ab75249", "fusion_lon": 0.0}, {"rental_uris": {"ios": "https://dc.lft.to/lastmile_qr_scan", "android": "https://dc.lft.to/lastmile_qr_scan"}, "type": "electric_scooter", "name": "fb82b5ae76c5fb24098098e88c0b62ba", "is_reserved": 0, "lon": -77.0150685, "is_disabled": 0, "fusion_lat": 0.0, "lat": 38.9097465, "bike_id": "fb82b5ae76c5fb24098098e88c0b62ba", "fusion_lon": 0.0}, {"rental_uris": {"ios": "https://dc.lft.to/lastmile_qr_scan", "android": "https://dc.lft.to/lastmile_qr_scan"}, "type": "electric_scooter", "name": "57e8dd3007e36ffd41dbd36d5a8ebe7d", "is_reserved": 0, "lon": -77.04093766666666, "is_disabled": 0, "fusion_lat": 0.0, "lat": 38.9054375, "bike_id": "57e8dd3007e36ffd41dbd36d5a8ebe7d", "fusion_lon": 0.0}, {"rental_uris": {"ios": "https://dc.lft.to/lastmile_qr_scan", "android": "https://dc.lft.to/lastmile_qr_scan"}, "type": "electric_bike", "name": "5d5f11bba31198a659eb58ac9eb53165", "is_reserved": 0, "lon": -77.097224, "is_disabled": 0, "fusion_lat": 0.0, "lat": 38.807426, "bike_id": "5d5f11bba31198a659eb58ac9eb53165", "fusion_lon": 0.0}, {"rental_uris": {"ios": "https://dc.lft.to/lastmile_qr_scan", "android": "https://dc.lft.to/lastmile_qr_scan"}, "type": "electric_scooter", "name": "c7397aa746b17bb6e6ed655451618354", "is_reserved": 0, "lon": -77.0551635, "is_disabled": 0, "fusion_lat": 0.0, "lat": 38.928306, "bike_id": "c7397aa746b17bb6e6ed655451618354", "fusion_lon": 0.0}, {"rental_uris": {"ios": "https://dc.lft.to/lastmile_qr_scan", "android": "https://dc.lft.to/lastmile_qr_scan"}, "type": "electric_scooter", "name": "ba38d72a43dca3dd630ee993daa77695", "is_reserved": 0, "lon": -77.01567316666667, "is_disabled": 0, "fusion_lat": 0.0, "lat": 38.876367, "bike_id": "ba38d72a43dca3dd630ee993daa77695", "fusion_lon": 0.0}, {"rental_uris": {"ios": "https://dc.lft.to/lastmile_qr_scan", "android": "https://dc.lft.to/lastmile_qr_scan"}, "type": "electric_bike", "name": "933087ff3bc6a2f60c82e858356ae455", "is_reserved": 0, "lon": -77.03244116666667, "is_disabled": 0, "fusion_lat": 0.0, "lat": 38.96158066666667, "bike_id": "933087ff3bc6a2f60c82e858356ae455", "fusion_lon": 0.0}, {"rental_uris": {"ios": "https://dc.lft.to/lastmile_qr_scan", "android": "https://dc.lft.to/lastmile_qr_scan"}, "type": "electric_scooter", "name": "9a81c6db4e732fe227f2b0adb9d38c9e", "is_reserved": 0, "lon": -77.0412345, "is_disabled": 0, "fusion_lat": 0.0, "lat": 38.9338945, "bike_id": "9a81c6db4e732fe227f2b0adb9d38c9e", "fusion_lon": 0.0}, {"rental_uris": {"ios": "https://dc.lft.to/lastmile_qr_scan", "android": "https://dc.lft.to/lastmile_qr_scan"}, "type": "electric_bike", "name": "4074dfa7934f26ee3860357241d95286", "is_reserved": 0, "lon": -77.216647, "is_disabled": 0, "fusion_lat": 0.0, "lat": 38.89506266666667, "bike_id": "4074dfa7934f26ee3860357241d95286", "fusion_lon": 0.0}, {"rental_uris": {"ios": "https://dc.lft.to/lastmile_qr_scan", "android": "https://dc.lft.to/lastmile_qr_scan"}, "type": "electric_bike", "name": "07da2a0af8a7c235ccf4234573f6f479", "is_reserved": 0, "lon": -77.06527016666666, "is_disabled": 0, "fusion_lat": 0.0, "lat": 38.99235783333334, "bike_id": "07da2a0af8a7c235ccf4234573f6f479", "fusion_lon": 0.0}, {"rental_uris": {"ios": "https://dc.lft.to/lastmile_qr_scan", "android": "https://dc.lft.to/lastmile_qr_scan"}, "type": "electric_scooter", "name": "6b55c5a31a87e1eec8ad401b52b361d8", "is_reserved": 0, "lon": -77.02596616666666, "is_disabled": 0, "fusion_lat": 0.0, "lat": 38.9460775, "bike_id": "6b55c5a31a87e1eec8ad401b52b361d8", "fusion_lon": 0.0}, {"rental_uris": {"ios": "https://dc.lft.to/lastmile_qr_scan", "android": "https://dc.lft.to/lastmile_qr_scan"}, "type": "electric_scooter", "name": "02c5ea86407d4870d7818a6d92ff5efd", "is_reserved": 0, "lon": -77.03847283333333, "is_disabled": 0, "fusion_lat": 0.0, "lat": 38.90861866666667, "bike_id": "02c5ea86407d4870d7818a6d92ff5efd", "fusion_lon": 0.0}, {"rental_uris": {"ios": "https://dc.lft.to/lastmile_qr_scan", "android": "https://dc.lft.to/lastmile_qr_scan"}, "type": "electric_scooter", "name": "8927c6a95040cf66967a0c9c093cc418", "is_reserved": 0, "lon": -77.01875983333333, "is_disabled": 0, "fusion_lat": 0.0, "lat": 38.930605166666666, "bike_id": "8927c6a95040cf66967a0c9c093cc418", "fusion_lon": 0.0}, {"rental_uris": {"ios": "https://dc.lft.to/lastmile_qr_scan", "android": "https://dc.lft.to/lastmile_qr_scan"}, "type": "electric_scooter", "name": "3b27d833305dc327926c30d4ae0b9df5", "is_reserved": 0, "lon": -77.03119233333334, "is_disabled": 0, "fusion_lat": 0.0, "lat": 38.90573366666667, "bike_id": "3b27d833305dc327926c30d4ae0b9df5", "fusion_lon": 0.0}, {"rental_uris": {"ios": "https://dc.lft.to/lastmile_qr_scan", "android": "https://dc.lft.to/lastmile_qr_scan"}, "type": "electric_bike", "name": "d246259bcc70550730f794b06e9152e1", "is_reserved": 0, "lon": -77.06700316666667, "is_disabled": 0, "fusion_lat": 0.0, "lat": 38.83175883333333, "bike_id": "d246259bcc70550730f794b06e9152e1", "fusion_lon": 0.0}, {"rental_uris": {"ios": "https://dc.lft.to/lastmile_qr_scan", "android": "https://dc.lft.to/lastmile_qr_scan"}, "type": "electric_scooter", "name": "855d32406eac49f2a792907c73be7b53", "is_reserved": 0, "lon": -77.02272616666667, "is_disabled": 0, "fusion_lat": 0.0, "lat": 38.92423383333333, "bike_id": "855d32406eac49f2a792907c73be7b53", "fusion_lon": 0.0}, {"rental_uris": {"ios": "https://dc.lft.to/lastmile_qr_scan", "android": "https://dc.lft.to/lastmile_qr_scan"}, "type": "electric_scooter", "name": "d124063380173183d5212ef57546d9cf", "is_reserved": 0, "lon": -77.05330466666666, "is_disabled": 0, "fusion_lat": 0.0, "lat": 38.90234516666666, "bike_id": "d124063380173183d5212ef57546d9cf", "fusion_lon": 0.0}, {"rental_uris": {"ios": "https://dc.lft.to/lastmile_qr_scan", "android": "https://dc.lft.to/lastmile_qr_scan"}, "type": "electric_scooter", "name": "3d9b62af2651351cc0a02aa3d9eab2a7", "is_reserved": 0, "lon": -77.01755233333333, "is_disabled": 0, "fusion_lat": 0.0, "lat": 38.8769195, "bike_id": "3d9b62af2651351cc0a02aa3d9eab2a7", "fusion_lon": 0.0}, {"rental_uris": {"ios": "https://dc.lft.to/lastmile_qr_scan", "android": "https://dc.lft.to/lastmile_qr_scan"}, "type": "electric_scooter", "name": "ca186ab1f44be3fe72c94c5286d9145e", "is_reserved": 0, "lon": -77.00812916666666, "is_disabled": 0, "fusion_lat": 0.0, "lat": 38.87868, "bike_id": "ca186ab1f44be3fe72c94c5286d9145e", "fusion_lon": 0.0}, {"rental_uris": {"ios": "https://dc.lft.to/lastmile_qr_scan", "android": "https://dc.lft.to/lastmile_qr_scan"}, "type": "electric_scooter", "name": "b3c6e1800c616228f72b890ecf02c691", "is_reserved": 0, "lon": -77.02792283333334, "is_disabled": 0, "fusion_lat": 0.0, "lat": 38.956074666666666, "bike_id": "b3c6e1800c616228f72b890ecf02c691", "fusion_lon": 0.0}, {"rental_uris": {"ios": "https://dc.lft.to/lastmile_qr_scan", "android": "https://dc.lft.to/lastmile_qr_scan"}, "type": "electric_scooter", "name": "f7c00c8c21cfda46b2f170684dc0202a", "is_reserved": 0, "lon": -77.03658683333333, "is_disabled": 0, "fusion_lat": 0.0, "lat": 38.92286166666667, "bike_id": "f7c00c8c21cfda46b2f170684dc0202a", "fusion_lon": 0.0}, {"rental_uris": {"ios": "https://dc.lft.to/lastmile_qr_scan", "android": "https://dc.lft.to/lastmile_qr_scan"}, "type": "electric_scooter", "name": "f4b3b324f9d1d1a6f01a9ea5fac6e225", "is_reserved": 0, "lon": -76.97036766666666, "is_disabled": 0, "fusion_lat": 0.0, "lat": 38.873222166666665, "bike_id": "f4b3b324f9d1d1a6f01a9ea5fac6e225", "fusion_lon": 0.0}, {"rental_uris": {"ios": "https://dc.lft.to/lastmile_qr_scan", "android": "https://dc.lft.to/lastmile_qr_scan"}, "type": "electric_scooter", "name": "5c4c4b2c2e5415927289321dcdcb1c3b", "is_reserved": 0, "lon": -77.0290785, "is_disabled": 0, "fusion_lat": 0.0, "lat": 38.940394833333336, "bike_id": "5c4c4b2c2e5415927289321dcdcb1c3b", "fusion_lon": 0.0}, {"rental_uris": {"ios": "https://dc.lft.to/lastmile_qr_scan", "android": "https://dc.lft.to/lastmile_qr_scan"}, "type": "electric_scooter", "name": "a2179ff3ac2d9d8c5717f4b0f9d178a0", "is_reserved": 0, "lon": -77.0324355, "is_disabled": 0, "fusion_lat": 0.0, "lat": 38.91050033333333, "bike_id": "a2179ff3ac2d9d8c5717f4b0f9d178a0", "fusion_lon": 0.0}, {"rental_uris": {"ios": "https://dc.lft.to/lastmile_qr_scan", "android": "https://dc.lft.to/lastmile_qr_scan"}, "type": "electric_scooter", "name": "e5990f1e55e4bfb5d8cb1f7be51d0959", "is_reserved": 0, "lon": -77.021661, "is_disabled": 0, "fusion_lat": 0.0, "lat": 38.89489416666667, "bike_id": "e5990f1e55e4bfb5d8cb1f7be51d0959", "fusion_lon": 0.0}, {"rental_uris": {"ios": "https://dc.lft.to/lastmile_qr_scan", "android": "https://dc.lft.to/lastmile_qr_scan"}, "type": "electric_scooter", "name": "1811039e63ac5b2bd4fdfe6cdb8d2294", "is_reserved": 0, "lon": -77.02058433333333, "is_disabled": 0, "fusion_lat": 0.0, "lat": 38.90849516666667, "bike_id": "1811039e63ac5b2bd4fdfe6cdb8d2294", "fusion_lon": 0.0}, {"rental_uris": {"ios": "https://dc.lft.to/lastmile_qr_scan", "android": "https://dc.lft.to/lastmile_qr_scan"}, "type": "electric_scooter", "name": "2e1c780e19a702033caae1a31e6dcddb", "is_reserved": 0, "lon": -77.03526216666667, "is_disabled": 0, "fusion_lat": 0.0, "lat": 38.923977666666666, "bike_id": "2e1c780e19a702033caae1a31e6dcddb", "fusion_lon": 0.0}, {"rental_uris": {"ios": "https://dc.lft.to/lastmile_qr_scan", "android": "https://dc.lft.to/lastmile_qr_scan"}, "type": "electric_scooter", "name": "3d95cc86c1496d4eeb192228cff9b862", "is_reserved": 0, "lon": -77.00876333333333, "is_disabled": 0, "fusion_lat": 0.0, "lat": 38.91555533333333, "bike_id": "3d95cc86c1496d4eeb192228cff9b862", "fusion_lon": 0.0}, {"rental_uris": {"ios": "https://dc.lft.to/lastmile_qr_scan", "android": "https://dc.lft.to/lastmile_qr_scan"}, "type": "electric_scooter", "name": "26221f6f4116fd18d2d2265e6fbbe068", "is_reserved": 0, "lon": -77.02899383333333, "is_disabled": 0, "fusion_lat": 0.0, "lat": 38.940394166666664, "bike_id": "26221f6f4116fd18d2d2265e6fbbe068", "fusion_lon": 0.0}, {"rental_uris": {"ios": "https://dc.lft.to/lastmile_qr_scan", "android": "https://dc.lft.to/lastmile_qr_scan"}, "type": "electric_scooter", "name": "01c39b7bd4a687f7e32fe070ea34e230", "is_reserved": 0, "lon": -77.01888633333333, "is_disabled": 0, "fusion_lat": 0.0, "lat": 38.897527, "bike_id": "01c39b7bd4a687f7e32fe070ea34e230", "fusion_lon": 0.0}, {"rental_uris": {"ios": "https://dc.lft.to/lastmile_qr_scan", "android": "https://dc.lft.to/lastmile_qr_scan"}, "type": "electric_scooter", "name": "9e1bf8239c48a9d7f517b8aadbfda285", "is_reserved": 0, "lon": -77.03462966666666, "is_disabled": 0, "fusion_lat": 0.0, "lat": 38.908014666666666, "bike_id": "9e1bf8239c48a9d7f517b8aadbfda285", "fusion_lon": 0.0}, {"rental_uris": {"ios": "https://dc.lft.to/lastmile_qr_scan", "android": "https://dc.lft.to/lastmile_qr_scan"}, "type": "electric_scooter", "name": "d4ae78d001259fd8fa8376de89487208", "is_reserved": 0, "lon": -77.04374333333334, "is_disabled": 0, "fusion_lat": 0.0, "lat": 38.91653133333333, "bike_id": "d4ae78d001259fd8fa8376de89487208", "fusion_lon": 0.0}, {"rental_uris": {"ios": "https://dc.lft.to/lastmile_qr_scan", "android": "https://dc.lft.to/lastmile_qr_scan"}, "type": "electric_scooter", "name": "fba5c9161ed28b071112fab2a2be6761", "is_reserved": 0, "lon": -77.09356533333333, "is_disabled": 0, "fusion_lat": 0.0, "lat": 38.883876, "bike_id": "fba5c9161ed28b071112fab2a2be6761", "fusion_lon": 0.0}, {"rental_uris": {"ios": "https://dc.lft.to/lastmile_qr_scan", "android": "https://dc.lft.to/lastmile_qr_scan"}, "type": "electric_scooter", "name": "6915db009e80ce77c689f6c04b99974f", "is_reserved": 0, "lon": -77.028929, "is_disabled": 0, "fusion_lat": 0.0, "lat": 38.9072445, "bike_id": "6915db009e80ce77c689f6c04b99974f", "fusion_lon": 0.0}, {"rental_uris": {"ios": "https://dc.lft.to/lastmile_qr_scan", "android": "https://dc.lft.to/lastmile_qr_scan"}, "type": "electric_bike", "name": "e66f9ba236eadd6a4655ab275b84b67e", "is_reserved": 0, "lon": -76.9496755, "is_disabled": 0, "fusion_lat": 0.0, "lat": 38.882964333333334, "bike_id": "e66f9ba236eadd6a4655ab275b84b67e", "fusion_lon": 0.0}, {"rental_uris": {"ios": "https://dc.lft.to/lastmile_qr_scan", "android": "https://dc.lft.to/lastmile_qr_scan"}, "type": "electric_scooter", "name": "8b4ceb63ad163a2a02d371d94feca705", "is_reserved": 0, "lon": -77.0214865, "is_disabled": 0, "fusion_lat": 0.0, "lat": 38.887491, "bike_id": "8b4ceb63ad163a2a02d371d94feca705", "fusion_lon": 0.0}, {"rental_uris": {"ios": "https://dc.lft.to/lastmile_qr_scan", "android": "https://dc.lft.to/lastmile_qr_scan"}, "type": "electric_scooter", "name": "590049c54a38154301f1d947c53df6a3", "is_reserved": 0, "lon": -77.02634333333333, "is_disabled": 0, "fusion_lat": 0.0, "lat": 38.926779833333335, "bike_id": "590049c54a38154301f1d947c53df6a3", "fusion_lon": 0.0}, {"rental_uris": {"ios": "https://dc.lft.to/lastmile_qr_scan", "android": "https://dc.lft.to/lastmile_qr_scan"}, "type": "electric_scooter", "name": "828be787f31d1308d074718cb5cff86b", "is_reserved": 0, "lon": -76.97939066666666, "is_disabled": 0, "fusion_lat": 0.0, "lat": 38.90662366666667, "bike_id": "828be787f31d1308d074718cb5cff86b", "fusion_lon": 0.0}, {"rental_uris": {"ios": "https://dc.lft.to/lastmile_qr_scan", "android": "https://dc.lft.to/lastmile_qr_scan"}, "type": "electric_bike", "name": "2cb9aedc1fb802de3aafe5d8cd66c001", "is_reserved": 0, "lon": -76.99549166666667, "is_disabled": 0, "fusion_lat": 0.0, "lat": 38.8315785, "bike_id": "2cb9aedc1fb802de3aafe5d8cd66c001", "fusion_lon": 0.0}, {"rental_uris": {"ios": "https://dc.lft.to/lastmile_qr_scan", "android": "https://dc.lft.to/lastmile_qr_scan"}, "type": "electric_scooter", "name": "de999b6283f40c0aff0c5e9d849fa13d", "is_reserved": 0, "lon": -77.0264785, "is_disabled": 0, "fusion_lat": 0.0, "lat": 38.895860166666665, "bike_id": "de999b6283f40c0aff0c5e9d849fa13d", "fusion_lon": 0.0}, {"rental_uris": {"ios": "https://dc.lft.to/lastmile_qr_scan", "android": "https://dc.lft.to/lastmile_qr_scan"}, "type": "electric_scooter", "name": "6753df3f535b57c0ae120a8c33121003", "is_reserved": 0, "lon": -76.95294333333334, "is_disabled": 0, "fusion_lat": 0.0, "lat": 38.89034133333333, "bike_id": "6753df3f535b57c0ae120a8c33121003", "fusion_lon": 0.0}, {"rental_uris": {"ios": "https://dc.lft.to/lastmile_qr_scan", "android": "https://dc.lft.to/lastmile_qr_scan"}, "type": "electric_scooter", "name": "34f04469b6c4dec787a6f2f3646eea10", "is_reserved": 0, "lon": -77.0088855, "is_disabled": 0, "fusion_lat": 0.0, "lat": 38.898745, "bike_id": "34f04469b6c4dec787a6f2f3646eea10", "fusion_lon": 0.0}, {"rental_uris": {"ios": "https://dc.lft.to/lastmile_qr_scan", "android": "https://dc.lft.to/lastmile_qr_scan"}, "type": "electric_scooter", "name": "d43d0e6ad2f93fdbd878fd153817d953", "is_reserved": 0, "lon": -77.05793, "is_disabled": 0, "fusion_lat": 0.0, "lat": 38.90517033333333, "bike_id": "d43d0e6ad2f93fdbd878fd153817d953", "fusion_lon": 0.0}, {"rental_uris": {"ios": "https://dc.lft.to/lastmile_qr_scan", "android": "https://dc.lft.to/lastmile_qr_scan"}, "type": "electric_bike", "name": "490f5d6968e4d127a7909dec8b9b103a", "is_reserved": 0, "lon": -76.98091566666666, "is_disabled": 0, "fusion_lat": 0.0, "lat": 38.95352883333334, "bike_id": "490f5d6968e4d127a7909dec8b9b103a", "fusion_lon": 0.0}, {"rental_uris": {"ios": "https://dc.lft.to/lastmile_qr_scan", "android": "https://dc.lft.to/lastmile_qr_scan"}, "type": "electric_scooter", "name": "9ce97ae997d06ea2af6d7cd3622ae94e", "is_reserved": 0, "lon": -77.0326165, "is_disabled": 0, "fusion_lat": 0.0, "lat": 38.93523666666667, "bike_id": "9ce97ae997d06ea2af6d7cd3622ae94e", "fusion_lon": 0.0}, {"rental_uris": {"ios": "https://dc.lft.to/lastmile_qr_scan", "android": "https://dc.lft.to/lastmile_qr_scan"}, "type": "electric_scooter", "name": "c5dfe9fcb8bc765c82273a1671de7927", "is_reserved": 0, "lon": -77.0332705, "is_disabled": 0, "fusion_lat": 0.0, "lat": 38.919107333333336, "bike_id": "c5dfe9fcb8bc765c82273a1671de7927", "fusion_lon": 0.0}, {"rental_uris": {"ios": "https://dc.lft.to/lastmile_qr_scan", "android": "https://dc.lft.to/lastmile_qr_scan"}, "type": "electric_scooter", "name": "ef17a6227db3536d2fc2d8f01b347305", "is_reserved": 0, "lon": -76.99637833333334, "is_disabled": 0, "fusion_lat": 0.0, "lat": 38.887668166666664, "bike_id": "ef17a6227db3536d2fc2d8f01b347305", "fusion_lon": 0.0}, {"rental_uris": {"ios": "https://dc.lft.to/lastmile_qr_scan", "android": "https://dc.lft.to/lastmile_qr_scan"}, "type": "electric_scooter", "name": "68db3718bfa36d87cb8f97c07c30fa29", "is_reserved": 0, "lon": -77.067236, "is_disabled": 0, "fusion_lat": 0.0, "lat": 38.91456516666667, "bike_id": "68db3718bfa36d87cb8f97c07c30fa29", "fusion_lon": 0.0}, {"rental_uris": {"ios": "https://dc.lft.to/lastmile_qr_scan", "android": "https://dc.lft.to/lastmile_qr_scan"}, "type": "electric_bike", "name": "844cfe2ae0a0266830088059a0cc18b0", "is_reserved": 0, "lon": -76.968866, "is_disabled": 0, "fusion_lat": 0.0, "lat": 38.86986266666667, "bike_id": "844cfe2ae0a0266830088059a0cc18b0", "fusion_lon": 0.0}, {"rental_uris": {"ios": "https://dc.lft.to/lastmile_qr_scan", "android": "https://dc.lft.to/lastmile_qr_scan"}, "type": "electric_scooter", "name": "95ddb7e1891acbc09a1cfeeff2a5adf2", "is_reserved": 0, "lon": -77.02072883333334, "is_disabled": 0, "fusion_lat": 0.0, "lat": 38.91264416666667, "bike_id": "95ddb7e1891acbc09a1cfeeff2a5adf2", "fusion_lon": 0.0}, {"rental_uris": {"ios": "https://dc.lft.to/lastmile_qr_scan", "android": "https://dc.lft.to/lastmile_qr_scan"}, "type": "electric_scooter", "name": "9c647bd59450e0fa8465a27cfa65da3f", "is_reserved": 0, "lon": -76.99143116666667, "is_disabled": 0, "fusion_lat": 0.0, "lat": 38.87337766666667, "bike_id": "9c647bd59450e0fa8465a27cfa65da3f", "fusion_lon": 0.0}, {"rental_uris": {"ios": "https://dc.lft.to/lastmile_qr_scan", "android": "https://dc.lft.to/lastmile_qr_scan"}, "type": "electric_scooter", "name": "3ff6c0ea562e8552345a687538189aba", "is_reserved": 0, "lon": -77.0639385, "is_disabled": 0, "fusion_lat": 0.0, "lat": 38.908625, "bike_id": "3ff6c0ea562e8552345a687538189aba", "fusion_lon": 0.0}, {"rental_uris": {"ios": "https://dc.lft.to/lastmile_qr_scan", "android": "https://dc.lft.to/lastmile_qr_scan"}, "type": "electric_scooter", "name": "30a8cb6b5cb4365e1e9752f1d27564d2", "is_reserved": 0, "lon": -77.02457666666666, "is_disabled": 0, "fusion_lat": 0.0, "lat": 38.903475666666665, "bike_id": "30a8cb6b5cb4365e1e9752f1d27564d2", "fusion_lon": 0.0}, {"rental_uris": {"ios": "https://dc.lft.to/lastmile_qr_scan", "android": "https://dc.lft.to/lastmile_qr_scan"}, "type": "electric_scooter", "name": "30e854877c98f1b787849ee185c7dee7", "is_reserved": 0, "lon": -77.02178983333333, "is_disabled": 0, "fusion_lat": 0.0, "lat": 38.92832, "bike_id": "30e854877c98f1b787849ee185c7dee7", "fusion_lon": 0.0}, {"rental_uris": {"ios": "https://dc.lft.to/lastmile_qr_scan", "android": "https://dc.lft.to/lastmile_qr_scan"}, "type": "electric_scooter", "name": "f3c45cc8c408e9ad42a770892762fb34", "is_reserved": 0, "lon": -77.035549, "is_disabled": 0, "fusion_lat": 0.0, "lat": 38.927433666666666, "bike_id": "f3c45cc8c408e9ad42a770892762fb34", "fusion_lon": 0.0}, {"rental_uris": {"ios": "https://dc.lft.to/lastmile_qr_scan", "android": "https://dc.lft.to/lastmile_qr_scan"}, "type": "electric_scooter", "name": "5fa7934bfc470ba6207335d9ff2d50fd", "is_reserved": 0, "lon": -76.98542983333333, "is_disabled": 0, "fusion_lat": 0.0, "lat": 38.87963116666667, "bike_id": "5fa7934bfc470ba6207335d9ff2d50fd", "fusion_lon": 0.0}, {"rental_uris": {"ios": "https://dc.lft.to/lastmile_qr_scan", "android": "https://dc.lft.to/lastmile_qr_scan"}, "type": "electric_scooter", "name": "1ad9debc6f90d47402ebd06fa3c4c3d7", "is_reserved": 0, "lon": -77.02355183333333, "is_disabled": 0, "fusion_lat": 0.0, "lat": 38.903303333333334, "bike_id": "1ad9debc6f90d47402ebd06fa3c4c3d7", "fusion_lon": 0.0}, {"rental_uris": {"ios": "https://dc.lft.to/lastmile_qr_scan", "android": "https://dc.lft.to/lastmile_qr_scan"}, "type": "electric_scooter", "name": "47108f21979b89574a8172749a2cad27", "is_reserved": 0, "lon": -77.01884233333334, "is_disabled": 0, "fusion_lat": 0.0, "lat": 38.87468666666667, "bike_id": "47108f21979b89574a8172749a2cad27", "fusion_lon": 0.0}, {"rental_uris": {"ios": "https://dc.lft.to/lastmile_qr_scan", "android": "https://dc.lft.to/lastmile_qr_scan"}, "type": "electric_scooter", "name": "271cbe4891b5e756a37710253283969e", "is_reserved": 0, "lon": -77.04001516666666, "is_disabled": 0, "fusion_lat": 0.0, "lat": 38.934274, "bike_id": "271cbe4891b5e756a37710253283969e", "fusion_lon": 0.0}, {"rental_uris": {"ios": "https://dc.lft.to/lastmile_qr_scan", "android": "https://dc.lft.to/lastmile_qr_scan"}, "type": "electric_bike", "name": "ba8589bbcfe57d60d7d05010fec114d3", "is_reserved": 0, "lon": -77.12877416666667, "is_disabled": 0, "fusion_lat": 0.0, "lat": 38.905893166666665, "bike_id": "ba8589bbcfe57d60d7d05010fec114d3", "fusion_lon": 0.0}, {"rental_uris": {"ios": "https://dc.lft.to/lastmile_qr_scan", "android": "https://dc.lft.to/lastmile_qr_scan"}, "type": "electric_scooter", "name": "5dec304046c53ccc4e77aef14ad9e8bd", "is_reserved": 0, "lon": -77.05316066666667, "is_disabled": 0, "fusion_lat": 0.0, "lat": 38.94100016666667, "bike_id": "5dec304046c53ccc4e77aef14ad9e8bd", "fusion_lon": 0.0}, {"rental_uris": {"ios": "https://dc.lft.to/lastmile_qr_scan", "android": "https://dc.lft.to/lastmile_qr_scan"}, "type": "electric_scooter", "name": "55f231bee23fc97e8ec39b3d499d57a7", "is_reserved": 0, "lon": -77.03374733333334, "is_disabled": 0, "fusion_lat": 0.0, "lat": 38.910245333333336, "bike_id": "55f231bee23fc97e8ec39b3d499d57a7", "fusion_lon": 0.0}, {"rental_uris": {"ios": "https://dc.lft.to/lastmile_qr_scan", "android": "https://dc.lft.to/lastmile_qr_scan"}, "type": "electric_bike", "name": "9000bbdb54e352cc17d44fd2abf8a080", "is_reserved": 0, "lon": -77.00202233333333, "is_disabled": 0, "fusion_lat": 0.0, "lat": 38.98847716666667, "bike_id": "9000bbdb54e352cc17d44fd2abf8a080", "fusion_lon": 0.0}, {"rental_uris": {"ios": "https://dc.lft.to/lastmile_qr_scan", "android": "https://dc.lft.to/lastmile_qr_scan"}, "type": "electric_scooter", "name": "f8941836cf6e48d4a64baba95f867702", "is_reserved": 0, "lon": -77.006173, "is_disabled": 0, "fusion_lat": 0.0, "lat": 38.875709, "bike_id": "f8941836cf6e48d4a64baba95f867702", "fusion_lon": 0.0}, {"rental_uris": {"ios": "https://dc.lft.to/lastmile_qr_scan", "android": "https://dc.lft.to/lastmile_qr_scan"}, "type": "electric_scooter", "name": "52bec16712b0bf87caf95be6e8f3b054", "is_reserved": 0, "lon": -77.02818583333334, "is_disabled": 0, "fusion_lat": 0.0, "lat": 38.95642516666667, "bike_id": "52bec16712b0bf87caf95be6e8f3b054", "fusion_lon": 0.0}, {"rental_uris": {"ios": "https://dc.lft.to/lastmile_qr_scan", "android": "https://dc.lft.to/lastmile_qr_scan"}, "type": "electric_scooter", "name": "9320eed70b166b8487b439679c7ae785", "is_reserved": 0, "lon": -77.02297616666667, "is_disabled": 0, "fusion_lat": 0.0, "lat": 38.961291333333335, "bike_id": "9320eed70b166b8487b439679c7ae785", "fusion_lon": 0.0}, {"rental_uris": {"ios": "https://dc.lft.to/lastmile_qr_scan", "android": "https://dc.lft.to/lastmile_qr_scan"}, "type": "electric_scooter", "name": "0450e08df16eeef8110562edfa287756", "is_reserved": 0, "lon": -77.04438916666666, "is_disabled": 0, "fusion_lat": 0.0, "lat": 38.89737233333334, "bike_id": "0450e08df16eeef8110562edfa287756", "fusion_lon": 0.0}, {"rental_uris": {"ios": "https://dc.lft.to/lastmile_qr_scan", "android": "https://dc.lft.to/lastmile_qr_scan"}, "type": "electric_scooter", "name": "4e6b25236da555d3f9878e7d6d08f869", "is_reserved": 0, "lon": -77.033485, "is_disabled": 0, "fusion_lat": 0.0, "lat": 38.902600166666666, "bike_id": "4e6b25236da555d3f9878e7d6d08f869", "fusion_lon": 0.0}, {"rental_uris": {"ios": "https://dc.lft.to/lastmile_qr_scan", "android": "https://dc.lft.to/lastmile_qr_scan"}, "type": "electric_scooter", "name": "427345d5ba19d80b2a39e49be2eaa37f", "is_reserved": 0, "lon": -77.0344525, "is_disabled": 0, "fusion_lat": 0.0, "lat": 38.908452, "bike_id": "427345d5ba19d80b2a39e49be2eaa37f", "fusion_lon": 0.0}, {"rental_uris": {"ios": "https://dc.lft.to/lastmile_qr_scan", "android": "https://dc.lft.to/lastmile_qr_scan"}, "type": "electric_scooter", "name": "63f938bb1387b8d09c5f7270f6e16609", "is_reserved": 0, "lon": -77.019689, "is_disabled": 0, "fusion_lat": 0.0, "lat": 38.92251616666667, "bike_id": "63f938bb1387b8d09c5f7270f6e16609", "fusion_lon": 0.0}, {"rental_uris": {"ios": "https://dc.lft.to/lastmile_qr_scan", "android": "https://dc.lft.to/lastmile_qr_scan"}, "type": "electric_scooter", "name": "1cd70d3f5a341d0e0d08d6e8c04b4e8f", "is_reserved": 0, "lon": -76.991617, "is_disabled": 0, "fusion_lat": 0.0, "lat": 38.888154166666666, "bike_id": "1cd70d3f5a341d0e0d08d6e8c04b4e8f", "fusion_lon": 0.0}, {"rental_uris": {"ios": "https://dc.lft.to/lastmile_qr_scan", "android": "https://dc.lft.to/lastmile_qr_scan"}, "type": "electric_scooter", "name": "174c9e785734e5ca9ae16466a45df63b", "is_reserved": 0, "lon": -77.024089, "is_disabled": 0, "fusion_lat": 0.0, "lat": 38.938146333333336, "bike_id": "174c9e785734e5ca9ae16466a45df63b", "fusion_lon": 0.0}, {"rental_uris": {"ios": "https://dc.lft.to/lastmile_qr_scan", "android": "https://dc.lft.to/lastmile_qr_scan"}, "type": "electric_scooter", "name": "1b2521c04bb5a2f8456de33c86add1f6", "is_reserved": 0, "lon": -76.99870633333333, "is_disabled": 0, "fusion_lat": 0.0, "lat": 38.900314333333334, "bike_id": "1b2521c04bb5a2f8456de33c86add1f6", "fusion_lon": 0.0}, {"rental_uris": {"ios": "https://dc.lft.to/lastmile_qr_scan", "android": "https://dc.lft.to/lastmile_qr_scan"}, "type": "electric_scooter", "name": "cc6e5c1d143ae208a3de00cacdfdfbae", "is_reserved": 0, "lon": -77.0647755, "is_disabled": 0, "fusion_lat": 0.0, "lat": 38.92707733333334, "bike_id": "cc6e5c1d143ae208a3de00cacdfdfbae", "fusion_lon": 0.0}, {"rental_uris": {"ios": "https://dc.lft.to/lastmile_qr_scan", "android": "https://dc.lft.to/lastmile_qr_scan"}, "type": "electric_scooter", "name": "b727f96f9652969ca99e380002273fa7", "is_reserved": 0, "lon": -77.0422935, "is_disabled": 0, "fusion_lat": 0.0, "lat": 38.9110705, "bike_id": "b727f96f9652969ca99e380002273fa7", "fusion_lon": 0.0}, {"rental_uris": {"ios": "https://dc.lft.to/lastmile_qr_scan", "android": "https://dc.lft.to/lastmile_qr_scan"}, "type": "electric_scooter", "name": "8d202c9bd77ba2461ab18031dc57b294", "is_reserved": 0, "lon": -77.02694316666667, "is_disabled": 0, "fusion_lat": 0.0, "lat": 38.92492933333333, "bike_id": "8d202c9bd77ba2461ab18031dc57b294", "fusion_lon": 0.0}, {"rental_uris": {"ios": "https://dc.lft.to/lastmile_qr_scan", "android": "https://dc.lft.to/lastmile_qr_scan"}, "type": "electric_scooter", "name": "87e14da8bbcd35c0fa3d397825f31b04", "is_reserved": 0, "lon": -76.99175433333333, "is_disabled": 0, "fusion_lat": 0.0, "lat": 38.902606, "bike_id": "87e14da8bbcd35c0fa3d397825f31b04", "fusion_lon": 0.0}, {"rental_uris": {"ios": "https://dc.lft.to/lastmile_qr_scan", "android": "https://dc.lft.to/lastmile_qr_scan"}, "type": "electric_scooter", "name": "4ed71b7aa17e69a1d37aa5dba1fdd3ab", "is_reserved": 0, "lon": -77.04530816666667, "is_disabled": 0, "fusion_lat": 0.0, "lat": 38.91117, "bike_id": "4ed71b7aa17e69a1d37aa5dba1fdd3ab", "fusion_lon": 0.0}, {"rental_uris": {"ios": "https://dc.lft.to/lastmile_qr_scan", "android": "https://dc.lft.to/lastmile_qr_scan"}, "type": "electric_scooter", "name": "06bbb5060b21d13c5ae9d182340d3c75", "is_reserved": 0, "lon": -77.00647166666667, "is_disabled": 0, "fusion_lat": 0.0, "lat": 38.87864, "bike_id": "06bbb5060b21d13c5ae9d182340d3c75", "fusion_lon": 0.0}, {"rental_uris": {"ios": "https://dc.lft.to/lastmile_qr_scan", "android": "https://dc.lft.to/lastmile_qr_scan"}, "type": "electric_scooter", "name": "9cc9d0c14c520fe14ad6da22e055ae6e", "is_reserved": 0, "lon": -76.99375983333333, "is_disabled": 0, "fusion_lat": 0.0, "lat": 38.893373833333335, "bike_id": "9cc9d0c14c520fe14ad6da22e055ae6e", "fusion_lon": 0.0}, {"rental_uris": {"ios": "https://dc.lft.to/lastmile_qr_scan", "android": "https://dc.lft.to/lastmile_qr_scan"}, "type": "electric_scooter", "name": "abcf5811aa8f0bdd782a95530683ab79", "is_reserved": 0, "lon": -77.0196025, "is_disabled": 0, "fusion_lat": 0.0, "lat": 38.923272, "bike_id": "abcf5811aa8f0bdd782a95530683ab79", "fusion_lon": 0.0}, {"rental_uris": {"ios": "https://dc.lft.to/lastmile_qr_scan", "android": "https://dc.lft.to/lastmile_qr_scan"}, "type": "electric_scooter", "name": "db7a69d3fa5fc3f2056990c6d005dcef", "is_reserved": 0, "lon": -76.9815975, "is_disabled": 0, "fusion_lat": 0.0, "lat": 38.89938466666667, "bike_id": "db7a69d3fa5fc3f2056990c6d005dcef", "fusion_lon": 0.0}, {"rental_uris": {"ios": "https://dc.lft.to/lastmile_qr_scan", "android": "https://dc.lft.to/lastmile_qr_scan"}, "type": "electric_bike", "name": "503bac4756136db86b0e838457c24171", "is_reserved": 0, "lon": -76.980206, "is_disabled": 0, "fusion_lat": 0.0, "lat": 38.853068666666665, "bike_id": "503bac4756136db86b0e838457c24171", "fusion_lon": 0.0}, {"rental_uris": {"ios": "https://dc.lft.to/lastmile_qr_scan", "android": "https://dc.lft.to/lastmile_qr_scan"}, "type": "electric_scooter", "name": "31b56f37337243b291616ceb8cdfdfa7", "is_reserved": 0, "lon": -77.03203633333334, "is_disabled": 0, "fusion_lat": 0.0, "lat": 38.921913833333335, "bike_id": "31b56f37337243b291616ceb8cdfdfa7", "fusion_lon": 0.0}, {"rental_uris": {"ios": "https://dc.lft.to/lastmile_qr_scan", "android": "https://dc.lft.to/lastmile_qr_scan"}, "type": "electric_scooter", "name": "676d07a025c61dfaa68f872f2404d3a3", "is_reserved": 0, "lon": -77.00624616666667, "is_disabled": 0, "fusion_lat": 0.0, "lat": 38.871727666666665, "bike_id": "676d07a025c61dfaa68f872f2404d3a3", "fusion_lon": 0.0}, {"rental_uris": {"ios": "https://dc.lft.to/lastmile_qr_scan", "android": "https://dc.lft.to/lastmile_qr_scan"}, "type": "electric_scooter", "name": "939ee87ffdcc1562dbe4a31bce1127d1", "is_reserved": 0, "lon": -77.0408235, "is_disabled": 0, "fusion_lat": 0.0, "lat": 38.94789633333333, "bike_id": "939ee87ffdcc1562dbe4a31bce1127d1", "fusion_lon": 0.0}, {"rental_uris": {"ios": "https://dc.lft.to/lastmile_qr_scan", "android": "https://dc.lft.to/lastmile_qr_scan"}, "type": "electric_bike", "name": "c03a48b864ca5d76b0be15943f8b7c3f", "is_reserved": 0, "lon": -76.982422, "is_disabled": 0, "fusion_lat": 0.0, "lat": 38.9524015, "bike_id": "c03a48b864ca5d76b0be15943f8b7c3f", "fusion_lon": 0.0}, {"rental_uris": {"ios": "https://dc.lft.to/lastmile_qr_scan", "android": "https://dc.lft.to/lastmile_qr_scan"}, "type": "electric_scooter", "name": "02be89edc70de7bc3dab0224e46cbc3a", "is_reserved": 0, "lon": -77.0054175, "is_disabled": 0, "fusion_lat": 0.0, "lat": 38.87846783333333, "bike_id": "02be89edc70de7bc3dab0224e46cbc3a", "fusion_lon": 0.0}, {"rental_uris": {"ios": "https://dc.lft.to/lastmile_qr_scan", "android": "https://dc.lft.to/lastmile_qr_scan"}, "type": "electric_scooter", "name": "92d84e1a5ac462487590e7261a9c9610", "is_reserved": 0, "lon": -77.03664933333333, "is_disabled": 0, "fusion_lat": 0.0, "lat": 38.92126316666667, "bike_id": "92d84e1a5ac462487590e7261a9c9610", "fusion_lon": 0.0}, {"rental_uris": {"ios": "https://dc.lft.to/lastmile_qr_scan", "android": "https://dc.lft.to/lastmile_qr_scan"}, "type": "electric_scooter", "name": "80c30496d98ff41cf5590ff65a5e017d", "is_reserved": 0, "lon": -77.00745533333334, "is_disabled": 0, "fusion_lat": 0.0, "lat": 38.9161755, "bike_id": "80c30496d98ff41cf5590ff65a5e017d", "fusion_lon": 0.0}, {"rental_uris": {"ios": "https://dc.lft.to/lastmile_qr_scan", "android": "https://dc.lft.to/lastmile_qr_scan"}, "type": "electric_scooter", "name": "e58d5a5ef3a69985c291d273e34575e6", "is_reserved": 0, "lon": -77.038157, "is_disabled": 0, "fusion_lat": 0.0, "lat": 38.914136166666665, "bike_id": "e58d5a5ef3a69985c291d273e34575e6", "fusion_lon": 0.0}, {"rental_uris": {"ios": "https://dc.lft.to/lastmile_qr_scan", "android": "https://dc.lft.to/lastmile_qr_scan"}, "type": "electric_scooter", "name": "820179d5c6738a2fecd2f67f5cf26e22", "is_reserved": 0, "lon": -77.0456965, "is_disabled": 0, "fusion_lat": 0.0, "lat": 38.920669833333335, "bike_id": "820179d5c6738a2fecd2f67f5cf26e22", "fusion_lon": 0.0}, {"rental_uris": {"ios": "https://dc.lft.to/lastmile_qr_scan", "android": "https://dc.lft.to/lastmile_qr_scan"}, "type": "electric_scooter", "name": "28472ed6141ed960f5695c22117ab5d3", "is_reserved": 0, "lon": -77.041768, "is_disabled": 0, "fusion_lat": 0.0, "lat": 38.91618, "bike_id": "28472ed6141ed960f5695c22117ab5d3", "fusion_lon": 0.0}, {"rental_uris": {"ios": "https://dc.lft.to/lastmile_qr_scan", "android": "https://dc.lft.to/lastmile_qr_scan"}, "type": "electric_scooter", "name": "650907a6cd9efcdef71900211fafdeb9", "is_reserved": 0, "lon": -77.024156, "is_disabled": 0, "fusion_lat": 0.0, "lat": 38.921398333333336, "bike_id": "650907a6cd9efcdef71900211fafdeb9", "fusion_lon": 0.0}, {"rental_uris": {"ios": "https://dc.lft.to/lastmile_qr_scan", "android": "https://dc.lft.to/lastmile_qr_scan"}, "type": "electric_scooter", "name": "0606d1de8949665274908da4cd547e93", "is_reserved": 0, "lon": -77.03473516666666, "is_disabled": 0, "fusion_lat": 0.0, "lat": 38.9097355, "bike_id": "0606d1de8949665274908da4cd547e93", "fusion_lon": 0.0}, {"rental_uris": {"ios": "https://dc.lft.to/lastmile_qr_scan", "android": "https://dc.lft.to/lastmile_qr_scan"}, "type": "electric_scooter", "name": "015aa5d507bf558c33f1804876d3108e", "is_reserved": 0, "lon": -76.99476816666666, "is_disabled": 0, "fusion_lat": 0.0, "lat": 38.862151833333336, "bike_id": "015aa5d507bf558c33f1804876d3108e", "fusion_lon": 0.0}, {"rental_uris": {"ios": "https://dc.lft.to/lastmile_qr_scan", "android": "https://dc.lft.to/lastmile_qr_scan"}, "type": "electric_scooter", "name": "042291875feab3ab5436c4b86d027c31", "is_reserved": 0, "lon": -76.992129, "is_disabled": 0, "fusion_lat": 0.0, "lat": 38.88973433333334, "bike_id": "042291875feab3ab5436c4b86d027c31", "fusion_lon": 0.0}, {"rental_uris": {"ios": "https://dc.lft.to/lastmile_qr_scan", "android": "https://dc.lft.to/lastmile_qr_scan"}, "type": "electric_scooter", "name": "e298eb0d987b46a685256c8468cb81a8", "is_reserved": 0, "lon": -77.01736866666667, "is_disabled": 0, "fusion_lat": 0.0, "lat": 38.8800905, "bike_id": "e298eb0d987b46a685256c8468cb81a8", "fusion_lon": 0.0}, {"rental_uris": {"ios": "https://dc.lft.to/lastmile_qr_scan", "android": "https://dc.lft.to/lastmile_qr_scan"}, "type": "electric_scooter", "name": "280003c52d53a6bb43d6161ad082ad40", "is_reserved": 0, "lon": -77.06150033333333, "is_disabled": 0, "fusion_lat": 0.0, "lat": 38.91300833333333, "bike_id": "280003c52d53a6bb43d6161ad082ad40", "fusion_lon": 0.0}, {"rental_uris": {"ios": "https://dc.lft.to/lastmile_qr_scan", "android": "https://dc.lft.to/lastmile_qr_scan"}, "type": "electric_scooter", "name": "5644d98d88efb4a37d43315f4332f4ab", "is_reserved": 0, "lon": -76.98995933333333, "is_disabled": 0, "fusion_lat": 0.0, "lat": 38.86425066666666, "bike_id": "5644d98d88efb4a37d43315f4332f4ab", "fusion_lon": 0.0}, {"rental_uris": {"ios": "https://dc.lft.to/lastmile_qr_scan", "android": "https://dc.lft.to/lastmile_qr_scan"}, "type": "electric_scooter", "name": "772f4549295bcf4f918127e57fd40e16", "is_reserved": 0, "lon": -77.03855816666666, "is_disabled": 0, "fusion_lat": 0.0, "lat": 38.915562, "bike_id": "772f4549295bcf4f918127e57fd40e16", "fusion_lon": 0.0}, {"rental_uris": {"ios": "https://dc.lft.to/lastmile_qr_scan", "android": "https://dc.lft.to/lastmile_qr_scan"}, "type": "electric_scooter", "name": "2889daf03b3c3e1501e20305e7e9fbd7", "is_reserved": 0, "lon": -77.015901, "is_disabled": 0, "fusion_lat": 0.0, "lat": 38.91645166666667, "bike_id": "2889daf03b3c3e1501e20305e7e9fbd7", "fusion_lon": 0.0}, {"rental_uris": {"ios": "https://dc.lft.to/lastmile_qr_scan", "android": "https://dc.lft.to/lastmile_qr_scan"}, "type": "electric_scooter", "name": "42323d569240ed6a4ba0e2bae1e4572a", "is_reserved": 0, "lon": -77.0160515, "is_disabled": 0, "fusion_lat": 0.0, "lat": 38.906073666666664, "bike_id": "42323d569240ed6a4ba0e2bae1e4572a", "fusion_lon": 0.0}, {"rental_uris": {"ios": "https://dc.lft.to/lastmile_qr_scan", "android": "https://dc.lft.to/lastmile_qr_scan"}, "type": "electric_scooter", "name": "a9b236004722b80c58b325f488f4a6af", "is_reserved": 0, "lon": -77.07253633333333, "is_disabled": 0, "fusion_lat": 0.0, "lat": 38.93442316666667, "bike_id": "a9b236004722b80c58b325f488f4a6af", "fusion_lon": 0.0}, {"rental_uris": {"ios": "https://dc.lft.to/lastmile_qr_scan", "android": "https://dc.lft.to/lastmile_qr_scan"}, "type": "electric_scooter", "name": "ac687783337163dd02209916f4a7a078", "is_reserved": 0, "lon": -77.00479416666667, "is_disabled": 0, "fusion_lat": 0.0, "lat": 38.885209333333336, "bike_id": "ac687783337163dd02209916f4a7a078", "fusion_lon": 0.0}, {"rental_uris": {"ios": "https://dc.lft.to/lastmile_qr_scan", "android": "https://dc.lft.to/lastmile_qr_scan"}, "type": "electric_scooter", "name": "3290d9da9b9b46192a5c89e9265ce2b6", "is_reserved": 0, "lon": -77.02322833333334, "is_disabled": 0, "fusion_lat": 0.0, "lat": 38.938078833333336, "bike_id": "3290d9da9b9b46192a5c89e9265ce2b6", "fusion_lon": 0.0}, {"rental_uris": {"ios": "https://dc.lft.to/lastmile_qr_scan", "android": "https://dc.lft.to/lastmile_qr_scan"}, "type": "electric_scooter", "name": "c9c6a0b85e9b26ee5ff5d7afee850a7b", "is_reserved": 0, "lon": -77.032473, "is_disabled": 0, "fusion_lat": 0.0, "lat": 38.90422683333333, "bike_id": "c9c6a0b85e9b26ee5ff5d7afee850a7b", "fusion_lon": 0.0}, {"rental_uris": {"ios": "https://dc.lft.to/lastmile_qr_scan", "android": "https://dc.lft.to/lastmile_qr_scan"}, "type": "electric_scooter", "name": "ce797f4e9bb3abad38fd144a6d003edf", "is_reserved": 0, "lon": -77.03856016666667, "is_disabled": 0, "fusion_lat": 0.0, "lat": 38.91279016666667, "bike_id": "ce797f4e9bb3abad38fd144a6d003edf", "fusion_lon": 0.0}, {"rental_uris": {"ios": "https://dc.lft.to/lastmile_qr_scan", "android": "https://dc.lft.to/lastmile_qr_scan"}, "type": "electric_scooter", "name": "ec781f3e28e0ea9901e235eebd8bda85", "is_reserved": 0, "lon": -76.99503233333333, "is_disabled": 0, "fusion_lat": 0.0, "lat": 38.90979983333333, "bike_id": "ec781f3e28e0ea9901e235eebd8bda85", "fusion_lon": 0.0}, {"rental_uris": {"ios": "https://dc.lft.to/lastmile_qr_scan", "android": "https://dc.lft.to/lastmile_qr_scan"}, "type": "electric_scooter", "name": "671f5de54e83af54ff4da3913f63be29", "is_reserved": 0, "lon": -76.94063583333333, "is_disabled": 0, "fusion_lat": 0.0, "lat": 38.8858975, "bike_id": "671f5de54e83af54ff4da3913f63be29", "fusion_lon": 0.0}, {"rental_uris": {"ios": "https://dc.lft.to/lastmile_qr_scan", "android": "https://dc.lft.to/lastmile_qr_scan"}, "type": "electric_scooter", "name": "30f37f950a55227541a28de33f9f14ca", "is_reserved": 0, "lon": -77.02302816666666, "is_disabled": 0, "fusion_lat": 0.0, "lat": 38.949368166666666, "bike_id": "30f37f950a55227541a28de33f9f14ca", "fusion_lon": 0.0}, {"rental_uris": {"ios": "https://dc.lft.to/lastmile_qr_scan", "android": "https://dc.lft.to/lastmile_qr_scan"}, "type": "electric_scooter", "name": "2b20280c87f185bdda1f220bdf63496c", "is_reserved": 0, "lon": -77.02947883333333, "is_disabled": 0, "fusion_lat": 0.0, "lat": 38.93247133333333, "bike_id": "2b20280c87f185bdda1f220bdf63496c", "fusion_lon": 0.0}, {"rental_uris": {"ios": "https://dc.lft.to/lastmile_qr_scan", "android": "https://dc.lft.to/lastmile_qr_scan"}, "type": "electric_scooter", "name": "eda2d973c722049db0bb98e2bea93109", "is_reserved": 0, "lon": -77.03685183333333, "is_disabled": 0, "fusion_lat": 0.0, "lat": 38.939284666666666, "bike_id": "eda2d973c722049db0bb98e2bea93109", "fusion_lon": 0.0}, {"rental_uris": {"ios": "https://dc.lft.to/lastmile_qr_scan", "android": "https://dc.lft.to/lastmile_qr_scan"}, "type": "electric_scooter", "name": "9b5c28cb6d3cca536476e5b3b7228b0c", "is_reserved": 0, "lon": -77.00491416666667, "is_disabled": 0, "fusion_lat": 0.0, "lat": 38.874601166666665, "bike_id": "9b5c28cb6d3cca536476e5b3b7228b0c", "fusion_lon": 0.0}, {"rental_uris": {"ios": "https://dc.lft.to/lastmile_qr_scan", "android": "https://dc.lft.to/lastmile_qr_scan"}, "type": "electric_scooter", "name": "7370197a96904d6bcb1cdfd5d1dda738", "is_reserved": 0, "lon": -77.0242845, "is_disabled": 0, "fusion_lat": 0.0, "lat": 38.9156125, "bike_id": "7370197a96904d6bcb1cdfd5d1dda738", "fusion_lon": 0.0}, {"rental_uris": {"ios": "https://dc.lft.to/lastmile_qr_scan", "android": "https://dc.lft.to/lastmile_qr_scan"}, "type": "electric_scooter", "name": "8da8b15167fe0be0f747b784664c3a0c", "is_reserved": 0, "lon": -77.0241015, "is_disabled": 0, "fusion_lat": 0.0, "lat": 38.945101, "bike_id": "8da8b15167fe0be0f747b784664c3a0c", "fusion_lon": 0.0}, {"rental_uris": {"ios": "https://dc.lft.to/lastmile_qr_scan", "android": "https://dc.lft.to/lastmile_qr_scan"}, "type": "electric_scooter", "name": "13c71ccebee9d28995e37a2194ef0633", "is_reserved": 0, "lon": -77.01889966666667, "is_disabled": 0, "fusion_lat": 0.0, "lat": 38.87461116666667, "bike_id": "13c71ccebee9d28995e37a2194ef0633", "fusion_lon": 0.0}, {"rental_uris": {"ios": "https://dc.lft.to/lastmile_qr_scan", "android": "https://dc.lft.to/lastmile_qr_scan"}, "type": "electric_scooter", "name": "3e4cecf9888a7bd050f50decfb40b5d2", "is_reserved": 0, "lon": -77.00647633333334, "is_disabled": 0, "fusion_lat": 0.0, "lat": 38.91252766666667, "bike_id": "3e4cecf9888a7bd050f50decfb40b5d2", "fusion_lon": 0.0}, {"rental_uris": {"ios": "https://dc.lft.to/lastmile_qr_scan", "android": "https://dc.lft.to/lastmile_qr_scan"}, "type": "electric_bike", "name": "fd4668b549fbfe1844de6b445ad25ed0", "is_reserved": 0, "lon": -76.9805845, "is_disabled": 0, "fusion_lat": 0.0, "lat": 38.972526, "bike_id": "fd4668b549fbfe1844de6b445ad25ed0", "fusion_lon": 0.0}, {"rental_uris": {"ios": "https://dc.lft.to/lastmile_qr_scan", "android": "https://dc.lft.to/lastmile_qr_scan"}, "type": "electric_bike", "name": "932a60c00c7af5752ad81b94d235e2c5", "is_reserved": 0, "lon": -77.00400566666667, "is_disabled": 0, "fusion_lat": 0.0, "lat": 38.92126433333333, "bike_id": "932a60c00c7af5752ad81b94d235e2c5", "fusion_lon": 0.0}, {"rental_uris": {"ios": "https://dc.lft.to/lastmile_qr_scan", "android": "https://dc.lft.to/lastmile_qr_scan"}, "type": "electric_scooter", "name": "302a684ca83598b83921ab4c2876578f", "is_reserved": 0, "lon": -77.0399895, "is_disabled": 0, "fusion_lat": 0.0, "lat": 38.934124, "bike_id": "302a684ca83598b83921ab4c2876578f", "fusion_lon": 0.0}, {"rental_uris": {"ios": "https://dc.lft.to/lastmile_qr_scan", "android": "https://dc.lft.to/lastmile_qr_scan"}, "type": "electric_scooter", "name": "74adb6fb3e8b88c1a83831294617ede0", "is_reserved": 0, "lon": -77.02764366666666, "is_disabled": 0, "fusion_lat": 0.0, "lat": 38.901294166666666, "bike_id": "74adb6fb3e8b88c1a83831294617ede0", "fusion_lon": 0.0}, {"rental_uris": {"ios": "https://dc.lft.to/lastmile_qr_scan", "android": "https://dc.lft.to/lastmile_qr_scan"}, "type": "electric_scooter", "name": "d4542e611251092a2f29654237c77446", "is_reserved": 0, "lon": -77.01198316666667, "is_disabled": 0, "fusion_lat": 0.0, "lat": 38.9003005, "bike_id": "d4542e611251092a2f29654237c77446", "fusion_lon": 0.0}, {"rental_uris": {"ios": "https://dc.lft.to/lastmile_qr_scan", "android": "https://dc.lft.to/lastmile_qr_scan"}, "type": "electric_scooter", "name": "17cb8ba612c4bfc83380308ced84e28f", "is_reserved": 0, "lon": -77.032956, "is_disabled": 0, "fusion_lat": 0.0, "lat": 38.907260666666666, "bike_id": "17cb8ba612c4bfc83380308ced84e28f", "fusion_lon": 0.0}, {"rental_uris": {"ios": "https://dc.lft.to/lastmile_qr_scan", "android": "https://dc.lft.to/lastmile_qr_scan"}, "type": "electric_bike", "name": "5efa1f1ccb51339176bdf08746322dac", "is_reserved": 0, "lon": -76.99678266666666, "is_disabled": 0, "fusion_lat": 0.0, "lat": 38.838159833333336, "bike_id": "5efa1f1ccb51339176bdf08746322dac", "fusion_lon": 0.0}, {"rental_uris": {"ios": "https://dc.lft.to/lastmile_qr_scan", "android": "https://dc.lft.to/lastmile_qr_scan"}, "type": "electric_scooter", "name": "18745315290e540cb56ed69c28951983", "is_reserved": 0, "lon": -77.068474, "is_disabled": 0, "fusion_lat": 0.0, "lat": 38.9041055, "bike_id": "18745315290e540cb56ed69c28951983", "fusion_lon": 0.0}, {"rental_uris": {"ios": "https://dc.lft.to/lastmile_qr_scan", "android": "https://dc.lft.to/lastmile_qr_scan"}, "type": "electric_scooter", "name": "b31f5df234b318abb7ab3de1a87433f9", "is_reserved": 0, "lon": -77.03855833333333, "is_disabled": 0, "fusion_lat": 0.0, "lat": 38.917141666666666, "bike_id": "b31f5df234b318abb7ab3de1a87433f9", "fusion_lon": 0.0}, {"rental_uris": {"ios": "https://dc.lft.to/lastmile_qr_scan", "android": "https://dc.lft.to/lastmile_qr_scan"}, "type": "electric_scooter", "name": "99b9a4c7850f7cd8d313e340ef3850c4", "is_reserved": 0, "lon": -77.02363066666666, "is_disabled": 0, "fusion_lat": 0.0, "lat": 38.920619333333335, "bike_id": "99b9a4c7850f7cd8d313e340ef3850c4", "fusion_lon": 0.0}, {"rental_uris": {"ios": "https://dc.lft.to/lastmile_qr_scan", "android": "https://dc.lft.to/lastmile_qr_scan"}, "type": "electric_scooter", "name": "ac0903d9bb5882d93f281b500649c14b", "is_reserved": 0, "lon": -77.02126783333334, "is_disabled": 0, "fusion_lat": 0.0, "lat": 38.927987, "bike_id": "ac0903d9bb5882d93f281b500649c14b", "fusion_lon": 0.0}, {"rental_uris": {"ios": "https://dc.lft.to/lastmile_qr_scan", "android": "https://dc.lft.to/lastmile_qr_scan"}, "type": "electric_scooter", "name": "38041770fd7ae886b8a81f4b6726c4d8", "is_reserved": 0, "lon": -77.01762666666667, "is_disabled": 0, "fusion_lat": 0.0, "lat": 38.87688383333333, "bike_id": "38041770fd7ae886b8a81f4b6726c4d8", "fusion_lon": 0.0}, {"rental_uris": {"ios": "https://dc.lft.to/lastmile_qr_scan", "android": "https://dc.lft.to/lastmile_qr_scan"}, "type": "electric_scooter", "name": "43d69016c2b4a256813af39b6251087b", "is_reserved": 0, "lon": -76.934311, "is_disabled": 0, "fusion_lat": 0.0, "lat": 38.89345866666667, "bike_id": "43d69016c2b4a256813af39b6251087b", "fusion_lon": 0.0}, {"rental_uris": {"ios": "https://dc.lft.to/lastmile_qr_scan", "android": "https://dc.lft.to/lastmile_qr_scan"}, "type": "electric_bike", "name": "b1d0cccd7d357b5cb2b25807dc9e37de", "is_reserved": 0, "lon": -77.01224216666667, "is_disabled": 0, "fusion_lat": 0.0, "lat": 38.9507845, "bike_id": "b1d0cccd7d357b5cb2b25807dc9e37de", "fusion_lon": 0.0}, {"rental_uris": {"ios": "https://dc.lft.to/lastmile_qr_scan", "android": "https://dc.lft.to/lastmile_qr_scan"}, "type": "electric_scooter", "name": "042ae4eca22472843c6dba5a02617a6e", "is_reserved": 0, "lon": -77.02831316666666, "is_disabled": 0, "fusion_lat": 0.0, "lat": 38.910201, "bike_id": "042ae4eca22472843c6dba5a02617a6e", "fusion_lon": 0.0}, {"rental_uris": {"ios": "https://dc.lft.to/lastmile_qr_scan", "android": "https://dc.lft.to/lastmile_qr_scan"}, "type": "electric_scooter", "name": "b3507a1eec317e9601152a95d3eacff7", "is_reserved": 0, "lon": -77.0337995, "is_disabled": 0, "fusion_lat": 0.0, "lat": 38.89916616666667, "bike_id": "b3507a1eec317e9601152a95d3eacff7", "fusion_lon": 0.0}, {"rental_uris": {"ios": "https://dc.lft.to/lastmile_qr_scan", "android": "https://dc.lft.to/lastmile_qr_scan"}, "type": "electric_scooter", "name": "89832bdd6ff7c9559bfd5e0462ad54d4", "is_reserved": 0, "lon": -77.023178, "is_disabled": 0, "fusion_lat": 0.0, "lat": 38.91844583333334, "bike_id": "89832bdd6ff7c9559bfd5e0462ad54d4", "fusion_lon": 0.0}, {"rental_uris": {"ios": "https://dc.lft.to/lastmile_qr_scan", "android": "https://dc.lft.to/lastmile_qr_scan"}, "type": "electric_scooter", "name": "ae487465acc1b1b6ade6626b20ab986a", "is_reserved": 0, "lon": -77.00743033333333, "is_disabled": 0, "fusion_lat": 0.0, "lat": 38.87836766666667, "bike_id": "ae487465acc1b1b6ade6626b20ab986a", "fusion_lon": 0.0}, {"rental_uris": {"ios": "https://dc.lft.to/lastmile_qr_scan", "android": "https://dc.lft.to/lastmile_qr_scan"}, "type": "electric_scooter", "name": "a5d5131d3fe52ecfee56c93ad0696e3e", "is_reserved": 0, "lon": -77.05216766666666, "is_disabled": 0, "fusion_lat": 0.0, "lat": 38.92497733333333, "bike_id": "a5d5131d3fe52ecfee56c93ad0696e3e", "fusion_lon": 0.0}, {"rental_uris": {"ios": "https://dc.lft.to/lastmile_qr_scan", "android": "https://dc.lft.to/lastmile_qr_scan"}, "type": "electric_scooter", "name": "a28c4358e699c522390da01d6559ec2e", "is_reserved": 0, "lon": -77.04031016666667, "is_disabled": 0, "fusion_lat": 0.0, "lat": 38.9118685, "bike_id": "a28c4358e699c522390da01d6559ec2e", "fusion_lon": 0.0}, {"rental_uris": {"ios": "https://dc.lft.to/lastmile_qr_scan", "android": "https://dc.lft.to/lastmile_qr_scan"}, "type": "electric_scooter", "name": "830d961d48e0610a030f9e6b75e98803", "is_reserved": 0, "lon": -77.037098, "is_disabled": 0, "fusion_lat": 0.0, "lat": 38.91487733333334, "bike_id": "830d961d48e0610a030f9e6b75e98803", "fusion_lon": 0.0}, {"rental_uris": {"ios": "https://dc.lft.to/lastmile_qr_scan", "android": "https://dc.lft.to/lastmile_qr_scan"}, "type": "electric_scooter", "name": "dc3524f69581af7907bfca62ed568d1a", "is_reserved": 0, "lon": -77.035715, "is_disabled": 0, "fusion_lat": 0.0, "lat": 38.917744166666665, "bike_id": "dc3524f69581af7907bfca62ed568d1a", "fusion_lon": 0.0}, {"rental_uris": {"ios": "https://dc.lft.to/lastmile_qr_scan", "android": "https://dc.lft.to/lastmile_qr_scan"}, "type": "electric_scooter", "name": "65e11d9d748a085c7e95d86ac2edc70f", "is_reserved": 0, "lon": -76.98073766666667, "is_disabled": 0, "fusion_lat": 0.0, "lat": 38.90174666666667, "bike_id": "65e11d9d748a085c7e95d86ac2edc70f", "fusion_lon": 0.0}, {"rental_uris": {"ios": "https://dc.lft.to/lastmile_qr_scan", "android": "https://dc.lft.to/lastmile_qr_scan"}, "type": "electric_scooter", "name": "a05d221e77f60384011cb96621bcca7f", "is_reserved": 0, "lon": -76.99761533333333, "is_disabled": 0, "fusion_lat": 0.0, "lat": 38.8967175, "bike_id": "a05d221e77f60384011cb96621bcca7f", "fusion_lon": 0.0}, {"rental_uris": {"ios": "https://dc.lft.to/lastmile_qr_scan", "android": "https://dc.lft.to/lastmile_qr_scan"}, "type": "electric_scooter", "name": "9b65ab0718d71d7dffa3d41fb78144d3", "is_reserved": 0, "lon": -77.02401516666667, "is_disabled": 0, "fusion_lat": 0.0, "lat": 38.938122, "bike_id": "9b65ab0718d71d7dffa3d41fb78144d3", "fusion_lon": 0.0}, {"rental_uris": {"ios": "https://dc.lft.to/lastmile_qr_scan", "android": "https://dc.lft.to/lastmile_qr_scan"}, "type": "electric_bike", "name": "77bfa32c35cfab38104fc439cf8cb7d7", "is_reserved": 0, "lon": -76.99696183333333, "is_disabled": 0, "fusion_lat": 0.0, "lat": 38.8386945, "bike_id": "77bfa32c35cfab38104fc439cf8cb7d7", "fusion_lon": 0.0}, {"rental_uris": {"ios": "https://dc.lft.to/lastmile_qr_scan", "android": "https://dc.lft.to/lastmile_qr_scan"}, "type": "electric_scooter", "name": "76a50492ce9ba36fd65fabaea34bfa25", "is_reserved": 0, "lon": -77.0337435, "is_disabled": 0, "fusion_lat": 0.0, "lat": 38.935213833333336, "bike_id": "76a50492ce9ba36fd65fabaea34bfa25", "fusion_lon": 0.0}, {"rental_uris": {"ios": "https://dc.lft.to/lastmile_qr_scan", "android": "https://dc.lft.to/lastmile_qr_scan"}, "type": "electric_scooter", "name": "438aa998287d41d98ae544df7142e03b", "is_reserved": 0, "lon": -77.02090783333334, "is_disabled": 0, "fusion_lat": 0.0, "lat": 38.88189233333333, "bike_id": "438aa998287d41d98ae544df7142e03b", "fusion_lon": 0.0}, {"rental_uris": {"ios": "https://dc.lft.to/lastmile_qr_scan", "android": "https://dc.lft.to/lastmile_qr_scan"}, "type": "electric_bike", "name": "bfe0e9730943845ec237265af6617ecf", "is_reserved": 0, "lon": -76.992763, "is_disabled": 0, "fusion_lat": 0.0, "lat": 38.972610333333336, "bike_id": "bfe0e9730943845ec237265af6617ecf", "fusion_lon": 0.0}, {"rental_uris": {"ios": "https://dc.lft.to/lastmile_qr_scan", "android": "https://dc.lft.to/lastmile_qr_scan"}, "type": "electric_scooter", "name": "0e023e4574abdfdc5133452587abd57b", "is_reserved": 0, "lon": -77.03183266666667, "is_disabled": 0, "fusion_lat": 0.0, "lat": 38.929110333333334, "bike_id": "0e023e4574abdfdc5133452587abd57b", "fusion_lon": 0.0}, {"rental_uris": {"ios": "https://dc.lft.to/lastmile_qr_scan", "android": "https://dc.lft.to/lastmile_qr_scan"}, "type": "electric_scooter", "name": "43d90bd5b339c4423a49627687e8fcdf", "is_reserved": 0, "lon": -77.0021945, "is_disabled": 0, "fusion_lat": 0.0, "lat": 38.894495, "bike_id": "43d90bd5b339c4423a49627687e8fcdf", "fusion_lon": 0.0}, {"rental_uris": {"ios": "https://dc.lft.to/lastmile_qr_scan", "android": "https://dc.lft.to/lastmile_qr_scan"}, "type": "electric_bike", "name": "fdec4a41f18d50d4cc59f2ec576d74ab", "is_reserved": 0, "lon": -77.10074083333333, "is_disabled": 0, "fusion_lat": 0.0, "lat": 38.8573885, "bike_id": "fdec4a41f18d50d4cc59f2ec576d74ab", "fusion_lon": 0.0}, {"rental_uris": {"ios": "https://dc.lft.to/lastmile_qr_scan", "android": "https://dc.lft.to/lastmile_qr_scan"}, "type": "electric_bike", "name": "26280d7715726f27cb89414147704541", "is_reserved": 0, "lon": -76.97317166666667, "is_disabled": 0, "fusion_lat": 0.0, "lat": 38.865196166666664, "bike_id": "26280d7715726f27cb89414147704541", "fusion_lon": 0.0}, {"rental_uris": {"ios": "https://dc.lft.to/lastmile_qr_scan", "android": "https://dc.lft.to/lastmile_qr_scan"}, "type": "electric_scooter", "name": "3ac814c8ac5d6f76ce079ef14a7c99e7", "is_reserved": 0, "lon": -77.033856, "is_disabled": 0, "fusion_lat": 0.0, "lat": 38.93866216666667, "bike_id": "3ac814c8ac5d6f76ce079ef14a7c99e7", "fusion_lon": 0.0}, {"rental_uris": {"ios": "https://dc.lft.to/lastmile_qr_scan", "android": "https://dc.lft.to/lastmile_qr_scan"}, "type": "electric_scooter", "name": "57309be9d139814334d6da55c767fc06", "is_reserved": 0, "lon": -77.044564, "is_disabled": 0, "fusion_lat": 0.0, "lat": 38.9160085, "bike_id": "57309be9d139814334d6da55c767fc06", "fusion_lon": 0.0}, {"rental_uris": {"ios": "https://dc.lft.to/lastmile_qr_scan", "android": "https://dc.lft.to/lastmile_qr_scan"}, "type": "electric_scooter", "name": "63fa2065e2960a5a7a2e4e987f05a486", "is_reserved": 0, "lon": -77.00277316666667, "is_disabled": 0, "fusion_lat": 0.0, "lat": 38.887714333333335, "bike_id": "63fa2065e2960a5a7a2e4e987f05a486", "fusion_lon": 0.0}, {"rental_uris": {"ios": "https://dc.lft.to/lastmile_qr_scan", "android": "https://dc.lft.to/lastmile_qr_scan"}, "type": "electric_scooter", "name": "9c057aaedccac3a4f2a79b4dffbc1aac", "is_reserved": 0, "lon": -76.98532366666667, "is_disabled": 0, "fusion_lat": 0.0, "lat": 38.85849983333333, "bike_id": "9c057aaedccac3a4f2a79b4dffbc1aac", "fusion_lon": 0.0}, {"rental_uris": {"ios": "https://dc.lft.to/lastmile_qr_scan", "android": "https://dc.lft.to/lastmile_qr_scan"}, "type": "electric_scooter", "name": "3d91388f9900d6e9af55c725ee2e1ed8", "is_reserved": 0, "lon": -77.02301816666666, "is_disabled": 0, "fusion_lat": 0.0, "lat": 38.898687833333334, "bike_id": "3d91388f9900d6e9af55c725ee2e1ed8", "fusion_lon": 0.0}, {"rental_uris": {"ios": "https://dc.lft.to/lastmile_qr_scan", "android": "https://dc.lft.to/lastmile_qr_scan"}, "type": "electric_scooter", "name": "4ea8ba2460c34beaa48c60587d2e4e6d", "is_reserved": 0, "lon": -77.03150966666666, "is_disabled": 0, "fusion_lat": 0.0, "lat": 38.90591516666667, "bike_id": "4ea8ba2460c34beaa48c60587d2e4e6d", "fusion_lon": 0.0}, {"rental_uris": {"ios": "https://dc.lft.to/lastmile_qr_scan", "android": "https://dc.lft.to/lastmile_qr_scan"}, "type": "electric_scooter", "name": "cc8ffa9e89b5e95aa2dbaa88c40a7687", "is_reserved": 0, "lon": -77.0451165, "is_disabled": 0, "fusion_lat": 0.0, "lat": 38.91107216666666, "bike_id": "cc8ffa9e89b5e95aa2dbaa88c40a7687", "fusion_lon": 0.0}, {"rental_uris": {"ios": "https://dc.lft.to/lastmile_qr_scan", "android": "https://dc.lft.to/lastmile_qr_scan"}, "type": "electric_scooter", "name": "b30a4d79424265cbff8caad2eade2a30", "is_reserved": 0, "lon": -77.00315666666667, "is_disabled": 0, "fusion_lat": 0.0, "lat": 38.876664, "bike_id": "b30a4d79424265cbff8caad2eade2a30", "fusion_lon": 0.0}, {"rental_uris": {"ios": "https://dc.lft.to/lastmile_qr_scan", "android": "https://dc.lft.to/lastmile_qr_scan"}, "type": "electric_scooter", "name": "d0f2cdabf3bdc677b084750363e1c7f6", "is_reserved": 0, "lon": -77.0198715, "is_disabled": 0, "fusion_lat": 0.0, "lat": 38.899882, "bike_id": "d0f2cdabf3bdc677b084750363e1c7f6", "fusion_lon": 0.0}, {"rental_uris": {"ios": "https://dc.lft.to/lastmile_qr_scan", "android": "https://dc.lft.to/lastmile_qr_scan"}, "type": "electric_scooter", "name": "55fca74aa21d562b1c15837be723c017", "is_reserved": 0, "lon": -77.0345255, "is_disabled": 0, "fusion_lat": 0.0, "lat": 38.90832783333333, "bike_id": "55fca74aa21d562b1c15837be723c017", "fusion_lon": 0.0}, {"rental_uris": {"ios": "https://dc.lft.to/lastmile_qr_scan", "android": "https://dc.lft.to/lastmile_qr_scan"}, "type": "electric_scooter", "name": "f6aa20c3b5e1330951e8a5a6321758ca", "is_reserved": 0, "lon": -77.03465233333333, "is_disabled": 0, "fusion_lat": 0.0, "lat": 38.90933583333333, "bike_id": "f6aa20c3b5e1330951e8a5a6321758ca", "fusion_lon": 0.0}, {"rental_uris": {"ios": "https://dc.lft.to/lastmile_qr_scan", "android": "https://dc.lft.to/lastmile_qr_scan"}, "type": "electric_scooter", "name": "6582de6fb2e97ad70037112d3410db0a", "is_reserved": 0, "lon": -77.07451166666667, "is_disabled": 0, "fusion_lat": 0.0, "lat": 38.937831833333334, "bike_id": "6582de6fb2e97ad70037112d3410db0a", "fusion_lon": 0.0}, {"rental_uris": {"ios": "https://dc.lft.to/lastmile_qr_scan", "android": "https://dc.lft.to/lastmile_qr_scan"}, "type": "electric_scooter", "name": "bf7e1981571478044968727405e60c0a", "is_reserved": 0, "lon": -77.03639533333333, "is_disabled": 0, "fusion_lat": 0.0, "lat": 38.9185925, "bike_id": "bf7e1981571478044968727405e60c0a", "fusion_lon": 0.0}, {"rental_uris": {"ios": "https://dc.lft.to/lastmile_qr_scan", "android": "https://dc.lft.to/lastmile_qr_scan"}, "type": "electric_scooter", "name": "6ecdd261aa8b736ac45332c91c1067ef", "is_reserved": 0, "lon": -77.05908583333333, "is_disabled": 0, "fusion_lat": 0.0, "lat": 38.90540416666666, "bike_id": "6ecdd261aa8b736ac45332c91c1067ef", "fusion_lon": 0.0}, {"rental_uris": {"ios": "https://dc.lft.to/lastmile_qr_scan", "android": "https://dc.lft.to/lastmile_qr_scan"}, "type": "electric_scooter", "name": "4f87ba7dc826cff54c7d14ee94f50925", "is_reserved": 0, "lon": -77.0290555, "is_disabled": 0, "fusion_lat": 0.0, "lat": 38.95293266666667, "bike_id": "4f87ba7dc826cff54c7d14ee94f50925", "fusion_lon": 0.0}, {"rental_uris": {"ios": "https://dc.lft.to/lastmile_qr_scan", "android": "https://dc.lft.to/lastmile_qr_scan"}, "type": "electric_scooter", "name": "2c379d4da2e3cb7b4e918491563f80a2", "is_reserved": 0, "lon": -77.0381735, "is_disabled": 0, "fusion_lat": 0.0, "lat": 38.92558316666667, "bike_id": "2c379d4da2e3cb7b4e918491563f80a2", "fusion_lon": 0.0}, {"rental_uris": {"ios": "https://dc.lft.to/lastmile_qr_scan", "android": "https://dc.lft.to/lastmile_qr_scan"}, "type": "electric_scooter", "name": "48c025bc97b7caa2f2639e56e6d22f29", "is_reserved": 0, "lon": -77.03285016666666, "is_disabled": 0, "fusion_lat": 0.0, "lat": 38.93667383333333, "bike_id": "48c025bc97b7caa2f2639e56e6d22f29", "fusion_lon": 0.0}, {"rental_uris": {"ios": "https://dc.lft.to/lastmile_qr_scan", "android": "https://dc.lft.to/lastmile_qr_scan"}, "type": "electric_bike", "name": "2f1f3cc1823f4af0f8136666ba0c7d67", "is_reserved": 0, "lon": -77.01095516666666, "is_disabled": 0, "fusion_lat": 0.0, "lat": 38.87303333333333, "bike_id": "2f1f3cc1823f4af0f8136666ba0c7d67", "fusion_lon": 0.0}, {"rental_uris": {"ios": "https://dc.lft.to/lastmile_qr_scan", "android": "https://dc.lft.to/lastmile_qr_scan"}, "type": "electric_scooter", "name": "c369d0844e177148a46c4626a34eda52", "is_reserved": 0, "lon": -76.9970305, "is_disabled": 0, "fusion_lat": 0.0, "lat": 38.887644333333334, "bike_id": "c369d0844e177148a46c4626a34eda52", "fusion_lon": 0.0}, {"rental_uris": {"ios": "https://dc.lft.to/lastmile_qr_scan", "android": "https://dc.lft.to/lastmile_qr_scan"}, "type": "electric_scooter", "name": "7444a3077be8d3be6aeeb2dc8eecb96f", "is_reserved": 0, "lon": -77.07479816666667, "is_disabled": 0, "fusion_lat": 0.0, "lat": 38.962035666666665, "bike_id": "7444a3077be8d3be6aeeb2dc8eecb96f", "fusion_lon": 0.0}, {"rental_uris": {"ios": "https://dc.lft.to/lastmile_qr_scan", "android": "https://dc.lft.to/lastmile_qr_scan"}, "type": "electric_scooter", "name": "52cb8adb2d8c07b1fddf5ed7f8288f7c", "is_reserved": 0, "lon": -77.036254, "is_disabled": 0, "fusion_lat": 0.0, "lat": 38.903699833333334, "bike_id": "52cb8adb2d8c07b1fddf5ed7f8288f7c", "fusion_lon": 0.0}, {"rental_uris": {"ios": "https://dc.lft.to/lastmile_qr_scan", "android": "https://dc.lft.to/lastmile_qr_scan"}, "type": "electric_scooter", "name": "a1c39702681afdc4c56c9919de94733c", "is_reserved": 0, "lon": -77.02604016666666, "is_disabled": 0, "fusion_lat": 0.0, "lat": 38.90810033333333, "bike_id": "a1c39702681afdc4c56c9919de94733c", "fusion_lon": 0.0}, {"rental_uris": {"ios": "https://dc.lft.to/lastmile_qr_scan", "android": "https://dc.lft.to/lastmile_qr_scan"}, "type": "electric_scooter", "name": "fcc2dfd833b1f2ec06c15ca392ee8a54", "is_reserved": 0, "lon": -77.04672416666666, "is_disabled": 0, "fusion_lat": 0.0, "lat": 38.89292016666667, "bike_id": "fcc2dfd833b1f2ec06c15ca392ee8a54", "fusion_lon": 0.0}, {"rental_uris": {"ios": "https://dc.lft.to/lastmile_qr_scan", "android": "https://dc.lft.to/lastmile_qr_scan"}, "type": "electric_scooter", "name": "62d32dbda22f8b2b91b8d18078c98da9", "is_reserved": 0, "lon": -77.06865916666666, "is_disabled": 0, "fusion_lat": 0.0, "lat": 38.95304333333333, "bike_id": "62d32dbda22f8b2b91b8d18078c98da9", "fusion_lon": 0.0}, {"rental_uris": {"ios": "https://dc.lft.to/lastmile_qr_scan", "android": "https://dc.lft.to/lastmile_qr_scan"}, "type": "electric_scooter", "name": "3a927e8bc4580fd5d428dd2c19d77c83", "is_reserved": 0, "lon": -77.01748883333333, "is_disabled": 0, "fusion_lat": 0.0, "lat": 38.91417783333333, "bike_id": "3a927e8bc4580fd5d428dd2c19d77c83", "fusion_lon": 0.0}, {"rental_uris": {"ios": "https://dc.lft.to/lastmile_qr_scan", "android": "https://dc.lft.to/lastmile_qr_scan"}, "type": "electric_scooter", "name": "0bbf57362a6cb26e7debf7dc53c18c41", "is_reserved": 0, "lon": -77.0417255, "is_disabled": 0, "fusion_lat": 0.0, "lat": 38.910910666666666, "bike_id": "0bbf57362a6cb26e7debf7dc53c18c41", "fusion_lon": 0.0}, {"rental_uris": {"ios": "https://dc.lft.to/lastmile_qr_scan", "android": "https://dc.lft.to/lastmile_qr_scan"}, "type": "electric_scooter", "name": "3175f8f847e4722eaafefad0d57386fc", "is_reserved": 0, "lon": -76.99487983333333, "is_disabled": 0, "fusion_lat": 0.0, "lat": 38.89977066666667, "bike_id": "3175f8f847e4722eaafefad0d57386fc", "fusion_lon": 0.0}, {"rental_uris": {"ios": "https://dc.lft.to/lastmile_qr_scan", "android": "https://dc.lft.to/lastmile_qr_scan"}, "type": "electric_scooter", "name": "ff70eac382c0d60cd7caeadadc0a6f9a", "is_reserved": 0, "lon": -77.04606783333334, "is_disabled": 0, "fusion_lat": 0.0, "lat": 38.92332433333333, "bike_id": "ff70eac382c0d60cd7caeadadc0a6f9a", "fusion_lon": 0.0}, {"rental_uris": {"ios": "https://dc.lft.to/lastmile_qr_scan", "android": "https://dc.lft.to/lastmile_qr_scan"}, "type": "electric_scooter", "name": "b0fbc1b0356ad5440f33b49f36f06bd3", "is_reserved": 0, "lon": -77.03257233333333, "is_disabled": 0, "fusion_lat": 0.0, "lat": 38.904418666666665, "bike_id": "b0fbc1b0356ad5440f33b49f36f06bd3", "fusion_lon": 0.0}, {"rental_uris": {"ios": "https://dc.lft.to/lastmile_qr_scan", "android": "https://dc.lft.to/lastmile_qr_scan"}, "type": "electric_scooter", "name": "6b6b6d52675f2fa150817bffac6e41f1", "is_reserved": 0, "lon": -77.04752916666666, "is_disabled": 0, "fusion_lat": 0.0, "lat": 38.8959575, "bike_id": "6b6b6d52675f2fa150817bffac6e41f1", "fusion_lon": 0.0}, {"rental_uris": {"ios": "https://dc.lft.to/lastmile_qr_scan", "android": "https://dc.lft.to/lastmile_qr_scan"}, "type": "electric_scooter", "name": "7ee60791eab01c514f8d462ebfd62e02", "is_reserved": 0, "lon": -77.06604, "is_disabled": 0, "fusion_lat": 0.0, "lat": 38.911102666666665, "bike_id": "7ee60791eab01c514f8d462ebfd62e02", "fusion_lon": 0.0}, {"rental_uris": {"ios": "https://dc.lft.to/lastmile_qr_scan", "android": "https://dc.lft.to/lastmile_qr_scan"}, "type": "electric_bike", "name": "add13f0e168ff24192f3faae0297d296", "is_reserved": 0, "lon": -76.99915816666666, "is_disabled": 0, "fusion_lat": 0.0, "lat": 38.9947295, "bike_id": "add13f0e168ff24192f3faae0297d296", "fusion_lon": 0.0}, {"rental_uris": {"ios": "https://dc.lft.to/lastmile_qr_scan", "android": "https://dc.lft.to/lastmile_qr_scan"}, "type": "electric_scooter", "name": "bfd23add54e925927a0ea284b8aa80e0", "is_reserved": 0, "lon": -77.05120916666667, "is_disabled": 0, "fusion_lat": 0.0, "lat": 38.925360166666664, "bike_id": "bfd23add54e925927a0ea284b8aa80e0", "fusion_lon": 0.0}, {"rental_uris": {"ios": "https://dc.lft.to/lastmile_qr_scan", "android": "https://dc.lft.to/lastmile_qr_scan"}, "type": "electric_bike", "name": "1a8a908e1a02584014d977f2595ddd93", "is_reserved": 0, "lon": -77.07650866666667, "is_disabled": 0, "fusion_lat": 0.0, "lat": 38.88853483333333, "bike_id": "1a8a908e1a02584014d977f2595ddd93", "fusion_lon": 0.0}, {"rental_uris": {"ios": "https://dc.lft.to/lastmile_qr_scan", "android": "https://dc.lft.to/lastmile_qr_scan"}, "type": "electric_scooter", "name": "3a6566d7ccfc700f02828262ebaf2105", "is_reserved": 0, "lon": -77.02111516666666, "is_disabled": 0, "fusion_lat": 0.0, "lat": 38.91427783333334, "bike_id": "3a6566d7ccfc700f02828262ebaf2105", "fusion_lon": 0.0}, {"rental_uris": {"ios": "https://dc.lft.to/lastmile_qr_scan", "android": "https://dc.lft.to/lastmile_qr_scan"}, "type": "electric_scooter", "name": "0e6a1c040e7207a3427fa12d6a11fc6d", "is_reserved": 0, "lon": -77.01862483333333, "is_disabled": 0, "fusion_lat": 0.0, "lat": 38.95153066666666, "bike_id": "0e6a1c040e7207a3427fa12d6a11fc6d", "fusion_lon": 0.0}, {"rental_uris": {"ios": "https://dc.lft.to/lastmile_qr_scan", "android": "https://dc.lft.to/lastmile_qr_scan"}, "type": "electric_scooter", "name": "6b424291ab32a76985a42770c7c6c215", "is_reserved": 0, "lon": -77.0298085, "is_disabled": 0, "fusion_lat": 0.0, "lat": 38.9243, "bike_id": "6b424291ab32a76985a42770c7c6c215", "fusion_lon": 0.0}, {"rental_uris": {"ios": "https://dc.lft.to/lastmile_qr_scan", "android": "https://dc.lft.to/lastmile_qr_scan"}, "type": "electric_scooter", "name": "8e0e70187cc58bb776e7f2cfd91e3a27", "is_reserved": 0, "lon": -77.04128633333333, "is_disabled": 0, "fusion_lat": 0.0, "lat": 38.914074, "bike_id": "8e0e70187cc58bb776e7f2cfd91e3a27", "fusion_lon": 0.0}, {"rental_uris": {"ios": "https://dc.lft.to/lastmile_qr_scan", "android": "https://dc.lft.to/lastmile_qr_scan"}, "type": "electric_scooter", "name": "3dbedbdfdd003c63f86131ca957c1110", "is_reserved": 0, "lon": -76.99047, "is_disabled": 0, "fusion_lat": 0.0, "lat": 38.9247825, "bike_id": "3dbedbdfdd003c63f86131ca957c1110", "fusion_lon": 0.0}, {"rental_uris": {"ios": "https://dc.lft.to/lastmile_qr_scan", "android": "https://dc.lft.to/lastmile_qr_scan"}, "type": "electric_scooter", "name": "a1dac8ac88f4c6e46c3a32108d1ee118", "is_reserved": 0, "lon": -77.02820433333333, "is_disabled": 0, "fusion_lat": 0.0, "lat": 38.91116266666667, "bike_id": "a1dac8ac88f4c6e46c3a32108d1ee118", "fusion_lon": 0.0}, {"rental_uris": {"ios": "https://dc.lft.to/lastmile_qr_scan", "android": "https://dc.lft.to/lastmile_qr_scan"}, "type": "electric_scooter", "name": "e6f4c4bf143d92ccfe1a9a3b6d04cfeb", "is_reserved": 0, "lon": -77.03464483333333, "is_disabled": 0, "fusion_lat": 0.0, "lat": 38.91268916666667, "bike_id": "e6f4c4bf143d92ccfe1a9a3b6d04cfeb", "fusion_lon": 0.0}, {"rental_uris": {"ios": "https://dc.lft.to/lastmile_qr_scan", "android": "https://dc.lft.to/lastmile_qr_scan"}, "type": "electric_scooter", "name": "99ff2980375a4c0424824cdb1b32fc82", "is_reserved": 0, "lon": -77.032443, "is_disabled": 0, "fusion_lat": 0.0, "lat": 38.903966, "bike_id": "99ff2980375a4c0424824cdb1b32fc82", "fusion_lon": 0.0}, {"rental_uris": {"ios": "https://dc.lft.to/lastmile_qr_scan", "android": "https://dc.lft.to/lastmile_qr_scan"}, "type": "electric_scooter", "name": "0c4ab9ce2497473fd0d5faa6e4ce45bf", "is_reserved": 0, "lon": -77.0162115, "is_disabled": 0, "fusion_lat": 0.0, "lat": 38.898051333333335, "bike_id": "0c4ab9ce2497473fd0d5faa6e4ce45bf", "fusion_lon": 0.0}, {"rental_uris": {"ios": "https://dc.lft.to/lastmile_qr_scan", "android": "https://dc.lft.to/lastmile_qr_scan"}, "type": "electric_scooter", "name": "269623924b3a52447610c9acbfefc0a4", "is_reserved": 0, "lon": -77.02831266666666, "is_disabled": 0, "fusion_lat": 0.0, "lat": 38.957217166666666, "bike_id": "269623924b3a52447610c9acbfefc0a4", "fusion_lon": 0.0}, {"rental_uris": {"ios": "https://dc.lft.to/lastmile_qr_scan", "android": "https://dc.lft.to/lastmile_qr_scan"}, "type": "electric_scooter", "name": "9b06e05196020800a28297d70df617fc", "is_reserved": 0, "lon": -76.98363683333334, "is_disabled": 0, "fusion_lat": 0.0, "lat": 38.8913955, "bike_id": "9b06e05196020800a28297d70df617fc", "fusion_lon": 0.0}, {"rental_uris": {"ios": "https://dc.lft.to/lastmile_qr_scan", "android": "https://dc.lft.to/lastmile_qr_scan"}, "type": "electric_scooter", "name": "ea72ad50ad1b3189c4d8e5b7670a2ccc", "is_reserved": 0, "lon": -77.04743733333333, "is_disabled": 0, "fusion_lat": 0.0, "lat": 38.900817333333336, "bike_id": "ea72ad50ad1b3189c4d8e5b7670a2ccc", "fusion_lon": 0.0}, {"rental_uris": {"ios": "https://dc.lft.to/lastmile_qr_scan", "android": "https://dc.lft.to/lastmile_qr_scan"}, "type": "electric_bike", "name": "b21662e7c4760a23680db0d6d9fc2bba", "is_reserved": 0, "lon": -76.98929483333333, "is_disabled": 0, "fusion_lat": 0.0, "lat": 38.882076166666664, "bike_id": "b21662e7c4760a23680db0d6d9fc2bba", "fusion_lon": 0.0}, {"rental_uris": {"ios": "https://dc.lft.to/lastmile_qr_scan", "android": "https://dc.lft.to/lastmile_qr_scan"}, "type": "electric_scooter", "name": "86a842f4e262def1661950070c21a267", "is_reserved": 0, "lon": -77.04054583333334, "is_disabled": 0, "fusion_lat": 0.0, "lat": 38.925429, "bike_id": "86a842f4e262def1661950070c21a267", "fusion_lon": 0.0}, {"rental_uris": {"ios": "https://dc.lft.to/lastmile_qr_scan", "android": "https://dc.lft.to/lastmile_qr_scan"}, "type": "electric_scooter", "name": "92a70cbbd52cad27977e487c5077de8d", "is_reserved": 0, "lon": -77.06838516666667, "is_disabled": 0, "fusion_lat": 0.0, "lat": 38.917298, "bike_id": "92a70cbbd52cad27977e487c5077de8d", "fusion_lon": 0.0}, {"rental_uris": {"ios": "https://dc.lft.to/lastmile_qr_scan", "android": "https://dc.lft.to/lastmile_qr_scan"}, "type": "electric_scooter", "name": "6998aa0ca288e7a7fb7ff311541e0883", "is_reserved": 0, "lon": -76.98447816666666, "is_disabled": 0, "fusion_lat": 0.0, "lat": 38.9146485, "bike_id": "6998aa0ca288e7a7fb7ff311541e0883", "fusion_lon": 0.0}, {"rental_uris": {"ios": "https://dc.lft.to/lastmile_qr_scan", "android": "https://dc.lft.to/lastmile_qr_scan"}, "type": "electric_scooter", "name": "035cf13e9a568bce3583f006b068856c", "is_reserved": 0, "lon": -77.047061, "is_disabled": 0, "fusion_lat": 0.0, "lat": 38.91273116666667, "bike_id": "035cf13e9a568bce3583f006b068856c", "fusion_lon": 0.0}, {"rental_uris": {"ios": "https://dc.lft.to/lastmile_qr_scan", "android": "https://dc.lft.to/lastmile_qr_scan"}, "type": "electric_scooter", "name": "8a4b946b7576121cbf82a0a1ce361663", "is_reserved": 0, "lon": -77.04223116666667, "is_disabled": 0, "fusion_lat": 0.0, "lat": 38.9110585, "bike_id": "8a4b946b7576121cbf82a0a1ce361663", "fusion_lon": 0.0}, {"rental_uris": {"ios": "https://dc.lft.to/lastmile_qr_scan", "android": "https://dc.lft.to/lastmile_qr_scan"}, "type": "electric_scooter", "name": "03247fe5b5cb30ff63d3c7af14da33bf", "is_reserved": 0, "lon": -77.04334983333334, "is_disabled": 0, "fusion_lat": 0.0, "lat": 38.93415066666667, "bike_id": "03247fe5b5cb30ff63d3c7af14da33bf", "fusion_lon": 0.0}, {"rental_uris": {"ios": "https://dc.lft.to/lastmile_qr_scan", "android": "https://dc.lft.to/lastmile_qr_scan"}, "type": "electric_bike", "name": "10989776fa3e484b30bca85eef7a49da", "is_reserved": 0, "lon": -77.1141295, "is_disabled": 0, "fusion_lat": 0.0, "lat": 38.873303, "bike_id": "10989776fa3e484b30bca85eef7a49da", "fusion_lon": 0.0}, {"rental_uris": {"ios": "https://dc.lft.to/lastmile_qr_scan", "android": "https://dc.lft.to/lastmile_qr_scan"}, "type": "electric_scooter", "name": "a60ab1835d569ca58e0b649546d7b915", "is_reserved": 0, "lon": -77.0486305, "is_disabled": 0, "fusion_lat": 0.0, "lat": 38.91263983333333, "bike_id": "a60ab1835d569ca58e0b649546d7b915", "fusion_lon": 0.0}, {"rental_uris": {"ios": "https://dc.lft.to/lastmile_qr_scan", "android": "https://dc.lft.to/lastmile_qr_scan"}, "type": "electric_bike", "name": "4e15ff6f8c9b932d6850024cf9f814f7", "is_reserved": 0, "lon": -77.12731833333333, "is_disabled": 0, "fusion_lat": 0.0, "lat": 38.8956515, "bike_id": "4e15ff6f8c9b932d6850024cf9f814f7", "fusion_lon": 0.0}, {"rental_uris": {"ios": "https://dc.lft.to/lastmile_qr_scan", "android": "https://dc.lft.to/lastmile_qr_scan"}, "type": "electric_scooter", "name": "b051f250ad2cea571820cb944dd78eb8", "is_reserved": 0, "lon": -77.038081, "is_disabled": 0, "fusion_lat": 0.0, "lat": 38.91032966666667, "bike_id": "b051f250ad2cea571820cb944dd78eb8", "fusion_lon": 0.0}, {"rental_uris": {"ios": "https://dc.lft.to/lastmile_qr_scan", "android": "https://dc.lft.to/lastmile_qr_scan"}, "type": "electric_scooter", "name": "726cf216f54b3527b2f4f4a09e6372c5", "is_reserved": 0, "lon": -77.061499, "is_disabled": 0, "fusion_lat": 0.0, "lat": 38.943079166666664, "bike_id": "726cf216f54b3527b2f4f4a09e6372c5", "fusion_lon": 0.0}, {"rental_uris": {"ios": "https://dc.lft.to/lastmile_qr_scan", "android": "https://dc.lft.to/lastmile_qr_scan"}, "type": "electric_scooter", "name": "b1b9209f04546437e410e5f717237726", "is_reserved": 0, "lon": -77.0324325, "is_disabled": 0, "fusion_lat": 0.0, "lat": 38.9111785, "bike_id": "b1b9209f04546437e410e5f717237726", "fusion_lon": 0.0}, {"rental_uris": {"ios": "https://dc.lft.to/lastmile_qr_scan", "android": "https://dc.lft.to/lastmile_qr_scan"}, "type": "electric_scooter", "name": "c0835db029aeda523b850ea8e641b79e", "is_reserved": 0, "lon": -77.04668983333333, "is_disabled": 0, "fusion_lat": 0.0, "lat": 38.9029605, "bike_id": "c0835db029aeda523b850ea8e641b79e", "fusion_lon": 0.0}, {"rental_uris": {"ios": "https://dc.lft.to/lastmile_qr_scan", "android": "https://dc.lft.to/lastmile_qr_scan"}, "type": "electric_scooter", "name": "80d239dbaeddc75c9a0a425283c7b181", "is_reserved": 0, "lon": -77.040827, "is_disabled": 0, "fusion_lat": 0.0, "lat": 38.920755, "bike_id": "80d239dbaeddc75c9a0a425283c7b181", "fusion_lon": 0.0}, {"rental_uris": {"ios": "https://dc.lft.to/lastmile_qr_scan", "android": "https://dc.lft.to/lastmile_qr_scan"}, "type": "electric_scooter", "name": "534edee9e05ad1ea310d1ce0d7c43726", "is_reserved": 0, "lon": -77.00758883333333, "is_disabled": 0, "fusion_lat": 0.0, "lat": 38.871191, "bike_id": "534edee9e05ad1ea310d1ce0d7c43726", "fusion_lon": 0.0}, {"rental_uris": {"ios": "https://dc.lft.to/lastmile_qr_scan", "android": "https://dc.lft.to/lastmile_qr_scan"}, "type": "electric_scooter", "name": "8a7fb19f2d231bb41cd45650a7deb690", "is_reserved": 0, "lon": -77.01773366666667, "is_disabled": 0, "fusion_lat": 0.0, "lat": 38.879178, "bike_id": "8a7fb19f2d231bb41cd45650a7deb690", "fusion_lon": 0.0}, {"rental_uris": {"ios": "https://dc.lft.to/lastmile_qr_scan", "android": "https://dc.lft.to/lastmile_qr_scan"}, "type": "electric_bike", "name": "66233b8d5bb731509037096becd66f02", "is_reserved": 0, "lon": -77.09961783333334, "is_disabled": 0, "fusion_lat": 0.0, "lat": 38.85794383333333, "bike_id": "66233b8d5bb731509037096becd66f02", "fusion_lon": 0.0}, {"rental_uris": {"ios": "https://dc.lft.to/lastmile_qr_scan", "android": "https://dc.lft.to/lastmile_qr_scan"}, "type": "electric_scooter", "name": "49326eae97eaf0f927d05d5863b89008", "is_reserved": 0, "lon": -77.04269483333333, "is_disabled": 0, "fusion_lat": 0.0, "lat": 38.922994, "bike_id": "49326eae97eaf0f927d05d5863b89008", "fusion_lon": 0.0}, {"rental_uris": {"ios": "https://dc.lft.to/lastmile_qr_scan", "android": "https://dc.lft.to/lastmile_qr_scan"}, "type": "electric_scooter", "name": "ae4c66c5ec794348fe07df94e561c853", "is_reserved": 0, "lon": -76.97655133333333, "is_disabled": 0, "fusion_lat": 0.0, "lat": 38.903654333333336, "bike_id": "ae4c66c5ec794348fe07df94e561c853", "fusion_lon": 0.0}, {"rental_uris": {"ios": "https://dc.lft.to/lastmile_qr_scan", "android": "https://dc.lft.to/lastmile_qr_scan"}, "type": "electric_scooter", "name": "a6d83a2e949e0993121fdfde8f8f37ba", "is_reserved": 0, "lon": -77.02700916666667, "is_disabled": 0, "fusion_lat": 0.0, "lat": 38.918015833333335, "bike_id": "a6d83a2e949e0993121fdfde8f8f37ba", "fusion_lon": 0.0}, {"rental_uris": {"ios": "https://dc.lft.to/lastmile_qr_scan", "android": "https://dc.lft.to/lastmile_qr_scan"}, "type": "electric_scooter", "name": "0d095d2cc2232d4ca5f893f340a5df09", "is_reserved": 0, "lon": -77.02775383333334, "is_disabled": 0, "fusion_lat": 0.0, "lat": 38.965841, "bike_id": "0d095d2cc2232d4ca5f893f340a5df09", "fusion_lon": 0.0}, {"rental_uris": {"ios": "https://dc.lft.to/lastmile_qr_scan", "android": "https://dc.lft.to/lastmile_qr_scan"}, "type": "electric_scooter", "name": "9f54285f21688d73305947ba61ac76b4", "is_reserved": 0, "lon": -76.94161683333333, "is_disabled": 0, "fusion_lat": 0.0, "lat": 38.901773, "bike_id": "9f54285f21688d73305947ba61ac76b4", "fusion_lon": 0.0}, {"rental_uris": {"ios": "https://dc.lft.to/lastmile_qr_scan", "android": "https://dc.lft.to/lastmile_qr_scan"}, "type": "electric_scooter", "name": "a3c7b3210445b218ae694c1e7cfe90db", "is_reserved": 0, "lon": -77.03271416666666, "is_disabled": 0, "fusion_lat": 0.0, "lat": 38.921731666666666, "bike_id": "a3c7b3210445b218ae694c1e7cfe90db", "fusion_lon": 0.0}, {"rental_uris": {"ios": "https://dc.lft.to/lastmile_qr_scan", "android": "https://dc.lft.to/lastmile_qr_scan"}, "type": "electric_scooter", "name": "dba5eb25f3f6fa917b3650c928ae4eae", "is_reserved": 0, "lon": -77.02183883333333, "is_disabled": 0, "fusion_lat": 0.0, "lat": 38.911256333333334, "bike_id": "dba5eb25f3f6fa917b3650c928ae4eae", "fusion_lon": 0.0}, {"rental_uris": {"ios": "https://dc.lft.to/lastmile_qr_scan", "android": "https://dc.lft.to/lastmile_qr_scan"}, "type": "electric_scooter", "name": "25d80c2f0a1c1951237a08d29626d0fe", "is_reserved": 0, "lon": -77.03334033333333, "is_disabled": 0, "fusion_lat": 0.0, "lat": 38.928685333333334, "bike_id": "25d80c2f0a1c1951237a08d29626d0fe", "fusion_lon": 0.0}, {"rental_uris": {"ios": "https://dc.lft.to/lastmile_qr_scan", "android": "https://dc.lft.to/lastmile_qr_scan"}, "type": "electric_scooter", "name": "ae72e7eb4e79ee00cb02ef674b84702a", "is_reserved": 0, "lon": -77.01059933333333, "is_disabled": 0, "fusion_lat": 0.0, "lat": 38.91189966666666, "bike_id": "ae72e7eb4e79ee00cb02ef674b84702a", "fusion_lon": 0.0}, {"rental_uris": {"ios": "https://dc.lft.to/lastmile_qr_scan", "android": "https://dc.lft.to/lastmile_qr_scan"}, "type": "electric_scooter", "name": "5b108b0007e3e7de4df91d800cce56e6", "is_reserved": 0, "lon": -77.02019066666666, "is_disabled": 0, "fusion_lat": 0.0, "lat": 38.92327433333333, "bike_id": "5b108b0007e3e7de4df91d800cce56e6", "fusion_lon": 0.0}, {"rental_uris": {"ios": "https://dc.lft.to/lastmile_qr_scan", "android": "https://dc.lft.to/lastmile_qr_scan"},