{"data": {"bikes": [{"type": "electric_bike", "fusion_lon": 0.0, "bike_id": "425e24e83081f22f7159d54d83bc40f3", "is_disabled": 0, "lat": 38.842754666666664, "rental_uris": {"ios": "https://dc.lft.to/lastmile_qr_scan", "android": "https://dc.lft.to/lastmile_qr_scan"}, "is_reserved": 0, "lon": -76.988233, "fusion_lat": 0.0, "name": "425e24e83081f22f7159d54d83bc40f3"}, {"type": "electric_scooter", "fusion_lon": 0.0, "bike_id": "5660b4aaffa1264414b9bb25acbab397", "is_disabled": 0, "lat": 38.875820833333336, "rental_uris": {"ios": "https://dc.lft.to/lastmile_qr_scan", "android": "https://dc.lft.to/lastmile_qr_scan"}, "is_reserved": 0, "lon": -77.00600516666667, "fusion_lat": 0.0, "name": "5660b4aaffa1264414b9bb25acbab397"}, {"type": "electric_scooter", "fusion_lon": 0.0, "bike_id": "95f7455c6f9fae42bc4600dc4d2f761b", "is_disabled": 0, "lat": 38.93282816666667, "rental_uris": {"ios": "https://dc.lft.to/lastmile_qr_scan", "android": "https://dc.lft.to/lastmile_qr_scan"}, "is_reserved": 0, "lon": -77.0370155, "fusion_lat": 0.0, "name": "95f7455c6f9fae42bc4600dc4d2f761b"}, {"type": "electric_scooter", "fusion_lon": 0.0, "bike_id": "20b029b8ac660c4135eeab281e393b65", "is_disabled": 0, "lat": 38.887659666666664, "rental_uris": {"ios": "https://dc.lft.to/lastmile_qr_scan", "android": "https://dc.lft.to/lastmile_qr_scan"}, "is_reserved": 0, "lon": -77.028464, "fusion_lat": 0.0, "name": "20b029b8ac660c4135eeab281e393b65"}, {"type": "electric_scooter", "fusion_lon": 0.0, "bike_id": "61aa2e55adea8c4ab595181e91dce205", "is_disabled": 0, "lat": 38.886590166666664, "rental_uris": {"ios": "https://dc.lft.to/lastmile_qr_scan", "android": "https://dc.lft.to/lastmile_qr_scan"}, "is_reserved": 0, "lon": -77.028591, "fusion_lat": 0.0, "name": "61aa2e55adea8c4ab595181e91dce205"}, {"type": "electric_scooter", "fusion_lon": 0.0, "bike_id": "493c570ab0c9dc273fe189022684f623", "is_disabled": 0, "lat": 38.89748133333333, "rental_uris": {"ios": "https://dc.lft.to/lastmile_qr_scan", "android": "https://dc.lft.to/lastmile_qr_scan"}, "is_reserved": 0, "lon": -77.04353533333334, "fusion_lat": 0.0, "name": "493c570ab0c9dc273fe189022684f623"}, {"type": "electric_bike", "fusion_lon": 0.0, "bike_id": "87112977e48153530dccfd8b56165aa2", "is_disabled": 0, "lat": 38.8428265, "rental_uris": {"ios": "https://dc.lft.to/lastmile_qr_scan", "android": "https://dc.lft.to/lastmile_qr_scan"}, "is_reserved": 0, "lon": -77.07530916666667, "fusion_lat": 0.0, "name": "87112977e48153530dccfd8b56165aa2"}, {"type": "electric_bike", "fusion_lon": 0.0, "bike_id": "ef55d6f43e619e393fc1c4cb1419dc4a", "is_disabled": 0, "lat": 38.94263133333333, "rental_uris": {"ios": "https://dc.lft.to/lastmile_qr_scan", "android": "https://dc.lft.to/lastmile_qr_scan"}, "is_reserved": 0, "lon": -77.028409, "fusion_lat": 0.0, "name": "ef55d6f43e619e393fc1c4cb1419dc4a"}, {"type": "electric_scooter", "fusion_lon": 0.0, "bike_id": "a55c9f8a8fb981f61c8ce417fafb7b8a", "is_disabled": 0, "lat": 38.92383933333333, "rental_uris": {"ios": "https://dc.lft.to/lastmile_qr_scan", "android": "https://dc.lft.to/lastmile_qr_scan"}, "is_reserved": 0, "lon": -77.03657566666666, "fusion_lat": 0.0, "name": "a55c9f8a8fb981f61c8ce417fafb7b8a"}, {"type": "electric_scooter", "fusion_lon": 0.0, "bike_id": "772a5fba06f9eecb0737837d335a4fc2", "is_disabled": 0, "lat": 38.883394333333335, "rental_uris": {"ios": "https://dc.lft.to/lastmile_qr_scan", "android": "https://dc.lft.to/lastmile_qr_scan"}, "is_reserved": 0, "lon": -77.0064745, "fusion_lat": 0.0, "name": "772a5fba06f9eecb0737837d335a4fc2"}, {"type": "electric_scooter", "fusion_lon": 0.0, "bike_id": "73e8de6fb7ffc042f812e0833e31cce3", "is_disabled": 0, "lat": 38.9028555, "rental_uris": {"ios": "https://dc.lft.to/lastmile_qr_scan", "android": "https://dc.lft.to/lastmile_qr_scan"}, "is_reserved": 0, "lon": -77.03845916666667, "fusion_lat": 0.0, "name": "73e8de6fb7ffc042f812e0833e31cce3"}, {"type": "electric_scooter", "fusion_lon": 0.0, "bike_id": "fe8fdf231d2e97ced9bcd4961ed9ba1a", "is_disabled": 0, "lat": 38.9079, "rental_uris": {"ios": "https://dc.lft.to/lastmile_qr_scan", "android": "https://dc.lft.to/lastmile_qr_scan"}, "is_reserved": 0, "lon": -77.04253433333334, "fusion_lat": 0.0, "name": "fe8fdf231d2e97ced9bcd4961ed9ba1a"}, {"type": "electric_scooter", "fusion_lon": 0.0, "bike_id": "603b84770a9bb61d1bf80ea6493a32cb", "is_disabled": 0, "lat": 38.91261766666667, "rental_uris": {"ios": "https://dc.lft.to/lastmile_qr_scan", "android": "https://dc.lft.to/lastmile_qr_scan"}, "is_reserved": 0, "lon": -77.03863733333333, "fusion_lat": 0.0, "name": "603b84770a9bb61d1bf80ea6493a32cb"}, {"type": "electric_scooter", "fusion_lon": 0.0, "bike_id": "5a8bcbab4701c6f28fb029b016c314e4", "is_disabled": 0, "lat": 38.89395783333333, "rental_uris": {"ios": "https://dc.lft.to/lastmile_qr_scan", "android": "https://dc.lft.to/lastmile_qr_scan"}, "is_reserved": 0, "lon": -77.02194716666666, "fusion_lat": 0.0, "name": "5a8bcbab4701c6f28fb029b016c314e4"}, {"type": "electric_scooter", "fusion_lon": 0.0, "bike_id": "298a09b087b3800b22686a9786480206", "is_disabled": 0, "lat": 38.9040925, "rental_uris": {"ios": "https://dc.lft.to/lastmile_qr_scan", "android": "https://dc.lft.to/lastmile_qr_scan"}, "is_reserved": 0, "lon": -76.97331433333333, "fusion_lat": 0.0, "name": "298a09b087b3800b22686a9786480206"}, {"type": "electric_scooter", "fusion_lon": 0.0, "bike_id": "bb59e16c6e24e42352c13c7cddc5e8cb", "is_disabled": 0, "lat": 38.91109466666666, "rental_uris": {"ios": "https://dc.lft.to/lastmile_qr_scan", "android": "https://dc.lft.to/lastmile_qr_scan"}, "is_reserved": 0, "lon": -77.04545266666666, "fusion_lat": 0.0, "name": "bb59e16c6e24e42352c13c7cddc5e8cb"}, {"type": "electric_scooter", "fusion_lon": 0.0, "bike_id": "db55f7b89072f5cdb7ffce6a7e00167d", "is_disabled": 0, "lat": 38.90211516666667, "rental_uris": {"ios": "https://dc.lft.to/lastmile_qr_scan", "android": "https://dc.lft.to/lastmile_qr_scan"}, "is_reserved": 0, "lon": -77.02181533333334, "fusion_lat": 0.0, "name": "db55f7b89072f5cdb7ffce6a7e00167d"}, {"type": "electric_scooter", "fusion_lon": 0.0, "bike_id": "a59b947cbedd807bfbfd2ada1ce79f47", "is_disabled": 0, "lat": 38.9133545, "rental_uris": {"ios": "https://dc.lft.to/lastmile_qr_scan", "android": "https://dc.lft.to/lastmile_qr_scan"}, "is_reserved": 0, "lon": -77.02540666666667, "fusion_lat": 0.0, "name": "a59b947cbedd807bfbfd2ada1ce79f47"}, {"type": "electric_scooter", "fusion_lon": 0.0, "bike_id": "f72d53b0d785bb7becf39b583dc0e080", "is_disabled": 0, "lat": 38.896098, "rental_uris": {"ios": "https://dc.lft.to/lastmile_qr_scan", "android": "https://dc.lft.to/lastmile_qr_scan"}, "is_reserved": 0, "lon": -77.00925883333333, "fusion_lat": 0.0, "name": "f72d53b0d785bb7becf39b583dc0e080"}, {"type": "electric_scooter", "fusion_lon": 0.0, "bike_id": "de756e1c51e00525830044122f010e29", "is_disabled": 0, "lat": 38.899833, "rental_uris": {"ios": "https://dc.lft.to/lastmile_qr_scan", "android": "https://dc.lft.to/lastmile_qr_scan"}, "is_reserved": 0, "lon": -76.9949235, "fusion_lat": 0.0, "name": "de756e1c51e00525830044122f010e29"}, {"type": "electric_scooter", "fusion_lon": 0.0, "bike_id": "f8b3568f15be6c89cdc04ca4d3175aea", "is_disabled": 0, "lat": 38.899687666666665, "rental_uris": {"ios": "https://dc.lft.to/lastmile_qr_scan", "android": "https://dc.lft.to/lastmile_qr_scan"}, "is_reserved": 0, "lon": -77.05098883333334, "fusion_lat": 0.0, "name": "f8b3568f15be6c89cdc04ca4d3175aea"}, {"type": "electric_scooter", "fusion_lon": 0.0, "bike_id": "4322f4700e00ee2f2e8b21244e0e1604", "is_disabled": 0, "lat": 38.926202333333336, "rental_uris": {"ios": "https://dc.lft.to/lastmile_qr_scan", "android": "https://dc.lft.to/lastmile_qr_scan"}, "is_reserved": 0, "lon": -77.04187316666666, "fusion_lat": 0.0, "name": "4322f4700e00ee2f2e8b21244e0e1604"}, {"type": "electric_scooter", "fusion_lon": 0.0, "bike_id": "9735004893e2ce74cd85956fad05dc72", "is_disabled": 0, "lat": 38.83839183333333, "rental_uris": {"ios": "https://dc.lft.to/lastmile_qr_scan", "android": "https://dc.lft.to/lastmile_qr_scan"}, "is_reserved": 0, "lon": -76.99838966666667, "fusion_lat": 0.0, "name": "9735004893e2ce74cd85956fad05dc72"}, {"type": "electric_scooter", "fusion_lon": 0.0, "bike_id": "f3308bb3ae7a40cfb265b7bf1cd2f291", "is_disabled": 0, "lat": 38.905881, "rental_uris": {"ios": "https://dc.lft.to/lastmile_qr_scan", "android": "https://dc.lft.to/lastmile_qr_scan"}, "is_reserved": 0, "lon": -77.0161115, "fusion_lat": 0.0, "name": "f3308bb3ae7a40cfb265b7bf1cd2f291"}, {"type": "electric_scooter", "fusion_lon": 0.0, "bike_id": "de40b7c96a287ac96c62e5d83efdcd02", "is_disabled": 0, "lat": 38.9163205, "rental_uris": {"ios": "https://dc.lft.to/lastmile_qr_scan", "android": "https://dc.lft.to/lastmile_qr_scan"}, "is_reserved": 0, "lon": -77.032082, "fusion_lat": 0.0, "name": "de40b7c96a287ac96c62e5d83efdcd02"}, {"type": "electric_scooter", "fusion_lon": 0.0, "bike_id": "72915f706b1bee2e8fda550aaa809785", "is_disabled": 0, "lat": 38.87546783333333, "rental_uris": {"ios": "https://dc.lft.to/lastmile_qr_scan", "android": "https://dc.lft.to/lastmile_qr_scan"}, "is_reserved": 0, "lon": -77.00539833333333, "fusion_lat": 0.0, "name": "72915f706b1bee2e8fda550aaa809785"}, {"type": "electric_scooter", "fusion_lon": 0.0, "bike_id": "4efccb6a5e2233c8d116f2016087cd8c", "is_disabled": 0, "lat": 38.914872333333335, "rental_uris": {"ios": "https://dc.lft.to/lastmile_qr_scan", "android": "https://dc.lft.to/lastmile_qr_scan"}, "is_reserved": 0, "lon": -77.025898, "fusion_lat": 0.0, "name": "4efccb6a5e2233c8d116f2016087cd8c"}, {"type": "electric_scooter", "fusion_lon": 0.0, "bike_id": "80d85216486848e173d05ccc89b17888", "is_disabled": 0, "lat": 38.88447983333333, "rental_uris": {"ios": "https://dc.lft.to/lastmile_qr_scan", "android": "https://dc.lft.to/lastmile_qr_scan"}, "is_reserved": 0, "lon": -76.942275, "fusion_lat": 0.0, "name": "80d85216486848e173d05ccc89b17888"}, {"type": "electric_scooter", "fusion_lon": 0.0, "bike_id": "da4fd8d8232f7b674e867772322ea49e", "is_disabled": 0, "lat": 38.912578, "rental_uris": {"ios": "https://dc.lft.to/lastmile_qr_scan", "android": "https://dc.lft.to/lastmile_qr_scan"}, "is_reserved": 0, "lon": -77.03863866666667, "fusion_lat": 0.0, "name": "da4fd8d8232f7b674e867772322ea49e"}, {"type": "electric_scooter", "fusion_lon": 0.0, "bike_id": "ee94740edcee719a28747e46d9eea41f", "is_disabled": 0, "lat": 38.9270285, "rental_uris": {"ios": "https://dc.lft.to/lastmile_qr_scan", "android": "https://dc.lft.to/lastmile_qr_scan"}, "is_reserved": 0, "lon": -77.0239415, "fusion_lat": 0.0, "name": "ee94740edcee719a28747e46d9eea41f"}, {"type": "electric_scooter", "fusion_lon": 0.0, "bike_id": "021b3957f2b67c4cee69a98b631539ce", "is_disabled": 0, "lat": 38.91761183333333, "rental_uris": {"ios": "https://dc.lft.to/lastmile_qr_scan", "android": "https://dc.lft.to/lastmile_qr_scan"}, "is_reserved": 0, "lon": -77.02282816666667, "fusion_lat": 0.0, "name": "021b3957f2b67c4cee69a98b631539ce"}, {"type": "electric_scooter", "fusion_lon": 0.0, "bike_id": "86a1e3a59ff93b18d8cfe2e647747794", "is_disabled": 0, "lat": 38.921926, "rental_uris": {"ios": "https://dc.lft.to/lastmile_qr_scan", "android": "https://dc.lft.to/lastmile_qr_scan"}, "is_reserved": 0, "lon": -77.047094, "fusion_lat": 0.0, "name": "86a1e3a59ff93b18d8cfe2e647747794"}, {"type": "electric_scooter", "fusion_lon": 0.0, "bike_id": "fbcd27861d640379f90534862db8e926", "is_disabled": 0, "lat": 38.921471833333335, "rental_uris": {"ios": "https://dc.lft.to/lastmile_qr_scan", "android": "https://dc.lft.to/lastmile_qr_scan"}, "is_reserved": 0, "lon": -77.0740285, "fusion_lat": 0.0, "name": "fbcd27861d640379f90534862db8e926"}, {"type": "electric_scooter", "fusion_lon": 0.0, "bike_id": "d12702b88827f8de674c7be750d33fbd", "is_disabled": 0, "lat": 38.92307566666667, "rental_uris": {"ios": "https://dc.lft.to/lastmile_qr_scan", "android": "https://dc.lft.to/lastmile_qr_scan"}, "is_reserved": 0, "lon": -77.04263033333334, "fusion_lat": 0.0, "name": "d12702b88827f8de674c7be750d33fbd"}, {"type": "electric_scooter", "fusion_lon": 0.0, "bike_id": "28d2ea73f43214a5320ff27ccabd6dd6", "is_disabled": 0, "lat": 38.903795333333335, "rental_uris": {"ios": "https://dc.lft.to/lastmile_qr_scan", "android": "https://dc.lft.to/lastmile_qr_scan"}, "is_reserved": 0, "lon": -76.995135, "fusion_lat": 0.0, "name": "28d2ea73f43214a5320ff27ccabd6dd6"}, {"type": "electric_scooter", "fusion_lon": 0.0, "bike_id": "b8824bc50d8fa7181fefa9be6762938b", "is_disabled": 0, "lat": 38.878136833333336, "rental_uris": {"ios": "https://dc.lft.to/lastmile_qr_scan", "android": "https://dc.lft.to/lastmile_qr_scan"}, "is_reserved": 0, "lon": -77.007486, "fusion_lat": 0.0, "name": "b8824bc50d8fa7181fefa9be6762938b"}, {"type": "electric_scooter", "fusion_lon": 0.0, "bike_id": "8bc8f98cf51daea83f044f33212216cd", "is_disabled": 0, "lat": 38.90721533333333, "rental_uris": {"ios": "https://dc.lft.to/lastmile_qr_scan", "android": "https://dc.lft.to/lastmile_qr_scan"}, "is_reserved": 0, "lon": -77.0451285, "fusion_lat": 0.0, "name": "8bc8f98cf51daea83f044f33212216cd"}, {"type": "electric_scooter", "fusion_lon": 0.0, "bike_id": "8a8b51cbb15f2cdbb990e7bba680aacb", "is_disabled": 0, "lat": 38.9136455, "rental_uris": {"ios": "https://dc.lft.to/lastmile_qr_scan", "android": "https://dc.lft.to/lastmile_qr_scan"}, "is_reserved": 0, "lon": -77.02237, "fusion_lat": 0.0, "name": "8a8b51cbb15f2cdbb990e7bba680aacb"}, {"type": "electric_scooter", "fusion_lon": 0.0, "bike_id": "ec1c242adb485dd249fa428695f687a3", "is_disabled": 0, "lat": 38.917994, "rental_uris": {"ios": "https://dc.lft.to/lastmile_qr_scan", "android": "https://dc.lft.to/lastmile_qr_scan"}, "is_reserved": 0, "lon": -77.0317265, "fusion_lat": 0.0, "name": "ec1c242adb485dd249fa428695f687a3"}, {"type": "electric_scooter", "fusion_lon": 0.0, "bike_id": "c6cd6be15623f23450a1422db418298e", "is_disabled": 0, "lat": 38.874666166666664, "rental_uris": {"ios": "https://dc.lft.to/lastmile_qr_scan", "android": "https://dc.lft.to/lastmile_qr_scan"}, "is_reserved": 0, "lon": -77.00560033333333, "fusion_lat": 0.0, "name": "c6cd6be15623f23450a1422db418298e"}, {"type": "electric_scooter", "fusion_lon": 0.0, "bike_id": "0a909a1a876661cb9c277656f55d7c94", "is_disabled": 0, "lat": 38.916568, "rental_uris": {"ios": "https://dc.lft.to/lastmile_qr_scan", "android": "https://dc.lft.to/lastmile_qr_scan"}, "is_reserved": 0, "lon": -77.02282983333333, "fusion_lat": 0.0, "name": "0a909a1a876661cb9c277656f55d7c94"}, {"type": "electric_scooter", "fusion_lon": 0.0, "bike_id": "ccf9f9171a85b054dfe4b3cb012db1b4", "is_disabled": 0, "lat": 38.96610016666666, "rental_uris": {"ios": "https://dc.lft.to/lastmile_qr_scan", "android": "https://dc.lft.to/lastmile_qr_scan"}, "is_reserved": 0, "lon": -77.02745883333333, "fusion_lat": 0.0, "name": "ccf9f9171a85b054dfe4b3cb012db1b4"}, {"type": "electric_scooter", "fusion_lon": 0.0, "bike_id": "59485c2099f44ee50c8e589345dcc118", "is_disabled": 0, "lat": 38.911008833333334, "rental_uris": {"ios": "https://dc.lft.to/lastmile_qr_scan", "android": "https://dc.lft.to/lastmile_qr_scan"}, "is_reserved": 0, "lon": -77.01159083333333, "fusion_lat": 0.0, "name": "59485c2099f44ee50c8e589345dcc118"}, {"type": "electric_scooter", "fusion_lon": 0.0, "bike_id": "e6e9485829de2060e6f3d7f9db7cb71b", "is_disabled": 0, "lat": 38.93945566666667, "rental_uris": {"ios": "https://dc.lft.to/lastmile_qr_scan", "android": "https://dc.lft.to/lastmile_qr_scan"}, "is_reserved": 0, "lon": -77.07523016666667, "fusion_lat": 0.0, "name": "e6e9485829de2060e6f3d7f9db7cb71b"}, {"type": "electric_scooter", "fusion_lon": 0.0, "bike_id": "a13bf69b4740c25c35967380045301c7", "is_disabled": 0, "lat": 38.89226416666666, "rental_uris": {"ios": "https://dc.lft.to/lastmile_qr_scan", "android": "https://dc.lft.to/lastmile_qr_scan"}, "is_reserved": 0, "lon": -77.01354733333334, "fusion_lat": 0.0, "name": "a13bf69b4740c25c35967380045301c7"}, {"type": "electric_scooter", "fusion_lon": 0.0, "bike_id": "4e9f71f8f608eda62edeb946ee249587", "is_disabled": 0, "lat": 38.86541366666667, "rental_uris": {"ios": "https://dc.lft.to/lastmile_qr_scan", "android": "https://dc.lft.to/lastmile_qr_scan"}, "is_reserved": 0, "lon": -76.98708333333333, "fusion_lat": 0.0, "name": "4e9f71f8f608eda62edeb946ee249587"}, {"type": "electric_scooter", "fusion_lon": 0.0, "bike_id": "e561906058a8af5e2d34f52722b969f5", "is_disabled": 0, "lat": 38.9339965, "rental_uris": {"ios": "https://dc.lft.to/lastmile_qr_scan", "android": "https://dc.lft.to/lastmile_qr_scan"}, "is_reserved": 0, "lon": -77.05741366666666, "fusion_lat": 0.0, "name": "e561906058a8af5e2d34f52722b969f5"}, {"type": "electric_scooter", "fusion_lon": 0.0, "bike_id": "fd2c66557ea2ce69105f4958259ba389", "is_disabled": 0, "lat": 38.91885466666667, "rental_uris": {"ios": "https://dc.lft.to/lastmile_qr_scan", "android": "https://dc.lft.to/lastmile_qr_scan"}, "is_reserved": 0, "lon": -77.03573533333334, "fusion_lat": 0.0, "name": "fd2c66557ea2ce69105f4958259ba389"}, {"type": "electric_scooter", "fusion_lon": 0.0, "bike_id": "0348824e8271431097ae84b80cee9f68", "is_disabled": 0, "lat": 38.86265433333333, "rental_uris": {"ios": "https://dc.lft.to/lastmile_qr_scan", "android": "https://dc.lft.to/lastmile_qr_scan"}, "is_reserved": 0, "lon": -76.99531316666666, "fusion_lat": 0.0, "name": "0348824e8271431097ae84b80cee9f68"}, {"type": "electric_scooter", "fusion_lon": 0.0, "bike_id": "2283d7f71a2940dcc381d365fc83a4b3", "is_disabled": 0, "lat": 38.91690366666667, "rental_uris": {"ios": "https://dc.lft.to/lastmile_qr_scan", "android": "https://dc.lft.to/lastmile_qr_scan"}, "is_reserved": 0, "lon": -77.025319, "fusion_lat": 0.0, "name": "2283d7f71a2940dcc381d365fc83a4b3"}, {"type": "electric_scooter", "fusion_lon": 0.0, "bike_id": "7c58d3a85147d9790144f4704c29a0d5", "is_disabled": 0, "lat": 38.896106333333336, "rental_uris": {"ios": "https://dc.lft.to/lastmile_qr_scan", "android": "https://dc.lft.to/lastmile_qr_scan"}, "is_reserved": 0, "lon": -76.998861, "fusion_lat": 0.0, "name": "7c58d3a85147d9790144f4704c29a0d5"}, {"type": "electric_scooter", "fusion_lon": 0.0, "bike_id": "1b6107ee77828596bc954f2d892c2b0a", "is_disabled": 0, "lat": 38.954145, "rental_uris": {"ios": "https://dc.lft.to/lastmile_qr_scan", "android": "https://dc.lft.to/lastmile_qr_scan"}, "is_reserved": 0, "lon": -77.013675, "fusion_lat": 0.0, "name": "1b6107ee77828596bc954f2d892c2b0a"}, {"type": "electric_scooter", "fusion_lon": 0.0, "bike_id": "0558a649f999758f9fd335da36731e46", "is_disabled": 0, "lat": 38.91952083333334, "rental_uris": {"ios": "https://dc.lft.to/lastmile_qr_scan", "android": "https://dc.lft.to/lastmile_qr_scan"}, "is_reserved": 0, "lon": -77.03178483333333, "fusion_lat": 0.0, "name": "0558a649f999758f9fd335da36731e46"}, {"type": "electric_scooter", "fusion_lon": 0.0, "bike_id": "5c960eb135e40747cdb033cecbf2b3c6", "is_disabled": 0, "lat": 38.92980416666666, "rental_uris": {"ios": "https://dc.lft.to/lastmile_qr_scan", "android": "https://dc.lft.to/lastmile_qr_scan"}, "is_reserved": 0, "lon": -77.036557, "fusion_lat": 0.0, "name": "5c960eb135e40747cdb033cecbf2b3c6"}, {"type": "electric_scooter", "fusion_lon": 0.0, "bike_id": "5d1a9db6f673fc0ca1db1ee228486a1b", "is_disabled": 0, "lat": 38.91710583333333, "rental_uris": {"ios": "https://dc.lft.to/lastmile_qr_scan", "android": "https://dc.lft.to/lastmile_qr_scan"}, "is_reserved": 0, "lon": -77.038698, "fusion_lat": 0.0, "name": "5d1a9db6f673fc0ca1db1ee228486a1b"}, {"type": "electric_scooter", "fusion_lon": 0.0, "bike_id": "edea74ca2e5f4d6af70e4c4b2e19ac8e", "is_disabled": 0, "lat": 38.91556416666667, "rental_uris": {"ios": "https://dc.lft.to/lastmile_qr_scan", "android": "https://dc.lft.to/lastmile_qr_scan"}, "is_reserved": 0, "lon": -77.01184283333333, "fusion_lat": 0.0, "name": "edea74ca2e5f4d6af70e4c4b2e19ac8e"}, {"type": "electric_scooter", "fusion_lon": 0.0, "bike_id": "90ca06fb707b1b9fcd75a41eeaab9bf6", "is_disabled": 0, "lat": 38.8757635, "rental_uris": {"ios": "https://dc.lft.to/lastmile_qr_scan", "android": "https://dc.lft.to/lastmile_qr_scan"}, "is_reserved": 0, "lon": -77.00613833333334, "fusion_lat": 0.0, "name": "90ca06fb707b1b9fcd75a41eeaab9bf6"}, {"type": "electric_scooter", "fusion_lon": 0.0, "bike_id": "ddaa59912274aa353913442c16a96a90", "is_disabled": 0, "lat": 38.89603966666667, "rental_uris": {"ios": "https://dc.lft.to/lastmile_qr_scan", "android": "https://dc.lft.to/lastmile_qr_scan"}, "is_reserved": 0, "lon": -77.05444833333334, "fusion_lat": 0.0, "name": "ddaa59912274aa353913442c16a96a90"}, {"type": "electric_scooter", "fusion_lon": 0.0, "bike_id": "740c06cbea890d0eff4d2448ddc5c96d", "is_disabled": 0, "lat": 38.930632333333335, "rental_uris": {"ios": "https://dc.lft.to/lastmile_qr_scan", "android": "https://dc.lft.to/lastmile_qr_scan"}, "is_reserved": 0, "lon": -77.05837433333333, "fusion_lat": 0.0, "name": "740c06cbea890d0eff4d2448ddc5c96d"}, {"type": "electric_scooter", "fusion_lon": 0.0, "bike_id": "4ed7660ef88acc61ea21472f21fab16f", "is_disabled": 0, "lat": 38.9352515, "rental_uris": {"ios": "https://dc.lft.to/lastmile_qr_scan", "android": "https://dc.lft.to/lastmile_qr_scan"}, "is_reserved": 0, "lon": -77.032632, "fusion_lat": 0.0, "name": "4ed7660ef88acc61ea21472f21fab16f"}, {"type": "electric_scooter", "fusion_lon": 0.0, "bike_id": "a57d935aef07e02033e44a88445d2b60", "is_disabled": 0, "lat": 38.90800933333333, "rental_uris": {"ios": "https://dc.lft.to/lastmile_qr_scan", "android": "https://dc.lft.to/lastmile_qr_scan"}, "is_reserved": 0, "lon": -77.0318825, "fusion_lat": 0.0, "name": "a57d935aef07e02033e44a88445d2b60"}, {"type": "electric_scooter", "fusion_lon": 0.0, "bike_id": "02c17b092d709704894fee52b6738f5e", "is_disabled": 0, "lat": 38.91694483333333, "rental_uris": {"ios": "https://dc.lft.to/lastmile_qr_scan", "android": "https://dc.lft.to/lastmile_qr_scan"}, "is_reserved": 0, "lon": -77.02901833333334, "fusion_lat": 0.0, "name": "02c17b092d709704894fee52b6738f5e"}, {"type": "electric_scooter", "fusion_lon": 0.0, "bike_id": "0819ff55c4ce51c98d611cca497eb073", "is_disabled": 0, "lat": 38.91419033333333, "rental_uris": {"ios": "https://dc.lft.to/lastmile_qr_scan", "android": "https://dc.lft.to/lastmile_qr_scan"}, "is_reserved": 0, "lon": -77.03905866666666, "fusion_lat": 0.0, "name": "0819ff55c4ce51c98d611cca497eb073"}, {"type": "electric_scooter", "fusion_lon": 0.0, "bike_id": "f4ac9802985ae8d7d4044ed7ff6b8804", "is_disabled": 0, "lat": 38.918798833333334, "rental_uris": {"ios": "https://dc.lft.to/lastmile_qr_scan", "android": "https://dc.lft.to/lastmile_qr_scan"}, "is_reserved": 0, "lon": -77.04179083333334, "fusion_lat": 0.0, "name": "f4ac9802985ae8d7d4044ed7ff6b8804"}, {"type": "electric_scooter", "fusion_lon": 0.0, "bike_id": "7be3857f32f53eb756a98a51479ea18b", "is_disabled": 0, "lat": 38.90459333333333, "rental_uris": {"ios": "https://dc.lft.to/lastmile_qr_scan", "android": "https://dc.lft.to/lastmile_qr_scan"}, "is_reserved": 0, "lon": -77.04635616666667, "fusion_lat": 0.0, "name": "7be3857f32f53eb756a98a51479ea18b"}, {"type": "electric_scooter", "fusion_lon": 0.0, "bike_id": "b34bd2877188aa1429579310b0ec0697", "is_disabled": 0, "lat": 38.92436766666667, "rental_uris": {"ios": "https://dc.lft.to/lastmile_qr_scan", "android": "https://dc.lft.to/lastmile_qr_scan"}, "is_reserved": 0, "lon": -77.0424995, "fusion_lat": 0.0, "name": "b34bd2877188aa1429579310b0ec0697"}, {"type": "electric_scooter", "fusion_lon": 0.0, "bike_id": "f540b31f6f028a94a426dd6b2a826b6c", "is_disabled": 0, "lat": 38.907766, "rental_uris": {"ios": "https://dc.lft.to/lastmile_qr_scan", "android": "https://dc.lft.to/lastmile_qr_scan"}, "is_reserved": 0, "lon": -77.03766666666667, "fusion_lat": 0.0, "name": "f540b31f6f028a94a426dd6b2a826b6c"}, {"type": "electric_scooter", "fusion_lon": 0.0, "bike_id": "96475750b285b523ae190d5050b24cd4", "is_disabled": 0, "lat": 38.90133316666667, "rental_uris": {"ios": "https://dc.lft.to/lastmile_qr_scan", "android": "https://dc.lft.to/lastmile_qr_scan"}, "is_reserved": 0, "lon": -77.02295433333333, "fusion_lat": 0.0, "name": "96475750b285b523ae190d5050b24cd4"}, {"type": "electric_bike", "fusion_lon": 0.0, "bike_id": "b9404a98eb6c4a2e91dfae439f5a4536", "is_disabled": 0, "lat": 38.94411916666667, "rental_uris": {"ios": "https://dc.lft.to/lastmile_qr_scan", "android": "https://dc.lft.to/lastmile_qr_scan"}, "is_reserved": 0, "lon": -77.05522116666667, "fusion_lat": 0.0, "name": "b9404a98eb6c4a2e91dfae439f5a4536"}, {"type": "electric_scooter", "fusion_lon": 0.0, "bike_id": "b5f33f0a5f8c257e6f9b12a795a1b51d", "is_disabled": 0, "lat": 38.9223645, "rental_uris": {"ios": "https://dc.lft.to/lastmile_qr_scan", "android": "https://dc.lft.to/lastmile_qr_scan"}, "is_reserved": 0, "lon": -77.0449285, "fusion_lat": 0.0, "name": "b5f33f0a5f8c257e6f9b12a795a1b51d"}, {"type": "electric_scooter", "fusion_lon": 0.0, "bike_id": "5ac9e5b20c69cb5193ae3582cd623df0", "is_disabled": 0, "lat": 38.89286033333333, "rental_uris": {"ios": "https://dc.lft.to/lastmile_qr_scan", "android": "https://dc.lft.to/lastmile_qr_scan"}, "is_reserved": 0, "lon": -77.04673066666666, "fusion_lat": 0.0, "name": "5ac9e5b20c69cb5193ae3582cd623df0"}, {"type": "electric_scooter", "fusion_lon": 0.0, "bike_id": "0c1e1734eb140563ed9df471175e385a", "is_disabled": 0, "lat": 38.9244365, "rental_uris": {"ios": "https://dc.lft.to/lastmile_qr_scan", "android": "https://dc.lft.to/lastmile_qr_scan"}, "is_reserved": 0, "lon": -76.99063833333334, "fusion_lat": 0.0, "name": "0c1e1734eb140563ed9df471175e385a"}, {"type": "electric_scooter", "fusion_lon": 0.0, "bike_id": "f24bb626b677b1a46f26bbdf1612a13a", "is_disabled": 0, "lat": 38.937833166666664, "rental_uris": {"ios": "https://dc.lft.to/lastmile_qr_scan", "android": "https://dc.lft.to/lastmile_qr_scan"}, "is_reserved": 0, "lon": -77.024628, "fusion_lat": 0.0, "name": "f24bb626b677b1a46f26bbdf1612a13a"}, {"type": "electric_scooter", "fusion_lon": 0.0, "bike_id": "7b5d007ec82db668bcd8e7e182ac0459", "is_disabled": 0, "lat": 38.9249305, "rental_uris": {"ios": "https://dc.lft.to/lastmile_qr_scan", "android": "https://dc.lft.to/lastmile_qr_scan"}, "is_reserved": 0, "lon": -77.03181433333333, "fusion_lat": 0.0, "name": "7b5d007ec82db668bcd8e7e182ac0459"}, {"type": "electric_scooter", "fusion_lon": 0.0, "bike_id": "a26e5d48c8d703d2a22508b5cb27622c", "is_disabled": 0, "lat": 38.872939333333335, "rental_uris": {"ios": "https://dc.lft.to/lastmile_qr_scan", "android": "https://dc.lft.to/lastmile_qr_scan"}, "is_reserved": 0, "lon": -77.009832, "fusion_lat": 0.0, "name": "a26e5d48c8d703d2a22508b5cb27622c"}, {"type": "electric_scooter", "fusion_lon": 0.0, "bike_id": "0134bddc9b230cbaccae611353fbc28b", "is_disabled": 0, "lat": 38.917090333333334, "rental_uris": {"ios": "https://dc.lft.to/lastmile_qr_scan", "android": "https://dc.lft.to/lastmile_qr_scan"}, "is_reserved": 0, "lon": -77.03564033333333, "fusion_lat": 0.0, "name": "0134bddc9b230cbaccae611353fbc28b"}, {"type": "electric_bike", "fusion_lon": 0.0, "bike_id": "5225c70b5e87f314a2c05e7d4f035057", "is_disabled": 0, "lat": 38.85617216666667, "rental_uris": {"ios": "https://dc.lft.to/lastmile_qr_scan", "android": "https://dc.lft.to/lastmile_qr_scan"}, "is_reserved": 0, "lon": -76.9615675, "fusion_lat": 0.0, "name": "5225c70b5e87f314a2c05e7d4f035057"}, {"type": "electric_scooter", "fusion_lon": 0.0, "bike_id": "2de7573a6d9aead40951061ae68f8562", "is_disabled": 0, "lat": 38.87861733333333, "rental_uris": {"ios": "https://dc.lft.to/lastmile_qr_scan", "android": "https://dc.lft.to/lastmile_qr_scan"}, "is_reserved": 0, "lon": -77.00644433333333, "fusion_lat": 0.0, "name": "2de7573a6d9aead40951061ae68f8562"}, {"type": "electric_scooter", "fusion_lon": 0.0, "bike_id": "0ceb84e95722087f87204b26f0930d3b", "is_disabled": 0, "lat": 38.920676666666665, "rental_uris": {"ios": "https://dc.lft.to/lastmile_qr_scan", "android": "https://dc.lft.to/lastmile_qr_scan"}, "is_reserved": 0, "lon": -77.025343, "fusion_lat": 0.0, "name": "0ceb84e95722087f87204b26f0930d3b"}, {"type": "electric_scooter", "fusion_lon": 0.0, "bike_id": "bcff8fdbd5b4f741d2dd03ca5b46f152", "is_disabled": 0, "lat": 38.862168, "rental_uris": {"ios": "https://dc.lft.to/lastmile_qr_scan", "android": "https://dc.lft.to/lastmile_qr_scan"}, "is_reserved": 0, "lon": -76.9948335, "fusion_lat": 0.0, "name": "bcff8fdbd5b4f741d2dd03ca5b46f152"}, {"type": "electric_scooter", "fusion_lon": 0.0, "bike_id": "e103840157542f4f2e5def9541f190b1", "is_disabled": 0, "lat": 38.9156995, "rental_uris": {"ios": "https://dc.lft.to/lastmile_qr_scan", "android": "https://dc.lft.to/lastmile_qr_scan"}, "is_reserved": 0, "lon": -77.0417375, "fusion_lat": 0.0, "name": "e103840157542f4f2e5def9541f190b1"}, {"type": "electric_scooter", "fusion_lon": 0.0, "bike_id": "0f8c3403512ddd52775994d12d4c7a84", "is_disabled": 0, "lat": 38.9102455, "rental_uris": {"ios": "https://dc.lft.to/lastmile_qr_scan", "android": "https://dc.lft.to/lastmile_qr_scan"}, "is_reserved": 0, "lon": -77.0433205, "fusion_lat": 0.0, "name": "0f8c3403512ddd52775994d12d4c7a84"}, {"type": "electric_scooter", "fusion_lon": 0.0, "bike_id": "54c09b23733a2eb0241149a2665f91c0", "is_disabled": 0, "lat": 38.941728, "rental_uris": {"ios": "https://dc.lft.to/lastmile_qr_scan", "android": "https://dc.lft.to/lastmile_qr_scan"}, "is_reserved": 0, "lon": -76.99439116666667, "fusion_lat": 0.0, "name": "54c09b23733a2eb0241149a2665f91c0"}, {"type": "electric_scooter", "fusion_lon": 0.0, "bike_id": "bea05e9b00985ab876dad794c2706f46", "is_disabled": 0, "lat": 38.894876, "rental_uris": {"ios": "https://dc.lft.to/lastmile_qr_scan", "android": "https://dc.lft.to/lastmile_qr_scan"}, "is_reserved": 0, "lon": -77.02329766666666, "fusion_lat": 0.0, "name": "bea05e9b00985ab876dad794c2706f46"}, {"type": "electric_scooter", "fusion_lon": 0.0, "bike_id": "35a228c2ccf647f4d744e18f393f8ec5", "is_disabled": 0, "lat": 38.90953116666667, "rental_uris": {"ios": "https://dc.lft.to/lastmile_qr_scan", "android": "https://dc.lft.to/lastmile_qr_scan"}, "is_reserved": 0, "lon": -77.04461383333333, "fusion_lat": 0.0, "name": "35a228c2ccf647f4d744e18f393f8ec5"}, {"type": "electric_scooter", "fusion_lon": 0.0, "bike_id": "936153b3af7ea35ad3d79195e9b829f3", "is_disabled": 0, "lat": 38.91109766666667, "rental_uris": {"ios": "https://dc.lft.to/lastmile_qr_scan", "android": "https://dc.lft.to/lastmile_qr_scan"}, "is_reserved": 0, "lon": -77.00747983333333, "fusion_lat": 0.0, "name": "936153b3af7ea35ad3d79195e9b829f3"}, {"type": "electric_scooter", "fusion_lon": 0.0, "bike_id": "eb647bf8e124d8a7ccb295d2d9060b23", "is_disabled": 0, "lat": 38.90683766666667, "rental_uris": {"ios": "https://dc.lft.to/lastmile_qr_scan", "android": "https://dc.lft.to/lastmile_qr_scan"}, "is_reserved": 0, "lon": -77.00593133333334, "fusion_lat": 0.0, "name": "eb647bf8e124d8a7ccb295d2d9060b23"}, {"type": "electric_scooter", "fusion_lon": 0.0, "bike_id": "0a6f6d483d4a59ebb7b51338bab244b1", "is_disabled": 0, "lat": 38.88015166666667, "rental_uris": {"ios": "https://dc.lft.to/lastmile_qr_scan", "android": "https://dc.lft.to/lastmile_qr_scan"}, "is_reserved": 0, "lon": -76.98069116666667, "fusion_lat": 0.0, "name": "0a6f6d483d4a59ebb7b51338bab244b1"}, {"type": "electric_scooter", "fusion_lon": 0.0, "bike_id": "a15b7be48ee774542d419f929a46a0da", "is_disabled": 0, "lat": 38.897632, "rental_uris": {"ios": "https://dc.lft.to/lastmile_qr_scan", "android": "https://dc.lft.to/lastmile_qr_scan"}, "is_reserved": 0, "lon": -77.0270965, "fusion_lat": 0.0, "name": "a15b7be48ee774542d419f929a46a0da"}, {"type": "electric_scooter", "fusion_lon": 0.0, "bike_id": "48ff83d9a21cca9bd708f9d74278a37e", "is_disabled": 0, "lat": 38.93463216666667, "rental_uris": {"ios": "https://dc.lft.to/lastmile_qr_scan", "android": "https://dc.lft.to/lastmile_qr_scan"}, "is_reserved": 0, "lon": -77.04133333333333, "fusion_lat": 0.0, "name": "48ff83d9a21cca9bd708f9d74278a37e"}, {"type": "electric_scooter", "fusion_lon": 0.0, "bike_id": "978aedb984a3b76ec0ab2e03d198d129", "is_disabled": 0, "lat": 38.900898, "rental_uris": {"ios": "https://dc.lft.to/lastmile_qr_scan", "android": "https://dc.lft.to/lastmile_qr_scan"}, "is_reserved": 0, "lon": -77.04979833333333, "fusion_lat": 0.0, "name": "978aedb984a3b76ec0ab2e03d198d129"}, {"type": "electric_scooter", "fusion_lon": 0.0, "bike_id": "425cc002a4a00005877cf23830e5b01b", "is_disabled": 0, "lat": 38.92460116666667, "rental_uris": {"ios": "https://dc.lft.to/lastmile_qr_scan", "android": "https://dc.lft.to/lastmile_qr_scan"}, "is_reserved": 0, "lon": -77.05764783333333, "fusion_lat": 0.0, "name": "425cc002a4a00005877cf23830e5b01b"}, {"type": "electric_scooter", "fusion_lon": 0.0, "bike_id": "1b1bb225090a47f7357b2dc3a11e3bab", "is_disabled": 0, "lat": 38.92067316666667, "rental_uris": {"ios": "https://dc.lft.to/lastmile_qr_scan", "android": "https://dc.lft.to/lastmile_qr_scan"}, "is_reserved": 0, "lon": -77.0249605, "fusion_lat": 0.0, "name": "1b1bb225090a47f7357b2dc3a11e3bab"}, {"type": "electric_scooter", "fusion_lon": 0.0, "bike_id": "89cdee7a227ebf0bfe741763b95ff677", "is_disabled": 0, "lat": 38.959233166666664, "rental_uris": {"ios": "https://dc.lft.to/lastmile_qr_scan", "android": "https://dc.lft.to/lastmile_qr_scan"}, "is_reserved": 0, "lon": -76.99442966666666, "fusion_lat": 0.0, "name": "89cdee7a227ebf0bfe741763b95ff677"}, {"type": "electric_scooter", "fusion_lon": 0.0, "bike_id": "526b8a0920562022c87011f1c00b5611", "is_disabled": 0, "lat": 38.920471666666664, "rental_uris": {"ios": "https://dc.lft.to/lastmile_qr_scan", "android": "https://dc.lft.to/lastmile_qr_scan"}, "is_reserved": 0, "lon": -77.033867, "fusion_lat": 0.0, "name": "526b8a0920562022c87011f1c00b5611"}, {"type": "electric_scooter", "fusion_lon": 0.0, "bike_id": "73d50a8999e853ce3a49c5ebaa9726d1", "is_disabled": 0, "lat": 38.9223745, "rental_uris": {"ios": "https://dc.lft.to/lastmile_qr_scan", "android": "https://dc.lft.to/lastmile_qr_scan"}, "is_reserved": 0, "lon": -77.04269683333334, "fusion_lat": 0.0, "name": "73d50a8999e853ce3a49c5ebaa9726d1"}, {"type": "electric_scooter", "fusion_lon": 0.0, "bike_id": "bb4f912448fe1646fa41770e9ecfe50d", "is_disabled": 0, "lat": 38.908659666666665, "rental_uris": {"ios": "https://dc.lft.to/lastmile_qr_scan", "android": "https://dc.lft.to/lastmile_qr_scan"}, "is_reserved": 0, "lon": -76.98499083333333, "fusion_lat": 0.0, "name": "bb4f912448fe1646fa41770e9ecfe50d"}, {"type": "electric_scooter", "fusion_lon": 0.0, "bike_id": "0441c8acdc69e7aa615620f681af3b89", "is_disabled": 0, "lat": 38.924826833333334, "rental_uris": {"ios": "https://dc.lft.to/lastmile_qr_scan", "android": "https://dc.lft.to/lastmile_qr_scan"}, "is_reserved": 0, "lon": -77.0255435, "fusion_lat": 0.0, "name": "0441c8acdc69e7aa615620f681af3b89"}, {"type": "electric_bike", "fusion_lon": 0.0, "bike_id": "1b7bd7e2076e84be93a054105f73ead8", "is_disabled": 0, "lat": 38.8450895, "rental_uris": {"ios": "https://dc.lft.to/lastmile_qr_scan", "android": "https://dc.lft.to/lastmile_qr_scan"}, "is_reserved": 0, "lon": -76.9881115, "fusion_lat": 0.0, "name": "1b7bd7e2076e84be93a054105f73ead8"}, {"type": "electric_scooter", "fusion_lon": 0.0, "bike_id": "148d1742a1fac2c39296a1b311cca7c3", "is_disabled": 0, "lat": 38.92474833333333, "rental_uris": {"ios": "https://dc.lft.to/lastmile_qr_scan", "android": "https://dc.lft.to/lastmile_qr_scan"}, "is_reserved": 0, "lon": -77.02910366666667, "fusion_lat": 0.0, "name": "148d1742a1fac2c39296a1b311cca7c3"}, {"type": "electric_scooter", "fusion_lon": 0.0, "bike_id": "721919bd7365f86c91b4664a45c06ec9", "is_disabled": 0, "lat": 38.926148166666664, "rental_uris": {"ios": "https://dc.lft.to/lastmile_qr_scan", "android": "https://dc.lft.to/lastmile_qr_scan"}, "is_reserved": 0, "lon": -77.03210833333333, "fusion_lat": 0.0, "name": "721919bd7365f86c91b4664a45c06ec9"}, {"type": "electric_scooter", "fusion_lon": 0.0, "bike_id": "ad3c92435ac1ffcd03ddfbb903b0371d", "is_disabled": 0, "lat": 38.923720333333335, "rental_uris": {"ios": "https://dc.lft.to/lastmile_qr_scan", "android": "https://dc.lft.to/lastmile_qr_scan"}, "is_reserved": 0, "lon": -77.01990066666667, "fusion_lat": 0.0, "name": "ad3c92435ac1ffcd03ddfbb903b0371d"}, {"type": "electric_scooter", "fusion_lon": 0.0, "bike_id": "0a0bdb3198b0a54d6175952cc32eb1ba", "is_disabled": 0, "lat": 38.861988833333335, "rental_uris": {"ios": "https://dc.lft.to/lastmile_qr_scan", "android": "https://dc.lft.to/lastmile_qr_scan"}, "is_reserved": 0, "lon": -76.99506333333333, "fusion_lat": 0.0, "name": "0a0bdb3198b0a54d6175952cc32eb1ba"}, {"type": "electric_scooter", "fusion_lon": 0.0, "bike_id": "a663d00dcddd7718d3a21bf9fb7c5d40", "is_disabled": 0, "lat": 38.91546016666667, "rental_uris": {"ios": "https://dc.lft.to/lastmile_qr_scan", "android": "https://dc.lft.to/lastmile_qr_scan"}, "is_reserved": 0, "lon": -77.03866433333333, "fusion_lat": 0.0, "name": "a663d00dcddd7718d3a21bf9fb7c5d40"}, {"type": "electric_scooter", "fusion_lon": 0.0, "bike_id": "84a97443f056a471f1796efed59ce145", "is_disabled": 0, "lat": 38.8973155, "rental_uris": {"ios": "https://dc.lft.to/lastmile_qr_scan", "android": "https://dc.lft.to/lastmile_qr_scan"}, "is_reserved": 0, "lon": -77.05522533333334, "fusion_lat": 0.0, "name": "84a97443f056a471f1796efed59ce145"}, {"type": "electric_scooter", "fusion_lon": 0.0, "bike_id": "7d8fc3af9df4d25fd8f3023d7179ddf6", "is_disabled": 0, "lat": 38.905275, "rental_uris": {"ios": "https://dc.lft.to/lastmile_qr_scan", "android": "https://dc.lft.to/lastmile_qr_scan"}, "is_reserved": 0, "lon": -77.05935416666667, "fusion_lat": 0.0, "name": "7d8fc3af9df4d25fd8f3023d7179ddf6"}, {"type": "electric_scooter", "fusion_lon": 0.0, "bike_id": "075d628c47fed4e2baf1549e544f0ae9", "is_disabled": 0, "lat": 38.918136833333335, "rental_uris": {"ios": "https://dc.lft.to/lastmile_qr_scan", "android": "https://dc.lft.to/lastmile_qr_scan"}, "is_reserved": 0, "lon": -77.02888833333333, "fusion_lat": 0.0, "name": "075d628c47fed4e2baf1549e544f0ae9"}, {"type": "electric_bike", "fusion_lon": 0.0, "bike_id": "f33ed0dd6c55f571c80a36037259e912", "is_disabled": 0, "lat": 38.8757925, "rental_uris": {"ios": "https://dc.lft.to/lastmile_qr_scan", "android": "https://dc.lft.to/lastmile_qr_scan"}, "is_reserved": 0, "lon": -77.234123, "fusion_lat": 0.0, "name": "f33ed0dd6c55f571c80a36037259e912"}, {"type": "electric_scooter", "fusion_lon": 0.0, "bike_id": "f6c0da6d3711154da1d759a85d7f9a86", "is_disabled": 0, "lat": 38.92087266666667, "rental_uris": {"ios": "https://dc.lft.to/lastmile_qr_scan", "android": "https://dc.lft.to/lastmile_qr_scan"}, "is_reserved": 0, "lon": -77.04699616666667, "fusion_lat": 0.0, "name": "f6c0da6d3711154da1d759a85d7f9a86"}, {"type": "electric_scooter", "fusion_lon": 0.0, "bike_id": "8243974aaa7e5abcc9c496509939fd4d", "is_disabled": 0, "lat": 38.90144083333333, "rental_uris": {"ios": "https://dc.lft.to/lastmile_qr_scan", "android": "https://dc.lft.to/lastmile_qr_scan"}, "is_reserved": 0, "lon": -77.04043766666666, "fusion_lat": 0.0, "name": "8243974aaa7e5abcc9c496509939fd4d"}, {"type": "electric_scooter", "fusion_lon": 0.0, "bike_id": "61be65452845d63a63d82c0e85a24db4", "is_disabled": 0, "lat": 38.94195, "rental_uris": {"ios": "https://dc.lft.to/lastmile_qr_scan", "android": "https://dc.lft.to/lastmile_qr_scan"}, "is_reserved": 0, "lon": -77.0295915, "fusion_lat": 0.0, "name": "61be65452845d63a63d82c0e85a24db4"}, {"type": "electric_scooter", "fusion_lon": 0.0, "bike_id": "cc2524e625d2de6ac3afcbd5835b9dbb", "is_disabled": 0, "lat": 38.87839233333333, "rental_uris": {"ios": "https://dc.lft.to/lastmile_qr_scan", "android": "https://dc.lft.to/lastmile_qr_scan"}, "is_reserved": 0, "lon": -77.00037266666666, "fusion_lat": 0.0, "name": "cc2524e625d2de6ac3afcbd5835b9dbb"}, {"type": "electric_scooter", "fusion_lon": 0.0, "bike_id": "f47339b53daf9ba496db2faec180ff2a", "is_disabled": 0, "lat": 38.90119683333333, "rental_uris": {"ios": "https://dc.lft.to/lastmile_qr_scan", "android": "https://dc.lft.to/lastmile_qr_scan"}, "is_reserved": 0, "lon": -77.049763, "fusion_lat": 0.0, "name": "f47339b53daf9ba496db2faec180ff2a"}, {"type": "electric_scooter", "fusion_lon": 0.0, "bike_id": "3d9618ca5d3ee0275a798ab0e4f9d787", "is_disabled": 0, "lat": 38.899408, "rental_uris": {"ios": "https://dc.lft.to/lastmile_qr_scan", "android": "https://dc.lft.to/lastmile_qr_scan"}, "is_reserved": 0, "lon": -77.04187933333333, "fusion_lat": 0.0, "name": "3d9618ca5d3ee0275a798ab0e4f9d787"}, {"type": "electric_scooter", "fusion_lon": 0.0, "bike_id": "feb9be46d4bb9e35e0c06bf019f4543b", "is_disabled": 0, "lat": 38.919943833333335, "rental_uris": {"ios": "https://dc.lft.to/lastmile_qr_scan", "android": "https://dc.lft.to/lastmile_qr_scan"}, "is_reserved": 0, "lon": -77.03217266666667, "fusion_lat": 0.0, "name": "feb9be46d4bb9e35e0c06bf019f4543b"}, {"type": "electric_scooter", "fusion_lon": 0.0, "bike_id": "fffc6db9cdd69c4a29e89687c3079be1", "is_disabled": 0, "lat": 38.89699016666667, "rental_uris": {"ios": "https://dc.lft.to/lastmile_qr_scan", "android": "https://dc.lft.to/lastmile_qr_scan"}, "is_reserved": 0, "lon": -77.01955283333334, "fusion_lat": 0.0, "name": "fffc6db9cdd69c4a29e89687c3079be1"}, {"type": "electric_scooter", "fusion_lon": 0.0, "bike_id": "463c2893a704e74e135c254172cfaf38", "is_disabled": 0, "lat": 38.897292166666666, "rental_uris": {"ios": "https://dc.lft.to/lastmile_qr_scan", "android": "https://dc.lft.to/lastmile_qr_scan"}, "is_reserved": 0, "lon": -76.98497116666667, "fusion_lat": 0.0, "name": "463c2893a704e74e135c254172cfaf38"}, {"type": "electric_scooter", "fusion_lon": 0.0, "bike_id": "aafc6ccff0026d8a9d981747e344ea33", "is_disabled": 0, "lat": 38.92333266666667, "rental_uris": {"ios": "https://dc.lft.to/lastmile_qr_scan", "android": "https://dc.lft.to/lastmile_qr_scan"}, "is_reserved": 0, "lon": -77.03553916666667, "fusion_lat": 0.0, "name": "aafc6ccff0026d8a9d981747e344ea33"}, {"type": "electric_scooter", "fusion_lon": 0.0, "bike_id": "f2b72ceac6e429d01655b723336def53", "is_disabled": 0, "lat": 38.907088333333334, "rental_uris": {"ios": "https://dc.lft.to/lastmile_qr_scan", "android": "https://dc.lft.to/lastmile_qr_scan"}, "is_reserved": 0, "lon": -76.985606, "fusion_lat": 0.0, "name": "f2b72ceac6e429d01655b723336def53"}, {"type": "electric_scooter", "fusion_lon": 0.0, "bike_id": "11764d499280b2f3eabcda8e63a13ebd", "is_disabled": 0, "lat": 38.90651866666666, "rental_uris": {"ios": "https://dc.lft.to/lastmile_qr_scan", "android": "https://dc.lft.to/lastmile_qr_scan"}, "is_reserved": 0, "lon": -77.042423, "fusion_lat": 0.0, "name": "11764d499280b2f3eabcda8e63a13ebd"}, {"type": "electric_scooter", "fusion_lon": 0.0, "bike_id": "25108da0f02a9d0bdccd6f0818600532", "is_disabled": 0, "lat": 38.904063, "rental_uris": {"ios": "https://dc.lft.to/lastmile_qr_scan", "android": "https://dc.lft.to/lastmile_qr_scan"}, "is_reserved": 0, "lon": -77.02507116666666, "fusion_lat": 0.0, "name": "25108da0f02a9d0bdccd6f0818600532"}, {"type": "electric_scooter", "fusion_lon": 0.0, "bike_id": "d145b862a66d5b42d697d0f5a5274205", "is_disabled": 0, "lat": 38.905641333333335, "rental_uris": {"ios": "https://dc.lft.to/lastmile_qr_scan", "android": "https://dc.lft.to/lastmile_qr_scan"}, "is_reserved": 0, "lon": -77.00563183333334, "fusion_lat": 0.0, "name": "d145b862a66d5b42d697d0f5a5274205"}, {"type": "electric_scooter", "fusion_lon": 0.0, "bike_id": "8eb5887ee8f17380ce4224b8d98ea480", "is_disabled": 0, "lat": 38.9328155, "rental_uris": {"ios": "https://dc.lft.to/lastmile_qr_scan", "android": "https://dc.lft.to/lastmile_qr_scan"}, "is_reserved": 0, "lon": -77.040863, "fusion_lat": 0.0, "name": "8eb5887ee8f17380ce4224b8d98ea480"}, {"type": "electric_bike", "fusion_lon": 0.0, "bike_id": "3f2850e4d582806c079b46a20cf5c67a", "is_disabled": 0, "lat": 38.9919835, "rental_uris": {"ios": "https://dc.lft.to/lastmile_qr_scan", "android": "https://dc.lft.to/lastmile_qr_scan"}, "is_reserved": 0, "lon": -77.03216066666667, "fusion_lat": 0.0, "name": "3f2850e4d582806c079b46a20cf5c67a"}, {"type": "electric_scooter", "fusion_lon": 0.0, "bike_id": "91f439732b3c89a1f50b5d502f4397ac", "is_disabled": 0, "lat": 38.90569283333333, "rental_uris": {"ios": "https://dc.lft.to/lastmile_qr_scan", "android": "https://dc.lft.to/lastmile_qr_scan"}, "is_reserved": 0, "lon": -77.02416616666666, "fusion_lat": 0.0, "name": "91f439732b3c89a1f50b5d502f4397ac"}, {"type": "electric_scooter", "fusion_lon": 0.0, "bike_id": "e46cd214e8bb5a2d03c0b86092554d0c", "is_disabled": 0, "lat": 38.899158, "rental_uris": {"ios": "https://dc.lft.to/lastmile_qr_scan", "android": "https://dc.lft.to/lastmile_qr_scan"}, "is_reserved": 0, "lon": -76.93384683333333, "fusion_lat": 0.0, "name": "e46cd214e8bb5a2d03c0b86092554d0c"}, {"type": "electric_scooter", "fusion_lon": 0.0, "bike_id": "b8f411420d578c7f4e9150c949d4499e", "is_disabled": 0, "lat": 38.87647, "rental_uris": {"ios": "https://dc.lft.to/lastmile_qr_scan", "android": "https://dc.lft.to/lastmile_qr_scan"}, "is_reserved": 0, "lon": -76.9650855, "fusion_lat": 0.0, "name": "b8f411420d578c7f4e9150c949d4499e"}, {"type": "electric_scooter", "fusion_lon": 0.0, "bike_id": "40b25e1dd69206676368f39563ef3d52", "is_disabled": 0, "lat": 38.938196833333336, "rental_uris": {"ios": "https://dc.lft.to/lastmile_qr_scan", "android": "https://dc.lft.to/lastmile_qr_scan"}, "is_reserved": 0, "lon": -76.98926383333334, "fusion_lat": 0.0, "name": "40b25e1dd69206676368f39563ef3d52"}, {"type": "electric_bike", "fusion_lon": 0.0, "bike_id": "7ee21a3a27d456b9040526c2b5b1f442", "is_disabled": 0, "lat": 38.866262166666665, "rental_uris": {"ios": "https://dc.lft.to/lastmile_qr_scan", "android": "https://dc.lft.to/lastmile_qr_scan"}, "is_reserved": 0, "lon": -76.945735, "fusion_lat": 0.0, "name": "7ee21a3a27d456b9040526c2b5b1f442"}, {"type": "electric_scooter", "fusion_lon": 0.0, "bike_id": "2d05a9c6603023a567e0e266af033bf1", "is_disabled": 0, "lat": 38.90960883333333, "rental_uris": {"ios": "https://dc.lft.to/lastmile_qr_scan", "android": "https://dc.lft.to/lastmile_qr_scan"}, "is_reserved": 0, "lon": -77.046557, "fusion_lat": 0.0, "name": "2d05a9c6603023a567e0e266af033bf1"}, {"type": "electric_bike", "fusion_lon": 0.0, "bike_id": "28adb67015dc64696666e8c6f3ad9796", "is_disabled": 0, "lat": 38.99783466666667, "rental_uris": {"ios": "https://dc.lft.to/lastmile_qr_scan", "android": "https://dc.lft.to/lastmile_qr_scan"}, "is_reserved": 0, "lon": -77.00763133333334, "fusion_lat": 0.0, "name": "28adb67015dc64696666e8c6f3ad9796"}, {"type": "electric_scooter", "fusion_lon": 0.0, "bike_id": "9929ad796adffc49213db1b05b40a52c", "is_disabled": 0, "lat": 38.892897166666664, "rental_uris": {"ios": "https://dc.lft.to/lastmile_qr_scan", "android": "https://dc.lft.to/lastmile_qr_scan"}, "is_reserved": 0, "lon": -77.00207566666667, "fusion_lat": 0.0, "name": "9929ad796adffc49213db1b05b40a52c"}, {"type": "electric_scooter", "fusion_lon": 0.0, "bike_id": "f8f4ab0876eb15b46bb3cb21eef933a0", "is_disabled": 0, "lat": 38.9295945, "rental_uris": {"ios": "https://dc.lft.to/lastmile_qr_scan", "android": "https://dc.lft.to/lastmile_qr_scan"}, "is_reserved": 0, "lon": -77.031018, "fusion_lat": 0.0, "name": "f8f4ab0876eb15b46bb3cb21eef933a0"}, {"type": "electric_scooter", "fusion_lon": 0.0, "bike_id": "1dc5bbe456dc207993f0dd4a32bcc89a", "is_disabled": 0, "lat": 38.942783666666664, "rental_uris": {"ios": "https://dc.lft.to/lastmile_qr_scan", "android": "https://dc.lft.to/lastmile_qr_scan"}, "is_reserved": 0, "lon": -77.0293195, "fusion_lat": 0.0, "name": "1dc5bbe456dc207993f0dd4a32bcc89a"}, {"type": "electric_scooter", "fusion_lon": 0.0, "bike_id": "50fa4086d30dced8bbfdef1a5a599ebb", "is_disabled": 0, "lat": 38.89912266666666, "rental_uris": {"ios": "https://dc.lft.to/lastmile_qr_scan", "android": "https://dc.lft.to/lastmile_qr_scan"}, "is_reserved": 0, "lon": -76.93380583333334, "fusion_lat": 0.0, "name": "50fa4086d30dced8bbfdef1a5a599ebb"}, {"type": "electric_scooter", "fusion_lon": 0.0, "bike_id": "433605e078f9a175a2a89c51f6cebce9", "is_disabled": 0, "lat": 38.9113205, "rental_uris": {"ios": "https://dc.lft.to/lastmile_qr_scan", "android": "https://dc.lft.to/lastmile_qr_scan"}, "is_reserved": 0, "lon": -77.022005, "fusion_lat": 0.0, "name": "433605e078f9a175a2a89c51f6cebce9"}, {"type": "electric_scooter", "fusion_lon": 0.0, "bike_id": "1692a3b8569e4ad821e5f1d55eb78ce0", "is_disabled": 0, "lat": 38.92583966666667, "rental_uris": {"ios": "https://dc.lft.to/lastmile_qr_scan", "android": "https://dc.lft.to/lastmile_qr_scan"}, "is_reserved": 0, "lon": -77.02842383333333, "fusion_lat": 0.0, "name": "1692a3b8569e4ad821e5f1d55eb78ce0"}, {"type": "electric_bike", "fusion_lon": 0.0, "bike_id": "357cf4ed8e235f2783aac48fee53f737", "is_disabled": 0, "lat": 38.85300633333333, "rental_uris": {"ios": "https://dc.lft.to/lastmile_qr_scan", "android": "https://dc.lft.to/lastmile_qr_scan"}, "is_reserved": 0, "lon": -77.046027, "fusion_lat": 0.0, "name": "357cf4ed8e235f2783aac48fee53f737"}, {"type": "electric_scooter", "fusion_lon": 0.0, "bike_id": "999d20f33060a23d6f7486bd6bb4b5eb", "is_disabled": 0, "lat": 38.885402, "rental_uris": {"ios": "https://dc.lft.to/lastmile_qr_scan", "android": "https://dc.lft.to/lastmile_qr_scan"}, "is_reserved": 0, "lon": -76.97894366666667, "fusion_lat": 0.0, "name": "999d20f33060a23d6f7486bd6bb4b5eb"}, {"type": "electric_scooter", "fusion_lon": 0.0, "bike_id": "0e8755009982c096c5a6c4514e1c17ce", "is_disabled": 0, "lat": 38.899619666666666, "rental_uris": {"ios": "https://dc.lft.to/lastmile_qr_scan", "android": "https://dc.lft.to/lastmile_qr_scan"}, "is_reserved": 0, "lon": -77.016072, "fusion_lat": 0.0, "name": "0e8755009982c096c5a6c4514e1c17ce"}, {"type": "electric_scooter", "fusion_lon": 0.0, "bike_id": "d1e88cc2546b5ebd0a62aa1c0c50f8b6", "is_disabled": 0, "lat": 38.894710333333336, "rental_uris": {"ios": "https://dc.lft.to/lastmile_qr_scan", "android": "https://dc.lft.to/lastmile_qr_scan"}, "is_reserved": 0, "lon": -77.01862666666666, "fusion_lat": 0.0, "name": "d1e88cc2546b5ebd0a62aa1c0c50f8b6"}, {"type": "electric_scooter", "fusion_lon": 0.0, "bike_id": "395bece64bc23bc0cf0db942587d3aed", "is_disabled": 0, "lat": 38.91929433333333, "rental_uris": {"ios": "https://dc.lft.to/lastmile_qr_scan", "android": "https://dc.lft.to/lastmile_qr_scan"}, "is_reserved": 0, "lon": -77.02410666666667, "fusion_lat": 0.0, "name": "395bece64bc23bc0cf0db942587d3aed"}, {"type": "electric_scooter", "fusion_lon": 0.0, "bike_id": "42531fa675859c9a5bc7da3411f60b15", "is_disabled": 0, "lat": 38.92132133333333, "rental_uris": {"ios": "https://dc.lft.to/lastmile_qr_scan", "android": "https://dc.lft.to/lastmile_qr_scan"}, "is_reserved": 0, "lon": -77.01804833333334, "fusion_lat": 0.0, "name": "42531fa675859c9a5bc7da3411f60b15"}, {"type": "electric_bike", "fusion_lon": 0.0, "bike_id": "653ba6492ba708f616c5759a190d12c9", "is_disabled": 0, "lat": 38.88464183333333, "rental_uris": {"ios": "https://dc.lft.to/lastmile_qr_scan", "android": "https://dc.lft.to/lastmile_qr_scan"}, "is_reserved": 0, "lon": -76.95247016666667, "fusion_lat": 0.0, "name": "653ba6492ba708f616c5759a190d12c9"}, {"type": "electric_scooter", "fusion_lon": 0.0, "bike_id": "f40ea83e587fe8fd4f06366b13b413d2", "is_disabled": 0, "lat": 38.9396125, "rental_uris": {"ios": "https://dc.lft.to/lastmile_qr_scan", "android": "https://dc.lft.to/lastmile_qr_scan"}, "is_reserved": 0, "lon": -77.07252266666667, "fusion_lat": 0.0, "name": "f40ea83e587fe8fd4f06366b13b413d2"}, {"type": "electric_scooter", "fusion_lon": 0.0, "bike_id": "c2419ffb6a02f04580c6ecb6576ec3c9", "is_disabled": 0, "lat": 38.906239666666664, "rental_uris": {"ios": "https://dc.lft.to/lastmile_qr_scan", "android": "https://dc.lft.to/lastmile_qr_scan"}, "is_reserved": 0, "lon": -77.07657866666666, "fusion_lat": 0.0, "name": "c2419ffb6a02f04580c6ecb6576ec3c9"}, {"type": "electric_scooter", "fusion_lon": 0.0, "bike_id": "ef0b2dc56e7463a70414c6c89dc406ad", "is_disabled": 0, "lat": 38.935038166666665, "rental_uris": {"ios": "https://dc.lft.to/lastmile_qr_scan", "android": "https://dc.lft.to/lastmile_qr_scan"}, "is_reserved": 0, "lon": -77.04375133333333, "fusion_lat": 0.0, "name": "ef0b2dc56e7463a70414c6c89dc406ad"}, {"type": "electric_bike", "fusion_lon": 0.0, "bike_id": "4c2ce12ade62f491d8666ac006eac240", "is_disabled": 0, "lat": 38.988100333333335, "rental_uris": {"ios": "https://dc.lft.to/lastmile_qr_scan", "android": "https://dc.lft.to/lastmile_qr_scan"}, "is_reserved": 0, "lon": -76.93964583333333, "fusion_lat": 0.0, "name": "4c2ce12ade62f491d8666ac006eac240"}, {"type": "electric_scooter", "fusion_lon": 0.0, "bike_id": "911f5bba3ca4c7e28e8178691f4776a0", "is_disabled": 0, "lat": 38.89869366666667, "rental_uris": {"ios": "https://dc.lft.to/lastmile_qr_scan", "android": "https://dc.lft.to/lastmile_qr_scan"}, "is_reserved": 0, "lon": -76.9466275, "fusion_lat": 0.0, "name": "911f5bba3ca4c7e28e8178691f4776a0"}, {"type": "electric_scooter", "fusion_lon": 0.0, "bike_id": "730bf70a4a744b6e20e55e033c482c29", "is_disabled": 0, "lat": 38.934741, "rental_uris": {"ios": "https://dc.lft.to/lastmile_qr_scan", "android": "https://dc.lft.to/lastmile_qr_scan"}, "is_reserved": 0, "lon": -77.04141133333333, "fusion_lat": 0.0, "name": "730bf70a4a744b6e20e55e033c482c29"}, {"type": "electric_scooter", "fusion_lon": 0.0, "bike_id": "41b85600789a561d6b908882214e843e", "is_disabled": 0, "lat": 38.90935833333333, "rental_uris": {"ios": "https://dc.lft.to/lastmile_qr_scan", "android": "https://dc.lft.to/lastmile_qr_scan"}, "is_reserved": 0, "lon": -76.99980766666667, "fusion_lat": 0.0, "name": "41b85600789a561d6b908882214e843e"}, {"type": "electric_bike", "fusion_lon": 0.0, "bike_id": "d9cddab9a57e1b942bf34db803b14953", "is_disabled": 0, "lat": 38.99383433333333, "rental_uris": {"ios": "https://dc.lft.to/lastmile_qr_scan", "android": "https://dc.lft.to/lastmile_qr_scan"}, "is_reserved": 0, "lon": -77.040664, "fusion_lat": 0.0, "name": "d9cddab9a57e1b942bf34db803b14953"}, {"type": "electric_bike", "fusion_lon": 0.0, "bike_id": "709306ca8ba5fd29ff2abacfac8533ea", "is_disabled": 0, "lat": 38.916280666666665, "rental_uris": {"ios": "https://dc.lft.to/lastmile_qr_scan", "android": "https://dc.lft.to/lastmile_qr_scan"}, "is_reserved": 0, "lon": -77.03152566666667, "fusion_lat": 0.0, "name": "709306ca8ba5fd29ff2abacfac8533ea"}, {"type": "electric_scooter", "fusion_lon": 0.0, "bike_id": "92f76a1e3ab81b3d08231bb5307dfd49", "is_disabled": 0, "lat": 38.92398383333333, "rental_uris": {"ios": "https://dc.lft.to/lastmile_qr_scan", "android": "https://dc.lft.to/lastmile_qr_scan"}, "is_reserved": 0, "lon": -77.02701566666667, "fusion_lat": 0.0, "name": "92f76a1e3ab81b3d08231bb5307dfd49"}, {"type": "electric_scooter", "fusion_lon": 0.0, "bike_id": "608acaf77265edc8105af2adcd2c5bcb", "is_disabled": 0, "lat": 38.8944105, "rental_uris": {"ios": "https://dc.lft.to/lastmile_qr_scan", "android": "https://dc.lft.to/lastmile_qr_scan"}, "is_reserved": 0, "lon": -76.98089, "fusion_lat": 0.0, "name": "608acaf77265edc8105af2adcd2c5bcb"}, {"type": "electric_scooter", "fusion_lon": 0.0, "bike_id": "d50fe00cdf51defcea90ac3863588210", "is_disabled": 0, "lat": 38.9287765, "rental_uris": {"ios": "https://dc.lft.to/lastmile_qr_scan", "android": "https://dc.lft.to/lastmile_qr_scan"}, "is_reserved": 0, "lon": -77.0266625, "fusion_lat": 0.0, "name": "d50fe00cdf51defcea90ac3863588210"}, {"type": "electric_scooter", "fusion_lon": 0.0, "bike_id": "105295bac0be87c56dd566cb8ac837cf", "is_disabled": 0, "lat": 38.91416866666667, "rental_uris": {"ios": "https://dc.lft.to/lastmile_qr_scan", "android": "https://dc.lft.to/lastmile_qr_scan"}, "is_reserved": 0, "lon": -77.03552933333333, "fusion_lat": 0.0, "name": "105295bac0be87c56dd566cb8ac837cf"}, {"type": "electric_scooter", "fusion_lon": 0.0, "bike_id": "f7a19584dbafec08f3d60628440726a3", "is_disabled": 0, "lat": 38.904855833333336, "rental_uris": {"ios": "https://dc.lft.to/lastmile_qr_scan", "android": "https://dc.lft.to/lastmile_qr_scan"}, "is_reserved": 0, "lon": -77.05340883333334, "fusion_lat": 0.0, "name": "f7a19584dbafec08f3d60628440726a3"}, {"type": "electric_scooter", "fusion_lon": 0.0, "bike_id": "f0ab2b6beb2fb8198d37af75e1914301", "is_disabled": 0, "lat": 38.905607, "rental_uris": {"ios": "https://dc.lft.to/lastmile_qr_scan", "android": "https://dc.lft.to/lastmile_qr_scan"}, "is_reserved": 0, "lon": -77.01764133333333, "fusion_lat": 0.0, "name": "f0ab2b6beb2fb8198d37af75e1914301"}, {"type": "electric_scooter", "fusion_lon": 0.0, "bike_id": "32eea475f4483237243dd3d40e9706f9", "is_disabled": 0, "lat": 38.90432916666666, "rental_uris": {"ios": "https://dc.lft.to/lastmile_qr_scan", "android": "https://dc.lft.to/lastmile_qr_scan"}, "is_reserved": 0, "lon": -77.02591033333333, "fusion_lat": 0.0, "name": "32eea475f4483237243dd3d40e9706f9"}, {"type": "electric_scooter", "fusion_lon": 0.0, "bike_id": "fd465c2ce61505e58db80791b62c10fc", "is_disabled": 0, "lat": 38.896237, "rental_uris": {"ios": "https://dc.lft.to/lastmile_qr_scan", "android": "https://dc.lft.to/lastmile_qr_scan"}, "is_reserved": 0, "lon": -77.03169533333333, "fusion_lat": 0.0, "name": "fd465c2ce61505e58db80791b62c10fc"}, {"type": "electric_scooter", "fusion_lon": 0.0, "bike_id": "2b7df354d92a255c9dfabc9520f05214", "is_disabled": 0, "lat": 38.892208, "rental_uris": {"ios": "https://dc.lft.to/lastmile_qr_scan", "android": "https://dc.lft.to/lastmile_qr_scan"}, "is_reserved": 0, "lon": -77.02627033333333, "fusion_lat": 0.0, "name": "2b7df354d92a255c9dfabc9520f05214"}, {"type": "electric_scooter", "fusion_lon": 0.0, "bike_id": "0fed5cab8803846992cfc583f100c20f", "is_disabled": 0, "lat": 38.90842133333334, "rental_uris": {"ios": "https://dc.lft.to/lastmile_qr_scan", "android": "https://dc.lft.to/lastmile_qr_scan"}, "is_reserved": 0, "lon": -77.0269805, "fusion_lat": 0.0, "name": "0fed5cab8803846992cfc583f100c20f"}, {"type": "electric_scooter", "fusion_lon": 0.0, "bike_id": "10435b7673739194e21525139f83552e", "is_disabled": 0, "lat": 38.93093833333333, "rental_uris": {"ios": "https://dc.lft.to/lastmile_qr_scan", "android": "https://dc.lft.to/lastmile_qr_scan"}, "is_reserved": 0, "lon": -77.03490366666666, "fusion_lat": 0.0, "name": "10435b7673739194e21525139f83552e"}, {"type": "electric_scooter", "fusion_lon": 0.0, "bike_id": "0ca6ebca82762db18f2ffc9b995066d5", "is_disabled": 0, "lat": 38.91267283333333, "rental_uris": {"ios": "https://dc.lft.to/lastmile_qr_scan", "android": "https://dc.lft.to/lastmile_qr_scan"}, "is_reserved": 0, "lon": -77.04715616666667, "fusion_lat": 0.0, "name": "0ca6ebca82762db18f2ffc9b995066d5"}, {"type": "electric_scooter", "fusion_lon": 0.0, "bike_id": "048733671acaf6efc626f547676ecc4c", "is_disabled": 0, "lat": 38.94835633333334, "rental_uris": {"ios": "https://dc.lft.to/lastmile_qr_scan", "android": "https://dc.lft.to/lastmile_qr_scan"}, "is_reserved": 0, "lon": -77.0255825, "fusion_lat": 0.0, "name": "048733671acaf6efc626f547676ecc4c"}, {"type": "electric_scooter", "fusion_lon": 0.0, "bike_id": "2c0c25fb0db4db8bc60063bc368f79a7", "is_disabled": 0, "lat": 38.86662116666667, "rental_uris": {"ios": "https://dc.lft.to/lastmile_qr_scan", "android": "https://dc.lft.to/lastmile_qr_scan"}, "is_reserved": 0, "lon": -76.98887966666666, "fusion_lat": 0.0, "name": "2c0c25fb0db4db8bc60063bc368f79a7"}, {"type": "electric_scooter", "fusion_lon": 0.0, "bike_id": "7a280891a94b902b762b66a869793fb4", "is_disabled": 0, "lat": 38.917957666666666, "rental_uris": {"ios": "https://dc.lft.to/lastmile_qr_scan", "android": "https://dc.lft.to/lastmile_qr_scan"}, "is_reserved": 0, "lon": -77.02711766666667, "fusion_lat": 0.0, "name": "7a280891a94b902b762b66a869793fb4"}, {"type": "electric_scooter", "fusion_lon": 0.0, "bike_id": "01745f0cb0fbdb578eeee2143c7ecc8c", "is_disabled": 0, "lat": 38.961407333333334, "rental_uris": {"ios": "https://dc.lft.to/lastmile_qr_scan", "android": "https://dc.lft.to/lastmile_qr_scan"}, "is_reserved": 0, "lon": -77.02811116666666, "fusion_lat": 0.0, "name": "01745f0cb0fbdb578eeee2143c7ecc8c"}, {"type": "electric_scooter", "fusion_lon": 0.0, "bike_id": "ff031a8ed50c27a8144115a53785a008", "is_disabled": 0, "lat": 38.922655666666664, "rental_uris": {"ios": "https://dc.lft.to/lastmile_qr_scan", "android": "https://dc.lft.to/lastmile_qr_scan"}, "is_reserved": 0, "lon": -77.0224635, "fusion_lat": 0.0, "name": "ff031a8ed50c27a8144115a53785a008"}, {"type": "electric_scooter", "fusion_lon": 0.0, "bike_id": "0dafbef2b2531063e8cf41b9200791c5", "is_disabled": 0, "lat": 38.918150833333335, "rental_uris": {"ios": "https://dc.lft.to/lastmile_qr_scan", "android": "https://dc.lft.to/lastmile_qr_scan"}, "is_reserved": 0, "lon": -77.0455685, "fusion_lat": 0.0, "name": "0dafbef2b2531063e8cf41b9200791c5"}, {"type": "electric_scooter", "fusion_lon": 0.0, "bike_id": "cc993b590aca87aaf59f98d20356a5d8", "is_disabled": 0, "lat": 38.941964666666664, "rental_uris": {"ios": "https://dc.lft.to/lastmile_qr_scan", "android": "https://dc.lft.to/lastmile_qr_scan"}, "is_reserved": 0, "lon": -77.02523766666667, "fusion_lat": 0.0, "name": "cc993b590aca87aaf59f98d20356a5d8"}, {"type": "electric_bike", "fusion_lon": 0.0, "bike_id": "cfd09af9d9ab9e6553e92e3d68e39afc", "is_disabled": 0, "lat": 38.980505, "rental_uris": {"ios": "https://dc.lft.to/lastmile_qr_scan", "android": "https://dc.lft.to/lastmile_qr_scan"}, "is_reserved": 0, "lon": -76.95796316666667, "fusion_lat": 0.0, "name": "cfd09af9d9ab9e6553e92e3d68e39afc"}, {"type": "electric_scooter", "fusion_lon": 0.0, "bike_id": "c3a70704614c1f122cc3141fe3a253a6", "is_disabled": 0, "lat": 38.87376, "rental_uris": {"ios": "https://dc.lft.to/lastmile_qr_scan", "android": "https://dc.lft.to/lastmile_qr_scan"}, "is_reserved": 0, "lon": -77.00132833333333, "fusion_lat": 0.0, "name": "c3a70704614c1f122cc3141fe3a253a6"}, {"type": "electric_scooter", "fusion_lon": 0.0, "bike_id": "9009091b13968197af2c42d8ae3f20e0", "is_disabled": 0, "lat": 38.96392, "rental_uris": {"ios": "https://dc.lft.to/lastmile_qr_scan", "android": "https://dc.lft.to/lastmile_qr_scan"}, "is_reserved": 0, "lon": -77.02594016666667, "fusion_lat": 0.0, "name": "9009091b13968197af2c42d8ae3f20e0"}, {"type": "electric_scooter", "fusion_lon": 0.0, "bike_id": "239044a291c8e44a03eaba1e2ef836ba", "is_disabled": 0, "lat": 38.90375683333333, "rental_uris": {"ios": "https://dc.lft.to/lastmile_qr_scan", "android": "https://dc.lft.to/lastmile_qr_scan"}, "is_reserved": 0, "lon": -77.00198616666667, "fusion_lat": 0.0, "name": "239044a291c8e44a03eaba1e2ef836ba"}, {"type": "electric_scooter", "fusion_lon": 0.0, "bike_id": "070fa28252e90f7b214020a51b2b03a3", "is_disabled": 0, "lat": 38.9102775, "rental_uris": {"ios": "https://dc.lft.to/lastmile_qr_scan", "android": "https://dc.lft.to/lastmile_qr_scan"}, "is_reserved": 0, "lon": -77.07545816666666, "fusion_lat": 0.0, "name": "070fa28252e90f7b214020a51b2b03a3"}, {"type": "electric_scooter", "fusion_lon": 0.0, "bike_id": "3c628f7e1471d02a9d22d24ffe315f15", "is_disabled": 0, "lat": 38.903166666666664, "rental_uris": {"ios": "https://dc.lft.to/lastmile_qr_scan", "android": "https://dc.lft.to/lastmile_qr_scan"}, "is_reserved": 0, "lon": -77.0266965, "fusion_lat": 0.0, "name": "3c628f7e1471d02a9d22d24ffe315f15"}, {"type": "electric_scooter", "fusion_lon": 0.0, "bike_id": "f8b2e622278324b6e0ab70dafe7352c0", "is_disabled": 0, "lat": 38.928912, "rental_uris": {"ios": "https://dc.lft.to/lastmile_qr_scan", "android": "https://dc.lft.to/lastmile_qr_scan"}, "is_reserved": 0, "lon": -77.03276716666667, "fusion_lat": 0.0, "name": "f8b2e622278324b6e0ab70dafe7352c0"}, {"type": "electric_scooter", "fusion_lon": 0.0, "bike_id": "0115756bf2ae58afaff2b79c4a9e7b6b", "is_disabled": 0, "lat": 38.95641166666667, "rental_uris": {"ios": "https://dc.lft.to/lastmile_qr_scan", "android": "https://dc.lft.to/lastmile_qr_scan"}, "is_reserved": 0, "lon": -77.07026283333333, "fusion_lat": 0.0, "name": "0115756bf2ae58afaff2b79c4a9e7b6b"}, {"type": "electric_scooter", "fusion_lon": 0.0, "bike_id": "ff43fc60d3f0a1640a7a33d6a58aa2ab", "is_disabled": 0, "lat": 38.9160545, "rental_uris": {"ios": "https://dc.lft.to/lastmile_qr_scan", "android": "https://dc.lft.to/lastmile_qr_scan"}, "is_reserved": 0, "lon": -77.03213816666667, "fusion_lat": 0.0, "name": "ff43fc60d3f0a1640a7a33d6a58aa2ab"}, {"type": "electric_bike", "fusion_lon": 0.0, "bike_id": "c75d5c03072f7f3cc55a01f979caf7a9", "is_disabled": 0, "lat": 38.93166433333333, "rental_uris": {"ios": "https://dc.lft.to/lastmile_qr_scan", "android": "https://dc.lft.to/lastmile_qr_scan"}, "is_reserved": 0, "lon": -77.03537083333333, "fusion_lat": 0.0, "name": "c75d5c03072f7f3cc55a01f979caf7a9"}, {"type": "electric_scooter", "fusion_lon": 0.0, "bike_id": "2b516bb1f76c4a90dc413fe7941230ae", "is_disabled": 0, "lat": 38.876409833333334, "rental_uris": {"ios": "https://dc.lft.to/lastmile_qr_scan", "android": "https://dc.lft.to/lastmile_qr_scan"}, "is_reserved": 0, "lon": -76.99798866666667, "fusion_lat": 0.0, "name": "2b516bb1f76c4a90dc413fe7941230ae"}, {"type": "electric_scooter", "fusion_lon": 0.0, "bike_id": "aad63a0605cc7cf6c354fd534fc36656", "is_disabled": 0, "lat": 38.87861683333333, "rental_uris": {"ios": "https://dc.lft.to/lastmile_qr_scan", "android": "https://dc.lft.to/lastmile_qr_scan"}, "is_reserved": 0, "lon": -76.98930983333334, "fusion_lat": 0.0, "name": "aad63a0605cc7cf6c354fd534fc36656"}, {"type": "electric_scooter", "fusion_lon": 0.0, "bike_id": "01cfc2cac223404ade95cbe7720874c6", "is_disabled": 0, "lat": 38.926648166666666, "rental_uris": {"ios": "https://dc.lft.to/lastmile_qr_scan", "android": "https://dc.lft.to/lastmile_qr_scan"}, "is_reserved": 0, "lon": -77.037138, "fusion_lat": 0.0, "name": "01cfc2cac223404ade95cbe7720874c6"}, {"type": "electric_scooter", "fusion_lon": 0.0, "bike_id": "91c20449c35e1448a14aeaee5f62ea19", "is_disabled": 0, "lat": 38.9239435, "rental_uris": {"ios": "https://dc.lft.to/lastmile_qr_scan", "android": "https://dc.lft.to/lastmile_qr_scan"}, "is_reserved": 0, "lon": -77.02980866666667, "fusion_lat": 0.0, "name": "91c20449c35e1448a14aeaee5f62ea19"}, {"type": "electric_scooter", "fusion_lon": 0.0, "bike_id": "97ea54adc603d62d5679b2b22751f56c", "is_disabled": 0, "lat": 38.9067205, "rental_uris": {"ios": "https://dc.lft.to/lastmile_qr_scan", "android": "https://dc.lft.to/lastmile_qr_scan"}, "is_reserved": 0, "lon": -77.02195766666667, "fusion_lat": 0.0, "name": "97ea54adc603d62d5679b2b22751f56c"}, {"type": "electric_scooter", "fusion_lon": 0.0, "bike_id": "97591e48fd2ea5887273512ae6484ad0", "is_disabled": 0, "lat": 38.908021, "rental_uris": {"ios": "https://dc.lft.to/lastmile_qr_scan", "android": "https://dc.lft.to/lastmile_qr_scan"}, "is_reserved": 0, "lon": -77.0004015, "fusion_lat": 0.0, "name": "97591e48fd2ea5887273512ae6484ad0"}, {"type": "electric_scooter", "fusion_lon": 0.0, "bike_id": "8779d359e508bc0a346fb699d20ed9ee", "is_disabled": 0, "lat": 38.89226466666667, "rental_uris": {"ios": "https://dc.lft.to/lastmile_qr_scan", "android": "https://dc.lft.to/lastmile_qr_scan"}, "is_reserved": 0, "lon": -77.04504116666666, "fusion_lat": 0.0, "name": "8779d359e508bc0a346fb699d20ed9ee"}, {"type": "electric_scooter", "fusion_lon": 0.0, "bike_id": "898fdd51f332e69e9f0a49176998e426", "is_disabled": 0, "lat": 38.899185, "rental_uris": {"ios": "https://dc.lft.to/lastmile_qr_scan", "android": "https://dc.lft.to/lastmile_qr_scan"}, "is_reserved": 0, "lon": -77.02796483333333, "fusion_lat": 0.0, "name": "898fdd51f332e69e9f0a49176998e426"}, {"type": "electric_scooter", "fusion_lon": 0.0, "bike_id": "9f665039bcc72c4361c75b9699ef8a6c", "is_disabled": 0, "lat": 38.899531833333334, "rental_uris": {"ios": "https://dc.lft.to/lastmile_qr_scan", "android": "https://dc.lft.to/lastmile_qr_scan"}, "is_reserved": 0, "lon": -77.04517066666666, "fusion_lat": 0.0, "name": "9f665039bcc72c4361c75b9699ef8a6c"}, {"type": "electric_scooter", "fusion_lon": 0.0, "bike_id": "c2dcfd46a4289477cf6aa23e7e65a52e", "is_disabled": 0, "lat": 38.920523, "rental_uris": {"ios": "https://dc.lft.to/lastmile_qr_scan", "android": "https://dc.lft.to/lastmile_qr_scan"}, "is_reserved": 0, "lon": -77.04190683333333, "fusion_lat": 0.0, "name": "c2dcfd46a4289477cf6aa23e7e65a52e"}, {"type": "electric_scooter", "fusion_lon": 0.0, "bike_id": "3e7004d5e680abcd113cdd5643598ab7", "is_disabled": 0, "lat": 38.943179666666666, "rental_uris": {"ios": "https://dc.lft.to/lastmile_qr_scan", "android": "https://dc.lft.to/lastmile_qr_scan"}, "is_reserved": 0, "lon": -77.0617345, "fusion_lat": 0.0, "name": "3e7004d5e680abcd113cdd5643598ab7"}, {"type": "electric_scooter", "fusion_lon": 0.0, "bike_id": "f4df3e18d4252964aa1d322feed7a467", "is_disabled": 0, "lat": 38.903766166666664, "rental_uris": {"ios": "https://dc.lft.to/lastmile_qr_scan", "android": "https://dc.lft.to/lastmile_qr_scan"}, "is_reserved": 0, "lon": -77.04355016666666, "fusion_lat": 0.0, "name": "f4df3e18d4252964aa1d322feed7a467"}, {"type": "electric_scooter", "fusion_lon": 0.0, "bike_id": "4735688b4985f2358b013883a57d96de", "is_disabled": 0, "lat": 38.863638, "rental_uris": {"ios": "https://dc.lft.to/lastmile_qr_scan", "android": "https://dc.lft.to/lastmile_qr_scan"}, "is_reserved": 0, "lon": -76.990488, "fusion_lat": 0.0, "name": "4735688b4985f2358b013883a57d96de"}, {"type": "electric_scooter", "fusion_lon": 0.0, "bike_id": "0c6d3f9425a1aaaf3ca13ee554c07fdc", "is_disabled": 0, "lat": 38.916326833333336, "rental_uris": {"ios": "https://dc.lft.to/lastmile_qr_scan", "android": "https://dc.lft.to/lastmile_qr_scan"}, "is_reserved": 0, "lon": -77.0427195, "fusion_lat": 0.0, "name": "0c6d3f9425a1aaaf3ca13ee554c07fdc"}, {"type": "electric_scooter", "fusion_lon": 0.0, "bike_id": "eeac4fad8e7ee39b288093e2cf302b55", "is_disabled": 0, "lat": 38.90396233333333, "rental_uris": {"ios": "https://dc.lft.to/lastmile_qr_scan", "android": "https://dc.lft.to/lastmile_qr_scan"}, "is_reserved": 0, "lon": -76.9849125, "fusion_lat": 0.0, "name": "eeac4fad8e7ee39b288093e2cf302b55"}, {"type": "electric_scooter", "fusion_lon": 0.0, "bike_id": "4f356672c54d2f2bd0c4a52cf276bce8", "is_disabled": 0, "lat": 38.90726166666666, "rental_uris": {"ios": "https://dc.lft.to/lastmile_qr_scan", "android": "https://dc.lft.to/lastmile_qr_scan"}, "is_reserved": 0, "lon": -77.04152216666667, "fusion_lat": 0.0, "name": "4f356672c54d2f2bd0c4a52cf276bce8"}, {"type": "electric_scooter", "fusion_lon": 0.0, "bike_id": "70fb10dbad502ac206b71aad2d4b8bc1", "is_disabled": 0, "lat": 38.91932216666667, "rental_uris": {"ios": "https://dc.lft.to/lastmile_qr_scan", "android": "https://dc.lft.to/lastmile_qr_scan"}, "is_reserved": 0, "lon": -77.024955, "fusion_lat": 0.0, "name": "70fb10dbad502ac206b71aad2d4b8bc1"}, {"type": "electric_scooter", "fusion_lon": 0.0, "bike_id": "4fba28a544d93d61abf5140a34df1e5c", "is_disabled": 0, "lat": 38.9155875, "rental_uris": {"ios": "https://dc.lft.to/lastmile_qr_scan", "android": "https://dc.lft.to/lastmile_qr_scan"}, "is_reserved": 0, "lon": -77.03248616666667, "fusion_lat": 0.0, "name": "4fba28a544d93d61abf5140a34df1e5c"}, {"type": "electric_scooter", "fusion_lon": 0.0, "bike_id": "b2fab62e6c78913d252fc99df8483caa", "is_disabled": 0, "lat": 38.8647075, "rental_uris": {"ios": "https://dc.lft.to/lastmile_qr_scan", "android": "https://dc.lft.to/lastmile_qr_scan"}, "is_reserved": 0, "lon": -76.98232666666667, "fusion_lat": 0.0, "name": "b2fab62e6c78913d252fc99df8483caa"}, {"type": "electric_bike", "fusion_lon": 0.0, "bike_id": "8ecbb3fe4c563abe195b53172c54d4f7", "is_disabled": 0, "lat": 38.922920166666664, "rental_uris": {"ios": "https://dc.lft.to/lastmile_qr_scan", "android": "https://dc.lft.to/lastmile_qr_scan"}, "is_reserved": 0, "lon": -76.99771483333333, "fusion_lat": 0.0, "name": "8ecbb3fe4c563abe195b53172c54d4f7"}, {"type": "electric_scooter", "fusion_lon": 0.0, "bike_id": "7ae44de9091dcc7d98ad29230615e882", "is_disabled": 0, "lat": 38.92102716666667, "rental_uris": {"ios": "https://dc.lft.to/lastmile_qr_scan", "android": "https://dc.lft.to/lastmile_qr_scan"}, "is_reserved": 0, "lon": -77.04692483333334, "fusion_lat": 0.0, "name": "7ae44de9091dcc7d98ad29230615e882"}, {"type": "electric_scooter", "fusion_lon": 0.0, "bike_id": "b057f70d13caa1cc10489aa74e10ba1d", "is_disabled": 0, "lat": 38.9184, "rental_uris": {"ios": "https://dc.lft.to/lastmile_qr_scan", "android": "https://dc.lft.to/lastmile_qr_scan"}, "is_reserved": 0, "lon": -77.017855, "fusion_lat": 0.0, "name": "b057f70d13caa1cc10489aa74e10ba1d"}, {"type": "electric_scooter", "fusion_lon": 0.0, "bike_id": "ef58f2ac0ba22359ce64c44e985de874", "is_disabled": 0, "lat": 38.9177615, "rental_uris": {"ios": "https://dc.lft.to/lastmile_qr_scan", "android": "https://dc.lft.to/lastmile_qr_scan"}, "is_reserved": 0, "lon": -77.023096, "fusion_lat": 0.0, "name": "ef58f2ac0ba22359ce64c44e985de874"}, {"type": "electric_scooter", "fusion_lon": 0.0, "bike_id": "cdca86389828b3e0fd18cb6f46f6e0a6", "is_disabled": 0, "lat": 38.89608716666667, "rental_uris": {"ios": "https://dc.lft.to/lastmile_qr_scan", "android": "https://dc.lft.to/lastmile_qr_scan"}, "is_reserved": 0, "lon": -76.98099483333333, "fusion_lat": 0.0, "name": "cdca86389828b3e0fd18cb6f46f6e0a6"}, {"type": "electric_scooter", "fusion_lon": 0.0, "bike_id": "e0505e7992b3ab2e600ea402d31131ed", "is_disabled": 0, "lat": 38.91268866666667, "rental_uris": {"ios": "https://dc.lft.to/lastmile_qr_scan", "android": "https://dc.lft.to/lastmile_qr_scan"}, "is_reserved": 0, "lon": -77.02214383333333, "fusion_lat": 0.0, "name": "e0505e7992b3ab2e600ea402d31131ed"}, {"type": "electric_scooter", "fusion_lon": 0.0, "bike_id": "f7d3d65b90f460796c68a14afa32322f", "is_disabled": 0, "lat": 38.905451666666664, "rental_uris": {"ios": "https://dc.lft.to/lastmile_qr_scan", "android": "https://dc.lft.to/lastmile_qr_scan"}, "is_reserved": 0, "lon": -77.007129, "fusion_lat": 0.0, "name": "f7d3d65b90f460796c68a14afa32322f"}, {"type": "electric_scooter", "fusion_lon": 0.0, "bike_id": "2452ff69f82a7e165b39e0ee43c7412e", "is_disabled": 0, "lat": 38.922474666666666, "rental_uris": {"ios": "https://dc.lft.to/lastmile_qr_scan", "android": "https://dc.lft.to/lastmile_qr_scan"}, "is_reserved": 0, "lon": -77.03894766666667, "fusion_lat": 0.0, "name": "2452ff69f82a7e165b39e0ee43c7412e"}, {"type": "electric_bike", "fusion_lon": 0.0, "bike_id": "0145713ac84515747d86ec883e4f5fd4", "is_disabled": 0, "lat": 38.957539833333335, "rental_uris": {"ios": "https://dc.lft.to/lastmile_qr_scan", "android": "https://dc.lft.to/lastmile_qr_scan"}, "is_reserved": 0, "lon": -76.980254, "fusion_lat": 0.0, "name": "0145713ac84515747d86ec883e4f5fd4"}, {"type": "electric_scooter", "fusion_lon": 0.0, "bike_id": "3703d306adfb192e630ae5fd182983c3", "is_disabled": 0, "lat": 38.9082725, "rental_uris": {"ios": "https://dc.lft.to/lastmile_qr_scan", "android": "https://dc.lft.to/lastmile_qr_scan"}, "is_reserved": 0, "lon": -77.04354433333333, "fusion_lat": 0.0, "name": "3703d306adfb192e630ae5fd182983c3"}, {"type": "electric_bike", "fusion_lon": 0.0, "bike_id": "872957a6baea27d8528d430595b8fc25", "is_disabled": 0, "lat": 38.94155216666667, "rental_uris": {"ios": "https://dc.lft.to/lastmile_qr_scan", "android": "https://dc.lft.to/lastmile_qr_scan"}, "is_reserved": 0, "lon": -77.001949, "fusion_lat": 0.0, "name": "872957a6baea27d8528d430595b8fc25"}, {"type": "electric_scooter", "fusion_lon": 0.0, "bike_id": "22736b93393a3c76b0ea5da8354d6d5b", "is_disabled": 0, "lat": 38.90192416666667, "rental_uris": {"ios": "https://dc.lft.to/lastmile_qr_scan", "android": "https://dc.lft.to/lastmile_qr_scan"}, "is_reserved": 0, "lon": -76.92635733333333, "fusion_lat": 0.0, "name": "22736b93393a3c76b0ea5da8354d6d5b"}, {"type": "electric_scooter", "fusion_lon": 0.0, "bike_id": "41814b917c06f0ed336152f699e05f8d", "is_disabled": 0, "lat": 38.8719475, "rental_uris": {"ios": "https://dc.lft.to/lastmile_qr_scan", "android": "https://dc.lft.to/lastmile_qr_scan"}, "is_reserved": 0, "lon": -77.00957733333334, "fusion_lat": 0.0, "name": "41814b917c06f0ed336152f699e05f8d"}, {"type": "electric_scooter", "fusion_lon": 0.0, "bike_id": "3da0342e1dec891998615a77d0e5b848", "is_disabled": 0, "lat": 38.924744, "rental_uris": {"ios": "https://dc.lft.to/lastmile_qr_scan", "android": "https://dc.lft.to/lastmile_qr_scan"}, "is_reserved": 0, "lon": -77.02221333333334, "fusion_lat": 0.0, "name": "3da0342e1dec891998615a77d0e5b848"}, {"type": "electric_scooter", "fusion_lon": 0.0, "bike_id": "ce4e6e34c5c0d74fdea1213cfc1f44ed", "is_disabled": 0, "lat": 38.915518666666664, "rental_uris": {"ios": "https://dc.lft.to/lastmile_qr_scan", "android": "https://dc.lft.to/lastmile_qr_scan"}, "is_reserved": 0, "lon": -77.03858833333334, "fusion_lat": 0.0, "name": "ce4e6e34c5c0d74fdea1213cfc1f44ed"}, {"type": "electric_scooter", "fusion_lon": 0.0, "bike_id": "d3c8b94b42990ebe6e6e35d64c7eac6c", "is_disabled": 0, "lat": 38.9251405, "rental_uris": {"ios": "https://dc.lft.to/lastmile_qr_scan", "android": "https://dc.lft.to/lastmile_qr_scan"}, "is_reserved": 0, "lon": -77.02257683333333, "fusion_lat": 0.0, "name": "d3c8b94b42990ebe6e6e35d64c7eac6c"}, {"type": "electric_scooter", "fusion_lon": 0.0, "bike_id": "0331dd73074608d550018786b3f3710c", "is_disabled": 0, "lat": 38.91566683333333, "rental_uris": {"ios": "https://dc.lft.to/lastmile_qr_scan", "android": "https://dc.lft.to/lastmile_qr_scan"}, "is_reserved": 0, "lon": -77.03323183333333, "fusion_lat": 0.0, "name": "0331dd73074608d550018786b3f3710c"}, {"type": "electric_scooter", "fusion_lon": 0.0, "bike_id": "b0f985a911d96738cd17c228e401ac33", "is_disabled": 0, "lat": 38.8922235, "rental_uris": {"ios": "https://dc.lft.to/lastmile_qr_scan", "android": "https://dc.lft.to/lastmile_qr_scan"}, "is_reserved": 0, "lon": -77.048679, "fusion_lat": 0.0, "name": "b0f985a911d96738cd17c228e401ac33"}, {"type": "electric_scooter", "fusion_lon": 0.0, "bike_id": "92cc75834ff271d45fdef055851eaac9", "is_disabled": 0, "lat": 38.918123666666666, "rental_uris": {"ios": "https://dc.lft.to/lastmile_qr_scan", "android": "https://dc.lft.to/lastmile_qr_scan"}, "is_reserved": 0, "lon": -77.03440783333333, "fusion_lat": 0.0, "name": "92cc75834ff271d45fdef055851eaac9"}, {"type": "electric_scooter", "fusion_lon": 0.0, "bike_id": "08e71faddbce4552658e181b6940101f", "is_disabled": 0, "lat": 38.89266716666667, "rental_uris": {"ios": "https://dc.lft.to/lastmile_qr_scan", "android": "https://dc.lft.to/lastmile_qr_scan"}, "is_reserved": 0, "lon": -77.0420355, "fusion_lat": 0.0, "name": "08e71faddbce4552658e181b6940101f"}, {"type": "electric_scooter", "fusion_lon": 0.0, "bike_id": "2c439a664061fe6c1d27cf27ee98f7c7", "is_disabled": 0, "lat": 38.91420033333333, "rental_uris": {"ios": "https://dc.lft.to/lastmile_qr_scan", "android": "https://dc.lft.to/lastmile_qr_scan"}, "is_reserved": 0, "lon": -77.04501333333333, "fusion_lat": 0.0, "name": "2c439a664061fe6c1d27cf27ee98f7c7"}, {"type": "electric_scooter", "fusion_lon": 0.0, "bike_id": "798dfb65d447fa24ae76c49d8e06d231", "is_disabled": 0, "lat": 38.87552866666667, "rental_uris": {"ios": "https://dc.lft.to/lastmile_qr_scan", "android": "https://dc.lft.to/lastmile_qr_scan"}, "is_reserved": 0, "lon": -76.9649225, "fusion_lat": 0.0, "name": "798dfb65d447fa24ae76c49d8e06d231"}, {"type": "electric_scooter", "fusion_lon": 0.0, "bike_id": "addf5b1ea3c8311a9291bcee03d848b9", "is_disabled": 0, "lat": 38.870839333333336, "rental_uris": {"ios": "https://dc.lft.to/lastmile_qr_scan", "android": "https://dc.lft.to/lastmile_qr_scan"}, "is_reserved": 0, "lon": -76.9657005, "fusion_lat": 0.0, "name": "addf5b1ea3c8311a9291bcee03d848b9"}, {"type": "electric_scooter", "fusion_lon": 0.0, "bike_id": "1e0a3c94c3fb36751856d43b1e240599", "is_disabled": 0, "lat": 38.9142665, "rental_uris": {"ios": "https://dc.lft.to/lastmile_qr_scan", "android": "https://dc.lft.to/lastmile_qr_scan"}, "is_reserved": 0, "lon": -77.03813966666667, "fusion_lat": 0.0, "name": "1e0a3c94c3fb36751856d43b1e240599"}, {"type": "electric_scooter", "fusion_lon": 0.0, "bike_id": "ad5eecfb893aa366f0d03ef5f299cc31", "is_disabled": 0, "lat": 38.9143895, "rental_uris": {"ios": "https://dc.lft.to/lastmile_qr_scan", "android": "https://dc.lft.to/lastmile_qr_scan"}, "is_reserved": 0, "lon": -77.04183333333333, "fusion_lat": 0.0, "name": "ad5eecfb893aa366f0d03ef5f299cc31"}, {"type": "electric_bike", "fusion_lon": 0.0, "bike_id": "c0cd92879eb0e23d73a6c1e5c28e36ba", "is_disabled": 0, "lat": 38.94515233333333, "rental_uris": {"ios": "https://dc.lft.to/lastmile_qr_scan", "android": "https://dc.lft.to/lastmile_qr_scan"}, "is_reserved": 0, "lon": -77.00676, "fusion_lat": 0.0, "name": "c0cd92879eb0e23d73a6c1e5c28e36ba"}, {"type": "electric_scooter", "fusion_lon": 0.0, "bike_id": "a06bd3a884a5f264c3cbcfb49ffc4a8a", "is_disabled": 0, "lat": 38.89709833333333, "rental_uris": {"ios": "https://dc.lft.to/lastmile_qr_scan", "android": "https://dc.lft.to/lastmile_qr_scan"}, "is_reserved": 0, "lon": -77.02469416666666, "fusion_lat": 0.0, "name": "a06bd3a884a5f264c3cbcfb49ffc4a8a"}, {"type": "electric_scooter", "fusion_lon": 0.0, "bike_id": "fb2b9146e2a1279a940f099a689ded37", "is_disabled": 0, "lat": 38.93368016666667, "rental_uris": {"ios": "https://dc.lft.to/lastmile_qr_scan", "android": "https://dc.lft.to/lastmile_qr_scan"}, "is_reserved": 0, "lon": -77.02652816666667, "fusion_lat": 0.0, "name": "fb2b9146e2a1279a940f099a689ded37"}, {"type": "electric_scooter", "fusion_lon": 0.0, "bike_id": "6eda7116eaafdadc82975717d11bf7a5", "is_disabled": 0, "lat": 38.9335275, "rental_uris": {"ios": "https://dc.lft.to/lastmile_qr_scan", "android": "https://dc.lft.to/lastmile_qr_scan"}, "is_reserved": 0, "lon": -77.03659233333333, "fusion_lat": 0.0, "name": "6eda7116eaafdadc82975717d11bf7a5"}, {"type": "electric_scooter", "fusion_lon": 0.0, "bike_id": "d4f415f5b62be332b5f95eb9c1976c74", "is_disabled": 0, "lat": 38.917028333333334, "rental_uris": {"ios": "https://dc.lft.to/lastmile_qr_scan", "android": "https://dc.lft.to/lastmile_qr_scan"}, "is_reserved": 0, "lon": -77.03471066666667, "fusion_lat": 0.0, "name": "d4f415f5b62be332b5f95eb9c1976c74"}, {"type": "electric_scooter", "fusion_lon": 0.0, "bike_id": "eabea51f523d0e9728f779fef14b7871", "is_disabled": 0, "lat": 38.908512333333334, "rental_uris": {"ios": "https://dc.lft.to/lastmile_qr_scan", "android": "https://dc.lft.to/lastmile_qr_scan"}, "is_reserved": 0, "lon": -76.99690366666667, "fusion_lat": 0.0, "name": "eabea51f523d0e9728f779fef14b7871"}, {"type": "electric_scooter", "fusion_lon": 0.0, "bike_id": "a7f21fd80b226a89896e453d2b6308d8", "is_disabled": 0, "lat": 38.924225666666665, "rental_uris": {"ios": "https://dc.lft.to/lastmile_qr_scan", "android": "https://dc.lft.to/lastmile_qr_scan"}, "is_reserved": 0, "lon": -77.01951533333333, "fusion_lat": 0.0, "name": "a7f21fd80b226a89896e453d2b6308d8"}, {"type": "electric_scooter", "fusion_lon": 0.0, "bike_id": "0c0c39545d07bded16f83850c271ddfd", "is_disabled": 0, "lat": 38.9103555, "rental_uris": {"ios": "https://dc.lft.to/lastmile_qr_scan", "android": "https://dc.lft.to/lastmile_qr_scan"}, "is_reserved": 0, "lon": -77.0341365, "fusion_lat": 0.0, "name": "0c0c39545d07bded16f83850c271ddfd"}, {"type": "electric_scooter", "fusion_lon": 0.0, "bike_id": "4b27b00e5cd7f7e7e37f6432ea3fbcfe", "is_disabled": 0, "lat": 38.894843333333334, "rental_uris": {"ios": "https://dc.lft.to/lastmile_qr_scan", "android": "https://dc.lft.to/lastmile_qr_scan"}, "is_reserved": 0, "lon": -77.00072116666666, "fusion_lat": 0.0, "name": "4b27b00e5cd7f7e7e37f6432ea3fbcfe"}, {"type": "electric_scooter", "fusion_lon": 0.0, "bike_id": "34ed59146ee318f8bac24896ac51955d", "is_disabled": 0, "lat": 38.90037216666666, "rental_uris": {"ios": "https://dc.lft.to/lastmile_qr_scan", "android": "https://dc.lft.to/lastmile_qr_scan"}, "is_reserved": 0, "lon": -77.01776366666667, "fusion_lat": 0.0, "name": "34ed59146ee318f8bac24896ac51955d"}, {"type": "electric_scooter", "fusion_lon": 0.0, "bike_id": "67657c7b872f678621ed6f2ffb233dc7", "is_disabled": 0, "lat": 38.920701333333334, "rental_uris": {"ios": "https://dc.lft.to/lastmile_qr_scan", "android": "https://dc.lft.to/lastmile_qr_scan"}, "is_reserved": 0, "lon": -77.02502183333333, "fusion_lat": 0.0, "name": "67657c7b872f678621ed6f2ffb233dc7"}, {"type": "electric_scooter", "fusion_lon": 0.0, "bike_id": "edff3b73fe4f05e19dec847bafa841f9", "is_disabled": 0, "lat": 38.85269483333333, "rental_uris": {"ios": "https://dc.lft.to/lastmile_qr_scan", "android": "https://dc.lft.to/lastmile_qr_scan"}, "is_reserved": 0, "lon": -76.96995, "fusion_lat": 0.0, "name": "edff3b73fe4f05e19dec847bafa841f9"}, {"type": "electric_scooter", "fusion_lon": 0.0, "bike_id": "0a5f5dfdf2e4d86a5d8b1dcefb5200a8", "is_disabled": 0, "lat": 38.91612516666667, "rental_uris": {"ios": "https://dc.lft.to/lastmile_qr_scan", "android": "https://dc.lft.to/lastmile_qr_scan"}, "is_reserved": 0, "lon": -77.048945, "fusion_lat": 0.0, "name": "0a5f5dfdf2e4d86a5d8b1dcefb5200a8"}, {"type": "electric_bike", "fusion_lon": 0.0, "bike_id": "fe3853a6ba777d1be6baddb237ef04ec", "is_disabled": 0, "lat": 38.84189083333333, "rental_uris": {"ios": "https://dc.lft.to/lastmile_qr_scan", "android": "https://dc.lft.to/lastmile_qr_scan"}, "is_reserved": 0, "lon": -77.11356966666666, "fusion_lat": 0.0, "name": "fe3853a6ba777d1be6baddb237ef04ec"}, {"type": "electric_bike", "fusion_lon": 0.0, "bike_id": "f84191112274760dee4f990b5c2f364c", "is_disabled": 0, "lat": 39.0341905, "rental_uris": {"ios": "https://dc.lft.to/lastmile_qr_scan", "android": "https://dc.lft.to/lastmile_qr_scan"}, "is_reserved": 0, "lon": -77.04314666666667, "fusion_lat": 0.0, "name": "f84191112274760dee4f990b5c2f364c"}, {"type": "electric_scooter", "fusion_lon": 0.0, "bike_id": "3f578f477c23374d93d67e070ece70dd", "is_disabled": 0, "lat": 38.923354, "rental_uris": {"ios": "https://dc.lft.to/lastmile_qr_scan", "android": "https://dc.lft.to/lastmile_qr_scan"}, "is_reserved": 0, "lon": -77.04154466666667, "fusion_lat": 0.0, "name": "3f578f477c23374d93d67e070ece70dd"}, {"type": "electric_scooter", "fusion_lon": 0.0, "bike_id": "bcae449f696b8250dd40bc5cc3f2237c", "is_disabled": 0, "lat": 38.912856, "rental_uris": {"ios": "https://dc.lft.to/lastmile_qr_scan", "android": "https://dc.lft.to/lastmile_qr_scan"}, "is_reserved": 0, "lon": -77.04514133333333, "fusion_lat": 0.0, "name": "bcae449f696b8250dd40bc5cc3f2237c"}, {"type": "electric_scooter", "fusion_lon": 0.0, "bike_id": "2e317541f80e96d0399c16a69cedcfbd", "is_disabled": 0, "lat": 38.907081833333336, "rental_uris": {"ios": "https://dc.lft.to/lastmile_qr_scan", "android": "https://dc.lft.to/lastmile_qr_scan"}, "is_reserved": 0, "lon": -77.0359095, "fusion_lat": 0.0, "name": "2e317541f80e96d0399c16a69cedcfbd"}, {"type": "electric_scooter", "fusion_lon": 0.0, "bike_id": "bdf9669ba72c446b307add973966e0d7", "is_disabled": 0, "lat": 38.8984095, "rental_uris": {"ios": "https://dc.lft.to/lastmile_qr_scan", "android": "https://dc.lft.to/lastmile_qr_scan"}, "is_reserved": 0, "lon": -77.0489105, "fusion_lat": 0.0, "name": "bdf9669ba72c446b307add973966e0d7"}, {"type": "electric_scooter", "fusion_lon": 0.0, "bike_id": "dce61dba4c3abb564583b341ec41b524", "is_disabled": 0, "lat": 38.91946766666667, "rental_uris": {"ios": "https://dc.lft.to/lastmile_qr_scan", "android": "https://dc.lft.to/lastmile_qr_scan"}, "is_reserved": 0, "lon": -77.03187516666667, "fusion_lat": 0.0, "name": "dce61dba4c3abb564583b341ec41b524"}, {"type": "electric_scooter", "fusion_lon": 0.0, "bike_id": "4003afb3854654c5eb38dfa793b800d7", "is_disabled": 0, "lat": 38.925487333333336, "rental_uris": {"ios": "https://dc.lft.to/lastmile_qr_scan", "android": "https://dc.lft.to/lastmile_qr_scan"}, "is_reserved": 0, "lon": -77.00072133333333, "fusion_lat": 0.0, "name": "4003afb3854654c5eb38dfa793b800d7"}, {"type": "electric_scooter", "fusion_lon": 0.0, "bike_id": "3e297b05fa5245af3bb63eaf1c7fac55", "is_disabled": 0, "lat": 38.91987066666667, "rental_uris": {"ios": "https://dc.lft.to/lastmile_qr_scan", "android": "https://dc.lft.to/lastmile_qr_scan"}, "is_reserved": 0, "lon": -77.02493883333334, "fusion_lat": 0.0, "name": "3e297b05fa5245af3bb63eaf1c7fac55"}, {"type": "electric_bike", "fusion_lon": 0.0, "bike_id": "901c75845e207eae735313043905b588", "is_disabled": 0, "lat": 38.92659533333333, "rental_uris": {"ios": "https://dc.lft.to/lastmile_qr_scan", "android": "https://dc.lft.to/lastmile_qr_scan"}, "is_reserved": 0, "lon": -77.0901445, "fusion_lat": 0.0, "name": "901c75845e207eae735313043905b588"}, {"type": "electric_scooter", "fusion_lon": 0.0, "bike_id": "5f949344a06b3da553dbcc43cec84092", "is_disabled": 0, "lat": 38.8994525, "rental_uris": {"ios": "https://dc.lft.to/lastmile_qr_scan", "android": "https://dc.lft.to/lastmile_qr_scan"}, "is_reserved": 0, "lon": -77.0200055, "fusion_lat": 0.0, "name": "5f949344a06b3da553dbcc43cec84092"}, {"type": "electric_bike", "fusion_lon": 0.0, "bike_id": "9ba17f3e9e55f613bdca2bd006ce3630", "is_disabled": 0, "lat": 38.98104433333334, "rental_uris": {"ios": "https://dc.lft.to/lastmile_qr_scan", "android": "https://dc.lft.to/lastmile_qr_scan"}, "is_reserved": 0, "lon": -77.0076265, "fusion_lat": 0.0, "name": "9ba17f3e9e55f613bdca2bd006ce3630"}, {"type": "electric_scooter", "fusion_lon": 0.0, "bike_id": "d8100bac794631036168017083b3c7f5", "is_disabled": 0, "lat": 38.9643855, "rental_uris": {"ios": "https://dc.lft.to/lastmile_qr_scan", "android": "https://dc.lft.to/lastmile_qr_scan"}, "is_reserved": 0, "lon": -77.01998633333334, "fusion_lat": 0.0, "name": "d8100bac794631036168017083b3c7f5"}, {"type": "electric_scooter", "fusion_lon": 0.0, "bike_id": "9496aa252fe58ef96dc7ce8f0e95202c", "is_disabled": 0, "lat": 38.91816983333333, "rental_uris": {"ios": "https://dc.lft.to/lastmile_qr_scan", "android": "https://dc.lft.to/lastmile_qr_scan"}, "is_reserved": 0, "lon": -77.02530033333333, "fusion_lat": 0.0, "name": "9496aa252fe58ef96dc7ce8f0e95202c"}, {"type": "electric_scooter", "fusion_lon": 0.0, "bike_id": "9084ae83b782fbb5ebceaa014ec61e03", "is_disabled": 0, "lat": 38.886336666666665, "rental_uris": {"ios": "https://dc.lft.to/lastmile_qr_scan", "android": "https://dc.lft.to/lastmile_qr_scan"}, "is_reserved": 0, "lon": -77.021359, "fusion_lat": 0.0, "name": "9084ae83b782fbb5ebceaa014ec61e03"}, {"type": "electric_scooter", "fusion_lon": 0.0, "bike_id": "731bdb12133592b50f8dfd5ad580fb69", "is_disabled": 0, "lat": 38.9165295, "rental_uris": {"ios": "https://dc.lft.to/lastmile_qr_scan", "android": "https://dc.lft.to/lastmile_qr_scan"}, "is_reserved": 0, "lon": -77.0320905, "fusion_lat": 0.0, "name": "731bdb12133592b50f8dfd5ad580fb69"}, {"type": "electric_bike", "fusion_lon": 0.0, "bike_id": "539635400ac20e211c923382fc70d1e5", "is_disabled": 0, "lat": 38.850844, "rental_uris": {"ios": "https://dc.lft.to/lastmile_qr_scan", "android": "https://dc.lft.to/lastmile_qr_scan"}, "is_reserved": 0, "lon": -76.95697883333334, "fusion_lat": 0.0, "name": "539635400ac20e211c923382fc70d1e5"}, {"type": "electric_scooter", "fusion_lon": 0.0, "bike_id": "a9534d944d53955060c8211c26e74a62", "is_disabled": 0, "lat": 38.9112005, "rental_uris": {"ios": "https://dc.lft.to/lastmile_qr_scan", "android": "https://dc.lft.to/lastmile_qr_scan"}, "is_reserved": 0, "lon": -77.020893, "fusion_lat": 0.0, "name": "a9534d944d53955060c8211c26e74a62"}, {"type": "electric_scooter", "fusion_lon": 0.0, "bike_id": "2e5f984d3dd253c58fca64e77023d31e", "is_disabled": 0, "lat": 38.923218, "rental_uris": {"ios": "https://dc.lft.to/lastmile_qr_scan", "android": "https://dc.lft.to/lastmile_qr_scan"}, "is_reserved": 0, "lon": -77.0195385, "fusion_lat": 0.0, "name": "2e5f984d3dd253c58fca64e77023d31e"}, {"type": "electric_scooter", "fusion_lon": 0.0, "bike_id": "f381463adb8ef857292c320f9861e382", "is_disabled": 0, "lat": 38.879418666666666, "rental_uris": {"ios": "https://dc.lft.to/lastmile_qr_scan", "android": "https://dc.lft.to/lastmile_qr_scan"}, "is_reserved": 0, "lon": -77.01472166666667, "fusion_lat": 0.0, "name": "f381463adb8ef857292c320f9861e382"}, {"type": "electric_scooter", "fusion_lon": 0.0, "bike_id": "7de4fdd349f2297be6468309d1c7d8b2", "is_disabled": 0, "lat": 38.9322005, "rental_uris": {"ios": "https://dc.lft.to/lastmile_qr_scan", "android": "https://dc.lft.to/lastmile_qr_scan"}, "is_reserved": 0, "lon": -77.03521833333333, "fusion_lat": 0.0, "name": "7de4fdd349f2297be6468309d1c7d8b2"}, {"type": "electric_scooter", "fusion_lon": 0.0, "bike_id": "2c1dceb12e8b627257d62e608bea235c", "is_disabled": 0, "lat": 38.862173166666665, "rental_uris": {"ios": "https://dc.lft.to/lastmile_qr_scan", "android": "https://dc.lft.to/lastmile_qr_scan"}, "is_reserved": 0, "lon": -76.994834, "fusion_lat": 0.0, "name": "2c1dceb12e8b627257d62e608bea235c"}, {"type": "electric_scooter", "fusion_lon": 0.0, "bike_id": "078960148012bcbe5d92a5303f49a6a4", "is_disabled": 0, "lat": 38.93558733333333, "rental_uris": {"ios": "https://dc.lft.to/lastmile_qr_scan", "android": "https://dc.lft.to/lastmile_qr_scan"}, "is_reserved": 0, "lon": -77.07461233333333, "fusion_lat": 0.0, "name": "078960148012bcbe5d92a5303f49a6a4"}, {"type": "electric_scooter", "fusion_lon": 0.0, "bike_id": "dc26b3220e5fcdbdba2a58a514420793", "is_disabled": 0, "lat": 38.87661516666667, "rental_uris": {"ios": "https://dc.lft.to/lastmile_qr_scan", "android": "https://dc.lft.to/lastmile_qr_scan"}, "is_reserved": 0, "lon": -77.00062716666666, "fusion_lat": 0.0, "name": "dc26b3220e5fcdbdba2a58a514420793"}, {"type": "electric_scooter", "fusion_lon": 0.0, "bike_id": "8f50b9a824e873fc3579e264529e7e62", "is_disabled": 0, "lat": 38.914026166666666, "rental_uris": {"ios": "https://dc.lft.to/lastmile_qr_scan", "android": "https://dc.lft.to/lastmile_qr_scan"}, "is_reserved": 0, "lon": -77.03222666666667, "fusion_lat": 0.0, "name": "8f50b9a824e873fc3579e264529e7e62"}, {"type": "electric_scooter", "fusion_lon": 0.0, "bike_id": "a658feed6ea631a16c01415ddbff3a38", "is_disabled": 0, "lat": 38.9238655, "rental_uris": {"ios": "https://dc.lft.to/lastmile_qr_scan", "android": "https://dc.lft.to/lastmile_qr_scan"}, "is_reserved": 0, "lon": -77.027026, "fusion_lat": 0.0, "name": "a658feed6ea631a16c01415ddbff3a38"}, {"type": "electric_bike", "fusion_lon": 0.0, "bike_id": "edf1908493e3707cef831a026d3ead85", "is_disabled": 0, "lat": 38.83610383333333, "rental_uris": {"ios": "https://dc.lft.to/lastmile_qr_scan", "android": "https://dc.lft.to/lastmile_qr_scan"}, "is_reserved": 0, "lon": -77.00382083333334, "fusion_lat": 0.0, "name": "edf1908493e3707cef831a026d3ead85"}, {"type": "electric_scooter", "fusion_lon": 0.0, "bike_id": "b4337a2d8600cd19fc648c336d966a65", "is_disabled": 0, "lat": 38.915672666666666, "rental_uris": {"ios": "https://dc.lft.to/lastmile_qr_scan", "android": "https://dc.lft.to/lastmile_qr_scan"}, "is_reserved": 0, "lon": -77.0417385, "fusion_lat": 0.0, "name": "b4337a2d8600cd19fc648c336d966a65"}, {"type": "electric_scooter", "fusion_lon": 0.0, "bike_id": "20c4b3bbdcc02b33b6417e6dfbac37d3", "is_disabled": 0, "lat": 38.90501533333333, "rental_uris": {"ios": "https://dc.lft.to/lastmile_qr_scan", "android": "https://dc.lft.to/lastmile_qr_scan"}, "is_reserved": 0, "lon": -77.03489116666667, "fusion_lat": 0.0, "name": "20c4b3bbdcc02b33b6417e6dfbac37d3"}, {"type": "electric_scooter", "fusion_lon": 0.0, "bike_id": "c64b6f3114180778afaf183e75fe9d7c", "is_disabled": 0, "lat": 38.913443666666666, "rental_uris": {"ios": "https://dc.lft.to/lastmile_qr_scan", "android": "https://dc.lft.to/lastmile_qr_scan"}, "is_reserved": 0, "lon": -77.0320335, "fusion_lat": 0.0, "name": "c64b6f3114180778afaf183e75fe9d7c"}, {"type": "electric_scooter", "fusion_lon": 0.0, "bike_id": "686933ffea9ffd50c71c6a1af7f5d1e2", "is_disabled": 0, "lat": 38.90643083333333, "rental_uris": {"ios": "https://dc.lft.to/lastmile_qr_scan", "android": "https://dc.lft.to/lastmile_qr_scan"}, "is_reserved": 0, "lon": -77.017697, "fusion_lat": 0.0, "name": "686933ffea9ffd50c71c6a1af7f5d1e2"}, {"type": "electric_scooter", "fusion_lon": 0.0, "bike_id": "fb34294d4531c30f637a6cee486e6599", "is_disabled": 0, "lat": 38.88718383333333, "rental_uris": {"ios": "https://dc.lft.to/lastmile_qr_scan", "android": "https://dc.lft.to/lastmile_qr_scan"}, "is_reserved": 0, "lon": -77.02206266666667, "fusion_lat": 0.0, "name": "fb34294d4531c30f637a6cee486e6599"}, {"type": "electric_scooter", "fusion_lon": 0.0, "bike_id": "b841e3fd502e210755635625012af8b2", "is_disabled": 0, "lat": 38.88724233333333, "rental_uris": {"ios": "https://dc.lft.to/lastmile_qr_scan", "android": "https://dc.lft.to/lastmile_qr_scan"}, "is_reserved": 0, "lon": -76.98357216666666, "fusion_lat": 0.0, "name": "b841e3fd502e210755635625012af8b2"}, {"type": "electric_scooter", "fusion_lon": 0.0, "bike_id": "812810e14ed936650f274166acc87c8b", "is_disabled": 0, "lat": 38.89535766666667, "rental_uris": {"ios": "https://dc.lft.to/lastmile_qr_scan", "android": "https://dc.lft.to/lastmile_qr_scan"}, "is_reserved": 0, "lon": -76.94929066666667, "fusion_lat": 0.0, "name": "812810e14ed936650f274166acc87c8b"}, {"type": "electric_scooter", "fusion_lon": 0.0, "bike_id": "43c25292d6d200206e58a6b9dda36384", "is_disabled": 0, "lat": 38.86504333333333, "rental_uris": {"ios": "https://dc.lft.to/lastmile_qr_scan", "android": "https://dc.lft.to/lastmile_qr_scan"}, "is_reserved": 0, "lon": -76.989919, "fusion_lat": 0.0, "name": "43c25292d6d200206e58a6b9dda36384"}, {"type": "electric_bike", "fusion_lon": 0.0, "bike_id": "6cb720e6fa4297f86ae51ca748f52f7c", "is_disabled": 0, "lat": 38.965307333333335, "rental_uris": {"ios": "https://dc.lft.to/lastmile_qr_scan", "android": "https://dc.lft.to/lastmile_qr_scan"}, "is_reserved": 0, "lon": -77.02816666666666, "fusion_lat": 0.0, "name": "6cb720e6fa4297f86ae51ca748f52f7c"}, {"type": "electric_scooter", "fusion_lon": 0.0, "bike_id": "6a0b9f38e12ea3397d9026ae63398f91", "is_disabled": 0, "lat": 38.90003866666667, "rental_uris": {"ios": "https://dc.lft.to/lastmile_qr_scan", "android": "https://dc.lft.to/lastmile_qr_scan"}, "is_reserved": 0, "lon": -77.00394116666666, "fusion_lat": 0.0, "name": "6a0b9f38e12ea3397d9026ae63398f91"}, {"type": "electric_scooter", "fusion_lon": 0.0, "bike_id": "292c26d79b7fe1d0718467b0c5c69f65", "is_disabled": 0, "lat": 38.917964833333336, "rental_uris": {"ios": "https://dc.lft.to/lastmile_qr_scan", "android": "https://dc.lft.to/lastmile_qr_scan"}, "is_reserved": 0, "lon": -77.03211416666667, "fusion_lat": 0.0, "name": "292c26d79b7fe1d0718467b0c5c69f65"}, {"type": "electric_scooter", "fusion_lon": 0.0, "bike_id": "143cf578e45a8b7f962df856e22e7a14", "is_disabled": 0, "lat": 38.922534, "rental_uris": {"ios": "https://dc.lft.to/lastmile_qr_scan", "android": "https://dc.lft.to/lastmile_qr_scan"}, "is_reserved": 0, "lon": -77.0195555, "fusion_lat": 0.0, "name": "143cf578e45a8b7f962df856e22e7a14"}, {"type": "electric_scooter", "fusion_lon": 0.0, "bike_id": "4a17f742609c9ffeb5e04f591af67764", "is_disabled": 0, "lat": 38.92616433333333, "rental_uris": {"ios": "https://dc.lft.to/lastmile_qr_scan", "android": "https://dc.lft.to/lastmile_qr_scan"}, "is_reserved": 0, "lon": -77.03962433333334, "fusion_lat": 0.0, "name": "4a17f742609c9ffeb5e04f591af67764"}, {"type": "electric_scooter", "fusion_lon": 0.0, "bike_id": "d652c4a82c27595bd261b049f588efd9", "is_disabled": 0, "lat": 38.948032166666664, "rental_uris": {"ios": "https://dc.lft.to/lastmile_qr_scan", "android": "https://dc.lft.to/lastmile_qr_scan"}, "is_reserved": 0, "lon": -77.0790905, "fusion_lat": 0.0, "name": "d652c4a82c27595bd261b049f588efd9"}, {"type": "electric_scooter", "fusion_lon": 0.0, "bike_id": "961ff2d33ac799e31c75bd764951a8ef", "is_disabled": 0, "lat": 38.93283616666667, "rental_uris": {"ios": "https://dc.lft.to/lastmile_qr_scan", "android": "https://dc.lft.to/lastmile_qr_scan"}, "is_reserved": 0, "lon": -77.02514983333333, "fusion_lat": 0.0, "name": "961ff2d33ac799e31c75bd764951a8ef"}, {"type": "electric_scooter", "fusion_lon": 0.0, "bike_id": "76a2e8cc36e2db0e8883354f664eea6e", "is_disabled": 0, "lat": 38.89846333333333, "rental_uris": {"ios": "https://dc.lft.to/lastmile_qr_scan", "android": "https://dc.lft.to/lastmile_qr_scan"}, "is_reserved": 0, "lon": -76.94260533333333, "fusion_lat": 0.0, "name": "76a2e8cc36e2db0e8883354f664eea6e"},