{"data": {"bikes": [{"fusion_lat": 0.0, "name": "d66048a07b3b7f5ed354d14aaffd94c2", "is_disabled": 0, "rental_uris": {"android": "https://dc.lft.to/lastmile_qr_scan", "ios": "https://dc.lft.to/lastmile_qr_scan"}, "fusion_lon": 0.0, "lat": 38.903954666666664, "bike_id": "d66048a07b3b7f5ed354d14aaffd94c2", "type": "electric_scooter", "is_reserved": 0, "lon": -77.04346816666667}, {"fusion_lat": 0.0, "name": "fbab6c658dc8d253df6f1c5ab5b48414", "is_disabled": 0, "rental_uris": {"android": "https://dc.lft.to/lastmile_qr_scan", "ios": "https://dc.lft.to/lastmile_qr_scan"}, "fusion_lon": 0.0, "lat": 38.9169125, "bike_id": "fbab6c658dc8d253df6f1c5ab5b48414", "type": "electric_scooter", "is_reserved": 0, "lon": -77.02597116666666}, {"fusion_lat": 0.0, "name": "fb7f1663231bc62fc938edf10f1f06a2", "is_disabled": 0, "rental_uris": {"android": "https://dc.lft.to/lastmile_qr_scan", "ios": "https://dc.lft.to/lastmile_qr_scan"}, "fusion_lon": 0.0, "lat": 38.897194999999996, "bike_id": "fb7f1663231bc62fc938edf10f1f06a2", "type": "electric_scooter", "is_reserved": 0, "lon": -77.0454195}, {"fusion_lat": 0.0, "name": "9d250c0fb44111dd11e8c6b20960275b", "is_disabled": 0, "rental_uris": {"android": "https://dc.lft.to/lastmile_qr_scan", "ios": "https://dc.lft.to/lastmile_qr_scan"}, "fusion_lon": 0.0, "lat": 38.914036333333335, "bike_id": "9d250c0fb44111dd11e8c6b20960275b", "type": "electric_scooter", "is_reserved": 0, "lon": -77.03906233333333}, {"fusion_lat": 0.0, "name": "b1d606d95271e9a64b609d96eddb0f15", "is_disabled": 0, "rental_uris": {"android": "https://dc.lft.to/lastmile_qr_scan", "ios": "https://dc.lft.to/lastmile_qr_scan"}, "fusion_lon": 0.0, "lat": 38.91879933333333, "bike_id": "b1d606d95271e9a64b609d96eddb0f15", "type": "electric_scooter", "is_reserved": 0, "lon": -77.02969666666667}, {"fusion_lat": 0.0, "name": "78248803b1e39c9dda5416526e0cd75a", "is_disabled": 0, "rental_uris": {"android": "https://dc.lft.to/lastmile_qr_scan", "ios": "https://dc.lft.to/lastmile_qr_scan"}, "fusion_lon": 0.0, "lat": 38.874915333333334, "bike_id": "78248803b1e39c9dda5416526e0cd75a", "type": "electric_bike", "is_reserved": 0, "lon": -77.211231}, {"fusion_lat": 0.0, "name": "dabfeaa2ef5b5277dd2f5a324295aaf5", "is_disabled": 0, "rental_uris": {"android": "https://dc.lft.to/lastmile_qr_scan", "ios": "https://dc.lft.to/lastmile_qr_scan"}, "fusion_lon": 0.0, "lat": 38.896127166666666, "bike_id": "dabfeaa2ef5b5277dd2f5a324295aaf5", "type": "electric_bike", "is_reserved": 0, "lon": -76.90742233333333}, {"fusion_lat": 0.0, "name": "d9957caf3506eac286064594a42016b3", "is_disabled": 0, "rental_uris": {"android": "https://dc.lft.to/lastmile_qr_scan", "ios": "https://dc.lft.to/lastmile_qr_scan"}, "fusion_lon": 0.0, "lat": 38.90733683333333, "bike_id": "d9957caf3506eac286064594a42016b3", "type": "electric_scooter", "is_reserved": 0, "lon": -77.02985916666667}, {"fusion_lat": 0.0, "name": "a189dfbd0204258860042877c784a743", "is_disabled": 0, "rental_uris": {"android": "https://dc.lft.to/lastmile_qr_scan", "ios": "https://dc.lft.to/lastmile_qr_scan"}, "fusion_lon": 0.0, "lat": 38.8922045, "bike_id": "a189dfbd0204258860042877c784a743", "type": "electric_scooter", "is_reserved": 0, "lon": -77.0430935}, {"fusion_lat": 0.0, "name": "f6e75de5c114dd000cfa55c582baea4f", "is_disabled": 0, "rental_uris": {"android": "https://dc.lft.to/lastmile_qr_scan", "ios": "https://dc.lft.to/lastmile_qr_scan"}, "fusion_lon": 0.0, "lat": 38.84610283333333, "bike_id": "f6e75de5c114dd000cfa55c582baea4f", "type": "electric_bike", "is_reserved": 0, "lon": -76.96907533333334}, {"fusion_lat": 0.0, "name": "983aa764a9f9d7c535c896fa15e4d1ff", "is_disabled": 0, "rental_uris": {"android": "https://dc.lft.to/lastmile_qr_scan", "ios": "https://dc.lft.to/lastmile_qr_scan"}, "fusion_lon": 0.0, "lat": 38.90455433333333, "bike_id": "983aa764a9f9d7c535c896fa15e4d1ff", "type": "electric_scooter", "is_reserved": 0, "lon": -77.0310865}, {"fusion_lat": 0.0, "name": "629db89de20e1770b38c86940ed187b4", "is_disabled": 0, "rental_uris": {"android": "https://dc.lft.to/lastmile_qr_scan", "ios": "https://dc.lft.to/lastmile_qr_scan"}, "fusion_lon": 0.0, "lat": 38.914852833333335, "bike_id": "629db89de20e1770b38c86940ed187b4", "type": "electric_bike", "is_reserved": 0, "lon": -77.01017066666667}, {"fusion_lat": 0.0, "name": "3dfc3b41ad82e5b36bdcba1fbce5afdb", "is_disabled": 0, "rental_uris": {"android": "https://dc.lft.to/lastmile_qr_scan", "ios": "https://dc.lft.to/lastmile_qr_scan"}, "fusion_lon": 0.0, "lat": 38.905555666666665, "bike_id": "3dfc3b41ad82e5b36bdcba1fbce5afdb", "type": "electric_scooter", "is_reserved": 0, "lon": -77.00575266666667}, {"fusion_lat": 0.0, "name": "a9b17ca094142b329d228365f0c9cb43", "is_disabled": 0, "rental_uris": {"android": "https://dc.lft.to/lastmile_qr_scan", "ios": "https://dc.lft.to/lastmile_qr_scan"}, "fusion_lon": 0.0, "lat": 38.92980133333333, "bike_id": "a9b17ca094142b329d228365f0c9cb43", "type": "electric_scooter", "is_reserved": 0, "lon": -77.032426}, {"fusion_lat": 0.0, "name": "9a87b001b95078669542f972ee55829d", "is_disabled": 0, "rental_uris": {"android": "https://dc.lft.to/lastmile_qr_scan", "ios": "https://dc.lft.to/lastmile_qr_scan"}, "fusion_lon": 0.0, "lat": 38.887393833333334, "bike_id": "9a87b001b95078669542f972ee55829d", "type": "electric_scooter", "is_reserved": 0, "lon": -77.015321}, {"fusion_lat": 0.0, "name": "51b71487cc3a791935e4b9c655871a13", "is_disabled": 0, "rental_uris": {"android": "https://dc.lft.to/lastmile_qr_scan", "ios": "https://dc.lft.to/lastmile_qr_scan"}, "fusion_lon": 0.0, "lat": 38.894850166666664, "bike_id": "51b71487cc3a791935e4b9c655871a13", "type": "electric_scooter", "is_reserved": 0, "lon": -77.026847}, {"fusion_lat": 0.0, "name": "7987d00b7681f62594cfc3c62fdb3a81", "is_disabled": 0, "rental_uris": {"android": "https://dc.lft.to/lastmile_qr_scan", "ios": "https://dc.lft.to/lastmile_qr_scan"}, "fusion_lon": 0.0, "lat": 38.90018966666667, "bike_id": "7987d00b7681f62594cfc3c62fdb3a81", "type": "electric_scooter", "is_reserved": 0, "lon": -76.99865216666667}, {"fusion_lat": 0.0, "name": "2f1e1659c0e39c30f9a0455f0b5230a0", "is_disabled": 0, "rental_uris": {"android": "https://dc.lft.to/lastmile_qr_scan", "ios": "https://dc.lft.to/lastmile_qr_scan"}, "fusion_lon": 0.0, "lat": 38.89222633333333, "bike_id": "2f1e1659c0e39c30f9a0455f0b5230a0", "type": "electric_scooter", "is_reserved": 0, "lon": -77.02507933333334}, {"fusion_lat": 0.0, "name": "b2f3287acb9e51b05f65309ce7c86564", "is_disabled": 0, "rental_uris": {"android": "https://dc.lft.to/lastmile_qr_scan", "ios": "https://dc.lft.to/lastmile_qr_scan"}, "fusion_lon": 0.0, "lat": 38.92158233333333, "bike_id": "b2f3287acb9e51b05f65309ce7c86564", "type": "electric_scooter", "is_reserved": 0, "lon": -77.03317583333333}, {"fusion_lat": 0.0, "name": "f08c5534e726cf482bb56f815558c171", "is_disabled": 0, "rental_uris": {"android": "https://dc.lft.to/lastmile_qr_scan", "ios": "https://dc.lft.to/lastmile_qr_scan"}, "fusion_lon": 0.0, "lat": 38.86139883333333, "bike_id": "f08c5534e726cf482bb56f815558c171", "type": "electric_bike", "is_reserved": 0, "lon": -76.971679}, {"fusion_lat": 0.0, "name": "e836222b72ab538912a83050e70397c7", "is_disabled": 0, "rental_uris": {"android": "https://dc.lft.to/lastmile_qr_scan", "ios": "https://dc.lft.to/lastmile_qr_scan"}, "fusion_lon": 0.0, "lat": 38.912095, "bike_id": "e836222b72ab538912a83050e70397c7", "type": "electric_scooter", "is_reserved": 0, "lon": -77.038426}, {"fusion_lat": 0.0, "name": "0e9e1639f92c75224b70d8c0ec9b5ba3", "is_disabled": 0, "rental_uris": {"android": "https://dc.lft.to/lastmile_qr_scan", "ios": "https://dc.lft.to/lastmile_qr_scan"}, "fusion_lon": 0.0, "lat": 38.94292383333333, "bike_id": "0e9e1639f92c75224b70d8c0ec9b5ba3", "type": "electric_scooter", "is_reserved": 0, "lon": -77.02173833333333}, {"fusion_lat": 0.0, "name": "23b6af291c9c17e3bb3aa211a3de5e94", "is_disabled": 0, "rental_uris": {"android": "https://dc.lft.to/lastmile_qr_scan", "ios": "https://dc.lft.to/lastmile_qr_scan"}, "fusion_lon": 0.0, "lat": 38.885216166666666, "bike_id": "23b6af291c9c17e3bb3aa211a3de5e94", "type": "electric_scooter", "is_reserved": 0, "lon": -77.002738}, {"fusion_lat": 0.0, "name": "ad938b5a3a8503566600726780873dea", "is_disabled": 0, "rental_uris": {"android": "https://dc.lft.to/lastmile_qr_scan", "ios": "https://dc.lft.to/lastmile_qr_scan"}, "fusion_lon": 0.0, "lat": 38.912258333333334, "bike_id": "ad938b5a3a8503566600726780873dea", "type": "electric_bike", "is_reserved": 0, "lon": -77.026922}, {"fusion_lat": 0.0, "name": "1a7818c8fe126c038efef57ae15b3c6f", "is_disabled": 0, "rental_uris": {"android": "https://dc.lft.to/lastmile_qr_scan", "ios": "https://dc.lft.to/lastmile_qr_scan"}, "fusion_lon": 0.0, "lat": 38.911929666666666, "bike_id": "1a7818c8fe126c038efef57ae15b3c6f", "type": "electric_scooter", "is_reserved": 0, "lon": -77.03838866666666}, {"fusion_lat": 0.0, "name": "12214b628fd8d9c51fd37d123f3665b6", "is_disabled": 0, "rental_uris": {"android": "https://dc.lft.to/lastmile_qr_scan", "ios": "https://dc.lft.to/lastmile_qr_scan"}, "fusion_lon": 0.0, "lat": 38.89952533333334, "bike_id": "12214b628fd8d9c51fd37d123f3665b6", "type": "electric_scooter", "is_reserved": 0, "lon": -76.97531633333334}, {"fusion_lat": 0.0, "name": "c2fee90c83100a0fe11fb98f43ebccce", "is_disabled": 0, "rental_uris": {"android": "https://dc.lft.to/lastmile_qr_scan", "ios": "https://dc.lft.to/lastmile_qr_scan"}, "fusion_lon": 0.0, "lat": 38.926603166666666, "bike_id": "c2fee90c83100a0fe11fb98f43ebccce", "type": "electric_scooter", "is_reserved": 0, "lon": -77.02425833333334}, {"fusion_lat": 0.0, "name": "0f5651e6102c18686a3f13d7c1ef02bc", "is_disabled": 0, "rental_uris": {"android": "https://dc.lft.to/lastmile_qr_scan", "ios": "https://dc.lft.to/lastmile_qr_scan"}, "fusion_lon": 0.0, "lat": 38.86519066666666, "bike_id": "0f5651e6102c18686a3f13d7c1ef02bc", "type": "electric_bike", "is_reserved": 0, "lon": -77.129378}, {"fusion_lat": 0.0, "name": "7aecf472577c47c9327454718b7ef58d", "is_disabled": 0, "rental_uris": {"android": "https://dc.lft.to/lastmile_qr_scan", "ios": "https://dc.lft.to/lastmile_qr_scan"}, "fusion_lon": 0.0, "lat": 38.824668833333334, "bike_id": "7aecf472577c47c9327454718b7ef58d", "type": "electric_bike", "is_reserved": 0, "lon": -77.007914}, {"fusion_lat": 0.0, "name": "b22a92ad52b94160915a5906da25286a", "is_disabled": 0, "rental_uris": {"android": "https://dc.lft.to/lastmile_qr_scan", "ios": "https://dc.lft.to/lastmile_qr_scan"}, "fusion_lon": 0.0, "lat": 38.9237035, "bike_id": "b22a92ad52b94160915a5906da25286a", "type": "electric_scooter", "is_reserved": 0, "lon": -77.050535}, {"fusion_lat": 0.0, "name": "736b540a12a4d82224e75c74f4468ac5", "is_disabled": 0, "rental_uris": {"android": "https://dc.lft.to/lastmile_qr_scan", "ios": "https://dc.lft.to/lastmile_qr_scan"}, "fusion_lon": 0.0, "lat": 38.91694416666667, "bike_id": "736b540a12a4d82224e75c74f4468ac5", "type": "electric_scooter", "is_reserved": 0, "lon": -77.0344065}, {"fusion_lat": 0.0, "name": "dc49ae1f27f7aa6a1c418a2752031ba0", "is_disabled": 0, "rental_uris": {"android": "https://dc.lft.to/lastmile_qr_scan", "ios": "https://dc.lft.to/lastmile_qr_scan"}, "fusion_lon": 0.0, "lat": 38.876334, "bike_id": "dc49ae1f27f7aa6a1c418a2752031ba0", "type": "electric_scooter", "is_reserved": 0, "lon": -77.00734266666667}, {"fusion_lat": 0.0, "name": "fbdf4544d7ca5020ac27ad54540712a7", "is_disabled": 0, "rental_uris": {"android": "https://dc.lft.to/lastmile_qr_scan", "ios": "https://dc.lft.to/lastmile_qr_scan"}, "fusion_lon": 0.0, "lat": 38.902799, "bike_id": "fbdf4544d7ca5020ac27ad54540712a7", "type": "electric_scooter", "is_reserved": 0, "lon": -77.02308616666667}, {"fusion_lat": 0.0, "name": "936ab15c46fbbbe634ce161e0ee73096", "is_disabled": 0, "rental_uris": {"android": "https://dc.lft.to/lastmile_qr_scan", "ios": "https://dc.lft.to/lastmile_qr_scan"}, "fusion_lon": 0.0, "lat": 38.90547566666667, "bike_id": "936ab15c46fbbbe634ce161e0ee73096", "type": "electric_scooter", "is_reserved": 0, "lon": -77.04352783333333}, {"fusion_lat": 0.0, "name": "1542948eed50d5ec2b79a4cbb09c8757", "is_disabled": 0, "rental_uris": {"android": "https://dc.lft.to/lastmile_qr_scan", "ios": "https://dc.lft.to/lastmile_qr_scan"}, "fusion_lon": 0.0, "lat": 38.887648166666665, "bike_id": "1542948eed50d5ec2b79a4cbb09c8757", "type": "electric_scooter", "is_reserved": 0, "lon": -76.977526}, {"fusion_lat": 0.0, "name": "3d81d57d26cc60042888cede8b5045fb", "is_disabled": 0, "rental_uris": {"android": "https://dc.lft.to/lastmile_qr_scan", "ios": "https://dc.lft.to/lastmile_qr_scan"}, "fusion_lon": 0.0, "lat": 38.91075933333333, "bike_id": "3d81d57d26cc60042888cede8b5045fb", "type": "electric_bike", "is_reserved": 0, "lon": -77.06547366666666}, {"fusion_lat": 0.0, "name": "57668f3d809d59ecf48c52f090327664", "is_disabled": 0, "rental_uris": {"android": "https://dc.lft.to/lastmile_qr_scan", "ios": "https://dc.lft.to/lastmile_qr_scan"}, "fusion_lon": 0.0, "lat": 38.91293966666667, "bike_id": "57668f3d809d59ecf48c52f090327664", "type": "electric_scooter", "is_reserved": 0, "lon": -76.98471433333333}, {"fusion_lat": 0.0, "name": "d70cb660a3e8ed7d83fcb2a34361abf2", "is_disabled": 0, "rental_uris": {"android": "https://dc.lft.to/lastmile_qr_scan", "ios": "https://dc.lft.to/lastmile_qr_scan"}, "fusion_lon": 0.0, "lat": 38.9010975, "bike_id": "d70cb660a3e8ed7d83fcb2a34361abf2", "type": "electric_scooter", "is_reserved": 0, "lon": -77.00654166666666}, {"fusion_lat": 0.0, "name": "d7e0baf54d56b540272e098e4db82648", "is_disabled": 0, "rental_uris": {"android": "https://dc.lft.to/lastmile_qr_scan", "ios": "https://dc.lft.to/lastmile_qr_scan"}, "fusion_lon": 0.0, "lat": 38.91260783333333, "bike_id": "d7e0baf54d56b540272e098e4db82648", "type": "electric_scooter", "is_reserved": 0, "lon": -77.04840016666667}, {"fusion_lat": 0.0, "name": "00e9d9509e28df4f6f487922336f82f6", "is_disabled": 0, "rental_uris": {"android": "https://dc.lft.to/lastmile_qr_scan", "ios": "https://dc.lft.to/lastmile_qr_scan"}, "fusion_lon": 0.0, "lat": 38.961561, "bike_id": "00e9d9509e28df4f6f487922336f82f6", "type": "electric_scooter", "is_reserved": 0, "lon": -77.07348216666666}, {"fusion_lat": 0.0, "name": "4dbf04611d7aa81d9b5356576609ffd8", "is_disabled": 0, "rental_uris": {"android": "https://dc.lft.to/lastmile_qr_scan", "ios": "https://dc.lft.to/lastmile_qr_scan"}, "fusion_lon": 0.0, "lat": 38.905883833333334, "bike_id": "4dbf04611d7aa81d9b5356576609ffd8", "type": "electric_scooter", "is_reserved": 0, "lon": -77.0408845}, {"fusion_lat": 0.0, "name": "fbd76a1d75ad586808e8972f7d0fecec", "is_disabled": 0, "rental_uris": {"android": "https://dc.lft.to/lastmile_qr_scan", "ios": "https://dc.lft.to/lastmile_qr_scan"}, "fusion_lon": 0.0, "lat": 38.923067, "bike_id": "fbd76a1d75ad586808e8972f7d0fecec", "type": "electric_scooter", "is_reserved": 0, "lon": -77.0410925}, {"fusion_lat": 0.0, "name": "eefa611688e325a9fb8517714b124069", "is_disabled": 0, "rental_uris": {"android": "https://dc.lft.to/lastmile_qr_scan", "ios": "https://dc.lft.to/lastmile_qr_scan"}, "fusion_lon": 0.0, "lat": 38.893622, "bike_id": "eefa611688e325a9fb8517714b124069", "type": "electric_scooter", "is_reserved": 0, "lon": -76.9259105}, {"fusion_lat": 0.0, "name": "049c10aa758e49027157aa6da6d61bc4", "is_disabled": 0, "rental_uris": {"android": "https://dc.lft.to/lastmile_qr_scan", "ios": "https://dc.lft.to/lastmile_qr_scan"}, "fusion_lon": 0.0, "lat": 38.90952583333333, "bike_id": "049c10aa758e49027157aa6da6d61bc4", "type": "electric_scooter", "is_reserved": 0, "lon": -76.98536383333334}, {"fusion_lat": 0.0, "name": "157d55e1566311e95e93b03b877bea39", "is_disabled": 0, "rental_uris": {"android": "https://dc.lft.to/lastmile_qr_scan", "ios": "https://dc.lft.to/lastmile_qr_scan"}, "fusion_lon": 0.0, "lat": 38.91707383333333, "bike_id": "157d55e1566311e95e93b03b877bea39", "type": "electric_scooter", "is_reserved": 0, "lon": -77.0421455}, {"fusion_lat": 0.0, "name": "7d5e16a57484b24b456fdc563a2dc351", "is_disabled": 0, "rental_uris": {"android": "https://dc.lft.to/lastmile_qr_scan", "ios": "https://dc.lft.to/lastmile_qr_scan"}, "fusion_lon": 0.0, "lat": 38.91699633333333, "bike_id": "7d5e16a57484b24b456fdc563a2dc351", "type": "electric_scooter", "is_reserved": 0, "lon": -77.011657}, {"fusion_lat": 0.0, "name": "6c47ecb26bd8de6546b345a116a09290", "is_disabled": 0, "rental_uris": {"android": "https://dc.lft.to/lastmile_qr_scan", "ios": "https://dc.lft.to/lastmile_qr_scan"}, "fusion_lon": 0.0, "lat": 38.92489533333333, "bike_id": "6c47ecb26bd8de6546b345a116a09290", "type": "electric_scooter", "is_reserved": 0, "lon": -77.02756416666666}, {"fusion_lat": 0.0, "name": "87b0849d3bf132ff4de8633d5734185b", "is_disabled": 0, "rental_uris": {"android": "https://dc.lft.to/lastmile_qr_scan", "ios": "https://dc.lft.to/lastmile_qr_scan"}, "fusion_lon": 0.0, "lat": 38.84587116666667, "bike_id": "87b0849d3bf132ff4de8633d5734185b", "type": "electric_bike", "is_reserved": 0, "lon": -76.98166033333334}, {"fusion_lat": 0.0, "name": "1413dfdac42dded4c5d5cb4fa4a5dc03", "is_disabled": 0, "rental_uris": {"android": "https://dc.lft.to/lastmile_qr_scan", "ios": "https://dc.lft.to/lastmile_qr_scan"}, "fusion_lon": 0.0, "lat": 38.89744066666667, "bike_id": "1413dfdac42dded4c5d5cb4fa4a5dc03", "type": "electric_scooter", "is_reserved": 0, "lon": -77.03039833333334}, {"fusion_lat": 0.0, "name": "4f4be36c423d69f784b70f2ef071a826", "is_disabled": 0, "rental_uris": {"android": "https://dc.lft.to/lastmile_qr_scan", "ios": "https://dc.lft.to/lastmile_qr_scan"}, "fusion_lon": 0.0, "lat": 38.959337166666664, "bike_id": "4f4be36c423d69f784b70f2ef071a826", "type": "electric_scooter", "is_reserved": 0, "lon": -77.03116716666666}, {"fusion_lat": 0.0, "name": "98ffed865ad52fcaece440cf4532c26a", "is_disabled": 0, "rental_uris": {"android": "https://dc.lft.to/lastmile_qr_scan", "ios": "https://dc.lft.to/lastmile_qr_scan"}, "fusion_lon": 0.0, "lat": 38.91207566666667, "bike_id": "98ffed865ad52fcaece440cf4532c26a", "type": "electric_scooter", "is_reserved": 0, "lon": -77.03799583333333}, {"fusion_lat": 0.0, "name": "bb1f66f088c482baa83b1358acf7a56a", "is_disabled": 0, "rental_uris": {"android": "https://dc.lft.to/lastmile_qr_scan", "ios": "https://dc.lft.to/lastmile_qr_scan"}, "fusion_lon": 0.0, "lat": 38.918206833333336, "bike_id": "bb1f66f088c482baa83b1358acf7a56a", "type": "electric_scooter", "is_reserved": 0, "lon": -77.0417105}, {"fusion_lat": 0.0, "name": "0ab6e98dc79c64cd329d3023842d8b2c", "is_disabled": 0, "rental_uris": {"android": "https://dc.lft.to/lastmile_qr_scan", "ios": "https://dc.lft.to/lastmile_qr_scan"}, "fusion_lon": 0.0, "lat": 38.923215166666665, "bike_id": "0ab6e98dc79c64cd329d3023842d8b2c", "type": "electric_scooter", "is_reserved": 0, "lon": -77.04400366666667}, {"fusion_lat": 0.0, "name": "9fa701ce77ef9a8bde674765b0e64313", "is_disabled": 0, "rental_uris": {"android": "https://dc.lft.to/lastmile_qr_scan", "ios": "https://dc.lft.to/lastmile_qr_scan"}, "fusion_lon": 0.0, "lat": 38.926780666666666, "bike_id": "9fa701ce77ef9a8bde674765b0e64313", "type": "electric_scooter", "is_reserved": 0, "lon": -77.0148565}, {"fusion_lat": 0.0, "name": "d500dd33d2060818f99bd228ac17ae68", "is_disabled": 0, "rental_uris": {"android": "https://dc.lft.to/lastmile_qr_scan", "ios": "https://dc.lft.to/lastmile_qr_scan"}, "fusion_lon": 0.0, "lat": 38.89615666666667, "bike_id": "d500dd33d2060818f99bd228ac17ae68", "type": "electric_bike", "is_reserved": 0, "lon": -76.9073985}, {"fusion_lat": 0.0, "name": "394f1fb1ca45b5f573e674e7855dfce1", "is_disabled": 0, "rental_uris": {"android": "https://dc.lft.to/lastmile_qr_scan", "ios": "https://dc.lft.to/lastmile_qr_scan"}, "fusion_lon": 0.0, "lat": 38.924167833333335, "bike_id": "394f1fb1ca45b5f573e674e7855dfce1", "type": "electric_scooter", "is_reserved": 0, "lon": -77.044573}, {"fusion_lat": 0.0, "name": "79b92933197ccf075bc52dfcb4b75a68", "is_disabled": 0, "rental_uris": {"android": "https://dc.lft.to/lastmile_qr_scan", "ios": "https://dc.lft.to/lastmile_qr_scan"}, "fusion_lon": 0.0, "lat": 38.88722416666667, "bike_id": "79b92933197ccf075bc52dfcb4b75a68", "type": "electric_scooter", "is_reserved": 0, "lon": -76.99686983333334}, {"fusion_lat": 0.0, "name": "94b01b7cba6b1b1eacae158fe7320e7e", "is_disabled": 0, "rental_uris": {"android": "https://dc.lft.to/lastmile_qr_scan", "ios": "https://dc.lft.to/lastmile_qr_scan"}, "fusion_lon": 0.0, "lat": 38.8981795, "bike_id": "94b01b7cba6b1b1eacae158fe7320e7e", "type": "electric_scooter", "is_reserved": 0, "lon": -77.04168783333333}, {"fusion_lat": 0.0, "name": "4a1e3de9515974bd4457d8bf8fc15851", "is_disabled": 0, "rental_uris": {"android": "https://dc.lft.to/lastmile_qr_scan", "ios": "https://dc.lft.to/lastmile_qr_scan"}, "fusion_lon": 0.0, "lat": 38.931030666666665, "bike_id": "4a1e3de9515974bd4457d8bf8fc15851", "type": "electric_scooter", "is_reserved": 0, "lon": -77.03017083333333}, {"fusion_lat": 0.0, "name": "560ae2f5929711e182333705c29a322d", "is_disabled": 0, "rental_uris": {"android": "https://dc.lft.to/lastmile_qr_scan", "ios": "https://dc.lft.to/lastmile_qr_scan"}, "fusion_lon": 0.0, "lat": 38.901792666666665, "bike_id": "560ae2f5929711e182333705c29a322d", "type": "electric_scooter", "is_reserved": 0, "lon": -77.016182}, {"fusion_lat": 0.0, "name": "54833b1c6a50192dd9ab012c449ea8fe", "is_disabled": 0, "rental_uris": {"android": "https://dc.lft.to/lastmile_qr_scan", "ios": "https://dc.lft.to/lastmile_qr_scan"}, "fusion_lon": 0.0, "lat": 38.89738833333333, "bike_id": "54833b1c6a50192dd9ab012c449ea8fe", "type": "electric_scooter", "is_reserved": 0, "lon": -77.0099585}, {"fusion_lat": 0.0, "name": "a61b25919021cf8e8e9306f7edfe236e", "is_disabled": 0, "rental_uris": {"android": "https://dc.lft.to/lastmile_qr_scan", "ios": "https://dc.lft.to/lastmile_qr_scan"}, "fusion_lon": 0.0, "lat": 38.92593466666667, "bike_id": "a61b25919021cf8e8e9306f7edfe236e", "type": "electric_scooter", "is_reserved": 0, "lon": -77.03781616666667}, {"fusion_lat": 0.0, "name": "095aae953476a4f7763b7d40f07fcf7c", "is_disabled": 0, "rental_uris": {"android": "https://dc.lft.to/lastmile_qr_scan", "ios": "https://dc.lft.to/lastmile_qr_scan"}, "fusion_lon": 0.0, "lat": 38.9151115, "bike_id": "095aae953476a4f7763b7d40f07fcf7c", "type": "electric_scooter", "is_reserved": 0, "lon": -77.0005985}, {"fusion_lat": 0.0, "name": "3fcfb801e3d237006455175e4f49227d", "is_disabled": 0, "rental_uris": {"android": "https://dc.lft.to/lastmile_qr_scan", "ios": "https://dc.lft.to/lastmile_qr_scan"}, "fusion_lon": 0.0, "lat": 38.900132166666666, "bike_id": "3fcfb801e3d237006455175e4f49227d", "type": "electric_scooter", "is_reserved": 0, "lon": -77.0020715}, {"fusion_lat": 0.0, "name": "045a2c1050f85726f55bfde81a6b68b8", "is_disabled": 0, "rental_uris": {"android": "https://dc.lft.to/lastmile_qr_scan", "ios": "https://dc.lft.to/lastmile_qr_scan"}, "fusion_lon": 0.0, "lat": 38.902581833333336, "bike_id": "045a2c1050f85726f55bfde81a6b68b8", "type": "electric_scooter", "is_reserved": 0, "lon": -77.03041283333333}, {"fusion_lat": 0.0, "name": "90cbe7e30922ea0523dabfeba47e5433", "is_disabled": 0, "rental_uris": {"android": "https://dc.lft.to/lastmile_qr_scan", "ios": "https://dc.lft.to/lastmile_qr_scan"}, "fusion_lon": 0.0, "lat": 38.97079683333333, "bike_id": "90cbe7e30922ea0523dabfeba47e5433", "type": "electric_bike", "is_reserved": 0, "lon": -76.93615716666666}, {"fusion_lat": 0.0, "name": "a9c171342406d4ca0d8bf3b3c23186bc", "is_disabled": 0, "rental_uris": {"android": "https://dc.lft.to/lastmile_qr_scan", "ios": "https://dc.lft.to/lastmile_qr_scan"}, "fusion_lon": 0.0, "lat": 38.871766, "bike_id": "a9c171342406d4ca0d8bf3b3c23186bc", "type": "electric_scooter", "is_reserved": 0, "lon": -77.00609283333333}, {"fusion_lat": 0.0, "name": "6b6236799574187087f6dd0d89cd121d", "is_disabled": 0, "rental_uris": {"android": "https://dc.lft.to/lastmile_qr_scan", "ios": "https://dc.lft.to/lastmile_qr_scan"}, "fusion_lon": 0.0, "lat": 38.909657333333335, "bike_id": "6b6236799574187087f6dd0d89cd121d", "type": "electric_scooter", "is_reserved": 0, "lon": -77.03707283333334}, {"fusion_lat": 0.0, "name": "08ed0b7f90a09053891d03c4c3dc4360", "is_disabled": 0, "rental_uris": {"android": "https://dc.lft.to/lastmile_qr_scan", "ios": "https://dc.lft.to/lastmile_qr_scan"}, "fusion_lon": 0.0, "lat": 38.924985666666664, "bike_id": "08ed0b7f90a09053891d03c4c3dc4360", "type": "electric_bike", "is_reserved": 0, "lon": -77.05757633333333}, {"fusion_lat": 0.0, "name": "78520fd7adb5df67ebc7bda707773b4e", "is_disabled": 0, "rental_uris": {"android": "https://dc.lft.to/lastmile_qr_scan", "ios": "https://dc.lft.to/lastmile_qr_scan"}, "fusion_lon": 0.0, "lat": 38.8973035, "bike_id": "78520fd7adb5df67ebc7bda707773b4e", "type": "electric_scooter", "is_reserved": 0, "lon": -77.0552485}, {"fusion_lat": 0.0, "name": "a44c30d8bd1d08a7b0d6af1b51eec877", "is_disabled": 0, "rental_uris": {"android": "https://dc.lft.to/lastmile_qr_scan", "ios": "https://dc.lft.to/lastmile_qr_scan"}, "fusion_lon": 0.0, "lat": 38.89222916666667, "bike_id": "a44c30d8bd1d08a7b0d6af1b51eec877", "type": "electric_scooter", "is_reserved": 0, "lon": -77.02221416666667}, {"fusion_lat": 0.0, "name": "1e4f5d1876688f51114f7abacadb0c6c", "is_disabled": 0, "rental_uris": {"android": "https://dc.lft.to/lastmile_qr_scan", "ios": "https://dc.lft.to/lastmile_qr_scan"}, "fusion_lon": 0.0, "lat": 38.883996833333335, "bike_id": "1e4f5d1876688f51114f7abacadb0c6c", "type": "electric_bike", "is_reserved": 0, "lon": -76.9605765}, {"fusion_lat": 0.0, "name": "9f7a476b2e5ad5138110a2804aac61bf", "is_disabled": 0, "rental_uris": {"android": "https://dc.lft.to/lastmile_qr_scan", "ios": "https://dc.lft.to/lastmile_qr_scan"}, "fusion_lon": 0.0, "lat": 38.898764666666665, "bike_id": "9f7a476b2e5ad5138110a2804aac61bf", "type": "electric_scooter", "is_reserved": 0, "lon": -76.93186333333334}, {"fusion_lat": 0.0, "name": "d043e4d9a1a7df23be5ac13ea9f38866", "is_disabled": 0, "rental_uris": {"android": "https://dc.lft.to/lastmile_qr_scan", "ios": "https://dc.lft.to/lastmile_qr_scan"}, "fusion_lon": 0.0, "lat": 38.88504266666666, "bike_id": "d043e4d9a1a7df23be5ac13ea9f38866", "type": "electric_scooter", "is_reserved": 0, "lon": -77.00697716666667}, {"fusion_lat": 0.0, "name": "99df7004f8fb03a23b87a8ed56b6899b", "is_disabled": 0, "rental_uris": {"android": "https://dc.lft.to/lastmile_qr_scan", "ios": "https://dc.lft.to/lastmile_qr_scan"}, "fusion_lon": 0.0, "lat": 38.8958885, "bike_id": "99df7004f8fb03a23b87a8ed56b6899b", "type": "electric_scooter", "is_reserved": 0, "lon": -77.02726533333333}, {"fusion_lat": 0.0, "name": "e3eb0626f1953517aff5b8e4240243e1", "is_disabled": 0, "rental_uris": {"android": "https://dc.lft.to/lastmile_qr_scan", "ios": "https://dc.lft.to/lastmile_qr_scan"}, "fusion_lon": 0.0, "lat": 38.90972283333333, "bike_id": "e3eb0626f1953517aff5b8e4240243e1", "type": "electric_scooter", "is_reserved": 0, "lon": -77.03330066666666}, {"fusion_lat": 0.0, "name": "9bc1d535c15a49dc2a032546617da67c", "is_disabled": 0, "rental_uris": {"android": "https://dc.lft.to/lastmile_qr_scan", "ios": "https://dc.lft.to/lastmile_qr_scan"}, "fusion_lon": 0.0, "lat": 38.8655785, "bike_id": "9bc1d535c15a49dc2a032546617da67c", "type": "electric_scooter", "is_reserved": 0, "lon": -76.983513}, {"fusion_lat": 0.0, "name": "0c4ea63b289a2f5e1aabea6c6f8322d5", "is_disabled": 0, "rental_uris": {"android": "https://dc.lft.to/lastmile_qr_scan", "ios": "https://dc.lft.to/lastmile_qr_scan"}, "fusion_lon": 0.0, "lat": 38.898203, "bike_id": "0c4ea63b289a2f5e1aabea6c6f8322d5", "type": "electric_scooter", "is_reserved": 0, "lon": -77.01056683333333}, {"fusion_lat": 0.0, "name": "8555a40ef6482c76a487bce000b9c193", "is_disabled": 0, "rental_uris": {"android": "https://dc.lft.to/lastmile_qr_scan", "ios": "https://dc.lft.to/lastmile_qr_scan"}, "fusion_lon": 0.0, "lat": 38.93092983333333, "bike_id": "8555a40ef6482c76a487bce000b9c193", "type": "electric_scooter", "is_reserved": 0, "lon": -77.02552333333334}, {"fusion_lat": 0.0, "name": "2335403b4640e8c4fbe80cfaa155cf30", "is_disabled": 0, "rental_uris": {"android": "https://dc.lft.to/lastmile_qr_scan", "ios": "https://dc.lft.to/lastmile_qr_scan"}, "fusion_lon": 0.0, "lat": 38.915686, "bike_id": "2335403b4640e8c4fbe80cfaa155cf30", "type": "electric_scooter", "is_reserved": 0, "lon": -77.02385966666667}, {"fusion_lat": 0.0, "name": "037f9cb8ba554297561e3f3a24148a14", "is_disabled": 0, "rental_uris": {"android": "https://dc.lft.to/lastmile_qr_scan", "ios": "https://dc.lft.to/lastmile_qr_scan"}, "fusion_lon": 0.0, "lat": 38.89861066666667, "bike_id": "037f9cb8ba554297561e3f3a24148a14", "type": "electric_scooter", "is_reserved": 0, "lon": -76.94638416666666}, {"fusion_lat": 0.0, "name": "eca3a5ea8a560025b325a0cfc63773c3", "is_disabled": 0, "rental_uris": {"android": "https://dc.lft.to/lastmile_qr_scan", "ios": "https://dc.lft.to/lastmile_qr_scan"}, "fusion_lon": 0.0, "lat": 38.913498, "bike_id": "eca3a5ea8a560025b325a0cfc63773c3", "type": "electric_scooter", "is_reserved": 0, "lon": -77.04581116666667}, {"fusion_lat": 0.0, "name": "d1f95f57d2ec2e009a765824443621a2", "is_disabled": 0, "rental_uris": {"android": "https://dc.lft.to/lastmile_qr_scan", "ios": "https://dc.lft.to/lastmile_qr_scan"}, "fusion_lon": 0.0, "lat": 38.900113, "bike_id": "d1f95f57d2ec2e009a765824443621a2", "type": "electric_scooter", "is_reserved": 0, "lon": -77.00666883333334}, {"fusion_lat": 0.0, "name": "543ed4863b8448b295131603bd7328a0", "is_disabled": 0, "rental_uris": {"android": "https://dc.lft.to/lastmile_qr_scan", "ios": "https://dc.lft.to/lastmile_qr_scan"}, "fusion_lon": 0.0, "lat": 38.92475066666667, "bike_id": "543ed4863b8448b295131603bd7328a0", "type": "electric_scooter", "is_reserved": 0, "lon": -77.03908216666666}, {"fusion_lat": 0.0, "name": "4214720700b76447f85b8703e8ef1008", "is_disabled": 0, "rental_uris": {"android": "https://dc.lft.to/lastmile_qr_scan", "ios": "https://dc.lft.to/lastmile_qr_scan"}, "fusion_lon": 0.0, "lat": 38.9345595, "bike_id": "4214720700b76447f85b8703e8ef1008", "type": "electric_scooter", "is_reserved": 0, "lon": -77.0412085}, {"fusion_lat": 0.0, "name": "d2e8500b2cd6ab9c1709ecc15dd230a1", "is_disabled": 0, "rental_uris": {"android": "https://dc.lft.to/lastmile_qr_scan", "ios": "https://dc.lft.to/lastmile_qr_scan"}, "fusion_lon": 0.0, "lat": 38.8848945, "bike_id": "d2e8500b2cd6ab9c1709ecc15dd230a1", "type": "electric_scooter", "is_reserved": 0, "lon": -77.007102}, {"fusion_lat": 0.0, "name": "08b26d8f43fbe30c7b95b65bbb40c8dc", "is_disabled": 0, "rental_uris": {"android": "https://dc.lft.to/lastmile_qr_scan", "ios": "https://dc.lft.to/lastmile_qr_scan"}, "fusion_lon": 0.0, "lat": 38.928369833333335, "bike_id": "08b26d8f43fbe30c7b95b65bbb40c8dc", "type": "electric_scooter", "is_reserved": 0, "lon": -77.03284133333334}, {"fusion_lat": 0.0, "name": "1092078117465286683eb7190e5a9343", "is_disabled": 0, "rental_uris": {"android": "https://dc.lft.to/lastmile_qr_scan", "ios": "https://dc.lft.to/lastmile_qr_scan"}, "fusion_lon": 0.0, "lat": 38.897248166666664, "bike_id": "1092078117465286683eb7190e5a9343", "type": "electric_scooter", "is_reserved": 0, "lon": -77.043386}, {"fusion_lat": 0.0, "name": "c0e66b2a1b1c4aae13f15cdb74dd69e1", "is_disabled": 0, "rental_uris": {"android": "https://dc.lft.to/lastmile_qr_scan", "ios": "https://dc.lft.to/lastmile_qr_scan"}, "fusion_lon": 0.0, "lat": 38.9225025, "bike_id": "c0e66b2a1b1c4aae13f15cdb74dd69e1", "type": "electric_scooter", "is_reserved": 0, "lon": -77.04216366666667}, {"fusion_lat": 0.0, "name": "074e0b091698a90eb82363ddb9cebe5c", "is_disabled": 0, "rental_uris": {"android": "https://dc.lft.to/lastmile_qr_scan", "ios": "https://dc.lft.to/lastmile_qr_scan"}, "fusion_lon": 0.0, "lat": 38.86684016666667, "bike_id": "074e0b091698a90eb82363ddb9cebe5c", "type": "electric_scooter", "is_reserved": 0, "lon": -76.98563716666666}, {"fusion_lat": 0.0, "name": "265d67773f0673a19e1ab29b8335af64", "is_disabled": 0, "rental_uris": {"android": "https://dc.lft.to/lastmile_qr_scan", "ios": "https://dc.lft.to/lastmile_qr_scan"}, "fusion_lon": 0.0, "lat": 38.842818333333334, "bike_id": "265d67773f0673a19e1ab29b8335af64", "type": "electric_bike", "is_reserved": 0, "lon": -77.0450455}, {"fusion_lat": 0.0, "name": "593ff2bced221d040e66679dde8b92cc", "is_disabled": 0, "rental_uris": {"android": "https://dc.lft.to/lastmile_qr_scan", "ios": "https://dc.lft.to/lastmile_qr_scan"}, "fusion_lon": 0.0, "lat": 38.919402166666664, "bike_id": "593ff2bced221d040e66679dde8b92cc", "type": "electric_scooter", "is_reserved": 0, "lon": -77.0448185}, {"fusion_lat": 0.0, "name": "9011e7c613658e23a4256100c86ef196", "is_disabled": 0, "rental_uris": {"android": "https://dc.lft.to/lastmile_qr_scan", "ios": "https://dc.lft.to/lastmile_qr_scan"}, "fusion_lon": 0.0, "lat": 38.91328816666667, "bike_id": "9011e7c613658e23a4256100c86ef196", "type": "electric_scooter", "is_reserved": 0, "lon": -77.04868216666667}, {"fusion_lat": 0.0, "name": "b0ba9599d2a76e550788834ff3c3cc39", "is_disabled": 0, "rental_uris": {"android": "https://dc.lft.to/lastmile_qr_scan", "ios": "https://dc.lft.to/lastmile_qr_scan"}, "fusion_lon": 0.0, "lat": 38.90724683333333, "bike_id": "b0ba9599d2a76e550788834ff3c3cc39", "type": "electric_scooter", "is_reserved": 0, "lon": -77.04799266666667}, {"fusion_lat": 0.0, "name": "0b15c7b0bc045847937bf22849c09a64", "is_disabled": 0, "rental_uris": {"android": "https://dc.lft.to/lastmile_qr_scan", "ios": "https://dc.lft.to/lastmile_qr_scan"}, "fusion_lon": 0.0, "lat": 38.9002705, "bike_id": "0b15c7b0bc045847937bf22849c09a64", "type": "electric_scooter", "is_reserved": 0, "lon": -77.04381033333334}, {"fusion_lat": 0.0, "name": "b32390583a07b9ac296f5e1cafe55c31", "is_disabled": 0, "rental_uris": {"android": "https://dc.lft.to/lastmile_qr_scan", "ios": "https://dc.lft.to/lastmile_qr_scan"}, "fusion_lon": 0.0, "lat": 38.899021, "bike_id": "b32390583a07b9ac296f5e1cafe55c31", "type": "electric_scooter", "is_reserved": 0, "lon": -77.0327445}, {"fusion_lat": 0.0, "name": "66e8e820b245e441c3020ded69d6c5ea", "is_disabled": 0, "rental_uris": {"android": "https://dc.lft.to/lastmile_qr_scan", "ios": "https://dc.lft.to/lastmile_qr_scan"}, "fusion_lon": 0.0, "lat": 38.89817766666667, "bike_id": "66e8e820b245e441c3020ded69d6c5ea", "type": "electric_scooter", "is_reserved": 0, "lon": -77.03274183333333}, {"fusion_lat": 0.0, "name": "ba261a6d62a6985b55527465bb9d1bc2", "is_disabled": 0, "rental_uris": {"android": "https://dc.lft.to/lastmile_qr_scan", "ios": "https://dc.lft.to/lastmile_qr_scan"}, "fusion_lon": 0.0, "lat": 38.9576025, "bike_id": "ba261a6d62a6985b55527465bb9d1bc2", "type": "electric_bike", "is_reserved": 0, "lon": -76.9808945}, {"fusion_lat": 0.0, "name": "fd7f4f621017f8a0e54f30d538d47ab4", "is_disabled": 0, "rental_uris": {"android": "https://dc.lft.to/lastmile_qr_scan", "ios": "https://dc.lft.to/lastmile_qr_scan"}, "fusion_lon": 0.0, "lat": 38.920848166666666, "bike_id": "fd7f4f621017f8a0e54f30d538d47ab4", "type": "electric_scooter", "is_reserved": 0, "lon": -77.02722266666666}, {"fusion_lat": 0.0, "name": "df19eb216aa01e57fd84c9dc7a7cdf57", "is_disabled": 0, "rental_uris": {"android": "https://dc.lft.to/lastmile_qr_scan", "ios": "https://dc.lft.to/lastmile_qr_scan"}, "fusion_lon": 0.0, "lat": 38.959747, "bike_id": "df19eb216aa01e57fd84c9dc7a7cdf57", "type": "electric_bike", "is_reserved": 0, "lon": -76.981633}, {"fusion_lat": 0.0, "name": "cc1d460e251d05b07fd862e399078f16", "is_disabled": 0, "rental_uris": {"android": "https://dc.lft.to/lastmile_qr_scan", "ios": "https://dc.lft.to/lastmile_qr_scan"}, "fusion_lon": 0.0, "lat": 38.932031333333335, "bike_id": "cc1d460e251d05b07fd862e399078f16", "type": "electric_scooter", "is_reserved": 0, "lon": -76.98286333333333}, {"fusion_lat": 0.0, "name": "679f0cdafc4a5b258d7c759bf6e20ad7", "is_disabled": 0, "rental_uris": {"android": "https://dc.lft.to/lastmile_qr_scan", "ios": "https://dc.lft.to/lastmile_qr_scan"}, "fusion_lon": 0.0, "lat": 38.92418083333333, "bike_id": "679f0cdafc4a5b258d7c759bf6e20ad7", "type": "electric_scooter", "is_reserved": 0, "lon": -77.01944083333333}, {"fusion_lat": 0.0, "name": "035a337f8333942925e1a1aa9807ef43", "is_disabled": 0, "rental_uris": {"android": "https://dc.lft.to/lastmile_qr_scan", "ios": "https://dc.lft.to/lastmile_qr_scan"}, "fusion_lon": 0.0, "lat": 38.861678, "bike_id": "035a337f8333942925e1a1aa9807ef43", "type": "electric_scooter", "is_reserved": 0, "lon": -76.983675}, {"fusion_lat": 0.0, "name": "d9c1f868a64f39be498541082d5c4950", "is_disabled": 0, "rental_uris": {"android": "https://dc.lft.to/lastmile_qr_scan", "ios": "https://dc.lft.to/lastmile_qr_scan"}, "fusion_lon": 0.0, "lat": 38.9083075, "bike_id": "d9c1f868a64f39be498541082d5c4950", "type": "electric_scooter", "is_reserved": 0, "lon": -76.98263416666667}, {"fusion_lat": 0.0, "name": "5597ec37ec72e1cc6747ab3ec3102481", "is_disabled": 0, "rental_uris": {"android": "https://dc.lft.to/lastmile_qr_scan", "ios": "https://dc.lft.to/lastmile_qr_scan"}, "fusion_lon": 0.0, "lat": 38.92066633333334, "bike_id": "5597ec37ec72e1cc6747ab3ec3102481", "type": "electric_scooter", "is_reserved": 0, "lon": -77.04095183333334}, {"fusion_lat": 0.0, "name": "efa393157c1e88f920779c91abd6015d", "is_disabled": 0, "rental_uris": {"android": "https://dc.lft.to/lastmile_qr_scan", "ios": "https://dc.lft.to/lastmile_qr_scan"}, "fusion_lon": 0.0, "lat": 38.89597216666667, "bike_id": "efa393157c1e88f920779c91abd6015d", "type": "electric_scooter", "is_reserved": 0, "lon": -77.02583083333333}, {"fusion_lat": 0.0, "name": "ea39134957b3772e6269ceac38c7a64f", "is_disabled": 0, "rental_uris": {"android": "https://dc.lft.to/lastmile_qr_scan", "ios": "https://dc.lft.to/lastmile_qr_scan"}, "fusion_lon": 0.0, "lat": 38.897403, "bike_id": "ea39134957b3772e6269ceac38c7a64f", "type": "electric_bike", "is_reserved": 0, "lon": -77.0077895}, {"fusion_lat": 0.0, "name": "7549cd5c4376ab3bb760d65926f0de1f", "is_disabled": 0, "rental_uris": {"android": "https://dc.lft.to/lastmile_qr_scan", "ios": "https://dc.lft.to/lastmile_qr_scan"}, "fusion_lon": 0.0, "lat": 38.91266183333333, "bike_id": "7549cd5c4376ab3bb760d65926f0de1f", "type": "electric_scooter", "is_reserved": 0, "lon": -77.02862883333333}, {"fusion_lat": 0.0, "name": "71c38db7538677ccd5a7746f71592bbe", "is_disabled": 0, "rental_uris": {"android": "https://dc.lft.to/lastmile_qr_scan", "ios": "https://dc.lft.to/lastmile_qr_scan"}, "fusion_lon": 0.0, "lat": 38.902322833333336, "bike_id": "71c38db7538677ccd5a7746f71592bbe", "type": "electric_scooter", "is_reserved": 0, "lon": -77.020281}, {"fusion_lat": 0.0, "name": "9f079f7dfa77f733ace0a770ac24c975", "is_disabled": 0, "rental_uris": {"android": "https://dc.lft.to/lastmile_qr_scan", "ios": "https://dc.lft.to/lastmile_qr_scan"}, "fusion_lon": 0.0, "lat": 38.91296716666667, "bike_id": "9f079f7dfa77f733ace0a770ac24c975", "type": "electric_scooter", "is_reserved": 0, "lon": -77.048725}, {"fusion_lat": 0.0, "name": "96584568df60a3b2a83c02c65bb32600", "is_disabled": 0, "rental_uris": {"android": "https://dc.lft.to/lastmile_qr_scan", "ios": "https://dc.lft.to/lastmile_qr_scan"}, "fusion_lon": 0.0, "lat": 38.901588, "bike_id": "96584568df60a3b2a83c02c65bb32600", "type": "electric_scooter", "is_reserved": 0, "lon": -77.01303983333334}, {"fusion_lat": 0.0, "name": "0dd080d31539de058f72d108427118a7", "is_disabled": 0, "rental_uris": {"android": "https://dc.lft.to/lastmile_qr_scan", "ios": "https://dc.lft.to/lastmile_qr_scan"}, "fusion_lon": 0.0, "lat": 38.892850333333335, "bike_id": "0dd080d31539de058f72d108427118a7", "type": "electric_scooter", "is_reserved": 0, "lon": -76.9831065}, {"fusion_lat": 0.0, "name": "c6dc89051a7cd1a3c1d6d52f09883d89", "is_disabled": 0, "rental_uris": {"android": "https://dc.lft.to/lastmile_qr_scan", "ios": "https://dc.lft.to/lastmile_qr_scan"}, "fusion_lon": 0.0, "lat": 38.917367166666665, "bike_id": "c6dc89051a7cd1a3c1d6d52f09883d89", "type": "electric_scooter", "is_reserved": 0, "lon": -77.03203716666667}, {"fusion_lat": 0.0, "name": "0bdc43497dc838eeb65219dea82cc64d", "is_disabled": 0, "rental_uris": {"android": "https://dc.lft.to/lastmile_qr_scan", "ios": "https://dc.lft.to/lastmile_qr_scan"}, "fusion_lon": 0.0, "lat": 38.89979616666667, "bike_id": "0bdc43497dc838eeb65219dea82cc64d", "type": "electric_scooter", "is_reserved": 0, "lon": -77.00662316666667}, {"fusion_lat": 0.0, "name": "532b52d44bf520b59c8a4f5a03116bbf", "is_disabled": 0, "rental_uris": {"android": "https://dc.lft.to/lastmile_qr_scan", "ios": "https://dc.lft.to/lastmile_qr_scan"}, "fusion_lon": 0.0, "lat": 38.8850905, "bike_id": "532b52d44bf520b59c8a4f5a03116bbf", "type": "electric_scooter", "is_reserved": 0, "lon": -77.01497416666666}, {"fusion_lat": 0.0, "name": "2d3f7c2f0f14b203cf5187a66e04b116", "is_disabled": 0, "rental_uris": {"android": "https://dc.lft.to/lastmile_qr_scan", "ios": "https://dc.lft.to/lastmile_qr_scan"}, "fusion_lon": 0.0, "lat": 38.92403933333333, "bike_id": "2d3f7c2f0f14b203cf5187a66e04b116", "type": "electric_scooter", "is_reserved": 0, "lon": -77.0429235}, {"fusion_lat": 0.0, "name": "1e8f862dc5e2f860d43734042fefec0c", "is_disabled": 0, "rental_uris": {"android": "https://dc.lft.to/lastmile_qr_scan", "ios": "https://dc.lft.to/lastmile_qr_scan"}, "fusion_lon": 0.0, "lat": 38.92127583333333, "bike_id": "1e8f862dc5e2f860d43734042fefec0c", "type": "electric_scooter", "is_reserved": 0, "lon": -77.0365375}, {"fusion_lat": 0.0, "name": "af96cd084bcabd49589fa77f0f3b06cb", "is_disabled": 0, "rental_uris": {"android": "https://dc.lft.to/lastmile_qr_scan", "ios": "https://dc.lft.to/lastmile_qr_scan"}, "fusion_lon": 0.0, "lat": 38.92153066666667, "bike_id": "af96cd084bcabd49589fa77f0f3b06cb", "type": "electric_scooter", "is_reserved": 0, "lon": -77.0337885}, {"fusion_lat": 0.0, "name": "17864f63e1cb332d4058b64fa23ab1dc", "is_disabled": 0, "rental_uris": {"android": "https://dc.lft.to/lastmile_qr_scan", "ios": "https://dc.lft.to/lastmile_qr_scan"}, "fusion_lon": 0.0, "lat": 38.91683166666667, "bike_id": "17864f63e1cb332d4058b64fa23ab1dc", "type": "electric_scooter", "is_reserved": 0, "lon": -77.02948083333334}, {"fusion_lat": 0.0, "name": "4c23689e763a643ff54387fa6fddfde2", "is_disabled": 0, "rental_uris": {"android": "https://dc.lft.to/lastmile_qr_scan", "ios": "https://dc.lft.to/lastmile_qr_scan"}, "fusion_lon": 0.0, "lat": 38.8971645, "bike_id": "4c23689e763a643ff54387fa6fddfde2", "type": "electric_scooter", "is_reserved": 0, "lon": -77.01298983333334}, {"fusion_lat": 0.0, "name": "1608d99e3d7f8cb936a7e54d388f4f2a", "is_disabled": 0, "rental_uris": {"android": "https://dc.lft.to/lastmile_qr_scan", "ios": "https://dc.lft.to/lastmile_qr_scan"}, "fusion_lon": 0.0, "lat": 38.913382, "bike_id": "1608d99e3d7f8cb936a7e54d388f4f2a", "type": "electric_scooter", "is_reserved": 0, "lon": -77.0317155}, {"fusion_lat": 0.0, "name": "c0ad8571969850c81ed8dbb3e8a4ea18", "is_disabled": 0, "rental_uris": {"android": "https://dc.lft.to/lastmile_qr_scan", "ios": "https://dc.lft.to/lastmile_qr_scan"}, "fusion_lon": 0.0, "lat": 38.904215, "bike_id": "c0ad8571969850c81ed8dbb3e8a4ea18", "type": "electric_scooter", "is_reserved": 0, "lon": -76.94976}, {"fusion_lat": 0.0, "name": "9d62d9d03c81230b4908920e88dae84c", "is_disabled": 0, "rental_uris": {"android": "https://dc.lft.to/lastmile_qr_scan", "ios": "https://dc.lft.to/lastmile_qr_scan"}, "fusion_lon": 0.0, "lat": 38.92257816666667, "bike_id": "9d62d9d03c81230b4908920e88dae84c", "type": "electric_scooter", "is_reserved": 0, "lon": -77.009135}, {"fusion_lat": 0.0, "name": "0bfdc648ab6a04417d50c08f34fe8746", "is_disabled": 0, "rental_uris": {"android": "https://dc.lft.to/lastmile_qr_scan", "ios": "https://dc.lft.to/lastmile_qr_scan"}, "fusion_lon": 0.0, "lat": 38.914487333333334, "bike_id": "0bfdc648ab6a04417d50c08f34fe8746", "type": "electric_scooter", "is_reserved": 0, "lon": -76.98820316666666}, {"fusion_lat": 0.0, "name": "0cdf5c5a5029d82311fd2fe075325487", "is_disabled": 0, "rental_uris": {"android": "https://dc.lft.to/lastmile_qr_scan", "ios": "https://dc.lft.to/lastmile_qr_scan"}, "fusion_lon": 0.0, "lat": 38.83158666666667, "bike_id": "0cdf5c5a5029d82311fd2fe075325487", "type": "electric_bike", "is_reserved": 0, "lon": -76.99545033333334}, {"fusion_lat": 0.0, "name": "5b462890e708b441222ed5141f860007", "is_disabled": 0, "rental_uris": {"android": "https://dc.lft.to/lastmile_qr_scan", "ios": "https://dc.lft.to/lastmile_qr_scan"}, "fusion_lon": 0.0, "lat": 38.899971, "bike_id": "5b462890e708b441222ed5141f860007", "type": "electric_scooter", "is_reserved": 0, "lon": -77.01192683333333}, {"fusion_lat": 0.0, "name": "c6255ac7378e152a96b352001f4780da", "is_disabled": 0, "rental_uris": {"android": "https://dc.lft.to/lastmile_qr_scan", "ios": "https://dc.lft.to/lastmile_qr_scan"}, "fusion_lon": 0.0, "lat": 38.89223033333333, "bike_id": "c6255ac7378e152a96b352001f4780da", "type": "electric_scooter", "is_reserved": 0, "lon": -77.03145316666667}, {"fusion_lat": 0.0, "name": "bd03844602f4bc382812a1cc20e80ffb", "is_disabled": 0, "rental_uris": {"android": "https://dc.lft.to/lastmile_qr_scan", "ios": "https://dc.lft.to/lastmile_qr_scan"}, "fusion_lon": 0.0, "lat": 38.93861283333333, "bike_id": "bd03844602f4bc382812a1cc20e80ffb", "type": "electric_scooter", "is_reserved": 0, "lon": -77.02552516666667}, {"fusion_lat": 0.0, "name": "9cc8ddc7ab16b3dd3965dd0ea4f8b6f2", "is_disabled": 0, "rental_uris": {"android": "https://dc.lft.to/lastmile_qr_scan", "ios": "https://dc.lft.to/lastmile_qr_scan"}, "fusion_lon": 0.0, "lat": 38.90552433333333, "bike_id": "9cc8ddc7ab16b3dd3965dd0ea4f8b6f2", "type": "electric_scooter", "is_reserved": 0, "lon": -77.00600116666666}, {"fusion_lat": 0.0, "name": "5db3aad956778f72c35abc1bb4215f68", "is_disabled": 0, "rental_uris": {"android": "https://dc.lft.to/lastmile_qr_scan", "ios": "https://dc.lft.to/lastmile_qr_scan"}, "fusion_lon": 0.0, "lat": 38.9003565, "bike_id": "5db3aad956778f72c35abc1bb4215f68", "type": "electric_bike", "is_reserved": 0, "lon": -76.97222716666667}, {"fusion_lat": 0.0, "name": "438d2b30a1ee49f34c3886336a30bdfc", "is_disabled": 0, "rental_uris": {"android": "https://dc.lft.to/lastmile_qr_scan", "ios": "https://dc.lft.to/lastmile_qr_scan"}, "fusion_lon": 0.0, "lat": 38.87698916666667, "bike_id": "438d2b30a1ee49f34c3886336a30bdfc", "type": "electric_scooter", "is_reserved": 0, "lon": -77.00408916666666}, {"fusion_lat": 0.0, "name": "7296bc89ab5dd61c63f6fe727dc79c2e", "is_disabled": 0, "rental_uris": {"android": "https://dc.lft.to/lastmile_qr_scan", "ios": "https://dc.lft.to/lastmile_qr_scan"}, "fusion_lon": 0.0, "lat": 38.90963516666667, "bike_id": "7296bc89ab5dd61c63f6fe727dc79c2e", "type": "electric_scooter", "is_reserved": 0, "lon": -77.0427315}, {"fusion_lat": 0.0, "name": "5da43e4ae78e6eb19b474ec59bce2348", "is_disabled": 0, "rental_uris": {"android": "https://dc.lft.to/lastmile_qr_scan", "ios": "https://dc.lft.to/lastmile_qr_scan"}, "fusion_lon": 0.0, "lat": 38.905664333333334, "bike_id": "5da43e4ae78e6eb19b474ec59bce2348", "type": "electric_scooter", "is_reserved": 0, "lon": -77.0435895}, {"fusion_lat": 0.0, "name": "2d2946762c720051153b4739c6e13682", "is_disabled": 0, "rental_uris": {"android": "https://dc.lft.to/lastmile_qr_scan", "ios": "https://dc.lft.to/lastmile_qr_scan"}, "fusion_lon": 0.0, "lat": 38.903192, "bike_id": "2d2946762c720051153b4739c6e13682", "type": "electric_scooter", "is_reserved": 0, "lon": -77.0252235}, {"fusion_lat": 0.0, "name": "37eb7a8921797448a818fea06964b6a4", "is_disabled": 0, "rental_uris": {"android": "https://dc.lft.to/lastmile_qr_scan", "ios": "https://dc.lft.to/lastmile_qr_scan"}, "fusion_lon": 0.0, "lat": 38.92852666666667, "bike_id": "37eb7a8921797448a818fea06964b6a4", "type": "electric_scooter", "is_reserved": 0, "lon": -77.03495283333334}, {"fusion_lat": 0.0, "name": "a75bba0c388690905fcfa789c26c6281", "is_disabled": 0, "rental_uris": {"android": "https://dc.lft.to/lastmile_qr_scan", "ios": "https://dc.lft.to/lastmile_qr_scan"}, "fusion_lon": 0.0, "lat": 38.90822333333333, "bike_id": "a75bba0c388690905fcfa789c26c6281", "type": "electric_scooter", "is_reserved": 0, "lon": -77.063712}, {"fusion_lat": 0.0, "name": "30b49fef98a7be4955c77ba508dac5fb", "is_disabled": 0, "rental_uris": {"android": "https://dc.lft.to/lastmile_qr_scan", "ios": "https://dc.lft.to/lastmile_qr_scan"}, "fusion_lon": 0.0, "lat": 38.857236666666665, "bike_id": "30b49fef98a7be4955c77ba508dac5fb", "type": "electric_scooter", "is_reserved": 0, "lon": -76.98095533333333}, {"fusion_lat": 0.0, "name": "0865e8e5a608097d2fd3a6467c975cbb", "is_disabled": 0, "rental_uris": {"android": "https://dc.lft.to/lastmile_qr_scan", "ios": "https://dc.lft.to/lastmile_qr_scan"}, "fusion_lon": 0.0, "lat": 38.912593666666666, "bike_id": "0865e8e5a608097d2fd3a6467c975cbb", "type": "electric_scooter", "is_reserved": 0, "lon": -77.04736283333334}, {"fusion_lat": 0.0, "name": "68f75cf58cce846caf8514371159f53a", "is_disabled": 0, "rental_uris": {"android": "https://dc.lft.to/lastmile_qr_scan", "ios": "https://dc.lft.to/lastmile_qr_scan"}, "fusion_lon": 0.0, "lat": 38.910084166666664, "bike_id": "68f75cf58cce846caf8514371159f53a", "type": "electric_scooter", "is_reserved": 0, "lon": -76.984932}, {"fusion_lat": 0.0, "name": "65d88912f534bf2aa324b6a2b9080eed", "is_disabled": 0, "rental_uris": {"android": "https://dc.lft.to/lastmile_qr_scan", "ios": "https://dc.lft.to/lastmile_qr_scan"}, "fusion_lon": 0.0, "lat": 38.8973575, "bike_id": "65d88912f534bf2aa324b6a2b9080eed", "type": "electric_scooter", "is_reserved": 0, "lon": -76.94700066666667}, {"fusion_lat": 0.0, "name": "9868a39a9e843c39471749650b9cfd49", "is_disabled": 0, "rental_uris": {"android": "https://dc.lft.to/lastmile_qr_scan", "ios": "https://dc.lft.to/lastmile_qr_scan"}, "fusion_lon": 0.0, "lat": 38.904081, "bike_id": "9868a39a9e843c39471749650b9cfd49", "type": "electric_scooter", "is_reserved": 0, "lon": -76.97330666666667}, {"fusion_lat": 0.0, "name": "92e4d383f9433a397c5c23e4bbb1a667", "is_disabled": 0, "rental_uris": {"android": "https://dc.lft.to/lastmile_qr_scan", "ios": "https://dc.lft.to/lastmile_qr_scan"}, "fusion_lon": 0.0, "lat": 38.908620666666664, "bike_id": "92e4d383f9433a397c5c23e4bbb1a667", "type": "electric_scooter", "is_reserved": 0, "lon": -76.99796083333334}, {"fusion_lat": 0.0, "name": "7e30fd9f37477fc5baa8124939f1f25d", "is_disabled": 0, "rental_uris": {"android": "https://dc.lft.to/lastmile_qr_scan", "ios": "https://dc.lft.to/lastmile_qr_scan"}, "fusion_lon": 0.0, "lat": 38.902549666666665, "bike_id": "7e30fd9f37477fc5baa8124939f1f25d", "type": "electric_scooter", "is_reserved": 0, "lon": -76.97448016666667}, {"fusion_lat": 0.0, "name": "8ebd78e6cfdcf6e9711f598ab08d8e3b", "is_disabled": 0, "rental_uris": {"android": "https://dc.lft.to/lastmile_qr_scan", "ios": "https://dc.lft.to/lastmile_qr_scan"}, "fusion_lon": 0.0, "lat": 38.905741666666664, "bike_id": "8ebd78e6cfdcf6e9711f598ab08d8e3b", "type": "electric_scooter", "is_reserved": 0, "lon": -77.00605433333334}, {"fusion_lat": 0.0, "name": "1a791d2d121ec69186e26fb3a988e8e4", "is_disabled": 0, "rental_uris": {"android": "https://dc.lft.to/lastmile_qr_scan", "ios": "https://dc.lft.to/lastmile_qr_scan"}, "fusion_lon": 0.0, "lat": 38.892468666666666, "bike_id": "1a791d2d121ec69186e26fb3a988e8e4", "type": "electric_scooter", "is_reserved": 0, "lon": -77.0465115}, {"fusion_lat": 0.0, "name": "9d57405eb481bf09a06eb5612461b24e", "is_disabled": 0, "rental_uris": {"android": "https://dc.lft.to/lastmile_qr_scan", "ios": "https://dc.lft.to/lastmile_qr_scan"}, "fusion_lon": 0.0, "lat": 38.9302125, "bike_id": "9d57405eb481bf09a06eb5612461b24e", "type": "electric_scooter", "is_reserved": 0, "lon": -77.03286983333334}, {"fusion_lat": 0.0, "name": "9caffe3c343ab725e6a60f0cccd7f99a", "is_disabled": 0, "rental_uris": {"android": "https://dc.lft.to/lastmile_qr_scan", "ios": "https://dc.lft.to/lastmile_qr_scan"}, "fusion_lon": 0.0, "lat": 38.913184333333334, "bike_id": "9caffe3c343ab725e6a60f0cccd7f99a", "type": "electric_scooter", "is_reserved": 0, "lon": -77.01514333333333}, {"fusion_lat": 0.0, "name": "e203522ede79f3ffb71456602b042f16", "is_disabled": 0, "rental_uris": {"android": "https://dc.lft.to/lastmile_qr_scan", "ios": "https://dc.lft.to/lastmile_qr_scan"}, "fusion_lon": 0.0, "lat": 38.918576, "bike_id": "e203522ede79f3ffb71456602b042f16", "type": "electric_scooter", "is_reserved": 0, "lon": -77.03524883333333}, {"fusion_lat": 0.0, "name": "5e9c5cf189dc81d8feabb9d322ba7121", "is_disabled": 0, "rental_uris": {"android": "https://dc.lft.to/lastmile_qr_scan", "ios": "https://dc.lft.to/lastmile_qr_scan"}, "fusion_lon": 0.0, "lat": 38.911101333333335, "bike_id": "5e9c5cf189dc81d8feabb9d322ba7121", "type": "electric_scooter", "is_reserved": 0, "lon": -77.04554683333333}, {"fusion_lat": 0.0, "name": "0b3b1aff243a434ac94876d005e39a43", "is_disabled": 0, "rental_uris": {"android": "https://dc.lft.to/lastmile_qr_scan", "ios": "https://dc.lft.to/lastmile_qr_scan"}, "fusion_lon": 0.0, "lat": 38.8873895, "bike_id": "0b3b1aff243a434ac94876d005e39a43", "type": "electric_scooter", "is_reserved": 0, "lon": -77.01529083333334}, {"fusion_lat": 0.0, "name": "45ee21997d51ebfd26ee3d5fc640315f", "is_disabled": 0, "rental_uris": {"android": "https://dc.lft.to/lastmile_qr_scan", "ios": "https://dc.lft.to/lastmile_qr_scan"}, "fusion_lon": 0.0, "lat": 38.916635666666664, "bike_id": "45ee21997d51ebfd26ee3d5fc640315f", "type": "electric_scooter", "is_reserved": 0, "lon": -77.02714933333333}, {"fusion_lat": 0.0, "name": "52f47e94765be170112e6bf5a7c79d8e", "is_disabled": 0, "rental_uris": {"android": "https://dc.lft.to/lastmile_qr_scan", "ios": "https://dc.lft.to/lastmile_qr_scan"}, "fusion_lon": 0.0, "lat": 38.964749166666664, "bike_id": "52f47e94765be170112e6bf5a7c79d8e", "type": "electric_scooter", "is_reserved": 0, "lon": -77.01188533333334}, {"fusion_lat": 0.0, "name": "b385c616e746573de7d73140630967d7", "is_disabled": 0, "rental_uris": {"android": "https://dc.lft.to/lastmile_qr_scan", "ios": "https://dc.lft.to/lastmile_qr_scan"}, "fusion_lon": 0.0, "lat": 38.92226133333333, "bike_id": "b385c616e746573de7d73140630967d7", "type": "electric_scooter", "is_reserved": 0, "lon": -77.04646066666666}, {"fusion_lat": 0.0, "name": "0c46427be66de013e0e833ed691ca1b4", "is_disabled": 0, "rental_uris": {"android": "https://dc.lft.to/lastmile_qr_scan", "ios": "https://dc.lft.to/lastmile_qr_scan"}, "fusion_lon": 0.0, "lat": 38.855212, "bike_id": "0c46427be66de013e0e833ed691ca1b4", "type": "electric_bike", "is_reserved": 0, "lon": -77.120117}, {"fusion_lat": 0.0, "name": "17d7ffc104a9f601a85560895f68233b", "is_disabled": 0, "rental_uris": {"android": "https://dc.lft.to/lastmile_qr_scan", "ios": "https://dc.lft.to/lastmile_qr_scan"}, "fusion_lon": 0.0, "lat": 38.92116383333333, "bike_id": "17d7ffc104a9f601a85560895f68233b", "type": "electric_scooter", "is_reserved": 0, "lon": -77.0443065}, {"fusion_lat": 0.0, "name": "a379a04a8d8738530ea77a21cdff9d2f", "is_disabled": 0, "rental_uris": {"android": "https://dc.lft.to/lastmile_qr_scan", "ios": "https://dc.lft.to/lastmile_qr_scan"}, "fusion_lon": 0.0, "lat": 38.951827333333334, "bike_id": "a379a04a8d8738530ea77a21cdff9d2f", "type": "electric_scooter", "is_reserved": 0, "lon": -77.027206}, {"fusion_lat": 0.0, "name": "957977ef957cb5a30dfef2df7188dbd2", "is_disabled": 0, "rental_uris": {"android": "https://dc.lft.to/lastmile_qr_scan", "ios": "https://dc.lft.to/lastmile_qr_scan"}, "fusion_lon": 0.0, "lat": 38.85784983333333, "bike_id": "957977ef957cb5a30dfef2df7188dbd2", "type": "electric_bike", "is_reserved": 0, "lon": -77.12016266666667}, {"fusion_lat": 0.0, "name": "d8fa11a75d4ec10fa1647510bfdaef56", "is_disabled": 0, "rental_uris": {"android": "https://dc.lft.to/lastmile_qr_scan", "ios": "https://dc.lft.to/lastmile_qr_scan"}, "fusion_lon": 0.0, "lat": 38.89208133333333, "bike_id": "d8fa11a75d4ec10fa1647510bfdaef56", "type": "electric_scooter", "is_reserved": 0, "lon": -76.95694116666667}, {"fusion_lat": 0.0, "name": "8f5eacaabb3710f040d204fe479a4893", "is_disabled": 0, "rental_uris": {"android": "https://dc.lft.to/lastmile_qr_scan", "ios": "https://dc.lft.to/lastmile_qr_scan"}, "fusion_lon": 0.0, "lat": 38.99211716666667, "bike_id": "8f5eacaabb3710f040d204fe479a4893", "type": "electric_bike", "is_reserved": 0, "lon": -76.94439983333334}, {"fusion_lat": 0.0, "name": "9959c1adfdc26be6ac12ec911a80dc87", "is_disabled": 0, "rental_uris": {"android": "https://dc.lft.to/lastmile_qr_scan", "ios": "https://dc.lft.to/lastmile_qr_scan"}, "fusion_lon": 0.0, "lat": 38.89866966666666, "bike_id": "9959c1adfdc26be6ac12ec911a80dc87", "type": "electric_scooter", "is_reserved": 0, "lon": -76.946384}, {"fusion_lat": 0.0, "name": "cfd335bb475cdd9a328fc0da8833aa7b", "is_disabled": 0, "rental_uris": {"android": "https://dc.lft.to/lastmile_qr_scan", "ios": "https://dc.lft.to/lastmile_qr_scan"}, "fusion_lon": 0.0, "lat": 38.915453666666664, "bike_id": "cfd335bb475cdd9a328fc0da8833aa7b", "type": "electric_scooter", "is_reserved": 0, "lon": -77.0054895}, {"fusion_lat": 0.0, "name": "7363a85632663e42f6dabf42e5fb06ae", "is_disabled": 0, "rental_uris": {"android": "https://dc.lft.to/lastmile_qr_scan", "ios": "https://dc.lft.to/lastmile_qr_scan"}, "fusion_lon": 0.0, "lat": 38.88734933333333, "bike_id": "7363a85632663e42f6dabf42e5fb06ae", "type": "electric_scooter", "is_reserved": 0, "lon": -77.02579566666667}, {"fusion_lat": 0.0, "name": "c25635b289f3d8b625f9e5f293de96db", "is_disabled": 0, "rental_uris": {"android": "https://dc.lft.to/lastmile_qr_scan", "ios": "https://dc.lft.to/lastmile_qr_scan"}, "fusion_lon": 0.0, "lat": 38.926883833333335, "bike_id": "c25635b289f3d8b625f9e5f293de96db", "type": "electric_scooter", "is_reserved": 0, "lon": -77.02305816666667}, {"fusion_lat": 0.0, "name": "7b5d3d6ecc4158f642f03f98559b24b5", "is_disabled": 0, "rental_uris": {"android": "https://dc.lft.to/lastmile_qr_scan", "ios": "https://dc.lft.to/lastmile_qr_scan"}, "fusion_lon": 0.0, "lat": 38.932534, "bike_id": "7b5d3d6ecc4158f642f03f98559b24b5", "type": "electric_scooter", "is_reserved": 0, "lon": -77.0285045}, {"fusion_lat": 0.0, "name": "872aa15d8836cff2fcdb8a6b88aea07d", "is_disabled": 0, "rental_uris": {"android": "https://dc.lft.to/lastmile_qr_scan", "ios": "https://dc.lft.to/lastmile_qr_scan"}, "fusion_lon": 0.0, "lat": 38.897274833333334, "bike_id": "872aa15d8836cff2fcdb8a6b88aea07d", "type": "electric_scooter", "is_reserved": 0, "lon": -77.03347033333333}, {"fusion_lat": 0.0, "name": "8aa0b3be1e067ac49cf2338627f99be0", "is_disabled": 0, "rental_uris": {"android": "https://dc.lft.to/lastmile_qr_scan", "ios": "https://dc.lft.to/lastmile_qr_scan"}, "fusion_lon": 0.0, "lat": 38.904722, "bike_id": "8aa0b3be1e067ac49cf2338627f99be0", "type": "electric_scooter", "is_reserved": 0, "lon": -77.03585066666666}, {"fusion_lat": 0.0, "name": "21804e5c2c66cd8dcdeb8f6bbfd55ddc", "is_disabled": 0, "rental_uris": {"android": "https://dc.lft.to/lastmile_qr_scan", "ios": "https://dc.lft.to/lastmile_qr_scan"}, "fusion_lon": 0.0, "lat": 38.90162383333333, "bike_id": "21804e5c2c66cd8dcdeb8f6bbfd55ddc", "type": "electric_scooter", "is_reserved": 0, "lon": -76.97632316666666}, {"fusion_lat": 0.0, "name": "ed1072c4b3685fff533599e61995f568", "is_disabled": 0, "rental_uris": {"android": "https://dc.lft.to/lastmile_qr_scan", "ios": "https://dc.lft.to/lastmile_qr_scan"}, "fusion_lon": 0.0, "lat": 38.9154865, "bike_id": "ed1072c4b3685fff533599e61995f568", "type": "electric_scooter", "is_reserved": 0, "lon": -77.032789}, {"fusion_lat": 0.0, "name": "c652d745ca4a2edbd88b7269cc880be4", "is_disabled": 0, "rental_uris": {"android": "https://dc.lft.to/lastmile_qr_scan", "ios": "https://dc.lft.to/lastmile_qr_scan"}, "fusion_lon": 0.0, "lat": 38.904931166666664, "bike_id": "c652d745ca4a2edbd88b7269cc880be4", "type": "electric_scooter", "is_reserved": 0, "lon": -76.9495915}, {"fusion_lat": 0.0, "name": "47f5b30588feb42c7fc16960bbdc92ad", "is_disabled": 0, "rental_uris": {"android": "https://dc.lft.to/lastmile_qr_scan", "ios": "https://dc.lft.to/lastmile_qr_scan"}, "fusion_lon": 0.0, "lat": 38.924385, "bike_id": "47f5b30588feb42c7fc16960bbdc92ad", "type": "electric_scooter", "is_reserved": 0, "lon": -77.05247783333333}, {"fusion_lat": 0.0, "name": "771c8b9a4eff3e5acc016feff1002519", "is_disabled": 0, "rental_uris": {"android": "https://dc.lft.to/lastmile_qr_scan", "ios": "https://dc.lft.to/lastmile_qr_scan"}, "fusion_lon": 0.0, "lat": 38.949219166666666, "bike_id": "771c8b9a4eff3e5acc016feff1002519", "type": "electric_scooter", "is_reserved": 0, "lon": -77.01859866666666}, {"fusion_lat": 0.0, "name": "29be3e474d76784e17986d6e8d2f9b1b", "is_disabled": 0, "rental_uris": {"android": "https://dc.lft.to/lastmile_qr_scan", "ios": "https://dc.lft.to/lastmile_qr_scan"}, "fusion_lon": 0.0, "lat": 38.875711833333334, "bike_id": "29be3e474d76784e17986d6e8d2f9b1b", "type": "electric_scooter", "is_reserved": 0, "lon": -77.00935416666667}, {"fusion_lat": 0.0, "name": "605546410b5cdadbfc4886734d66a079", "is_disabled": 0, "rental_uris": {"android": "https://dc.lft.to/lastmile_qr_scan", "ios": "https://dc.lft.to/lastmile_qr_scan"}, "fusion_lon": 0.0, "lat": 38.92228266666667, "bike_id": "605546410b5cdadbfc4886734d66a079", "type": "electric_scooter", "is_reserved": 0, "lon": -77.043086}, {"fusion_lat": 0.0, "name": "fba34fd58e02c2fbf1108f93a5f72d40", "is_disabled": 0, "rental_uris": {"android": "https://dc.lft.to/lastmile_qr_scan", "ios": "https://dc.lft.to/lastmile_qr_scan"}, "fusion_lon": 0.0, "lat": 38.91415533333333, "bike_id": "fba34fd58e02c2fbf1108f93a5f72d40", "type": "electric_scooter", "is_reserved": 0, "lon": -77.02202483333333}, {"fusion_lat": 0.0, "name": "bf78eae32ba7c60306ac63018bb99fc9", "is_disabled": 0, "rental_uris": {"android": "https://dc.lft.to/lastmile_qr_scan", "ios": "https://dc.lft.to/lastmile_qr_scan"}, "fusion_lon": 0.0, "lat": 38.87794866666667, "bike_id": "bf78eae32ba7c60306ac63018bb99fc9", "type": "electric_scooter", "is_reserved": 0, "lon": -77.00554883333334}, {"fusion_lat": 0.0, "name": "0727ca41049ac726ecaab240f24db21f", "is_disabled": 0, "rental_uris": {"android": "https://dc.lft.to/lastmile_qr_scan", "ios": "https://dc.lft.to/lastmile_qr_scan"}, "fusion_lon": 0.0, "lat": 38.89225183333333, "bike_id": "0727ca41049ac726ecaab240f24db21f", "type": "electric_scooter", "is_reserved": 0, "lon": -77.02416533333333}, {"fusion_lat": 0.0, "name": "1983e562fc2af095ea71fe311c4e67a2", "is_disabled": 0, "rental_uris": {"android": "https://dc.lft.to/lastmile_qr_scan", "ios": "https://dc.lft.to/lastmile_qr_scan"}, "fusion_lon": 0.0, "lat": 38.92795816666667, "bike_id": "1983e562fc2af095ea71fe311c4e67a2", "type": "electric_scooter", "is_reserved": 0, "lon": -76.95558833333334}, {"fusion_lat": 0.0, "name": "d7b24f08e7298c1a6851618e3b1e7806", "is_disabled": 0, "rental_uris": {"android": "https://dc.lft.to/lastmile_qr_scan", "ios": "https://dc.lft.to/lastmile_qr_scan"}, "fusion_lon": 0.0, "lat": 38.920450333333335, "bike_id": "d7b24f08e7298c1a6851618e3b1e7806", "type": "electric_scooter", "is_reserved": 0, "lon": -77.07982}, {"fusion_lat": 0.0, "name": "9208d696a3238ff8744268969a494459", "is_disabled": 0, "rental_uris": {"android": "https://dc.lft.to/lastmile_qr_scan", "ios": "https://dc.lft.to/lastmile_qr_scan"}, "fusion_lon": 0.0, "lat": 38.88538533333333, "bike_id": "9208d696a3238ff8744268969a494459", "type": "electric_scooter", "is_reserved": 0, "lon": -77.00056516666666}, {"fusion_lat": 0.0, "name": "b50aea3e78ca3aa63af2f88e73f96f5f", "is_disabled": 0, "rental_uris": {"android": "https://dc.lft.to/lastmile_qr_scan", "ios": "https://dc.lft.to/lastmile_qr_scan"}, "fusion_lon": 0.0, "lat": 38.90952516666667, "bike_id": "b50aea3e78ca3aa63af2f88e73f96f5f", "type": "electric_bike", "is_reserved": 0, "lon": -76.98436666666667}, {"fusion_lat": 0.0, "name": "754d8bd0ec2e4c886a3eec3e8199ab2c", "is_disabled": 0, "rental_uris": {"android": "https://dc.lft.to/lastmile_qr_scan", "ios": "https://dc.lft.to/lastmile_qr_scan"}, "fusion_lon": 0.0, "lat": 38.86031216666667, "bike_id": "754d8bd0ec2e4c886a3eec3e8199ab2c", "type": "electric_scooter", "is_reserved": 0, "lon": -76.9837305}, {"fusion_lat": 0.0, "name": "e05f2fae300fc6511a896df4b3bcaeb6", "is_disabled": 0, "rental_uris": {"android": "https://dc.lft.to/lastmile_qr_scan", "ios": "https://dc.lft.to/lastmile_qr_scan"}, "fusion_lon": 0.0, "lat": 38.911108166666665, "bike_id": "e05f2fae300fc6511a896df4b3bcaeb6", "type": "electric_scooter", "is_reserved": 0, "lon": -77.081337}, {"fusion_lat": 0.0, "name": "076a63d84407e51eb8749b3c68d1f5e2", "is_disabled": 0, "rental_uris": {"android": "https://dc.lft.to/lastmile_qr_scan", "ios": "https://dc.lft.to/lastmile_qr_scan"}, "fusion_lon": 0.0, "lat": 38.881653, "bike_id": "076a63d84407e51eb8749b3c68d1f5e2", "type": "electric_scooter", "is_reserved": 0, "lon": -77.02772666666667}, {"fusion_lat": 0.0, "name": "6b2729f620f7d3f09629a8c46742f5f2", "is_disabled": 0, "rental_uris": {"android": "https://dc.lft.to/lastmile_qr_scan", "ios": "https://dc.lft.to/lastmile_qr_scan"}, "fusion_lon": 0.0, "lat": 38.8826635, "bike_id": "6b2729f620f7d3f09629a8c46742f5f2", "type": "electric_scooter", "is_reserved": 0, "lon": -77.00363466666667}, {"fusion_lat": 0.0, "name": "a994625b3af53df6302bedd36dd07c17", "is_disabled": 0, "rental_uris": {"android": "https://dc.lft.to/lastmile_qr_scan", "ios": "https://dc.lft.to/lastmile_qr_scan"}, "fusion_lon": 0.0, "lat": 38.922985, "bike_id": "a994625b3af53df6302bedd36dd07c17", "type": "electric_scooter", "is_reserved": 0, "lon": -77.04143933333333}, {"fusion_lat": 0.0, "name": "22b0f66d44e0aaf248fcab19bdf5bcb1", "is_disabled": 0, "rental_uris": {"android": "https://dc.lft.to/lastmile_qr_scan", "ios": "https://dc.lft.to/lastmile_qr_scan"}, "fusion_lon": 0.0, "lat": 38.90985583333333, "bike_id": "22b0f66d44e0aaf248fcab19bdf5bcb1", "type": "electric_scooter", "is_reserved": 0, "lon": -77.03383383333333}, {"fusion_lat": 0.0, "name": "d5519d385d6ad58f883bb6521398b9d2", "is_disabled": 0, "rental_uris": {"android": "https://dc.lft.to/lastmile_qr_scan", "ios": "https://dc.lft.to/lastmile_qr_scan"}, "fusion_lon": 0.0, "lat": 38.92466483333333, "bike_id": "d5519d385d6ad58f883bb6521398b9d2", "type": "electric_scooter", "is_reserved": 0, "lon": -77.02219}, {"fusion_lat": 0.0, "name": "0bc12a6da848bf2f217d4e78a1d12cfe", "is_disabled": 0, "rental_uris": {"android": "https://dc.lft.to/lastmile_qr_scan", "ios": "https://dc.lft.to/lastmile_qr_scan"}, "fusion_lon": 0.0, "lat": 38.8874005, "bike_id": "0bc12a6da848bf2f217d4e78a1d12cfe", "type": "electric_scooter", "is_reserved": 0, "lon": -77.015312}, {"fusion_lat": 0.0, "name": "b7eb03b63242c75522b639343f425c68", "is_disabled": 0, "rental_uris": {"android": "https://dc.lft.to/lastmile_qr_scan", "ios": "https://dc.lft.to/lastmile_qr_scan"}, "fusion_lon": 0.0, "lat": 38.902651166666665, "bike_id": "b7eb03b63242c75522b639343f425c68", "type": "electric_scooter", "is_reserved": 0, "lon": -77.053155}, {"fusion_lat": 0.0, "name": "b93cb3881946b9de8058cfa4d937e9ba", "is_disabled": 0, "rental_uris": {"android": "https://dc.lft.to/lastmile_qr_scan", "ios": "https://dc.lft.to/lastmile_qr_scan"}, "fusion_lon": 0.0, "lat": 38.866815833333334, "bike_id": "b93cb3881946b9de8058cfa4d937e9ba", "type": "electric_scooter", "is_reserved": 0, "lon": -76.98569583333334}, {"fusion_lat": 0.0, "name": "61f3f569e0be8121127d99511ddc17ec", "is_disabled": 0, "rental_uris": {"android": "https://dc.lft.to/lastmile_qr_scan", "ios": "https://dc.lft.to/lastmile_qr_scan"}, "fusion_lon": 0.0, "lat": 38.887714833333334, "bike_id": "61f3f569e0be8121127d99511ddc17ec", "type": "electric_scooter", "is_reserved": 0, "lon": -77.020262}, {"fusion_lat": 0.0, "name": "63507f9b3305f6a585854aba88eca56b", "is_disabled": 0, "rental_uris": {"android": "https://dc.lft.to/lastmile_qr_scan", "ios": "https://dc.lft.to/lastmile_qr_scan"}, "fusion_lon": 0.0, "lat": 38.93612066666667, "bike_id": "63507f9b3305f6a585854aba88eca56b", "type": "electric_scooter", "is_reserved": 0, "lon": -77.05860583333333}, {"fusion_lat": 0.0, "name": "d35c205820e08f5b4c9857173d386228", "is_disabled": 0, "rental_uris": {"android": "https://dc.lft.to/lastmile_qr_scan", "ios": "https://dc.lft.to/lastmile_qr_scan"}, "fusion_lon": 0.0, "lat": 38.86521833333333, "bike_id": "d35c205820e08f5b4c9857173d386228", "type": "electric_bike", "is_reserved": 0, "lon": -76.97327866666667}, {"fusion_lat": 0.0, "name": "809d2bb49b1cef3809f2384949b24e46", "is_disabled": 0, "rental_uris": {"android": "https://dc.lft.to/lastmile_qr_scan", "ios": "https://dc.lft.to/lastmile_qr_scan"}, "fusion_lon": 0.0, "lat": 38.82796366666667, "bike_id": "809d2bb49b1cef3809f2384949b24e46", "type": "electric_bike", "is_reserved": 0, "lon": -77.1248725}, {"fusion_lat": 0.0, "name": "9dc14d0f0a0d2067e6ba05a7e1d57d62", "is_disabled": 0, "rental_uris": {"android": "https://dc.lft.to/lastmile_qr_scan", "ios": "https://dc.lft.to/lastmile_qr_scan"}, "fusion_lon": 0.0, "lat": 38.866316833333336, "bike_id": "9dc14d0f0a0d2067e6ba05a7e1d57d62", "type": "electric_scooter", "is_reserved": 0, "lon": -76.9871225}, {"fusion_lat": 0.0, "name": "ecf8de18f1c13acae123c6e226e3ccac", "is_disabled": 0, "rental_uris": {"android": "https://dc.lft.to/lastmile_qr_scan", "ios": "https://dc.lft.to/lastmile_qr_scan"}, "fusion_lon": 0.0, "lat": 38.92030166666667, "bike_id": "ecf8de18f1c13acae123c6e226e3ccac", "type": "electric_scooter", "is_reserved": 0, "lon": -77.03147966666667}, {"fusion_lat": 0.0, "name": "d471be8298dcbd58fc03840612acb0c8", "is_disabled": 0, "rental_uris": {"android": "https://dc.lft.to/lastmile_qr_scan", "ios": "https://dc.lft.to/lastmile_qr_scan"}, "fusion_lon": 0.0, "lat": 38.89227183333333, "bike_id": "d471be8298dcbd58fc03840612acb0c8", "type": "electric_scooter", "is_reserved": 0, "lon": -77.04182716666666}, {"fusion_lat": 0.0, "name": "865719510732422c37c04dca028a9be9", "is_disabled": 0, "rental_uris": {"android": "https://dc.lft.to/lastmile_qr_scan", "ios": "https://dc.lft.to/lastmile_qr_scan"}, "fusion_lon": 0.0, "lat": 38.9170885, "bike_id": "865719510732422c37c04dca028a9be9", "type": "electric_scooter", "is_reserved": 0, "lon": -77.04122566666666}, {"fusion_lat": 0.0, "name": "f710a748401bdf6afe7c8cb0449dfe0d", "is_disabled": 0, "rental_uris": {"android": "https://dc.lft.to/lastmile_qr_scan", "ios": "https://dc.lft.to/lastmile_qr_scan"}, "fusion_lon": 0.0, "lat": 38.92077183333333, "bike_id": "f710a748401bdf6afe7c8cb0449dfe0d", "type": "electric_bike", "is_reserved": 0, "lon": -76.98944533333334}, {"fusion_lat": 0.0, "name": "d8629095ce431ea9b62c2fa90acfe97d", "is_disabled": 0, "rental_uris": {"android": "https://dc.lft.to/lastmile_qr_scan", "ios": "https://dc.lft.to/lastmile_qr_scan"}, "fusion_lon": 0.0, "lat": 38.895193, "bike_id": "d8629095ce431ea9b62c2fa90acfe97d", "type": "electric_scooter", "is_reserved": 0, "lon": -77.00338716666667}, {"fusion_lat": 0.0, "name": "7c871121d7874db8b2ae9ede40d1438e", "is_disabled": 0, "rental_uris": {"android": "https://dc.lft.to/lastmile_qr_scan", "ios": "https://dc.lft.to/lastmile_qr_scan"}, "fusion_lon": 0.0, "lat": 38.98506416666667, "bike_id": "7c871121d7874db8b2ae9ede40d1438e", "type": "electric_bike", "is_reserved": 0, "lon": -76.98199416666667}, {"fusion_lat": 0.0, "name": "16dd6e805ec382d7d78e6c1ae485ba44", "is_disabled": 0, "rental_uris": {"android": "https://dc.lft.to/lastmile_qr_scan", "ios": "https://dc.lft.to/lastmile_qr_scan"}, "fusion_lon": 0.0, "lat": 38.89553733333333, "bike_id": "16dd6e805ec382d7d78e6c1ae485ba44", "type": "electric_scooter", "is_reserved": 0, "lon": -76.99841133333334}, {"fusion_lat": 0.0, "name": "4436d8de1cb7df92c5e63d8f151cbbf4", "is_disabled": 0, "rental_uris": {"android": "https://dc.lft.to/lastmile_qr_scan", "ios": "https://dc.lft.to/lastmile_qr_scan"}, "fusion_lon": 0.0, "lat": 38.874649166666664, "bike_id": "4436d8de1cb7df92c5e63d8f151cbbf4", "type": "electric_scooter", "is_reserved": 0, "lon": -77.009649}, {"fusion_lat": 0.0, "name": "bfaf3d2844fff2570b6d347cef95a0c6", "is_disabled": 0, "rental_uris": {"android": "https://dc.lft.to/lastmile_qr_scan", "ios": "https://dc.lft.to/lastmile_qr_scan"}, "fusion_lon": 0.0, "lat": 38.91714966666667, "bike_id": "bfaf3d2844fff2570b6d347cef95a0c6", "type": "electric_scooter", "is_reserved": 0, "lon": -77.011064}, {"fusion_lat": 0.0, "name": "b0b12413c4e7390b5311541a7c528152", "is_disabled": 0, "rental_uris": {"android": "https://dc.lft.to/lastmile_qr_scan", "ios": "https://dc.lft.to/lastmile_qr_scan"}, "fusion_lon": 0.0, "lat": 38.88406833333333, "bike_id": "b0b12413c4e7390b5311541a7c528152", "type": "electric_scooter", "is_reserved": 0, "lon": -76.9858945}, {"fusion_lat": 0.0, "name": "2d119302111b5e61d1ea8bdf73d655b0", "is_disabled": 0, "rental_uris": {"android": "https://dc.lft.to/lastmile_qr_scan", "ios": "https://dc.lft.to/lastmile_qr_scan"}, "fusion_lon": 0.0, "lat": 38.884942333333335, "bike_id": "2d119302111b5e61d1ea8bdf73d655b0", "type": "electric_scooter", "is_reserved": 0, "lon": -77.00725133333333}, {"fusion_lat": 0.0, "name": "1ebeb1d562c1e8c9a75d9a7acf2b7367", "is_disabled": 0, "rental_uris": {"android": "https://dc.lft.to/lastmile_qr_scan", "ios": "https://dc.lft.to/lastmile_qr_scan"}, "fusion_lon": 0.0, "lat": 38.86056, "bike_id": "1ebeb1d562c1e8c9a75d9a7acf2b7367", "type": "electric_scooter", "is_reserved": 0, "lon": -76.9849735}, {"fusion_lat": 0.0, "name": "0f4bd0fcbcb7de34e16af6004cada6e6", "is_disabled": 0, "rental_uris": {"android": "https://dc.lft.to/lastmile_qr_scan", "ios": "https://dc.lft.to/lastmile_qr_scan"}, "fusion_lon": 0.0, "lat": 38.90242466666667, "bike_id": "0f4bd0fcbcb7de34e16af6004cada6e6", "type": "electric_scooter", "is_reserved": 0, "lon": -77.00197483333334}, {"fusion_lat": 0.0, "name": "bebffad5fe98ff2334bdb18d616fbb19", "is_disabled": 0, "rental_uris": {"android": "https://dc.lft.to/lastmile_qr_scan", "ios": "https://dc.lft.to/lastmile_qr_scan"}, "fusion_lon": 0.0, "lat": 38.88487816666667, "bike_id": "bebffad5fe98ff2334bdb18d616fbb19", "type": "electric_scooter", "is_reserved": 0, "lon": -77.00709633333334}, {"fusion_lat": 0.0, "name": "a0a32cc30daabaf14ddf4fb0fb050228", "is_disabled": 0, "rental_uris": {"android": "https://dc.lft.to/lastmile_qr_scan", "ios": "https://dc.lft.to/lastmile_qr_scan"}, "fusion_lon": 0.0, "lat": 38.8839265, "bike_id": "a0a32cc30daabaf14ddf4fb0fb050228", "type": "electric_scooter", "is_reserved": 0, "lon": -77.02651933333334}, {"fusion_lat": 0.0, "name": "4218e7895095f15ad1811fe585ff4e57", "is_disabled": 0, "rental_uris": {"android": "https://dc.lft.to/lastmile_qr_scan", "ios": "https://dc.lft.to/lastmile_qr_scan"}, "fusion_lon": 0.0, "lat": 38.88524433333333, "bike_id": "4218e7895095f15ad1811fe585ff4e57", "type": "electric_scooter", "is_reserved": 0, "lon": -77.01499833333334}, {"fusion_lat": 0.0, "name": "1822f96de34f24d1ffe15f2143fc23dd", "is_disabled": 0, "rental_uris": {"android": "https://dc.lft.to/lastmile_qr_scan", "ios": "https://dc.lft.to/lastmile_qr_scan"}, "fusion_lon": 0.0, "lat": 38.88747766666667, "bike_id": "1822f96de34f24d1ffe15f2143fc23dd", "type": "electric_scooter", "is_reserved": 0, "lon": -77.01779783333333}, {"fusion_lat": 0.0, "name": "17b241568e281c5dca8ab48bc8ba8c16", "is_disabled": 0, "rental_uris": {"android": "https://dc.lft.to/lastmile_qr_scan", "ios": "https://dc.lft.to/lastmile_qr_scan"}, "fusion_lon": 0.0, "lat": 38.914316, "bike_id": "17b241568e281c5dca8ab48bc8ba8c16", "type": "electric_scooter", "is_reserved": 0, "lon": -77.06416916666667}, {"fusion_lat": 0.0, "name": "04a4f1fa96dd0d55061f444ae9592f9c", "is_disabled": 0, "rental_uris": {"android": "https://dc.lft.to/lastmile_qr_scan", "ios": "https://dc.lft.to/lastmile_qr_scan"}, "fusion_lon": 0.0, "lat": 38.90224466666667, "bike_id": "04a4f1fa96dd0d55061f444ae9592f9c", "type": "electric_scooter", "is_reserved": 0, "lon": -77.04455683333333}, {"fusion_lat": 0.0, "name": "a10928511c657f281a838bd693b9c3fd", "is_disabled": 0, "rental_uris": {"android": "https://dc.lft.to/lastmile_qr_scan", "ios": "https://dc.lft.to/lastmile_qr_scan"}, "fusion_lon": 0.0, "lat": 38.975212, "bike_id": "a10928511c657f281a838bd693b9c3fd", "type": "electric_bike", "is_reserved": 0, "lon": -77.0168635}, {"fusion_lat": 0.0, "name": "3b91b93e0cf93ed3aefd5bf042fbaf5e", "is_disabled": 0, "rental_uris": {"android": "https://dc.lft.to/lastmile_qr_scan", "ios": "https://dc.lft.to/lastmile_qr_scan"}, "fusion_lon": 0.0, "lat": 38.904076, "bike_id": "3b91b93e0cf93ed3aefd5bf042fbaf5e", "type": "electric_scooter", "is_reserved": 0, "lon": -77.043228}, {"fusion_lat": 0.0, "name": "ce110cf09a2e99132f5b83593e6c4e39", "is_disabled": 0, "rental_uris": {"android": "https://dc.lft.to/lastmile_qr_scan", "ios": "https://dc.lft.to/lastmile_qr_scan"}, "fusion_lon": 0.0, "lat": 38.91665033333334, "bike_id": "ce110cf09a2e99132f5b83593e6c4e39", "type": "electric_scooter", "is_reserved": 0, "lon": -77.03464666666666}, {"fusion_lat": 0.0, "name": "e83f8cb880905406bdcb7d63db8ce9ff", "is_disabled": 0, "rental_uris": {"android": "https://dc.lft.to/lastmile_qr_scan", "ios": "https://dc.lft.to/lastmile_qr_scan"}, "fusion_lon": 0.0, "lat": 38.90686316666667, "bike_id": "e83f8cb880905406bdcb7d63db8ce9ff", "type": "electric_scooter", "is_reserved": 0, "lon": -77.010899}, {"fusion_lat": 0.0, "name": "2e1eea9d35e27fd29a9dba4d504bacf5", "is_disabled": 0, "rental_uris": {"android": "https://dc.lft.to/lastmile_qr_scan", "ios": "https://dc.lft.to/lastmile_qr_scan"}, "fusion_lon": 0.0, "lat": 38.994440833333336, "bike_id": "2e1eea9d35e27fd29a9dba4d504bacf5", "type": "electric_bike", "is_reserved": 0, "lon": -76.99591383333333}, {"fusion_lat": 0.0, "name": "7aaabc7a6ed9f2fb41b499b9225d6145", "is_disabled": 0, "rental_uris": {"android": "https://dc.lft.to/lastmile_qr_scan", "ios": "https://dc.lft.to/lastmile_qr_scan"}, "fusion_lon": 0.0, "lat": 38.91799783333333, "bike_id": "7aaabc7a6ed9f2fb41b499b9225d6145", "type": "electric_scooter", "is_reserved": 0, "lon": -77.04019516666666}, {"fusion_lat": 0.0, "name": "9678ed3400f23a66d117b2300ba26933", "is_disabled": 0, "rental_uris": {"android": "https://dc.lft.to/lastmile_qr_scan", "ios": "https://dc.lft.to/lastmile_qr_scan"}, "fusion_lon": 0.0, "lat": 38.89254616666667, "bike_id": "9678ed3400f23a66d117b2300ba26933", "type": "electric_scooter", "is_reserved": 0, "lon": -77.04655283333334}, {"fusion_lat": 0.0, "name": "1b7426fef46e0042a5d79565d9c0462d", "is_disabled": 0, "rental_uris": {"android": "https://dc.lft.to/lastmile_qr_scan", "ios": "https://dc.lft.to/lastmile_qr_scan"}, "fusion_lon": 0.0, "lat": 38.929008, "bike_id": "1b7426fef46e0042a5d79565d9c0462d", "type": "electric_scooter", "is_reserved": 0, "lon": -77.032396}, {"fusion_lat": 0.0, "name": "b048d77587d7a538d383d1f56909283f", "is_disabled": 0, "rental_uris": {"android": "https://dc.lft.to/lastmile_qr_scan", "ios": "https://dc.lft.to/lastmile_qr_scan"}, "fusion_lon": 0.0, "lat": 38.89705766666667, "bike_id": "b048d77587d7a538d383d1f56909283f", "type": "electric_scooter", "is_reserved": 0, "lon": -77.03203983333333}, {"fusion_lat": 0.0, "name": "962ca97fef1e1e44ae98b0026aeb5a28", "is_disabled": 0, "rental_uris": {"android": "https://dc.lft.to/lastmile_qr_scan", "ios": "https://dc.lft.to/lastmile_qr_scan"}, "fusion_lon": 0.0, "lat": 38.940495166666665, "bike_id": "962ca97fef1e1e44ae98b0026aeb5a28", "type": "electric_bike", "is_reserved": 0, "lon": -76.904203}, {"fusion_lat": 0.0, "name": "b6e0ad3d38bd54aa557ffaf5c2528dfa", "is_disabled": 0, "rental_uris": {"android": "https://dc.lft.to/lastmile_qr_scan", "ios": "https://dc.lft.to/lastmile_qr_scan"}, "fusion_lon": 0.0, "lat": 38.92277283333333, "bike_id": "b6e0ad3d38bd54aa557ffaf5c2528dfa", "type": "electric_scooter", "is_reserved": 0, "lon": -77.029759}, {"fusion_lat": 0.0, "name": "1f8cb45f0c4d26136f9221755c0f5088", "is_disabled": 0, "rental_uris": {"android": "https://dc.lft.to/lastmile_qr_scan", "ios": "https://dc.lft.to/lastmile_qr_scan"}, "fusion_lon": 0.0, "lat": 38.915745666666666, "bike_id": "1f8cb45f0c4d26136f9221755c0f5088", "type": "electric_scooter", "is_reserved": 0, "lon": -77.01250883333333}, {"fusion_lat": 0.0, "name": "155ffc5e50a1cc7940cde53d141ff204", "is_disabled": 0, "rental_uris": {"android": "https://dc.lft.to/lastmile_qr_scan", "ios": "https://dc.lft.to/lastmile_qr_scan"}, "fusion_lon": 0.0, "lat": 38.91506416666667, "bike_id": "155ffc5e50a1cc7940cde53d141ff204", "type": "electric_scooter", "is_reserved": 0, "lon": -77.0320135}, {"fusion_lat": 0.0, "name": "021d2b111c3c70bcd2fac14eacc429af", "is_disabled": 0, "rental_uris": {"android": "https://dc.lft.to/lastmile_qr_scan", "ios": "https://dc.lft.to/lastmile_qr_scan"}, "fusion_lon": 0.0, "lat": 38.92107933333333, "bike_id": "021d2b111c3c70bcd2fac14eacc429af", "type": "electric_scooter", "is_reserved": 0, "lon": -77.04703616666667}, {"fusion_lat": 0.0, "name": "945a2d0d6f871f59244339c33b5c3581", "is_disabled": 0, "rental_uris": {"android": "https://dc.lft.to/lastmile_qr_scan", "ios": "https://dc.lft.to/lastmile_qr_scan"}, "fusion_lon": 0.0, "lat": 38.90956883333333, "bike_id": "945a2d0d6f871f59244339c33b5c3581", "type": "electric_scooter", "is_reserved": 0, "lon": -77.045298}, {"fusion_lat": 0.0, "name": "423f29e8072a5a3179ceff7629d83cd1", "is_disabled": 0, "rental_uris": {"android": "https://dc.lft.to/lastmile_qr_scan", "ios": "https://dc.lft.to/lastmile_qr_scan"}, "fusion_lon": 0.0, "lat": 38.89225116666667, "bike_id": "423f29e8072a5a3179ceff7629d83cd1", "type": "electric_scooter", "is_reserved": 0, "lon": -77.04195}, {"fusion_lat": 0.0, "name": "3064f9693c35d957656d4d30fd9e6c13", "is_disabled": 0, "rental_uris": {"android": "https://dc.lft.to/lastmile_qr_scan", "ios": "https://dc.lft.to/lastmile_qr_scan"}, "fusion_lon": 0.0, "lat": 38.90553216666667, "bike_id": "3064f9693c35d957656d4d30fd9e6c13", "type": "electric_scooter", "is_reserved": 0, "lon": -77.04629316666667}, {"fusion_lat": 0.0, "name": "53e280acf5903663a223ebfec9f64c47", "is_disabled": 0, "rental_uris": {"android": "https://dc.lft.to/lastmile_qr_scan", "ios": "https://dc.lft.to/lastmile_qr_scan"}, "fusion_lon": 0.0, "lat": 38.86464466666666, "bike_id": "53e280acf5903663a223ebfec9f64c47", "type": "electric_bike", "is_reserved": 0, "lon": -76.94527133333334}, {"fusion_lat": 0.0, "name": "a11206de82d9b7ceea310c47d7c97ede", "is_disabled": 0, "rental_uris": {"android": "https://dc.lft.to/lastmile_qr_scan", "ios": "https://dc.lft.to/lastmile_qr_scan"}, "fusion_lon": 0.0, "lat": 38.93871166666667, "bike_id": "a11206de82d9b7ceea310c47d7c97ede", "type": "electric_scooter", "is_reserved": 0, "lon": -77.02483983333333}, {"fusion_lat": 0.0, "name": "a7603acb70910a42bdeb4edf6f51662a", "is_disabled": 0, "rental_uris": {"android": "https://dc.lft.to/lastmile_qr_scan", "ios": "https://dc.lft.to/lastmile_qr_scan"}, "fusion_lon": 0.0, "lat": 38.92827616666667, "bike_id": "a7603acb70910a42bdeb4edf6f51662a", "type": "electric_scooter", "is_reserved": 0, "lon": -77.01402716666666}, {"fusion_lat": 0.0, "name": "9e1c09a028dc8c88c1b310cc2a4fd0f7", "is_disabled": 0, "rental_uris": {"android": "https://dc.lft.to/lastmile_qr_scan", "ios": "https://dc.lft.to/lastmile_qr_scan"}, "fusion_lon": 0.0, "lat": 38.89788, "bike_id": "9e1c09a028dc8c88c1b310cc2a4fd0f7", "type": "electric_bike", "is_reserved": 0, "lon": -76.9903265}, {"fusion_lat": 0.0, "name": "9a9fd7d33508f50c36450ab30fb5b5d5", "is_disabled": 0, "rental_uris": {"android": "https://dc.lft.to/lastmile_qr_scan", "ios": "https://dc.lft.to/lastmile_qr_scan"}, "fusion_lon": 0.0, "lat": 38.92109333333333, "bike_id": "9a9fd7d33508f50c36450ab30fb5b5d5", "type": "electric_bike", "is_reserved": 0, "lon": -77.0632755}, {"fusion_lat": 0.0, "name": "68bea70b60a87637df75d8dd36b84f6b", "is_disabled": 0, "rental_uris": {"android": "https://dc.lft.to/lastmile_qr_scan", "ios": "https://dc.lft.to/lastmile_qr_scan"}, "fusion_lon": 0.0, "lat": 38.978339166666665, "bike_id": "68bea70b60a87637df75d8dd36b84f6b", "type": "electric_bike", "is_reserved": 0, "lon": -77.09087216666667}, {"fusion_lat": 0.0, "name": "9305f31b4cf628e6f7eb76b3e34a92f6", "is_disabled": 0, "rental_uris": {"android": "https://dc.lft.to/lastmile_qr_scan", "ios": "https://dc.lft.to/lastmile_qr_scan"}, "fusion_lon": 0.0, "lat": 38.9307515, "bike_id": "9305f31b4cf628e6f7eb76b3e34a92f6", "type": "electric_scooter", "is_reserved": 0, "lon": -77.0375965}, {"fusion_lat": 0.0, "name": "352833e3caacc1e52e50ec6f212dda5f", "is_disabled": 0, "rental_uris": {"android": "https://dc.lft.to/lastmile_qr_scan", "ios": "https://dc.lft.to/lastmile_qr_scan"}, "fusion_lon": 0.0, "lat": 38.90233466666667, "bike_id": "352833e3caacc1e52e50ec6f212dda5f", "type": "electric_scooter", "is_reserved": 0, "lon": -77.03830883333333}, {"fusion_lat": 0.0, "name": "879d851a61673f5181b6742379bd05cb", "is_disabled": 0, "rental_uris": {"android": "https://dc.lft.to/lastmile_qr_scan", "ios": "https://dc.lft.to/lastmile_qr_scan"}, "fusion_lon": 0.0, "lat": 38.921053666666666, "bike_id": "879d851a61673f5181b6742379bd05cb", "type": "electric_scooter", "is_reserved": 0, "lon": -77.04211166666667}, {"fusion_lat": 0.0, "name": "0219d19ee84b2bab150b680531dd459c", "is_disabled": 0, "rental_uris": {"android": "https://dc.lft.to/lastmile_qr_scan", "ios": "https://dc.lft.to/lastmile_qr_scan"}, "fusion_lon": 0.0, "lat": 38.907399, "bike_id": "0219d19ee84b2bab150b680531dd459c", "type": "electric_scooter", "is_reserved": 0, "lon": -76.99792266666667}, {"fusion_lat": 0.0, "name": "9f15e569dec1fe1efa11a6e254c97f8f", "is_disabled": 0, "rental_uris": {"android": "https://dc.lft.to/lastmile_qr_scan", "ios": "https://dc.lft.to/lastmile_qr_scan"}, "fusion_lon": 0.0, "lat": 38.896747833333336, "bike_id": "9f15e569dec1fe1efa11a6e254c97f8f", "type": "electric_scooter", "is_reserved": 0, "lon": -77.03224316666666}, {"fusion_lat": 0.0, "name": "bcd145c887257639736a73e1c126a111", "is_disabled": 0, "rental_uris": {"android": "https://dc.lft.to/lastmile_qr_scan", "ios": "https://dc.lft.to/lastmile_qr_scan"}, "fusion_lon": 0.0, "lat": 38.917504666666666, "bike_id": "bcd145c887257639736a73e1c126a111", "type": "electric_scooter", "is_reserved": 0, "lon": -77.03852283333333}, {"fusion_lat": 0.0, "name": "c3b3cd5051168796ca0216759d6abda7", "is_disabled": 0, "rental_uris": {"android": "https://dc.lft.to/lastmile_qr_scan", "ios": "https://dc.lft.to/lastmile_qr_scan"}, "fusion_lon": 0.0, "lat": 38.92599833333333, "bike_id": "c3b3cd5051168796ca0216759d6abda7", "type": "electric_scooter", "is_reserved": 0, "lon": -77.02382516666667}, {"fusion_lat": 0.0, "name": "2a95c32f29873d7b73289030a30636c9", "is_disabled": 0, "rental_uris": {"android": "https://dc.lft.to/lastmile_qr_scan", "ios": "https://dc.lft.to/lastmile_qr_scan"}, "fusion_lon": 0.0, "lat": 38.91490266666667, "bike_id": "2a95c32f29873d7b73289030a30636c9", "type": "electric_scooter", "is_reserved": 0, "lon": -77.03725133333333}, {"fusion_lat": 0.0, "name": "ec6f97bc568849fde87dde786454c0db", "is_disabled": 0, "rental_uris": {"android": "https://dc.lft.to/lastmile_qr_scan", "ios": "https://dc.lft.to/lastmile_qr_scan"}, "fusion_lon": 0.0, "lat": 38.874756, "bike_id": "ec6f97bc568849fde87dde786454c0db", "type": "electric_scooter", "is_reserved": 0, "lon": -77.01886233333333}, {"fusion_lat": 0.0, "name": "2e14cb787e6c312c1d6c9dac9ad19851", "is_disabled": 0, "rental_uris": {"android": "https://dc.lft.to/lastmile_qr_scan", "ios": "https://dc.lft.to/lastmile_qr_scan"}, "fusion_lon": 0.0, "lat": 38.89882683333333, "bike_id": "2e14cb787e6c312c1d6c9dac9ad19851", "type": "electric_scooter", "is_reserved": 0, "lon": -77.0271445}, {"fusion_lat": 0.0, "name": "6d09a0abb8191f02361ccedef79e686c", "is_disabled": 0, "rental_uris": {"android": "https://dc.lft.to/lastmile_qr_scan", "ios": "https://dc.lft.to/lastmile_qr_scan"}, "fusion_lon": 0.0, "lat": 38.909622666666664, "bike_id": "6d09a0abb8191f02361ccedef79e686c", "type": "electric_scooter", "is_reserved": 0, "lon": -77.03318266666666}, {"fusion_lat": 0.0, "name": "2bd899df61bd9d5d6259e5d722e667aa", "is_disabled": 0, "rental_uris": {"android": "https://dc.lft.to/lastmile_qr_scan", "ios": "https://dc.lft.to/lastmile_qr_scan"}, "fusion_lon": 0.0, "lat": 38.887345833333335, "bike_id": "2bd899df61bd9d5d6259e5d722e667aa", "type": "electric_scooter", "is_reserved": 0, "lon": -77.0152925}, {"fusion_lat": 0.0, "name": "d9394b2eccd008e2182227a81d413ae7", "is_disabled": 0, "rental_uris": {"android": "https://dc.lft.to/lastmile_qr_scan", "ios": "https://dc.lft.to/lastmile_qr_scan"}, "fusion_lon": 0.0, "lat": 38.8922135, "bike_id": "d9394b2eccd008e2182227a81d413ae7", "type": "electric_scooter", "is_reserved": 0, "lon": -77.03975516666667}, {"fusion_lat": 0.0, "name": "22d441bb0df78193e30c0068f6e8a80f", "is_disabled": 0, "rental_uris": {"android": "https://dc.lft.to/lastmile_qr_scan", "ios": "https://dc.lft.to/lastmile_qr_scan"}, "fusion_lon": 0.0, "lat": 38.902412166666664, "bike_id": "22d441bb0df78193e30c0068f6e8a80f", "type": "electric_scooter", "is_reserved": 0, "lon": -77.00199}, {"fusion_lat": 0.0, "name": "195e4f6bc819e598056664b7c9f40ffa", "is_disabled": 0, "rental_uris": {"android": "https://dc.lft.to/lastmile_qr_scan", "ios": "https://dc.lft.to/lastmile_qr_scan"}, "fusion_lon": 0.0, "lat": 38.88736, "bike_id": "195e4f6bc819e598056664b7c9f40ffa", "type": "electric_scooter", "is_reserved": 0, "lon": -77.02580066666667}, {"fusion_lat": 0.0, "name": "f2025d8fd421de93075ac40dbc83d74f", "is_disabled": 0, "rental_uris": {"android": "https://dc.lft.to/lastmile_qr_scan", "ios": "https://dc.lft.to/lastmile_qr_scan"}, "fusion_lon": 0.0, "lat": 38.915673166666664, "bike_id": "f2025d8fd421de93075ac40dbc83d74f", "type": "electric_scooter", "is_reserved": 0, "lon": -77.02131783333333}, {"fusion_lat": 0.0, "name": "bb4629440bf07502355abbd7d8cc2af3", "is_disabled": 0, "rental_uris": {"android": "https://dc.lft.to/lastmile_qr_scan", "ios": "https://dc.lft.to/lastmile_qr_scan"}, "fusion_lon": 0.0, "lat": 38.9789445, "bike_id": "bb4629440bf07502355abbd7d8cc2af3", "type": "electric_bike", "is_reserved": 0, "lon": -77.060307}, {"fusion_lat": 0.0, "name": "297bbef76985d75b12b5a817cd5a37ca", "is_disabled": 0, "rental_uris": {"android": "https://dc.lft.to/lastmile_qr_scan", "ios": "https://dc.lft.to/lastmile_qr_scan"}, "fusion_lon": 0.0, "lat": 38.943696333333335, "bike_id": "297bbef76985d75b12b5a817cd5a37ca", "type": "electric_bike", "is_reserved": 0, "lon": -77.02224883333334}, {"fusion_lat": 0.0, "name": "a0e00f57aef9efa1f2fecec61286ddba", "is_disabled": 0, "rental_uris": {"android": "https://dc.lft.to/lastmile_qr_scan", "ios": "https://dc.lft.to/lastmile_qr_scan"}, "fusion_lon": 0.0, "lat": 38.8393375, "bike_id": "a0e00f57aef9efa1f2fecec61286ddba", "type": "electric_bike", "is_reserved": 0, "lon": -77.07901933333333}, {"fusion_lat": 0.0, "name": "fccb446ab6522cf227f41012efdf1bd1", "is_disabled": 0, "rental_uris": {"android": "https://dc.lft.to/lastmile_qr_scan", "ios": "https://dc.lft.to/lastmile_qr_scan"}, "fusion_lon": 0.0, "lat": 38.90512733333333, "bike_id": "fccb446ab6522cf227f41012efdf1bd1", "type": "electric_scooter", "is_reserved": 0, "lon": -77.04953733333333}, {"fusion_lat": 0.0, "name": "517e259d547a6e9ffdadb88c70ee4981", "is_disabled": 0, "rental_uris": {"android": "https://dc.lft.to/lastmile_qr_scan", "ios": "https://dc.lft.to/lastmile_qr_scan"}, "fusion_lon": 0.0, "lat": 38.917694166666664, "bike_id": "517e259d547a6e9ffdadb88c70ee4981", "type": "electric_scooter", "is_reserved": 0, "lon": -77.023189}, {"fusion_lat": 0.0, "name": "72ea88474af73ebd6b6b4ea0882c49ae", "is_disabled": 0, "rental_uris": {"android": "https://dc.lft.to/lastmile_qr_scan", "ios": "https://dc.lft.to/lastmile_qr_scan"}, "fusion_lon": 0.0, "lat": 38.91259866666667, "bike_id": "72ea88474af73ebd6b6b4ea0882c49ae", "type": "electric_scooter", "is_reserved": 0, "lon": -77.04432533333333}, {"fusion_lat": 0.0, "name": "4f1dde8172720fdec1c55717d25aaf3c", "is_disabled": 0, "rental_uris": {"android": "https://dc.lft.to/lastmile_qr_scan", "ios": "https://dc.lft.to/lastmile_qr_scan"}, "fusion_lon": 0.0, "lat": 38.896694833333335, "bike_id": "4f1dde8172720fdec1c55717d25aaf3c", "type": "electric_scooter", "is_reserved": 0, "lon": -77.05467233333333}, {"fusion_lat": 0.0, "name": "1960fbcce5a83207626e6e67fea6b56c", "is_disabled": 0, "rental_uris": {"android": "https://dc.lft.to/lastmile_qr_scan", "ios": "https://dc.lft.to/lastmile_qr_scan"}, "fusion_lon": 0.0, "lat": 38.8852495, "bike_id": "1960fbcce5a83207626e6e67fea6b56c", "type": "electric_scooter", "is_reserved": 0, "lon": -76.97708816666666}, {"fusion_lat": 0.0, "name": "1c5482f1f76e151116930cd3fc4a6103", "is_disabled": 0, "rental_uris": {"android": "https://dc.lft.to/lastmile_qr_scan", "ios": "https://dc.lft.to/lastmile_qr_scan"}, "fusion_lon": 0.0, "lat": 38.8718235, "bike_id": "1c5482f1f76e151116930cd3fc4a6103", "type": "electric_scooter", "is_reserved": 0, "lon": -77.00611933333333}, {"fusion_lat": 0.0, "name": "ee83fb116bbe7382c6b74045be4a1f35", "is_disabled": 0, "rental_uris": {"android": "https://dc.lft.to/lastmile_qr_scan", "ios": "https://dc.lft.to/lastmile_qr_scan"}, "fusion_lon": 0.0, "lat": 38.9255645, "bike_id": "ee83fb116bbe7382c6b74045be4a1f35", "type": "electric_scooter", "is_reserved": 0, "lon": -77.02274566666667}, {"fusion_lat": 0.0, "name": "2a77acb4a48fd6de55dbde3a0e07caec", "is_disabled": 0, "rental_uris": {"android": "https://dc.lft.to/lastmile_qr_scan", "ios": "https://dc.lft.to/lastmile_qr_scan"}, "fusion_lon": 0.0, "lat": 38.903860333333334, "bike_id": "2a77acb4a48fd6de55dbde3a0e07caec", "type": "electric_scooter", "is_reserved": 0, "lon": -77.04453483333333}, {"fusion_lat": 0.0, "name": "9c60bc17e1be2e7aa27f9ee0a8b2b7c9", "is_disabled": 0, "rental_uris": {"android": "https://dc.lft.to/lastmile_qr_scan", "ios": "https://dc.lft.to/lastmile_qr_scan"}, "fusion_lon": 0.0, "lat": 38.900385166666666, "bike_id": "9c60bc17e1be2e7aa27f9ee0a8b2b7c9", "type": "electric_scooter", "is_reserved": 0, "lon": -76.9973465}, {"fusion_lat": 0.0, "name": "7f4bb2bbd7e8618b5bb004eaab92c169", "is_disabled": 0, "rental_uris": {"android": "https://dc.lft.to/lastmile_qr_scan", "ios": "https://dc.lft.to/lastmile_qr_scan"}, "fusion_lon": 0.0, "lat": 38.902741666666664, "bike_id": "7f4bb2bbd7e8618b5bb004eaab92c169", "type": "electric_scooter", "is_reserved": 0, "lon": -76.98728033333333}, {"fusion_lat": 0.0, "name": "23d6d5818bb2305d9621c9b3856bd441", "is_disabled": 0, "rental_uris": {"android": "https://dc.lft.to/lastmile_qr_scan", "ios": "https://dc.lft.to/lastmile_qr_scan"}, "fusion_lon": 0.0, "lat": 38.909616, "bike_id": "23d6d5818bb2305d9621c9b3856bd441", "type": "electric_bike", "is_reserved": 0, "lon": -77.22887066666667}, {"fusion_lat": 0.0, "name": "dc434686b88d98981ab0ac3da9e2384c", "is_disabled": 0, "rental_uris": {"android": "https://dc.lft.to/lastmile_qr_scan", "ios": "https://dc.lft.to/lastmile_qr_scan"}, "fusion_lon": 0.0, "lat": 38.92863716666667, "bike_id": "dc434686b88d98981ab0ac3da9e2384c", "type": "electric_scooter", "is_reserved": 0, "lon": -77.03514833333334}, {"fusion_lat": 0.0, "name": "b9dd6433bff95dff0b7a5cc53b96b181", "is_disabled": 0, "rental_uris": {"android": "https://dc.lft.to/lastmile_qr_scan", "ios": "https://dc.lft.to/lastmile_qr_scan"}, "fusion_lon": 0.0, "lat": 38.8981995, "bike_id": "b9dd6433bff95dff0b7a5cc53b96b181", "type": "electric_scooter", "is_reserved": 0, "lon": -77.03336016666667}, {"fusion_lat": 0.0, "name": "d4fd566f3aefdb2700ae93860b70af11", "is_disabled": 0, "rental_uris": {"android": "https://dc.lft.to/lastmile_qr_scan", "ios": "https://dc.lft.to/lastmile_qr_scan"}, "fusion_lon": 0.0, "lat": 38.8806545, "bike_id": "d4fd566f3aefdb2700ae93860b70af11", "type": "electric_scooter", "is_reserved": 0, "lon": -76.9322135}, {"fusion_lat": 0.0, "name": "e610afbafebd260e80f493b28a802192", "is_disabled": 0, "rental_uris": {"android": "https://dc.lft.to/lastmile_qr_scan", "ios": "https://dc.lft.to/lastmile_qr_scan"}, "fusion_lon": 0.0, "lat": 38.901454333333334, "bike_id": "e610afbafebd260e80f493b28a802192", "type": "electric_scooter", "is_reserved": 0, "lon": -76.990252}, {"fusion_lat": 0.0, "name": "d6a6257f3387a281fc7dcffe6c3937b1", "is_disabled": 0, "rental_uris": {"android": "https://dc.lft.to/lastmile_qr_scan", "ios": "https://dc.lft.to/lastmile_qr_scan"}, "fusion_lon": 0.0, "lat": 38.9349415, "bike_id": "d6a6257f3387a281fc7dcffe6c3937b1", "type": "electric_scooter", "is_reserved": 0, "lon": -77.03079883333334}, {"fusion_lat": 0.0, "name": "75048ec6f54af55fc277730d1b171281", "is_disabled": 0, "rental_uris": {"android": "https://dc.lft.to/lastmile_qr_scan", "ios": "https://dc.lft.to/lastmile_qr_scan"}, "fusion_lon": 0.0, "lat": 38.89462, "bike_id": "75048ec6f54af55fc277730d1b171281", "type": "electric_scooter", "is_reserved": 0, "lon": -77.026201}, {"fusion_lat": 0.0, "name": "9b77129229aa9ebbf838cea9575b6add", "is_disabled": 0, "rental_uris": {"android": "https://dc.lft.to/lastmile_qr_scan", "ios": "https://dc.lft.to/lastmile_qr_scan"}, "fusion_lon": 0.0, "lat": 38.883110333333335, "bike_id": "9b77129229aa9ebbf838cea9575b6add", "type": "electric_scooter", "is_reserved": 0, "lon": -76.99158866666667}, {"fusion_lat": 0.0, "name": "0a5d28b0ac259e777a38cc396cb003ff", "is_disabled": 0, "rental_uris": {"android": "https://dc.lft.to/lastmile_qr_scan", "ios": "https://dc.lft.to/lastmile_qr_scan"}, "fusion_lon": 0.0, "lat": 38.906098, "bike_id": "0a5d28b0ac259e777a38cc396cb003ff", "type": "electric_scooter", "is_reserved": 0, "lon": -77.06771683333334}, {"fusion_lat": 0.0, "name": "a640629c3d5e80e5df48aa6d8276f466", "is_disabled": 0, "rental_uris": {"android": "https://dc.lft.to/lastmile_qr_scan", "ios": "https://dc.lft.to/lastmile_qr_scan"}, "fusion_lon": 0.0, "lat": 38.957448166666666, "bike_id": "a640629c3d5e80e5df48aa6d8276f466", "type": "electric_bike", "is_reserved": 0, "lon": -76.97253633333334}, {"fusion_lat": 0.0, "name": "3a154c46c19b32ba98560bf3c0881b4e", "is_disabled": 0, "rental_uris": {"android": "https://dc.lft.to/lastmile_qr_scan", "ios": "https://dc.lft.to/lastmile_qr_scan"}, "fusion_lon": 0.0, "lat": 38.91327066666667, "bike_id": "3a154c46c19b32ba98560bf3c0881b4e", "type": "electric_scooter", "is_reserved": 0, "lon": -77.02952433333333}, {"fusion_lat": 0.0, "name": "5c708ed006e441ac3e905413ea3826f5", "is_disabled": 0, "rental_uris": {"android": "https://dc.lft.to/lastmile_qr_scan", "ios": "https://dc.lft.to/lastmile_qr_scan"}, "fusion_lon": 0.0, "lat": 38.89739566666667, "bike_id": "5c708ed006e441ac3e905413ea3826f5", "type": "electric_scooter", "is_reserved": 0, "lon": -77.02016516666667}, {"fusion_lat": 0.0, "name": "6d58373e75e7217cc0b212bcf2395f95", "is_disabled": 0, "rental_uris": {"android": "https://dc.lft.to/lastmile_qr_scan", "ios": "https://dc.lft.to/lastmile_qr_scan"}, "fusion_lon": 0.0, "lat": 38.92228583333333, "bike_id": "6d58373e75e7217cc0b212bcf2395f95", "type": "electric_scooter", "is_reserved": 0, "lon": -76.9935275}, {"fusion_lat": 0.0, "name": "2069ad34c6c1499a6e2aa82dc216cc31", "is_disabled": 0, "rental_uris": {"android": "https://dc.lft.to/lastmile_qr_scan", "ios": "https://dc.lft.to/lastmile_qr_scan"}, "fusion_lon": 0.0, "lat": 38.916968833333335, "bike_id": "2069ad34c6c1499a6e2aa82dc216cc31", "type": "electric_scooter", "is_reserved": 0, "lon": -77.007397}, {"fusion_lat": 0.0, "name": "8a40bf8f10e4fec01340489ec83ace5d", "is_disabled": 0, "rental_uris": {"android": "https://dc.lft.to/lastmile_qr_scan", "ios": "https://dc.lft.to/lastmile_qr_scan"}, "fusion_lon": 0.0, "lat": 38.95739966666667, "bike_id": "8a40bf8f10e4fec01340489ec83ace5d", "type": "electric_bike", "is_reserved": 0, "lon": -76.97249116666667}, {"fusion_lat": 0.0, "name": "17d77bdd70a8d32d67faf25d14c131ee", "is_disabled": 0, "rental_uris": {"android": "https://dc.lft.to/lastmile_qr_scan", "ios": "https://dc.lft.to/lastmile_qr_scan"}, "fusion_lon": 0.0, "lat": 38.91663533333333, "bike_id": "17d77bdd70a8d32d67faf25d14c131ee", "type": "electric_scooter", "is_reserved": 0, "lon": -77.03848183333334},