{"data": {"bikes": [{"fusion_lat": 0.0, "type": "electric_scooter", "name": "4142c6e58112401e2ea95c6861adef70", "fusion_lon": 0.0, "bike_id": "4142c6e58112401e2ea95c6861adef70", "is_reserved": 0, "rental_uris": {"android": "https://dc.lft.to/lastmile_qr_scan", "ios": "https://dc.lft.to/lastmile_qr_scan"}, "lat": 38.917939833333335, "is_disabled": 0, "lon": -77.04040583333334}, {"fusion_lat": 0.0, "type": "electric_scooter", "name": "ca0f41c32ccc8b541aec83b1ce0991d7", "fusion_lon": 0.0, "bike_id": "ca0f41c32ccc8b541aec83b1ce0991d7", "is_reserved": 0, "rental_uris": {"android": "https://dc.lft.to/lastmile_qr_scan", "ios": "https://dc.lft.to/lastmile_qr_scan"}, "lat": 38.917578, "is_disabled": 0, "lon": -77.03140433333333}, {"fusion_lat": 0.0, "type": "electric_scooter", "name": "0db9f3739f2fa38e035e679fd99dd611", "fusion_lon": 0.0, "bike_id": "0db9f3739f2fa38e035e679fd99dd611", "is_reserved": 0, "rental_uris": {"android": "https://dc.lft.to/lastmile_qr_scan", "ios": "https://dc.lft.to/lastmile_qr_scan"}, "lat": 38.9017325, "is_disabled": 0, "lon": -76.98072583333334}, {"fusion_lat": 0.0, "type": "electric_scooter", "name": "8b5049e47ffb71cbace6152a9fae870d", "fusion_lon": 0.0, "bike_id": "8b5049e47ffb71cbace6152a9fae870d", "is_reserved": 0, "rental_uris": {"android": "https://dc.lft.to/lastmile_qr_scan", "ios": "https://dc.lft.to/lastmile_qr_scan"}, "lat": 38.89428816666667, "is_disabled": 0, "lon": -77.02105883333333}, {"fusion_lat": 0.0, "type": "electric_scooter", "name": "92ab27b1dbe2518da8f3068f5120e962", "fusion_lon": 0.0, "bike_id": "92ab27b1dbe2518da8f3068f5120e962", "is_reserved": 0, "rental_uris": {"android": "https://dc.lft.to/lastmile_qr_scan", "ios": "https://dc.lft.to/lastmile_qr_scan"}, "lat": 38.9347785, "is_disabled": 0, "lon": -77.02409033333333}, {"fusion_lat": 0.0, "type": "electric_scooter", "name": "8b161e2328a99e9015ce495024f47d7e", "fusion_lon": 0.0, "bike_id": "8b161e2328a99e9015ce495024f47d7e", "is_reserved": 0, "rental_uris": {"android": "https://dc.lft.to/lastmile_qr_scan", "ios": "https://dc.lft.to/lastmile_qr_scan"}, "lat": 38.907181333333334, "is_disabled": 0, "lon": -77.03479566666667}, {"fusion_lat": 0.0, "type": "electric_scooter", "name": "965a9261a330fb449fe8638ab6ee2e53", "fusion_lon": 0.0, "bike_id": "965a9261a330fb449fe8638ab6ee2e53", "is_reserved": 0, "rental_uris": {"android": "https://dc.lft.to/lastmile_qr_scan", "ios": "https://dc.lft.to/lastmile_qr_scan"}, "lat": 38.91703616666667, "is_disabled": 0, "lon": -77.02994066666666}, {"fusion_lat": 0.0, "type": "electric_scooter", "name": "01854e76d5d10f3942916c7868f10354", "fusion_lon": 0.0, "bike_id": "01854e76d5d10f3942916c7868f10354", "is_reserved": 0, "rental_uris": {"android": "https://dc.lft.to/lastmile_qr_scan", "ios": "https://dc.lft.to/lastmile_qr_scan"}, "lat": 38.9168695, "is_disabled": 0, "lon": -77.03221133333334}, {"fusion_lat": 0.0, "type": "electric_scooter", "name": "a17c365daba48516d1dca3996d86ec2e", "fusion_lon": 0.0, "bike_id": "a17c365daba48516d1dca3996d86ec2e", "is_reserved": 0, "rental_uris": {"android": "https://dc.lft.to/lastmile_qr_scan", "ios": "https://dc.lft.to/lastmile_qr_scan"}, "lat": 38.89315633333333, "is_disabled": 0, "lon": -76.95116283333333}, {"fusion_lat": 0.0, "type": "electric_scooter", "name": "7b8bf5af0c42674bf37c4e2bcaa1c798", "fusion_lon": 0.0, "bike_id": "7b8bf5af0c42674bf37c4e2bcaa1c798", "is_reserved": 0, "rental_uris": {"android": "https://dc.lft.to/lastmile_qr_scan", "ios": "https://dc.lft.to/lastmile_qr_scan"}, "lat": 38.94181066666667, "is_disabled": 0, "lon": -77.02531716666667}, {"fusion_lat": 0.0, "type": "electric_scooter", "name": "c9fb086168d688fc78f500fa231c0fed", "fusion_lon": 0.0, "bike_id": "c9fb086168d688fc78f500fa231c0fed", "is_reserved": 0, "rental_uris": {"android": "https://dc.lft.to/lastmile_qr_scan", "ios": "https://dc.lft.to/lastmile_qr_scan"}, "lat": 38.91407133333333, "is_disabled": 0, "lon": -77.03235983333333}, {"fusion_lat": 0.0, "type": "electric_scooter", "name": "fa85d679d0c33312714241207bd140ad", "fusion_lon": 0.0, "bike_id": "fa85d679d0c33312714241207bd140ad", "is_reserved": 0, "rental_uris": {"android": "https://dc.lft.to/lastmile_qr_scan", "ios": "https://dc.lft.to/lastmile_qr_scan"}, "lat": 38.903136, "is_disabled": 0, "lon": -77.0332015}, {"fusion_lat": 0.0, "type": "electric_scooter", "name": "b8270fd173cd15e38adca0a6857226cc", "fusion_lon": 0.0, "bike_id": "b8270fd173cd15e38adca0a6857226cc", "is_reserved": 0, "rental_uris": {"android": "https://dc.lft.to/lastmile_qr_scan", "ios": "https://dc.lft.to/lastmile_qr_scan"}, "lat": 38.909729166666665, "is_disabled": 0, "lon": -77.0386995}, {"fusion_lat": 0.0, "type": "electric_scooter", "name": "20dfed8e646c5173b92e3c5d2b3bac0a", "fusion_lon": 0.0, "bike_id": "20dfed8e646c5173b92e3c5d2b3bac0a", "is_reserved": 0, "rental_uris": {"android": "https://dc.lft.to/lastmile_qr_scan", "ios": "https://dc.lft.to/lastmile_qr_scan"}, "lat": 38.8961285, "is_disabled": 0, "lon": -76.99295016666667}, {"fusion_lat": 0.0, "type": "electric_scooter", "name": "b913f72344c5b57cc513b584bee8080e", "fusion_lon": 0.0, "bike_id": "b913f72344c5b57cc513b584bee8080e", "is_reserved": 0, "rental_uris": {"android": "https://dc.lft.to/lastmile_qr_scan", "ios": "https://dc.lft.to/lastmile_qr_scan"}, "lat": 38.8843475, "is_disabled": 0, "lon": -77.03039033333333}, {"fusion_lat": 0.0, "type": "electric_scooter", "name": "ce9991593933c8439b6ad6b3798a1de2", "fusion_lon": 0.0, "bike_id": "ce9991593933c8439b6ad6b3798a1de2", "is_reserved": 0, "rental_uris": {"android": "https://dc.lft.to/lastmile_qr_scan", "ios": "https://dc.lft.to/lastmile_qr_scan"}, "lat": 38.940662, "is_disabled": 0, "lon": -77.02533883333334}, {"fusion_lat": 0.0, "type": "electric_scooter", "name": "8585c190237705e4dd26323fac4a4a31", "fusion_lon": 0.0, "bike_id": "8585c190237705e4dd26323fac4a4a31", "is_reserved": 0, "rental_uris": {"android": "https://dc.lft.to/lastmile_qr_scan", "ios": "https://dc.lft.to/lastmile_qr_scan"}, "lat": 38.89214233333333, "is_disabled": 0, "lon": -77.0316515}, {"fusion_lat": 0.0, "type": "electric_scooter", "name": "e5b8e19061d87e617de703df2e8841d0", "fusion_lon": 0.0, "bike_id": "e5b8e19061d87e617de703df2e8841d0", "is_reserved": 0, "rental_uris": {"android": "https://dc.lft.to/lastmile_qr_scan", "ios": "https://dc.lft.to/lastmile_qr_scan"}, "lat": 38.91447333333333, "is_disabled": 0, "lon": -77.0217405}, {"fusion_lat": 0.0, "type": "electric_scooter", "name": "737902902a43e2fe19aa6ad283fe5272", "fusion_lon": 0.0, "bike_id": "737902902a43e2fe19aa6ad283fe5272", "is_reserved": 0, "rental_uris": {"android": "https://dc.lft.to/lastmile_qr_scan", "ios": "https://dc.lft.to/lastmile_qr_scan"}, "lat": 38.889922, "is_disabled": 0, "lon": -76.93103633333334}, {"fusion_lat": 0.0, "type": "electric_scooter", "name": "1f68dd3e0d94190b705690895515c25d", "fusion_lon": 0.0, "bike_id": "1f68dd3e0d94190b705690895515c25d", "is_reserved": 0, "rental_uris": {"android": "https://dc.lft.to/lastmile_qr_scan", "ios": "https://dc.lft.to/lastmile_qr_scan"}, "lat": 38.91934833333333, "is_disabled": 0, "lon": -77.03262883333333}, {"fusion_lat": 0.0, "type": "electric_scooter", "name": "2f22391dda5ca07d9bc9090e5d86637a", "fusion_lon": 0.0, "bike_id": "2f22391dda5ca07d9bc9090e5d86637a", "is_reserved": 0, "rental_uris": {"android": "https://dc.lft.to/lastmile_qr_scan", "ios": "https://dc.lft.to/lastmile_qr_scan"}, "lat": 38.90535416666667, "is_disabled": 0, "lon": -77.048305}, {"fusion_lat": 0.0, "type": "electric_scooter", "name": "f18fe413e9db98dcc2b726cd457a4552", "fusion_lon": 0.0, "bike_id": "f18fe413e9db98dcc2b726cd457a4552", "is_reserved": 0, "rental_uris": {"android": "https://dc.lft.to/lastmile_qr_scan", "ios": "https://dc.lft.to/lastmile_qr_scan"}, "lat": 38.92127633333333, "is_disabled": 0, "lon": -77.02536066666667}, {"fusion_lat": 0.0, "type": "electric_bike", "name": "1ccd95ff7a57a60416d23194de98eb10", "fusion_lon": 0.0, "bike_id": "1ccd95ff7a57a60416d23194de98eb10", "is_reserved": 0, "rental_uris": {"android": "https://dc.lft.to/lastmile_qr_scan", "ios": "https://dc.lft.to/lastmile_qr_scan"}, "lat": 38.89649583333333, "is_disabled": 0, "lon": -76.93019316666667}, {"fusion_lat": 0.0, "type": "electric_scooter", "name": "7a9ff78acdd3a852ed2c11610436758f", "fusion_lon": 0.0, "bike_id": "7a9ff78acdd3a852ed2c11610436758f", "is_reserved": 0, "rental_uris": {"android": "https://dc.lft.to/lastmile_qr_scan", "ios": "https://dc.lft.to/lastmile_qr_scan"}, "lat": 38.91814316666667, "is_disabled": 0, "lon": -77.03448666666667}, {"fusion_lat": 0.0, "type": "electric_scooter", "name": "9a6bc19e22357b20ef9db20022af2c61", "fusion_lon": 0.0, "bike_id": "9a6bc19e22357b20ef9db20022af2c61", "is_reserved": 0, "rental_uris": {"android": "https://dc.lft.to/lastmile_qr_scan", "ios": "https://dc.lft.to/lastmile_qr_scan"}, "lat": 38.913265, "is_disabled": 0, "lon": -77.045316}, {"fusion_lat": 0.0, "type": "electric_scooter", "name": "846f2e4b24d7f0ccd0011fb8ed2f48ce", "fusion_lon": 0.0, "bike_id": "846f2e4b24d7f0ccd0011fb8ed2f48ce", "is_reserved": 0, "rental_uris": {"android": "https://dc.lft.to/lastmile_qr_scan", "ios": "https://dc.lft.to/lastmile_qr_scan"}, "lat": 38.91950683333334, "is_disabled": 0, "lon": -76.98080266666666}, {"fusion_lat": 0.0, "type": "electric_scooter", "name": "2b7a5de9a3b830ad620e66583de2248b", "fusion_lon": 0.0, "bike_id": "2b7a5de9a3b830ad620e66583de2248b", "is_reserved": 0, "rental_uris": {"android": "https://dc.lft.to/lastmile_qr_scan", "ios": "https://dc.lft.to/lastmile_qr_scan"}, "lat": 38.935239833333334, "is_disabled": 0, "lon": -77.07290966666666}, {"fusion_lat": 0.0, "type": "electric_scooter", "name": "ce31de350fdde6175bc20524a403ebc1", "fusion_lon": 0.0, "bike_id": "ce31de350fdde6175bc20524a403ebc1", "is_reserved": 0, "rental_uris": {"android": "https://dc.lft.to/lastmile_qr_scan", "ios": "https://dc.lft.to/lastmile_qr_scan"}, "lat": 38.90840816666667, "is_disabled": 0, "lon": -77.0426115}, {"fusion_lat": 0.0, "type": "electric_scooter", "name": "2f8c17146f686d67d648258a1124a6fb", "fusion_lon": 0.0, "bike_id": "2f8c17146f686d67d648258a1124a6fb", "is_reserved": 0, "rental_uris": {"android": "https://dc.lft.to/lastmile_qr_scan", "ios": "https://dc.lft.to/lastmile_qr_scan"}, "lat": 38.9223525, "is_disabled": 0, "lon": -77.04368166666667}, {"fusion_lat": 0.0, "type": "electric_scooter", "name": "42f5226e9d38e49abc42673fff70860a", "fusion_lon": 0.0, "bike_id": "42f5226e9d38e49abc42673fff70860a", "is_reserved": 0, "rental_uris": {"android": "https://dc.lft.to/lastmile_qr_scan", "ios": "https://dc.lft.to/lastmile_qr_scan"}, "lat": 38.9227875, "is_disabled": 0, "lon": -77.03899783333334}, {"fusion_lat": 0.0, "type": "electric_scooter", "name": "2d6d5786a3481a35fb7c5bb02c9fab93", "fusion_lon": 0.0, "bike_id": "2d6d5786a3481a35fb7c5bb02c9fab93", "is_reserved": 0, "rental_uris": {"android": "https://dc.lft.to/lastmile_qr_scan", "ios": "https://dc.lft.to/lastmile_qr_scan"}, "lat": 38.900135, "is_disabled": 0, "lon": -77.01853816666667}, {"fusion_lat": 0.0, "type": "electric_scooter", "name": "c389419a86278e8f973669cbde3b9113", "fusion_lon": 0.0, "bike_id": "c389419a86278e8f973669cbde3b9113", "is_reserved": 0, "rental_uris": {"android": "https://dc.lft.to/lastmile_qr_scan", "ios": "https://dc.lft.to/lastmile_qr_scan"}, "lat": 38.878941166666664, "is_disabled": 0, "lon": -77.02200016666667}, {"fusion_lat": 0.0, "type": "electric_bike", "name": "e948397c804a434a23a9edd962b6bc60", "fusion_lon": 0.0, "bike_id": "e948397c804a434a23a9edd962b6bc60", "is_reserved": 0, "rental_uris": {"android": "https://dc.lft.to/lastmile_qr_scan", "ios": "https://dc.lft.to/lastmile_qr_scan"}, "lat": 38.92195783333333, "is_disabled": 0, "lon": -77.08189783333333}, {"fusion_lat": 0.0, "type": "electric_scooter", "name": "b122e96bb625dfe68ac346aa21b984ac", "fusion_lon": 0.0, "bike_id": "b122e96bb625dfe68ac346aa21b984ac", "is_reserved": 0, "rental_uris": {"android": "https://dc.lft.to/lastmile_qr_scan", "ios": "https://dc.lft.to/lastmile_qr_scan"}, "lat": 38.92052483333333, "is_disabled": 0, "lon": -77.01622416666666}, {"fusion_lat": 0.0, "type": "electric_scooter", "name": "5eede5d0bdfd784ebd4f59641f4dd6db", "fusion_lon": 0.0, "bike_id": "5eede5d0bdfd784ebd4f59641f4dd6db", "is_reserved": 0, "rental_uris": {"android": "https://dc.lft.to/lastmile_qr_scan", "ios": "https://dc.lft.to/lastmile_qr_scan"}, "lat": 38.9521165, "is_disabled": 0, "lon": -77.00249466666666}, {"fusion_lat": 0.0, "type": "electric_scooter", "name": "f0b89ae7d4541037149b11d4ebbf66cc", "fusion_lon": 0.0, "bike_id": "f0b89ae7d4541037149b11d4ebbf66cc", "is_reserved": 0, "rental_uris": {"android": "https://dc.lft.to/lastmile_qr_scan", "ios": "https://dc.lft.to/lastmile_qr_scan"}, "lat": 38.89225283333333, "is_disabled": 0, "lon": -77.02347916666666}, {"fusion_lat": 0.0, "type": "electric_scooter", "name": "f33eb45b548a1bc85980f5e6de2c6293", "fusion_lon": 0.0, "bike_id": "f33eb45b548a1bc85980f5e6de2c6293", "is_reserved": 0, "rental_uris": {"android": "https://dc.lft.to/lastmile_qr_scan", "ios": "https://dc.lft.to/lastmile_qr_scan"}, "lat": 38.917817666666664, "is_disabled": 0, "lon": -77.02307816666666}, {"fusion_lat": 0.0, "type": "electric_scooter", "name": "5bb73b0fee336979d01a05d36f528728", "fusion_lon": 0.0, "bike_id": "5bb73b0fee336979d01a05d36f528728", "is_reserved": 0, "rental_uris": {"android": "https://dc.lft.to/lastmile_qr_scan", "ios": "https://dc.lft.to/lastmile_qr_scan"}, "lat": 38.898244, "is_disabled": 0, "lon": -77.033188}, {"fusion_lat": 0.0, "type": "electric_scooter", "name": "d615417174994e47865dd4f58bab6be1", "fusion_lon": 0.0, "bike_id": "d615417174994e47865dd4f58bab6be1", "is_reserved": 0, "rental_uris": {"android": "https://dc.lft.to/lastmile_qr_scan", "ios": "https://dc.lft.to/lastmile_qr_scan"}, "lat": 38.920105, "is_disabled": 0, "lon": -77.02376283333334}, {"fusion_lat": 0.0, "type": "electric_scooter", "name": "a18222c3283909ebf377e65a0be73d28", "fusion_lon": 0.0, "bike_id": "a18222c3283909ebf377e65a0be73d28", "is_reserved": 0, "rental_uris": {"android": "https://dc.lft.to/lastmile_qr_scan", "ios": "https://dc.lft.to/lastmile_qr_scan"}, "lat": 38.9111865, "is_disabled": 0, "lon": -77.04370483333334}, {"fusion_lat": 0.0, "type": "electric_scooter", "name": "337ef57e2a0ea89c6bcb5aea6b23a3b9", "fusion_lon": 0.0, "bike_id": "337ef57e2a0ea89c6bcb5aea6b23a3b9", "is_reserved": 0, "rental_uris": {"android": "https://dc.lft.to/lastmile_qr_scan", "ios": "https://dc.lft.to/lastmile_qr_scan"}, "lat": 38.91884666666667, "is_disabled": 0, "lon": -77.0376675}, {"fusion_lat": 0.0, "type": "electric_scooter", "name": "28191d3f6054529af38547e10ca27088", "fusion_lon": 0.0, "bike_id": "28191d3f6054529af38547e10ca27088", "is_reserved": 0, "rental_uris": {"android": "https://dc.lft.to/lastmile_qr_scan", "ios": "https://dc.lft.to/lastmile_qr_scan"}, "lat": 38.887407333333336, "is_disabled": 0, "lon": -77.02734616666666}, {"fusion_lat": 0.0, "type": "electric_scooter", "name": "a7acf569ee22d21832e5ed9f9c1efe65", "fusion_lon": 0.0, "bike_id": "a7acf569ee22d21832e5ed9f9c1efe65", "is_reserved": 0, "rental_uris": {"android": "https://dc.lft.to/lastmile_qr_scan", "ios": "https://dc.lft.to/lastmile_qr_scan"}, "lat": 38.85731416666667, "is_disabled": 0, "lon": -76.98937266666667}, {"fusion_lat": 0.0, "type": "electric_scooter", "name": "6ba269cc348e91fc6fb1b9628aba54d7", "fusion_lon": 0.0, "bike_id": "6ba269cc348e91fc6fb1b9628aba54d7", "is_reserved": 0, "rental_uris": {"android": "https://dc.lft.to/lastmile_qr_scan", "ios": "https://dc.lft.to/lastmile_qr_scan"}, "lat": 38.87783533333333, "is_disabled": 0, "lon": -76.99358583333333}, {"fusion_lat": 0.0, "type": "electric_scooter", "name": "d9ce96741b3f87e0a3a3caea5a7f7496", "fusion_lon": 0.0, "bike_id": "d9ce96741b3f87e0a3a3caea5a7f7496", "is_reserved": 0, "rental_uris": {"android": "https://dc.lft.to/lastmile_qr_scan", "ios": "https://dc.lft.to/lastmile_qr_scan"}, "lat": 38.87469683333333, "is_disabled": 0, "lon": -77.011262}, {"fusion_lat": 0.0, "type": "electric_scooter", "name": "e03ecd3619e11f0e2e187d9234d70537", "fusion_lon": 0.0, "bike_id": "e03ecd3619e11f0e2e187d9234d70537", "is_reserved": 0, "rental_uris": {"android": "https://dc.lft.to/lastmile_qr_scan", "ios": "https://dc.lft.to/lastmile_qr_scan"}, "lat": 38.892150666666666, "is_disabled": 0, "lon": -77.02626983333333}, {"fusion_lat": 0.0, "type": "electric_scooter", "name": "4ec847322ae4edc9f449157b14980ecf", "fusion_lon": 0.0, "bike_id": "4ec847322ae4edc9f449157b14980ecf", "is_reserved": 0, "rental_uris": {"android": "https://dc.lft.to/lastmile_qr_scan", "ios": "https://dc.lft.to/lastmile_qr_scan"}, "lat": 38.9078115, "is_disabled": 0, "lon": -77.02302166666666}, {"fusion_lat": 0.0, "type": "electric_scooter", "name": "04651563ce4d48ea64bc30cef700ffb4", "fusion_lon": 0.0, "bike_id": "04651563ce4d48ea64bc30cef700ffb4", "is_reserved": 0, "rental_uris": {"android": "https://dc.lft.to/lastmile_qr_scan", "ios": "https://dc.lft.to/lastmile_qr_scan"}, "lat": 38.91566, "is_disabled": 0, "lon": -77.03174983333334}, {"fusion_lat": 0.0, "type": "electric_scooter", "name": "42d436057d0262ff8e297586e70ad180", "fusion_lon": 0.0, "bike_id": "42d436057d0262ff8e297586e70ad180", "is_reserved": 0, "rental_uris": {"android": "https://dc.lft.to/lastmile_qr_scan", "ios": "https://dc.lft.to/lastmile_qr_scan"}, "lat": 38.924589, "is_disabled": 0, "lon": -77.03286616666666}, {"fusion_lat": 0.0, "type": "electric_bike", "name": "e5c177ad335e513badc4b66154aae42f", "fusion_lon": 0.0, "bike_id": "e5c177ad335e513badc4b66154aae42f", "is_reserved": 0, "rental_uris": {"android": "https://dc.lft.to/lastmile_qr_scan", "ios": "https://dc.lft.to/lastmile_qr_scan"}, "lat": 38.9674445, "is_disabled": 0, "lon": -76.9819575}, {"fusion_lat": 0.0, "type": "electric_bike", "name": "d720b4c2308d4158b1b3404d0f0a94ca", "fusion_lon": 0.0, "bike_id": "d720b4c2308d4158b1b3404d0f0a94ca", "is_reserved": 0, "rental_uris": {"android": "https://dc.lft.to/lastmile_qr_scan", "ios": "https://dc.lft.to/lastmile_qr_scan"}, "lat": 39.014788833333334, "is_disabled": 0, "lon": -77.05489466666667}, {"fusion_lat": 0.0, "type": "electric_scooter", "name": "1b986b21e0bc103eda65dab501b3ce2b", "fusion_lon": 0.0, "bike_id": "1b986b21e0bc103eda65dab501b3ce2b", "is_reserved": 0, "rental_uris": {"android": "https://dc.lft.to/lastmile_qr_scan", "ios": "https://dc.lft.to/lastmile_qr_scan"}, "lat": 38.892064166666664, "is_disabled": 0, "lon": -77.0277155}, {"fusion_lat": 0.0, "type": "electric_scooter", "name": "e7a49176f598f2277b017573d3a3e8ed", "fusion_lon": 0.0, "bike_id": "e7a49176f598f2277b017573d3a3e8ed", "is_reserved": 0, "rental_uris": {"android": "https://dc.lft.to/lastmile_qr_scan", "ios": "https://dc.lft.to/lastmile_qr_scan"}, "lat": 38.91618666666667, "is_disabled": 0, "lon": -77.048114}, {"fusion_lat": 0.0, "type": "electric_scooter", "name": "3bb0b3e96f594178b216741cba640074", "fusion_lon": 0.0, "bike_id": "3bb0b3e96f594178b216741cba640074", "is_reserved": 0, "rental_uris": {"android": "https://dc.lft.to/lastmile_qr_scan", "ios": "https://dc.lft.to/lastmile_qr_scan"}, "lat": 38.902446, "is_disabled": 0, "lon": -76.9988875}, {"fusion_lat": 0.0, "type": "electric_scooter", "name": "1d3dacd1f4998ffa7353b9dbe4fafbb1", "fusion_lon": 0.0, "bike_id": "1d3dacd1f4998ffa7353b9dbe4fafbb1", "is_reserved": 0, "rental_uris": {"android": "https://dc.lft.to/lastmile_qr_scan", "ios": "https://dc.lft.to/lastmile_qr_scan"}, "lat": 38.9139445, "is_disabled": 0, "lon": -77.04175816666667}, {"fusion_lat": 0.0, "type": "electric_scooter", "name": "d7a60595fd8c638bc6b6c70f6485a85f", "fusion_lon": 0.0, "bike_id": "d7a60595fd8c638bc6b6c70f6485a85f", "is_reserved": 0, "rental_uris": {"android": "https://dc.lft.to/lastmile_qr_scan", "ios": "https://dc.lft.to/lastmile_qr_scan"}, "lat": 38.9347755, "is_disabled": 0, "lon": -77.0283925}, {"fusion_lat": 0.0, "type": "electric_scooter", "name": "a0840151fd78c33e9e06bbd08b0459f3", "fusion_lon": 0.0, "bike_id": "a0840151fd78c33e9e06bbd08b0459f3", "is_reserved": 0, "rental_uris": {"android": "https://dc.lft.to/lastmile_qr_scan", "ios": "https://dc.lft.to/lastmile_qr_scan"}, "lat": 38.905802333333334, "is_disabled": 0, "lon": -77.00281516666666}, {"fusion_lat": 0.0, "type": "electric_scooter", "name": "3621f632fc02bb7a7765120316296699", "fusion_lon": 0.0, "bike_id": "3621f632fc02bb7a7765120316296699", "is_reserved": 0, "rental_uris": {"android": "https://dc.lft.to/lastmile_qr_scan", "ios": "https://dc.lft.to/lastmile_qr_scan"}, "lat": 38.91713266666667, "is_disabled": 0, "lon": -77.03859183333333}, {"fusion_lat": 0.0, "type": "electric_scooter", "name": "de1b31c7b8cfa15dda3ba5bcb9d84a7a", "fusion_lon": 0.0, "bike_id": "de1b31c7b8cfa15dda3ba5bcb9d84a7a", "is_reserved": 0, "rental_uris": {"android": "https://dc.lft.to/lastmile_qr_scan", "ios": "https://dc.lft.to/lastmile_qr_scan"}, "lat": 38.909302333333336, "is_disabled": 0, "lon": -77.04476083333333}, {"fusion_lat": 0.0, "type": "electric_scooter", "name": "08fbd9e03585e6ba5dc827832b8a82f9", "fusion_lon": 0.0, "bike_id": "08fbd9e03585e6ba5dc827832b8a82f9", "is_reserved": 0, "rental_uris": {"android": "https://dc.lft.to/lastmile_qr_scan", "ios": "https://dc.lft.to/lastmile_qr_scan"}, "lat": 38.926074, "is_disabled": 0, "lon": -77.04295816666666}, {"fusion_lat": 0.0, "type": "electric_scooter", "name": "8fdf35c4c45ccbc2ac8875fb40cfb2c2", "fusion_lon": 0.0, "bike_id": "8fdf35c4c45ccbc2ac8875fb40cfb2c2", "is_reserved": 0, "rental_uris": {"android": "https://dc.lft.to/lastmile_qr_scan", "ios": "https://dc.lft.to/lastmile_qr_scan"}, "lat": 38.903540166666666, "is_disabled": 0, "lon": -76.9826555}, {"fusion_lat": 0.0, "type": "electric_scooter", "name": "c04616add30e27b3e5a707a5c48f52d6", "fusion_lon": 0.0, "bike_id": "c04616add30e27b3e5a707a5c48f52d6", "is_reserved": 0, "rental_uris": {"android": "https://dc.lft.to/lastmile_qr_scan", "ios": "https://dc.lft.to/lastmile_qr_scan"}, "lat": 38.91566366666667, "is_disabled": 0, "lon": -77.02424566666667}, {"fusion_lat": 0.0, "type": "electric_scooter", "name": "498eb64817e871078980dd86d967db42", "fusion_lon": 0.0, "bike_id": "498eb64817e871078980dd86d967db42", "is_reserved": 0, "rental_uris": {"android": "https://dc.lft.to/lastmile_qr_scan", "ios": "https://dc.lft.to/lastmile_qr_scan"}, "lat": 38.900322333333335, "is_disabled": 0, "lon": -77.04883366666667}, {"fusion_lat": 0.0, "type": "electric_scooter", "name": "634daeb9474193351b207cf9d6e3f4e0", "fusion_lon": 0.0, "bike_id": "634daeb9474193351b207cf9d6e3f4e0", "is_reserved": 0, "rental_uris": {"android": "https://dc.lft.to/lastmile_qr_scan", "ios": "https://dc.lft.to/lastmile_qr_scan"}, "lat": 38.92142483333333, "is_disabled": 0, "lon": -77.0350375}, {"fusion_lat": 0.0, "type": "electric_scooter", "name": "db4248c2d6ae1f06eefa73733dc90a2f", "fusion_lon": 0.0, "bike_id": "db4248c2d6ae1f06eefa73733dc90a2f", "is_reserved": 0, "rental_uris": {"android": "https://dc.lft.to/lastmile_qr_scan", "ios": "https://dc.lft.to/lastmile_qr_scan"}, "lat": 38.89224633333333, "is_disabled": 0, "lon": -77.03187016666666}, {"fusion_lat": 0.0, "type": "electric_scooter", "name": "a27659b3bac8dd8a4d589ed8aa7c434b", "fusion_lon": 0.0, "bike_id": "a27659b3bac8dd8a4d589ed8aa7c434b", "is_reserved": 0, "rental_uris": {"android": "https://dc.lft.to/lastmile_qr_scan", "ios": "https://dc.lft.to/lastmile_qr_scan"}, "lat": 38.907290833333334, "is_disabled": 0, "lon": -77.07445133333333}, {"fusion_lat": 0.0, "type": "electric_scooter", "name": "2c4172a665f0d59fa7ad120d03c9c71b", "fusion_lon": 0.0, "bike_id": "2c4172a665f0d59fa7ad120d03c9c71b", "is_reserved": 0, "rental_uris": {"android": "https://dc.lft.to/lastmile_qr_scan", "ios": "https://dc.lft.to/lastmile_qr_scan"}, "lat": 38.91123533333333, "is_disabled": 0, "lon": -77.02083883333333}, {"fusion_lat": 0.0, "type": "electric_scooter", "name": "dcaef72e47f0e72b5ae5c7a1a6e098ae", "fusion_lon": 0.0, "bike_id": "dcaef72e47f0e72b5ae5c7a1a6e098ae", "is_reserved": 0, "rental_uris": {"android": "https://dc.lft.to/lastmile_qr_scan", "ios": "https://dc.lft.to/lastmile_qr_scan"}, "lat": 38.916855166666664, "is_disabled": 0, "lon": -77.02814516666666}, {"fusion_lat": 0.0, "type": "electric_scooter", "name": "baaafda59f55efc27e3dc05fb0e0bc9b", "fusion_lon": 0.0, "bike_id": "baaafda59f55efc27e3dc05fb0e0bc9b", "is_reserved": 0, "rental_uris": {"android": "https://dc.lft.to/lastmile_qr_scan", "ios": "https://dc.lft.to/lastmile_qr_scan"}, "lat": 38.909563166666665, "is_disabled": 0, "lon": -77.05481316666666}, {"fusion_lat": 0.0, "type": "electric_bike", "name": "529c5f5964bde071cd5519f7fd8f3a7f", "fusion_lon": 0.0, "bike_id": "529c5f5964bde071cd5519f7fd8f3a7f", "is_reserved": 0, "rental_uris": {"android": "https://dc.lft.to/lastmile_qr_scan", "ios": "https://dc.lft.to/lastmile_qr_scan"}, "lat": 38.902748833333334, "is_disabled": 0, "lon": -76.92926883333334}, {"fusion_lat": 0.0, "type": "electric_scooter", "name": "7a2938a0dcac0cca552b2ed31819e948", "fusion_lon": 0.0, "bike_id": "7a2938a0dcac0cca552b2ed31819e948", "is_reserved": 0, "rental_uris": {"android": "https://dc.lft.to/lastmile_qr_scan", "ios": "https://dc.lft.to/lastmile_qr_scan"}, "lat": 38.9117685, "is_disabled": 0, "lon": -77.02959116666666}, {"fusion_lat": 0.0, "type": "electric_scooter", "name": "7c3dbaf9700cb656c02fecc53aa31335", "fusion_lon": 0.0, "bike_id": "7c3dbaf9700cb656c02fecc53aa31335", "is_reserved": 0, "rental_uris": {"android": "https://dc.lft.to/lastmile_qr_scan", "ios": "https://dc.lft.to/lastmile_qr_scan"}, "lat": 38.892237333333334, "is_disabled": 0, "lon": -77.04373433333333}, {"fusion_lat": 0.0, "type": "electric_bike", "name": "1f0990669b5910812c94f27df85b7042", "fusion_lon": 0.0, "bike_id": "1f0990669b5910812c94f27df85b7042", "is_reserved": 0, "rental_uris": {"android": "https://dc.lft.to/lastmile_qr_scan", "ios": "https://dc.lft.to/lastmile_qr_scan"}, "lat": 39.04235833333333, "is_disabled": 0, "lon": -76.997399}, {"fusion_lat": 0.0, "type": "electric_scooter", "name": "c6af2ee0d0069bc9b65b2ce417a44ff7", "fusion_lon": 0.0, "bike_id": "c6af2ee0d0069bc9b65b2ce417a44ff7", "is_reserved": 0, "rental_uris": {"android": "https://dc.lft.to/lastmile_qr_scan", "ios": "https://dc.lft.to/lastmile_qr_scan"}, "lat": 38.909510166666664, "is_disabled": 0, "lon": -77.0080745}, {"fusion_lat": 0.0, "type": "electric_scooter", "name": "6caa65b2c4febf218a1980055b4c0b82", "fusion_lon": 0.0, "bike_id": "6caa65b2c4febf218a1980055b4c0b82", "is_reserved": 0, "rental_uris": {"android": "https://dc.lft.to/lastmile_qr_scan", "ios": "https://dc.lft.to/lastmile_qr_scan"}, "lat": 38.90046816666667, "is_disabled": 0, "lon": -77.02948516666666}, {"fusion_lat": 0.0, "type": "electric_scooter", "name": "ca3586a17e7774582aed8cd39a3fb641", "fusion_lon": 0.0, "bike_id": "ca3586a17e7774582aed8cd39a3fb641", "is_reserved": 0, "rental_uris": {"android": "https://dc.lft.to/lastmile_qr_scan", "ios": "https://dc.lft.to/lastmile_qr_scan"}, "lat": 38.876794333333336, "is_disabled": 0, "lon": -76.99826916666666}, {"fusion_lat": 0.0, "type": "electric_scooter", "name": "0e8a6a0ffbf04d15f104b7edf5b49543", "fusion_lon": 0.0, "bike_id": "0e8a6a0ffbf04d15f104b7edf5b49543", "is_reserved": 0, "rental_uris": {"android": "https://dc.lft.to/lastmile_qr_scan", "ios": "https://dc.lft.to/lastmile_qr_scan"}, "lat": 38.9186025, "is_disabled": 0, "lon": -77.0451365}, {"fusion_lat": 0.0, "type": "electric_scooter", "name": "7a89ac3959b07453fad5f95fe1895cf4", "fusion_lon": 0.0, "bike_id": "7a89ac3959b07453fad5f95fe1895cf4", "is_reserved": 0, "rental_uris": {"android": "https://dc.lft.to/lastmile_qr_scan", "ios": "https://dc.lft.to/lastmile_qr_scan"}, "lat": 38.89426533333334, "is_disabled": 0, "lon": -76.911169}, {"fusion_lat": 0.0, "type": "electric_scooter", "name": "452b5cf07e06aa02855a104f1b7e4d46", "fusion_lon": 0.0, "bike_id": "452b5cf07e06aa02855a104f1b7e4d46", "is_reserved": 0, "rental_uris": {"android": "https://dc.lft.to/lastmile_qr_scan", "ios": "https://dc.lft.to/lastmile_qr_scan"}, "lat": 38.91620266666666, "is_disabled": 0, "lon": -77.03140066666667}, {"fusion_lat": 0.0, "type": "electric_scooter", "name": "08ec2da21cb85f2dc50d1be04bd8a007", "fusion_lon": 0.0, "bike_id": "08ec2da21cb85f2dc50d1be04bd8a007", "is_reserved": 0, "rental_uris": {"android": "https://dc.lft.to/lastmile_qr_scan", "ios": "https://dc.lft.to/lastmile_qr_scan"}, "lat": 38.941845666666666, "is_disabled": 0, "lon": -77.0253155}, {"fusion_lat": 0.0, "type": "electric_scooter", "name": "89af8eb23e18e18ee438dcb4e8fa22b0", "fusion_lon": 0.0, "bike_id": "89af8eb23e18e18ee438dcb4e8fa22b0", "is_reserved": 0, "rental_uris": {"android": "https://dc.lft.to/lastmile_qr_scan", "ios": "https://dc.lft.to/lastmile_qr_scan"}, "lat": 38.881227, "is_disabled": 0, "lon": -77.016763}, {"fusion_lat": 0.0, "type": "electric_scooter", "name": "ea99aebbc19291d08d2ced4b0f67d27f", "fusion_lon": 0.0, "bike_id": "ea99aebbc19291d08d2ced4b0f67d27f", "is_reserved": 0, "rental_uris": {"android": "https://dc.lft.to/lastmile_qr_scan", "ios": "https://dc.lft.to/lastmile_qr_scan"}, "lat": 38.87188316666666, "is_disabled": 0, "lon": -77.0059045}, {"fusion_lat": 0.0, "type": "electric_scooter", "name": "b3b208dbcf4a8c63897975c80450d6d3", "fusion_lon": 0.0, "bike_id": "b3b208dbcf4a8c63897975c80450d6d3", "is_reserved": 0, "rental_uris": {"android": "https://dc.lft.to/lastmile_qr_scan", "ios": "https://dc.lft.to/lastmile_qr_scan"}, "lat": 38.90726433333333, "is_disabled": 0, "lon": -77.00264466666667}, {"fusion_lat": 0.0, "type": "electric_scooter", "name": "3293583bdb69142d1949ecf8f9ec8c94", "fusion_lon": 0.0, "bike_id": "3293583bdb69142d1949ecf8f9ec8c94", "is_reserved": 0, "rental_uris": {"android": "https://dc.lft.to/lastmile_qr_scan", "ios": "https://dc.lft.to/lastmile_qr_scan"}, "lat": 38.912581833333334, "is_disabled": 0, "lon": -77.03074}, {"fusion_lat": 0.0, "type": "electric_scooter", "name": "b08f541fe7abfb42abc169bbd3a63238", "fusion_lon": 0.0, "bike_id": "b08f541fe7abfb42abc169bbd3a63238", "is_reserved": 0, "rental_uris": {"android": "https://dc.lft.to/lastmile_qr_scan", "ios": "https://dc.lft.to/lastmile_qr_scan"}, "lat": 38.901758666666666, "is_disabled": 0, "lon": -77.021696}, {"fusion_lat": 0.0, "type": "electric_scooter", "name": "0bd84fc46cdeed60111d02114df1e6de", "fusion_lon": 0.0, "bike_id": "0bd84fc46cdeed60111d02114df1e6de", "is_reserved": 0, "rental_uris": {"android": "https://dc.lft.to/lastmile_qr_scan", "ios": "https://dc.lft.to/lastmile_qr_scan"}, "lat": 38.91714233333333, "is_disabled": 0, "lon": -77.03862133333334}, {"fusion_lat": 0.0, "type": "electric_scooter", "name": "58c77bb38f5d5ddbebe0d0fa49b124f5", "fusion_lon": 0.0, "bike_id": "58c77bb38f5d5ddbebe0d0fa49b124f5", "is_reserved": 0, "rental_uris": {"android": "https://dc.lft.to/lastmile_qr_scan", "ios": "https://dc.lft.to/lastmile_qr_scan"}, "lat": 38.8855585, "is_disabled": 0, "lon": -77.02006316666667}, {"fusion_lat": 0.0, "type": "electric_scooter", "name": "6b26008bdba9f9737187e51a1d512b21", "fusion_lon": 0.0, "bike_id": "6b26008bdba9f9737187e51a1d512b21", "is_reserved": 0, "rental_uris": {"android": "https://dc.lft.to/lastmile_qr_scan", "ios": "https://dc.lft.to/lastmile_qr_scan"}, "lat": 38.922178333333335, "is_disabled": 0, "lon": -77.04241833333333}, {"fusion_lat": 0.0, "type": "electric_scooter", "name": "b159271f2ff77748dcc597bc68f7c2a4", "fusion_lon": 0.0, "bike_id": "b159271f2ff77748dcc597bc68f7c2a4", "is_reserved": 0, "rental_uris": {"android": "https://dc.lft.to/lastmile_qr_scan", "ios": "https://dc.lft.to/lastmile_qr_scan"}, "lat": 38.892228, "is_disabled": 0, "lon": -77.03105833333333}, {"fusion_lat": 0.0, "type": "electric_scooter", "name": "d7a63902255adebdd911a25db3a9a036", "fusion_lon": 0.0, "bike_id": "d7a63902255adebdd911a25db3a9a036", "is_reserved": 0, "rental_uris": {"android": "https://dc.lft.to/lastmile_qr_scan", "ios": "https://dc.lft.to/lastmile_qr_scan"}, "lat": 38.892485, "is_disabled": 0, "lon": -77.04658933333333}, {"fusion_lat": 0.0, "type": "electric_scooter", "name": "01205f437398b9561a2693049704e98c", "fusion_lon": 0.0, "bike_id": "01205f437398b9561a2693049704e98c", "is_reserved": 0, "rental_uris": {"android": "https://dc.lft.to/lastmile_qr_scan", "ios": "https://dc.lft.to/lastmile_qr_scan"}, "lat": 38.90835333333333, "is_disabled": 0, "lon": -77.04368783333334}, {"fusion_lat": 0.0, "type": "electric_scooter", "name": "cd07474fca0b3d86ab5daf9e473f7b81", "fusion_lon": 0.0, "bike_id": "cd07474fca0b3d86ab5daf9e473f7b81", "is_reserved": 0, "rental_uris": {"android": "https://dc.lft.to/lastmile_qr_scan", "ios": "https://dc.lft.to/lastmile_qr_scan"}, "lat": 38.911228, "is_disabled": 0, "lon": -77.03145466666666}, {"fusion_lat": 0.0, "type": "electric_scooter", "name": "d1b26f240f8c0184c97a6210569760ee", "fusion_lon": 0.0, "bike_id": "d1b26f240f8c0184c97a6210569760ee", "is_reserved": 0, "rental_uris": {"android": "https://dc.lft.to/lastmile_qr_scan", "ios": "https://dc.lft.to/lastmile_qr_scan"}, "lat": 38.89963016666667, "is_disabled": 0, "lon": -77.033423}, {"fusion_lat": 0.0, "type": "electric_scooter", "name": "acbae5aef93fa49b7bf741461d73d523", "fusion_lon": 0.0, "bike_id": "acbae5aef93fa49b7bf741461d73d523", "is_reserved": 0, "rental_uris": {"android": "https://dc.lft.to/lastmile_qr_scan", "ios": "https://dc.lft.to/lastmile_qr_scan"}, "lat": 38.892179666666664, "is_disabled": 0, "lon": -77.04313566666667}, {"fusion_lat": 0.0, "type": "electric_scooter", "name": "cb2732c39a7a8dc293ab6d466669bfc4", "fusion_lon": 0.0, "bike_id": "cb2732c39a7a8dc293ab6d466669bfc4", "is_reserved": 0, "rental_uris": {"android": "https://dc.lft.to/lastmile_qr_scan", "ios": "https://dc.lft.to/lastmile_qr_scan"}, "lat": 38.949029333333336, "is_disabled": 0, "lon": -77.020767}, {"fusion_lat": 0.0, "type": "electric_scooter", "name": "edace4274ed21ab1865ef865d404f16a", "fusion_lon": 0.0, "bike_id": "edace4274ed21ab1865ef865d404f16a", "is_reserved": 0, "rental_uris": {"android": "https://dc.lft.to/lastmile_qr_scan", "ios": "https://dc.lft.to/lastmile_qr_scan"}, "lat": 38.914539833333336, "is_disabled": 0, "lon": -77.01898366666667}, {"fusion_lat": 0.0, "type": "electric_scooter", "name": "55382fe61e1a19271eb52e83ffc9e275", "fusion_lon": 0.0, "bike_id": "55382fe61e1a19271eb52e83ffc9e275", "is_reserved": 0, "rental_uris": {"android": "https://dc.lft.to/lastmile_qr_scan", "ios": "https://dc.lft.to/lastmile_qr_scan"}, "lat": 38.90943716666666, "is_disabled": 0, "lon": -77.04673866666667}, {"fusion_lat": 0.0, "type": "electric_scooter", "name": "50266ef22150379dda4a741a55fd85a1", "fusion_lon": 0.0, "bike_id": "50266ef22150379dda4a741a55fd85a1", "is_reserved": 0, "rental_uris": {"android": "https://dc.lft.to/lastmile_qr_scan", "ios": "https://dc.lft.to/lastmile_qr_scan"}, "lat": 38.90849583333333, "is_disabled": 0, "lon": -77.012575}, {"fusion_lat": 0.0, "type": "electric_bike", "name": "7f4578e66941bc910af93ca45657dd24", "fusion_lon": 0.0, "bike_id": "7f4578e66941bc910af93ca45657dd24", "is_reserved": 0, "rental_uris": {"android": "https://dc.lft.to/lastmile_qr_scan", "ios": "https://dc.lft.to/lastmile_qr_scan"}, "lat": 38.94916533333333, "is_disabled": 0, "lon": -77.00804416666666}, {"fusion_lat": 0.0, "type": "electric_scooter", "name": "b9d98f6b6d21bf29d723f749dcfdc7ee", "fusion_lon": 0.0, "bike_id": "b9d98f6b6d21bf29d723f749dcfdc7ee", "is_reserved": 0, "rental_uris": {"android": "https://dc.lft.to/lastmile_qr_scan", "ios": "https://dc.lft.to/lastmile_qr_scan"}, "lat": 38.94913066666667, "is_disabled": 0, "lon": -77.0788085}, {"fusion_lat": 0.0, "type": "electric_scooter", "name": "d842b95bbe673a41c02dd2841c18ffa0", "fusion_lon": 0.0, "bike_id": "d842b95bbe673a41c02dd2841c18ffa0", "is_reserved": 0, "rental_uris": {"android": "https://dc.lft.to/lastmile_qr_scan", "ios": "https://dc.lft.to/lastmile_qr_scan"}, "lat": 38.90766266666667, "is_disabled": 0, "lon": -77.04502383333333}, {"fusion_lat": 0.0, "type": "electric_bike", "name": "78ac223bd858b3efd10f2ad75f1a1a00", "fusion_lon": 0.0, "bike_id": "78ac223bd858b3efd10f2ad75f1a1a00", "is_reserved": 0, "rental_uris": {"android": "https://dc.lft.to/lastmile_qr_scan", "ios": "https://dc.lft.to/lastmile_qr_scan"}, "lat": 38.91855483333333, "is_disabled": 0, "lon": -76.96094133333334}, {"fusion_lat": 0.0, "type": "electric_scooter", "name": "6484bf904a4c51cc9c10a2ea69c1a62d", "fusion_lon": 0.0, "bike_id": "6484bf904a4c51cc9c10a2ea69c1a62d", "is_reserved": 0, "rental_uris": {"android": "https://dc.lft.to/lastmile_qr_scan", "ios": "https://dc.lft.to/lastmile_qr_scan"}, "lat": 38.90439516666667, "is_disabled": 0, "lon": -76.98491283333334}, {"fusion_lat": 0.0, "type": "electric_scooter", "name": "a30c94dda7722f14efda9ad2819e57bf", "fusion_lon": 0.0, "bike_id": "a30c94dda7722f14efda9ad2819e57bf", "is_reserved": 0, "rental_uris": {"android": "https://dc.lft.to/lastmile_qr_scan", "ios": "https://dc.lft.to/lastmile_qr_scan"}, "lat": 38.92255983333333, "is_disabled": 0, "lon": -77.03523533333333}, {"fusion_lat": 0.0, "type": "electric_scooter", "name": "88900674fc50e20dc30de6bf412363a4", "fusion_lon": 0.0, "bike_id": "88900674fc50e20dc30de6bf412363a4", "is_reserved": 0, "rental_uris": {"android": "https://dc.lft.to/lastmile_qr_scan", "ios": "https://dc.lft.to/lastmile_qr_scan"}, "lat": 38.896082166666666, "is_disabled": 0, "lon": -77.05039366666666}, {"fusion_lat": 0.0, "type": "electric_scooter", "name": "ffaa437f92be508e288450d549571cea", "fusion_lon": 0.0, "bike_id": "ffaa437f92be508e288450d549571cea", "is_reserved": 0, "rental_uris": {"android": "https://dc.lft.to/lastmile_qr_scan", "ios": "https://dc.lft.to/lastmile_qr_scan"}, "lat": 38.907835166666665, "is_disabled": 0, "lon": -77.0386085}, {"fusion_lat": 0.0, "type": "electric_bike", "name": "c8a62e1264c75a5d0b1cfbbc905bdb7f", "fusion_lon": 0.0, "bike_id": "c8a62e1264c75a5d0b1cfbbc905bdb7f", "is_reserved": 0, "rental_uris": {"android": "https://dc.lft.to/lastmile_qr_scan", "ios": "https://dc.lft.to/lastmile_qr_scan"}, "lat": 38.9681035, "is_disabled": 0, "lon": -77.07228666666667}, {"fusion_lat": 0.0, "type": "electric_scooter", "name": "394de6c8abe384882a3dd965c708dff3", "fusion_lon": 0.0, "bike_id": "394de6c8abe384882a3dd965c708dff3", "is_reserved": 0, "rental_uris": {"android": "https://dc.lft.to/lastmile_qr_scan", "ios": "https://dc.lft.to/lastmile_qr_scan"}, "lat": 38.9070265, "is_disabled": 0, "lon": -77.03591616666667}, {"fusion_lat": 0.0, "type": "electric_scooter", "name": "492e47b47dec5188fa6c4385c863b32d", "fusion_lon": 0.0, "bike_id": "492e47b47dec5188fa6c4385c863b32d", "is_reserved": 0, "rental_uris": {"android": "https://dc.lft.to/lastmile_qr_scan", "ios": "https://dc.lft.to/lastmile_qr_scan"}, "lat": 38.91680983333333, "is_disabled": 0, "lon": -77.02978516666667}, {"fusion_lat": 0.0, "type": "electric_scooter", "name": "fcb2de6e1ac903f65a0d805d46ec0176", "fusion_lon": 0.0, "bike_id": "fcb2de6e1ac903f65a0d805d46ec0176", "is_reserved": 0, "rental_uris": {"android": "https://dc.lft.to/lastmile_qr_scan", "ios": "https://dc.lft.to/lastmile_qr_scan"}, "lat": 38.92224233333334, "is_disabled": 0, "lon": -77.04240866666666}, {"fusion_lat": 0.0, "type": "electric_scooter", "name": "fd0f19e418971857a0fc04cd58c91dcb", "fusion_lon": 0.0, "bike_id": "fd0f19e418971857a0fc04cd58c91dcb", "is_reserved": 0, "rental_uris": {"android": "https://dc.lft.to/lastmile_qr_scan", "ios": "https://dc.lft.to/lastmile_qr_scan"}, "lat": 38.8991925, "is_disabled": 0, "lon": -76.93380983333333}, {"fusion_lat": 0.0, "type": "electric_bike", "name": "dd16c341ee7c78ebb6b68865a9565dc9", "fusion_lon": 0.0, "bike_id": "dd16c341ee7c78ebb6b68865a9565dc9", "is_reserved": 0, "rental_uris": {"android": "https://dc.lft.to/lastmile_qr_scan", "ios": "https://dc.lft.to/lastmile_qr_scan"}, "lat": 38.89352016666667, "is_disabled": 0, "lon": -77.18741283333334}, {"fusion_lat": 0.0, "type": "electric_scooter", "name": "a88d7310cc75183ba3e4351f4e6fbf0f", "fusion_lon": 0.0, "bike_id": "a88d7310cc75183ba3e4351f4e6fbf0f", "is_reserved": 0, "rental_uris": {"android": "https://dc.lft.to/lastmile_qr_scan", "ios": "https://dc.lft.to/lastmile_qr_scan"}, "lat": 38.92050166666667, "is_disabled": 0, "lon": -77.03342866666667}, {"fusion_lat": 0.0, "type": "electric_scooter", "name": "486553a11f095d5e64d48e42f066d970", "fusion_lon": 0.0, "bike_id": "486553a11f095d5e64d48e42f066d970", "is_reserved": 0, "rental_uris": {"android": "https://dc.lft.to/lastmile_qr_scan", "ios": "https://dc.lft.to/lastmile_qr_scan"}, "lat": 38.921691833333334, "is_disabled": 0, "lon": -77.03845333333334}, {"fusion_lat": 0.0, "type": "electric_scooter", "name": "e84a8a639e0c9fae501ce34e453f188c", "fusion_lon": 0.0, "bike_id": "e84a8a639e0c9fae501ce34e453f188c", "is_reserved": 0, "rental_uris": {"android": "https://dc.lft.to/lastmile_qr_scan", "ios": "https://dc.lft.to/lastmile_qr_scan"}, "lat": 38.902437166666665, "is_disabled": 0, "lon": -77.02669083333333}, {"fusion_lat": 0.0, "type": "electric_scooter", "name": "8e839c60fed9faa6ce20f1a7b2858eec", "fusion_lon": 0.0, "bike_id": "8e839c60fed9faa6ce20f1a7b2858eec", "is_reserved": 0, "rental_uris": {"android": "https://dc.lft.to/lastmile_qr_scan", "ios": "https://dc.lft.to/lastmile_qr_scan"}, "lat": 38.9018355, "is_disabled": 0, "lon": -77.02176816666666}, {"fusion_lat": 0.0, "type": "electric_scooter", "name": "9f8a30148bb8f4de67b1a88b1f109e4f", "fusion_lon": 0.0, "bike_id": "9f8a30148bb8f4de67b1a88b1f109e4f", "is_reserved": 0, "rental_uris": {"android": "https://dc.lft.to/lastmile_qr_scan", "ios": "https://dc.lft.to/lastmile_qr_scan"}, "lat": 38.912252, "is_disabled": 0, "lon": -77.0227795}, {"fusion_lat": 0.0, "type": "electric_scooter", "name": "deea899a885f7f7c8d32bc5776f2754d", "fusion_lon": 0.0, "bike_id": "deea899a885f7f7c8d32bc5776f2754d", "is_reserved": 0, "rental_uris": {"android": "https://dc.lft.to/lastmile_qr_scan", "ios": "https://dc.lft.to/lastmile_qr_scan"}, "lat": 38.92357066666667, "is_disabled": 0, "lon": -77.05051016666667}, {"fusion_lat": 0.0, "type": "electric_scooter", "name": "65cecda226a06b1b4133d523765a775b", "fusion_lon": 0.0, "bike_id": "65cecda226a06b1b4133d523765a775b", "is_reserved": 0, "rental_uris": {"android": "https://dc.lft.to/lastmile_qr_scan", "ios": "https://dc.lft.to/lastmile_qr_scan"}, "lat": 38.91172183333333, "is_disabled": 0, "lon": -77.04916066666667}, {"fusion_lat": 0.0, "type": "electric_scooter", "name": "8e796c59bd5dd5384e9f4500562356b2", "fusion_lon": 0.0, "bike_id": "8e796c59bd5dd5384e9f4500562356b2", "is_reserved": 0, "rental_uris": {"android": "https://dc.lft.to/lastmile_qr_scan", "ios": "https://dc.lft.to/lastmile_qr_scan"}, "lat": 38.893221833333335, "is_disabled": 0, "lon": -76.94379716666667}, {"fusion_lat": 0.0, "type": "electric_scooter", "name": "4300528d7685abae7bb3bbd16d6b98da", "fusion_lon": 0.0, "bike_id": "4300528d7685abae7bb3bbd16d6b98da", "is_reserved": 0, "rental_uris": {"android": "https://dc.lft.to/lastmile_qr_scan", "ios": "https://dc.lft.to/lastmile_qr_scan"}, "lat": 38.887611166666666, "is_disabled": 0, "lon": -77.00880183333334}, {"fusion_lat": 0.0, "type": "electric_scooter", "name": "611eaf4beba0d82a8b2f96214495c792", "fusion_lon": 0.0, "bike_id": "611eaf4beba0d82a8b2f96214495c792", "is_reserved": 0, "rental_uris": {"android": "https://dc.lft.to/lastmile_qr_scan", "ios": "https://dc.lft.to/lastmile_qr_scan"}, "lat": 38.904918, "is_disabled": 0, "lon": -76.97928733333333}, {"fusion_lat": 0.0, "type": "electric_scooter", "name": "bdbad32756d2db0086330e7a94297a3b", "fusion_lon": 0.0, "bike_id": "bdbad32756d2db0086330e7a94297a3b", "is_reserved": 0, "rental_uris": {"android": "https://dc.lft.to/lastmile_qr_scan", "ios": "https://dc.lft.to/lastmile_qr_scan"}, "lat": 38.905591333333334, "is_disabled": 0, "lon": -76.97391583333334}, {"fusion_lat": 0.0, "type": "electric_bike", "name": "1ef906f92fb13173814e2a1e81f277ae", "fusion_lon": 0.0, "bike_id": "1ef906f92fb13173814e2a1e81f277ae", "is_reserved": 0, "rental_uris": {"android": "https://dc.lft.to/lastmile_qr_scan", "ios": "https://dc.lft.to/lastmile_qr_scan"}, "lat": 38.85423933333333, "is_disabled": 0, "lon": -77.120782}, {"fusion_lat": 0.0, "type": "electric_scooter", "name": "509e651bd1c0cca73e06d160a288f652", "fusion_lon": 0.0, "bike_id": "509e651bd1c0cca73e06d160a288f652", "is_reserved": 0, "rental_uris": {"android": "https://dc.lft.to/lastmile_qr_scan", "ios": "https://dc.lft.to/lastmile_qr_scan"}, "lat": 38.924574666666665, "is_disabled": 0, "lon": -77.07807916666667}, {"fusion_lat": 0.0, "type": "electric_scooter", "name": "83fcd889f8a684d8112b38fe826e5462", "fusion_lon": 0.0, "bike_id": "83fcd889f8a684d8112b38fe826e5462", "is_reserved": 0, "rental_uris": {"android": "https://dc.lft.to/lastmile_qr_scan", "ios": "https://dc.lft.to/lastmile_qr_scan"}, "lat": 38.92020133333333, "is_disabled": 0, "lon": -77.01310116666667}, {"fusion_lat": 0.0, "type": "electric_scooter", "name": "7a3e3dbea5fa396982a634d35fe9cc03", "fusion_lon": 0.0, "bike_id": "7a3e3dbea5fa396982a634d35fe9cc03", "is_reserved": 0, "rental_uris": {"android": "https://dc.lft.to/lastmile_qr_scan", "ios": "https://dc.lft.to/lastmile_qr_scan"}, "lat": 38.8641375, "is_disabled": 0, "lon": -77.0121535}, {"fusion_lat": 0.0, "type": "electric_scooter", "name": "64f9fb25624a0401919dd98311432f3b", "fusion_lon": 0.0, "bike_id": "64f9fb25624a0401919dd98311432f3b", "is_reserved": 0, "rental_uris": {"android": "https://dc.lft.to/lastmile_qr_scan", "ios": "https://dc.lft.to/lastmile_qr_scan"}, "lat": 38.9224755, "is_disabled": 0, "lon": -77.00921233333334}, {"fusion_lat": 0.0, "type": "electric_scooter", "name": "ca51afcbcffc08871cd1915cce597e8a", "fusion_lon": 0.0, "bike_id": "ca51afcbcffc08871cd1915cce597e8a", "is_reserved": 0, "rental_uris": {"android": "https://dc.lft.to/lastmile_qr_scan", "ios": "https://dc.lft.to/lastmile_qr_scan"}, "lat": 38.87359166666667, "is_disabled": 0, "lon": -77.00594033333333}, {"fusion_lat": 0.0, "type": "electric_bike", "name": "16289237f396a7cd40fb6198f94628a8", "fusion_lon": 0.0, "bike_id": "16289237f396a7cd40fb6198f94628a8", "is_reserved": 0, "rental_uris": {"android": "https://dc.lft.to/lastmile_qr_scan", "ios": "https://dc.lft.to/lastmile_qr_scan"}, "lat": 38.804257, "is_disabled": 0, "lon": -77.05557866666666}, {"fusion_lat": 0.0, "type": "electric_scooter", "name": "d432696f9cd10a4fcba01e80fb26c809", "fusion_lon": 0.0, "bike_id": "d432696f9cd10a4fcba01e80fb26c809", "is_reserved": 0, "rental_uris": {"android": "https://dc.lft.to/lastmile_qr_scan", "ios": "https://dc.lft.to/lastmile_qr_scan"}, "lat": 38.915606833333335, "is_disabled": 0, "lon": -77.02585033333334}, {"fusion_lat": 0.0, "type": "electric_bike", "name": "9214dde5569a5f97732357670e0522f6", "fusion_lon": 0.0, "bike_id": "9214dde5569a5f97732357670e0522f6", "is_reserved": 0, "rental_uris": {"android": "https://dc.lft.to/lastmile_qr_scan", "ios": "https://dc.lft.to/lastmile_qr_scan"}, "lat": 38.9574765, "is_disabled": 0, "lon": -77.02302916666666}, {"fusion_lat": 0.0, "type": "electric_scooter", "name": "a1db3c48d36d100684007d64a428ea31", "fusion_lon": 0.0, "bike_id": "a1db3c48d36d100684007d64a428ea31", "is_reserved": 0, "rental_uris": {"android": "https://dc.lft.to/lastmile_qr_scan", "ios": "https://dc.lft.to/lastmile_qr_scan"}, "lat": 38.900659833333336, "is_disabled": 0, "lon": -77.0453315}, {"fusion_lat": 0.0, "type": "electric_scooter", "name": "fe034df537fe645521bcc57ce338ff00", "fusion_lon": 0.0, "bike_id": "fe034df537fe645521bcc57ce338ff00", "is_reserved": 0, "rental_uris": {"android": "https://dc.lft.to/lastmile_qr_scan", "ios": "https://dc.lft.to/lastmile_qr_scan"}, "lat": 38.9308135, "is_disabled": 0, "lon": -77.0279215}, {"fusion_lat": 0.0, "type": "electric_scooter", "name": "744d71aa26c39db2b42d8bbde73fe73c", "fusion_lon": 0.0, "bike_id": "744d71aa26c39db2b42d8bbde73fe73c", "is_reserved": 0, "rental_uris": {"android": "https://dc.lft.to/lastmile_qr_scan", "ios": "https://dc.lft.to/lastmile_qr_scan"}, "lat": 38.89218916666667, "is_disabled": 0, "lon": -77.04305833333333}, {"fusion_lat": 0.0, "type": "electric_scooter", "name": "499d6fc1131e58bf343bd54e8fe5884b", "fusion_lon": 0.0, "bike_id": "499d6fc1131e58bf343bd54e8fe5884b", "is_reserved": 0, "rental_uris": {"android": "https://dc.lft.to/lastmile_qr_scan", "ios": "https://dc.lft.to/lastmile_qr_scan"}, "lat": 38.91114666666667, "is_disabled": 0, "lon": -77.033225}, {"fusion_lat": 0.0, "type": "electric_scooter", "name": "eedae85809b03d6de2dd7063b193fb4f", "fusion_lon": 0.0, "bike_id": "eedae85809b03d6de2dd7063b193fb4f", "is_reserved": 0, "rental_uris": {"android": "https://dc.lft.to/lastmile_qr_scan", "ios": "https://dc.lft.to/lastmile_qr_scan"}, "lat": 38.9208565, "is_disabled": 0, "lon": -77.02680216666667}, {"fusion_lat": 0.0, "type": "electric_scooter", "name": "04aaa65336afb041f68d27bde48177a0", "fusion_lon": 0.0, "bike_id": "04aaa65336afb041f68d27bde48177a0", "is_reserved": 0, "rental_uris": {"android": "https://dc.lft.to/lastmile_qr_scan", "ios": "https://dc.lft.to/lastmile_qr_scan"}, "lat": 38.878029, "is_disabled": 0, "lon": -77.01736166666667}, {"fusion_lat": 0.0, "type": "electric_scooter", "name": "5196dd65fea412ae239d9792c860bdf7", "fusion_lon": 0.0, "bike_id": "5196dd65fea412ae239d9792c860bdf7", "is_reserved": 0, "rental_uris": {"android": "https://dc.lft.to/lastmile_qr_scan", "ios": "https://dc.lft.to/lastmile_qr_scan"}, "lat": 38.90965583333333, "is_disabled": 0, "lon": -77.02072516666667}, {"fusion_lat": 0.0, "type": "electric_scooter", "name": "6e681deceae7c1e82f52724fff1832c9", "fusion_lon": 0.0, "bike_id": "6e681deceae7c1e82f52724fff1832c9", "is_reserved": 0, "rental_uris": {"android": "https://dc.lft.to/lastmile_qr_scan", "ios": "https://dc.lft.to/lastmile_qr_scan"}, "lat": 38.91790566666667, "is_disabled": 0, "lon": -77.04538633333334}, {"fusion_lat": 0.0, "type": "electric_bike", "name": "98d6fb39ea4e41bfdb2cee9d8a71b7df", "fusion_lon": 0.0, "bike_id": "98d6fb39ea4e41bfdb2cee9d8a71b7df", "is_reserved": 0, "rental_uris": {"android": "https://dc.lft.to/lastmile_qr_scan", "ios": "https://dc.lft.to/lastmile_qr_scan"}, "lat": 38.9549935, "is_disabled": 0, "lon": -76.99382033333333}, {"fusion_lat": 0.0, "type": "electric_scooter", "name": "d30b1934acf886c6b3d1b5f3e4bf49d2", "fusion_lon": 0.0, "bike_id": "d30b1934acf886c6b3d1b5f3e4bf49d2", "is_reserved": 0, "rental_uris": {"android": "https://dc.lft.to/lastmile_qr_scan", "ios": "https://dc.lft.to/lastmile_qr_scan"}, "lat": 38.958259166666664, "is_disabled": 0, "lon": -77.01513383333334}, {"fusion_lat": 0.0, "type": "electric_scooter", "name": "5ca46eb0396e69f0661611331fa50e5a", "fusion_lon": 0.0, "bike_id": "5ca46eb0396e69f0661611331fa50e5a", "is_reserved": 0, "rental_uris": {"android": "https://dc.lft.to/lastmile_qr_scan", "ios": "https://dc.lft.to/lastmile_qr_scan"}, "lat": 38.92847733333333, "is_disabled": 0, "lon": -77.03264666666666}, {"fusion_lat": 0.0, "type": "electric_bike", "name": "a9bd568c136395503e3bc5796c0fbbc4", "fusion_lon": 0.0, "bike_id": "a9bd568c136395503e3bc5796c0fbbc4", "is_reserved": 0, "rental_uris": {"android": "https://dc.lft.to/lastmile_qr_scan", "ios": "https://dc.lft.to/lastmile_qr_scan"}, "lat": 39.0422785, "is_disabled": 0, "lon": -77.03072916666666}, {"fusion_lat": 0.0, "type": "electric_scooter", "name": "0dcf069c8d580a1afd2f9ba13e8443b3", "fusion_lon": 0.0, "bike_id": "0dcf069c8d580a1afd2f9ba13e8443b3", "is_reserved": 0, "rental_uris": {"android": "https://dc.lft.to/lastmile_qr_scan", "ios": "https://dc.lft.to/lastmile_qr_scan"}, "lat": 38.897482833333335, "is_disabled": 0, "lon": -77.013561}, {"fusion_lat": 0.0, "type": "electric_scooter", "name": "ae82be5c9d55985dea83477ba76cc866", "fusion_lon": 0.0, "bike_id": "ae82be5c9d55985dea83477ba76cc866", "is_reserved": 0, "rental_uris": {"android": "https://dc.lft.to/lastmile_qr_scan", "ios": "https://dc.lft.to/lastmile_qr_scan"}, "lat": 38.942060833333336, "is_disabled": 0, "lon": -77.02516233333333}, {"fusion_lat": 0.0, "type": "electric_scooter", "name": "9eb5c0e3f7cbba5f548ca4f44fd03d87", "fusion_lon": 0.0, "bike_id": "9eb5c0e3f7cbba5f548ca4f44fd03d87", "is_reserved": 0, "rental_uris": {"android": "https://dc.lft.to/lastmile_qr_scan", "ios": "https://dc.lft.to/lastmile_qr_scan"}, "lat": 38.876445333333336, "is_disabled": 0, "lon": -76.96504333333333}, {"fusion_lat": 0.0, "type": "electric_scooter", "name": "a2c8c6c7028c3a6bfa598e257a32317e", "fusion_lon": 0.0, "bike_id": "a2c8c6c7028c3a6bfa598e257a32317e", "is_reserved": 0, "rental_uris": {"android": "https://dc.lft.to/lastmile_qr_scan", "ios": "https://dc.lft.to/lastmile_qr_scan"}, "lat": 38.908851, "is_disabled": 0, "lon": -76.98543666666667}, {"fusion_lat": 0.0, "type": "electric_scooter", "name": "02c40976fde526874a07abe6f4d23247", "fusion_lon": 0.0, "bike_id": "02c40976fde526874a07abe6f4d23247", "is_reserved": 0, "rental_uris": {"android": "https://dc.lft.to/lastmile_qr_scan", "ios": "https://dc.lft.to/lastmile_qr_scan"}, "lat": 38.865012, "is_disabled": 0, "lon": -76.99002033333333}, {"fusion_lat": 0.0, "type": "electric_scooter", "name": "3e48a671baa55dd1d89f6575b4b9f59a", "fusion_lon": 0.0, "bike_id": "3e48a671baa55dd1d89f6575b4b9f59a", "is_reserved": 0, "rental_uris": {"android": "https://dc.lft.to/lastmile_qr_scan", "ios": "https://dc.lft.to/lastmile_qr_scan"}, "lat": 38.88740283333333, "is_disabled": 0, "lon": -77.02737283333333}, {"fusion_lat": 0.0, "type": "electric_scooter", "name": "42fd863b3860e07e46436f685fb899ab", "fusion_lon": 0.0, "bike_id": "42fd863b3860e07e46436f685fb899ab", "is_reserved": 0, "rental_uris": {"android": "https://dc.lft.to/lastmile_qr_scan", "ios": "https://dc.lft.to/lastmile_qr_scan"}, "lat": 38.892244166666664, "is_disabled": 0, "lon": -77.03141233333334}, {"fusion_lat": 0.0, "type": "electric_scooter", "name": "8ecbe43a680e46612690867f789ef4ae", "fusion_lon": 0.0, "bike_id": "8ecbe43a680e46612690867f789ef4ae", "is_reserved": 0, "rental_uris": {"android": "https://dc.lft.to/lastmile_qr_scan", "ios": "https://dc.lft.to/lastmile_qr_scan"}, "lat": 38.9258405, "is_disabled": 0, "lon": -77.02614166666666}, {"fusion_lat": 0.0, "type": "electric_scooter", "name": "9cc7c33e3939fdd2e7fd70208a519637", "fusion_lon": 0.0, "bike_id": "9cc7c33e3939fdd2e7fd70208a519637", "is_reserved": 0, "rental_uris": {"android": "https://dc.lft.to/lastmile_qr_scan", "ios": "https://dc.lft.to/lastmile_qr_scan"}, "lat": 38.92984666666667, "is_disabled": 0, "lon": -77.03657483333333}, {"fusion_lat": 0.0, "type": "electric_scooter", "name": "65fa4a42e565eb51046dab2b270f8406", "fusion_lon": 0.0, "bike_id": "65fa4a42e565eb51046dab2b270f8406", "is_reserved": 0, "rental_uris": {"android": "https://dc.lft.to/lastmile_qr_scan", "ios": "https://dc.lft.to/lastmile_qr_scan"}, "lat": 38.907272166666665, "is_disabled": 0, "lon": -77.03209016666666}, {"fusion_lat": 0.0, "type": "electric_scooter", "name": "dbfb587de8f7ebc6958ec2563066a2b6", "fusion_lon": 0.0, "bike_id": "dbfb587de8f7ebc6958ec2563066a2b6", "is_reserved": 0, "rental_uris": {"android": "https://dc.lft.to/lastmile_qr_scan", "ios": "https://dc.lft.to/lastmile_qr_scan"}, "lat": 38.910545, "is_disabled": 0, "lon": -77.053187}, {"fusion_lat": 0.0, "type": "electric_scooter", "name": "6491a16901198581f4ad1e609d736367", "fusion_lon": 0.0, "bike_id": "6491a16901198581f4ad1e609d736367", "is_reserved": 0, "rental_uris": {"android": "https://dc.lft.to/lastmile_qr_scan", "ios": "https://dc.lft.to/lastmile_qr_scan"}, "lat": 38.88682216666667, "is_disabled": 0, "lon": -76.95464733333333}, {"fusion_lat": 0.0, "type": "electric_scooter", "name": "2f0ba09020455afd682b66918417832c", "fusion_lon": 0.0, "bike_id": "2f0ba09020455afd682b66918417832c", "is_reserved": 0, "rental_uris": {"android": "https://dc.lft.to/lastmile_qr_scan", "ios": "https://dc.lft.to/lastmile_qr_scan"}, "lat": 38.866561, "is_disabled": 0, "lon": -76.98528516666667}, {"fusion_lat": 0.0, "type": "electric_scooter", "name": "e9e0e4a1af673710de947c268cb0a82d", "fusion_lon": 0.0, "bike_id": "e9e0e4a1af673710de947c268cb0a82d", "is_reserved": 0, "rental_uris": {"android": "https://dc.lft.to/lastmile_qr_scan", "ios": "https://dc.lft.to/lastmile_qr_scan"}, "lat": 38.90697083333333, "is_disabled": 0, "lon": -77.03694233333333}, {"fusion_lat": 0.0, "type": "electric_scooter", "name": "1f0b0a9a532bc5f6360bea7c9dc1cf70", "fusion_lon": 0.0, "bike_id": "1f0b0a9a532bc5f6360bea7c9dc1cf70", "is_reserved": 0, "rental_uris": {"android": "https://dc.lft.to/lastmile_qr_scan", "ios": "https://dc.lft.to/lastmile_qr_scan"}, "lat": 38.93007566666667, "is_disabled": 0, "lon": -77.05514133333334}, {"fusion_lat": 0.0, "type": "electric_bike", "name": "ed44a82e7116c55909836dd8848d0f07", "fusion_lon": 0.0, "bike_id": "ed44a82e7116c55909836dd8848d0f07", "is_reserved": 0, "rental_uris": {"android": "https://dc.lft.to/lastmile_qr_scan", "ios": "https://dc.lft.to/lastmile_qr_scan"}, "lat": 38.846059333333336, "is_disabled": 0, "lon": -77.0897075}, {"fusion_lat": 0.0, "type": "electric_scooter", "name": "e52381966b1128e5ef867312c057475d", "fusion_lon": 0.0, "bike_id": "e52381966b1128e5ef867312c057475d", "is_reserved": 0, "rental_uris": {"android": "https://dc.lft.to/lastmile_qr_scan", "ios": "https://dc.lft.to/lastmile_qr_scan"}, "lat": 38.8930725, "is_disabled": 0, "lon": -77.0123295}, {"fusion_lat": 0.0, "type": "electric_scooter", "name": "e308f82de32efab87461a497fd7de9ee", "fusion_lon": 0.0, "bike_id": "e308f82de32efab87461a497fd7de9ee", "is_reserved": 0, "rental_uris": {"android": "https://dc.lft.to/lastmile_qr_scan", "ios": "https://dc.lft.to/lastmile_qr_scan"}, "lat": 38.92432483333333, "is_disabled": 0, "lon": -77.04248616666666}, {"fusion_lat": 0.0, "type": "electric_scooter", "name": "207726bef9d737552bbc19d069a942dd", "fusion_lon": 0.0, "bike_id": "207726bef9d737552bbc19d069a942dd", "is_reserved": 0, "rental_uris": {"android": "https://dc.lft.to/lastmile_qr_scan", "ios": "https://dc.lft.to/lastmile_qr_scan"}, "lat": 38.892328666666664, "is_disabled": 0, "lon": -77.01975716666666}, {"fusion_lat": 0.0, "type": "electric_scooter", "name": "4081b517605fe01fbe66eb13c297f17e", "fusion_lon": 0.0, "bike_id": "4081b517605fe01fbe66eb13c297f17e", "is_reserved": 0, "rental_uris": {"android": "https://dc.lft.to/lastmile_qr_scan", "ios": "https://dc.lft.to/lastmile_qr_scan"}, "lat": 38.922374833333336, "is_disabled": 0, "lon": -77.04242283333333}, {"fusion_lat": 0.0, "type": "electric_bike", "name": "dd25ccdcb790897c2e95f529039b8875", "fusion_lon": 0.0, "bike_id": "dd25ccdcb790897c2e95f529039b8875", "is_reserved": 0, "rental_uris": {"android": "https://dc.lft.to/lastmile_qr_scan", "ios": "https://dc.lft.to/lastmile_qr_scan"}, "lat": 38.99339883333333, "is_disabled": 0, "lon": -77.1157235}, {"fusion_lat": 0.0, "type": "electric_scooter", "name": "be987bdaae5e58582f44b761e4c8966b", "fusion_lon": 0.0, "bike_id": "be987bdaae5e58582f44b761e4c8966b", "is_reserved": 0, "rental_uris": {"android": "https://dc.lft.to/lastmile_qr_scan", "ios": "https://dc.lft.to/lastmile_qr_scan"}, "lat": 38.8922465, "is_disabled": 0, "lon": -77.04335433333334}, {"fusion_lat": 0.0, "type": "electric_scooter", "name": "542136f343a85cdbae44478245d4107c", "fusion_lon": 0.0, "bike_id": "542136f343a85cdbae44478245d4107c", "is_reserved": 0, "rental_uris": {"android": "https://dc.lft.to/lastmile_qr_scan", "ios": "https://dc.lft.to/lastmile_qr_scan"}, "lat": 38.9269675, "is_disabled": 0, "lon": -77.04113516666666}, {"fusion_lat": 0.0, "type": "electric_scooter", "name": "967d51be0e3e16afc594d0b40418a7b5", "fusion_lon": 0.0, "bike_id": "967d51be0e3e16afc594d0b40418a7b5", "is_reserved": 0, "rental_uris": {"android": "https://dc.lft.to/lastmile_qr_scan", "ios": "https://dc.lft.to/lastmile_qr_scan"}, "lat": 38.91716916666667, "is_disabled": 0, "lon": -77.03862383333333}, {"fusion_lat": 0.0, "type": "electric_scooter", "name": "da90708534d2b356c9588c31d147f4c9", "fusion_lon": 0.0, "bike_id": "da90708534d2b356c9588c31d147f4c9", "is_reserved": 0, "rental_uris": {"android": "https://dc.lft.to/lastmile_qr_scan", "ios": "https://dc.lft.to/lastmile_qr_scan"}, "lat": 38.907110333333335, "is_disabled": 0, "lon": -77.02700583333333}, {"fusion_lat": 0.0, "type": "electric_scooter", "name": "3b310fbc6500515096b7819260b067ca", "fusion_lon": 0.0, "bike_id": "3b310fbc6500515096b7819260b067ca", "is_reserved": 0, "rental_uris": {"android": "https://dc.lft.to/lastmile_qr_scan", "ios": "https://dc.lft.to/lastmile_qr_scan"}, "lat": 38.9015135, "is_disabled": 0, "lon": -77.04399216666667}, {"fusion_lat": 0.0, "type": "electric_bike", "name": "07eed66c0e2b07a0442d8b187172be69", "fusion_lon": 0.0, "bike_id": "07eed66c0e2b07a0442d8b187172be69", "is_reserved": 0, "rental_uris": {"android": "https://dc.lft.to/lastmile_qr_scan", "ios": "https://dc.lft.to/lastmile_qr_scan"}, "lat": 38.963018, "is_disabled": 0, "lon": -77.01107833333333}, {"fusion_lat": 0.0, "type": "electric_scooter", "name": "83e15f7c379b03d9fbf61c8cb171d7f5", "fusion_lon": 0.0, "bike_id": "83e15f7c379b03d9fbf61c8cb171d7f5", "is_reserved": 0, "rental_uris": {"android": "https://dc.lft.to/lastmile_qr_scan", "ios": "https://dc.lft.to/lastmile_qr_scan"}, "lat": 38.91685316666667, "is_disabled": 0, "lon": -77.02807433333334}, {"fusion_lat": 0.0, "type": "electric_scooter", "name": "dcc9ee1c938521300d0dddd8ee5dae5a", "fusion_lon": 0.0, "bike_id": "dcc9ee1c938521300d0dddd8ee5dae5a", "is_reserved": 0, "rental_uris": {"android": "https://dc.lft.to/lastmile_qr_scan", "ios": "https://dc.lft.to/lastmile_qr_scan"}, "lat": 38.879653833333336, "is_disabled": 0, "lon": -76.98743033333334}, {"fusion_lat": 0.0, "type": "electric_scooter", "name": "7a1f82665155d5c07cf2f9d38cf4a49b", "fusion_lon": 0.0, "bike_id": "7a1f82665155d5c07cf2f9d38cf4a49b", "is_reserved": 0, "rental_uris": {"android": "https://dc.lft.to/lastmile_qr_scan", "ios": "https://dc.lft.to/lastmile_qr_scan"}, "lat": 38.89252716666667, "is_disabled": 0, "lon": -76.98835116666666}, {"fusion_lat": 0.0, "type": "electric_bike", "name": "c7e88d0bdb2a3a7c981fedb57da04c19", "fusion_lon": 0.0, "bike_id": "c7e88d0bdb2a3a7c981fedb57da04c19", "is_reserved": 0, "rental_uris": {"android": "https://dc.lft.to/lastmile_qr_scan", "ios": "https://dc.lft.to/lastmile_qr_scan"}, "lat": 39.034252, "is_disabled": 0, "lon": -77.04102283333333}, {"fusion_lat": 0.0, "type": "electric_scooter", "name": "b65fb58aa67fefad21e3d6c814c8d7dc", "fusion_lon": 0.0, "bike_id": "b65fb58aa67fefad21e3d6c814c8d7dc", "is_reserved": 0, "rental_uris": {"android": "https://dc.lft.to/lastmile_qr_scan", "ios": "https://dc.lft.to/lastmile_qr_scan"}, "lat": 38.92124183333333, "is_disabled": 0, "lon": -77.01794016666666}, {"fusion_lat": 0.0, "type": "electric_bike", "name": "5f15b61e16d572c77568655a7888aea4", "fusion_lon": 0.0, "bike_id": "5f15b61e16d572c77568655a7888aea4", "is_reserved": 0, "rental_uris": {"android": "https://dc.lft.to/lastmile_qr_scan", "ios": "https://dc.lft.to/lastmile_qr_scan"}, "lat": 38.88330366666667, "is_disabled": 0, "lon": -77.065656}, {"fusion_lat": 0.0, "type": "electric_scooter", "name": "cd73114557b69d7e61803c11331f0951", "fusion_lon": 0.0, "bike_id": "cd73114557b69d7e61803c11331f0951", "is_reserved": 0, "rental_uris": {"android": "https://dc.lft.to/lastmile_qr_scan", "ios": "https://dc.lft.to/lastmile_qr_scan"}, "lat": 38.921723, "is_disabled": 0, "lon": -77.0335655}, {"fusion_lat": 0.0, "type": "electric_scooter", "name": "51dc2e0629be5f8cf676be71b53c2ddc", "fusion_lon": 0.0, "bike_id": "51dc2e0629be5f8cf676be71b53c2ddc", "is_reserved": 0, "rental_uris": {"android": "https://dc.lft.to/lastmile_qr_scan", "ios": "https://dc.lft.to/lastmile_qr_scan"}, "lat": 38.9198175, "is_disabled": 0, "lon": -77.03794083333334}, {"fusion_lat": 0.0, "type": "electric_bike", "name": "9a1c7029845fb190fa830ecb4575e7c2", "fusion_lon": 0.0, "bike_id": "9a1c7029845fb190fa830ecb4575e7c2", "is_reserved": 0, "rental_uris": {"android": "https://dc.lft.to/lastmile_qr_scan", "ios": "https://dc.lft.to/lastmile_qr_scan"}, "lat": 39.054938, "is_disabled": 0, "lon": -77.11790683333334}, {"fusion_lat": 0.0, "type": "electric_scooter", "name": "2fed91d2258ef17dc0ad277bd83f58cf", "fusion_lon": 0.0, "bike_id": "2fed91d2258ef17dc0ad277bd83f58cf", "is_reserved": 0, "rental_uris": {"android": "https://dc.lft.to/lastmile_qr_scan", "ios": "https://dc.lft.to/lastmile_qr_scan"}, "lat": 38.887189666666664, "is_disabled": 0, "lon": -77.01783033333334}, {"fusion_lat": 0.0, "type": "electric_bike", "name": "795b2177ccdca08bcb2627a602272b4b", "fusion_lon": 0.0, "bike_id": "795b2177ccdca08bcb2627a602272b4b", "is_reserved": 0, "rental_uris": {"android": "https://dc.lft.to/lastmile_qr_scan", "ios": "https://dc.lft.to/lastmile_qr_scan"}, "lat": 38.85016916666667, "is_disabled": 0, "lon": -77.09825433333333}, {"fusion_lat": 0.0, "type": "electric_scooter", "name": "04f1bc97b9a7110c953a5ccce1b6b058", "fusion_lon": 0.0, "bike_id": "04f1bc97b9a7110c953a5ccce1b6b058", "is_reserved": 0, "rental_uris": {"android": "https://dc.lft.to/lastmile_qr_scan", "ios": "https://dc.lft.to/lastmile_qr_scan"}, "lat": 38.9216335, "is_disabled": 0, "lon": -77.0338435}, {"fusion_lat": 0.0, "type": "electric_scooter", "name": "3c05962326c25da5bc6180f134d792a3", "fusion_lon": 0.0, "bike_id": "3c05962326c25da5bc6180f134d792a3", "is_reserved": 0, "rental_uris": {"android": "https://dc.lft.to/lastmile_qr_scan", "ios": "https://dc.lft.to/lastmile_qr_scan"}, "lat": 38.90722933333333, "is_disabled": 0, "lon": -77.0435585}, {"fusion_lat": 0.0, "type": "electric_scooter", "name": "28bb9ea67b6ad7c53c7a8a58797bcacb", "fusion_lon": 0.0, "bike_id": "28bb9ea67b6ad7c53c7a8a58797bcacb", "is_reserved": 0, "rental_uris": {"android": "https://dc.lft.to/lastmile_qr_scan", "ios": "https://dc.lft.to/lastmile_qr_scan"}, "lat": 38.9005055, "is_disabled": 0, "lon": -76.99032583333333}, {"fusion_lat": 0.0, "type": "electric_scooter", "name": "451397483f7eed927e494a9b431f743d", "fusion_lon": 0.0, "bike_id": "451397483f7eed927e494a9b431f743d", "is_reserved": 0, "rental_uris": {"android": "https://dc.lft.to/lastmile_qr_scan", "ios": "https://dc.lft.to/lastmile_qr_scan"}, "lat": 38.8819605, "is_disabled": 0, "lon": -77.017555}, {"fusion_lat": 0.0, "type": "electric_scooter", "name": "1a030955e33650eec4d3957df7c10aaa", "fusion_lon": 0.0, "bike_id": "1a030955e33650eec4d3957df7c10aaa", "is_reserved": 0, "rental_uris": {"android": "https://dc.lft.to/lastmile_qr_scan", "ios": "https://dc.lft.to/lastmile_qr_scan"}, "lat": 38.88590583333333, "is_disabled": 0, "lon": -77.01228716666667}, {"fusion_lat": 0.0, "type": "electric_scooter", "name": "6a962ac3074bf530240c855695f8a19c", "fusion_lon": 0.0, "bike_id": "6a962ac3074bf530240c855695f8a19c", "is_reserved": 0, "rental_uris": {"android": "https://dc.lft.to/lastmile_qr_scan", "ios": "https://dc.lft.to/lastmile_qr_scan"}, "lat": 38.93101333333333, "is_disabled": 0, "lon": -77.03267}, {"fusion_lat": 0.0, "type": "electric_scooter", "name": "6953dee0d0079a81af99dfd42c0ff8a4", "fusion_lon": 0.0, "bike_id": "6953dee0d0079a81af99dfd42c0ff8a4", "is_reserved": 0, "rental_uris": {"android": "https://dc.lft.to/lastmile_qr_scan", "ios": "https://dc.lft.to/lastmile_qr_scan"}, "lat": 38.892712333333336, "is_disabled": 0, "lon": -77.0317285}, {"fusion_lat": 0.0, "type": "electric_scooter", "name": "e51217c48eb49755346fae7196c9b5b5", "fusion_lon": 0.0, "bike_id": "e51217c48eb49755346fae7196c9b5b5", "is_reserved": 0, "rental_uris": {"android": "https://dc.lft.to/lastmile_qr_scan", "ios": "https://dc.lft.to/lastmile_qr_scan"}, "lat": 38.90505983333333, "is_disabled": 0, "lon": -77.068621}, {"fusion_lat": 0.0, "type": "electric_scooter", "name": "34c53431d8639e4b1d18ee1119617bae", "fusion_lon": 0.0, "bike_id": "34c53431d8639e4b1d18ee1119617bae", "is_reserved": 0, "rental_uris": {"android": "https://dc.lft.to/lastmile_qr_scan", "ios": "https://dc.lft.to/lastmile_qr_scan"}, "lat": 38.91962066666667, "is_disabled": 0, "lon": -77.04520283333333}, {"fusion_lat": 0.0, "type": "electric_scooter", "name": "689e1ec9d409ebfe48656030252b1dd0", "fusion_lon": 0.0, "bike_id": "689e1ec9d409ebfe48656030252b1dd0", "is_reserved": 0, "rental_uris": {"android": "https://dc.lft.to/lastmile_qr_scan", "ios": "https://dc.lft.to/lastmile_qr_scan"}, "lat": 38.88847966666667, "is_disabled": 0, "lon": -76.92683283333334}, {"fusion_lat": 0.0, "type": "electric_scooter", "name": "381bcc136e4d4ebc4b1d8192fe2002e7", "fusion_lon": 0.0, "bike_id": "381bcc136e4d4ebc4b1d8192fe2002e7", "is_reserved": 0, "rental_uris": {"android": "https://dc.lft.to/lastmile_qr_scan", "ios": "https://dc.lft.to/lastmile_qr_scan"}, "lat": 38.90519616666667, "is_disabled": 0, "lon": -77.04829666666667}, {"fusion_lat": 0.0, "type": "electric_scooter", "name": "90cfd23757a8ffdcb83b91ae0de7af53", "fusion_lon": 0.0, "bike_id": "90cfd23757a8ffdcb83b91ae0de7af53", "is_reserved": 0, "rental_uris": {"android": "https://dc.lft.to/lastmile_qr_scan", "ios": "https://dc.lft.to/lastmile_qr_scan"}, "lat": 38.9164505, "is_disabled": 0, "lon": -77.03659983333333}, {"fusion_lat": 0.0, "type": "electric_scooter", "name": "8895131771da027212e210cf523dcb5f", "fusion_lon": 0.0, "bike_id": "8895131771da027212e210cf523dcb5f", "is_reserved": 0, "rental_uris": {"android": "https://dc.lft.to/lastmile_qr_scan", "ios": "https://dc.lft.to/lastmile_qr_scan"}, "lat": 38.9213365, "is_disabled": 0, "lon": -77.0180095}, {"fusion_lat": 0.0, "type": "electric_scooter", "name": "9387661a07ccd8d5a76df9f98f674da9", "fusion_lon": 0.0, "bike_id": "9387661a07ccd8d5a76df9f98f674da9", "is_reserved": 0, "rental_uris": {"android": "https://dc.lft.to/lastmile_qr_scan", "ios": "https://dc.lft.to/lastmile_qr_scan"}, "lat": 38.918191666666665, "is_disabled": 0, "lon": -77.033569}, {"fusion_lat": 0.0, "type": "electric_scooter", "name": "ffcde620e21f270aeb95a27b5a1af1af", "fusion_lon": 0.0, "bike_id": "ffcde620e21f270aeb95a27b5a1af1af", "is_reserved": 0, "rental_uris": {"android": "https://dc.lft.to/lastmile_qr_scan", "ios": "https://dc.lft.to/lastmile_qr_scan"}, "lat": 38.9071775, "is_disabled": 0, "lon": -77.0435755}, {"fusion_lat": 0.0, "type": "electric_scooter", "name": "57eb3352dca86c46edfbdc6b84d94648", "fusion_lon": 0.0, "bike_id": "57eb3352dca86c46edfbdc6b84d94648", "is_reserved": 0, "rental_uris": {"android": "https://dc.lft.to/lastmile_qr_scan", "ios": "https://dc.lft.to/lastmile_qr_scan"}, "lat": 38.93558316666667, "is_disabled": 0, "lon": -77.082007}, {"fusion_lat": 0.0, "type": "electric_bike", "name": "7d5d3cc8eaa43e979c0504f819c539c6", "fusion_lon": 0.0, "bike_id": "7d5d3cc8eaa43e979c0504f819c539c6", "is_reserved": 0, "rental_uris": {"android": "https://dc.lft.to/lastmile_qr_scan", "ios": "https://dc.lft.to/lastmile_qr_scan"}, "lat": 38.985528333333335, "is_disabled": 0, "lon": -77.00401166666667}, {"fusion_lat": 0.0, "type": "electric_scooter", "name": "5739e2391862eb774b97b2e483d611bf", "fusion_lon": 0.0, "bike_id": "5739e2391862eb774b97b2e483d611bf", "is_reserved": 0, "rental_uris": {"android": "https://dc.lft.to/lastmile_qr_scan", "ios": "https://dc.lft.to/lastmile_qr_scan"}, "lat": 38.90785183333333, "is_disabled": 0, "lon": -77.038603}, {"fusion_lat": 0.0, "type": "electric_scooter", "name": "44afbdd751fd9daef27aad50f4b3567b", "fusion_lon": 0.0, "bike_id": "44afbdd751fd9daef27aad50f4b3567b", "is_reserved": 0, "rental_uris": {"android": "https://dc.lft.to/lastmile_qr_scan", "ios": "https://dc.lft.to/lastmile_qr_scan"}, "lat": 38.8995995, "is_disabled": 0, "lon": -77.02574866666667}, {"fusion_lat": 0.0, "type": "electric_scooter", "name": "00522c20c55592bd4c39e026eb12b59c", "fusion_lon": 0.0, "bike_id": "00522c20c55592bd4c39e026eb12b59c", "is_reserved": 0, "rental_uris": {"android": "https://dc.lft.to/lastmile_qr_scan", "ios": "https://dc.lft.to/lastmile_qr_scan"}, "lat": 38.87199866666667, "is_disabled": 0, "lon": -77.00568383333334}, {"fusion_lat": 0.0, "type": "electric_scooter", "name": "cd18356df759d83ede07db947b8d548b", "fusion_lon": 0.0, "bike_id": "cd18356df759d83ede07db947b8d548b", "is_reserved": 0, "rental_uris": {"android": "https://dc.lft.to/lastmile_qr_scan", "ios": "https://dc.lft.to/lastmile_qr_scan"}, "lat": 38.87230783333333, "is_disabled": 0, "lon": -77.01180916666667}, {"fusion_lat": 0.0, "type": "electric_scooter", "name": "ccb4d4633b848fb171eb9d240669e0f4", "fusion_lon": 0.0, "bike_id": "ccb4d4633b848fb171eb9d240669e0f4", "is_reserved": 0, "rental_uris": {"android": "https://dc.lft.to/lastmile_qr_scan", "ios": "https://dc.lft.to/lastmile_qr_scan"}, "lat": 38.892286666666664, "is_disabled": 0, "lon": -77.02347666666667}, {"fusion_lat": 0.0, "type": "electric_bike", "name": "4c87f09046f58da204a3ad26d00f780d", "fusion_lon": 0.0, "bike_id": "4c87f09046f58da204a3ad26d00f780d", "is_reserved": 0, "rental_uris": {"android": "https://dc.lft.to/lastmile_qr_scan", "ios": "https://dc.lft.to/lastmile_qr_scan"}, "lat": 38.869396, "is_disabled": 0, "lon": -77.094683}, {"fusion_lat": 0.0, "type": "electric_scooter", "name": "a698b821bd14b2923845fc43ae8b511f", "fusion_lon": 0.0, "bike_id": "a698b821bd14b2923845fc43ae8b511f", "is_reserved": 0, "rental_uris": {"android": "https://dc.lft.to/lastmile_qr_scan", "ios": "https://dc.lft.to/lastmile_qr_scan"}, "lat": 38.915684666666664, "is_disabled": 0, "lon": -77.03850416666667}, {"fusion_lat": 0.0, "type": "electric_scooter", "name": "8128c549cb2a3ddb7f032fc61d4b9be5", "fusion_lon": 0.0, "bike_id": "8128c549cb2a3ddb7f032fc61d4b9be5", "is_reserved": 0, "rental_uris": {"android": "https://dc.lft.to/lastmile_qr_scan", "ios": "https://dc.lft.to/lastmile_qr_scan"}, "lat": 38.8936405, "is_disabled": 0, "lon": -77.05494933333334}, {"fusion_lat": 0.0, "type": "electric_scooter", "name": "1050c1ec0aeff011123b10a0f089561e", "fusion_lon": 0.0, "bike_id": "1050c1ec0aeff011123b10a0f089561e", "is_reserved": 0, "rental_uris": {"android": "https://dc.lft.to/lastmile_qr_scan", "ios": "https://dc.lft.to/lastmile_qr_scan"}, "lat": 38.927050333333334, "is_disabled": 0, "lon": -77.02392816666666}, {"fusion_lat": 0.0, "type": "electric_scooter", "name": "178f2002892ce190d18e49f14eccb16e", "fusion_lon": 0.0, "bike_id": "178f2002892ce190d18e49f14eccb16e", "is_reserved": 0, "rental_uris": {"android": "https://dc.lft.to/lastmile_qr_scan", "ios": "https://dc.lft.to/lastmile_qr_scan"}, "lat": 38.892974833333334, "is_disabled": 0, "lon": -76.99824483333333}, {"fusion_lat": 0.0, "type": "electric_scooter", "name": "ebdb60ddc786cec089d61f0bf45e3577", "fusion_lon": 0.0, "bike_id": "ebdb60ddc786cec089d61f0bf45e3577", "is_reserved": 0, "rental_uris": {"android": "https://dc.lft.to/lastmile_qr_scan", "ios": "https://dc.lft.to/lastmile_qr_scan"}, "lat": 38.89427, "is_disabled": 0, "lon": -76.94879483333334}, {"fusion_lat": 0.0, "type": "electric_scooter", "name": "aa27500b8c60ecc041839aa4046f21b6", "fusion_lon": 0.0, "bike_id": "aa27500b8c60ecc041839aa4046f21b6", "is_reserved": 0, "rental_uris": {"android": "https://dc.lft.to/lastmile_qr_scan", "ios": "https://dc.lft.to/lastmile_qr_scan"}, "lat": 38.934041, "is_disabled": 0, "lon": -77.032653}, {"fusion_lat": 0.0, "type": "electric_scooter", "name": "5e661c002c7983bf53876ec4fc4456fd", "fusion_lon": 0.0, "bike_id": "5e661c002c7983bf53876ec4fc4456fd", "is_reserved": 0, "rental_uris": {"android": "https://dc.lft.to/lastmile_qr_scan", "ios": "https://dc.lft.to/lastmile_qr_scan"}, "lat": 38.952598333333334, "is_disabled": 0, "lon": -77.02571266666666}, {"fusion_lat": 0.0, "type": "electric_scooter", "name": "4d5818f4468499f3a8def93fad678ae2", "fusion_lon": 0.0, "bike_id": "4d5818f4468499f3a8def93fad678ae2", "is_reserved": 0, "rental_uris": {"android": "https://dc.lft.to/lastmile_qr_scan", "ios": "https://dc.lft.to/lastmile_qr_scan"}, "lat": 38.9072835, "is_disabled": 0, "lon": -77.03458516666667}, {"fusion_lat": 0.0, "type": "electric_scooter", "name": "c707ed98d3e8757b6e759b048a55d6db", "fusion_lon": 0.0, "bike_id": "c707ed98d3e8757b6e759b048a55d6db", "is_reserved": 0, "rental_uris": {"android": "https://dc.lft.to/lastmile_qr_scan", "ios": "https://dc.lft.to/lastmile_qr_scan"}, "lat": 38.88611316666667, "is_disabled": 0, "lon": -76.95584783333334}, {"fusion_lat": 0.0, "type": "electric_scooter", "name": "e17cd93d19ff688b80d5dc74513a45a8", "fusion_lon": 0.0, "bike_id": "e17cd93d19ff688b80d5dc74513a45a8", "is_reserved": 0, "rental_uris": {"android": "https://dc.lft.to/lastmile_qr_scan", "ios": "https://dc.lft.to/lastmile_qr_scan"}, "lat": 38.923398666666664, "is_disabled": 0, "lon": -77.0242525}, {"fusion_lat": 0.0, "type": "electric_scooter", "name": "492fbe661eb29cc1dd2cd6257aac0527", "fusion_lon": 0.0, "bike_id": "492fbe661eb29cc1dd2cd6257aac0527", "is_reserved": 0, "rental_uris": {"android": "https://dc.lft.to/lastmile_qr_scan", "ios": "https://dc.lft.to/lastmile_qr_scan"}, "lat": 38.91259733333333, "is_disabled": 0, "lon": -77.0330315}, {"fusion_lat": 0.0, "type": "electric_scooter", "name": "5d26efa8b0e26d4fc5ef358eb534f346", "fusion_lon": 0.0, "bike_id": "5d26efa8b0e26d4fc5ef358eb534f346", "is_reserved": 0, "rental_uris": {"android": "https://dc.lft.to/lastmile_qr_scan", "ios": "https://dc.lft.to/lastmile_qr_scan"}, "lat": 38.9205085, "is_disabled": 0, "lon": -77.03466016666667}, {"fusion_lat": 0.0, "type": "electric_scooter", "name": "14c792d47bc623c7284b9a359070aa53", "fusion_lon": 0.0, "bike_id": "14c792d47bc623c7284b9a359070aa53", "is_reserved": 0, "rental_uris": {"android": "https://dc.lft.to/lastmile_qr_scan", "ios": "https://dc.lft.to/lastmile_qr_scan"}, "lat": 38.91692533333333, "is_disabled": 0, "lon": -77.0349055}, {"fusion_lat": 0.0, "type": "electric_scooter", "name": "bacf7fe1350318162d87e4a96d132c4c", "fusion_lon": 0.0, "bike_id": "bacf7fe1350318162d87e4a96d132c4c", "is_reserved": 0, "rental_uris": {"android": "https://dc.lft.to/lastmile_qr_scan", "ios": "https://dc.lft.to/lastmile_qr_scan"}, "lat": 38.892180833333335, "is_disabled": 0, "lon": -77.032259}, {"fusion_lat": 0.0, "type": "electric_scooter", "name": "1fb88adca1e9f84559ee672e62b1dcc6", "fusion_lon": 0.0, "bike_id": "1fb88adca1e9f84559ee672e62b1dcc6", "is_reserved": 0, "rental_uris": {"android": "https://dc.lft.to/lastmile_qr_scan", "ios": "https://dc.lft.to/lastmile_qr_scan"}, "lat": 38.9444895, "is_disabled": 0, "lon": -77.06026433333334}, {"fusion_lat": 0.0, "type": "electric_scooter", "name": "e5c9236d3000a2ca8e60a47f25f65bbf", "fusion_lon": 0.0, "bike_id": "e5c9236d3000a2ca8e60a47f25f65bbf", "is_reserved": 0, "rental_uris": {"android": "https://dc.lft.to/lastmile_qr_scan", "ios": "https://dc.lft.to/lastmile_qr_scan"}, "lat": 38.90783166666667, "is_disabled": 0, "lon": -77.01110616666666}, {"fusion_lat": 0.0, "type": "electric_scooter", "name": "eebb69758bc80d0cce87508c164a7056", "fusion_lon": 0.0, "bike_id": "eebb69758bc80d0cce87508c164a7056", "is_reserved": 0, "rental_uris": {"android": "https://dc.lft.to/lastmile_qr_scan", "ios": "https://dc.lft.to/lastmile_qr_scan"}, "lat": 38.881147, "is_disabled": 0, "lon": -77.01680816666666}, {"fusion_lat": 0.0, "type": "electric_scooter", "name": "bb786021f7e238a3fdb7849284b70664", "fusion_lon": 0.0, "bike_id": "bb786021f7e238a3fdb7849284b70664", "is_reserved": 0, "rental_uris": {"android": "https://dc.lft.to/lastmile_qr_scan", "ios": "https://dc.lft.to/lastmile_qr_scan"}, "lat": 38.927065666666664, "is_disabled": 0, "lon": -77.03626233333334}, {"fusion_lat": 0.0, "type": "electric_scooter", "name": "49f05111c1071b3c22628d09cff8fbd4", "fusion_lon": 0.0, "bike_id": "49f05111c1071b3c22628d09cff8fbd4", "is_reserved": 0, "rental_uris": {"android": "https://dc.lft.to/lastmile_qr_scan", "ios": "https://dc.lft.to/lastmile_qr_scan"}, "lat": 38.905778, "is_disabled": 0, "lon": -77.0298935}, {"fusion_lat": 0.0, "type": "electric_bike", "name": "1e1bca52a893e8f889257c178241a537", "fusion_lon": 0.0, "bike_id": "1e1bca52a893e8f889257c178241a537", "is_reserved": 0, "rental_uris": {"android": "https://dc.lft.to/lastmile_qr_scan", "ios": "https://dc.lft.to/lastmile_qr_scan"}, "lat": 38.823792166666664, "is_disabled": 0, "lon": -77.00229616666667}, {"fusion_lat": 0.0, "type": "electric_scooter", "name": "13366056a48b10e3d2ed902d626beeb1", "fusion_lon": 0.0, "bike_id": "13366056a48b10e3d2ed902d626beeb1", "is_reserved": 0, "rental_uris": {"android": "https://dc.lft.to/lastmile_qr_scan", "ios": "https://dc.lft.to/lastmile_qr_scan"}, "lat": 38.95076183333333, "is_disabled": 0, "lon": -76.99573233333334}, {"fusion_lat": 0.0, "type": "electric_scooter", "name": "badbc6b1ec809c8b7dd42323d0ba8007", "fusion_lon": 0.0, "bike_id": "badbc6b1ec809c8b7dd42323d0ba8007", "is_reserved": 0, "rental_uris": {"android": "https://dc.lft.to/lastmile_qr_scan", "ios": "https://dc.lft.to/lastmile_qr_scan"}, "lat": 38.923839666666666, "is_disabled": 0, "lon": -77.03105233333334}, {"fusion_lat": 0.0, "type": "electric_scooter", "name": "79456052a2cb79e25ecaf9ee7fd74884", "fusion_lon": 0.0, "bike_id": "79456052a2cb79e25ecaf9ee7fd74884", "is_reserved": 0, "rental_uris": {"android": "https://dc.lft.to/lastmile_qr_scan", "ios": "https://dc.lft.to/lastmile_qr_scan"}, "lat": 38.897178833333335, "is_disabled": 0, "lon": -77.026943}, {"fusion_lat": 0.0, "type": "electric_bike", "name": "d75397bfb06b3d91f00bd21ff8984782", "fusion_lon": 0.0, "bike_id": "d75397bfb06b3d91f00bd21ff8984782", "is_reserved": 0, "rental_uris": {"android": "https://dc.lft.to/lastmile_qr_scan", "ios": "https://dc.lft.to/lastmile_qr_scan"}, "lat": 38.95356916666667, "is_disabled": 0, "lon": -76.980964}, {"fusion_lat": 0.0, "type": "electric_scooter", "name": "aac710a7bf8c10150e3f818264d9338d", "fusion_lon": 0.0, "bike_id": "aac710a7bf8c10150e3f818264d9338d", "is_reserved": 0, "rental_uris": {"android": "https://dc.lft.to/lastmile_qr_scan", "ios": "https://dc.lft.to/lastmile_qr_scan"}, "lat": 38.91208016666667, "is_disabled": 0, "lon": -77.03839966666666}, {"fusion_lat": 0.0, "type": "electric_scooter", "name": "d3637417c320f475b486e84fde8bf3ff", "fusion_lon": 0.0, "bike_id": "d3637417c320f475b486e84fde8bf3ff", "is_reserved": 0, "rental_uris": {"android": "https://dc.lft.to/lastmile_qr_scan", "ios": "https://dc.lft.to/lastmile_qr_scan"}, "lat": 38.895471, "is_disabled": 0, "lon": -77.05661033333334}, {"fusion_lat": 0.0, "type": "electric_scooter", "name": "b45ce031529672edc55cb17dc2c98327", "fusion_lon": 0.0, "bike_id": "b45ce031529672edc55cb17dc2c98327", "is_reserved": 0, "rental_uris": {"android": "https://dc.lft.to/lastmile_qr_scan", "ios": "https://dc.lft.to/lastmile_qr_scan"}, "lat": 38.9097605, "is_disabled": 0, "lon": -77.03447466666667}, {"fusion_lat": 0.0, "type": "electric_scooter", "name": "71ac14faf3848ee8e9e5770a496fd059", "fusion_lon": 0.0, "bike_id": "71ac14faf3848ee8e9e5770a496fd059", "is_reserved": 0, "rental_uris": {"android": "https://dc.lft.to/lastmile_qr_scan", "ios": "https://dc.lft.to/lastmile_qr_scan"}, "lat": 38.88834833333333, "is_disabled": 0, "lon": -76.9936945}, {"fusion_lat": 0.0, "type": "electric_scooter", "name": "2cf4bab8651572f5f2d91bdb963b8ac4", "fusion_lon": 0.0, "bike_id": "2cf4bab8651572f5f2d91bdb963b8ac4", "is_reserved": 0, "rental_uris": {"android": "https://dc.lft.to/lastmile_qr_scan", "ios": "https://dc.lft.to/lastmile_qr_scan"}, "lat": 38.908567166666664, "is_disabled": 0, "lon": -77.04250916666666}, {"fusion_lat": 0.0, "type": "electric_scooter", "name": "1d968dbdb5d561f1318c906e7fa1b2c6", "fusion_lon": 0.0, "bike_id": "1d968dbdb5d561f1318c906e7fa1b2c6", "is_reserved": 0, "rental_uris": {"android": "https://dc.lft.to/lastmile_qr_scan", "ios": "https://dc.lft.to/lastmile_qr_scan"}, "lat": 38.927453666666665, "is_disabled": 0, "lon": -77.0253645}, {"fusion_lat": 0.0, "type": "electric_scooter", "name": "c6d6ce275b8054c4fa299dcbdb0bee38", "fusion_lon": 0.0, "bike_id": "c6d6ce275b8054c4fa299dcbdb0bee38", "is_reserved": 0, "rental_uris": {"android": "https://dc.lft.to/lastmile_qr_scan", "ios": "https://dc.lft.to/lastmile_qr_scan"}, "lat": 38.90572, "is_disabled": 0, "lon": -77.021986}, {"fusion_lat": 0.0, "type": "electric_scooter", "name": "73113c28c6b16a6d573b3ba554ca8251", "fusion_lon": 0.0, "bike_id": "73113c28c6b16a6d573b3ba554ca8251", "is_reserved": 0, "rental_uris": {"android": "https://dc.lft.to/lastmile_qr_scan", "ios": "https://dc.lft.to/lastmile_qr_scan"}, "lat": 38.900071833333335, "is_disabled": 0, "lon": -76.99298383333333}, {"fusion_lat": 0.0, "type": "electric_scooter", "name": "a394cedf592451a79b707fc900e052bf", "fusion_lon": 0.0, "bike_id": "a394cedf592451a79b707fc900e052bf", "is_reserved": 0, "rental_uris": {"android": "https://dc.lft.to/lastmile_qr_scan", "ios": "https://dc.lft.to/lastmile_qr_scan"}, "lat": 38.923740333333335, "is_disabled": 0, "lon": -77.027981}, {"fusion_lat": 0.0, "type": "electric_scooter", "name": "bc13224bfd8cbdae1dea3cf09c514089", "fusion_lon": 0.0, "bike_id": "bc13224bfd8cbdae1dea3cf09c514089", "is_reserved": 0, "rental_uris": {"android": "https://dc.lft.to/lastmile_qr_scan", "ios": "https://dc.lft.to/lastmile_qr_scan"}, "lat": 38.937069666666666, "is_disabled": 0, "lon": -77.06106533333333}, {"fusion_lat": 0.0, "type": "electric_scooter", "name": "52900905de0abdd6e8cab72ec6141222", "fusion_lon": 0.0, "bike_id": "52900905de0abdd6e8cab72ec6141222", "is_reserved": 0, "rental_uris": {"android": "https://dc.lft.to/lastmile_qr_scan", "ios": "https://dc.lft.to/lastmile_qr_scan"}, "lat": 38.86686066666667, "is_disabled": 0, "lon": -76.9859745}, {"fusion_lat": 0.0, "type": "electric_bike", "name": "972b110a93c3341d896232dd1bcd8e17", "fusion_lon": 0.0, "bike_id": "972b110a93c3341d896232dd1bcd8e17", "is_reserved": 0, "rental_uris": {"android": "https://dc.lft.to/lastmile_qr_scan", "ios": "https://dc.lft.to/lastmile_qr_scan"}, "lat": 38.962263, "is_disabled": 0, "lon": -77.02636533333333}, {"fusion_lat": 0.0, "type": "electric_scooter", "name": "cc684eae730dd54120734ae7ed888759", "fusion_lon": 0.0, "bike_id": "cc684eae730dd54120734ae7ed888759", "is_reserved": 0, "rental_uris": {"android": "https://dc.lft.to/lastmile_qr_scan", "ios": "https://dc.lft.to/lastmile_qr_scan"}, "lat": 38.89732133333333, "is_disabled": 0, "lon": -77.01310916666667}, {"fusion_lat": 0.0, "type": "electric_scooter", "name": "55e9a01c5726c7c50e1e9027584eec9c", "fusion_lon": 0.0, "bike_id": "55e9a01c5726c7c50e1e9027584eec9c", "is_reserved": 0, "rental_uris": {"android": "https://dc.lft.to/lastmile_qr_scan", "ios": "https://dc.lft.to/lastmile_qr_scan"}, "lat": 38.933655, "is_disabled": 0, "lon": -77.05726966666667}, {"fusion_lat": 0.0, "type": "electric_scooter", "name": "c4339d2bb4f79383f943c1326b11dd7d", "fusion_lon": 0.0, "bike_id": "c4339d2bb4f79383f943c1326b11dd7d", "is_reserved": 0, "rental_uris": {"android": "https://dc.lft.to/lastmile_qr_scan", "ios": "https://dc.lft.to/lastmile_qr_scan"}, "lat": 38.90569983333334, "is_disabled": 0, "lon": -76.97629066666667}, {"fusion_lat": 0.0, "type": "electric_scooter", "name": "cde8547ca8df4e72a19212ca7102f047", "fusion_lon": 0.0, "bike_id": "cde8547ca8df4e72a19212ca7102f047", "is_reserved": 0, "rental_uris": {"android": "https://dc.lft.to/lastmile_qr_scan", "ios": "https://dc.lft.to/lastmile_qr_scan"}, "lat": 38.90959183333333, "is_disabled": 0, "lon": -77.02199233333333}, {"fusion_lat": 0.0, "type": "electric_scooter", "name": "8e5d5374fffeded406171fc6d6cc1c63", "fusion_lon": 0.0, "bike_id": "8e5d5374fffeded406171fc6d6cc1c63", "is_reserved": 0, "rental_uris": {"android": "https://dc.lft.to/lastmile_qr_scan", "ios": "https://dc.lft.to/lastmile_qr_scan"}, "lat": 38.886715333333335, "is_disabled": 0, "lon": -76.9361665}, {"fusion_lat": 0.0, "type": "electric_scooter", "name": "65f7be08821c710bc0a92f72bd84b05a", "fusion_lon": 0.0, "bike_id": "65f7be08821c710bc0a92f72bd84b05a", "is_reserved": 0, "rental_uris": {"android": "https://dc.lft.to/lastmile_qr_scan", "ios": "https://dc.lft.to/lastmile_qr_scan"}, "lat": 38.91427516666667, "is_disabled": 0, "lon": -77.03926583333333}, {"fusion_lat": 0.0, "type": "electric_scooter", "name": "e7342ce1881c1cedb79afcb370307faf", "fusion_lon": 0.0, "bike_id": "e7342ce1881c1cedb79afcb370307faf", "is_reserved": 0, "rental_uris": {"android": "https://dc.lft.to/lastmile_qr_scan", "ios": "https://dc.lft.to/lastmile_qr_scan"}, "lat": 38.92053766666667, "is_disabled": 0, "lon": -77.03469483333333}, {"fusion_lat": 0.0, "type": "electric_scooter", "name": "7f043205f14a19ad777501a57eeae79e", "fusion_lon": 0.0, "bike_id": "7f043205f14a19ad777501a57eeae79e", "is_reserved": 0, "rental_uris": {"android": "https://dc.lft.to/lastmile_qr_scan", "ios": "https://dc.lft.to/lastmile_qr_scan"}, "lat": 38.92499433333333, "is_disabled": 0, "lon": -77.02439383333333}, {"fusion_lat": 0.0, "type": "electric_scooter", "name": "52bc50d7470b2adaadb8734ee0846ffa", "fusion_lon": 0.0, "bike_id": "52bc50d7470b2adaadb8734ee0846ffa", "is_reserved": 0, "rental_uris": {"android": "https://dc.lft.to/lastmile_qr_scan", "ios": "https://dc.lft.to/lastmile_qr_scan"}, "lat": 38.908912666666666, "is_disabled": 0, "lon": -77.004112}, {"fusion_lat": 0.0, "type": "electric_scooter", "name": "87b5d36f6ccb3e2bf1c1b20c5cf742ae", "fusion_lon": 0.0, "bike_id": "87b5d36f6ccb3e2bf1c1b20c5cf742ae", "is_reserved": 0, "rental_uris": {"android": "https://dc.lft.to/lastmile_qr_scan", "ios": "https://dc.lft.to/lastmile_qr_scan"}, "lat": 38.92466266666667, "is_disabled": 0, "lon": -77.02833083333333}, {"fusion_lat": 0.0, "type": "electric_scooter", "name": "18d31dcc81703494a45dea04efab2b4c", "fusion_lon": 0.0, "bike_id": "18d31dcc81703494a45dea04efab2b4c", "is_reserved": 0, "rental_uris": {"android": "https://dc.lft.to/lastmile_qr_scan", "ios": "https://dc.lft.to/lastmile_qr_scan"}, "lat": 38.9158055, "is_disabled": 0, "lon": -77.0449135}, {"fusion_lat": 0.0, "type": "electric_scooter", "name": "314a28d20d49e78bdd52e37b71826144", "fusion_lon": 0.0, "bike_id": "314a28d20d49e78bdd52e37b71826144", "is_reserved": 0, "rental_uris": {"android": "https://dc.lft.to/lastmile_qr_scan", "ios": "https://dc.lft.to/lastmile_qr_scan"}, "lat": 38.885142, "is_disabled": 0, "lon": -77.01620683333333}, {"fusion_lat": 0.0, "type": "electric_scooter", "name": "22b7c5a94809382479bd518fcf6d4a4d", "fusion_lon": 0.0, "bike_id": "22b7c5a94809382479bd518fcf6d4a4d", "is_reserved": 0, "rental_uris": {"android": "https://dc.lft.to/lastmile_qr_scan", "ios": "https://dc.lft.to/lastmile_qr_scan"}, "lat": 38.88868033333333, "is_disabled": 0, "lon": -76.99035983333333}, {"fusion_lat": 0.0, "type": "electric_scooter", "name": "27680bf1ce6576f105fef6e890048241", "fusion_lon": 0.0, "bike_id": "27680bf1ce6576f105fef6e890048241", "is_reserved": 0, "rental_uris": {"android": "https://dc.lft.to/lastmile_qr_scan", "ios": "https://dc.lft.to/lastmile_qr_scan"}, "lat": 38.88131533333333, "is_disabled": 0, "lon": -77.02631883333333}, {"fusion_lat": 0.0, "type": "electric_scooter", "name": "db1e56849316dff257bf0622124f620b", "fusion_lon": 0.0, "bike_id": "db1e56849316dff257bf0622124f620b", "is_reserved": 0, "rental_uris": {"android": "https://dc.lft.to/lastmile_qr_scan", "ios": "https://dc.lft.to/lastmile_qr_scan"}, "lat": 38.95200883333333, "is_disabled": 0, "lon": -77.02731566666667}, {"fusion_lat": 0.0, "type": "electric_scooter", "name": "470785a8eb482fcf7b4c3ae06d0ab3ef", "fusion_lon": 0.0, "bike_id": "470785a8eb482fcf7b4c3ae06d0ab3ef", "is_reserved": 0, "rental_uris": {"android": "https://dc.lft.to/lastmile_qr_scan", "ios": "https://dc.lft.to/lastmile_qr_scan"}, "lat": 38.957472833333334, "is_disabled": 0, "lon": -77.020655}, {"fusion_lat": 0.0, "type": "electric_bike", "name": "35003d13d906a54b0eb2a5892e5f9ea5", "fusion_lon": 0.0, "bike_id": "35003d13d906a54b0eb2a5892e5f9ea5", "is_reserved": 0, "rental_uris": {"android": "https://dc.lft.to/lastmile_qr_scan", "ios": "https://dc.lft.to/lastmile_qr_scan"}, "lat": 38.92340166666666, "is_disabled": 0, "lon": -76.97143983333333}, {"fusion_lat": 0.0, "type": "electric_scooter", "name": "b55dd364941fc26f163eb54ca1940a61", "fusion_lon": 0.0, "bike_id": "b55dd364941fc26f163eb54ca1940a61", "is_reserved": 0, "rental_uris": {"android": "https://dc.lft.to/lastmile_qr_scan", "ios": "https://dc.lft.to/lastmile_qr_scan"}, "lat": 38.9016655, "is_disabled": 0, "lon": -76.98072616666667}, {"fusion_lat": 0.0, "type": "electric_scooter", "name": "40907134ea5fafac187282a3f49b0e74", "fusion_lon": 0.0, "bike_id": "40907134ea5fafac187282a3f49b0e74", "is_reserved": 0, "rental_uris": {"android": "https://dc.lft.to/lastmile_qr_scan", "ios": "https://dc.lft.to/lastmile_qr_scan"}, "lat": 38.891934166666665, "is_disabled": 0, "lon": -76.98860183333333}, {"fusion_lat": 0.0, "type": "electric_scooter", "name": "075f3b8e6d9de4da509eb0b530be4da6", "fusion_lon": 0.0, "bike_id": "075f3b8e6d9de4da509eb0b530be4da6", "is_reserved": 0, "rental_uris": {"android": "https://dc.lft.to/lastmile_qr_scan", "ios": "https://dc.lft.to/lastmile_qr_scan"}, "lat": 38.93675116666667, "is_disabled": 0, "lon": -77.03591416666667}, {"fusion_lat": 0.0, "type": "electric_scooter", "name": "aa74ded342728687f450baff2eb658c4", "fusion_lon": 0.0, "bike_id": "aa74ded342728687f450baff2eb658c4", "is_reserved": 0, "rental_uris": {"android": "https://dc.lft.to/lastmile_qr_scan", "ios": "https://dc.lft.to/lastmile_qr_scan"}, "lat": 38.87915233333333, "is_disabled": 0, "lon": -77.02132866666666}, {"fusion_lat": 0.0, "type": "electric_bike", "name": "3485e12e65f9c78c816940d30918ec3a", "fusion_lon": 0.0, "bike_id": "3485e12e65f9c78c816940d30918ec3a", "is_reserved": 0, "rental_uris": {"android": "https://dc.lft.to/lastmile_qr_scan", "ios": "https://dc.lft.to/lastmile_qr_scan"}, "lat": 38.9515745, "is_disabled": 0, "lon": -77.01285516666667}, {"fusion_lat": 0.0, "type": "electric_bike", "name": "4bb0471cacde23bdba3c2115f5323bf9", "fusion_lon": 0.0, "bike_id": "4bb0471cacde23bdba3c2115f5323bf9", "is_reserved": 0, "rental_uris": {"android": "https://dc.lft.to/lastmile_qr_scan", "ios": "https://dc.lft.to/lastmile_qr_scan"}, "lat": 38.983636, "is_disabled": 0, "lon": -76.97210966666667}, {"fusion_lat": 0.0, "type": "electric_scooter", "name": "7b369a06f916e42f18c45f456d731e8f", "fusion_lon": 0.0, "bike_id": "7b369a06f916e42f18c45f456d731e8f", "is_reserved": 0, "rental_uris": {"android": "https://dc.lft.to/lastmile_qr_scan", "ios": "https://dc.lft.to/lastmile_qr_scan"}, "lat": 38.913405, "is_disabled": 0, "lon": -77.03184466666667}, {"fusion_lat": 0.0, "type": "electric_scooter", "name": "3144d64225779f06b006e0c1a8da8806", "fusion_lon": 0.0, "bike_id": "3144d64225779f06b006e0c1a8da8806", "is_reserved": 0, "rental_uris": {"android": "https://dc.lft.to/lastmile_qr_scan", "ios": "https://dc.lft.to/lastmile_qr_scan"}, "lat": 38.91499016666667, "is_disabled": 0, "lon": -77.00775333333333}, {"fusion_lat": 0.0, "type": "electric_bike", "name": "4b92da64be19603fe4cd740c20936f48", "fusion_lon": 0.0, "bike_id": "4b92da64be19603fe4cd740c20936f48", "is_reserved": 0, "rental_uris": {"android": "https://dc.lft.to/lastmile_qr_scan", "ios": "https://dc.lft.to/lastmile_qr_scan"}, "lat": 38.93206, "is_disabled": 0, "lon": -77.01877416666666}, {"fusion_lat": 0.0, "type": "electric_scooter", "name": "d2278c2ea70554d581e49e514f3f2b46", "fusion_lon": 0.0, "bike_id": "d2278c2ea70554d581e49e514f3f2b46", "is_reserved": 0, "rental_uris": {"android": "https://dc.lft.to/lastmile_qr_scan", "ios": "https://dc.lft.to/lastmile_qr_scan"}, "lat": 38.899551833333334, "is_disabled": 0, "lon": -76.975299}, {"fusion_lat": 0.0, "type": "electric_scooter", "name": "cdcda14e9ecca67dc34b8f6c8dcf5e7c", "fusion_lon": 0.0, "bike_id": "cdcda14e9ecca67dc34b8f6c8dcf5e7c", "is_reserved": 0, "rental_uris": {"android": "https://dc.lft.to/lastmile_qr_scan", "ios": "https://dc.lft.to/lastmile_qr_scan"}, "lat": 38.910407166666666, "is_disabled": 0, "lon": -77.03494016666667}, {"fusion_lat": 0.0, "type": "electric_scooter", "name": "d3be713d59ab43bdc5267bdd86099b86", "fusion_lon": 0.0, "bike_id": "d3be713d59ab43bdc5267bdd86099b86", "is_reserved": 0, "rental_uris": {"android": "https://dc.lft.to/lastmile_qr_scan", "ios": "https://dc.lft.to/lastmile_qr_scan"}, "lat": 38.89221516666667, "is_disabled": 0, "lon": -77.048668}, {"fusion_lat": 0.0, "type": "electric_bike", "name": "214143203ce9373a19bf8622fcbbe2c3", "fusion_lon": 0.0, "bike_id": "214143203ce9373a19bf8622fcbbe2c3", "is_reserved": 0, "rental_uris": {"android": "https://dc.lft.to/lastmile_qr_scan", "ios": "https://dc.lft.to/lastmile_qr_scan"}, "lat": 38.936312666666666, "is_disabled": 0, "lon": -77.033353}, {"fusion_lat": 0.0, "type": "electric_scooter", "name": "aef27b4a81a9e0e5b7b9e2011cc9fcf2", "fusion_lon": 0.0, "bike_id": "aef27b4a81a9e0e5b7b9e2011cc9fcf2", "is_reserved": 0, "rental_uris": {"android": "https://dc.lft.to/lastmile_qr_scan", "ios": "https://dc.lft.to/lastmile_qr_scan"}, "lat": 38.912761, "is_disabled": 0, "lon": -77.04759}, {"fusion_lat": 0.0, "type": "electric_scooter", "name": "4487ece7ba133175687daeb794a7bba5", "fusion_lon": 0.0, "bike_id": "4487ece7ba133175687daeb794a7bba5", "is_reserved": 0, "rental_uris": {"android": "https://dc.lft.to/lastmile_qr_scan", "ios": "https://dc.lft.to/lastmile_qr_scan"}, "lat": 38.908296, "is_disabled": 0, "lon": -77.0426885}, {"fusion_lat": 0.0, "type": "electric_scooter", "name": "a959c4d8da42e81b465a58a51bb90d08", "fusion_lon": 0.0, "bike_id": "a959c4d8da42e81b465a58a51bb90d08", "is_reserved": 0, "rental_uris": {"android": "https://dc.lft.to/lastmile_qr_scan", "ios": "https://dc.lft.to/lastmile_qr_scan"}, "lat": 38.921576333333334, "is_disabled": 0, "lon": -77.03384033333333}, {"fusion_lat": 0.0, "type": "electric_scooter", "name": "9d087ff3b4b6b6d789533e7a19d60ca4", "fusion_lon": 0.0, "bike_id": "9d087ff3b4b6b6d789533e7a19d60ca4", "is_reserved": 0, "rental_uris": {"android": "https://dc.lft.to/lastmile_qr_scan", "ios": "https://dc.lft.to/lastmile_qr_scan"}, "lat": 38.92441766666666, "is_disabled": 0, "lon": -77.0576475}, {"fusion_lat": 0.0, "type": "electric_scooter", "name": "df22fa656c52d9b2b05ce6c59a40179e", "fusion_lon": 0.0, "bike_id": "df22fa656c52d9b2b05ce6c59a40179e", "is_reserved": 0, "rental_uris": {"android": "https://dc.lft.to/lastmile_qr_scan", "ios": "https://dc.lft.to/lastmile_qr_scan"}, "lat": 38.91446366666667, "is_disabled": 0, "lon": -77.06708416666666}, {"fusion_lat": 0.0, "type": "electric_scooter", "name": "18d03836722f62751a91ccea53e73732", "fusion_lon": 0.0, "bike_id": "18d03836722f62751a91ccea53e73732", "is_reserved": 0, "rental_uris": {"android": "https://dc.lft.to/lastmile_qr_scan", "ios": "https://dc.lft.to/lastmile_qr_scan"}, "lat": 38.925527333333335, "is_disabled": 0, "lon": -77.029623}, {"fusion_lat": 0.0, "type": "electric_scooter", "name": "8c818a113dab43ddb37c28f98887e919", "fusion_lon": 0.0, "bike_id": "8c818a113dab43ddb37c28f98887e919", "is_reserved": 0, "rental_uris": {"android": "https://dc.lft.to/lastmile_qr_scan", "ios": "https://dc.lft.to/lastmile_qr_scan"}, "lat": 38.9112275, "is_disabled": 0, "lon": -77.04365016666667}, {"fusion_lat": 0.0, "type": "electric_scooter", "name": "c78a2cc962b2edf4dd91de8204f71b25", "fusion_lon": 0.0, "bike_id": "c78a2cc962b2edf4dd91de8204f71b25", "is_reserved": 0, "rental_uris": {"android": "https://dc.lft.to/lastmile_qr_scan", "ios": "https://dc.lft.to/lastmile_qr_scan"}, "lat": 38.9127175, "is_disabled": 0, "lon": -77.044251}, {"fusion_lat": 0.0, "type": "electric_bike", "name": "8b9bad6812b232e24563ad7aa8443212", "fusion_lon": 0.0, "bike_id": "8b9bad6812b232e24563ad7aa8443212", "is_reserved": 0, "rental_uris": {"android": "https://dc.lft.to/lastmile_qr_scan", "ios": "https://dc.lft.to/lastmile_qr_scan"}, "lat": 39.0579785, "is_disabled": 0, "lon": -77.15022216666667}, {"fusion_lat": 0.0, "type": "electric_scooter", "name": "41ea147bc2ded9870ca03d308b307150", "fusion_lon": 0.0, "bike_id": "41ea147bc2ded9870ca03d308b307150", "is_reserved": 0, "rental_uris": {"android": "https://dc.lft.to/lastmile_qr_scan", "ios": "https://dc.lft.to/lastmile_qr_scan"}, "lat": 38.89912316666667, "is_disabled": 0, "lon": -76.93374233333333}, {"fusion_lat": 0.0, "type": "electric_scooter", "name": "2b021a46d101d0689a1a40077392accc", "fusion_lon": 0.0, "bike_id": "2b021a46d101d0689a1a40077392accc", "is_reserved": 0, "rental_uris": {"android": "https://dc.lft.to/lastmile_qr_scan", "ios": "https://dc.lft.to/lastmile_qr_scan"}, "lat": 38.910485, "is_disabled": 0, "lon": -77.04091633333333},