{"data": {"bikes": [{"is_disabled": 0, "fusion_lon": 0.0, "fusion_lat": 0.0, "lat": 38.909949833333336, "type": "electric_scooter", "lon": -77.03729483333333, "bike_id": "0e27c5b5a46950943469d16ae2e4ccae", "rental_uris": {"android": "https://dc.lft.to/lastmile_qr_scan", "ios": "https://dc.lft.to/lastmile_qr_scan"}, "name": "0e27c5b5a46950943469d16ae2e4ccae", "is_reserved": 0}, {"is_disabled": 0, "fusion_lon": 0.0, "fusion_lat": 0.0, "lat": 38.91987066666667, "type": "electric_scooter", "lon": -77.04163583333333, "bike_id": "1838c8780e53c7c9b6fb540237892405", "rental_uris": {"android": "https://dc.lft.to/lastmile_qr_scan", "ios": "https://dc.lft.to/lastmile_qr_scan"}, "name": "1838c8780e53c7c9b6fb540237892405", "is_reserved": 0}, {"is_disabled": 0, "fusion_lon": 0.0, "fusion_lat": 0.0, "lat": 38.872913833333335, "type": "electric_scooter", "lon": -77.009871, "bike_id": "f34accbeb2acfb9d125ecd1b8ae88842", "rental_uris": {"android": "https://dc.lft.to/lastmile_qr_scan", "ios": "https://dc.lft.to/lastmile_qr_scan"}, "name": "f34accbeb2acfb9d125ecd1b8ae88842", "is_reserved": 0}, {"is_disabled": 0, "fusion_lon": 0.0, "fusion_lat": 0.0, "lat": 38.943199, "type": "electric_scooter", "lon": -77.08580283333333, "bike_id": "9b868b6f74b095974e30cffba24d55c2", "rental_uris": {"android": "https://dc.lft.to/lastmile_qr_scan", "ios": "https://dc.lft.to/lastmile_qr_scan"}, "name": "9b868b6f74b095974e30cffba24d55c2", "is_reserved": 0}, {"is_disabled": 0, "fusion_lon": 0.0, "fusion_lat": 0.0, "lat": 38.89285316666667, "type": "electric_scooter", "lon": -76.93722766666667, "bike_id": "3fb098a8fd7df76776ab7722a2670d5e", "rental_uris": {"android": "https://dc.lft.to/lastmile_qr_scan", "ios": "https://dc.lft.to/lastmile_qr_scan"}, "name": "3fb098a8fd7df76776ab7722a2670d5e", "is_reserved": 0}, {"is_disabled": 0, "fusion_lon": 0.0, "fusion_lat": 0.0, "lat": 38.931033, "type": "electric_scooter", "lon": -77.03266733333334, "bike_id": "1cc8d5d607a7841d1f80b3df20178c30", "rental_uris": {"android": "https://dc.lft.to/lastmile_qr_scan", "ios": "https://dc.lft.to/lastmile_qr_scan"}, "name": "1cc8d5d607a7841d1f80b3df20178c30", "is_reserved": 0}, {"is_disabled": 0, "fusion_lon": 0.0, "fusion_lat": 0.0, "lat": 38.90970983333333, "type": "electric_scooter", "lon": -77.04056316666667, "bike_id": "4ddc0e000b0a21550130fa21e85466b7", "rental_uris": {"android": "https://dc.lft.to/lastmile_qr_scan", "ios": "https://dc.lft.to/lastmile_qr_scan"}, "name": "4ddc0e000b0a21550130fa21e85466b7", "is_reserved": 0}, {"is_disabled": 0, "fusion_lon": 0.0, "fusion_lat": 0.0, "lat": 38.89909816666667, "type": "electric_scooter", "lon": -76.933939, "bike_id": "a4477e034ae801a5e2175e65f27018f2", "rental_uris": {"android": "https://dc.lft.to/lastmile_qr_scan", "ios": "https://dc.lft.to/lastmile_qr_scan"}, "name": "a4477e034ae801a5e2175e65f27018f2", "is_reserved": 0}, {"is_disabled": 0, "fusion_lon": 0.0, "fusion_lat": 0.0, "lat": 38.89276566666667, "type": "electric_scooter", "lon": -77.01039983333334, "bike_id": "6c42eea69352755c593a7a0ccbe7d8b3", "rental_uris": {"android": "https://dc.lft.to/lastmile_qr_scan", "ios": "https://dc.lft.to/lastmile_qr_scan"}, "name": "6c42eea69352755c593a7a0ccbe7d8b3", "is_reserved": 0}, {"is_disabled": 0, "fusion_lon": 0.0, "fusion_lat": 0.0, "lat": 38.959683166666665, "type": "electric_scooter", "lon": -77.0210885, "bike_id": "e01cfe9ff90a495c7c8dff080c29733b", "rental_uris": {"android": "https://dc.lft.to/lastmile_qr_scan", "ios": "https://dc.lft.to/lastmile_qr_scan"}, "name": "e01cfe9ff90a495c7c8dff080c29733b", "is_reserved": 0}, {"is_disabled": 0, "fusion_lon": 0.0, "fusion_lat": 0.0, "lat": 38.88075466666667, "type": "electric_scooter", "lon": -76.99506516666666, "bike_id": "74663a59aae62b05ddcaa2f19d22e3fa", "rental_uris": {"android": "https://dc.lft.to/lastmile_qr_scan", "ios": "https://dc.lft.to/lastmile_qr_scan"}, "name": "74663a59aae62b05ddcaa2f19d22e3fa", "is_reserved": 0}, {"is_disabled": 0, "fusion_lon": 0.0, "fusion_lat": 0.0, "lat": 38.954068, "type": "electric_scooter", "lon": -77.027481, "bike_id": "76b1dd3ac98cacdaedd4eb2757ef4063", "rental_uris": {"android": "https://dc.lft.to/lastmile_qr_scan", "ios": "https://dc.lft.to/lastmile_qr_scan"}, "name": "76b1dd3ac98cacdaedd4eb2757ef4063", "is_reserved": 0}, {"is_disabled": 0, "fusion_lon": 0.0, "fusion_lat": 0.0, "lat": 38.89877233333333, "type": "electric_scooter", "lon": -77.02727366666667, "bike_id": "c5a01f4d401da231513f16c60cd6dd80", "rental_uris": {"android": "https://dc.lft.to/lastmile_qr_scan", "ios": "https://dc.lft.to/lastmile_qr_scan"}, "name": "c5a01f4d401da231513f16c60cd6dd80", "is_reserved": 0}, {"is_disabled": 0, "fusion_lon": 0.0, "fusion_lat": 0.0, "lat": 38.935626, "type": "electric_scooter", "lon": -77.073378, "bike_id": "6136de63854fc8d3e80172ebe4f7d667", "rental_uris": {"android": "https://dc.lft.to/lastmile_qr_scan", "ios": "https://dc.lft.to/lastmile_qr_scan"}, "name": "6136de63854fc8d3e80172ebe4f7d667", "is_reserved": 0}, {"is_disabled": 0, "fusion_lon": 0.0, "fusion_lat": 0.0, "lat": 38.846003833333334, "type": "electric_bike", "lon": -76.96876516666667, "bike_id": "5a4d3c38ad185307d505ec82b3db28af", "rental_uris": {"android": "https://dc.lft.to/lastmile_qr_scan", "ios": "https://dc.lft.to/lastmile_qr_scan"}, "name": "5a4d3c38ad185307d505ec82b3db28af", "is_reserved": 0}, {"is_disabled": 0, "fusion_lon": 0.0, "fusion_lat": 0.0, "lat": 38.8984825, "type": "electric_scooter", "lon": -77.03951466666666, "bike_id": "92a697982424eaa33e47b55f8c0deaf9", "rental_uris": {"android": "https://dc.lft.to/lastmile_qr_scan", "ios": "https://dc.lft.to/lastmile_qr_scan"}, "name": "92a697982424eaa33e47b55f8c0deaf9", "is_reserved": 0}, {"is_disabled": 0, "fusion_lon": 0.0, "fusion_lat": 0.0, "lat": 38.883995666666664, "type": "electric_bike", "lon": -77.03079366666667, "bike_id": "1bc1e8caa50cbdb1c5c2fd06bf8c8c4f", "rental_uris": {"android": "https://dc.lft.to/lastmile_qr_scan", "ios": "https://dc.lft.to/lastmile_qr_scan"}, "name": "1bc1e8caa50cbdb1c5c2fd06bf8c8c4f", "is_reserved": 0}, {"is_disabled": 0, "fusion_lon": 0.0, "fusion_lat": 0.0, "lat": 38.92944933333333, "type": "electric_scooter", "lon": -77.0327345, "bike_id": "affa4b0144a3fcf93bce5b63847ebf7d", "rental_uris": {"android": "https://dc.lft.to/lastmile_qr_scan", "ios": "https://dc.lft.to/lastmile_qr_scan"}, "name": "affa4b0144a3fcf93bce5b63847ebf7d", "is_reserved": 0}, {"is_disabled": 0, "fusion_lon": 0.0, "fusion_lat": 0.0, "lat": 38.883123166666664, "type": "electric_scooter", "lon": -77.04525816666667, "bike_id": "c8756f530c5ff82ae4e46bb650d6cc49", "rental_uris": {"android": "https://dc.lft.to/lastmile_qr_scan", "ios": "https://dc.lft.to/lastmile_qr_scan"}, "name": "c8756f530c5ff82ae4e46bb650d6cc49", "is_reserved": 0}, {"is_disabled": 0, "fusion_lon": 0.0, "fusion_lat": 0.0, "lat": 38.955902, "type": "electric_scooter", "lon": -77.0364925, "bike_id": "04c088c15833af3a3d04f92a60093963", "rental_uris": {"android": "https://dc.lft.to/lastmile_qr_scan", "ios": "https://dc.lft.to/lastmile_qr_scan"}, "name": "04c088c15833af3a3d04f92a60093963", "is_reserved": 0}, {"is_disabled": 0, "fusion_lon": 0.0, "fusion_lat": 0.0, "lat": 38.89281916666667, "type": "electric_scooter", "lon": -77.05039583333334, "bike_id": "a5d7466ea3ced1a3d9d6c3ba5434ce56", "rental_uris": {"android": "https://dc.lft.to/lastmile_qr_scan", "ios": "https://dc.lft.to/lastmile_qr_scan"}, "name": "a5d7466ea3ced1a3d9d6c3ba5434ce56", "is_reserved": 0}, {"is_disabled": 0, "fusion_lon": 0.0, "fusion_lat": 0.0, "lat": 38.8520295, "type": "electric_bike", "lon": -77.12759716666666, "bike_id": "d12ba0bc842b51dc2a0ac84159b45249", "rental_uris": {"android": "https://dc.lft.to/lastmile_qr_scan", "ios": "https://dc.lft.to/lastmile_qr_scan"}, "name": "d12ba0bc842b51dc2a0ac84159b45249", "is_reserved": 0}, {"is_disabled": 0, "fusion_lon": 0.0, "fusion_lat": 0.0, "lat": 38.938944, "type": "electric_scooter", "lon": -77.033268, "bike_id": "74ffe9f56b06efce342bf1b96d3d68ea", "rental_uris": {"android": "https://dc.lft.to/lastmile_qr_scan", "ios": "https://dc.lft.to/lastmile_qr_scan"}, "name": "74ffe9f56b06efce342bf1b96d3d68ea", "is_reserved": 0}, {"is_disabled": 0, "fusion_lon": 0.0, "fusion_lat": 0.0, "lat": 38.89761633333333, "type": "electric_scooter", "lon": -77.05133933333333, "bike_id": "86f4119e155d6662fbd154e29bddc02c", "rental_uris": {"android": "https://dc.lft.to/lastmile_qr_scan", "ios": "https://dc.lft.to/lastmile_qr_scan"}, "name": "86f4119e155d6662fbd154e29bddc02c", "is_reserved": 0}, {"is_disabled": 0, "fusion_lon": 0.0, "fusion_lat": 0.0, "lat": 38.92179466666666, "type": "electric_scooter", "lon": -77.04215533333333, "bike_id": "dfb2cdbec3560c8f16921a8a30be4c4b", "rental_uris": {"android": "https://dc.lft.to/lastmile_qr_scan", "ios": "https://dc.lft.to/lastmile_qr_scan"}, "name": "dfb2cdbec3560c8f16921a8a30be4c4b", "is_reserved": 0}, {"is_disabled": 0, "fusion_lon": 0.0, "fusion_lat": 0.0, "lat": 38.887491, "type": "electric_scooter", "lon": -77.015389, "bike_id": "21483a823fbcb452dc63423aedf0114f", "rental_uris": {"android": "https://dc.lft.to/lastmile_qr_scan", "ios": "https://dc.lft.to/lastmile_qr_scan"}, "name": "21483a823fbcb452dc63423aedf0114f", "is_reserved": 0}, {"is_disabled": 0, "fusion_lon": 0.0, "fusion_lat": 0.0, "lat": 38.884919, "type": "electric_scooter", "lon": -77.00723466666666, "bike_id": "c42181d09c7fddf53a2d9a47e441430f", "rental_uris": {"android": "https://dc.lft.to/lastmile_qr_scan", "ios": "https://dc.lft.to/lastmile_qr_scan"}, "name": "c42181d09c7fddf53a2d9a47e441430f", "is_reserved": 0}, {"is_disabled": 0, "fusion_lon": 0.0, "fusion_lat": 0.0, "lat": 38.92014266666666, "type": "electric_scooter", "lon": -77.03149933333333, "bike_id": "03596ffaae68b7da93d4e11803545fb5", "rental_uris": {"android": "https://dc.lft.to/lastmile_qr_scan", "ios": "https://dc.lft.to/lastmile_qr_scan"}, "name": "03596ffaae68b7da93d4e11803545fb5", "is_reserved": 0}, {"is_disabled": 0, "fusion_lon": 0.0, "fusion_lat": 0.0, "lat": 38.92517133333333, "type": "electric_scooter", "lon": -77.03888516666666, "bike_id": "035f4eb127e65a28de6a9a8fd9f80d66", "rental_uris": {"android": "https://dc.lft.to/lastmile_qr_scan", "ios": "https://dc.lft.to/lastmile_qr_scan"}, "name": "035f4eb127e65a28de6a9a8fd9f80d66", "is_reserved": 0}, {"is_disabled": 0, "fusion_lon": 0.0, "fusion_lat": 0.0, "lat": 38.8881735, "type": "electric_scooter", "lon": -77.0149335, "bike_id": "29fed3112f40a35753ab659dd39aa56c", "rental_uris": {"android": "https://dc.lft.to/lastmile_qr_scan", "ios": "https://dc.lft.to/lastmile_qr_scan"}, "name": "29fed3112f40a35753ab659dd39aa56c", "is_reserved": 0}, {"is_disabled": 0, "fusion_lon": 0.0, "fusion_lat": 0.0, "lat": 38.932557333333335, "type": "electric_scooter", "lon": -77.032583, "bike_id": "cebb4db367f64db0bc45bf4c2e390039", "rental_uris": {"android": "https://dc.lft.to/lastmile_qr_scan", "ios": "https://dc.lft.to/lastmile_qr_scan"}, "name": "cebb4db367f64db0bc45bf4c2e390039", "is_reserved": 0}, {"is_disabled": 0, "fusion_lon": 0.0, "fusion_lat": 0.0, "lat": 38.87984683333333, "type": "electric_bike", "lon": -76.9159525, "bike_id": "e4b1184c76b58e1927c4f4a7c3c50d38", "rental_uris": {"android": "https://dc.lft.to/lastmile_qr_scan", "ios": "https://dc.lft.to/lastmile_qr_scan"}, "name": "e4b1184c76b58e1927c4f4a7c3c50d38", "is_reserved": 0}, {"is_disabled": 0, "fusion_lon": 0.0, "fusion_lat": 0.0, "lat": 38.911174833333334, "type": "electric_scooter", "lon": -76.997731, "bike_id": "7e85bdb94ea8801e19474a22cf8f6ff4", "rental_uris": {"android": "https://dc.lft.to/lastmile_qr_scan", "ios": "https://dc.lft.to/lastmile_qr_scan"}, "name": "7e85bdb94ea8801e19474a22cf8f6ff4", "is_reserved": 0}, {"is_disabled": 0, "fusion_lon": 0.0, "fusion_lat": 0.0, "lat": 38.898359166666665, "type": "electric_scooter", "lon": -77.02818516666666, "bike_id": "3542d8a9e0f6ab44d40d830ffff2ea83", "rental_uris": {"android": "https://dc.lft.to/lastmile_qr_scan", "ios": "https://dc.lft.to/lastmile_qr_scan"}, "name": "3542d8a9e0f6ab44d40d830ffff2ea83", "is_reserved": 0}, {"is_disabled": 0, "fusion_lon": 0.0, "fusion_lat": 0.0, "lat": 38.911906333333334, "type": "electric_scooter", "lon": -77.03220833333333, "bike_id": "f32481047df77d6e41501fb43284b3bd", "rental_uris": {"android": "https://dc.lft.to/lastmile_qr_scan", "ios": "https://dc.lft.to/lastmile_qr_scan"}, "name": "f32481047df77d6e41501fb43284b3bd", "is_reserved": 0}, {"is_disabled": 0, "fusion_lon": 0.0, "fusion_lat": 0.0, "lat": 38.85805716666667, "type": "electric_bike", "lon": -76.9875065, "bike_id": "2bb1d99bf6dd51268eeee955e231a65b", "rental_uris": {"android": "https://dc.lft.to/lastmile_qr_scan", "ios": "https://dc.lft.to/lastmile_qr_scan"}, "name": "2bb1d99bf6dd51268eeee955e231a65b", "is_reserved": 0}, {"is_disabled": 0, "fusion_lon": 0.0, "fusion_lat": 0.0, "lat": 38.929981, "type": "electric_scooter", "lon": -77.03253183333334, "bike_id": "c70d2008a0e4811687297e506a8716e5", "rental_uris": {"android": "https://dc.lft.to/lastmile_qr_scan", "ios": "https://dc.lft.to/lastmile_qr_scan"}, "name": "c70d2008a0e4811687297e506a8716e5", "is_reserved": 0}, {"is_disabled": 0, "fusion_lon": 0.0, "fusion_lat": 0.0, "lat": 38.921095666666666, "type": "electric_scooter", "lon": -77.043669, "bike_id": "7f811c072a6114fcb0405e4043ef8514", "rental_uris": {"android": "https://dc.lft.to/lastmile_qr_scan", "ios": "https://dc.lft.to/lastmile_qr_scan"}, "name": "7f811c072a6114fcb0405e4043ef8514", "is_reserved": 0}, {"is_disabled": 0, "fusion_lon": 0.0, "fusion_lat": 0.0, "lat": 38.90438283333334, "type": "electric_scooter", "lon": -77.04350716666667, "bike_id": "3b08d2f64ab383631a3d0e7035148afa", "rental_uris": {"android": "https://dc.lft.to/lastmile_qr_scan", "ios": "https://dc.lft.to/lastmile_qr_scan"}, "name": "3b08d2f64ab383631a3d0e7035148afa", "is_reserved": 0}, {"is_disabled": 0, "fusion_lon": 0.0, "fusion_lat": 0.0, "lat": 38.90274733333333, "type": "electric_scooter", "lon": -77.03432, "bike_id": "2ed5b8bec632899cc0885c040e360fdd", "rental_uris": {"android": "https://dc.lft.to/lastmile_qr_scan", "ios": "https://dc.lft.to/lastmile_qr_scan"}, "name": "2ed5b8bec632899cc0885c040e360fdd", "is_reserved": 0}, {"is_disabled": 0, "fusion_lon": 0.0, "fusion_lat": 0.0, "lat": 38.90650083333333, "type": "electric_scooter", "lon": -77.05152283333334, "bike_id": "9addfb5eff691c9db0fdb44492a6a0c0", "rental_uris": {"android": "https://dc.lft.to/lastmile_qr_scan", "ios": "https://dc.lft.to/lastmile_qr_scan"}, "name": "9addfb5eff691c9db0fdb44492a6a0c0", "is_reserved": 0}, {"is_disabled": 0, "fusion_lon": 0.0, "fusion_lat": 0.0, "lat": 38.984775, "type": "electric_scooter", "lon": -77.026436, "bike_id": "4748d42c325d581356f6b76807281f66", "rental_uris": {"android": "https://dc.lft.to/lastmile_qr_scan", "ios": "https://dc.lft.to/lastmile_qr_scan"}, "name": "4748d42c325d581356f6b76807281f66", "is_reserved": 0}, {"is_disabled": 0, "fusion_lon": 0.0, "fusion_lat": 0.0, "lat": 38.943746833333336, "type": "electric_scooter", "lon": -77.077469, "bike_id": "5da2d3a3ffbd44e0e529c8c5dbdd9a8a", "rental_uris": {"android": "https://dc.lft.to/lastmile_qr_scan", "ios": "https://dc.lft.to/lastmile_qr_scan"}, "name": "5da2d3a3ffbd44e0e529c8c5dbdd9a8a", "is_reserved": 0}, {"is_disabled": 0, "fusion_lon": 0.0, "fusion_lat": 0.0, "lat": 38.911566666666666, "type": "electric_scooter", "lon": -77.08788766666666, "bike_id": "89b869276330981ecd0a3b50cbabbf2e", "rental_uris": {"android": "https://dc.lft.to/lastmile_qr_scan", "ios": "https://dc.lft.to/lastmile_qr_scan"}, "name": "89b869276330981ecd0a3b50cbabbf2e", "is_reserved": 0}, {"is_disabled": 0, "fusion_lon": 0.0, "fusion_lat": 0.0, "lat": 38.921055, "type": "electric_scooter", "lon": -77.0314265, "bike_id": "d2327f7b86dcff94f7743ee90a5d6174", "rental_uris": {"android": "https://dc.lft.to/lastmile_qr_scan", "ios": "https://dc.lft.to/lastmile_qr_scan"}, "name": "d2327f7b86dcff94f7743ee90a5d6174", "is_reserved": 0}, {"is_disabled": 0, "fusion_lon": 0.0, "fusion_lat": 0.0, "lat": 38.938276, "type": "electric_scooter", "lon": -76.990494, "bike_id": "e35455db3b202f3cdd41961c5f607c3d", "rental_uris": {"android": "https://dc.lft.to/lastmile_qr_scan", "ios": "https://dc.lft.to/lastmile_qr_scan"}, "name": "e35455db3b202f3cdd41961c5f607c3d", "is_reserved": 0}, {"is_disabled": 0, "fusion_lon": 0.0, "fusion_lat": 0.0, "lat": 38.966483, "type": "electric_bike", "lon": -76.93022566666667, "bike_id": "c4e3773c172206d11b712b092bb91f88", "rental_uris": {"android": "https://dc.lft.to/lastmile_qr_scan", "ios": "https://dc.lft.to/lastmile_qr_scan"}, "name": "c4e3773c172206d11b712b092bb91f88", "is_reserved": 0}, {"is_disabled": 0, "fusion_lon": 0.0, "fusion_lat": 0.0, "lat": 38.90341883333333, "type": "electric_scooter", "lon": -76.97574333333333, "bike_id": "9122d3bcf29d0b1cdb5dfe3dc4e29fa7", "rental_uris": {"android": "https://dc.lft.to/lastmile_qr_scan", "ios": "https://dc.lft.to/lastmile_qr_scan"}, "name": "9122d3bcf29d0b1cdb5dfe3dc4e29fa7", "is_reserved": 0}, {"is_disabled": 0, "fusion_lon": 0.0, "fusion_lat": 0.0, "lat": 39.08846316666666, "type": "electric_bike", "lon": -77.17797483333334, "bike_id": "f94fa62ff001709eca803aefafe6bf03", "rental_uris": {"android": "https://dc.lft.to/lastmile_qr_scan", "ios": "https://dc.lft.to/lastmile_qr_scan"}, "name": "f94fa62ff001709eca803aefafe6bf03", "is_reserved": 0}, {"is_disabled": 0, "fusion_lon": 0.0, "fusion_lat": 0.0, "lat": 38.90091016666667, "type": "electric_scooter", "lon": -77.01994966666666, "bike_id": "ba782c4ebe702ec7f76f7a1fc6371974", "rental_uris": {"android": "https://dc.lft.to/lastmile_qr_scan", "ios": "https://dc.lft.to/lastmile_qr_scan"}, "name": "ba782c4ebe702ec7f76f7a1fc6371974", "is_reserved": 0}, {"is_disabled": 0, "fusion_lon": 0.0, "fusion_lat": 0.0, "lat": 38.88416383333333, "type": "electric_scooter", "lon": -76.954198, "bike_id": "e220b2e719e1b882f44de4e4beb6f371", "rental_uris": {"android": "https://dc.lft.to/lastmile_qr_scan", "ios": "https://dc.lft.to/lastmile_qr_scan"}, "name": "e220b2e719e1b882f44de4e4beb6f371", "is_reserved": 0}, {"is_disabled": 0, "fusion_lon": 0.0, "fusion_lat": 0.0, "lat": 38.876613, "type": "electric_scooter", "lon": -77.0090345, "bike_id": "65419dd385ee629fff9c1a0b8be6b434", "rental_uris": {"android": "https://dc.lft.to/lastmile_qr_scan", "ios": "https://dc.lft.to/lastmile_qr_scan"}, "name": "65419dd385ee629fff9c1a0b8be6b434", "is_reserved": 0}, {"is_disabled": 0, "fusion_lon": 0.0, "fusion_lat": 0.0, "lat": 38.88366466666667, "type": "electric_scooter", "lon": -76.99490083333333, "bike_id": "024d322fee258a4e861977ea097d63a2", "rental_uris": {"android": "https://dc.lft.to/lastmile_qr_scan", "ios": "https://dc.lft.to/lastmile_qr_scan"}, "name": "024d322fee258a4e861977ea097d63a2", "is_reserved": 0}, {"is_disabled": 0, "fusion_lon": 0.0, "fusion_lat": 0.0, "lat": 38.906583166666664, "type": "electric_scooter", "lon": -77.04893416666667, "bike_id": "cdabdbcdd99852fc4a12250808651403", "rental_uris": {"android": "https://dc.lft.to/lastmile_qr_scan", "ios": "https://dc.lft.to/lastmile_qr_scan"}, "name": "cdabdbcdd99852fc4a12250808651403", "is_reserved": 0}, {"is_disabled": 0, "fusion_lon": 0.0, "fusion_lat": 0.0, "lat": 38.9149465, "type": "electric_scooter", "lon": -77.03463566666667, "bike_id": "e0cd503dbdaca8b08f4e060d9584abb4", "rental_uris": {"android": "https://dc.lft.to/lastmile_qr_scan", "ios": "https://dc.lft.to/lastmile_qr_scan"}, "name": "e0cd503dbdaca8b08f4e060d9584abb4", "is_reserved": 0}, {"is_disabled": 0, "fusion_lon": 0.0, "fusion_lat": 0.0, "lat": 38.882122, "type": "electric_scooter", "lon": -76.927031, "bike_id": "19ee8487c2876b0503829794ec3d915d", "rental_uris": {"android": "https://dc.lft.to/lastmile_qr_scan", "ios": "https://dc.lft.to/lastmile_qr_scan"}, "name": "19ee8487c2876b0503829794ec3d915d", "is_reserved": 0}, {"is_disabled": 0, "fusion_lon": 0.0, "fusion_lat": 0.0, "lat": 38.924188666666666, "type": "electric_scooter", "lon": -77.03553183333334, "bike_id": "d696cf2ed0dbc5e076a74d2cba2c29c5", "rental_uris": {"android": "https://dc.lft.to/lastmile_qr_scan", "ios": "https://dc.lft.to/lastmile_qr_scan"}, "name": "d696cf2ed0dbc5e076a74d2cba2c29c5", "is_reserved": 0}, {"is_disabled": 0, "fusion_lon": 0.0, "fusion_lat": 0.0, "lat": 38.887282666666664, "type": "electric_scooter", "lon": -77.03204183333334, "bike_id": "69d199cd332959cd53bd85d92199a249", "rental_uris": {"android": "https://dc.lft.to/lastmile_qr_scan", "ios": "https://dc.lft.to/lastmile_qr_scan"}, "name": "69d199cd332959cd53bd85d92199a249", "is_reserved": 0}, {"is_disabled": 0, "fusion_lon": 0.0, "fusion_lat": 0.0, "lat": 38.92978733333333, "type": "electric_scooter", "lon": -77.041445, "bike_id": "1c555d46c9f17cbe1bfaaee8be0a873f", "rental_uris": {"android": "https://dc.lft.to/lastmile_qr_scan", "ios": "https://dc.lft.to/lastmile_qr_scan"}, "name": "1c555d46c9f17cbe1bfaaee8be0a873f", "is_reserved": 0}, {"is_disabled": 0, "fusion_lon": 0.0, "fusion_lat": 0.0, "lat": 38.9498235, "type": "electric_scooter", "lon": -77.027002, "bike_id": "52cbbddd3082330118a64dc067b3333c", "rental_uris": {"android": "https://dc.lft.to/lastmile_qr_scan", "ios": "https://dc.lft.to/lastmile_qr_scan"}, "name": "52cbbddd3082330118a64dc067b3333c", "is_reserved": 0}, {"is_disabled": 0, "fusion_lon": 0.0, "fusion_lat": 0.0, "lat": 38.91636533333333, "type": "electric_scooter", "lon": -77.02276966666666, "bike_id": "8762d99598e2d0554252c0197cc4681b", "rental_uris": {"android": "https://dc.lft.to/lastmile_qr_scan", "ios": "https://dc.lft.to/lastmile_qr_scan"}, "name": "8762d99598e2d0554252c0197cc4681b", "is_reserved": 0}, {"is_disabled": 0, "fusion_lon": 0.0, "fusion_lat": 0.0, "lat": 38.89058083333333, "type": "electric_bike", "lon": -77.08482866666667, "bike_id": "4e6fd8ef22a2b8f07aaee95909d99067", "rental_uris": {"android": "https://dc.lft.to/lastmile_qr_scan", "ios": "https://dc.lft.to/lastmile_qr_scan"}, "name": "4e6fd8ef22a2b8f07aaee95909d99067", "is_reserved": 0}, {"is_disabled": 0, "fusion_lon": 0.0, "fusion_lat": 0.0, "lat": 38.920692333333335, "type": "electric_scooter", "lon": -77.04360516666667, "bike_id": "483112cb9ab58187e0ba9d0186a7d476", "rental_uris": {"android": "https://dc.lft.to/lastmile_qr_scan", "ios": "https://dc.lft.to/lastmile_qr_scan"}, "name": "483112cb9ab58187e0ba9d0186a7d476", "is_reserved": 0}, {"is_disabled": 0, "fusion_lon": 0.0, "fusion_lat": 0.0, "lat": 38.900108333333336, "type": "electric_scooter", "lon": -77.02668166666666, "bike_id": "2088406ab3f1a75d82bc07069014dc65", "rental_uris": {"android": "https://dc.lft.to/lastmile_qr_scan", "ios": "https://dc.lft.to/lastmile_qr_scan"}, "name": "2088406ab3f1a75d82bc07069014dc65", "is_reserved": 0}, {"is_disabled": 0, "fusion_lon": 0.0, "fusion_lat": 0.0, "lat": 38.9238835, "type": "electric_scooter", "lon": -77.02885266666667, "bike_id": "3742c008769e44f669253bdfb98485e7", "rental_uris": {"android": "https://dc.lft.to/lastmile_qr_scan", "ios": "https://dc.lft.to/lastmile_qr_scan"}, "name": "3742c008769e44f669253bdfb98485e7", "is_reserved": 0}, {"is_disabled": 0, "fusion_lon": 0.0, "fusion_lat": 0.0, "lat": 38.91949916666667, "type": "electric_scooter", "lon": -77.045066, "bike_id": "313b197904680173e8aee3e142b38e78", "rental_uris": {"android": "https://dc.lft.to/lastmile_qr_scan", "ios": "https://dc.lft.to/lastmile_qr_scan"}, "name": "313b197904680173e8aee3e142b38e78", "is_reserved": 0}, {"is_disabled": 0, "fusion_lon": 0.0, "fusion_lat": 0.0, "lat": 38.88978183333333, "type": "electric_scooter", "lon": -77.00244366666666, "bike_id": "cdd80ec0a350ee024aca26a94d5ff718", "rental_uris": {"android": "https://dc.lft.to/lastmile_qr_scan", "ios": "https://dc.lft.to/lastmile_qr_scan"}, "name": "cdd80ec0a350ee024aca26a94d5ff718", "is_reserved": 0}, {"is_disabled": 0, "fusion_lon": 0.0, "fusion_lat": 0.0, "lat": 39.026882666666666, "type": "electric_bike", "lon": -77.1259725, "bike_id": "53b49cf6a2b04b0cdcd441fb771d16d0", "rental_uris": {"android": "https://dc.lft.to/lastmile_qr_scan", "ios": "https://dc.lft.to/lastmile_qr_scan"}, "name": "53b49cf6a2b04b0cdcd441fb771d16d0", "is_reserved": 0}, {"is_disabled": 0, "fusion_lon": 0.0, "fusion_lat": 0.0, "lat": 38.9170395, "type": "electric_scooter", "lon": -77.03331733333333, "bike_id": "91f033de91788351694be6c20ccd4072", "rental_uris": {"android": "https://dc.lft.to/lastmile_qr_scan", "ios": "https://dc.lft.to/lastmile_qr_scan"}, "name": "91f033de91788351694be6c20ccd4072", "is_reserved": 0}, {"is_disabled": 0, "fusion_lon": 0.0, "fusion_lat": 0.0, "lat": 38.906417166666664, "type": "electric_scooter", "lon": -76.98570916666667, "bike_id": "aa55fc2a85e8a419a51d9cdee7a7e75a", "rental_uris": {"android": "https://dc.lft.to/lastmile_qr_scan", "ios": "https://dc.lft.to/lastmile_qr_scan"}, "name": "aa55fc2a85e8a419a51d9cdee7a7e75a", "is_reserved": 0}, {"is_disabled": 0, "fusion_lon": 0.0, "fusion_lat": 0.0, "lat": 38.8850505, "type": "electric_scooter", "lon": -77.00323833333333, "bike_id": "43ef0e25187137b2871b1cadb5d27b54", "rental_uris": {"android": "https://dc.lft.to/lastmile_qr_scan", "ios": "https://dc.lft.to/lastmile_qr_scan"}, "name": "43ef0e25187137b2871b1cadb5d27b54", "is_reserved": 0}, {"is_disabled": 0, "fusion_lon": 0.0, "fusion_lat": 0.0, "lat": 38.91715683333334, "type": "electric_scooter", "lon": -77.09807366666666, "bike_id": "c234615e888864e0c3385947f8b09760", "rental_uris": {"android": "https://dc.lft.to/lastmile_qr_scan", "ios": "https://dc.lft.to/lastmile_qr_scan"}, "name": "c234615e888864e0c3385947f8b09760", "is_reserved": 0}, {"is_disabled": 0, "fusion_lon": 0.0, "fusion_lat": 0.0, "lat": 38.94979983333333, "type": "electric_scooter", "lon": -77.03758566666667, "bike_id": "ce41e2c7762ff317f69d0f5bd1d2b62f", "rental_uris": {"android": "https://dc.lft.to/lastmile_qr_scan", "ios": "https://dc.lft.to/lastmile_qr_scan"}, "name": "ce41e2c7762ff317f69d0f5bd1d2b62f", "is_reserved": 0}, {"is_disabled": 0, "fusion_lon": 0.0, "fusion_lat": 0.0, "lat": 38.911176166666664, "type": "electric_scooter", "lon": -77.03832083333333, "bike_id": "e18dab3ac82213a59cf66a1c0cdb6dd4", "rental_uris": {"android": "https://dc.lft.to/lastmile_qr_scan", "ios": "https://dc.lft.to/lastmile_qr_scan"}, "name": "e18dab3ac82213a59cf66a1c0cdb6dd4", "is_reserved": 0}, {"is_disabled": 0, "fusion_lon": 0.0, "fusion_lat": 0.0, "lat": 38.898501333333336, "type": "electric_scooter", "lon": -76.944909, "bike_id": "2c3510f9d106b5bf9334a10c7b550605", "rental_uris": {"android": "https://dc.lft.to/lastmile_qr_scan", "ios": "https://dc.lft.to/lastmile_qr_scan"}, "name": "2c3510f9d106b5bf9334a10c7b550605", "is_reserved": 0}, {"is_disabled": 0, "fusion_lon": 0.0, "fusion_lat": 0.0, "lat": 38.894916, "type": "electric_scooter", "lon": -77.02280366666666, "bike_id": "4ec38ac0aa9c86f946164b41d4b0bd0a", "rental_uris": {"android": "https://dc.lft.to/lastmile_qr_scan", "ios": "https://dc.lft.to/lastmile_qr_scan"}, "name": "4ec38ac0aa9c86f946164b41d4b0bd0a", "is_reserved": 0}, {"is_disabled": 0, "fusion_lon": 0.0, "fusion_lat": 0.0, "lat": 38.935591333333335, "type": "electric_scooter", "lon": -77.05904716666667, "bike_id": "73442fad8a7e9fbc4319d218a86a73d6", "rental_uris": {"android": "https://dc.lft.to/lastmile_qr_scan", "ios": "https://dc.lft.to/lastmile_qr_scan"}, "name": "73442fad8a7e9fbc4319d218a86a73d6", "is_reserved": 0}, {"is_disabled": 0, "fusion_lon": 0.0, "fusion_lat": 0.0, "lat": 39.02299, "type": "electric_bike", "lon": -77.02102833333333, "bike_id": "eec5ee1946917c3aa2b13ba11b0ce4c3", "rental_uris": {"android": "https://dc.lft.to/lastmile_qr_scan", "ios": "https://dc.lft.to/lastmile_qr_scan"}, "name": "eec5ee1946917c3aa2b13ba11b0ce4c3", "is_reserved": 0}, {"is_disabled": 0, "fusion_lon": 0.0, "fusion_lat": 0.0, "lat": 38.90284116666667, "type": "electric_scooter", "lon": -77.04729866666666, "bike_id": "40b36c7a09caa633bdb7c8a0656bb623", "rental_uris": {"android": "https://dc.lft.to/lastmile_qr_scan", "ios": "https://dc.lft.to/lastmile_qr_scan"}, "name": "40b36c7a09caa633bdb7c8a0656bb623", "is_reserved": 0}, {"is_disabled": 0, "fusion_lon": 0.0, "fusion_lat": 0.0, "lat": 38.956312, "type": "electric_scooter", "lon": -77.022954, "bike_id": "d7ecfe067d91ef54844019fa5b2d6c8f", "rental_uris": {"android": "https://dc.lft.to/lastmile_qr_scan", "ios": "https://dc.lft.to/lastmile_qr_scan"}, "name": "d7ecfe067d91ef54844019fa5b2d6c8f", "is_reserved": 0}, {"is_disabled": 0, "fusion_lon": 0.0, "fusion_lat": 0.0, "lat": 38.90015133333333, "type": "electric_scooter", "lon": -77.04500466666667, "bike_id": "21b9019d19e918ddb3178ceee386c565", "rental_uris": {"android": "https://dc.lft.to/lastmile_qr_scan", "ios": "https://dc.lft.to/lastmile_qr_scan"}, "name": "21b9019d19e918ddb3178ceee386c565", "is_reserved": 0}, {"is_disabled": 0, "fusion_lon": 0.0, "fusion_lat": 0.0, "lat": 38.895592, "type": "electric_scooter", "lon": -76.948752, "bike_id": "f299fe5249e19272da2c2fc3f0553193", "rental_uris": {"android": "https://dc.lft.to/lastmile_qr_scan", "ios": "https://dc.lft.to/lastmile_qr_scan"}, "name": "f299fe5249e19272da2c2fc3f0553193", "is_reserved": 0}, {"is_disabled": 0, "fusion_lon": 0.0, "fusion_lat": 0.0, "lat": 38.904425333333336, "type": "electric_scooter", "lon": -77.05150583333334, "bike_id": "81fe5ca1e829f97ad39becf47f6f46fb", "rental_uris": {"android": "https://dc.lft.to/lastmile_qr_scan", "ios": "https://dc.lft.to/lastmile_qr_scan"}, "name": "81fe5ca1e829f97ad39becf47f6f46fb", "is_reserved": 0}, {"is_disabled": 0, "fusion_lon": 0.0, "fusion_lat": 0.0, "lat": 38.931868, "type": "electric_scooter", "lon": -77.041456, "bike_id": "fe5294b0bfcd79983f2aa8b3657e7266", "rental_uris": {"android": "https://dc.lft.to/lastmile_qr_scan", "ios": "https://dc.lft.to/lastmile_qr_scan"}, "name": "fe5294b0bfcd79983f2aa8b3657e7266", "is_reserved": 0}, {"is_disabled": 0, "fusion_lon": 0.0, "fusion_lat": 0.0, "lat": 38.865262333333334, "type": "electric_scooter", "lon": -76.98970733333333, "bike_id": "cfb8f808a7a48efcf937ff61ec6edf87", "rental_uris": {"android": "https://dc.lft.to/lastmile_qr_scan", "ios": "https://dc.lft.to/lastmile_qr_scan"}, "name": "cfb8f808a7a48efcf937ff61ec6edf87", "is_reserved": 0}, {"is_disabled": 0, "fusion_lon": 0.0, "fusion_lat": 0.0, "lat": 38.935700833333335, "type": "electric_scooter", "lon": -77.05871633333334, "bike_id": "4efbfbf2defa768d5a75472024d842e0", "rental_uris": {"android": "https://dc.lft.to/lastmile_qr_scan", "ios": "https://dc.lft.to/lastmile_qr_scan"}, "name": "4efbfbf2defa768d5a75472024d842e0", "is_reserved": 0}, {"is_disabled": 0, "fusion_lon": 0.0, "fusion_lat": 0.0, "lat": 38.912880333333334, "type": "electric_scooter", "lon": -76.986949, "bike_id": "427f50293436a1c57ffd853d89fd8ebe", "rental_uris": {"android": "https://dc.lft.to/lastmile_qr_scan", "ios": "https://dc.lft.to/lastmile_qr_scan"}, "name": "427f50293436a1c57ffd853d89fd8ebe", "is_reserved": 0}, {"is_disabled": 0, "fusion_lon": 0.0, "fusion_lat": 0.0, "lat": 38.899118666666666, "type": "electric_scooter", "lon": -76.9339045, "bike_id": "9f6c61f27381d243aaf9c7d013bdb78f", "rental_uris": {"android": "https://dc.lft.to/lastmile_qr_scan", "ios": "https://dc.lft.to/lastmile_qr_scan"}, "name": "9f6c61f27381d243aaf9c7d013bdb78f", "is_reserved": 0}, {"is_disabled": 0, "fusion_lon": 0.0, "fusion_lat": 0.0, "lat": 38.89779566666667, "type": "electric_scooter", "lon": -77.03370583333333, "bike_id": "0fe8f2aad237aa43802e0b7278b463e5", "rental_uris": {"android": "https://dc.lft.to/lastmile_qr_scan", "ios": "https://dc.lft.to/lastmile_qr_scan"}, "name": "0fe8f2aad237aa43802e0b7278b463e5", "is_reserved": 0}, {"is_disabled": 0, "fusion_lon": 0.0, "fusion_lat": 0.0, "lat": 38.8971925, "type": "electric_scooter", "lon": -77.02468, "bike_id": "ccd28a306d53860ccf3da739eb5d6506", "rental_uris": {"android": "https://dc.lft.to/lastmile_qr_scan", "ios": "https://dc.lft.to/lastmile_qr_scan"}, "name": "ccd28a306d53860ccf3da739eb5d6506", "is_reserved": 0}, {"is_disabled": 0, "fusion_lon": 0.0, "fusion_lat": 0.0, "lat": 38.95786416666667, "type": "electric_scooter", "lon": -77.02434033333333, "bike_id": "0f40d1b049cf7c17962c2b37d90d23a1", "rental_uris": {"android": "https://dc.lft.to/lastmile_qr_scan", "ios": "https://dc.lft.to/lastmile_qr_scan"}, "name": "0f40d1b049cf7c17962c2b37d90d23a1", "is_reserved": 0}, {"is_disabled": 0, "fusion_lon": 0.0, "fusion_lat": 0.0, "lat": 38.90566416666667, "type": "electric_scooter", "lon": -77.04081033333334, "bike_id": "83d84ce0b7cb275d0fdbc4ec96f84fd2", "rental_uris": {"android": "https://dc.lft.to/lastmile_qr_scan", "ios": "https://dc.lft.to/lastmile_qr_scan"}, "name": "83d84ce0b7cb275d0fdbc4ec96f84fd2", "is_reserved": 0}, {"is_disabled": 0, "fusion_lon": 0.0, "fusion_lat": 0.0, "lat": 38.89233816666667, "type": "electric_scooter", "lon": -77.043362, "bike_id": "89bae9e34b78b68f8aac3086a7b12586", "rental_uris": {"android": "https://dc.lft.to/lastmile_qr_scan", "ios": "https://dc.lft.to/lastmile_qr_scan"}, "name": "89bae9e34b78b68f8aac3086a7b12586", "is_reserved": 0}, {"is_disabled": 0, "fusion_lon": 0.0, "fusion_lat": 0.0, "lat": 38.83611366666667, "type": "electric_bike", "lon": -77.00381866666666, "bike_id": "c76c7f18908d1cea0528dbe85f2ed81c", "rental_uris": {"android": "https://dc.lft.to/lastmile_qr_scan", "ios": "https://dc.lft.to/lastmile_qr_scan"}, "name": "c76c7f18908d1cea0528dbe85f2ed81c", "is_reserved": 0}, {"is_disabled": 0, "fusion_lon": 0.0, "fusion_lat": 0.0, "lat": 38.905420666666664, "type": "electric_scooter", "lon": -77.02216566666667, "bike_id": "40be65becae13210302bd63df1c493f5", "rental_uris": {"android": "https://dc.lft.to/lastmile_qr_scan", "ios": "https://dc.lft.to/lastmile_qr_scan"}, "name": "40be65becae13210302bd63df1c493f5", "is_reserved": 0}, {"is_disabled": 0, "fusion_lon": 0.0, "fusion_lat": 0.0, "lat": 38.96921966666667, "type": "electric_bike", "lon": -77.02621383333333, "bike_id": "3a3c4374ba7f8bbddaa6709945d4993a", "rental_uris": {"android": "https://dc.lft.to/lastmile_qr_scan", "ios": "https://dc.lft.to/lastmile_qr_scan"}, "name": "3a3c4374ba7f8bbddaa6709945d4993a", "is_reserved": 0}, {"is_disabled": 0, "fusion_lon": 0.0, "fusion_lat": 0.0, "lat": 38.902671166666664, "type": "electric_scooter", "lon": -77.03435383333333, "bike_id": "c2ff58a2145203d9d764f78a96394eac", "rental_uris": {"android": "https://dc.lft.to/lastmile_qr_scan", "ios": "https://dc.lft.to/lastmile_qr_scan"}, "name": "c2ff58a2145203d9d764f78a96394eac", "is_reserved": 0}, {"is_disabled": 0, "fusion_lon": 0.0, "fusion_lat": 0.0, "lat": 38.9185215, "type": "electric_scooter", "lon": -77.02950333333334, "bike_id": "6b2ffc6970115f98ab2ed4a1643c21e3", "rental_uris": {"android": "https://dc.lft.to/lastmile_qr_scan", "ios": "https://dc.lft.to/lastmile_qr_scan"}, "name": "6b2ffc6970115f98ab2ed4a1643c21e3", "is_reserved": 0}, {"is_disabled": 0, "fusion_lon": 0.0, "fusion_lat": 0.0, "lat": 38.93504083333333, "type": "electric_scooter", "lon": -77.02424633333334, "bike_id": "4e81b4fa30b9187a702cd07133502d4e", "rental_uris": {"android": "https://dc.lft.to/lastmile_qr_scan", "ios": "https://dc.lft.to/lastmile_qr_scan"}, "name": "4e81b4fa30b9187a702cd07133502d4e", "is_reserved": 0}, {"is_disabled": 0, "fusion_lon": 0.0, "fusion_lat": 0.0, "lat": 38.9026, "type": "electric_scooter", "lon": -77.0343635, "bike_id": "7f8a4bfcf4f422358781d38e4a896841", "rental_uris": {"android": "https://dc.lft.to/lastmile_qr_scan", "ios": "https://dc.lft.to/lastmile_qr_scan"}, "name": "7f8a4bfcf4f422358781d38e4a896841", "is_reserved": 0}, {"is_disabled": 0, "fusion_lon": 0.0, "fusion_lat": 0.0, "lat": 38.89947183333334, "type": "electric_scooter", "lon": -77.031709, "bike_id": "62ecab25c25bf8b5576acc41ba6a6306", "rental_uris": {"android": "https://dc.lft.to/lastmile_qr_scan", "ios": "https://dc.lft.to/lastmile_qr_scan"}, "name": "62ecab25c25bf8b5576acc41ba6a6306", "is_reserved": 0}, {"is_disabled": 0, "fusion_lon": 0.0, "fusion_lat": 0.0, "lat": 38.9184355, "type": "electric_scooter", "lon": -77.0164185, "bike_id": "dd208b43bce8be4b467e53a6c72f7df8", "rental_uris": {"android": "https://dc.lft.to/lastmile_qr_scan", "ios": "https://dc.lft.to/lastmile_qr_scan"}, "name": "dd208b43bce8be4b467e53a6c72f7df8", "is_reserved": 0}, {"is_disabled": 0, "fusion_lon": 0.0, "fusion_lat": 0.0, "lat": 38.89531133333333, "type": "electric_scooter", "lon": -77.0484775, "bike_id": "8b1d10b745f646b0503c2ac3bd5f9972", "rental_uris": {"android": "https://dc.lft.to/lastmile_qr_scan", "ios": "https://dc.lft.to/lastmile_qr_scan"}, "name": "8b1d10b745f646b0503c2ac3bd5f9972", "is_reserved": 0}, {"is_disabled": 0, "fusion_lon": 0.0, "fusion_lat": 0.0, "lat": 38.92613583333333, "type": "electric_scooter", "lon": -77.02160816666667, "bike_id": "b1dffea793cf15f8f02bf12974296cb7", "rental_uris": {"android": "https://dc.lft.to/lastmile_qr_scan", "ios": "https://dc.lft.to/lastmile_qr_scan"}, "name": "b1dffea793cf15f8f02bf12974296cb7", "is_reserved": 0}, {"is_disabled": 0, "fusion_lon": 0.0, "fusion_lat": 0.0, "lat": 38.87585716666667, "type": "electric_scooter", "lon": -77.00415916666667, "bike_id": "b1172cc6f74db234aa1aa5f63f414533", "rental_uris": {"android": "https://dc.lft.to/lastmile_qr_scan", "ios": "https://dc.lft.to/lastmile_qr_scan"}, "name": "b1172cc6f74db234aa1aa5f63f414533", "is_reserved": 0}, {"is_disabled": 0, "fusion_lon": 0.0, "fusion_lat": 0.0, "lat": 38.916974333333336, "type": "electric_scooter", "lon": -77.030631, "bike_id": "6871ffb793525b4bad852acbebe3bccd", "rental_uris": {"android": "https://dc.lft.to/lastmile_qr_scan", "ios": "https://dc.lft.to/lastmile_qr_scan"}, "name": "6871ffb793525b4bad852acbebe3bccd", "is_reserved": 0}, {"is_disabled": 0, "fusion_lon": 0.0, "fusion_lat": 0.0, "lat": 38.87759783333333, "type": "electric_bike", "lon": -76.97999616666667, "bike_id": "b1332251ea7bef8d07298f31fbc4ac1d", "rental_uris": {"android": "https://dc.lft.to/lastmile_qr_scan", "ios": "https://dc.lft.to/lastmile_qr_scan"}, "name": "b1332251ea7bef8d07298f31fbc4ac1d", "is_reserved": 0}, {"is_disabled": 0, "fusion_lon": 0.0, "fusion_lat": 0.0, "lat": 38.92487466666667, "type": "electric_scooter", "lon": -77.0318625, "bike_id": "07ea60e6c28fb22b092545a03ec85ed3", "rental_uris": {"android": "https://dc.lft.to/lastmile_qr_scan", "ios": "https://dc.lft.to/lastmile_qr_scan"}, "name": "07ea60e6c28fb22b092545a03ec85ed3", "is_reserved": 0}, {"is_disabled": 0, "fusion_lon": 0.0, "fusion_lat": 0.0, "lat": 38.8923155, "type": "electric_scooter", "lon": -77.04998566666667, "bike_id": "8d6637592c1ac6a8b1f1c4f252262e9c", "rental_uris": {"android": "https://dc.lft.to/lastmile_qr_scan", "ios": "https://dc.lft.to/lastmile_qr_scan"}, "name": "8d6637592c1ac6a8b1f1c4f252262e9c", "is_reserved": 0}, {"is_disabled": 0, "fusion_lon": 0.0, "fusion_lat": 0.0, "lat": 38.93485733333333, "type": "electric_scooter", "lon": -77.072723, "bike_id": "2c8efd7955cd4b1fd86dae48129c4ee1", "rental_uris": {"android": "https://dc.lft.to/lastmile_qr_scan", "ios": "https://dc.lft.to/lastmile_qr_scan"}, "name": "2c8efd7955cd4b1fd86dae48129c4ee1", "is_reserved": 0}, {"is_disabled": 0, "fusion_lon": 0.0, "fusion_lat": 0.0, "lat": 38.922882666666666, "type": "electric_scooter", "lon": -77.044633, "bike_id": "bc9b2332ffbdbc3ad5d836ddf72f2613", "rental_uris": {"android": "https://dc.lft.to/lastmile_qr_scan", "ios": "https://dc.lft.to/lastmile_qr_scan"}, "name": "bc9b2332ffbdbc3ad5d836ddf72f2613", "is_reserved": 0}, {"is_disabled": 0, "fusion_lon": 0.0, "fusion_lat": 0.0, "lat": 38.93192833333333, "type": "electric_scooter", "lon": -77.041461, "bike_id": "d1e1b773adcb94a7d38f3583e48dec77", "rental_uris": {"android": "https://dc.lft.to/lastmile_qr_scan", "ios": "https://dc.lft.to/lastmile_qr_scan"}, "name": "d1e1b773adcb94a7d38f3583e48dec77", "is_reserved": 0}, {"is_disabled": 0, "fusion_lon": 0.0, "fusion_lat": 0.0, "lat": 38.93965433333334, "type": "electric_bike", "lon": -77.36095416666667, "bike_id": "85546339341d44334c4099704281398f", "rental_uris": {"android": "https://dc.lft.to/lastmile_qr_scan", "ios": "https://dc.lft.to/lastmile_qr_scan"}, "name": "85546339341d44334c4099704281398f", "is_reserved": 0}, {"is_disabled": 0, "fusion_lon": 0.0, "fusion_lat": 0.0, "lat": 38.901396, "type": "electric_scooter", "lon": -77.00068733333333, "bike_id": "f391491b3841fb53082918b2f45d572b", "rental_uris": {"android": "https://dc.lft.to/lastmile_qr_scan", "ios": "https://dc.lft.to/lastmile_qr_scan"}, "name": "f391491b3841fb53082918b2f45d572b", "is_reserved": 0}, {"is_disabled": 0, "fusion_lon": 0.0, "fusion_lat": 0.0, "lat": 38.9908885, "type": "electric_bike", "lon": -76.8749415, "bike_id": "c8c4d3b733bf447ba84a440875f38bd3", "rental_uris": {"android": "https://dc.lft.to/lastmile_qr_scan", "ios": "https://dc.lft.to/lastmile_qr_scan"}, "name": "c8c4d3b733bf447ba84a440875f38bd3", "is_reserved": 0}, {"is_disabled": 0, "fusion_lon": 0.0, "fusion_lat": 0.0, "lat": 38.87625283333333, "type": "electric_scooter", "lon": -76.96537083333334, "bike_id": "bb521e2d6f90400c2a4673dc2f577540", "rental_uris": {"android": "https://dc.lft.to/lastmile_qr_scan", "ios": "https://dc.lft.to/lastmile_qr_scan"}, "name": "bb521e2d6f90400c2a4673dc2f577540", "is_reserved": 0}, {"is_disabled": 0, "fusion_lon": 0.0, "fusion_lat": 0.0, "lat": 38.89664633333334, "type": "electric_scooter", "lon": -77.05151583333334, "bike_id": "4a452ab70beaee52ebd68f7124d37a2c", "rental_uris": {"android": "https://dc.lft.to/lastmile_qr_scan", "ios": "https://dc.lft.to/lastmile_qr_scan"}, "name": "4a452ab70beaee52ebd68f7124d37a2c", "is_reserved": 0}, {"is_disabled": 0, "fusion_lon": 0.0, "fusion_lat": 0.0, "lat": 38.929644833333334, "type": "electric_scooter", "lon": -77.05518766666667, "bike_id": "0cacb5350b45f4407835afe7309b75b4", "rental_uris": {"android": "https://dc.lft.to/lastmile_qr_scan", "ios": "https://dc.lft.to/lastmile_qr_scan"}, "name": "0cacb5350b45f4407835afe7309b75b4", "is_reserved": 0}, {"is_disabled": 0, "fusion_lon": 0.0, "fusion_lat": 0.0, "lat": 38.90177116666667, "type": "electric_scooter", "lon": -77.02616366666666, "bike_id": "3816eb2dd77137f7e729d05bbf096ee3", "rental_uris": {"android": "https://dc.lft.to/lastmile_qr_scan", "ios": "https://dc.lft.to/lastmile_qr_scan"}, "name": "3816eb2dd77137f7e729d05bbf096ee3", "is_reserved": 0}, {"is_disabled": 0, "fusion_lon": 0.0, "fusion_lat": 0.0, "lat": 38.90586583333334, "type": "electric_scooter", "lon": -77.0410365, "bike_id": "1a78dcb251496fde8b6b523f5e1e1217", "rental_uris": {"android": "https://dc.lft.to/lastmile_qr_scan", "ios": "https://dc.lft.to/lastmile_qr_scan"}, "name": "1a78dcb251496fde8b6b523f5e1e1217", "is_reserved": 0}, {"is_disabled": 0, "fusion_lon": 0.0, "fusion_lat": 0.0, "lat": 38.886009666666666, "type": "electric_scooter", "lon": -77.019861, "bike_id": "bcb8d4f4b15e2e8d2a72ff0f7ef4561a", "rental_uris": {"android": "https://dc.lft.to/lastmile_qr_scan", "ios": "https://dc.lft.to/lastmile_qr_scan"}, "name": "bcb8d4f4b15e2e8d2a72ff0f7ef4561a", "is_reserved": 0}, {"is_disabled": 0, "fusion_lon": 0.0, "fusion_lat": 0.0, "lat": 38.896424833333334, "type": "electric_scooter", "lon": -77.03215566666667, "bike_id": "bb7c10a0f68599939a0187bd0067e22a", "rental_uris": {"android": "https://dc.lft.to/lastmile_qr_scan", "ios": "https://dc.lft.to/lastmile_qr_scan"}, "name": "bb7c10a0f68599939a0187bd0067e22a", "is_reserved": 0}, {"is_disabled": 0, "fusion_lon": 0.0, "fusion_lat": 0.0, "lat": 38.90975233333333, "type": "electric_scooter", "lon": -77.06765133333333, "bike_id": "3e729b11f5f01b03020c2aed9e0209fe", "rental_uris": {"android": "https://dc.lft.to/lastmile_qr_scan", "ios": "https://dc.lft.to/lastmile_qr_scan"}, "name": "3e729b11f5f01b03020c2aed9e0209fe", "is_reserved": 0}, {"is_disabled": 0, "fusion_lon": 0.0, "fusion_lat": 0.0, "lat": 38.91116566666667, "type": "electric_scooter", "lon": -77.02283233333333, "bike_id": "406e7a9dffe25b2c2d24422fcb8be8fb", "rental_uris": {"android": "https://dc.lft.to/lastmile_qr_scan", "ios": "https://dc.lft.to/lastmile_qr_scan"}, "name": "406e7a9dffe25b2c2d24422fcb8be8fb", "is_reserved": 0}, {"is_disabled": 0, "fusion_lon": 0.0, "fusion_lat": 0.0, "lat": 38.906652, "type": "electric_scooter", "lon": -76.98230183333334, "bike_id": "7ab5be730554742ad97698c3ff1f404c", "rental_uris": {"android": "https://dc.lft.to/lastmile_qr_scan", "ios": "https://dc.lft.to/lastmile_qr_scan"}, "name": "7ab5be730554742ad97698c3ff1f404c", "is_reserved": 0}, {"is_disabled": 0, "fusion_lon": 0.0, "fusion_lat": 0.0, "lat": 38.9060615, "type": "electric_scooter", "lon": -77.04120666666667, "bike_id": "ddf6e052e93b9224ee842bd4c1d0eaa8", "rental_uris": {"android": "https://dc.lft.to/lastmile_qr_scan", "ios": "https://dc.lft.to/lastmile_qr_scan"}, "name": "ddf6e052e93b9224ee842bd4c1d0eaa8", "is_reserved": 0}, {"is_disabled": 0, "fusion_lon": 0.0, "fusion_lat": 0.0, "lat": 38.897155166666664, "type": "electric_scooter", "lon": -77.011736, "bike_id": "d69d9d184fb70a10d5c0884f86b71044", "rental_uris": {"android": "https://dc.lft.to/lastmile_qr_scan", "ios": "https://dc.lft.to/lastmile_qr_scan"}, "name": "d69d9d184fb70a10d5c0884f86b71044", "is_reserved": 0}, {"is_disabled": 0, "fusion_lon": 0.0, "fusion_lat": 0.0, "lat": 38.919904, "type": "electric_bike", "lon": -76.97309716666666, "bike_id": "19f2b3602c55924c7e6778d84136dc19", "rental_uris": {"android": "https://dc.lft.to/lastmile_qr_scan", "ios": "https://dc.lft.to/lastmile_qr_scan"}, "name": "19f2b3602c55924c7e6778d84136dc19", "is_reserved": 0}, {"is_disabled": 0, "fusion_lon": 0.0, "fusion_lat": 0.0, "lat": 38.93380366666667, "type": "electric_scooter", "lon": -77.07260833333333, "bike_id": "9cec655fdf0fe2dc4091bd10d6ad95ed", "rental_uris": {"android": "https://dc.lft.to/lastmile_qr_scan", "ios": "https://dc.lft.to/lastmile_qr_scan"}, "name": "9cec655fdf0fe2dc4091bd10d6ad95ed", "is_reserved": 0}, {"is_disabled": 0, "fusion_lon": 0.0, "fusion_lat": 0.0, "lat": 38.89630916666667, "type": "electric_scooter", "lon": -77.00901616666667, "bike_id": "d77d51ac4110eea51488a92dd71e6719", "rental_uris": {"android": "https://dc.lft.to/lastmile_qr_scan", "ios": "https://dc.lft.to/lastmile_qr_scan"}, "name": "d77d51ac4110eea51488a92dd71e6719", "is_reserved": 0}, {"is_disabled": 0, "fusion_lon": 0.0, "fusion_lat": 0.0, "lat": 38.90780383333333, "type": "electric_scooter", "lon": -77.0433815, "bike_id": "83341cdcb63d2324dc4f54c2935f2e85", "rental_uris": {"android": "https://dc.lft.to/lastmile_qr_scan", "ios": "https://dc.lft.to/lastmile_qr_scan"}, "name": "83341cdcb63d2324dc4f54c2935f2e85", "is_reserved": 0}, {"is_disabled": 0, "fusion_lon": 0.0, "fusion_lat": 0.0, "lat": 38.897499, "type": "electric_scooter", "lon": -77.030384, "bike_id": "dbee5344c5c46ce2c99492eb0ecc6996", "rental_uris": {"android": "https://dc.lft.to/lastmile_qr_scan", "ios": "https://dc.lft.to/lastmile_qr_scan"}, "name": "dbee5344c5c46ce2c99492eb0ecc6996", "is_reserved": 0}, {"is_disabled": 0, "fusion_lon": 0.0, "fusion_lat": 0.0, "lat": 38.9048275, "type": "electric_scooter", "lon": -77.0355555, "bike_id": "433644721c782eee32567ab140531256", "rental_uris": {"android": "https://dc.lft.to/lastmile_qr_scan", "ios": "https://dc.lft.to/lastmile_qr_scan"}, "name": "433644721c782eee32567ab140531256", "is_reserved": 0}, {"is_disabled": 0, "fusion_lon": 0.0, "fusion_lat": 0.0, "lat": 38.86638033333333, "type": "electric_scooter", "lon": -76.98306033333333, "bike_id": "3317f6c69e526bbfce8727898472b8f8", "rental_uris": {"android": "https://dc.lft.to/lastmile_qr_scan", "ios": "https://dc.lft.to/lastmile_qr_scan"}, "name": "3317f6c69e526bbfce8727898472b8f8", "is_reserved": 0}, {"is_disabled": 0, "fusion_lon": 0.0, "fusion_lat": 0.0, "lat": 38.975401166666664, "type": "electric_bike", "lon": -76.995291, "bike_id": "74375e67e88e0013ee7a261db36949a4", "rental_uris": {"android": "https://dc.lft.to/lastmile_qr_scan", "ios": "https://dc.lft.to/lastmile_qr_scan"}, "name": "74375e67e88e0013ee7a261db36949a4", "is_reserved": 0}, {"is_disabled": 0, "fusion_lon": 0.0, "fusion_lat": 0.0, "lat": 38.89337866666666, "type": "electric_scooter", "lon": -77.03176716666667, "bike_id": "fc468d72dbdd2c746ddd1f2b245c8074", "rental_uris": {"android": "https://dc.lft.to/lastmile_qr_scan", "ios": "https://dc.lft.to/lastmile_qr_scan"}, "name": "fc468d72dbdd2c746ddd1f2b245c8074", "is_reserved": 0}, {"is_disabled": 0, "fusion_lon": 0.0, "fusion_lat": 0.0, "lat": 38.935909, "type": "electric_bike", "lon": -77.0825015, "bike_id": "2fe6ee154fc3d48784342ddc9c341d1f", "rental_uris": {"android": "https://dc.lft.to/lastmile_qr_scan", "ios": "https://dc.lft.to/lastmile_qr_scan"}, "name": "2fe6ee154fc3d48784342ddc9c341d1f", "is_reserved": 0}, {"is_disabled": 0, "fusion_lon": 0.0, "fusion_lat": 0.0, "lat": 38.9159095, "type": "electric_bike", "lon": -76.971482, "bike_id": "738c7b559b3579574ca1a35b1097fd6f", "rental_uris": {"android": "https://dc.lft.to/lastmile_qr_scan", "ios": "https://dc.lft.to/lastmile_qr_scan"}, "name": "738c7b559b3579574ca1a35b1097fd6f", "is_reserved": 0}, {"is_disabled": 0, "fusion_lon": 0.0, "fusion_lat": 0.0, "lat": 38.91256466666667, "type": "electric_scooter", "lon": -77.02233933333333, "bike_id": "45f628f3dd3b0bf4fef10046e16c1178", "rental_uris": {"android": "https://dc.lft.to/lastmile_qr_scan", "ios": "https://dc.lft.to/lastmile_qr_scan"}, "name": "45f628f3dd3b0bf4fef10046e16c1178", "is_reserved": 0}, {"is_disabled": 0, "fusion_lon": 0.0, "fusion_lat": 0.0, "lat": 38.9103785, "type": "electric_scooter", "lon": -77.04262733333333, "bike_id": "9ddb20655e90f7b91a72fcfeb0f83426", "rental_uris": {"android": "https://dc.lft.to/lastmile_qr_scan", "ios": "https://dc.lft.to/lastmile_qr_scan"}, "name": "9ddb20655e90f7b91a72fcfeb0f83426", "is_reserved": 0}, {"is_disabled": 0, "fusion_lon": 0.0, "fusion_lat": 0.0, "lat": 39.000195166666664, "type": "electric_bike", "lon": -76.87280833333334, "bike_id": "08e5d7afad369134310cd346e49226d8", "rental_uris": {"android": "https://dc.lft.to/lastmile_qr_scan", "ios": "https://dc.lft.to/lastmile_qr_scan"}, "name": "08e5d7afad369134310cd346e49226d8", "is_reserved": 0}, {"is_disabled": 0, "fusion_lon": 0.0, "fusion_lat": 0.0, "lat": 38.82876383333333, "type": "electric_bike", "lon": -77.11218883333333, "bike_id": "5f4be9c02e60bbb4db135bfcffef0b6b", "rental_uris": {"android": "https://dc.lft.to/lastmile_qr_scan", "ios": "https://dc.lft.to/lastmile_qr_scan"}, "name": "5f4be9c02e60bbb4db135bfcffef0b6b", "is_reserved": 0}, {"is_disabled": 0, "fusion_lon": 0.0, "fusion_lat": 0.0, "lat": 38.90970933333333, "type": "electric_scooter", "lon": -77.0109905, "bike_id": "2ffe1afcdb8370036820e01698aa6532", "rental_uris": {"android": "https://dc.lft.to/lastmile_qr_scan", "ios": "https://dc.lft.to/lastmile_qr_scan"}, "name": "2ffe1afcdb8370036820e01698aa6532", "is_reserved": 0}, {"is_disabled": 0, "fusion_lon": 0.0, "fusion_lat": 0.0, "lat": 38.90324783333333, "type": "electric_scooter", "lon": -77.02164066666667, "bike_id": "5bd60d7b4e1f86419bf4761dd42addb9", "rental_uris": {"android": "https://dc.lft.to/lastmile_qr_scan", "ios": "https://dc.lft.to/lastmile_qr_scan"}, "name": "5bd60d7b4e1f86419bf4761dd42addb9", "is_reserved": 0}, {"is_disabled": 0, "fusion_lon": 0.0, "fusion_lat": 0.0, "lat": 38.89546566666667, "type": "electric_scooter", "lon": -77.0283105, "bike_id": "9f9fd2064c734cde57bbc17e248b87af", "rental_uris": {"android": "https://dc.lft.to/lastmile_qr_scan", "ios": "https://dc.lft.to/lastmile_qr_scan"}, "name": "9f9fd2064c734cde57bbc17e248b87af", "is_reserved": 0}, {"is_disabled": 0, "fusion_lon": 0.0, "fusion_lat": 0.0, "lat": 38.897338, "type": "electric_scooter", "lon": -77.0490155, "bike_id": "b40d85ce91183edcf14a45f42ff23734", "rental_uris": {"android": "https://dc.lft.to/lastmile_qr_scan", "ios": "https://dc.lft.to/lastmile_qr_scan"}, "name": "b40d85ce91183edcf14a45f42ff23734", "is_reserved": 0}, {"is_disabled": 0, "fusion_lon": 0.0, "fusion_lat": 0.0, "lat": 38.901813833333335, "type": "electric_scooter", "lon": -77.05271583333334, "bike_id": "39c27f8adc05f26ef87dacd5a67d19df", "rental_uris": {"android": "https://dc.lft.to/lastmile_qr_scan", "ios": "https://dc.lft.to/lastmile_qr_scan"}, "name": "39c27f8adc05f26ef87dacd5a67d19df", "is_reserved": 0}, {"is_disabled": 0, "fusion_lon": 0.0, "fusion_lat": 0.0, "lat": 38.924589166666664, "type": "electric_bike", "lon": -76.999473, "bike_id": "a6edecbc95864a703c3fca4bd7890cf4", "rental_uris": {"android": "https://dc.lft.to/lastmile_qr_scan", "ios": "https://dc.lft.to/lastmile_qr_scan"}, "name": "a6edecbc95864a703c3fca4bd7890cf4", "is_reserved": 0}, {"is_disabled": 0, "fusion_lon": 0.0, "fusion_lat": 0.0, "lat": 38.91057266666667, "type": "electric_scooter", "lon": -77.0426175, "bike_id": "46d75049c40583317bdcf4eb5ad89b77", "rental_uris": {"android": "https://dc.lft.to/lastmile_qr_scan", "ios": "https://dc.lft.to/lastmile_qr_scan"}, "name": "46d75049c40583317bdcf4eb5ad89b77", "is_reserved": 0}, {"is_disabled": 0, "fusion_lon": 0.0, "fusion_lat": 0.0, "lat": 38.8976475, "type": "electric_scooter", "lon": -77.05135283333334, "bike_id": "73ad1abf254995e960668704c4d243c2", "rental_uris": {"android": "https://dc.lft.to/lastmile_qr_scan", "ios": "https://dc.lft.to/lastmile_qr_scan"}, "name": "73ad1abf254995e960668704c4d243c2", "is_reserved": 0}, {"is_disabled": 0, "fusion_lon": 0.0, "fusion_lat": 0.0, "lat": 38.9363845, "type": "electric_scooter", "lon": -77.026991, "bike_id": "6f9cdef3180a2fae5dce739c4faf008d", "rental_uris": {"android": "https://dc.lft.to/lastmile_qr_scan", "ios": "https://dc.lft.to/lastmile_qr_scan"}, "name": "6f9cdef3180a2fae5dce739c4faf008d", "is_reserved": 0}, {"is_disabled": 0, "fusion_lon": 0.0, "fusion_lat": 0.0, "lat": 38.9085615, "type": "electric_scooter", "lon": -77.06082566666667, "bike_id": "640555d01ec8e72f9884959dd2bd0c6a", "rental_uris": {"android": "https://dc.lft.to/lastmile_qr_scan", "ios": "https://dc.lft.to/lastmile_qr_scan"}, "name": "640555d01ec8e72f9884959dd2bd0c6a", "is_reserved": 0}, {"is_disabled": 0, "fusion_lon": 0.0, "fusion_lat": 0.0, "lat": 38.90972333333333, "type": "electric_scooter", "lon": -77.03137133333334, "bike_id": "49afcb92090347eb2ed6d28a46898ad5", "rental_uris": {"android": "https://dc.lft.to/lastmile_qr_scan", "ios": "https://dc.lft.to/lastmile_qr_scan"}, "name": "49afcb92090347eb2ed6d28a46898ad5", "is_reserved": 0}, {"is_disabled": 0, "fusion_lon": 0.0, "fusion_lat": 0.0, "lat": 38.89532533333333, "type": "electric_scooter", "lon": -76.94913366666667, "bike_id": "94696fd2cb7155cecd79752c8a643521", "rental_uris": {"android": "https://dc.lft.to/lastmile_qr_scan", "ios": "https://dc.lft.to/lastmile_qr_scan"}, "name": "94696fd2cb7155cecd79752c8a643521", "is_reserved": 0}, {"is_disabled": 0, "fusion_lon": 0.0, "fusion_lat": 0.0, "lat": 38.89251083333333, "type": "electric_scooter", "lon": -77.04890416666667, "bike_id": "a664414a5a05619424a17d991f4a918d", "rental_uris": {"android": "https://dc.lft.to/lastmile_qr_scan", "ios": "https://dc.lft.to/lastmile_qr_scan"}, "name": "a664414a5a05619424a17d991f4a918d", "is_reserved": 0}, {"is_disabled": 0, "fusion_lon": 0.0, "fusion_lat": 0.0, "lat": 38.962235, "type": "electric_scooter", "lon": -77.02799883333333, "bike_id": "cd42f4bebad70522ac6c6161f826e189", "rental_uris": {"android": "https://dc.lft.to/lastmile_qr_scan", "ios": "https://dc.lft.to/lastmile_qr_scan"}, "name": "cd42f4bebad70522ac6c6161f826e189", "is_reserved": 0}, {"is_disabled": 0, "fusion_lon": 0.0, "fusion_lat": 0.0, "lat": 38.92045133333333, "type": "electric_scooter", "lon": -77.0242365, "bike_id": "7b1ebbb46a908ba72d6d9766a07b3e4c", "rental_uris": {"android": "https://dc.lft.to/lastmile_qr_scan", "ios": "https://dc.lft.to/lastmile_qr_scan"}, "name": "7b1ebbb46a908ba72d6d9766a07b3e4c", "is_reserved": 0}, {"is_disabled": 0, "fusion_lon": 0.0, "fusion_lat": 0.0, "lat": 38.8949385, "type": "electric_scooter", "lon": -77.02280683333333, "bike_id": "dbef9d92407672213bdf1f7190682fc0", "rental_uris": {"android": "https://dc.lft.to/lastmile_qr_scan", "ios": "https://dc.lft.to/lastmile_qr_scan"}, "name": "dbef9d92407672213bdf1f7190682fc0", "is_reserved": 0}, {"is_disabled": 0, "fusion_lon": 0.0, "fusion_lat": 0.0, "lat": 38.909036666666665, "type": "electric_scooter", "lon": -77.0259435, "bike_id": "f6b42188c4ebf6c247cb06f9862a6407", "rental_uris": {"android": "https://dc.lft.to/lastmile_qr_scan", "ios": "https://dc.lft.to/lastmile_qr_scan"}, "name": "f6b42188c4ebf6c247cb06f9862a6407", "is_reserved": 0}, {"is_disabled": 0, "fusion_lon": 0.0, "fusion_lat": 0.0, "lat": 38.96143716666667, "type": "electric_scooter", "lon": -77.0279805, "bike_id": "ebd711c8041dd974da2ccf57d8c996c5", "rental_uris": {"android": "https://dc.lft.to/lastmile_qr_scan", "ios": "https://dc.lft.to/lastmile_qr_scan"}, "name": "ebd711c8041dd974da2ccf57d8c996c5", "is_reserved": 0}, {"is_disabled": 0, "fusion_lon": 0.0, "fusion_lat": 0.0, "lat": 38.934064666666664, "type": "electric_scooter", "lon": -77.03265116666667, "bike_id": "30919ef8f29bd45e459d1bceeeb506d3", "rental_uris": {"android": "https://dc.lft.to/lastmile_qr_scan", "ios": "https://dc.lft.to/lastmile_qr_scan"}, "name": "30919ef8f29bd45e459d1bceeeb506d3", "is_reserved": 0}, {"is_disabled": 0, "fusion_lon": 0.0, "fusion_lat": 0.0, "lat": 38.858365, "type": "electric_scooter", "lon": -76.99067566666666, "bike_id": "fd4436a1e94b7d836bb2251241c21938", "rental_uris": {"android": "https://dc.lft.to/lastmile_qr_scan", "ios": "https://dc.lft.to/lastmile_qr_scan"}, "name": "fd4436a1e94b7d836bb2251241c21938", "is_reserved": 0}, {"is_disabled": 0, "fusion_lon": 0.0, "fusion_lat": 0.0, "lat": 38.86039066666667, "type": "electric_scooter", "lon": -76.98373883333333, "bike_id": "67fc44cc008d72062e4152baac2a014c", "rental_uris": {"android": "https://dc.lft.to/lastmile_qr_scan", "ios": "https://dc.lft.to/lastmile_qr_scan"}, "name": "67fc44cc008d72062e4152baac2a014c", "is_reserved": 0}, {"is_disabled": 0, "fusion_lon": 0.0, "fusion_lat": 0.0, "lat": 38.9498435, "type": "electric_scooter", "lon": -77.02701916666666, "bike_id": "c82207330c70ece5c5f75d830c88e10f", "rental_uris": {"android": "https://dc.lft.to/lastmile_qr_scan", "ios": "https://dc.lft.to/lastmile_qr_scan"}, "name": "c82207330c70ece5c5f75d830c88e10f", "is_reserved": 0}, {"is_disabled": 0, "fusion_lon": 0.0, "fusion_lat": 0.0, "lat": 38.865173666666664, "type": "electric_scooter", "lon": -76.9732725, "bike_id": "0eae4cc106a9ceded494a17ebee1df3a", "rental_uris": {"android": "https://dc.lft.to/lastmile_qr_scan", "ios": "https://dc.lft.to/lastmile_qr_scan"}, "name": "0eae4cc106a9ceded494a17ebee1df3a", "is_reserved": 0}, {"is_disabled": 0, "fusion_lon": 0.0, "fusion_lat": 0.0, "lat": 38.91885383333333, "type": "electric_scooter", "lon": -77.043118, "bike_id": "c53d9606220ba35ec21ec3c802e21d01", "rental_uris": {"android": "https://dc.lft.to/lastmile_qr_scan", "ios": "https://dc.lft.to/lastmile_qr_scan"}, "name": "c53d9606220ba35ec21ec3c802e21d01", "is_reserved": 0}, {"is_disabled": 0, "fusion_lon": 0.0, "fusion_lat": 0.0, "lat": 38.934876333333335, "type": "electric_scooter", "lon": -77.07267333333333, "bike_id": "69c9bc1c97c490dd798101b228dd10df", "rental_uris": {"android": "https://dc.lft.to/lastmile_qr_scan", "ios": "https://dc.lft.to/lastmile_qr_scan"}, "name": "69c9bc1c97c490dd798101b228dd10df", "is_reserved": 0}, {"is_disabled": 0, "fusion_lon": 0.0, "fusion_lat": 0.0, "lat": 38.919366833333335, "type": "electric_scooter", "lon": -77.02590733333334, "bike_id": "950309cbfbc9377775e21f0d9d63ad8c", "rental_uris": {"android": "https://dc.lft.to/lastmile_qr_scan", "ios": "https://dc.lft.to/lastmile_qr_scan"}, "name": "950309cbfbc9377775e21f0d9d63ad8c", "is_reserved": 0}, {"is_disabled": 0, "fusion_lon": 0.0, "fusion_lat": 0.0, "lat": 38.86246416666667, "type": "electric_scooter", "lon": -76.99500666666667, "bike_id": "8b23f9d4baae2bcc45a7d6c3253f4e48", "rental_uris": {"android": "https://dc.lft.to/lastmile_qr_scan", "ios": "https://dc.lft.to/lastmile_qr_scan"}, "name": "8b23f9d4baae2bcc45a7d6c3253f4e48", "is_reserved": 0}, {"is_disabled": 0, "fusion_lon": 0.0, "fusion_lat": 0.0, "lat": 38.911311, "type": "electric_scooter", "lon": -77.0441655, "bike_id": "473e0080a0079add6abf3dca9c5846a4", "rental_uris": {"android": "https://dc.lft.to/lastmile_qr_scan", "ios": "https://dc.lft.to/lastmile_qr_scan"}, "name": "473e0080a0079add6abf3dca9c5846a4", "is_reserved": 0}, {"is_disabled": 0, "fusion_lon": 0.0, "fusion_lat": 0.0, "lat": 38.9389415, "type": "electric_scooter", "lon": -77.07765783333333, "bike_id": "30b2a1a877b0d863dba1a9d77db95da3", "rental_uris": {"android": "https://dc.lft.to/lastmile_qr_scan", "ios": "https://dc.lft.to/lastmile_qr_scan"}, "name": "30b2a1a877b0d863dba1a9d77db95da3", "is_reserved": 0}, {"is_disabled": 0, "fusion_lon": 0.0, "fusion_lat": 0.0, "lat": 38.905318666666666, "type": "electric_scooter", "lon": -77.0582615, "bike_id": "055dca203f7d96ca2db64aea972ffb8b", "rental_uris": {"android": "https://dc.lft.to/lastmile_qr_scan", "ios": "https://dc.lft.to/lastmile_qr_scan"}, "name": "055dca203f7d96ca2db64aea972ffb8b", "is_reserved": 0}, {"is_disabled": 0, "fusion_lon": 0.0, "fusion_lat": 0.0, "lat": 38.918604, "type": "electric_bike", "lon": -76.96087766666666, "bike_id": "3d4345576d4c585c3a66393dbfa03ca3", "rental_uris": {"android": "https://dc.lft.to/lastmile_qr_scan", "ios": "https://dc.lft.to/lastmile_qr_scan"}, "name": "3d4345576d4c585c3a66393dbfa03ca3", "is_reserved": 0}, {"is_disabled": 0, "fusion_lon": 0.0, "fusion_lat": 0.0, "lat": 38.898872833333336, "type": "electric_scooter", "lon": -77.03318416666667, "bike_id": "77fcbf645818094ff22003ce1ebbda9b", "rental_uris": {"android": "https://dc.lft.to/lastmile_qr_scan", "ios": "https://dc.lft.to/lastmile_qr_scan"}, "name": "77fcbf645818094ff22003ce1ebbda9b", "is_reserved": 0}, {"is_disabled": 0, "fusion_lon": 0.0, "fusion_lat": 0.0, "lat": 38.945517, "type": "electric_scooter", "lon": -77.0423945, "bike_id": "bb8ecbe225e79331659d56e6c9936232", "rental_uris": {"android": "https://dc.lft.to/lastmile_qr_scan", "ios": "https://dc.lft.to/lastmile_qr_scan"}, "name": "bb8ecbe225e79331659d56e6c9936232", "is_reserved": 0}, {"is_disabled": 0, "fusion_lon": 0.0, "fusion_lat": 0.0, "lat": 38.84294516666667, "type": "electric_bike", "lon": -77.11433083333333, "bike_id": "8ae99f515c92ccb4df3dc02202bf885b", "rental_uris": {"android": "https://dc.lft.to/lastmile_qr_scan", "ios": "https://dc.lft.to/lastmile_qr_scan"}, "name": "8ae99f515c92ccb4df3dc02202bf885b", "is_reserved": 0}, {"is_disabled": 0, "fusion_lon": 0.0, "fusion_lat": 0.0, "lat": 38.926727666666665, "type": "electric_scooter", "lon": -77.04299566666667, "bike_id": "c74d703ab64326767f66870379b4fe1d", "rental_uris": {"android": "https://dc.lft.to/lastmile_qr_scan", "ios": "https://dc.lft.to/lastmile_qr_scan"}, "name": "c74d703ab64326767f66870379b4fe1d", "is_reserved": 0}, {"is_disabled": 0, "fusion_lon": 0.0, "fusion_lat": 0.0, "lat": 38.8986295, "type": "electric_bike", "lon": -77.01937316666667, "bike_id": "8586e866f76b3025e889974f3d25518f", "rental_uris": {"android": "https://dc.lft.to/lastmile_qr_scan", "ios": "https://dc.lft.to/lastmile_qr_scan"}, "name": "8586e866f76b3025e889974f3d25518f", "is_reserved": 0}, {"is_disabled": 0, "fusion_lon": 0.0, "fusion_lat": 0.0, "lat": 38.94200333333333, "type": "electric_scooter", "lon": -77.02578466666667, "bike_id": "e109268a6158952d306c73e6347f10e1", "rental_uris": {"android": "https://dc.lft.to/lastmile_qr_scan", "ios": "https://dc.lft.to/lastmile_qr_scan"}, "name": "e109268a6158952d306c73e6347f10e1", "is_reserved": 0}, {"is_disabled": 0, "fusion_lon": 0.0, "fusion_lat": 0.0, "lat": 38.9055965, "type": "electric_scooter", "lon": -77.02717, "bike_id": "96199786476597f6bcf6b3f149c24a11", "rental_uris": {"android": "https://dc.lft.to/lastmile_qr_scan", "ios": "https://dc.lft.to/lastmile_qr_scan"}, "name": "96199786476597f6bcf6b3f149c24a11", "is_reserved": 0}, {"is_disabled": 0, "fusion_lon": 0.0, "fusion_lat": 0.0, "lat": 38.90898, "type": "electric_scooter", "lon": -76.9986315, "bike_id": "ff2368798c436ac535bb5005a2d3e0ab", "rental_uris": {"android": "https://dc.lft.to/lastmile_qr_scan", "ios": "https://dc.lft.to/lastmile_qr_scan"}, "name": "ff2368798c436ac535bb5005a2d3e0ab", "is_reserved": 0}, {"is_disabled": 0, "fusion_lon": 0.0, "fusion_lat": 0.0, "lat": 38.8828105, "type": "electric_scooter", "lon": -76.9877645, "bike_id": "f50fecd45a12920e5da7b2db67e02f08", "rental_uris": {"android": "https://dc.lft.to/lastmile_qr_scan", "ios": "https://dc.lft.to/lastmile_qr_scan"}, "name": "f50fecd45a12920e5da7b2db67e02f08", "is_reserved": 0}, {"is_disabled": 0, "fusion_lon": 0.0, "fusion_lat": 0.0, "lat": 38.9257315, "type": "electric_scooter", "lon": -76.99505166666667, "bike_id": "59a8c56539b98d432bfac9de8789981d", "rental_uris": {"android": "https://dc.lft.to/lastmile_qr_scan", "ios": "https://dc.lft.to/lastmile_qr_scan"}, "name": "59a8c56539b98d432bfac9de8789981d", "is_reserved": 0}, {"is_disabled": 0, "fusion_lon": 0.0, "fusion_lat": 0.0, "lat": 38.9127815, "type": "electric_scooter", "lon": -77.0385045, "bike_id": "d76d873bcffeb952007edc0534bcbf95", "rental_uris": {"android": "https://dc.lft.to/lastmile_qr_scan", "ios": "https://dc.lft.to/lastmile_qr_scan"}, "name": "d76d873bcffeb952007edc0534bcbf95", "is_reserved": 0}, {"is_disabled": 0, "fusion_lon": 0.0, "fusion_lat": 0.0, "lat": 38.92754266666667, "type": "electric_scooter", "lon": -77.03360683333334, "bike_id": "5f37cd0302082b407e8e6be58dbe77ca", "rental_uris": {"android": "https://dc.lft.to/lastmile_qr_scan", "ios": "https://dc.lft.to/lastmile_qr_scan"}, "name": "5f37cd0302082b407e8e6be58dbe77ca", "is_reserved": 0}, {"is_disabled": 0, "fusion_lon": 0.0, "fusion_lat": 0.0, "lat": 38.9050225, "type": "electric_scooter", "lon": -77.05684766666667, "bike_id": "2b2c2a226435c210e6ba7d3d5f5a307f", "rental_uris": {"android": "https://dc.lft.to/lastmile_qr_scan", "ios": "https://dc.lft.to/lastmile_qr_scan"}, "name": "2b2c2a226435c210e6ba7d3d5f5a307f", "is_reserved": 0}, {"is_disabled": 0, "fusion_lon": 0.0, "fusion_lat": 0.0, "lat": 38.901695, "type": "electric_scooter", "lon": -77.05313333333334, "bike_id": "77b038c31dcc31afeb91c019ba8604cf", "rental_uris": {"android": "https://dc.lft.to/lastmile_qr_scan", "ios": "https://dc.lft.to/lastmile_qr_scan"}, "name": "77b038c31dcc31afeb91c019ba8604cf", "is_reserved": 0}, {"is_disabled": 0, "fusion_lon": 0.0, "fusion_lat": 0.0, "lat": 38.913592, "type": "electric_scooter", "lon": -77.0416665, "bike_id": "0442491992a9294aecc09979413cff30", "rental_uris": {"android": "https://dc.lft.to/lastmile_qr_scan", "ios": "https://dc.lft.to/lastmile_qr_scan"}, "name": "0442491992a9294aecc09979413cff30", "is_reserved": 0}, {"is_disabled": 0, "fusion_lon": 0.0, "fusion_lat": 0.0, "lat": 38.98828816666666, "type": "electric_bike", "lon": -76.98751666666666, "bike_id": "3a9254abc6ef2a42b0293f016f5f3523", "rental_uris": {"android": "https://dc.lft.to/lastmile_qr_scan", "ios": "https://dc.lft.to/lastmile_qr_scan"}, "name": "3a9254abc6ef2a42b0293f016f5f3523", "is_reserved": 0}, {"is_disabled": 0, "fusion_lon": 0.0, "fusion_lat": 0.0, "lat": 38.907959166666664, "type": "electric_scooter", "lon": -77.0386735, "bike_id": "336fa8b25ab9290f5b94393ea5a04c85", "rental_uris": {"android": "https://dc.lft.to/lastmile_qr_scan", "ios": "https://dc.lft.to/lastmile_qr_scan"}, "name": "336fa8b25ab9290f5b94393ea5a04c85", "is_reserved": 0}, {"is_disabled": 0, "fusion_lon": 0.0, "fusion_lat": 0.0, "lat": 38.91797716666667, "type": "electric_scooter", "lon": -77.02710683333333, "bike_id": "14969d3a66ec79bc9889ebb8470692bd", "rental_uris": {"android": "https://dc.lft.to/lastmile_qr_scan", "ios": "https://dc.lft.to/lastmile_qr_scan"}, "name": "14969d3a66ec79bc9889ebb8470692bd", "is_reserved": 0}, {"is_disabled": 0, "fusion_lon": 0.0, "fusion_lat": 0.0, "lat": 38.91201616666667, "type": "electric_scooter", "lon": -77.03717066666667, "bike_id": "484956b5f536a690cd29fc233abc17a8", "rental_uris": {"android": "https://dc.lft.to/lastmile_qr_scan", "ios": "https://dc.lft.to/lastmile_qr_scan"}, "name": "484956b5f536a690cd29fc233abc17a8", "is_reserved": 0}, {"is_disabled": 0, "fusion_lon": 0.0, "fusion_lat": 0.0, "lat": 38.90992, "type": "electric_scooter", "lon": -77.04262066666666, "bike_id": "1903a91c4221a1f1daac7979b97874b5", "rental_uris": {"android": "https://dc.lft.to/lastmile_qr_scan", "ios": "https://dc.lft.to/lastmile_qr_scan"}, "name": "1903a91c4221a1f1daac7979b97874b5", "is_reserved": 0}, {"is_disabled": 0, "fusion_lon": 0.0, "fusion_lat": 0.0, "lat": 38.89395716666667, "type": "electric_scooter", "lon": -76.94995416666667, "bike_id": "0632f6c4e27cdd587bd755289e484d35", "rental_uris": {"android": "https://dc.lft.to/lastmile_qr_scan", "ios": "https://dc.lft.to/lastmile_qr_scan"}, "name": "0632f6c4e27cdd587bd755289e484d35", "is_reserved": 0}, {"is_disabled": 0, "fusion_lon": 0.0, "fusion_lat": 0.0, "lat": 38.9136295, "type": "electric_scooter", "lon": -77.02587283333334, "bike_id": "a2c5231a13d85bd25ffe2a434dc22b33", "rental_uris": {"android": "https://dc.lft.to/lastmile_qr_scan", "ios": "https://dc.lft.to/lastmile_qr_scan"}, "name": "a2c5231a13d85bd25ffe2a434dc22b33", "is_reserved": 0}, {"is_disabled": 0, "fusion_lon": 0.0, "fusion_lat": 0.0, "lat": 38.92218316666667, "type": "electric_scooter", "lon": -77.04235283333334, "bike_id": "5c996607d212568f9a57cef1dc51fdc8", "rental_uris": {"android": "https://dc.lft.to/lastmile_qr_scan", "ios": "https://dc.lft.to/lastmile_qr_scan"}, "name": "5c996607d212568f9a57cef1dc51fdc8", "is_reserved": 0}, {"is_disabled": 0, "fusion_lon": 0.0, "fusion_lat": 0.0, "lat": 38.90506333333333, "type": "electric_scooter", "lon": -76.996248, "bike_id": "f83ba91e5f91c1fce1b39e06aa5fc843", "rental_uris": {"android": "https://dc.lft.to/lastmile_qr_scan", "ios": "https://dc.lft.to/lastmile_qr_scan"}, "name": "f83ba91e5f91c1fce1b39e06aa5fc843", "is_reserved": 0}, {"is_disabled": 0, "fusion_lon": 0.0, "fusion_lat": 0.0, "lat": 38.90779233333333, "type": "electric_scooter", "lon": -76.9412535, "bike_id": "ffdfd3398f9a97b8f9653f1b60c33c94", "rental_uris": {"android": "https://dc.lft.to/lastmile_qr_scan", "ios": "https://dc.lft.to/lastmile_qr_scan"}, "name": "ffdfd3398f9a97b8f9653f1b60c33c94", "is_reserved": 0}, {"is_disabled": 0, "fusion_lon": 0.0, "fusion_lat": 0.0, "lat": 38.914866, "type": "electric_scooter", "lon": -77.04289033333333, "bike_id": "4f18011e45ccfa1108788867500a9476", "rental_uris": {"android": "https://dc.lft.to/lastmile_qr_scan", "ios": "https://dc.lft.to/lastmile_qr_scan"}, "name": "4f18011e45ccfa1108788867500a9476", "is_reserved": 0}, {"is_disabled": 0, "fusion_lon": 0.0, "fusion_lat": 0.0, "lat": 38.914655833333335, "type": "electric_scooter", "lon": -77.01427816666667, "bike_id": "8c85b17fddf5eaa2659d60b9b768288d", "rental_uris": {"android": "https://dc.lft.to/lastmile_qr_scan", "ios": "https://dc.lft.to/lastmile_qr_scan"}, "name": "8c85b17fddf5eaa2659d60b9b768288d", "is_reserved": 0}, {"is_disabled": 0, "fusion_lon": 0.0, "fusion_lat": 0.0, "lat": 38.9020835, "type": "electric_scooter", "lon": -76.98247166666667, "bike_id": "99f06ae60747f200f828e0c779bcd3a4", "rental_uris": {"android": "https://dc.lft.to/lastmile_qr_scan", "ios": "https://dc.lft.to/lastmile_qr_scan"}, "name": "99f06ae60747f200f828e0c779bcd3a4", "is_reserved": 0}, {"is_disabled": 0, "fusion_lon": 0.0, "fusion_lat": 0.0, "lat": 38.9142975, "type": "electric_scooter", "lon": -77.02811733333333, "bike_id": "1424975734dc402f60144201895056d8", "rental_uris": {"android": "https://dc.lft.to/lastmile_qr_scan", "ios": "https://dc.lft.to/lastmile_qr_scan"}, "name": "1424975734dc402f60144201895056d8", "is_reserved": 0}, {"is_disabled": 0, "fusion_lon": 0.0, "fusion_lat": 0.0, "lat": 38.922303666666664, "type": "electric_scooter", "lon": -77.02334316666666, "bike_id": "afca368a2f7a2a153b2682509cc868f6", "rental_uris": {"android": "https://dc.lft.to/lastmile_qr_scan", "ios": "https://dc.lft.to/lastmile_qr_scan"}, "name": "afca368a2f7a2a153b2682509cc868f6", "is_reserved": 0}, {"is_disabled": 0, "fusion_lon": 0.0, "fusion_lat": 0.0, "lat": 38.95230816666667, "type": "electric_scooter", "lon": -77.02760383333333, "bike_id": "540373b00da7fe7415a415732dac6e0c", "rental_uris": {"android": "https://dc.lft.to/lastmile_qr_scan", "ios": "https://dc.lft.to/lastmile_qr_scan"}, "name": "540373b00da7fe7415a415732dac6e0c", "is_reserved": 0}, {"is_disabled": 0, "fusion_lon": 0.0, "fusion_lat": 0.0, "lat": 38.92258916666667, "type": "electric_scooter", "lon": -77.07127333333334, "bike_id": "0329c7ccef094de8547d378d9a8fdf41", "rental_uris": {"android": "https://dc.lft.to/lastmile_qr_scan", "ios": "https://dc.lft.to/lastmile_qr_scan"}, "name": "0329c7ccef094de8547d378d9a8fdf41", "is_reserved": 0}, {"is_disabled": 0, "fusion_lon": 0.0, "fusion_lat": 0.0, "lat": 38.89841, "type": "electric_scooter", "lon": -77.02912583333334, "bike_id": "99295cb36e985c12c4c8651d94abf2f5", "rental_uris": {"android": "https://dc.lft.to/lastmile_qr_scan", "ios": "https://dc.lft.to/lastmile_qr_scan"}, "name": "99295cb36e985c12c4c8651d94abf2f5", "is_reserved": 0}, {"is_disabled": 0, "fusion_lon": 0.0, "fusion_lat": 0.0, "lat": 38.93257333333333, "type": "electric_scooter", "lon": -77.04008383333333, "bike_id": "9e5db3243329d48c1918a4c7c62a2344", "rental_uris": {"android": "https://dc.lft.to/lastmile_qr_scan", "ios": "https://dc.lft.to/lastmile_qr_scan"}, "name": "9e5db3243329d48c1918a4c7c62a2344", "is_reserved": 0}, {"is_disabled": 0, "fusion_lon": 0.0, "fusion_lat": 0.0, "lat": 38.9190865, "type": "electric_scooter", "lon": -77.02971416666666, "bike_id": "24880820d9cecfaf4188ca106d1f8ecd", "rental_uris": {"android": "https://dc.lft.to/lastmile_qr_scan", "ios": "https://dc.lft.to/lastmile_qr_scan"}, "name": "24880820d9cecfaf4188ca106d1f8ecd", "is_reserved": 0}, {"is_disabled": 0, "fusion_lon": 0.0, "fusion_lat": 0.0, "lat": 38.925646666666665, "type": "electric_scooter", "lon": -77.02278966666667, "bike_id": "3bd1a9e9ff329080599793ee8a2d2b82", "rental_uris": {"android": "https://dc.lft.to/lastmile_qr_scan", "ios": "https://dc.lft.to/lastmile_qr_scan"}, "name": "3bd1a9e9ff329080599793ee8a2d2b82", "is_reserved": 0}, {"is_disabled": 0, "fusion_lon": 0.0, "fusion_lat": 0.0, "lat": 38.880105666666665, "type": "electric_bike", "lon": -76.91594316666666, "bike_id": "7120a1551d26ce53cb4536e85cffe7a3", "rental_uris": {"android": "https://dc.lft.to/lastmile_qr_scan", "ios": "https://dc.lft.to/lastmile_qr_scan"}, "name": "7120a1551d26ce53cb4536e85cffe7a3", "is_reserved": 0}, {"is_disabled": 0, "fusion_lon": 0.0, "fusion_lat": 0.0, "lat": 38.862467333333335, "type": "electric_scooter", "lon": -76.99500066666667, "bike_id": "2c1ede29672c9d77df83b5f485d8ec3d", "rental_uris": {"android": "https://dc.lft.to/lastmile_qr_scan", "ios": "https://dc.lft.to/lastmile_qr_scan"}, "name": "2c1ede29672c9d77df83b5f485d8ec3d", "is_reserved": 0}, {"is_disabled": 0, "fusion_lon": 0.0, "fusion_lat": 0.0, "lat": 38.885980333333336, "type": "electric_scooter", "lon": -76.99718633333333, "bike_id": "9660c3eca667be267d50dfa630e40d30", "rental_uris": {"android": "https://dc.lft.to/lastmile_qr_scan", "ios": "https://dc.lft.to/lastmile_qr_scan"}, "name": "9660c3eca667be267d50dfa630e40d30", "is_reserved": 0}, {"is_disabled": 0, "fusion_lon": 0.0, "fusion_lat": 0.0, "lat": 38.994556, "type": "electric_bike", "lon": -76.90816166666667, "bike_id": "3ee214078feb3f7a24f3ac44e28e18db", "rental_uris": {"android": "https://dc.lft.to/lastmile_qr_scan", "ios": "https://dc.lft.to/lastmile_qr_scan"}, "name": "3ee214078feb3f7a24f3ac44e28e18db", "is_reserved": 0}, {"is_disabled": 0, "fusion_lon": 0.0, "fusion_lat": 0.0, "lat": 38.8598705, "type": "electric_bike", "lon": -76.97051633333334, "bike_id": "f13690e82560fecb23a17a3f9598cc6d", "rental_uris": {"android": "https://dc.lft.to/lastmile_qr_scan", "ios": "https://dc.lft.to/lastmile_qr_scan"}, "name": "f13690e82560fecb23a17a3f9598cc6d", "is_reserved": 0}, {"is_disabled": 0, "fusion_lon": 0.0, "fusion_lat": 0.0, "lat": 38.90061716666666, "type": "electric_scooter", "lon": -77.04896383333333, "bike_id": "f897f61ee10c39ea26cbfdc91cb9c9ba", "rental_uris": {"android": "https://dc.lft.to/lastmile_qr_scan", "ios": "https://dc.lft.to/lastmile_qr_scan"}, "name": "f897f61ee10c39ea26cbfdc91cb9c9ba", "is_reserved": 0}, {"is_disabled": 0, "fusion_lon": 0.0, "fusion_lat": 0.0, "lat": 38.916097, "type": "electric_scooter", "lon": -77.02287916666667, "bike_id": "66d490273a27e3b001bea9a794b00f38", "rental_uris": {"android": "https://dc.lft.to/lastmile_qr_scan", "ios": "https://dc.lft.to/lastmile_qr_scan"}, "name": "66d490273a27e3b001bea9a794b00f38", "is_reserved": 0}, {"is_disabled": 0, "fusion_lon": 0.0, "fusion_lat": 0.0, "lat": 38.89231216666667, "type": "electric_scooter", "lon": -77.04999616666667, "bike_id": "f4aba89d358d0cb03c8452b03b736d6b", "rental_uris": {"android": "https://dc.lft.to/lastmile_qr_scan", "ios": "https://dc.lft.to/lastmile_qr_scan"}, "name": "f4aba89d358d0cb03c8452b03b736d6b", "is_reserved": 0}, {"is_disabled": 0, "fusion_lon": 0.0, "fusion_lat": 0.0, "lat": 38.934582666666664, "type": "electric_scooter", "lon": -77.03057533333333, "bike_id": "6698a60058e9202e62144566f14e94a8", "rental_uris": {"android": "https://dc.lft.to/lastmile_qr_scan", "ios": "https://dc.lft.to/lastmile_qr_scan"}, "name": "6698a60058e9202e62144566f14e94a8", "is_reserved": 0}, {"is_disabled": 0, "fusion_lon": 0.0, "fusion_lat": 0.0, "lat": 38.912662166666664, "type": "electric_scooter", "lon": -77.0389545, "bike_id": "589a067e1d8db4dd13986fe9bb82a7d5", "rental_uris": {"android": "https://dc.lft.to/lastmile_qr_scan", "ios": "https://dc.lft.to/lastmile_qr_scan"}, "name": "589a067e1d8db4dd13986fe9bb82a7d5", "is_reserved": 0}, {"is_disabled": 0, "fusion_lon": 0.0, "fusion_lat": 0.0, "lat": 38.867013, "type": "electric_scooter", "lon": -76.98708616666667, "bike_id": "a7eb0505c4a6bf3b014edba6a06f3688", "rental_uris": {"android": "https://dc.lft.to/lastmile_qr_scan", "ios": "https://dc.lft.to/lastmile_qr_scan"}, "name": "a7eb0505c4a6bf3b014edba6a06f3688", "is_reserved": 0}, {"is_disabled": 0, "fusion_lon": 0.0, "fusion_lat": 0.0, "lat": 38.95277183333334, "type": "electric_scooter", "lon": -77.0685975, "bike_id": "7a1aaf67a4b0bb784ac69e624266fc7b", "rental_uris": {"android": "https://dc.lft.to/lastmile_qr_scan", "ios": "https://dc.lft.to/lastmile_qr_scan"}, "name": "7a1aaf67a4b0bb784ac69e624266fc7b", "is_reserved": 0}, {"is_disabled": 0, "fusion_lon": 0.0, "fusion_lat": 0.0, "lat": 38.894703666666665, "type": "electric_scooter", "lon": -77.02202883333334, "bike_id": "bd779d52ecfb9e319f9742e38ae602cc", "rental_uris": {"android": "https://dc.lft.to/lastmile_qr_scan", "ios": "https://dc.lft.to/lastmile_qr_scan"}, "name": "bd779d52ecfb9e319f9742e38ae602cc", "is_reserved": 0}, {"is_disabled": 0, "fusion_lon": 0.0, "fusion_lat": 0.0, "lat": 38.905686333333335, "type": "electric_scooter", "lon": -77.04349416666666, "bike_id": "268629be1fe8b98c2c4a6b4b7c1ed1c8", "rental_uris": {"android": "https://dc.lft.to/lastmile_qr_scan", "ios": "https://dc.lft.to/lastmile_qr_scan"}, "name": "268629be1fe8b98c2c4a6b4b7c1ed1c8", "is_reserved": 0}, {"is_disabled": 0, "fusion_lon": 0.0, "fusion_lat": 0.0, "lat": 38.8977085, "type": "electric_scooter", "lon": -77.02473083333334, "bike_id": "38c8ce71d2ae329f29e34b737cec91ce", "rental_uris": {"android": "https://dc.lft.to/lastmile_qr_scan", "ios": "https://dc.lft.to/lastmile_qr_scan"}, "name": "38c8ce71d2ae329f29e34b737cec91ce", "is_reserved": 0}, {"is_disabled": 0, "fusion_lon": 0.0, "fusion_lat": 0.0, "lat": 38.925324833333335, "type": "electric_scooter", "lon": -77.07320433333334, "bike_id": "e5109c51c1048b9cbd450ffcdcaa0f8a", "rental_uris": {"android": "https://dc.lft.to/lastmile_qr_scan", "ios": "https://dc.lft.to/lastmile_qr_scan"}, "name": "e5109c51c1048b9cbd450ffcdcaa0f8a", "is_reserved": 0}, {"is_disabled": 0, "fusion_lon": 0.0, "fusion_lat": 0.0, "lat": 38.92909216666666, "type": "electric_scooter", "lon": -77.03189866666666, "bike_id": "eba2e61664b39ec9d29c956764fe2061", "rental_uris": {"android": "https://dc.lft.to/lastmile_qr_scan", "ios": "https://dc.lft.to/lastmile_qr_scan"}, "name": "eba2e61664b39ec9d29c956764fe2061", "is_reserved": 0}, {"is_disabled": 0, "fusion_lon": 0.0, "fusion_lat": 0.0, "lat": 38.945419333333334, "type": "electric_scooter", "lon": -77.02534416666667, "bike_id": "11f3658f87584b5072d9a517c8c80d6d", "rental_uris": {"android": "https://dc.lft.to/lastmile_qr_scan", "ios": "https://dc.lft.to/lastmile_qr_scan"}, "name": "11f3658f87584b5072d9a517c8c80d6d", "is_reserved": 0}, {"is_disabled": 0, "fusion_lon": 0.0, "fusion_lat": 0.0, "lat": 38.917131833333336, "type": "electric_scooter", "lon": -77.03745116666667, "bike_id": "248607338a3af9585251ec5f4bbecb57", "rental_uris": {"android": "https://dc.lft.to/lastmile_qr_scan", "ios": "https://dc.lft.to/lastmile_qr_scan"}, "name": "248607338a3af9585251ec5f4bbecb57", "is_reserved": 0}, {"is_disabled": 0, "fusion_lon": 0.0, "fusion_lat": 0.0, "lat": 38.93106616666667, "type": "electric_scooter", "lon": -77.0240345, "bike_id": "a70a8034f016c13b33fe3f58b6af8dca", "rental_uris": {"android": "https://dc.lft.to/lastmile_qr_scan", "ios": "https://dc.lft.to/lastmile_qr_scan"}, "name": "a70a8034f016c13b33fe3f58b6af8dca", "is_reserved": 0}, {"is_disabled": 0, "fusion_lon": 0.0, "fusion_lat": 0.0, "lat": 38.898515, "type": "electric_scooter", "lon": -76.99030616666667, "bike_id": "799c6e459f7fd18f4cb89a77e2b27702", "rental_uris": {"android": "https://dc.lft.to/lastmile_qr_scan", "ios": "https://dc.lft.to/lastmile_qr_scan"}, "name": "799c6e459f7fd18f4cb89a77e2b27702", "is_reserved": 0}, {"is_disabled": 0, "fusion_lon": 0.0, "fusion_lat": 0.0, "lat": 38.828767666666664, "type": "electric_bike", "lon": -77.11217433333333, "bike_id": "57c1f45f3f6512c716064f3eb2079061", "rental_uris": {"android": "https://dc.lft.to/lastmile_qr_scan", "ios": "https://dc.lft.to/lastmile_qr_scan"}, "name": "57c1f45f3f6512c716064f3eb2079061", "is_reserved": 0}, {"is_disabled": 0, "fusion_lon": 0.0, "fusion_lat": 0.0, "lat": 38.88265583333333, "type": "electric_scooter", "lon": -76.98542983333333, "bike_id": "0401522f2428745b20edcd3a9fdafea3", "rental_uris": {"android": "https://dc.lft.to/lastmile_qr_scan", "ios": "https://dc.lft.to/lastmile_qr_scan"}, "name": "0401522f2428745b20edcd3a9fdafea3", "is_reserved": 0}, {"is_disabled": 0, "fusion_lon": 0.0, "fusion_lat": 0.0, "lat": 38.9033815, "type": "electric_scooter", "lon": -77.0249575, "bike_id": "8a4f059fc6229ab8d0035d499c23dc31", "rental_uris": {"android": "https://dc.lft.to/lastmile_qr_scan", "ios": "https://dc.lft.to/lastmile_qr_scan"}, "name": "8a4f059fc6229ab8d0035d499c23dc31", "is_reserved": 0}, {"is_disabled": 0, "fusion_lon": 0.0, "fusion_lat": 0.0, "lat": 38.86245516666666, "type": "electric_scooter", "lon": -76.995003, "bike_id": "4b265bb645e2f7b677ba372c1f1448e0", "rental_uris": {"android": "https://dc.lft.to/lastmile_qr_scan", "ios": "https://dc.lft.to/lastmile_qr_scan"}, "name": "4b265bb645e2f7b677ba372c1f1448e0", "is_reserved": 0}, {"is_disabled": 0, "fusion_lon": 0.0, "fusion_lat": 0.0, "lat": 38.909421, "type": "electric_scooter", "lon": -77.053642, "bike_id": "e86936b220a62ccc77a08bf4e2bbabf7", "rental_uris": {"android": "https://dc.lft.to/lastmile_qr_scan", "ios": "https://dc.lft.to/lastmile_qr_scan"}, "name": "e86936b220a62ccc77a08bf4e2bbabf7", "is_reserved": 0}, {"is_disabled": 0, "fusion_lon": 0.0, "fusion_lat": 0.0, "lat": 38.91280033333334, "type": "electric_scooter", "lon": -77.022432, "bike_id": "e6f2e09a3ecdaf66b3bdf6d65606dbe4", "rental_uris": {"android": "https://dc.lft.to/lastmile_qr_scan", "ios": "https://dc.lft.to/lastmile_qr_scan"}, "name": "e6f2e09a3ecdaf66b3bdf6d65606dbe4", "is_reserved": 0}, {"is_disabled": 0, "fusion_lon": 0.0, "fusion_lat": 0.0, "lat": 38.9518665, "type": "electric_scooter", "lon": -77.05661116666667, "bike_id": "4f93e382ab02a4813342b04a480c15d4", "rental_uris": {"android": "https://dc.lft.to/lastmile_qr_scan", "ios": "https://dc.lft.to/lastmile_qr_scan"}, "name": "4f93e382ab02a4813342b04a480c15d4", "is_reserved": 0}, {"is_disabled": 0, "fusion_lon": 0.0, "fusion_lat": 0.0, "lat": 38.92028966666667, "type": "electric_scooter", "lon": -77.0370245, "bike_id": "15be3c7924fd9d41fe98ce647b1cbbb8", "rental_uris": {"android": "https://dc.lft.to/lastmile_qr_scan", "ios": "https://dc.lft.to/lastmile_qr_scan"}, "name": "15be3c7924fd9d41fe98ce647b1cbbb8", "is_reserved": 0}, {"is_disabled": 0, "fusion_lon": 0.0, "fusion_lat": 0.0, "lat": 38.955558, "type": "electric_bike", "lon": -76.93539516666667, "bike_id": "e97136a7465dbd943f9a46806f48242b", "rental_uris": {"android": "https://dc.lft.to/lastmile_qr_scan", "ios": "https://dc.lft.to/lastmile_qr_scan"}, "name": "e97136a7465dbd943f9a46806f48242b", "is_reserved": 0}, {"is_disabled": 0, "fusion_lon": 0.0, "fusion_lat": 0.0, "lat": 38.9169115, "type": "electric_scooter", "lon": -77.02695916666667, "bike_id": "5625a70f8bab807e2a0f6833eefacb98", "rental_uris": {"android": "https://dc.lft.to/lastmile_qr_scan", "ios": "https://dc.lft.to/lastmile_qr_scan"}, "name": "5625a70f8bab807e2a0f6833eefacb98", "is_reserved": 0}, {"is_disabled": 0, "fusion_lon": 0.0, "fusion_lat": 0.0, "lat": 38.904188, "type": "electric_scooter", "lon": -77.01789683333334, "bike_id": "f6a0fd83fbe5d70d1e715b067764ee6e", "rental_uris": {"android": "https://dc.lft.to/lastmile_qr_scan", "ios": "https://dc.lft.to/lastmile_qr_scan"}, "name": "f6a0fd83fbe5d70d1e715b067764ee6e", "is_reserved": 0}, {"is_disabled": 0, "fusion_lon": 0.0, "fusion_lat": 0.0, "lat": 38.927212, "type": "electric_scooter", "lon": -77.040546, "bike_id": "a8c4ba4e0d3ad67620424b9690b37b0b", "rental_uris": {"android": "https://dc.lft.to/lastmile_qr_scan", "ios": "https://dc.lft.to/lastmile_qr_scan"}, "name": "a8c4ba4e0d3ad67620424b9690b37b0b", "is_reserved": 0}, {"is_disabled": 0, "fusion_lon": 0.0, "fusion_lat": 0.0, "lat": 38.905584833333336, "type": "electric_scooter", "lon": -77.04661816666666, "bike_id": "0d5c7a91934a4fae047ce5c7e1125405", "rental_uris": {"android": "https://dc.lft.to/lastmile_qr_scan", "ios": "https://dc.lft.to/lastmile_qr_scan"}, "name": "0d5c7a91934a4fae047ce5c7e1125405", "is_reserved": 0}, {"is_disabled": 0, "fusion_lon": 0.0, "fusion_lat": 0.0, "lat": 38.91551533333333, "type": "electric_scooter", "lon": -77.041569, "bike_id": "b1ebb5893e88fed61d2ff920cab83783", "rental_uris": {"android": "https://dc.lft.to/lastmile_qr_scan", "ios": "https://dc.lft.to/lastmile_qr_scan"}, "name": "b1ebb5893e88fed61d2ff920cab83783", "is_reserved": 0}, {"is_disabled": 0, "fusion_lon": 0.0, "fusion_lat": 0.0, "lat": 38.91014766666667, "type": "electric_scooter", "lon": -77.04393633333333, "bike_id": "a42de74275ee7b630c7fa151787189b2", "rental_uris": {"android": "https://dc.lft.to/lastmile_qr_scan", "ios": "https://dc.lft.to/lastmile_qr_scan"}, "name": "a42de74275ee7b630c7fa151787189b2", "is_reserved": 0}, {"is_disabled": 0, "fusion_lon": 0.0, "fusion_lat": 0.0, "lat": 38.8410695, "type": "electric_bike", "lon": -77.0894265, "bike_id": "25dc810a0e9b6da6988a553208ff46f4", "rental_uris": {"android": "https://dc.lft.to/lastmile_qr_scan", "ios": "https://dc.lft.to/lastmile_qr_scan"}, "name": "25dc810a0e9b6da6988a553208ff46f4", "is_reserved": 0}, {"is_disabled": 0, "fusion_lon": 0.0, "fusion_lat": 0.0, "lat": 38.91410116666667, "type": "electric_scooter", "lon": -77.00806466666667, "bike_id": "0170dcca0a7e75657619b9f3cb82d614", "rental_uris": {"android": "https://dc.lft.to/lastmile_qr_scan", "ios": "https://dc.lft.to/lastmile_qr_scan"}, "name": "0170dcca0a7e75657619b9f3cb82d614", "is_reserved": 0}, {"is_disabled": 0, "fusion_lon": 0.0, "fusion_lat": 0.0, "lat": 38.9004425, "type": "electric_scooter", "lon": -76.92270616666667, "bike_id": "0e9b4e3716c2fdbb7a5a34c7fbf50a86", "rental_uris": {"android": "https://dc.lft.to/lastmile_qr_scan", "ios": "https://dc.lft.to/lastmile_qr_scan"}, "name": "0e9b4e3716c2fdbb7a5a34c7fbf50a86", "is_reserved": 0}, {"is_disabled": 0, "fusion_lon": 0.0, "fusion_lat": 0.0, "lat": 38.90984733333333, "type": "electric_scooter", "lon": -77.0219145, "bike_id": "057c8d8b7249306168801ef55f645a11", "rental_uris": {"android": "https://dc.lft.to/lastmile_qr_scan", "ios": "https://dc.lft.to/lastmile_qr_scan"}, "name": "057c8d8b7249306168801ef55f645a11", "is_reserved": 0}, {"is_disabled": 0, "fusion_lon": 0.0, "fusion_lat": 0.0, "lat": 38.90948066666667, "type": "electric_scooter", "lon": -77.03854433333333, "bike_id": "0ea62959cf0d18e4feff9ad3a2a7431a", "rental_uris": {"android": "https://dc.lft.to/lastmile_qr_scan", "ios": "https://dc.lft.to/lastmile_qr_scan"}, "name": "0ea62959cf0d18e4feff9ad3a2a7431a", "is_reserved": 0}, {"is_disabled": 0, "fusion_lon": 0.0, "fusion_lat": 0.0, "lat": 38.895636833333334, "type": "electric_scooter", "lon": -77.04671866666666, "bike_id": "5dafe6e422cd75340cdccfdb2d158044", "rental_uris": {"android": "https://dc.lft.to/lastmile_qr_scan", "ios": "https://dc.lft.to/lastmile_qr_scan"}, "name": "5dafe6e422cd75340cdccfdb2d158044", "is_reserved": 0}, {"is_disabled": 0, "fusion_lon": 0.0, "fusion_lat": 0.0, "lat": 38.930507, "type": "electric_scooter", "lon": -77.0233355, "bike_id": "2da2e766333d56735fdf6d857ad89a0c", "rental_uris": {"android": "https://dc.lft.to/lastmile_qr_scan", "ios": "https://dc.lft.to/lastmile_qr_scan"}, "name": "2da2e766333d56735fdf6d857ad89a0c", "is_reserved": 0}, {"is_disabled": 0, "fusion_lon": 0.0, "fusion_lat": 0.0, "lat": 38.93529516666667, "type": "electric_scooter", "lon": -77.02381366666667, "bike_id": "e2c9a7279da62c68e7ca670b26f38c53", "rental_uris": {"android": "https://dc.lft.to/lastmile_qr_scan", "ios": "https://dc.lft.to/lastmile_qr_scan"}, "name": "e2c9a7279da62c68e7ca670b26f38c53", "is_reserved": 0}, {"is_disabled": 0, "fusion_lon": 0.0, "fusion_lat": 0.0, "lat": 38.910177166666664, "type": "electric_scooter", "lon": -77.03851983333334, "bike_id": "a276e5c4a24e1f966f8d99b54a180f04", "rental_uris": {"android": "https://dc.lft.to/lastmile_qr_scan", "ios": "https://dc.lft.to/lastmile_qr_scan"}, "name": "a276e5c4a24e1f966f8d99b54a180f04", "is_reserved": 0}, {"is_disabled": 0, "fusion_lon": 0.0, "fusion_lat": 0.0, "lat": 38.862475833333335, "type": "electric_scooter", "lon": -76.99502033333333, "bike_id": "01b013e815a03b5dda67cb804806fe2b", "rental_uris": {"android": "https://dc.lft.to/lastmile_qr_scan", "ios": "https://dc.lft.to/lastmile_qr_scan"}, "name": "01b013e815a03b5dda67cb804806fe2b", "is_reserved": 0}, {"is_disabled": 0, "fusion_lon": 0.0, "fusion_lat": 0.0, "lat": 38.893726666666666, "type": "electric_scooter", "lon": -76.94996583333334, "bike_id": "0040aed666024a6714f3677d4ad37d7d", "rental_uris": {"android": "https://dc.lft.to/lastmile_qr_scan", "ios": "https://dc.lft.to/lastmile_qr_scan"}, "name": "0040aed666024a6714f3677d4ad37d7d", "is_reserved": 0}, {"is_disabled": 0, "fusion_lon": 0.0, "fusion_lat": 0.0, "lat": 38.892562833333336, "type": "electric_scooter", "lon": -77.0280125, "bike_id": "80380a12b6d52abe8192d34abd40a9d7", "rental_uris": {"android": "https://dc.lft.to/lastmile_qr_scan", "ios": "https://dc.lft.to/lastmile_qr_scan"}, "name": "80380a12b6d52abe8192d34abd40a9d7", "is_reserved": 0}, {"is_disabled": 0, "fusion_lon": 0.0, "fusion_lat": 0.0, "lat": 38.88737916666667, "type": "electric_scooter", "lon": -77.00318183333333, "bike_id": "28fbf24828fedf6dff519117e74e4164", "rental_uris": {"android": "https://dc.lft.to/lastmile_qr_scan", "ios": "https://dc.lft.to/lastmile_qr_scan"}, "name": "28fbf24828fedf6dff519117e74e4164", "is_reserved": 0}, {"is_disabled": 0, "fusion_lon": 0.0, "fusion_lat": 0.0, "lat": 38.90246583333333, "type": "electric_scooter", "lon": -77.04597416666667, "bike_id": "21c4b08a7282162a2cbae2c660c6a594", "rental_uris": {"android": "https://dc.lft.to/lastmile_qr_scan", "ios": "https://dc.lft.to/lastmile_qr_scan"}, "name": "21c4b08a7282162a2cbae2c660c6a594", "is_reserved": 0}, {"is_disabled": 0, "fusion_lon": 0.0, "fusion_lat": 0.0, "lat": 38.934644, "type": "electric_scooter", "lon": -77.07242566666666, "bike_id": "84123850dd255b96d4df351071271a44", "rental_uris": {"android": "https://dc.lft.to/lastmile_qr_scan", "ios": "https://dc.lft.to/lastmile_qr_scan"}, "name": "84123850dd255b96d4df351071271a44", "is_reserved": 0}, {"is_disabled": 0, "fusion_lon": 0.0, "fusion_lat": 0.0, "lat": 38.92862316666667, "type": "electric_scooter", "lon": -77.01412816666667, "bike_id": "9a4fc3b29a99c9382e66005696524456", "rental_uris": {"android": "https://dc.lft.to/lastmile_qr_scan", "ios": "https://dc.lft.to/lastmile_qr_scan"}, "name": "9a4fc3b29a99c9382e66005696524456", "is_reserved": 0}, {"is_disabled": 0, "fusion_lon": 0.0, "fusion_lat": 0.0, "lat": 38.92483883333333, "type": "electric_scooter", "lon": -77.03487083333333, "bike_id": "7f1d4f2d4eef79adc58889e42b09a797", "rental_uris": {"android": "https://dc.lft.to/lastmile_qr_scan", "ios": "https://dc.lft.to/lastmile_qr_scan"}, "name": "7f1d4f2d4eef79adc58889e42b09a797", "is_reserved": 0}, {"is_disabled": 0, "fusion_lon": 0.0, "fusion_lat": 0.0, "lat": 38.91332283333333, "type": "electric_scooter", "lon": -77.04161966666666, "bike_id": "7b6d3c849f03e796f563d23aba98a680", "rental_uris": {"android": "https://dc.lft.to/lastmile_qr_scan", "ios": "https://dc.lft.to/lastmile_qr_scan"}, "name": "7b6d3c849f03e796f563d23aba98a680", "is_reserved": 0}, {"is_disabled": 0, "fusion_lon": 0.0, "fusion_lat": 0.0, "lat": 38.9260045, "type": "electric_scooter", "lon": -77.02150633333333, "bike_id": "b34858d87edcfc3b5c4e5b5a201b5403", "rental_uris": {"android": "https://dc.lft.to/lastmile_qr_scan", "ios": "https://dc.lft.to/lastmile_qr_scan"}, "name": "b34858d87edcfc3b5c4e5b5a201b5403", "is_reserved": 0}, {"is_disabled": 0, "fusion_lon": 0.0, "fusion_lat": 0.0, "lat": 38.919747, "type": "electric_scooter", "lon": -76.98055183333334, "bike_id": "52a68a46c011d569180ead0a5fed96fd", "rental_uris": {"android": "https://dc.lft.to/lastmile_qr_scan", "ios": "https://dc.lft.to/lastmile_qr_scan"}, "name": "52a68a46c011d569180ead0a5fed96fd", "is_reserved": 0}, {"is_disabled": 0, "fusion_lon": 0.0, "fusion_lat": 0.0, "lat": 38.916875833333336, "type": "electric_scooter", "lon": -77.03210566666667, "bike_id": "0a254de13b9ad9b8b85c19090c7e45f6", "rental_uris": {"android": "https://dc.lft.to/lastmile_qr_scan", "ios": "https://dc.lft.to/lastmile_qr_scan"}, "name": "0a254de13b9ad9b8b85c19090c7e45f6", "is_reserved": 0}, {"is_disabled": 0, "fusion_lon": 0.0, "fusion_lat": 0.0, "lat": 38.87663366666666, "type": "electric_scooter", "lon": -77.00360833333333, "bike_id": "7fb4f244de77c5d0f575b41deaf84467", "rental_uris": {"android": "https://dc.lft.to/lastmile_qr_scan", "ios": "https://dc.lft.to/lastmile_qr_scan"}, "name": "7fb4f244de77c5d0f575b41deaf84467", "is_reserved": 0}, {"is_disabled": 0, "fusion_lon": 0.0, "fusion_lat": 0.0, "lat": 38.89738883333333, "type": "electric_scooter", "lon": -77.00983966666666, "bike_id": "3376f525359b13e0f81d34b5d74f42b0", "rental_uris": {"android": "https://dc.lft.to/lastmile_qr_scan", "ios": "https://dc.lft.to/lastmile_qr_scan"}, "name": "3376f525359b13e0f81d34b5d74f42b0", "is_reserved": 0}, {"is_disabled": 0, "fusion_lon": 0.0, "fusion_lat": 0.0, "lat": 38.92228016666667, "type": "electric_scooter", "lon": -77.03440616666667, "bike_id": "81038240d4a45b38572999d511b81b38", "rental_uris": {"android": "https://dc.lft.to/lastmile_qr_scan", "ios": "https://dc.lft.to/lastmile_qr_scan"}, "name": "81038240d4a45b38572999d511b81b38", "is_reserved": 0}, {"is_disabled": 0, "fusion_lon": 0.0, "fusion_lat": 0.0, "lat": 38.90373816666666, "type": "electric_scooter", "lon": -77.016422, "bike_id": "8f218169f4b4cc331122d5d1f85f16a7", "rental_uris": {"android": "https://dc.lft.to/lastmile_qr_scan", "ios": "https://dc.lft.to/lastmile_qr_scan"}, "name": "8f218169f4b4cc331122d5d1f85f16a7", "is_reserved": 0}, {"is_disabled": 0, "fusion_lon": 0.0, "fusion_lat": 0.0, "lat": 38.9396605, "type": "electric_scooter", "lon": -77.03283533333334, "bike_id": "63e1030e7269ff77783da05b9ff5be92", "rental_uris": {"android": "https://dc.lft.to/lastmile_qr_scan", "ios": "https://dc.lft.to/lastmile_qr_scan"}, "name": "63e1030e7269ff77783da05b9ff5be92", "is_reserved": 0}, {"is_disabled": 0, "fusion_lon": 0.0, "fusion_lat": 0.0, "lat": 38.92758583333333, "type": "electric_scooter", "lon": -77.00593516666666, "bike_id": "dbd9190689ff025b9d747eda82df1a0f", "rental_uris": {"android": "https://dc.lft.to/lastmile_qr_scan", "ios": "https://dc.lft.to/lastmile_qr_scan"}, "name": "dbd9190689ff025b9d747eda82df1a0f", "is_reserved": 0}, {"is_disabled": 0, "fusion_lon": 0.0, "fusion_lat": 0.0, "lat": 38.942236, "type": "electric_scooter", "lon": -77.02501816666667, "bike_id": "36ec2ec6f11a799d07a173672276ba3e", "rental_uris": {"android": "https://dc.lft.to/lastmile_qr_scan", "ios": "https://dc.lft.to/lastmile_qr_scan"}, "name": "36ec2ec6f11a799d07a173672276ba3e", "is_reserved": 0}, {"is_disabled": 0, "fusion_lon": 0.0, "fusion_lat": 0.0, "lat": 38.90393566666667, "type": "electric_scooter", "lon": -76.9900655, "bike_id": "8cd3cb6bee05357dc53155884a4931d9", "rental_uris": {"android": "https://dc.lft.to/lastmile_qr_scan", "ios": "https://dc.lft.to/lastmile_qr_scan"}, "name": "8cd3cb6bee05357dc53155884a4931d9", "is_reserved": 0}, {"is_disabled": 0, "fusion_lon": 0.0, "fusion_lat": 0.0, "lat": 38.848957166666665, "type": "electric_scooter", "lon": -77.00519783333333, "bike_id": "ea66fd2ec60c56fc639f5afeab477781", "rental_uris": {"android": "https://dc.lft.to/lastmile_qr_scan", "ios": "https://dc.lft.to/lastmile_qr_scan"}, "name": "ea66fd2ec60c56fc639f5afeab477781", "is_reserved": 0}, {"is_disabled": 0, "fusion_lon": 0.0, "fusion_lat": 0.0, "lat": 38.877766333333334, "type": "electric_scooter", "lon": -77.0143775, "bike_id": "a8379de337a78ffd41d271ea9815dda2", "rental_uris": {"android": "https://dc.lft.to/lastmile_qr_scan", "ios": "https://dc.lft.to/lastmile_qr_scan"}, "name": "a8379de337a78ffd41d271ea9815dda2", "is_reserved": 0}, {"is_disabled": 0, "fusion_lon": 0.0, "fusion_lat": 0.0, "lat": 38.90333433333333, "type": "electric_scooter", "lon": -77.02152366666667, "bike_id": "fd3009abc406ba2cb1488055ee538287", "rental_uris": {"android": "https://dc.lft.to/lastmile_qr_scan", "ios": "https://dc.lft.to/lastmile_qr_scan"}, "name": "fd3009abc406ba2cb1488055ee538287", "is_reserved": 0}, {"is_disabled": 0, "fusion_lon": 0.0, "fusion_lat": 0.0, "lat": 38.86354766666667, "type": "electric_scooter", "lon": -76.9906435, "bike_id": "09ce3f548115f1bf88a2345fa01e954c", "rental_uris": {"android": "https://dc.lft.to/lastmile_qr_scan", "ios": "https://dc.lft.to/lastmile_qr_scan"}, "name": "09ce3f548115f1bf88a2345fa01e954c", "is_reserved": 0}, {"is_disabled": 0, "fusion_lon": 0.0, "fusion_lat": 0.0, "lat": 38.89849266666667, "type": "electric_scooter", "lon": -77.02392216666667, "bike_id": "8f605912a66169e0ca3decf414492354", "rental_uris": {"android": "https://dc.lft.to/lastmile_qr_scan", "ios": "https://dc.lft.to/lastmile_qr_scan"}, "name": "8f605912a66169e0ca3decf414492354", "is_reserved": 0}, {"is_disabled": 0, "fusion_lon": 0.0, "fusion_lat": 0.0, "lat": 38.903692, "type": "electric_scooter", "lon": -77.0400135, "bike_id": "c931b41379949571810bf3c9724540b3", "rental_uris": {"android": "https://dc.lft.to/lastmile_qr_scan", "ios": "https://dc.lft.to/lastmile_qr_scan"}, "name": "c931b41379949571810bf3c9724540b3", "is_reserved": 0}, {"is_disabled": 0, "fusion_lon": 0.0, "fusion_lat": 0.0, "lat": 38.931137, "type": "electric_scooter", "lon": -77.05603533333333, "bike_id": "cbbd3e0f8d81d0e6ea0e40fe06b2d88b", "rental_uris": {"android": "https://dc.lft.to/lastmile_qr_scan", "ios": "https://dc.lft.to/lastmile_qr_scan"}, "name": "cbbd3e0f8d81d0e6ea0e40fe06b2d88b", "is_reserved": 0}, {"is_disabled": 0, "fusion_lon": 0.0, "fusion_lat": 0.0, "lat": 38.90028, "type": "electric_scooter", "lon": -76.98806883333333, "bike_id": "c579a5952166b90403ae342b8d57852e", "rental_uris": {"android": "https://dc.lft.to/lastmile_qr_scan", "ios": "https://dc.lft.to/lastmile_qr_scan"}, "name": "c579a5952166b90403ae342b8d57852e", "is_reserved": 0},