{"data": {"bikes": [{"rental_uris": {"android": "https://dc.lft.to/lastmile_qr_scan", "ios": "https://dc.lft.to/lastmile_qr_scan"}, "type": "electric_scooter", "lon": -77.02325383333333, "name": "02c9e3882d5efe11bea8f659e23476b2", "bike_id": "02c9e3882d5efe11bea8f659e23476b2", "fusion_lat": 0.0, "is_reserved": 0, "lat": 38.91684, "fusion_lon": 0.0, "is_disabled": 0}, {"rental_uris": {"android": "https://dc.lft.to/lastmile_qr_scan", "ios": "https://dc.lft.to/lastmile_qr_scan"}, "type": "electric_scooter", "lon": -77.07297, "name": "039a362790c80fb7936d8ea62a99f4fa", "bike_id": "039a362790c80fb7936d8ea62a99f4fa", "fusion_lat": 0.0, "is_reserved": 0, "lat": 38.9306525, "fusion_lon": 0.0, "is_disabled": 0}, {"rental_uris": {"android": "https://dc.lft.to/lastmile_qr_scan", "ios": "https://dc.lft.to/lastmile_qr_scan"}, "type": "electric_scooter", "lon": -77.03401433333333, "name": "5e8bfb604238cc2b9a7abfd8bce290fa", "bike_id": "5e8bfb604238cc2b9a7abfd8bce290fa", "fusion_lat": 0.0, "is_reserved": 0, "lat": 38.919215333333334, "fusion_lon": 0.0, "is_disabled": 0}, {"rental_uris": {"android": "https://dc.lft.to/lastmile_qr_scan", "ios": "https://dc.lft.to/lastmile_qr_scan"}, "type": "electric_scooter", "lon": -77.012489, "name": "21e86ab901af24df7c2f2cab96a3f04d", "bike_id": "21e86ab901af24df7c2f2cab96a3f04d", "fusion_lat": 0.0, "is_reserved": 0, "lat": 38.908668166666665, "fusion_lon": 0.0, "is_disabled": 0}, {"rental_uris": {"android": "https://dc.lft.to/lastmile_qr_scan", "ios": "https://dc.lft.to/lastmile_qr_scan"}, "type": "electric_scooter", "lon": -77.013477, "name": "842c13b754426c325e5987a823028699", "bike_id": "842c13b754426c325e5987a823028699", "fusion_lat": 0.0, "is_reserved": 0, "lat": 38.919221, "fusion_lon": 0.0, "is_disabled": 0}, {"rental_uris": {"android": "https://dc.lft.to/lastmile_qr_scan", "ios": "https://dc.lft.to/lastmile_qr_scan"}, "type": "electric_scooter", "lon": -77.01277166666667, "name": "6f214ba4c0ab669ad78322caa97aea7f", "bike_id": "6f214ba4c0ab669ad78322caa97aea7f", "fusion_lat": 0.0, "is_reserved": 0, "lat": 38.91565766666667, "fusion_lon": 0.0, "is_disabled": 0}, {"rental_uris": {"android": "https://dc.lft.to/lastmile_qr_scan", "ios": "https://dc.lft.to/lastmile_qr_scan"}, "type": "electric_scooter", "lon": -76.9651775, "name": "121b83fbaf99051c79508f972254f15f", "bike_id": "121b83fbaf99051c79508f972254f15f", "fusion_lat": 0.0, "is_reserved": 0, "lat": 38.87482216666667, "fusion_lon": 0.0, "is_disabled": 0}, {"rental_uris": {"android": "https://dc.lft.to/lastmile_qr_scan", "ios": "https://dc.lft.to/lastmile_qr_scan"}, "type": "electric_scooter", "lon": -76.97475016666667, "name": "f8cbb0480112251544abd0ec1cee5b7c", "bike_id": "f8cbb0480112251544abd0ec1cee5b7c", "fusion_lat": 0.0, "is_reserved": 0, "lat": 38.90357016666667, "fusion_lon": 0.0, "is_disabled": 0}, {"rental_uris": {"android": "https://dc.lft.to/lastmile_qr_scan", "ios": "https://dc.lft.to/lastmile_qr_scan"}, "type": "electric_scooter", "lon": -77.0269925, "name": "cd64a4c0157b4a88fe195356ec6c59cd", "bike_id": "cd64a4c0157b4a88fe195356ec6c59cd", "fusion_lat": 0.0, "is_reserved": 0, "lat": 38.950071666666666, "fusion_lon": 0.0, "is_disabled": 0}, {"rental_uris": {"android": "https://dc.lft.to/lastmile_qr_scan", "ios": "https://dc.lft.to/lastmile_qr_scan"}, "type": "electric_scooter", "lon": -77.027708, "name": "5343879805163a0df18fdab7cc1be56c", "bike_id": "5343879805163a0df18fdab7cc1be56c", "fusion_lat": 0.0, "is_reserved": 0, "lat": 38.892257666666666, "fusion_lon": 0.0, "is_disabled": 0}, {"rental_uris": {"android": "https://dc.lft.to/lastmile_qr_scan", "ios": "https://dc.lft.to/lastmile_qr_scan"}, "type": "electric_scooter", "lon": -77.02498633333333, "name": "c5479ae386ef73118e2949b8c07fe482", "bike_id": "c5479ae386ef73118e2949b8c07fe482", "fusion_lat": 0.0, "is_reserved": 0, "lat": 38.9328795, "fusion_lon": 0.0, "is_disabled": 0}, {"rental_uris": {"android": "https://dc.lft.to/lastmile_qr_scan", "ios": "https://dc.lft.to/lastmile_qr_scan"}, "type": "electric_scooter", "lon": -77.02698033333333, "name": "d2ccf3a7c0469db04b3e0b480b16d80d", "bike_id": "d2ccf3a7c0469db04b3e0b480b16d80d", "fusion_lat": 0.0, "is_reserved": 0, "lat": 38.90457933333333, "fusion_lon": 0.0, "is_disabled": 0}, {"rental_uris": {"android": "https://dc.lft.to/lastmile_qr_scan", "ios": "https://dc.lft.to/lastmile_qr_scan"}, "type": "electric_scooter", "lon": -76.97821066666667, "name": "615b297f3979a0f333a2f26087e405fa", "bike_id": "615b297f3979a0f333a2f26087e405fa", "fusion_lat": 0.0, "is_reserved": 0, "lat": 38.896064, "fusion_lon": 0.0, "is_disabled": 0}, {"rental_uris": {"android": "https://dc.lft.to/lastmile_qr_scan", "ios": "https://dc.lft.to/lastmile_qr_scan"}, "type": "electric_bike", "lon": -77.12741183333333, "name": "c0e6cccc64742af8da507eb5aa25bfeb", "bike_id": "c0e6cccc64742af8da507eb5aa25bfeb", "fusion_lat": 0.0, "is_reserved": 0, "lat": 38.895673, "fusion_lon": 0.0, "is_disabled": 0}, {"rental_uris": {"android": "https://dc.lft.to/lastmile_qr_scan", "ios": "https://dc.lft.to/lastmile_qr_scan"}, "type": "electric_scooter", "lon": -77.02293566666667, "name": "b8ca2322c0468260cb25d317cbf467ce", "bike_id": "b8ca2322c0468260cb25d317cbf467ce", "fusion_lat": 0.0, "is_reserved": 0, "lat": 38.91793916666666, "fusion_lon": 0.0, "is_disabled": 0}, {"rental_uris": {"android": "https://dc.lft.to/lastmile_qr_scan", "ios": "https://dc.lft.to/lastmile_qr_scan"}, "type": "electric_scooter", "lon": -77.039983, "name": "6408be5d80832623bac5b178fc330b0a", "bike_id": "6408be5d80832623bac5b178fc330b0a", "fusion_lat": 0.0, "is_reserved": 0, "lat": 38.91808266666666, "fusion_lon": 0.0, "is_disabled": 0}, {"rental_uris": {"android": "https://dc.lft.to/lastmile_qr_scan", "ios": "https://dc.lft.to/lastmile_qr_scan"}, "type": "electric_scooter", "lon": -77.01015233333334, "name": "65ab60c450f87eab4aa90d72320a58ae", "bike_id": "65ab60c450f87eab4aa90d72320a58ae", "fusion_lat": 0.0, "is_reserved": 0, "lat": 38.86718833333333, "fusion_lon": 0.0, "is_disabled": 0}, {"rental_uris": {"android": "https://dc.lft.to/lastmile_qr_scan", "ios": "https://dc.lft.to/lastmile_qr_scan"}, "type": "electric_scooter", "lon": -77.0397395, "name": "70ffc9cc0c1a943779439c1f2a3770ae", "bike_id": "70ffc9cc0c1a943779439c1f2a3770ae", "fusion_lat": 0.0, "is_reserved": 0, "lat": 38.916290833333335, "fusion_lon": 0.0, "is_disabled": 0}, {"rental_uris": {"android": "https://dc.lft.to/lastmile_qr_scan", "ios": "https://dc.lft.to/lastmile_qr_scan"}, "type": "electric_scooter", "lon": -77.0364205, "name": "2048781d80356982e1b3f4a838b54a30", "bike_id": "2048781d80356982e1b3f4a838b54a30", "fusion_lat": 0.0, "is_reserved": 0, "lat": 38.91771, "fusion_lon": 0.0, "is_disabled": 0}, {"rental_uris": {"android": "https://dc.lft.to/lastmile_qr_scan", "ios": "https://dc.lft.to/lastmile_qr_scan"}, "type": "electric_scooter", "lon": -76.99883716666666, "name": "7c7bd494e3ea617ce59cf6562532ae64", "bike_id": "7c7bd494e3ea617ce59cf6562532ae64", "fusion_lat": 0.0, "is_reserved": 0, "lat": 38.920597, "fusion_lon": 0.0, "is_disabled": 0}, {"rental_uris": {"android": "https://dc.lft.to/lastmile_qr_scan", "ios": "https://dc.lft.to/lastmile_qr_scan"}, "type": "electric_scooter", "lon": -77.049871, "name": "abdf6b9a836497164a8ec5ee0c51b19a", "bike_id": "abdf6b9a836497164a8ec5ee0c51b19a", "fusion_lat": 0.0, "is_reserved": 0, "lat": 38.904151666666664, "fusion_lon": 0.0, "is_disabled": 0}, {"rental_uris": {"android": "https://dc.lft.to/lastmile_qr_scan", "ios": "https://dc.lft.to/lastmile_qr_scan"}, "type": "electric_scooter", "lon": -76.99364433333334, "name": "97195c9c157a66ca15a560c5fbb8bb74", "bike_id": "97195c9c157a66ca15a560c5fbb8bb74", "fusion_lat": 0.0, "is_reserved": 0, "lat": 38.90051366666667, "fusion_lon": 0.0, "is_disabled": 0}, {"rental_uris": {"android": "https://dc.lft.to/lastmile_qr_scan", "ios": "https://dc.lft.to/lastmile_qr_scan"}, "type": "electric_scooter", "lon": -76.98848916666667, "name": "e557ff422cb4db6b20123c8abd65eeed", "bike_id": "e557ff422cb4db6b20123c8abd65eeed", "fusion_lat": 0.0, "is_reserved": 0, "lat": 38.903483666666666, "fusion_lon": 0.0, "is_disabled": 0}, {"rental_uris": {"android": "https://dc.lft.to/lastmile_qr_scan", "ios": "https://dc.lft.to/lastmile_qr_scan"}, "type": "electric_bike", "lon": -76.99763966666667, "name": "5587ccfa128956bdcf82a39d07b4e1e8", "bike_id": "5587ccfa128956bdcf82a39d07b4e1e8", "fusion_lat": 0.0, "is_reserved": 0, "lat": 39.005976833333335, "fusion_lon": 0.0, "is_disabled": 0}, {"rental_uris": {"android": "https://dc.lft.to/lastmile_qr_scan", "ios": "https://dc.lft.to/lastmile_qr_scan"}, "type": "electric_scooter", "lon": -76.99488633333333, "name": "07a3fb21e85cff7acb74b59c5e5f4f7c", "bike_id": "07a3fb21e85cff7acb74b59c5e5f4f7c", "fusion_lat": 0.0, "is_reserved": 0, "lat": 38.86246383333334, "fusion_lon": 0.0, "is_disabled": 0}, {"rental_uris": {"android": "https://dc.lft.to/lastmile_qr_scan", "ios": "https://dc.lft.to/lastmile_qr_scan"}, "type": "electric_scooter", "lon": -77.03453433333334, "name": "8ee796cb71010c0907d2b41d320f0cc4", "bike_id": "8ee796cb71010c0907d2b41d320f0cc4", "fusion_lat": 0.0, "is_reserved": 0, "lat": 38.90582166666667, "fusion_lon": 0.0, "is_disabled": 0}, {"rental_uris": {"android": "https://dc.lft.to/lastmile_qr_scan", "ios": "https://dc.lft.to/lastmile_qr_scan"}, "type": "electric_bike", "lon": -77.114291, "name": "4fbfd26a72e0b5015b04fc2ac6a4a0a5", "bike_id": "4fbfd26a72e0b5015b04fc2ac6a4a0a5", "fusion_lat": 0.0, "is_reserved": 0, "lat": 38.852472166666665, "fusion_lon": 0.0, "is_disabled": 0}, {"rental_uris": {"android": "https://dc.lft.to/lastmile_qr_scan", "ios": "https://dc.lft.to/lastmile_qr_scan"}, "type": "electric_scooter", "lon": -76.997281, "name": "4dc09caf37c90ac489800d5e30ff1102", "bike_id": "4dc09caf37c90ac489800d5e30ff1102", "fusion_lat": 0.0, "is_reserved": 0, "lat": 38.9079265, "fusion_lon": 0.0, "is_disabled": 0}, {"rental_uris": {"android": "https://dc.lft.to/lastmile_qr_scan", "ios": "https://dc.lft.to/lastmile_qr_scan"}, "type": "electric_scooter", "lon": -77.03436283333333, "name": "5621e2fafe0772b5b5fd11fb657de15e", "bike_id": "5621e2fafe0772b5b5fd11fb657de15e", "fusion_lat": 0.0, "is_reserved": 0, "lat": 38.918025166666666, "fusion_lon": 0.0, "is_disabled": 0}, {"rental_uris": {"android": "https://dc.lft.to/lastmile_qr_scan", "ios": "https://dc.lft.to/lastmile_qr_scan"}, "type": "electric_scooter", "lon": -76.99781233333333, "name": "b1f9178ce0540dd6263a8401175b2d0c", "bike_id": "b1f9178ce0540dd6263a8401175b2d0c", "fusion_lat": 0.0, "is_reserved": 0, "lat": 38.92285966666667, "fusion_lon": 0.0, "is_disabled": 0}, {"rental_uris": {"android": "https://dc.lft.to/lastmile_qr_scan", "ios": "https://dc.lft.to/lastmile_qr_scan"}, "type": "electric_scooter", "lon": -76.98133533333333, "name": "2868e7dc73472b280ad6bdda637d937c", "bike_id": "2868e7dc73472b280ad6bdda637d937c", "fusion_lat": 0.0, "is_reserved": 0, "lat": 38.88422033333333, "fusion_lon": 0.0, "is_disabled": 0}, {"rental_uris": {"android": "https://dc.lft.to/lastmile_qr_scan", "ios": "https://dc.lft.to/lastmile_qr_scan"}, "type": "electric_scooter", "lon": -76.99482433333333, "name": "bdf2e12cc8ded5060d1b8f06a4b3f20e", "bike_id": "bdf2e12cc8ded5060d1b8f06a4b3f20e", "fusion_lat": 0.0, "is_reserved": 0, "lat": 38.87695766666667, "fusion_lon": 0.0, "is_disabled": 0}, {"rental_uris": {"android": "https://dc.lft.to/lastmile_qr_scan", "ios": "https://dc.lft.to/lastmile_qr_scan"}, "type": "electric_scooter", "lon": -77.0634235, "name": "093b2612652ef1647dec11f868dd9d50", "bike_id": "093b2612652ef1647dec11f868dd9d50", "fusion_lat": 0.0, "is_reserved": 0, "lat": 38.908471, "fusion_lon": 0.0, "is_disabled": 0}, {"rental_uris": {"android": "https://dc.lft.to/lastmile_qr_scan", "ios": "https://dc.lft.to/lastmile_qr_scan"}, "type": "electric_scooter", "lon": -77.02037566666667, "name": "202ef86a1679965e82633af0f17d4673", "bike_id": "202ef86a1679965e82633af0f17d4673", "fusion_lat": 0.0, "is_reserved": 0, "lat": 38.892664333333336, "fusion_lon": 0.0, "is_disabled": 0}, {"rental_uris": {"android": "https://dc.lft.to/lastmile_qr_scan", "ios": "https://dc.lft.to/lastmile_qr_scan"}, "type": "electric_scooter", "lon": -77.01767333333333, "name": "6a081d4571c81f3217aeec8c6bf494fe", "bike_id": "6a081d4571c81f3217aeec8c6bf494fe", "fusion_lat": 0.0, "is_reserved": 0, "lat": 38.872955, "fusion_lon": 0.0, "is_disabled": 0}, {"rental_uris": {"android": "https://dc.lft.to/lastmile_qr_scan", "ios": "https://dc.lft.to/lastmile_qr_scan"}, "type": "electric_scooter", "lon": -77.03657983333333, "name": "859d5564ba5a1aba034def5ae2845a1b", "bike_id": "859d5564ba5a1aba034def5ae2845a1b", "fusion_lat": 0.0, "is_reserved": 0, "lat": 38.916275, "fusion_lon": 0.0, "is_disabled": 0}, {"rental_uris": {"android": "https://dc.lft.to/lastmile_qr_scan", "ios": "https://dc.lft.to/lastmile_qr_scan"}, "type": "electric_scooter", "lon": -77.0269485, "name": "f0d359f570f85c89f3b05d056dccd885", "bike_id": "f0d359f570f85c89f3b05d056dccd885", "fusion_lat": 0.0, "is_reserved": 0, "lat": 38.91273316666667, "fusion_lon": 0.0, "is_disabled": 0}, {"rental_uris": {"android": "https://dc.lft.to/lastmile_qr_scan", "ios": "https://dc.lft.to/lastmile_qr_scan"}, "type": "electric_scooter", "lon": -76.99953466666666, "name": "509842c913336654bf96951c76fd8382", "bike_id": "509842c913336654bf96951c76fd8382", "fusion_lat": 0.0, "is_reserved": 0, "lat": 38.908705166666664, "fusion_lon": 0.0, "is_disabled": 0}, {"rental_uris": {"android": "https://dc.lft.to/lastmile_qr_scan", "ios": "https://dc.lft.to/lastmile_qr_scan"}, "type": "electric_scooter", "lon": -77.02166966666667, "name": "9ad615c81d67334e1eff9de47175e2a1", "bike_id": "9ad615c81d67334e1eff9de47175e2a1", "fusion_lat": 0.0, "is_reserved": 0, "lat": 38.9409, "fusion_lon": 0.0, "is_disabled": 0}, {"rental_uris": {"android": "https://dc.lft.to/lastmile_qr_scan", "ios": "https://dc.lft.to/lastmile_qr_scan"}, "type": "electric_scooter", "lon": -77.035821, "name": "e5c342c03d3751970ab3e253de5b7252", "bike_id": "e5c342c03d3751970ab3e253de5b7252", "fusion_lat": 0.0, "is_reserved": 0, "lat": 38.91922316666667, "fusion_lon": 0.0, "is_disabled": 0}, {"rental_uris": {"android": "https://dc.lft.to/lastmile_qr_scan", "ios": "https://dc.lft.to/lastmile_qr_scan"}, "type": "electric_scooter", "lon": -76.99276283333333, "name": "bdf6bd0cd4f7d75a2bf15b9d78e7b69c", "bike_id": "bdf6bd0cd4f7d75a2bf15b9d78e7b69c", "fusion_lat": 0.0, "is_reserved": 0, "lat": 38.857652333333334, "fusion_lon": 0.0, "is_disabled": 0}, {"rental_uris": {"android": "https://dc.lft.to/lastmile_qr_scan", "ios": "https://dc.lft.to/lastmile_qr_scan"}, "type": "electric_bike", "lon": -77.13092583333334, "name": "c66760501279f054246dc393eb96697d", "bike_id": "c66760501279f054246dc393eb96697d", "fusion_lat": 0.0, "is_reserved": 0, "lat": 38.86166466666667, "fusion_lon": 0.0, "is_disabled": 0}, {"rental_uris": {"android": "https://dc.lft.to/lastmile_qr_scan", "ios": "https://dc.lft.to/lastmile_qr_scan"}, "type": "electric_scooter", "lon": -77.02438233333334, "name": "8e00f89e0b86ba8ef7731420182e1db3", "bike_id": "8e00f89e0b86ba8ef7731420182e1db3", "fusion_lat": 0.0, "is_reserved": 0, "lat": 38.932934333333336, "fusion_lon": 0.0, "is_disabled": 0}, {"rental_uris": {"android": "https://dc.lft.to/lastmile_qr_scan", "ios": "https://dc.lft.to/lastmile_qr_scan"}, "type": "electric_scooter", "lon": -77.03266483333333, "name": "cb3cc366ceed1bb4297f7bfd37d702c9", "bike_id": "cb3cc366ceed1bb4297f7bfd37d702c9", "fusion_lat": 0.0, "is_reserved": 0, "lat": 38.8964155, "fusion_lon": 0.0, "is_disabled": 0}, {"rental_uris": {"android": "https://dc.lft.to/lastmile_qr_scan", "ios": "https://dc.lft.to/lastmile_qr_scan"}, "type": "electric_scooter", "lon": -77.014976, "name": "d747a17dcb2125cbe47d3b1d6c29e9ce", "bike_id": "d747a17dcb2125cbe47d3b1d6c29e9ce", "fusion_lat": 0.0, "is_reserved": 0, "lat": 38.9177575, "fusion_lon": 0.0, "is_disabled": 0}, {"rental_uris": {"android": "https://dc.lft.to/lastmile_qr_scan", "ios": "https://dc.lft.to/lastmile_qr_scan"}, "type": "electric_scooter", "lon": -77.00567966666667, "name": "e6afb05e3691737d1bdf924ba9ef6ff8", "bike_id": "e6afb05e3691737d1bdf924ba9ef6ff8", "fusion_lat": 0.0, "is_reserved": 0, "lat": 38.90559716666667, "fusion_lon": 0.0, "is_disabled": 0}, {"rental_uris": {"android": "https://dc.lft.to/lastmile_qr_scan", "ios": "https://dc.lft.to/lastmile_qr_scan"}, "type": "electric_scooter", "lon": -77.04257166666666, "name": "a89ac95677e95f0f23737687ed4e17ed", "bike_id": "a89ac95677e95f0f23737687ed4e17ed", "fusion_lat": 0.0, "is_reserved": 0, "lat": 38.922008, "fusion_lon": 0.0, "is_disabled": 0}, {"rental_uris": {"android": "https://dc.lft.to/lastmile_qr_scan", "ios": "https://dc.lft.to/lastmile_qr_scan"}, "type": "electric_scooter", "lon": -77.03834716666667, "name": "6be85742ca18257ccb423c3f04d519cf", "bike_id": "6be85742ca18257ccb423c3f04d519cf", "fusion_lat": 0.0, "is_reserved": 0, "lat": 38.915550833333334, "fusion_lon": 0.0, "is_disabled": 0}, {"rental_uris": {"android": "https://dc.lft.to/lastmile_qr_scan", "ios": "https://dc.lft.to/lastmile_qr_scan"}, "type": "electric_scooter", "lon": -77.03129533333333, "name": "0b7d04e38bf101cb43129d226e4a4a65", "bike_id": "0b7d04e38bf101cb43129d226e4a4a65", "fusion_lat": 0.0, "is_reserved": 0, "lat": 38.897297333333334, "fusion_lon": 0.0, "is_disabled": 0}, {"rental_uris": {"android": "https://dc.lft.to/lastmile_qr_scan", "ios": "https://dc.lft.to/lastmile_qr_scan"}, "type": "electric_scooter", "lon": -77.00670883333333, "name": "e534f0b94d5f9f7f6cea592bc861db1e", "bike_id": "e534f0b94d5f9f7f6cea592bc861db1e", "fusion_lat": 0.0, "is_reserved": 0, "lat": 38.877069, "fusion_lon": 0.0, "is_disabled": 0}, {"rental_uris": {"android": "https://dc.lft.to/lastmile_qr_scan", "ios": "https://dc.lft.to/lastmile_qr_scan"}, "type": "electric_scooter", "lon": -77.03143916666667, "name": "f390d2f65847a6dc88a8063d5bcc3db3", "bike_id": "f390d2f65847a6dc88a8063d5bcc3db3", "fusion_lat": 0.0, "is_reserved": 0, "lat": 38.88749166666667, "fusion_lon": 0.0, "is_disabled": 0}, {"rental_uris": {"android": "https://dc.lft.to/lastmile_qr_scan", "ios": "https://dc.lft.to/lastmile_qr_scan"}, "type": "electric_scooter", "lon": -77.0350025, "name": "bfeeaafcf960ceeba492812fb8df39ac", "bike_id": "bfeeaafcf960ceeba492812fb8df39ac", "fusion_lat": 0.0, "is_reserved": 0, "lat": 38.92640683333333, "fusion_lon": 0.0, "is_disabled": 0}, {"rental_uris": {"android": "https://dc.lft.to/lastmile_qr_scan", "ios": "https://dc.lft.to/lastmile_qr_scan"}, "type": "electric_scooter", "lon": -77.034542, "name": "aa5d21657cc11517f9d6521565a86037", "bike_id": "aa5d21657cc11517f9d6521565a86037", "fusion_lat": 0.0, "is_reserved": 0, "lat": 38.90270983333333, "fusion_lon": 0.0, "is_disabled": 0}, {"rental_uris": {"android": "https://dc.lft.to/lastmile_qr_scan", "ios": "https://dc.lft.to/lastmile_qr_scan"}, "type": "electric_scooter", "lon": -77.05515933333334, "name": "d63af78f915685e54896243ecba3e390", "bike_id": "d63af78f915685e54896243ecba3e390", "fusion_lat": 0.0, "is_reserved": 0, "lat": 38.944177833333335, "fusion_lon": 0.0, "is_disabled": 0}, {"rental_uris": {"android": "https://dc.lft.to/lastmile_qr_scan", "ios": "https://dc.lft.to/lastmile_qr_scan"}, "type": "electric_scooter", "lon": -76.94838533333333, "name": "a275d6ee6c0076c9cfb371d330eaf4cc", "bike_id": "a275d6ee6c0076c9cfb371d330eaf4cc", "fusion_lat": 0.0, "is_reserved": 0, "lat": 38.894884, "fusion_lon": 0.0, "is_disabled": 0}, {"rental_uris": {"android": "https://dc.lft.to/lastmile_qr_scan", "ios": "https://dc.lft.to/lastmile_qr_scan"}, "type": "electric_scooter", "lon": -77.0300635, "name": "33501071a1758049ea97721757527eb2", "bike_id": "33501071a1758049ea97721757527eb2", "fusion_lat": 0.0, "is_reserved": 0, "lat": 38.93117266666667, "fusion_lon": 0.0, "is_disabled": 0}, {"rental_uris": {"android": "https://dc.lft.to/lastmile_qr_scan", "ios": "https://dc.lft.to/lastmile_qr_scan"}, "type": "electric_scooter", "lon": -77.02401716666667, "name": "1c399bdb7df3e607a25c72660e413153", "bike_id": "1c399bdb7df3e607a25c72660e413153", "fusion_lat": 0.0, "is_reserved": 0, "lat": 38.893811166666666, "fusion_lon": 0.0, "is_disabled": 0}, {"rental_uris": {"android": "https://dc.lft.to/lastmile_qr_scan", "ios": "https://dc.lft.to/lastmile_qr_scan"}, "type": "electric_scooter", "lon": -77.0457145, "name": "46e5d73ed94977e51733cc2aa68463b8", "bike_id": "46e5d73ed94977e51733cc2aa68463b8", "fusion_lat": 0.0, "is_reserved": 0, "lat": 38.92129416666667, "fusion_lon": 0.0, "is_disabled": 0}, {"rental_uris": {"android": "https://dc.lft.to/lastmile_qr_scan", "ios": "https://dc.lft.to/lastmile_qr_scan"}, "type": "electric_scooter", "lon": -77.0010825, "name": "003d671b732ded10db2e4e106c1154f3", "bike_id": "003d671b732ded10db2e4e106c1154f3", "fusion_lat": 0.0, "is_reserved": 0, "lat": 38.91634533333333, "fusion_lon": 0.0, "is_disabled": 0}, {"rental_uris": {"android": "https://dc.lft.to/lastmile_qr_scan", "ios": "https://dc.lft.to/lastmile_qr_scan"}, "type": "electric_scooter", "lon": -76.948498, "name": "dfe03496ddd738c9d65ff305d90cbca7", "bike_id": "dfe03496ddd738c9d65ff305d90cbca7", "fusion_lat": 0.0, "is_reserved": 0, "lat": 38.883041, "fusion_lon": 0.0, "is_disabled": 0}, {"rental_uris": {"android": "https://dc.lft.to/lastmile_qr_scan", "ios": "https://dc.lft.to/lastmile_qr_scan"}, "type": "electric_scooter", "lon": -77.058805, "name": "6010901891be4033c54c390e663c7093", "bike_id": "6010901891be4033c54c390e663c7093", "fusion_lat": 0.0, "is_reserved": 0, "lat": 38.93638516666667, "fusion_lon": 0.0, "is_disabled": 0}, {"rental_uris": {"android": "https://dc.lft.to/lastmile_qr_scan", "ios": "https://dc.lft.to/lastmile_qr_scan"}, "type": "electric_scooter", "lon": -76.9892485, "name": "3adde1c33e9d0d5e53ec858a281b09bc", "bike_id": "3adde1c33e9d0d5e53ec858a281b09bc", "fusion_lat": 0.0, "is_reserved": 0, "lat": 38.9023685, "fusion_lon": 0.0, "is_disabled": 0}, {"rental_uris": {"android": "https://dc.lft.to/lastmile_qr_scan", "ios": "https://dc.lft.to/lastmile_qr_scan"}, "type": "electric_scooter", "lon": -76.98603883333334, "name": "f51f9c0baba72558969267fd9b6ae0f9", "bike_id": "f51f9c0baba72558969267fd9b6ae0f9", "fusion_lat": 0.0, "is_reserved": 0, "lat": 38.8544255, "fusion_lon": 0.0, "is_disabled": 0}, {"rental_uris": {"android": "https://dc.lft.to/lastmile_qr_scan", "ios": "https://dc.lft.to/lastmile_qr_scan"}, "type": "electric_bike", "lon": -76.99396833333333, "name": "5d14cf3621ece2ecd4946f8bbdb5c694", "bike_id": "5d14cf3621ece2ecd4946f8bbdb5c694", "fusion_lat": 0.0, "is_reserved": 0, "lat": 38.92270883333333, "fusion_lon": 0.0, "is_disabled": 0}, {"rental_uris": {"android": "https://dc.lft.to/lastmile_qr_scan", "ios": "https://dc.lft.to/lastmile_qr_scan"}, "type": "electric_scooter", "lon": -77.0320975, "name": "03488c5f5ac13fbaf36b30b16b1f18d2", "bike_id": "03488c5f5ac13fbaf36b30b16b1f18d2", "fusion_lat": 0.0, "is_reserved": 0, "lat": 38.89625783333334, "fusion_lon": 0.0, "is_disabled": 0}, {"rental_uris": {"android": "https://dc.lft.to/lastmile_qr_scan", "ios": "https://dc.lft.to/lastmile_qr_scan"}, "type": "electric_scooter", "lon": -77.03236833333334, "name": "3ebf314604810399e25dc3a00eedc456", "bike_id": "3ebf314604810399e25dc3a00eedc456", "fusion_lat": 0.0, "is_reserved": 0, "lat": 38.9299005, "fusion_lon": 0.0, "is_disabled": 0}, {"rental_uris": {"android": "https://dc.lft.to/lastmile_qr_scan", "ios": "https://dc.lft.to/lastmile_qr_scan"}, "type": "electric_scooter", "lon": -77.01812033333333, "name": "156a98ff75f97a657319da337fb4de7e", "bike_id": "156a98ff75f97a657319da337fb4de7e", "fusion_lat": 0.0, "is_reserved": 0, "lat": 38.886071333333334, "fusion_lon": 0.0, "is_disabled": 0}, {"rental_uris": {"android": "https://dc.lft.to/lastmile_qr_scan", "ios": "https://dc.lft.to/lastmile_qr_scan"}, "type": "electric_scooter", "lon": -76.97556133333333, "name": "7fdc114d94cc3200313ed05eae618843", "bike_id": "7fdc114d94cc3200313ed05eae618843", "fusion_lat": 0.0, "is_reserved": 0, "lat": 38.904451333333334, "fusion_lon": 0.0, "is_disabled": 0}, {"rental_uris": {"android": "https://dc.lft.to/lastmile_qr_scan", "ios": "https://dc.lft.to/lastmile_qr_scan"}, "type": "electric_scooter", "lon": -77.04154083333333, "name": "45536295c852ea3a56d9d6d735f84cc9", "bike_id": "45536295c852ea3a56d9d6d735f84cc9", "fusion_lat": 0.0, "is_reserved": 0, "lat": 38.9193125, "fusion_lon": 0.0, "is_disabled": 0}, {"rental_uris": {"android": "https://dc.lft.to/lastmile_qr_scan", "ios": "https://dc.lft.to/lastmile_qr_scan"}, "type": "electric_scooter", "lon": -77.02212816666666, "name": "327e213f71de09cf01ba293371d67e54", "bike_id": "327e213f71de09cf01ba293371d67e54", "fusion_lat": 0.0, "is_reserved": 0, "lat": 38.9105665, "fusion_lon": 0.0, "is_disabled": 0}, {"rental_uris": {"android": "https://dc.lft.to/lastmile_qr_scan", "ios": "https://dc.lft.to/lastmile_qr_scan"}, "type": "electric_scooter", "lon": -77.04675466666667, "name": "7275f5ba0caa178dd6dd48804688b9a6", "bike_id": "7275f5ba0caa178dd6dd48804688b9a6", "fusion_lat": 0.0, "is_reserved": 0, "lat": 38.91063333333334, "fusion_lon": 0.0, "is_disabled": 0}, {"rental_uris": {"android": "https://dc.lft.to/lastmile_qr_scan", "ios": "https://dc.lft.to/lastmile_qr_scan"}, "type": "electric_scooter", "lon": -76.949188, "name": "64d96198c4ef4ca1354f55b2e4158c4a", "bike_id": "64d96198c4ef4ca1354f55b2e4158c4a", "fusion_lat": 0.0, "is_reserved": 0, "lat": 38.892725666666664, "fusion_lon": 0.0, "is_disabled": 0}, {"rental_uris": {"android": "https://dc.lft.to/lastmile_qr_scan", "ios": "https://dc.lft.to/lastmile_qr_scan"}, "type": "electric_scooter", "lon": -76.97931633333333, "name": "dadb25d6785a3100c5e5aa2b1734fb20", "bike_id": "dadb25d6785a3100c5e5aa2b1734fb20", "fusion_lat": 0.0, "is_reserved": 0, "lat": 38.90241116666667, "fusion_lon": 0.0, "is_disabled": 0}, {"rental_uris": {"android": "https://dc.lft.to/lastmile_qr_scan", "ios": "https://dc.lft.to/lastmile_qr_scan"}, "type": "electric_bike", "lon": -77.08440433333334, "name": "792924c69c20e1be283fb86a3dcab340", "bike_id": "792924c69c20e1be283fb86a3dcab340", "fusion_lat": 0.0, "is_reserved": 0, "lat": 38.81028583333333, "fusion_lon": 0.0, "is_disabled": 0}, {"rental_uris": {"android": "https://dc.lft.to/lastmile_qr_scan", "ios": "https://dc.lft.to/lastmile_qr_scan"}, "type": "electric_scooter", "lon": -77.0247195, "name": "58c8b7814fb0b058b7b562a8c4e2095a", "bike_id": "58c8b7814fb0b058b7b562a8c4e2095a", "fusion_lat": 0.0, "is_reserved": 0, "lat": 38.93622666666667, "fusion_lon": 0.0, "is_disabled": 0}, {"rental_uris": {"android": "https://dc.lft.to/lastmile_qr_scan", "ios": "https://dc.lft.to/lastmile_qr_scan"}, "type": "electric_bike", "lon": -76.9750515, "name": "db5d012e3bb5a885cf3a7cb14d935add", "bike_id": "db5d012e3bb5a885cf3a7cb14d935add", "fusion_lat": 0.0, "is_reserved": 0, "lat": 38.919374, "fusion_lon": 0.0, "is_disabled": 0}, {"rental_uris": {"android": "https://dc.lft.to/lastmile_qr_scan", "ios": "https://dc.lft.to/lastmile_qr_scan"}, "type": "electric_scooter", "lon": -76.99015716666666, "name": "3a46394ff9ef3cb935f20bcc3aafa778", "bike_id": "3a46394ff9ef3cb935f20bcc3aafa778", "fusion_lat": 0.0, "is_reserved": 0, "lat": 38.89913033333333, "fusion_lon": 0.0, "is_disabled": 0}, {"rental_uris": {"android": "https://dc.lft.to/lastmile_qr_scan", "ios": "https://dc.lft.to/lastmile_qr_scan"}, "type": "electric_scooter", "lon": -76.984529, "name": "53c5fc87582f657a22b151c527b24ae5", "bike_id": "53c5fc87582f657a22b151c527b24ae5", "fusion_lat": 0.0, "is_reserved": 0, "lat": 38.880154166666664, "fusion_lon": 0.0, "is_disabled": 0}, {"rental_uris": {"android": "https://dc.lft.to/lastmile_qr_scan", "ios": "https://dc.lft.to/lastmile_qr_scan"}, "type": "electric_scooter", "lon": -76.994911, "name": "7ac7f2b06e872e83e5ec2d0d42d41f93", "bike_id": "7ac7f2b06e872e83e5ec2d0d42d41f93", "fusion_lat": 0.0, "is_reserved": 0, "lat": 38.8624425, "fusion_lon": 0.0, "is_disabled": 0}, {"rental_uris": {"android": "https://dc.lft.to/lastmile_qr_scan", "ios": "https://dc.lft.to/lastmile_qr_scan"}, "type": "electric_scooter", "lon": -77.02385466666667, "name": "dd79815b6bbf86869d659b5127e235f7", "bike_id": "dd79815b6bbf86869d659b5127e235f7", "fusion_lat": 0.0, "is_reserved": 0, "lat": 38.920792166666665, "fusion_lon": 0.0, "is_disabled": 0}, {"rental_uris": {"android": "https://dc.lft.to/lastmile_qr_scan", "ios": "https://dc.lft.to/lastmile_qr_scan"}, "type": "electric_scooter", "lon": -77.03855066666667, "name": "881b8d8e3f668081170c67117c29c77b", "bike_id": "881b8d8e3f668081170c67117c29c77b", "fusion_lat": 0.0, "is_reserved": 0, "lat": 38.91549766666667, "fusion_lon": 0.0, "is_disabled": 0}, {"rental_uris": {"android": "https://dc.lft.to/lastmile_qr_scan", "ios": "https://dc.lft.to/lastmile_qr_scan"}, "type": "electric_bike", "lon": -77.04902416666667, "name": "f18a8f40547e40ba98098c2ecea414d6", "bike_id": "f18a8f40547e40ba98098c2ecea414d6", "fusion_lat": 0.0, "is_reserved": 0, "lat": 38.874988333333334, "fusion_lon": 0.0, "is_disabled": 0}, {"rental_uris": {"android": "https://dc.lft.to/lastmile_qr_scan", "ios": "https://dc.lft.to/lastmile_qr_scan"}, "type": "electric_scooter", "lon": -77.024786, "name": "998329651838d7e7ab3683ccf6afbbd7", "bike_id": "998329651838d7e7ab3683ccf6afbbd7", "fusion_lat": 0.0, "is_reserved": 0, "lat": 38.938814666666666, "fusion_lon": 0.0, "is_disabled": 0}, {"rental_uris": {"android": "https://dc.lft.to/lastmile_qr_scan", "ios": "https://dc.lft.to/lastmile_qr_scan"}, "type": "electric_scooter", "lon": -77.01905583333334, "name": "86ca41a1e7e9e02754466daed36571fd", "bike_id": "86ca41a1e7e9e02754466daed36571fd", "fusion_lat": 0.0, "is_reserved": 0, "lat": 38.923406666666665, "fusion_lon": 0.0, "is_disabled": 0}, {"rental_uris": {"android": "https://dc.lft.to/lastmile_qr_scan", "ios": "https://dc.lft.to/lastmile_qr_scan"}, "type": "electric_scooter", "lon": -77.03190983333333, "name": "b071e8477036c618acf627a5729fb685", "bike_id": "b071e8477036c618acf627a5729fb685", "fusion_lat": 0.0, "is_reserved": 0, "lat": 38.918964333333335, "fusion_lon": 0.0, "is_disabled": 0}, {"rental_uris": {"android": "https://dc.lft.to/lastmile_qr_scan", "ios": "https://dc.lft.to/lastmile_qr_scan"}, "type": "electric_scooter", "lon": -77.022853, "name": "55acfc8585c17e516d1994b3d0795f00", "bike_id": "55acfc8585c17e516d1994b3d0795f00", "fusion_lat": 0.0, "is_reserved": 0, "lat": 38.91571283333333, "fusion_lon": 0.0, "is_disabled": 0}, {"rental_uris": {"android": "https://dc.lft.to/lastmile_qr_scan", "ios": "https://dc.lft.to/lastmile_qr_scan"}, "type": "electric_scooter", "lon": -77.032742, "name": "491f7121c3dbc1c9266c8d01be3c5650", "bike_id": "491f7121c3dbc1c9266c8d01be3c5650", "fusion_lat": 0.0, "is_reserved": 0, "lat": 38.9325625, "fusion_lon": 0.0, "is_disabled": 0}, {"rental_uris": {"android": "https://dc.lft.to/lastmile_qr_scan", "ios": "https://dc.lft.to/lastmile_qr_scan"}, "type": "electric_scooter", "lon": -77.03178966666667, "name": "11500cdcc84aab22789022a2ae8556e6", "bike_id": "11500cdcc84aab22789022a2ae8556e6", "fusion_lat": 0.0, "is_reserved": 0, "lat": 38.918935, "fusion_lon": 0.0, "is_disabled": 0}, {"rental_uris": {"android": "https://dc.lft.to/lastmile_qr_scan", "ios": "https://dc.lft.to/lastmile_qr_scan"}, "type": "electric_scooter", "lon": -77.01181116666666, "name": "84ee9a1335c80d92e41151a36929be0f", "bike_id": "84ee9a1335c80d92e41151a36929be0f", "fusion_lat": 0.0, "is_reserved": 0, "lat": 38.8974045, "fusion_lon": 0.0, "is_disabled": 0}, {"rental_uris": {"android": "https://dc.lft.to/lastmile_qr_scan", "ios": "https://dc.lft.to/lastmile_qr_scan"}, "type": "electric_scooter", "lon": -77.03929733333334, "name": "5b4c044ae9d9c91b9c8d5cce96f9c98e", "bike_id": "5b4c044ae9d9c91b9c8d5cce96f9c98e", "fusion_lat": 0.0, "is_reserved": 0, "lat": 38.91394416666667, "fusion_lon": 0.0, "is_disabled": 0}, {"rental_uris": {"android": "https://dc.lft.to/lastmile_qr_scan", "ios": "https://dc.lft.to/lastmile_qr_scan"}, "type": "electric_scooter", "lon": -77.01610833333334, "name": "338944bd909b7dd2baee4b0c6a071754", "bike_id": "338944bd909b7dd2baee4b0c6a071754", "fusion_lat": 0.0, "is_reserved": 0, "lat": 38.90592933333333, "fusion_lon": 0.0, "is_disabled": 0}, {"rental_uris": {"android": "https://dc.lft.to/lastmile_qr_scan", "ios": "https://dc.lft.to/lastmile_qr_scan"}, "type": "electric_scooter", "lon": -77.067911, "name": "9b293de8a88ceb8b0241e40366b69fcf", "bike_id": "9b293de8a88ceb8b0241e40366b69fcf", "fusion_lat": 0.0, "is_reserved": 0, "lat": 38.9107935, "fusion_lon": 0.0, "is_disabled": 0}, {"rental_uris": {"android": "https://dc.lft.to/lastmile_qr_scan", "ios": "https://dc.lft.to/lastmile_qr_scan"}, "type": "electric_bike", "lon": -77.10026, "name": "e647232ac26f1c688304a98390c02ff8", "bike_id": "e647232ac26f1c688304a98390c02ff8", "fusion_lat": 0.0, "is_reserved": 0, "lat": 38.990650333333335, "fusion_lon": 0.0, "is_disabled": 0}, {"rental_uris": {"android": "https://dc.lft.to/lastmile_qr_scan", "ios": "https://dc.lft.to/lastmile_qr_scan"}, "type": "electric_scooter", "lon": -77.02471, "name": "fcc5845236d6edfa02d5266ae1618fa2", "bike_id": "fcc5845236d6edfa02d5266ae1618fa2", "fusion_lat": 0.0, "is_reserved": 0, "lat": 38.90640116666667, "fusion_lon": 0.0, "is_disabled": 0}, {"rental_uris": {"android": "https://dc.lft.to/lastmile_qr_scan", "ios": "https://dc.lft.to/lastmile_qr_scan"}, "type": "electric_scooter", "lon": -77.03055633333334, "name": "21c302408351bec92c913b6a675eec25", "bike_id": "21c302408351bec92c913b6a675eec25", "fusion_lat": 0.0, "is_reserved": 0, "lat": 38.88415366666667, "fusion_lon": 0.0, "is_disabled": 0}, {"rental_uris": {"android": "https://dc.lft.to/lastmile_qr_scan", "ios": "https://dc.lft.to/lastmile_qr_scan"}, "type": "electric_scooter", "lon": -77.00259066666666, "name": "71bd3a959e84f904eddecf908330a393", "bike_id": "71bd3a959e84f904eddecf908330a393", "fusion_lat": 0.0, "is_reserved": 0, "lat": 38.90125366666667, "fusion_lon": 0.0, "is_disabled": 0}, {"rental_uris": {"android": "https://dc.lft.to/lastmile_qr_scan", "ios": "https://dc.lft.to/lastmile_qr_scan"}, "type": "electric_scooter", "lon": -77.01337283333334, "name": "32fbb2493deb27b1b7c48ed200a0064f", "bike_id": "32fbb2493deb27b1b7c48ed200a0064f", "fusion_lat": 0.0, "is_reserved": 0, "lat": 38.881265666666664, "fusion_lon": 0.0, "is_disabled": 0}, {"rental_uris": {"android": "https://dc.lft.to/lastmile_qr_scan", "ios": "https://dc.lft.to/lastmile_qr_scan"}, "type": "electric_scooter", "lon": -77.019616, "name": "7fe4e135e1c18c2258d6a43ac0fc6920", "bike_id": "7fe4e135e1c18c2258d6a43ac0fc6920", "fusion_lat": 0.0, "is_reserved": 0, "lat": 38.878478333333334, "fusion_lon": 0.0, "is_disabled": 0}, {"rental_uris": {"android": "https://dc.lft.to/lastmile_qr_scan", "ios": "https://dc.lft.to/lastmile_qr_scan"}, "type": "electric_scooter", "lon": -77.03880483333333, "name": "1d103439fdd1ad1cbd7acfb4521fcfa5", "bike_id": "1d103439fdd1ad1cbd7acfb4521fcfa5", "fusion_lat": 0.0, "is_reserved": 0, "lat": 38.9326325, "fusion_lon": 0.0, "is_disabled": 0}, {"rental_uris": {"android": "https://dc.lft.to/lastmile_qr_scan", "ios": "https://dc.lft.to/lastmile_qr_scan"}, "type": "electric_scooter", "lon": -77.00806833333333, "name": "383517556570a675b98f829d37b904ce", "bike_id": "383517556570a675b98f829d37b904ce", "fusion_lat": 0.0, "is_reserved": 0, "lat": 38.876597833333335, "fusion_lon": 0.0, "is_disabled": 0}, {"rental_uris": {"android": "https://dc.lft.to/lastmile_qr_scan", "ios": "https://dc.lft.to/lastmile_qr_scan"}, "type": "electric_scooter", "lon": -76.97734416666667, "name": "f3ffa636309a9eba3ef75f5f12780cdf", "bike_id": "f3ffa636309a9eba3ef75f5f12780cdf", "fusion_lat": 0.0, "is_reserved": 0, "lat": 38.872986, "fusion_lon": 0.0, "is_disabled": 0}, {"rental_uris": {"android": "https://dc.lft.to/lastmile_qr_scan", "ios": "https://dc.lft.to/lastmile_qr_scan"}, "type": "electric_scooter", "lon": -77.05516366666667, "name": "33f4576a7ee7026d10c8b946b22ef4be", "bike_id": "33f4576a7ee7026d10c8b946b22ef4be", "fusion_lat": 0.0, "is_reserved": 0, "lat": 38.929707666666665, "fusion_lon": 0.0, "is_disabled": 0}, {"rental_uris": {"android": "https://dc.lft.to/lastmile_qr_scan", "ios": "https://dc.lft.to/lastmile_qr_scan"}, "type": "electric_scooter", "lon": -76.98472916666667, "name": "79d49db6837ff000358b6bd30925d54a", "bike_id": "79d49db6837ff000358b6bd30925d54a", "fusion_lat": 0.0, "is_reserved": 0, "lat": 38.928997833333334, "fusion_lon": 0.0, "is_disabled": 0}, {"rental_uris": {"android": "https://dc.lft.to/lastmile_qr_scan", "ios": "https://dc.lft.to/lastmile_qr_scan"}, "type": "electric_scooter", "lon": -77.02503816666666, "name": "cb9a91257ccafd79f793c578f8b8cab2", "bike_id": "cb9a91257ccafd79f793c578f8b8cab2", "fusion_lat": 0.0, "is_reserved": 0, "lat": 38.94203316666667, "fusion_lon": 0.0, "is_disabled": 0}, {"rental_uris": {"android": "https://dc.lft.to/lastmile_qr_scan", "ios": "https://dc.lft.to/lastmile_qr_scan"}, "type": "electric_scooter", "lon": -77.0402645, "name": "3d05de7336fe73209f8f180cf7dc501b", "bike_id": "3d05de7336fe73209f8f180cf7dc501b", "fusion_lat": 0.0, "is_reserved": 0, "lat": 38.91839016666667, "fusion_lon": 0.0, "is_disabled": 0}, {"rental_uris": {"android": "https://dc.lft.to/lastmile_qr_scan", "ios": "https://dc.lft.to/lastmile_qr_scan"}, "type": "electric_scooter", "lon": -77.02759983333333, "name": "644c0d20dbb192e2d58b9f64956a6bf2", "bike_id": "644c0d20dbb192e2d58b9f64956a6bf2", "fusion_lat": 0.0, "is_reserved": 0, "lat": 38.95398, "fusion_lon": 0.0, "is_disabled": 0}, {"rental_uris": {"android": "https://dc.lft.to/lastmile_qr_scan", "ios": "https://dc.lft.to/lastmile_qr_scan"}, "type": "electric_scooter", "lon": -77.0048055, "name": "1fd3119ded58b47d004496e2471d1144", "bike_id": "1fd3119ded58b47d004496e2471d1144", "fusion_lat": 0.0, "is_reserved": 0, "lat": 38.925904833333334, "fusion_lon": 0.0, "is_disabled": 0}, {"rental_uris": {"android": "https://dc.lft.to/lastmile_qr_scan", "ios": "https://dc.lft.to/lastmile_qr_scan"}, "type": "electric_scooter", "lon": -77.03204066666666, "name": "ae631d2f72e14fb4356e416298787474", "bike_id": "ae631d2f72e14fb4356e416298787474", "fusion_lat": 0.0, "is_reserved": 0, "lat": 38.91864116666667, "fusion_lon": 0.0, "is_disabled": 0}, {"rental_uris": {"android": "https://dc.lft.to/lastmile_qr_scan", "ios": "https://dc.lft.to/lastmile_qr_scan"}, "type": "electric_bike", "lon": -77.02904, "name": "a6679fcbe862ca2992164adb0e3cedc4", "bike_id": "a6679fcbe862ca2992164adb0e3cedc4", "fusion_lat": 0.0, "is_reserved": 0, "lat": 38.892016, "fusion_lon": 0.0, "is_disabled": 0}, {"rental_uris": {"android": "https://dc.lft.to/lastmile_qr_scan", "ios": "https://dc.lft.to/lastmile_qr_scan"}, "type": "electric_scooter", "lon": -76.9826235, "name": "0baf10fe83d59ce40cfa0726ff70b27d", "bike_id": "0baf10fe83d59ce40cfa0726ff70b27d", "fusion_lat": 0.0, "is_reserved": 0, "lat": 38.8635525, "fusion_lon": 0.0, "is_disabled": 0}, {"rental_uris": {"android": "https://dc.lft.to/lastmile_qr_scan", "ios": "https://dc.lft.to/lastmile_qr_scan"}, "type": "electric_bike", "lon": -76.98878866666666, "name": "acac6b14bf30fa1b45d4795f6c7f487b", "bike_id": "acac6b14bf30fa1b45d4795f6c7f487b", "fusion_lat": 0.0, "is_reserved": 0, "lat": 38.92117866666667, "fusion_lon": 0.0, "is_disabled": 0}, {"rental_uris": {"android": "https://dc.lft.to/lastmile_qr_scan", "ios": "https://dc.lft.to/lastmile_qr_scan"}, "type": "electric_scooter", "lon": -76.9761545, "name": "df81e15956603d7de1eebe871dc4a16a", "bike_id": "df81e15956603d7de1eebe871dc4a16a", "fusion_lat": 0.0, "is_reserved": 0, "lat": 38.93146483333334, "fusion_lon": 0.0, "is_disabled": 0}, {"rental_uris": {"android": "https://dc.lft.to/lastmile_qr_scan", "ios": "https://dc.lft.to/lastmile_qr_scan"}, "type": "electric_bike", "lon": -76.95469816666666, "name": "79dddbeaeaa0ac94e0b57ed6f5fe3f91", "bike_id": "79dddbeaeaa0ac94e0b57ed6f5fe3f91", "fusion_lat": 0.0, "is_reserved": 0, "lat": 38.93569633333333, "fusion_lon": 0.0, "is_disabled": 0}, {"rental_uris": {"android": "https://dc.lft.to/lastmile_qr_scan", "ios": "https://dc.lft.to/lastmile_qr_scan"}, "type": "electric_scooter", "lon": -77.00208616666667, "name": "1e5b033609336212ac46af5f22db05b6", "bike_id": "1e5b033609336212ac46af5f22db05b6", "fusion_lat": 0.0, "is_reserved": 0, "lat": 38.9029475, "fusion_lon": 0.0, "is_disabled": 0}, {"rental_uris": {"android": "https://dc.lft.to/lastmile_qr_scan", "ios": "https://dc.lft.to/lastmile_qr_scan"}, "type": "electric_bike", "lon": -76.93190066666666, "name": "1c2410efd4286440568eb156dd10df9c", "bike_id": "1c2410efd4286440568eb156dd10df9c", "fusion_lat": 0.0, "is_reserved": 0, "lat": 38.8985465, "fusion_lon": 0.0, "is_disabled": 0}, {"rental_uris": {"android": "https://dc.lft.to/lastmile_qr_scan", "ios": "https://dc.lft.to/lastmile_qr_scan"}, "type": "electric_scooter", "lon": -77.03345566666667, "name": "609e0ef396b145e34f21e9b51939fd4a", "bike_id": "609e0ef396b145e34f21e9b51939fd4a", "fusion_lat": 0.0, "is_reserved": 0, "lat": 38.92062683333333, "fusion_lon": 0.0, "is_disabled": 0}, {"rental_uris": {"android": "https://dc.lft.to/lastmile_qr_scan", "ios": "https://dc.lft.to/lastmile_qr_scan"}, "type": "electric_scooter", "lon": -77.04244816666667, "name": "c2bf7d378c9f14d59e0ca81ac2f71a97", "bike_id": "c2bf7d378c9f14d59e0ca81ac2f71a97", "fusion_lat": 0.0, "is_reserved": 0, "lat": 38.917859166666666, "fusion_lon": 0.0, "is_disabled": 0}, {"rental_uris": {"android": "https://dc.lft.to/lastmile_qr_scan", "ios": "https://dc.lft.to/lastmile_qr_scan"}, "type": "electric_scooter", "lon": -77.03294433333333, "name": "e783d6789b27c6aeae137e7e91d9b960", "bike_id": "e783d6789b27c6aeae137e7e91d9b960", "fusion_lat": 0.0, "is_reserved": 0, "lat": 38.90844333333333, "fusion_lon": 0.0, "is_disabled": 0}, {"rental_uris": {"android": "https://dc.lft.to/lastmile_qr_scan", "ios": "https://dc.lft.to/lastmile_qr_scan"}, "type": "electric_scooter", "lon": -77.04159983333334, "name": "c4f362d60cbe2c9b6941057e2dc95a70", "bike_id": "c4f362d60cbe2c9b6941057e2dc95a70", "fusion_lat": 0.0, "is_reserved": 0, "lat": 38.91987266666667, "fusion_lon": 0.0, "is_disabled": 0}, {"rental_uris": {"android": "https://dc.lft.to/lastmile_qr_scan", "ios": "https://dc.lft.to/lastmile_qr_scan"}, "type": "electric_scooter", "lon": -77.03883933333333, "name": "a330df0a5e2a717a183fa79de4216030", "bike_id": "a330df0a5e2a717a183fa79de4216030", "fusion_lat": 0.0, "is_reserved": 0, "lat": 38.91489283333333, "fusion_lon": 0.0, "is_disabled": 0}, {"rental_uris": {"android": "https://dc.lft.to/lastmile_qr_scan", "ios": "https://dc.lft.to/lastmile_qr_scan"}, "type": "electric_scooter", "lon": -76.99152383333333, "name": "5d3b5c651f34855fcf69db1c8a23a4fc", "bike_id": "5d3b5c651f34855fcf69db1c8a23a4fc", "fusion_lat": 0.0, "is_reserved": 0, "lat": 38.873183833333336, "fusion_lon": 0.0, "is_disabled": 0}, {"rental_uris": {"android": "https://dc.lft.to/lastmile_qr_scan", "ios": "https://dc.lft.to/lastmile_qr_scan"}, "type": "electric_scooter", "lon": -77.03777, "name": "aa42058bee6f12e7bf08b1c03669b195", "bike_id": "aa42058bee6f12e7bf08b1c03669b195", "fusion_lat": 0.0, "is_reserved": 0, "lat": 38.92480233333333, "fusion_lon": 0.0, "is_disabled": 0}, {"rental_uris": {"android": "https://dc.lft.to/lastmile_qr_scan", "ios": "https://dc.lft.to/lastmile_qr_scan"}, "type": "electric_scooter", "lon": -77.01207716666667, "name": "21e7683b3bba9cc082f262d304505521", "bike_id": "21e7683b3bba9cc082f262d304505521", "fusion_lat": 0.0, "is_reserved": 0, "lat": 38.918186666666664, "fusion_lon": 0.0, "is_disabled": 0}, {"rental_uris": {"android": "https://dc.lft.to/lastmile_qr_scan", "ios": "https://dc.lft.to/lastmile_qr_scan"}, "type": "electric_scooter", "lon": -77.0272445, "name": "01469a5ea1d2b2f0d7a4ed62dd6fb0fb", "bike_id": "01469a5ea1d2b2f0d7a4ed62dd6fb0fb", "fusion_lat": 0.0, "is_reserved": 0, "lat": 38.93450633333333, "fusion_lon": 0.0, "is_disabled": 0}, {"rental_uris": {"android": "https://dc.lft.to/lastmile_qr_scan", "ios": "https://dc.lft.to/lastmile_qr_scan"}, "type": "electric_scooter", "lon": -76.97415816666667, "name": "b314556b3f5c5c12c69bd65af8948511", "bike_id": "b314556b3f5c5c12c69bd65af8948511", "fusion_lat": 0.0, "is_reserved": 0, "lat": 38.86567216666667, "fusion_lon": 0.0, "is_disabled": 0}, {"rental_uris": {"android": "https://dc.lft.to/lastmile_qr_scan", "ios": "https://dc.lft.to/lastmile_qr_scan"}, "type": "electric_scooter", "lon": -77.00280883333333, "name": "497e5e29d63d8eb60b1c4cc5ef169b91", "bike_id": "497e5e29d63d8eb60b1c4cc5ef169b91", "fusion_lat": 0.0, "is_reserved": 0, "lat": 38.93920933333333, "fusion_lon": 0.0, "is_disabled": 0}, {"rental_uris": {"android": "https://dc.lft.to/lastmile_qr_scan", "ios": "https://dc.lft.to/lastmile_qr_scan"}, "type": "electric_scooter", "lon": -76.93742833333333, "name": "cdf537cf8f6e2cba38d28ad78aff6c56", "bike_id": "cdf537cf8f6e2cba38d28ad78aff6c56", "fusion_lat": 0.0, "is_reserved": 0, "lat": 38.89014383333333, "fusion_lon": 0.0, "is_disabled": 0}, {"rental_uris": {"android": "https://dc.lft.to/lastmile_qr_scan", "ios": "https://dc.lft.to/lastmile_qr_scan"}, "type": "electric_scooter", "lon": -76.99078266666666, "name": "770e36863291ea501619dc082cc4f618", "bike_id": "770e36863291ea501619dc082cc4f618", "fusion_lat": 0.0, "is_reserved": 0, "lat": 38.90015616666667, "fusion_lon": 0.0, "is_disabled": 0}, {"rental_uris": {"android": "https://dc.lft.to/lastmile_qr_scan", "ios": "https://dc.lft.to/lastmile_qr_scan"}, "type": "electric_scooter", "lon": -77.04173916666667, "name": "6ea108d2345963f63ed94a7bc477ac45", "bike_id": "6ea108d2345963f63ed94a7bc477ac45", "fusion_lat": 0.0, "is_reserved": 0, "lat": 38.91346716666666, "fusion_lon": 0.0, "is_disabled": 0}, {"rental_uris": {"android": "https://dc.lft.to/lastmile_qr_scan", "ios": "https://dc.lft.to/lastmile_qr_scan"}, "type": "electric_scooter", "lon": -77.03675366666667, "name": "b90566087d2ec379f0a78c1d1cc2516d", "bike_id": "b90566087d2ec379f0a78c1d1cc2516d", "fusion_lat": 0.0, "is_reserved": 0, "lat": 38.936595, "fusion_lon": 0.0, "is_disabled": 0}, {"rental_uris": {"android": "https://dc.lft.to/lastmile_qr_scan", "ios": "https://dc.lft.to/lastmile_qr_scan"}, "type": "electric_scooter", "lon": -77.01929016666666, "name": "8fd5d0162b31546363b9a69ec3a1330e", "bike_id": "8fd5d0162b31546363b9a69ec3a1330e", "fusion_lat": 0.0, "is_reserved": 0, "lat": 38.93576066666667, "fusion_lon": 0.0, "is_disabled": 0}, {"rental_uris": {"android": "https://dc.lft.to/lastmile_qr_scan", "ios": "https://dc.lft.to/lastmile_qr_scan"}, "type": "electric_scooter", "lon": -77.005427, "name": "00025c4dff9d0c102f0e575ff26bde2d", "bike_id": "00025c4dff9d0c102f0e575ff26bde2d", "fusion_lat": 0.0, "is_reserved": 0, "lat": 38.878513, "fusion_lon": 0.0, "is_disabled": 0}, {"rental_uris": {"android": "https://dc.lft.to/lastmile_qr_scan", "ios": "https://dc.lft.to/lastmile_qr_scan"}, "type": "electric_scooter", "lon": -77.025025, "name": "d9b8e8868e23a39e75d98b0949a421ac", "bike_id": "d9b8e8868e23a39e75d98b0949a421ac", "fusion_lat": 0.0, "is_reserved": 0, "lat": 38.9016925, "fusion_lon": 0.0, "is_disabled": 0}, {"rental_uris": {"android": "https://dc.lft.to/lastmile_qr_scan", "ios": "https://dc.lft.to/lastmile_qr_scan"}, "type": "electric_scooter", "lon": -76.96428983333334, "name": "e4b10043fe24c9c7d68850feb2254685", "bike_id": "e4b10043fe24c9c7d68850feb2254685", "fusion_lat": 0.0, "is_reserved": 0, "lat": 38.9344775, "fusion_lon": 0.0, "is_disabled": 0}, {"rental_uris": {"android": "https://dc.lft.to/lastmile_qr_scan", "ios": "https://dc.lft.to/lastmile_qr_scan"}, "type": "electric_scooter", "lon": -77.03439716666666, "name": "7484e6b9d718d3515e85b156fef40340", "bike_id": "7484e6b9d718d3515e85b156fef40340", "fusion_lat": 0.0, "is_reserved": 0, "lat": 38.91805516666667, "fusion_lon": 0.0, "is_disabled": 0}, {"rental_uris": {"android": "https://dc.lft.to/lastmile_qr_scan", "ios": "https://dc.lft.to/lastmile_qr_scan"}, "type": "electric_scooter", "lon": -77.02702083333334, "name": "8b09ca6878043e6568ff8ce52614e208", "bike_id": "8b09ca6878043e6568ff8ce52614e208", "fusion_lat": 0.0, "is_reserved": 0, "lat": 38.9182625, "fusion_lon": 0.0, "is_disabled": 0}, {"rental_uris": {"android": "https://dc.lft.to/lastmile_qr_scan", "ios": "https://dc.lft.to/lastmile_qr_scan"}, "type": "electric_scooter", "lon": -77.04456633333334, "name": "9fadf4331ee6e8dc3116202344291a70", "bike_id": "9fadf4331ee6e8dc3116202344291a70", "fusion_lat": 0.0, "is_reserved": 0, "lat": 38.91891416666667, "fusion_lon": 0.0, "is_disabled": 0}, {"rental_uris": {"android": "https://dc.lft.to/lastmile_qr_scan", "ios": "https://dc.lft.to/lastmile_qr_scan"}, "type": "electric_scooter", "lon": -77.0343515, "name": "cd8815ca345a62514e9310612b248871", "bike_id": "cd8815ca345a62514e9310612b248871", "fusion_lat": 0.0, "is_reserved": 0, "lat": 38.902953833333335, "fusion_lon": 0.0, "is_disabled": 0}, {"rental_uris": {"android": "https://dc.lft.to/lastmile_qr_scan", "ios": "https://dc.lft.to/lastmile_qr_scan"}, "type": "electric_scooter", "lon": -77.023414, "name": "cc32224eef33c4e67e0a9fbf07cc25af", "bike_id": "cc32224eef33c4e67e0a9fbf07cc25af", "fusion_lat": 0.0, "is_reserved": 0, "lat": 38.962094, "fusion_lon": 0.0, "is_disabled": 0}, {"rental_uris": {"android": "https://dc.lft.to/lastmile_qr_scan", "ios": "https://dc.lft.to/lastmile_qr_scan"}, "type": "electric_scooter", "lon": -77.0454885, "name": "118da76d86344e13c2d56383c5e00010", "bike_id": "118da76d86344e13c2d56383c5e00010", "fusion_lat": 0.0, "is_reserved": 0, "lat": 38.91945966666667, "fusion_lon": 0.0, "is_disabled": 0}, {"rental_uris": {"android": "https://dc.lft.to/lastmile_qr_scan", "ios": "https://dc.lft.to/lastmile_qr_scan"}, "type": "electric_scooter", "lon": -76.99484383333333, "name": "47fae804da23f97570e87df909ae75f4", "bike_id": "47fae804da23f97570e87df909ae75f4", "fusion_lat": 0.0, "is_reserved": 0, "lat": 38.87735516666667, "fusion_lon": 0.0, "is_disabled": 0}, {"rental_uris": {"android": "https://dc.lft.to/lastmile_qr_scan", "ios": "https://dc.lft.to/lastmile_qr_scan"}, "type": "electric_scooter", "lon": -76.9899675, "name": "e30e4f64f8c5a4e5822b6d3a084065e7", "bike_id": "e30e4f64f8c5a4e5822b6d3a084065e7", "fusion_lat": 0.0, "is_reserved": 0, "lat": 38.86446683333333, "fusion_lon": 0.0, "is_disabled": 0}, {"rental_uris": {"android": "https://dc.lft.to/lastmile_qr_scan", "ios": "https://dc.lft.to/lastmile_qr_scan"}, "type": "electric_scooter", "lon": -76.9463115, "name": "3bab00e9519f738fa5b5e8a8362a1fe4", "bike_id": "3bab00e9519f738fa5b5e8a8362a1fe4", "fusion_lat": 0.0, "is_reserved": 0, "lat": 38.89847016666667, "fusion_lon": 0.0, "is_disabled": 0}, {"rental_uris": {"android": "https://dc.lft.to/lastmile_qr_scan", "ios": "https://dc.lft.to/lastmile_qr_scan"}, "type": "electric_scooter", "lon": -77.02354166666667, "name": "8773b7110f7c93a192e99882d61e9314", "bike_id": "8773b7110f7c93a192e99882d61e9314", "fusion_lat": 0.0, "is_reserved": 0, "lat": 38.892231333333335, "fusion_lon": 0.0, "is_disabled": 0}, {"rental_uris": {"android": "https://dc.lft.to/lastmile_qr_scan", "ios": "https://dc.lft.to/lastmile_qr_scan"}, "type": "electric_scooter", "lon": -77.021769, "name": "2cb9f7f908667ac8e55f4976c8f78b30", "bike_id": "2cb9f7f908667ac8e55f4976c8f78b30", "fusion_lat": 0.0, "is_reserved": 0, "lat": 38.88490933333333, "fusion_lon": 0.0, "is_disabled": 0}, {"rental_uris": {"android": "https://dc.lft.to/lastmile_qr_scan", "ios": "https://dc.lft.to/lastmile_qr_scan"}, "type": "electric_bike", "lon": -77.10992183333333, "name": "d52ebf836a09e83cec53449fbda9ceaf", "bike_id": "d52ebf836a09e83cec53449fbda9ceaf", "fusion_lat": 0.0, "is_reserved": 0, "lat": 38.87056, "fusion_lon": 0.0, "is_disabled": 0}, {"rental_uris": {"android": "https://dc.lft.to/lastmile_qr_scan", "ios": "https://dc.lft.to/lastmile_qr_scan"}, "type": "electric_scooter", "lon": -76.98411983333334, "name": "ace3405cdaa4c8db9ff576b52fdfcd5f", "bike_id": "ace3405cdaa4c8db9ff576b52fdfcd5f", "fusion_lat": 0.0, "is_reserved": 0, "lat": 38.913961, "fusion_lon": 0.0, "is_disabled": 0}, {"rental_uris": {"android": "https://dc.lft.to/lastmile_qr_scan", "ios": "https://dc.lft.to/lastmile_qr_scan"}, "type": "electric_scooter", "lon": -77.0409445, "name": "fc3079e0c79885f5a3fe5f1598475ecb", "bike_id": "fc3079e0c79885f5a3fe5f1598475ecb", "fusion_lat": 0.0, "is_reserved": 0, "lat": 38.917803666666664, "fusion_lon": 0.0, "is_disabled": 0}, {"rental_uris": {"android": "https://dc.lft.to/lastmile_qr_scan", "ios": "https://dc.lft.to/lastmile_qr_scan"}, "type": "electric_scooter", "lon": -76.9383795, "name": "acff11330fad8154e01c3dec25e209f7", "bike_id": "acff11330fad8154e01c3dec25e209f7", "fusion_lat": 0.0, "is_reserved": 0, "lat": 38.89759733333333, "fusion_lon": 0.0, "is_disabled": 0}, {"rental_uris": {"android": "https://dc.lft.to/lastmile_qr_scan", "ios": "https://dc.lft.to/lastmile_qr_scan"}, "type": "electric_scooter", "lon": -77.08209983333333, "name": "3ba652ef95e23c188095e076d7b68d6b", "bike_id": "3ba652ef95e23c188095e076d7b68d6b", "fusion_lat": 0.0, "is_reserved": 0, "lat": 38.93552316666667, "fusion_lon": 0.0, "is_disabled": 0}, {"rental_uris": {"android": "https://dc.lft.to/lastmile_qr_scan", "ios": "https://dc.lft.to/lastmile_qr_scan"}, "type": "electric_scooter", "lon": -77.00920933333333, "name": "6add03b1b0f6e6c92356bac8e3923977", "bike_id": "6add03b1b0f6e6c92356bac8e3923977", "fusion_lat": 0.0, "is_reserved": 0, "lat": 38.9105495, "fusion_lon": 0.0, "is_disabled": 0}, {"rental_uris": {"android": "https://dc.lft.to/lastmile_qr_scan", "ios": "https://dc.lft.to/lastmile_qr_scan"}, "type": "electric_scooter", "lon": -77.01070966666667, "name": "8513159550bfb0dacf6baa24a567c939", "bike_id": "8513159550bfb0dacf6baa24a567c939", "fusion_lat": 0.0, "is_reserved": 0, "lat": 38.896225666666666, "fusion_lon": 0.0, "is_disabled": 0}, {"rental_uris": {"android": "https://dc.lft.to/lastmile_qr_scan", "ios": "https://dc.lft.to/lastmile_qr_scan"}, "type": "electric_scooter", "lon": -77.03057983333333, "name": "af9474c1ab8788a2e51450f544873841", "bike_id": "af9474c1ab8788a2e51450f544873841", "fusion_lat": 0.0, "is_reserved": 0, "lat": 38.919234333333335, "fusion_lon": 0.0, "is_disabled": 0}, {"rental_uris": {"android": "https://dc.lft.to/lastmile_qr_scan", "ios": "https://dc.lft.to/lastmile_qr_scan"}, "type": "electric_scooter", "lon": -77.02511383333334, "name": "724d0ece37ef9bbc9038dc84b74e1d32", "bike_id": "724d0ece37ef9bbc9038dc84b74e1d32", "fusion_lat": 0.0, "is_reserved": 0, "lat": 38.94178983333333, "fusion_lon": 0.0, "is_disabled": 0}, {"rental_uris": {"android": "https://dc.lft.to/lastmile_qr_scan", "ios": "https://dc.lft.to/lastmile_qr_scan"}, "type": "electric_scooter", "lon": -77.00345616666667, "name": "8442f04a6b0f8e169f718166efa92163", "bike_id": "8442f04a6b0f8e169f718166efa92163", "fusion_lat": 0.0, "is_reserved": 0, "lat": 38.91347616666667, "fusion_lon": 0.0, "is_disabled": 0}, {"rental_uris": {"android": "https://dc.lft.to/lastmile_qr_scan", "ios": "https://dc.lft.to/lastmile_qr_scan"}, "type": "electric_scooter", "lon": -76.948397, "name": "33937e3f5396e4a352b68522aeec1cf6", "bike_id": "33937e3f5396e4a352b68522aeec1cf6", "fusion_lat": 0.0, "is_reserved": 0, "lat": 38.89490216666667, "fusion_lon": 0.0, "is_disabled": 0}, {"rental_uris": {"android": "https://dc.lft.to/lastmile_qr_scan", "ios": "https://dc.lft.to/lastmile_qr_scan"}, "type": "electric_scooter", "lon": -76.9921505, "name": "3d87e33ca37eee99de18ba6455e35e6d", "bike_id": "3d87e33ca37eee99de18ba6455e35e6d", "fusion_lat": 0.0, "is_reserved": 0, "lat": 38.904724, "fusion_lon": 0.0, "is_disabled": 0}, {"rental_uris": {"android": "https://dc.lft.to/lastmile_qr_scan", "ios": "https://dc.lft.to/lastmile_qr_scan"}, "type": "electric_scooter", "lon": -76.9946655, "name": "63b3fcee17cdff954261655171d067fd", "bike_id": "63b3fcee17cdff954261655171d067fd", "fusion_lat": 0.0, "is_reserved": 0, "lat": 38.896223166666665, "fusion_lon": 0.0, "is_disabled": 0}, {"rental_uris": {"android": "https://dc.lft.to/lastmile_qr_scan", "ios": "https://dc.lft.to/lastmile_qr_scan"}, "type": "electric_scooter", "lon": -77.061535, "name": "f83f6b864affc9ca154cd30096f22229", "bike_id": "f83f6b864affc9ca154cd30096f22229", "fusion_lat": 0.0, "is_reserved": 0, "lat": 38.91061883333333, "fusion_lon": 0.0, "is_disabled": 0}, {"rental_uris": {"android": "https://dc.lft.to/lastmile_qr_scan", "ios": "https://dc.lft.to/lastmile_qr_scan"}, "type": "electric_scooter", "lon": -76.946355, "name": "95a7880ac2f5ff99a95f769b24cdd011", "bike_id": "95a7880ac2f5ff99a95f769b24cdd011", "fusion_lat": 0.0, "is_reserved": 0, "lat": 38.898494166666666, "fusion_lon": 0.0, "is_disabled": 0}, {"rental_uris": {"android": "https://dc.lft.to/lastmile_qr_scan", "ios": "https://dc.lft.to/lastmile_qr_scan"}, "type": "electric_scooter", "lon": -77.0308535, "name": "6a9da1705c9c80fb4f31d97c2919a891", "bike_id": "6a9da1705c9c80fb4f31d97c2919a891", "fusion_lat": 0.0, "is_reserved": 0, "lat": 38.92241933333333, "fusion_lon": 0.0, "is_disabled": 0}, {"rental_uris": {"android": "https://dc.lft.to/lastmile_qr_scan", "ios": "https://dc.lft.to/lastmile_qr_scan"}, "type": "electric_scooter", "lon": -77.06494033333334, "name": "da74f2ddf887b91d60c780cbef4c4403", "bike_id": "da74f2ddf887b91d60c780cbef4c4403", "fusion_lat": 0.0, "is_reserved": 0, "lat": 38.90522166666667, "fusion_lon": 0.0, "is_disabled": 0}, {"rental_uris": {"android": "https://dc.lft.to/lastmile_qr_scan", "ios": "https://dc.lft.to/lastmile_qr_scan"}, "type": "electric_scooter", "lon": -77.03149316666666, "name": "84015c9d6bce623c8c71fb9a363e9107", "bike_id": "84015c9d6bce623c8c71fb9a363e9107", "fusion_lat": 0.0, "is_reserved": 0, "lat": 38.9046345, "fusion_lon": 0.0, "is_disabled": 0}, {"rental_uris": {"android": "https://dc.lft.to/lastmile_qr_scan", "ios": "https://dc.lft.to/lastmile_qr_scan"}, "type": "electric_scooter", "lon": -76.94722633333333, "name": "d4da47fbe89170ac9a23e41ef952c303", "bike_id": "d4da47fbe89170ac9a23e41ef952c303", "fusion_lat": 0.0, "is_reserved": 0, "lat": 38.897421333333334, "fusion_lon": 0.0, "is_disabled": 0}, {"rental_uris": {"android": "https://dc.lft.to/lastmile_qr_scan", "ios": "https://dc.lft.to/lastmile_qr_scan"}, "type": "electric_scooter", "lon": -77.05919216666666, "name": "790ea7ea1ebd37aaa5a0d35982e1cdbf", "bike_id": "790ea7ea1ebd37aaa5a0d35982e1cdbf", "fusion_lat": 0.0, "is_reserved": 0, "lat": 38.905411, "fusion_lon": 0.0, "is_disabled": 0}, {"rental_uris": {"android": "https://dc.lft.to/lastmile_qr_scan", "ios": "https://dc.lft.to/lastmile_qr_scan"}, "type": "electric_scooter", "lon": -77.02201983333333, "name": "549ffb4e8b65453c477879b4fd743c55", "bike_id": "549ffb4e8b65453c477879b4fd743c55", "fusion_lat": 0.0, "is_reserved": 0, "lat": 38.916949833333334, "fusion_lon": 0.0, "is_disabled": 0}, {"rental_uris": {"android": "https://dc.lft.to/lastmile_qr_scan", "ios": "https://dc.lft.to/lastmile_qr_scan"}, "type": "electric_scooter", "lon": -76.9812005, "name": "63387e92bd5532dd8c757d315c636676", "bike_id": "63387e92bd5532dd8c757d315c636676", "fusion_lat": 0.0, "is_reserved": 0, "lat": 38.891989, "fusion_lon": 0.0, "is_disabled": 0}, {"rental_uris": {"android": "https://dc.lft.to/lastmile_qr_scan", "ios": "https://dc.lft.to/lastmile_qr_scan"}, "type": "electric_scooter", "lon": -77.01949916666666, "name": "c6a5cbc371d8a66799bb3f6972c00c56", "bike_id": "c6a5cbc371d8a66799bb3f6972c00c56", "fusion_lat": 0.0, "is_reserved": 0, "lat": 38.9225495, "fusion_lon": 0.0, "is_disabled": 0}, {"rental_uris": {"android": "https://dc.lft.to/lastmile_qr_scan", "ios": "https://dc.lft.to/lastmile_qr_scan"}, "type": "electric_scooter", "lon": -77.00743983333334, "name": "9685f5db82c8c86de6c3aee0f12b0852", "bike_id": "9685f5db82c8c86de6c3aee0f12b0852", "fusion_lat": 0.0, "is_reserved": 0, "lat": 38.87658033333334, "fusion_lon": 0.0, "is_disabled": 0}, {"rental_uris": {"android": "https://dc.lft.to/lastmile_qr_scan", "ios": "https://dc.lft.to/lastmile_qr_scan"}, "type": "electric_scooter", "lon": -76.95520383333333, "name": "3df23dab4334733bebf606873e8eef9c", "bike_id": "3df23dab4334733bebf606873e8eef9c", "fusion_lat": 0.0, "is_reserved": 0, "lat": 38.890566, "fusion_lon": 0.0, "is_disabled": 0}, {"rental_uris": {"android": "https://dc.lft.to/lastmile_qr_scan", "ios": "https://dc.lft.to/lastmile_qr_scan"}, "type": "electric_scooter", "lon": -77.029715, "name": "8dc5ad0dc70cbbc8e65b8c0eb15b8830", "bike_id": "8dc5ad0dc70cbbc8e65b8c0eb15b8830", "fusion_lat": 0.0, "is_reserved": 0, "lat": 38.92314783333333, "fusion_lon": 0.0, "is_disabled": 0}, {"rental_uris": {"android": "https://dc.lft.to/lastmile_qr_scan", "ios": "https://dc.lft.to/lastmile_qr_scan"}, "type": "electric_scooter", "lon": -77.02703616666666, "name": "0709601e5d33b9eb36ceeb73ac4c30c5", "bike_id": "0709601e5d33b9eb36ceeb73ac4c30c5", "fusion_lat": 0.0, "is_reserved": 0, "lat": 38.906726, "fusion_lon": 0.0, "is_disabled": 0}, {"rental_uris": {"android": "https://dc.lft.to/lastmile_qr_scan", "ios": "https://dc.lft.to/lastmile_qr_scan"}, "type": "electric_scooter", "lon": -77.03495083333334, "name": "caa6eb485bf84bcc148a08616f4dc695", "bike_id": "caa6eb485bf84bcc148a08616f4dc695", "fusion_lat": 0.0, "is_reserved": 0, "lat": 38.935728833333336, "fusion_lon": 0.0, "is_disabled": 0}, {"rental_uris": {"android": "https://dc.lft.to/lastmile_qr_scan", "ios": "https://dc.lft.to/lastmile_qr_scan"}, "type": "electric_bike", "lon": -76.9856175, "name": "5a85a80f6dbc1017c2b296c0efc28850", "bike_id": "5a85a80f6dbc1017c2b296c0efc28850", "fusion_lat": 0.0, "is_reserved": 0, "lat": 38.868928833333335, "fusion_lon": 0.0, "is_disabled": 0}, {"rental_uris": {"android": "https://dc.lft.to/lastmile_qr_scan", "ios": "https://dc.lft.to/lastmile_qr_scan"}, "type": "electric_scooter", "lon": -77.02693233333333, "name": "69707bee21a82145c453d2395de470da", "bike_id": "69707bee21a82145c453d2395de470da", "fusion_lat": 0.0, "is_reserved": 0, "lat": 38.89987033333333, "fusion_lon": 0.0, "is_disabled": 0}, {"rental_uris": {"android": "https://dc.lft.to/lastmile_qr_scan", "ios": "https://dc.lft.to/lastmile_qr_scan"}, "type": "electric_scooter", "lon": -77.00307266666667, "name": "4cf04677542cdbf6f097ca1cf8ea36eb", "bike_id": "4cf04677542cdbf6f097ca1cf8ea36eb", "fusion_lat": 0.0, "is_reserved": 0, "lat": 38.908883833333334, "fusion_lon": 0.0, "is_disabled": 0}, {"rental_uris": {"android": "https://dc.lft.to/lastmile_qr_scan", "ios": "https://dc.lft.to/lastmile_qr_scan"}, "type": "electric_scooter", "lon": -77.0483865, "name": "1605ee965b06fc076b3ceebb44368270", "bike_id": "1605ee965b06fc076b3ceebb44368270", "fusion_lat": 0.0, "is_reserved": 0, "lat": 38.91625166666667, "fusion_lon": 0.0, "is_disabled": 0}, {"rental_uris": {"android": "https://dc.lft.to/lastmile_qr_scan", "ios": "https://dc.lft.to/lastmile_qr_scan"}, "type": "electric_scooter", "lon": -77.04230066666666, "name": "5b8fe3728a128dd4f0bc995a80f60d11", "bike_id": "5b8fe3728a128dd4f0bc995a80f60d11", "fusion_lat": 0.0, "is_reserved": 0, "lat": 38.91112183333333, "fusion_lon": 0.0, "is_disabled": 0}, {"rental_uris": {"android": "https://dc.lft.to/lastmile_qr_scan", "ios": "https://dc.lft.to/lastmile_qr_scan"}, "type": "electric_scooter", "lon": -77.01825516666666, "name": "6f8171c504f9d5f2fad394f8fd9a2097", "bike_id": "6f8171c504f9d5f2fad394f8fd9a2097", "fusion_lat": 0.0, "is_reserved": 0, "lat": 38.911181666666664, "fusion_lon": 0.0, "is_disabled": 0}, {"rental_uris": {"android": "https://dc.lft.to/lastmile_qr_scan", "ios": "https://dc.lft.to/lastmile_qr_scan"}, "type": "electric_scooter", "lon": -77.02696733333333, "name": "7f3c5f9a89577507aefc57efaf2dcd18", "bike_id": "7f3c5f9a89577507aefc57efaf2dcd18", "fusion_lat": 0.0, "is_reserved": 0, "lat": 38.9084455, "fusion_lon": 0.0, "is_disabled": 0}, {"rental_uris": {"android": "https://dc.lft.to/lastmile_qr_scan", "ios": "https://dc.lft.to/lastmile_qr_scan"}, "type": "electric_scooter", "lon": -77.03481233333333, "name": "e5d2998809aa733c87660470db315009", "bike_id": "e5d2998809aa733c87660470db315009", "fusion_lat": 0.0, "is_reserved": 0, "lat": 38.924828833333336, "fusion_lon": 0.0, "is_disabled": 0}, {"rental_uris": {"android": "https://dc.lft.to/lastmile_qr_scan", "ios": "https://dc.lft.to/lastmile_qr_scan"}, "type": "electric_bike", "lon": -77.06948033333333, "name": "8c7f41e9142427334d3d036ceb42a500", "bike_id": "8c7f41e9142427334d3d036ceb42a500", "fusion_lat": 0.0, "is_reserved": 0, "lat": 38.990495, "fusion_lon": 0.0, "is_disabled": 0}, {"rental_uris": {"android": "https://dc.lft.to/lastmile_qr_scan", "ios": "https://dc.lft.to/lastmile_qr_scan"}, "type": "electric_scooter", "lon": -76.98243566666666, "name": "df40d763cfc511ed02d27121a391c2c4", "bike_id": "df40d763cfc511ed02d27121a391c2c4", "fusion_lat": 0.0, "is_reserved": 0, "lat": 38.90312083333333, "fusion_lon": 0.0, "is_disabled": 0}, {"rental_uris": {"android": "https://dc.lft.to/lastmile_qr_scan", "ios": "https://dc.lft.to/lastmile_qr_scan"}, "type": "electric_scooter", "lon": -77.02504433333333, "name": "c237b681c825672e1ceaaf0968194a34", "bike_id": "c237b681c825672e1ceaaf0968194a34", "fusion_lat": 0.0, "is_reserved": 0, "lat": 38.9264305, "fusion_lon": 0.0, "is_disabled": 0}, {"rental_uris": {"android": "https://dc.lft.to/lastmile_qr_scan", "ios": "https://dc.lft.to/lastmile_qr_scan"}, "type": "electric_scooter", "lon": -77.01697033333333, "name": "ca39e05a35dfe3cab423552499b3415c", "bike_id": "ca39e05a35dfe3cab423552499b3415c", "fusion_lat": 0.0, "is_reserved": 0, "lat": 38.883568833333335, "fusion_lon": 0.0, "is_disabled": 0}, {"rental_uris": {"android": "https://dc.lft.to/lastmile_qr_scan", "ios": "https://dc.lft.to/lastmile_qr_scan"}, "type": "electric_scooter", "lon": -77.0382925, "name": "dd844e58f164573ffdc76ddd05ea151d", "bike_id": "dd844e58f164573ffdc76ddd05ea151d", "fusion_lat": 0.0, "is_reserved": 0, "lat": 38.903249833333334, "fusion_lon": 0.0, "is_disabled": 0}, {"rental_uris": {"android": "https://dc.lft.to/lastmile_qr_scan", "ios": "https://dc.lft.to/lastmile_qr_scan"}, "type": "electric_scooter", "lon": -76.99031083333334, "name": "436af1038b6ae9c50631b734987b53bb", "bike_id": "436af1038b6ae9c50631b734987b53bb", "fusion_lat": 0.0, "is_reserved": 0, "lat": 38.888744333333335, "fusion_lon": 0.0, "is_disabled": 0}, {"rental_uris": {"android": "https://dc.lft.to/lastmile_qr_scan", "ios": "https://dc.lft.to/lastmile_qr_scan"}, "type": "electric_scooter", "lon": -77.0344325, "name": "75b672ff76940ddf3e48324d09a914d8", "bike_id": "75b672ff76940ddf3e48324d09a914d8", "fusion_lat": 0.0, "is_reserved": 0, "lat": 38.928696333333335, "fusion_lon": 0.0, "is_disabled": 0}, {"rental_uris": {"android": "https://dc.lft.to/lastmile_qr_scan", "ios": "https://dc.lft.to/lastmile_qr_scan"}, "type": "electric_scooter", "lon": -77.028859, "name": "ce0c326c1e0dbf9b57f77c009c9ebd24", "bike_id": "ce0c326c1e0dbf9b57f77c009c9ebd24", "fusion_lat": 0.0, "is_reserved": 0, "lat": 38.903689166666666, "fusion_lon": 0.0, "is_disabled": 0}, {"rental_uris": {"android": "https://dc.lft.to/lastmile_qr_scan", "ios": "https://dc.lft.to/lastmile_qr_scan"}, "type": "electric_scooter", "lon": -77.01954033333334, "name": "8e21edb29ecbdc9a4a3bba1fd03d645b", "bike_id": "8e21edb29ecbdc9a4a3bba1fd03d645b", "fusion_lat": 0.0, "is_reserved": 0, "lat": 38.87653383333333, "fusion_lon": 0.0, "is_disabled": 0}, {"rental_uris": {"android": "https://dc.lft.to/lastmile_qr_scan", "ios": "https://dc.lft.to/lastmile_qr_scan"}, "type": "electric_scooter", "lon": -76.93787266666666, "name": "e62ee4b2a52dea3a345816bbe1ee4dd9", "bike_id": "e62ee4b2a52dea3a345816bbe1ee4dd9", "fusion_lat": 0.0, "is_reserved": 0, "lat": 38.89978083333333, "fusion_lon": 0.0, "is_disabled": 0}, {"rental_uris": {"android": "https://dc.lft.to/lastmile_qr_scan", "ios": "https://dc.lft.to/lastmile_qr_scan"}, "type": "electric_scooter", "lon": -76.99026283333333, "name": "11247dcb025fba1823fdc5239ab54b27", "bike_id": "11247dcb025fba1823fdc5239ab54b27", "fusion_lat": 0.0, "is_reserved": 0, "lat": 38.86408133333333, "fusion_lon": 0.0, "is_disabled": 0}, {"rental_uris": {"android": "https://dc.lft.to/lastmile_qr_scan", "ios": "https://dc.lft.to/lastmile_qr_scan"}, "type": "electric_scooter", "lon": -76.99024516666667, "name": "b8ece59a0d80bad1bb3a0cb151b002a6", "bike_id": "b8ece59a0d80bad1bb3a0cb151b002a6", "fusion_lat": 0.0, "is_reserved": 0, "lat": 38.901547666666666, "fusion_lon": 0.0, "is_disabled": 0}, {"rental_uris": {"android": "https://dc.lft.to/lastmile_qr_scan", "ios": "https://dc.lft.to/lastmile_qr_scan"}, "type": "electric_scooter", "lon": -77.07080916666666, "name": "df9abc6be1dfe5cb98bfbf7538a96798", "bike_id": "df9abc6be1dfe5cb98bfbf7538a96798", "fusion_lat": 0.0, "is_reserved": 0, "lat": 38.9390795, "fusion_lon": 0.0, "is_disabled": 0}, {"rental_uris": {"android": "https://dc.lft.to/lastmile_qr_scan", "ios": "https://dc.lft.to/lastmile_qr_scan"}, "type": "electric_bike", "lon": -76.93187666666667, "name": "2e4f6c07b5e8546856be92840cec9274", "bike_id": "2e4f6c07b5e8546856be92840cec9274", "fusion_lat": 0.0, "is_reserved": 0, "lat": 38.898532333333335, "fusion_lon": 0.0, "is_disabled": 0}, {"rental_uris": {"android": "https://dc.lft.to/lastmile_qr_scan", "ios": "https://dc.lft.to/lastmile_qr_scan"}, "type": "electric_scooter", "lon": -77.02667766666667, "name": "a1adceb78909a7e4444ac104e0328c96", "bike_id": "a1adceb78909a7e4444ac104e0328c96", "fusion_lat": 0.0, "is_reserved": 0, "lat": 38.90249633333333, "fusion_lon": 0.0, "is_disabled": 0}, {"rental_uris": {"android": "https://dc.lft.to/lastmile_qr_scan", "ios": "https://dc.lft.to/lastmile_qr_scan"}, "type": "electric_scooter", "lon": -77.04963733333334, "name": "511efd029f4ed699965eb83aa1f87347", "bike_id": "511efd029f4ed699965eb83aa1f87347", "fusion_lat": 0.0, "is_reserved": 0, "lat": 38.9126665, "fusion_lon": 0.0, "is_disabled": 0}, {"rental_uris": {"android": "https://dc.lft.to/lastmile_qr_scan", "ios": "https://dc.lft.to/lastmile_qr_scan"}, "type": "electric_scooter", "lon": -77.04222916666667, "name": "96819542e5b26a34460d7776f26f82fa", "bike_id": "96819542e5b26a34460d7776f26f82fa", "fusion_lat": 0.0, "is_reserved": 0, "lat": 38.92624583333333, "fusion_lon": 0.0, "is_disabled": 0}, {"rental_uris": {"android": "https://dc.lft.to/lastmile_qr_scan", "ios": "https://dc.lft.to/lastmile_qr_scan"}, "type": "electric_scooter", "lon": -77.02338966666667, "name": "12d08d997d231f8345c8d0d748b7e078", "bike_id": "12d08d997d231f8345c8d0d748b7e078", "fusion_lat": 0.0, "is_reserved": 0, "lat": 38.92975883333333, "fusion_lon": 0.0, "is_disabled": 0}, {"rental_uris": {"android": "https://dc.lft.to/lastmile_qr_scan", "ios": "https://dc.lft.to/lastmile_qr_scan"}, "type": "electric_scooter", "lon": -76.98777083333333, "name": "6c3ae22f87bc46e9ecde97666126a0a1", "bike_id": "6c3ae22f87bc46e9ecde97666126a0a1", "fusion_lat": 0.0, "is_reserved": 0, "lat": 38.90034216666667, "fusion_lon": 0.0, "is_disabled": 0}, {"rental_uris": {"android": "https://dc.lft.to/lastmile_qr_scan", "ios": "https://dc.lft.to/lastmile_qr_scan"}, "type": "electric_bike", "lon": -76.923389, "name": "07ef37d78f28f6d3b3c42f8364f4603d", "bike_id": "07ef37d78f28f6d3b3c42f8364f4603d", "fusion_lat": 0.0, "is_reserved": 0, "lat": 38.8879345, "fusion_lon": 0.0, "is_disabled": 0}, {"rental_uris": {"android": "https://dc.lft.to/lastmile_qr_scan", "ios": "https://dc.lft.to/lastmile_qr_scan"}, "type": "electric_scooter", "lon": -77.02983116666667, "name": "c839f40c6b7780ceed9e25ee89144bab", "bike_id": "c839f40c6b7780ceed9e25ee89144bab", "fusion_lat": 0.0, "is_reserved": 0, "lat": 38.9375935, "fusion_lon": 0.0, "is_disabled": 0}, {"rental_uris": {"android": "https://dc.lft.to/lastmile_qr_scan", "ios": "https://dc.lft.to/lastmile_qr_scan"}, "type": "electric_bike", "lon": -77.02975533333333, "name": "42d857d21ebda5acce05da6ff9705151", "bike_id": "42d857d21ebda5acce05da6ff9705151", "fusion_lat": 0.0, "is_reserved": 0, "lat": 38.936991666666664, "fusion_lon": 0.0, "is_disabled": 0}, {"rental_uris": {"android": "https://dc.lft.to/lastmile_qr_scan", "ios": "https://dc.lft.to/lastmile_qr_scan"}, "type": "electric_scooter", "lon": -77.07274166666667, "name": "87170f158a3e274bbb5a5531793c6c75", "bike_id": "87170f158a3e274bbb5a5531793c6c75", "fusion_lat": 0.0, "is_reserved": 0, "lat": 38.9348175, "fusion_lon": 0.0, "is_disabled": 0}, {"rental_uris": {"android": "https://dc.lft.to/lastmile_qr_scan", "ios": "https://dc.lft.to/lastmile_qr_scan"}, "type": "electric_scooter", "lon": -76.99024283333333, "name": "58b00dee50dc1bb74d4d6065aa456fef", "bike_id": "58b00dee50dc1bb74d4d6065aa456fef", "fusion_lat": 0.0, "is_reserved": 0, "lat": 38.86409233333333, "fusion_lon": 0.0, "is_disabled": 0}, {"rental_uris": {"android": "https://dc.lft.to/lastmile_qr_scan", "ios": "https://dc.lft.to/lastmile_qr_scan"}, "type": "electric_scooter", "lon": -77.031787, "name": "272bbfadfd536ad57297902cc3404166", "bike_id": "272bbfadfd536ad57297902cc3404166", "fusion_lat": 0.0, "is_reserved": 0, "lat": 38.90161533333333, "fusion_lon": 0.0, "is_disabled": 0}, {"rental_uris": {"android": "https://dc.lft.to/lastmile_qr_scan", "ios": "https://dc.lft.to/lastmile_qr_scan"}, "type": "electric_scooter", "lon": -77.03507083333334, "name": "67c638b75e3f58b896aea36949bd438c", "bike_id": "67c638b75e3f58b896aea36949bd438c", "fusion_lat": 0.0, "is_reserved": 0, "lat": 38.92151416666667, "fusion_lon": 0.0, "is_disabled": 0}, {"rental_uris": {"android": "https://dc.lft.to/lastmile_qr_scan", "ios": "https://dc.lft.to/lastmile_qr_scan"}, "type": "electric_scooter", "lon": -76.99364016666667, "name": "996f14e15fa9785a39adc1ee6a244ff3", "bike_id": "996f14e15fa9785a39adc1ee6a244ff3", "fusion_lat": 0.0, "is_reserved": 0, "lat": 38.928454333333335, "fusion_lon": 0.0, "is_disabled": 0}, {"rental_uris": {"android": "https://dc.lft.to/lastmile_qr_scan", "ios": "https://dc.lft.to/lastmile_qr_scan"}, "type": "electric_scooter", "lon": -77.058823, "name": "cd3ff3a28572286c9878569d13fb3102", "bike_id": "cd3ff3a28572286c9878569d13fb3102", "fusion_lat": 0.0, "is_reserved": 0, "lat": 38.93636933333333, "fusion_lon": 0.0, "is_disabled": 0}, {"rental_uris": {"android": "https://dc.lft.to/lastmile_qr_scan", "ios": "https://dc.lft.to/lastmile_qr_scan"}, "type": "electric_scooter", "lon": -76.99411383333333, "name": "ac103ef37e25f4f4cde5d8a699ebfcf0", "bike_id": "ac103ef37e25f4f4cde5d8a699ebfcf0", "fusion_lat": 0.0, "is_reserved": 0, "lat": 38.9227275, "fusion_lon": 0.0, "is_disabled": 0}, {"rental_uris": {"android": "https://dc.lft.to/lastmile_qr_scan", "ios": "https://dc.lft.to/lastmile_qr_scan"}, "type": "electric_scooter", "lon": -76.99007533333334, "name": "b594881418bf370f4e1cf0c0f5c16b9d", "bike_id": "b594881418bf370f4e1cf0c0f5c16b9d", "fusion_lat": 0.0, "is_reserved": 0, "lat": 38.865069, "fusion_lon": 0.0, "is_disabled": 0}, {"rental_uris": {"android": "https://dc.lft.to/lastmile_qr_scan", "ios": "https://dc.lft.to/lastmile_qr_scan"}, "type": "electric_scooter", "lon": -76.99075616666667, "name": "b7f65381138793d3bf37f2c9dc1bf285", "bike_id": "b7f65381138793d3bf37f2c9dc1bf285", "fusion_lat": 0.0, "is_reserved": 0, "lat": 38.86056583333333, "fusion_lon": 0.0, "is_disabled": 0}, {"rental_uris": {"android": "https://dc.lft.to/lastmile_qr_scan", "ios": "https://dc.lft.to/lastmile_qr_scan"}, "type": "electric_scooter", "lon": -77.02283133333333, "name": "080a7d2fd92252bf008197d766b297cc", "bike_id": "080a7d2fd92252bf008197d766b297cc", "fusion_lat": 0.0, "is_reserved": 0, "lat": 38.909589833333335, "fusion_lon": 0.0, "is_disabled": 0}, {"rental_uris": {"android": "https://dc.lft.to/lastmile_qr_scan", "ios": "https://dc.lft.to/lastmile_qr_scan"}, "type": "electric_scooter", "lon": -76.99939983333333, "name": "332a5129d48e670835c61d8292078d10", "bike_id": "332a5129d48e670835c61d8292078d10", "fusion_lat": 0.0, "is_reserved": 0, "lat": 38.84326216666667, "fusion_lon": 0.0, "is_disabled": 0}, {"rental_uris": {"android": "https://dc.lft.to/lastmile_qr_scan", "ios": "https://dc.lft.to/lastmile_qr_scan"}, "type": "electric_scooter", "lon": -77.04347866666667, "name": "95145c3e2099da12d2c5bfced5da6dce", "bike_id": "95145c3e2099da12d2c5bfced5da6dce", "fusion_lat": 0.0, "is_reserved": 0, "lat": 38.9085895, "fusion_lon": 0.0, "is_disabled": 0}, {"rental_uris": {"android": "https://dc.lft.to/lastmile_qr_scan", "ios": "https://dc.lft.to/lastmile_qr_scan"}, "type": "electric_scooter", "lon": -77.019968, "name": "8b73df23b595ead4551ecf28f29f976e", "bike_id": "8b73df23b595ead4551ecf28f29f976e", "fusion_lat": 0.0, "is_reserved": 0, "lat": 38.96641783333333, "fusion_lon": 0.0, "is_disabled": 0}, {"rental_uris": {"android": "https://dc.lft.to/lastmile_qr_scan", "ios": "https://dc.lft.to/lastmile_qr_scan"}, "type": "electric_scooter", "lon": -77.04653116666667, "name": "8e09993f4b49a78598650aef922ed941", "bike_id": "8e09993f4b49a78598650aef922ed941", "fusion_lat": 0.0, "is_reserved": 0, "lat": 38.900166166666665, "fusion_lon": 0.0, "is_disabled": 0}, {"rental_uris": {"android": "https://dc.lft.to/lastmile_qr_scan", "ios": "https://dc.lft.to/lastmile_qr_scan"}, "type": "electric_scooter", "lon": -77.04496916666666, "name": "6f2c6304365272ab70bf1a3b33ee20aa", "bike_id": "6f2c6304365272ab70bf1a3b33ee20aa", "fusion_lat": 0.0, "is_reserved": 0, "lat": 38.91846, "fusion_lon": 0.0, "is_disabled": 0}, {"rental_uris": {"android": "https://dc.lft.to/lastmile_qr_scan", "ios": "https://dc.lft.to/lastmile_qr_scan"}, "type": "electric_bike", "lon": -76.9580615, "name": "e2778391dc0eb4f1eaf9dc17c8672b08", "bike_id": "e2778391dc0eb4f1eaf9dc17c8672b08", "fusion_lat": 0.0, "is_reserved": 0, "lat": 38.98051433333333, "fusion_lon": 0.0, "is_disabled": 0}, {"rental_uris": {"android": "https://dc.lft.to/lastmile_qr_scan", "ios": "https://dc.lft.to/lastmile_qr_scan"}, "type": "electric_scooter", "lon": -77.02393266666667, "name": "9d933061857d181cd917ef0b3fbf6ced", "bike_id": "9d933061857d181cd917ef0b3fbf6ced", "fusion_lat": 0.0, "is_reserved": 0, "lat": 38.887386166666666, "fusion_lon": 0.0, "is_disabled": 0}, {"rental_uris": {"android": "https://dc.lft.to/lastmile_qr_scan", "ios": "https://dc.lft.to/lastmile_qr_scan"}, "type": "electric_scooter", "lon": -76.93159016666667, "name": "801832352c6ae8d5953a9abb47d89075", "bike_id": "801832352c6ae8d5953a9abb47d89075", "fusion_lat": 0.0, "is_reserved": 0, "lat": 38.8988355, "fusion_lon": 0.0, "is_disabled": 0}, {"rental_uris": {"android": "https://dc.lft.to/lastmile_qr_scan", "ios": "https://dc.lft.to/lastmile_qr_scan"}, "type": "electric_scooter", "lon": -77.06167, "name": "f1541f434387b7362e6cc1506d6e9c21", "bike_id": "f1541f434387b7362e6cc1506d6e9c21", "fusion_lat": 0.0, "is_reserved": 0, "lat": 38.94222583333333, "fusion_lon": 0.0, "is_disabled": 0}, {"rental_uris": {"android": "https://dc.lft.to/lastmile_qr_scan", "ios": "https://dc.lft.to/lastmile_qr_scan"}, "type": "electric_scooter", "lon": -76.94115733333334, "name": "72204525ed1cbf7927d33b9702d90c06", "bike_id": "72204525ed1cbf7927d33b9702d90c06", "fusion_lat": 0.0, "is_reserved": 0, "lat": 38.90794833333333, "fusion_lon": 0.0, "is_disabled": 0}, {"rental_uris": {"android": "https://dc.lft.to/lastmile_qr_scan", "ios": "https://dc.lft.to/lastmile_qr_scan"}, "type": "electric_scooter", "lon": -76.986886, "name": "ccfaf129c49768064f1cd7e3e09cbe78", "bike_id": "ccfaf129c49768064f1cd7e3e09cbe78", "fusion_lat": 0.0, "is_reserved": 0, "lat": 38.855765166666664, "fusion_lon": 0.0, "is_disabled": 0}, {"rental_uris": {"android": "https://dc.lft.to/lastmile_qr_scan", "ios": "https://dc.lft.to/lastmile_qr_scan"}, "type": "electric_scooter", "lon": -77.04352016666667, "name": "ad587ff2e092fa2edb72e3713a0720ca", "bike_id": "ad587ff2e092fa2edb72e3713a0720ca", "fusion_lat": 0.0, "is_reserved": 0, "lat": 38.921493, "fusion_lon": 0.0, "is_disabled": 0}, {"rental_uris": {"android": "https://dc.lft.to/lastmile_qr_scan", "ios": "https://dc.lft.to/lastmile_qr_scan"}, "type": "electric_scooter", "lon": -77.03995483333334, "name": "965f1db63ec68eadc62d850eaaa4faa9", "bike_id": "965f1db63ec68eadc62d850eaaa4faa9", "fusion_lat": 0.0, "is_reserved": 0, "lat": 38.91423116666667, "fusion_lon": 0.0, "is_disabled": 0}, {"rental_uris": {"android": "https://dc.lft.to/lastmile_qr_scan", "ios": "https://dc.lft.to/lastmile_qr_scan"}, "type": "electric_scooter", "lon": -77.0215475, "name": "22db4a917e6ae02d8ca189be587c2621", "bike_id": "22db4a917e6ae02d8ca189be587c2621", "fusion_lat": 0.0, "is_reserved": 0, "lat": 38.87925233333333, "fusion_lon": 0.0, "is_disabled": 0}, {"rental_uris": {"android": "https://dc.lft.to/lastmile_qr_scan", "ios": "https://dc.lft.to/lastmile_qr_scan"}, "type": "electric_scooter", "lon": -77.02389283333333, "name": "69fd300f51f2af51ce4c957bc10361f9", "bike_id": "69fd300f51f2af51ce4c957bc10361f9", "fusion_lat": 0.0, "is_reserved": 0, "lat": 38.8840915, "fusion_lon": 0.0, "is_disabled": 0}, {"rental_uris": {"android": "https://dc.lft.to/lastmile_qr_scan", "ios": "https://dc.lft.to/lastmile_qr_scan"}, "type": "electric_bike", "lon": -76.96886633333334, "name": "e9a3f5c91917f41c706ee5e182d9ef48", "bike_id": "e9a3f5c91917f41c706ee5e182d9ef48", "fusion_lat": 0.0, "is_reserved": 0, "lat": 38.846050166666664, "fusion_lon": 0.0, "is_disabled": 0}, {"rental_uris": {"android": "https://dc.lft.to/lastmile_qr_scan", "ios": "https://dc.lft.to/lastmile_qr_scan"}, "type": "electric_scooter", "lon": -77.04177433333334, "name": "0e5d25efe61f6b6c1515782de85df468", "bike_id": "0e5d25efe61f6b6c1515782de85df468", "fusion_lat": 0.0, "is_reserved": 0, "lat": 38.915915166666665, "fusion_lon": 0.0, "is_disabled": 0}, {"rental_uris": {"android": "https://dc.lft.to/lastmile_qr_scan", "ios": "https://dc.lft.to/lastmile_qr_scan"}, "type": "electric_scooter", "lon": -76.99449433333334, "name": "bd854ac327433b125f7091211ea07d28", "bike_id": "bd854ac327433b125f7091211ea07d28", "fusion_lat": 0.0, "is_reserved": 0, "lat": 38.876594833333336, "fusion_lon": 0.0, "is_disabled": 0}, {"rental_uris": {"android": "https://dc.lft.to/lastmile_qr_scan", "ios": "https://dc.lft.to/lastmile_qr_scan"}, "type": "electric_bike", "lon": -77.12742266666666, "name": "15864afe18df3a12bdc869fdc26d1bae", "bike_id": "15864afe18df3a12bdc869fdc26d1bae", "fusion_lat": 0.0, "is_reserved": 0, "lat": 38.88824733333333, "fusion_lon": 0.0, "is_disabled": 0}, {"rental_uris": {"android": "https://dc.lft.to/lastmile_qr_scan", "ios": "https://dc.lft.to/lastmile_qr_scan"}, "type": "electric_scooter", "lon": -77.06583183333333, "name": "abfe30eb2fffc8dd279e57cf1f6365e9", "bike_id": "abfe30eb2fffc8dd279e57cf1f6365e9", "fusion_lat": 0.0, "is_reserved": 0, "lat": 38.9136825, "fusion_lon": 0.0, "is_disabled": 0}, {"rental_uris": {"android": "https://dc.lft.to/lastmile_qr_scan", "ios": "https://dc.lft.to/lastmile_qr_scan"}, "type": "electric_scooter", "lon": -77.02387016666667, "name": "c036eeea7910b0a31c3c6ae1f654f285", "bike_id": "c036eeea7910b0a31c3c6ae1f654f285", "fusion_lat": 0.0, "is_reserved": 0, "lat": 38.9168605, "fusion_lon": 0.0, "is_disabled": 0}, {"rental_uris": {"android": "https://dc.lft.to/lastmile_qr_scan", "ios": "https://dc.lft.to/lastmile_qr_scan"}, "type": "electric_scooter", "lon": -77.0170695, "name": "72b5b3ee81e06a0f0073d167ade499bf", "bike_id": "72b5b3ee81e06a0f0073d167ade499bf", "fusion_lat": 0.0, "is_reserved": 0, "lat": 38.90020783333333, "fusion_lon": 0.0, "is_disabled": 0}, {"rental_uris": {"android": "https://dc.lft.to/lastmile_qr_scan", "ios": "https://dc.lft.to/lastmile_qr_scan"}, "type": "electric_scooter", "lon": -77.03661066666666, "name": "bd1c17307bc111b5a489f62b291cbf45", "bike_id": "bd1c17307bc111b5a489f62b291cbf45", "fusion_lat": 0.0, "is_reserved": 0, "lat": 38.917197333333334, "fusion_lon": 0.0, "is_disabled": 0}, {"rental_uris": {"android": "https://dc.lft.to/lastmile_qr_scan", "ios": "https://dc.lft.to/lastmile_qr_scan"}, "type": "electric_scooter", "lon": -76.98770966666666, "name": "70d6e9ec1250fd5358be77b56cc18c47", "bike_id": "70d6e9ec1250fd5358be77b56cc18c47", "fusion_lat": 0.0, "is_reserved": 0, "lat": 38.91178083333333, "fusion_lon": 0.0, "is_disabled": 0}, {"rental_uris": {"android": "https://dc.lft.to/lastmile_qr_scan", "ios": "https://dc.lft.to/lastmile_qr_scan"}, "type": "electric_scooter", "lon": -77.03862916666667, "name": "1f6129855a44eaecb1ac74b7463c9459", "bike_id": "1f6129855a44eaecb1ac74b7463c9459", "fusion_lat": 0.0, "is_reserved": 0, "lat": 38.912839166666664, "fusion_lon": 0.0, "is_disabled": 0}, {"rental_uris": {"android": "https://dc.lft.to/lastmile_qr_scan", "ios": "https://dc.lft.to/lastmile_qr_scan"}, "type": "electric_scooter", "lon": -77.02006833333333, "name": "077667a644a58d4af5d82f84ae0f5767", "bike_id": "077667a644a58d4af5d82f84ae0f5767", "fusion_lat": 0.0, "is_reserved": 0, "lat": 38.8793825, "fusion_lon": 0.0, "is_disabled": 0}, {"rental_uris": {"android": "https://dc.lft.to/lastmile_qr_scan", "ios": "https://dc.lft.to/lastmile_qr_scan"}, "type": "electric_scooter", "lon": -77.02475516666667, "name": "29f5c030b8786f0c44d9827304c4090e", "bike_id": "29f5c030b8786f0c44d9827304c4090e", "fusion_lat": 0.0, "is_reserved": 0, "lat": 38.93879916666667, "fusion_lon": 0.0, "is_disabled": 0}, {"rental_uris": {"android": "https://dc.lft.to/lastmile_qr_scan", "ios": "https://dc.lft.to/lastmile_qr_scan"}, "type": "electric_scooter", "lon": -77.0736165, "name": "0b11eac1f0f5470c48913c4c66bbc3b6", "bike_id": "0b11eac1f0f5470c48913c4c66bbc3b6", "fusion_lat": 0.0, "is_reserved": 0, "lat": 38.94328983333333, "fusion_lon": 0.0, "is_disabled": 0}, {"rental_uris": {"android": "https://dc.lft.to/lastmile_qr_scan", "ios": "https://dc.lft.to/lastmile_qr_scan"}, "type": "electric_scooter", "lon": -77.0384625, "name": "e03a996cefaa35826df0058057ceb3cc", "bike_id": "e03a996cefaa35826df0058057ceb3cc", "fusion_lat": 0.0, "is_reserved": 0, "lat": 38.91176083333333, "fusion_lon": 0.0, "is_disabled": 0}, {"rental_uris": {"android": "https://dc.lft.to/lastmile_qr_scan", "ios": "https://dc.lft.to/lastmile_qr_scan"}, "type": "electric_scooter", "lon": -77.01758083333333, "name": "523a1c395e234020bf1e797538f386fc", "bike_id": "523a1c395e234020bf1e797538f386fc", "fusion_lat": 0.0, "is_reserved": 0, "lat": 38.9020865, "fusion_lon": 0.0, "is_disabled": 0}, {"rental_uris": {"android": "https://dc.lft.to/lastmile_qr_scan", "ios": "https://dc.lft.to/lastmile_qr_scan"}, "type": "electric_scooter", "lon": -77.03446233333334, "name": "916f18680aed68205d1a192cef56a026", "bike_id": "916f18680aed68205d1a192cef56a026", "fusion_lat": 0.0, "is_reserved": 0, "lat": 38.908741166666665, "fusion_lon": 0.0, "is_disabled": 0}, {"rental_uris": {"android": "https://dc.lft.to/lastmile_qr_scan", "ios": "https://dc.lft.to/lastmile_qr_scan"}, "type": "electric_scooter", "lon": -77.00757333333334, "name": "6dee970bd42b54aff3e5dfafb25ecbc2", "bike_id": "6dee970bd42b54aff3e5dfafb25ecbc2", "fusion_lat": 0.0, "is_reserved": 0, "lat": 38.910289666666664, "fusion_lon": 0.0, "is_disabled": 0}, {"rental_uris": {"android": "https://dc.lft.to/lastmile_qr_scan", "ios": "https://dc.lft.to/lastmile_qr_scan"}, "type": "electric_bike", "lon": -77.0086445, "name": "9f9c24573d000fa5e8b0367ddf79ca30", "bike_id": "9f9c24573d000fa5e8b0367ddf79ca30", "fusion_lat": 0.0, "is_reserved": 0, "lat": 38.827319833333334, "fusion_lon": 0.0, "is_disabled": 0}, {"rental_uris": {"android": "https://dc.lft.to/lastmile_qr_scan", "ios": "https://dc.lft.to/lastmile_qr_scan"}, "type": "electric_scooter", "lon": -76.99365183333333, "name": "d15f2f469a7b4f57200a359c0a5af4e6", "bike_id": "d15f2f469a7b4f57200a359c0a5af4e6", "fusion_lat": 0.0, "is_reserved": 0, "lat": 38.92396566666667, "fusion_lon": 0.0, "is_disabled": 0}, {"rental_uris": {"android": "https://dc.lft.to/lastmile_qr_scan", "ios": "https://dc.lft.to/lastmile_qr_scan"}, "type": "electric_scooter", "lon": -76.985624, "name": "b767fee0f8530cdf0667940bfac9ab76", "bike_id": "b767fee0f8530cdf0667940bfac9ab76", "fusion_lat": 0.0, "is_reserved": 0, "lat": 38.85590283333333, "fusion_lon": 0.0, "is_disabled": 0}, {"rental_uris": {"android": "https://dc.lft.to/lastmile_qr_scan", "ios": "https://dc.lft.to/lastmile_qr_scan"}, "type": "electric_scooter", "lon": -76.964862, "name": "b6748c22387a381a5d32c209d64a7564", "bike_id": "b6748c22387a381a5d32c209d64a7564", "fusion_lat": 0.0, "is_reserved": 0, "lat": 38.87554516666667, "fusion_lon": 0.0, "is_disabled": 0}, {"rental_uris": {"android": "https://dc.lft.to/lastmile_qr_scan", "ios": "https://dc.lft.to/lastmile_qr_scan"}, "type": "electric_scooter", "lon": -77.0172415, "name": "02f9be0f6e8352b1d5b19bd18955c0e3", "bike_id": "02f9be0f6e8352b1d5b19bd18955c0e3", "fusion_lat": 0.0, "is_reserved": 0, "lat": 38.87938783333333, "fusion_lon": 0.0, "is_disabled": 0}, {"rental_uris": {"android": "https://dc.lft.to/lastmile_qr_scan", "ios": "https://dc.lft.to/lastmile_qr_scan"}, "type": "electric_scooter", "lon": -77.0383595, "name": "c44737467b68ab2917bfbe3f27a3bd9b", "bike_id": "c44737467b68ab2917bfbe3f27a3bd9b", "fusion_lat": 0.0, "is_reserved": 0, "lat": 38.931061666666665, "fusion_lon": 0.0, "is_disabled": 0}, {"rental_uris": {"android": "https://dc.lft.to/lastmile_qr_scan", "ios": "https://dc.lft.to/lastmile_qr_scan"}, "type": "electric_scooter", "lon": -76.986144, "name": "7d93e5d008b582876ac0bc64351568ab", "bike_id": "7d93e5d008b582876ac0bc64351568ab", "fusion_lat": 0.0, "is_reserved": 0, "lat": 38.905954333333334, "fusion_lon": 0.0, "is_disabled": 0}, {"rental_uris": {"android": "https://dc.lft.to/lastmile_qr_scan", "ios": "https://dc.lft.to/lastmile_qr_scan"}, "type": "electric_scooter", "lon": -77.0727265, "name": "ff3d041f701820f4f34353e7ff41c6fb", "bike_id": "ff3d041f701820f4f34353e7ff41c6fb", "fusion_lat": 0.0, "is_reserved": 0, "lat": 38.9348385, "fusion_lon": 0.0, "is_disabled": 0}, {"rental_uris": {"android": "https://dc.lft.to/lastmile_qr_scan", "ios": "https://dc.lft.to/lastmile_qr_scan"}, "type": "electric_scooter", "lon": -77.03659016666667, "name": "b5c016439e691a57bb3cbd48f49c0c7a", "bike_id": "b5c016439e691a57bb3cbd48f49c0c7a", "fusion_lat": 0.0, "is_reserved": 0, "lat": 38.91869466666667, "fusion_lon": 0.0, "is_disabled": 0}, {"rental_uris": {"android": "https://dc.lft.to/lastmile_qr_scan", "ios": "https://dc.lft.to/lastmile_qr_scan"}, "type": "electric_bike", "lon": -77.06981716666667, "name": "8bd176a75200667c20d2a5afbee311cf", "bike_id": "8bd176a75200667c20d2a5afbee311cf", "fusion_lat": 0.0, "is_reserved": 0, "lat": 38.95269116666667, "fusion_lon": 0.0, "is_disabled": 0}, {"rental_uris": {"android": "https://dc.lft.to/lastmile_qr_scan", "ios": "https://dc.lft.to/lastmile_qr_scan"}, "type": "electric_scooter", "lon": -77.04185133333333, "name": "7fdd51cadfdb331a40e66b68d5520045", "bike_id": "7fdd51cadfdb331a40e66b68d5520045", "fusion_lat": 0.0, "is_reserved": 0, "lat": 38.9205335, "fusion_lon": 0.0, "is_disabled": 0}, {"rental_uris": {"android": "https://dc.lft.to/lastmile_qr_scan", "ios": "https://dc.lft.to/lastmile_qr_scan"}, "type": "electric_scooter", "lon": -77.00192916666667, "name": "efa4a02296346c5a788c09b996f91aec", "bike_id": "efa4a02296346c5a788c09b996f91aec", "fusion_lat": 0.0, "is_reserved": 0, "lat": 38.900315666666664, "fusion_lon": 0.0, "is_disabled": 0}, {"rental_uris": {"android": "https://dc.lft.to/lastmile_qr_scan", "ios": "https://dc.lft.to/lastmile_qr_scan"}, "type": "electric_scooter", "lon": -77.00143733333333, "name": "c834233eb8084014a215210fa601ebbe", "bike_id": "c834233eb8084014a215210fa601ebbe", "fusion_lat": 0.0, "is_reserved": 0, "lat": 38.900075666666666, "fusion_lon": 0.0, "is_disabled": 0}, {"rental_uris": {"android": "https://dc.lft.to/lastmile_qr_scan", "ios": "https://dc.lft.to/lastmile_qr_scan"}, "type": "electric_scooter", "lon": -77.04200333333333, "name": "de2998524c5e3363ea7c48f87f022609", "bike_id": "de2998524c5e3363ea7c48f87f022609", "fusion_lat": 0.0, "is_reserved": 0, "lat": 38.8922475, "fusion_lon": 0.0, "is_disabled": 0}, {"rental_uris": {"android": "https://dc.lft.to/lastmile_qr_scan", "ios": "https://dc.lft.to/lastmile_qr_scan"}, "type": "electric_scooter", "lon": -76.99032733333334, "name": "84fe52175fc1bbb5d1c8dcb106a7b539", "bike_id": "84fe52175fc1bbb5d1c8dcb106a7b539", "fusion_lat": 0.0, "is_reserved": 0, "lat": 38.8985385, "fusion_lon": 0.0, "is_disabled": 0}, {"rental_uris": {"android": "https://dc.lft.to/lastmile_qr_scan", "ios": "https://dc.lft.to/lastmile_qr_scan"}, "type": "electric_scooter", "lon": -77.02702583333334, "name": "f6c8e7c55e0869afc5c81e40219adb12", "bike_id": "f6c8e7c55e0869afc5c81e40219adb12", "fusion_lat": 0.0, "is_reserved": 0, "lat": 38.927767833333334, "fusion_lon": 0.0, "is_disabled": 0}, {"rental_uris": {"android": "https://dc.lft.to/lastmile_qr_scan", "ios": "https://dc.lft.to/lastmile_qr_scan"}, "type": "electric_scooter", "lon": -76.97454516666667, "name": "f70da564a9cb206126141634599c71f7", "bike_id": "f70da564a9cb206126141634599c71f7", "fusion_lat": 0.0, "is_reserved": 0, "lat": 38.86371366666667, "fusion_lon": 0.0, "is_disabled": 0}, {"rental_uris": {"android": "https://dc.lft.to/lastmile_qr_scan", "ios": "https://dc.lft.to/lastmile_qr_scan"}, "type": "electric_scooter", "lon": -77.00593783333333, "name": "dcbb4bebd21a6fa36db9c31f294f9fc3", "bike_id": "dcbb4bebd21a6fa36db9c31f294f9fc3", "fusion_lat": 0.0, "is_reserved": 0, "lat": 38.905595, "fusion_lon": 0.0, "is_disabled": 0}, {"rental_uris": {"android": "https://dc.lft.to/lastmile_qr_scan", "ios": "https://dc.lft.to/lastmile_qr_scan"}, "type": "electric_scooter", "lon": -77.0422765, "name": "047796878e66b556340faf6b1f8a87db", "bike_id": "047796878e66b556340faf6b1f8a87db", "fusion_lat": 0.0, "is_reserved": 0, "lat": 38.91110483333333, "fusion_lon": 0.0, "is_disabled": 0}, {"rental_uris": {"android": "https://dc.lft.to/lastmile_qr_scan", "ios": "https://dc.lft.to/lastmile_qr_scan"}, "type": "electric_bike", "lon": -76.87771216666667, "name": "d69b58e17f3699a75f9a8e64272c57b2", "bike_id": "d69b58e17f3699a75f9a8e64272c57b2", "fusion_lat": 0.0, "is_reserved": 0, "lat": 38.99224666666667, "fusion_lon": 0.0, "is_disabled": 0}, {"rental_uris": {"android": "https://dc.lft.to/lastmile_qr_scan", "ios": "https://dc.lft.to/lastmile_qr_scan"}, "type": "electric_scooter", "lon": -76.9878185, "name": "13782b15467af055900eca05fc9581fd", "bike_id": "13782b15467af055900eca05fc9581fd", "fusion_lat": 0.0, "is_reserved": 0, "lat": 38.90033416666667, "fusion_lon": 0.0, "is_disabled": 0}, {"rental_uris": {"android": "https://dc.lft.to/lastmile_qr_scan", "ios": "https://dc.lft.to/lastmile_qr_scan"}, "type": "electric_scooter", "lon": -76.98779883333333, "name": "ca24959a9bb6a5af3241721ac6695758", "bike_id": "ca24959a9bb6a5af3241721ac6695758", "fusion_lat": 0.0, "is_reserved": 0, "lat": 38.90032516666667, "fusion_lon": 0.0, "is_disabled": 0}, {"rental_uris": {"android": "https://dc.lft.to/lastmile_qr_scan", "ios": "https://dc.lft.to/lastmile_qr_scan"}, "type": "electric_scooter", "lon": -77.03786233333334, "name": "3546516a8a13c6b8079f1f0c5cb60ead", "bike_id": "3546516a8a13c6b8079f1f0c5cb60ead", "fusion_lat": 0.0, "is_reserved": 0, "lat": 38.92632283333333, "fusion_lon": 0.0, "is_disabled": 0}, {"rental_uris": {"android": "https://dc.lft.to/lastmile_qr_scan", "ios": "https://dc.lft.to/lastmile_qr_scan"}, "type": "electric_bike", "lon": -76.94867833333333, "name": "c1878e951d7098f7843a6c9f9c0b7772", "bike_id": "c1878e951d7098f7843a6c9f9c0b7772", "fusion_lat": 0.0, "is_reserved": 0, "lat": 38.8896705, "fusion_lon": 0.0, "is_disabled": 0}, {"rental_uris": {"android": "https://dc.lft.to/lastmile_qr_scan", "ios": "https://dc.lft.to/lastmile_qr_scan"}, "type": "electric_scooter", "lon": -77.02947366666666, "name": "6e7b39a9aa6cbd13542c90a396d64ce0", "bike_id": "6e7b39a9aa6cbd13542c90a396d64ce0", "fusion_lat": 0.0, "is_reserved": 0, "lat": 38.932514833333336, "fusion_lon": 0.0, "is_disabled": 0}, {"rental_uris": {"android": "https://dc.lft.to/lastmile_qr_scan", "ios": "https://dc.lft.to/lastmile_qr_scan"}, "type": "electric_bike", "lon": -76.96387783333333, "name": "42c90d8525a7849bafabff30736fb20e", "bike_id": "42c90d8525a7849bafabff30736fb20e", "fusion_lat": 0.0, "is_reserved": 0, "lat": 38.97578166666667, "fusion_lon": 0.0, "is_disabled": 0}, {"rental_uris": {"android": "https://dc.lft.to/lastmile_qr_scan", "ios": "https://dc.lft.to/lastmile_qr_scan"}, "type": "electric_scooter", "lon": -76.9423365, "name": "e085ea1a7131b3cff6c6285ad856f827", "bike_id": "e085ea1a7131b3cff6c6285ad856f827", "fusion_lat": 0.0, "is_reserved": 0, "lat": 38.8967705, "fusion_lon": 0.0, "is_disabled": 0}, {"rental_uris": {"android": "https://dc.lft.to/lastmile_qr_scan", "ios": "https://dc.lft.to/lastmile_qr_scan"}, "type": "electric_bike", "lon": -77.02711966666666, "name": "0b315c23137af9de195018ca7b8196f5", "bike_id": "0b315c23137af9de195018ca7b8196f5", "fusion_lat": 0.0, "is_reserved": 0, "lat": 38.922985, "fusion_lon": 0.0, "is_disabled": 0}, {"rental_uris": {"android": "https://dc.lft.to/lastmile_qr_scan", "ios": "https://dc.lft.to/lastmile_qr_scan"}, "type": "electric_scooter", "lon": -77.03280666666667, "name": "268d30589fb29d3527cef656fa32f27d", "bike_id": "268d30589fb29d3527cef656fa32f27d", "fusion_lat": 0.0, "is_reserved": 0, "lat": 38.89884716666667, "fusion_lon": 0.0, "is_disabled": 0}, {"rental_uris": {"android": "https://dc.lft.to/lastmile_qr_scan", "ios": "https://dc.lft.to/lastmile_qr_scan"}, "type": "electric_bike", "lon": -77.10703233333334, "name": "ad86f51a76c745ff434ed45ad60bf4d0", "bike_id": "ad86f51a76c745ff434ed45ad60bf4d0", "fusion_lat": 0.0, "is_reserved": 0, "lat": 38.85535216666667, "fusion_lon": 0.0, "is_disabled": 0}, {"rental_uris": {"android": "https://dc.lft.to/lastmile_qr_scan", "ios": "https://dc.lft.to/lastmile_qr_scan"}, "type": "electric_scooter", "lon": -77.02359616666666, "name": "90b5fe102adee5f205345fde4788272b", "bike_id": "90b5fe102adee5f205345fde4788272b", "fusion_lat": 0.0, "is_reserved": 0, "lat": 38.904369333333335, "fusion_lon": 0.0, "is_disabled": 0}, {"rental_uris": {"android": "https://dc.lft.to/lastmile_qr_scan", "ios": "https://dc.lft.to/lastmile_qr_scan"}, "type": "electric_bike", "lon": -76.98525416666666, "name": "6a9a8166b8e0e93103e18ccb130bd8f0", "bike_id": "6a9a8166b8e0e93103e18ccb130bd8f0", "fusion_lat": 0.0, "is_reserved": 0, "lat": 38.9200355, "fusion_lon": 0.0, "is_disabled": 0}, {"rental_uris": {"android": "https://dc.lft.to/lastmile_qr_scan", "ios": "https://dc.lft.to/lastmile_qr_scan"}, "type": "electric_scooter", "lon": -77.02490216666666, "name": "dcc44c48137a2d8ae2e3737c43535e56", "bike_id": "dcc44c48137a2d8ae2e3737c43535e56", "fusion_lat": 0.0, "is_reserved": 0, "lat": 38.932873, "fusion_lon": 0.0, "is_disabled": 0}, {"rental_uris": {"android": "https://dc.lft.to/lastmile_qr_scan", "ios": "https://dc.lft.to/lastmile_qr_scan"}, "type": "electric_scooter", "lon": -77.043449, "name": "2d6ae3670cdfcba86d83d5d2a704f89a", "bike_id": "2d6ae3670cdfcba86d83d5d2a704f89a", "fusion_lat": 0.0, "is_reserved": 0, "lat": 38.92191416666667, "fusion_lon": 0.0, "is_disabled": 0}, {"rental_uris": {"android": "https://dc.lft.to/lastmile_qr_scan", "ios": "https://dc.lft.to/lastmile_qr_scan"}, "type": "electric_scooter", "lon": -77.04983733333333, "name": "3a3c4e2b7990d7fc123f0343f01e8592", "bike_id": "3a3c4e2b7990d7fc123f0343f01e8592", "fusion_lat": 0.0, "is_reserved": 0, "lat": 38.905174833333334, "fusion_lon": 0.0, "is_disabled": 0}, {"rental_uris": {"android": "https://dc.lft.to/lastmile_qr_scan", "ios": "https://dc.lft.to/lastmile_qr_scan"}, "type": "electric_scooter", "lon": -77.01629366666667, "name": "c8f0c9a6fa2c65a98a3dc665570106b8", "bike_id": "c8f0c9a6fa2c65a98a3dc665570106b8", "fusion_lat": 0.0, "is_reserved": 0, "lat": 38.876431, "fusion_lon": 0.0, "is_disabled": 0}, {"rental_uris": {"android": "https://dc.lft.to/lastmile_qr_scan", "ios": "https://dc.lft.to/lastmile_qr_scan"}, "type": "electric_scooter", "lon": -77.038399, "name": "f95fd6ee03e09ba287e9b5dd43ba7aaf", "bike_id": "f95fd6ee03e09ba287e9b5dd43ba7aaf", "fusion_lat": 0.0, "is_reserved": 0, "lat": 38.91219683333333, "fusion_lon": 0.0, "is_disabled": 0},