{"data": {"bikes": [{"name": "69de573de0d3f0832339da4c0da2b38b", "fusion_lat": 0.0, "type": "electric_scooter", "lat": 38.895745166666664, "is_reserved": 0, "is_disabled": 0, "fusion_lon": 0.0, "bike_id": "69de573de0d3f0832339da4c0da2b38b", "lon": -76.94883083333333, "rental_uris": {"ios": "https://dc.lft.to/lastmile_qr_scan", "android": "https://dc.lft.to/lastmile_qr_scan"}}, {"name": "a8d0ee40c2b71e7e20679897aee58d2f", "fusion_lat": 0.0, "type": "electric_scooter", "lat": 38.90077083333333, "is_reserved": 0, "is_disabled": 0, "fusion_lon": 0.0, "bike_id": "a8d0ee40c2b71e7e20679897aee58d2f", "lon": -77.04998583333334, "rental_uris": {"ios": "https://dc.lft.to/lastmile_qr_scan", "android": "https://dc.lft.to/lastmile_qr_scan"}}, {"name": "2a65f90c0e62ffb1060daea8c59f6120", "fusion_lat": 0.0, "type": "electric_scooter", "lat": 38.90582283333333, "is_reserved": 0, "is_disabled": 0, "fusion_lon": 0.0, "bike_id": "2a65f90c0e62ffb1060daea8c59f6120", "lon": -77.03268216666666, "rental_uris": {"ios": "https://dc.lft.to/lastmile_qr_scan", "android": "https://dc.lft.to/lastmile_qr_scan"}}, {"name": "9c683068568961fcaed3b3bf077f64c3", "fusion_lat": 0.0, "type": "electric_scooter", "lat": 38.91878916666667, "is_reserved": 0, "is_disabled": 0, "fusion_lon": 0.0, "bike_id": "9c683068568961fcaed3b3bf077f64c3", "lon": -77.04356183333333, "rental_uris": {"ios": "https://dc.lft.to/lastmile_qr_scan", "android": "https://dc.lft.to/lastmile_qr_scan"}}, {"name": "362b00125dd5d6fab0240285069fa375", "fusion_lat": 0.0, "type": "electric_bike", "lat": 38.958414, "is_reserved": 0, "is_disabled": 0, "fusion_lon": 0.0, "bike_id": "362b00125dd5d6fab0240285069fa375", "lon": -76.998689, "rental_uris": {"ios": "https://dc.lft.to/lastmile_qr_scan", "android": "https://dc.lft.to/lastmile_qr_scan"}}, {"name": "03340e5ebcac348201723cd99d2531b8", "fusion_lat": 0.0, "type": "electric_scooter", "lat": 38.927529, "is_reserved": 0, "is_disabled": 0, "fusion_lon": 0.0, "bike_id": "03340e5ebcac348201723cd99d2531b8", "lon": -77.032659, "rental_uris": {"ios": "https://dc.lft.to/lastmile_qr_scan", "android": "https://dc.lft.to/lastmile_qr_scan"}}, {"name": "13b9cc94dc871ee50440af2891f2c4dc", "fusion_lat": 0.0, "type": "electric_scooter", "lat": 38.92241283333333, "is_reserved": 0, "is_disabled": 0, "fusion_lon": 0.0, "bike_id": "13b9cc94dc871ee50440af2891f2c4dc", "lon": -77.036666, "rental_uris": {"ios": "https://dc.lft.to/lastmile_qr_scan", "android": "https://dc.lft.to/lastmile_qr_scan"}}, {"name": "b21b9377c36ea398e46f2d583c0600c9", "fusion_lat": 0.0, "type": "electric_scooter", "lat": 38.91119, "is_reserved": 0, "is_disabled": 0, "fusion_lon": 0.0, "bike_id": "b21b9377c36ea398e46f2d583c0600c9", "lon": -77.02410483333334, "rental_uris": {"ios": "https://dc.lft.to/lastmile_qr_scan", "android": "https://dc.lft.to/lastmile_qr_scan"}}, {"name": "5165e69e84433fcf14bd6fc4665030d2", "fusion_lat": 0.0, "type": "electric_scooter", "lat": 38.899813333333334, "is_reserved": 0, "is_disabled": 0, "fusion_lon": 0.0, "bike_id": "5165e69e84433fcf14bd6fc4665030d2", "lon": -77.03125666666666, "rental_uris": {"ios": "https://dc.lft.to/lastmile_qr_scan", "android": "https://dc.lft.to/lastmile_qr_scan"}}, {"name": "3cdc5e3a95ab24a2ac99fff63fa12368", "fusion_lat": 0.0, "type": "electric_scooter", "lat": 38.8970815, "is_reserved": 0, "is_disabled": 0, "fusion_lon": 0.0, "bike_id": "3cdc5e3a95ab24a2ac99fff63fa12368", "lon": -77.03272966666667, "rental_uris": {"ios": "https://dc.lft.to/lastmile_qr_scan", "android": "https://dc.lft.to/lastmile_qr_scan"}}, {"name": "038e37102330f9b0c766262ed501145f", "fusion_lat": 0.0, "type": "electric_bike", "lat": 38.96873316666667, "is_reserved": 0, "is_disabled": 0, "fusion_lon": 0.0, "bike_id": "038e37102330f9b0c766262ed501145f", "lon": -77.03333333333333, "rental_uris": {"ios": "https://dc.lft.to/lastmile_qr_scan", "android": "https://dc.lft.to/lastmile_qr_scan"}}, {"name": "abc980d38d5342e1103b6ae56517a3fc", "fusion_lat": 0.0, "type": "electric_scooter", "lat": 38.91496466666667, "is_reserved": 0, "is_disabled": 0, "fusion_lon": 0.0, "bike_id": "abc980d38d5342e1103b6ae56517a3fc", "lon": -77.03245033333333, "rental_uris": {"ios": "https://dc.lft.to/lastmile_qr_scan", "android": "https://dc.lft.to/lastmile_qr_scan"}}, {"name": "eedb5436e14bea58085f40e74af35e15", "fusion_lat": 0.0, "type": "electric_scooter", "lat": 38.91804916666667, "is_reserved": 0, "is_disabled": 0, "fusion_lon": 0.0, "bike_id": "eedb5436e14bea58085f40e74af35e15", "lon": -77.0321655, "rental_uris": {"ios": "https://dc.lft.to/lastmile_qr_scan", "android": "https://dc.lft.to/lastmile_qr_scan"}}, {"name": "8d79a1a1daa9cdb6a7b9ec46bdbacd73", "fusion_lat": 0.0, "type": "electric_scooter", "lat": 38.87287766666667, "is_reserved": 0, "is_disabled": 0, "fusion_lon": 0.0, "bike_id": "8d79a1a1daa9cdb6a7b9ec46bdbacd73", "lon": -77.00985933333334, "rental_uris": {"ios": "https://dc.lft.to/lastmile_qr_scan", "android": "https://dc.lft.to/lastmile_qr_scan"}}, {"name": "12d51bc49f4c85d176d171b851ae671b", "fusion_lat": 0.0, "type": "electric_scooter", "lat": 38.944658833333335, "is_reserved": 0, "is_disabled": 0, "fusion_lon": 0.0, "bike_id": "12d51bc49f4c85d176d171b851ae671b", "lon": -77.00660016666667, "rental_uris": {"ios": "https://dc.lft.to/lastmile_qr_scan", "android": "https://dc.lft.to/lastmile_qr_scan"}}, {"name": "e4d8901f6211876a702a387ca8bac439", "fusion_lat": 0.0, "type": "electric_scooter", "lat": 38.9084595, "is_reserved": 0, "is_disabled": 0, "fusion_lon": 0.0, "bike_id": "e4d8901f6211876a702a387ca8bac439", "lon": -77.0318825, "rental_uris": {"ios": "https://dc.lft.to/lastmile_qr_scan", "android": "https://dc.lft.to/lastmile_qr_scan"}}, {"name": "0468e97dba2fb9b34dfd529c42c6d81e", "fusion_lat": 0.0, "type": "electric_scooter", "lat": 38.91185816666667, "is_reserved": 0, "is_disabled": 0, "fusion_lon": 0.0, "bike_id": "0468e97dba2fb9b34dfd529c42c6d81e", "lon": -77.0415365, "rental_uris": {"ios": "https://dc.lft.to/lastmile_qr_scan", "android": "https://dc.lft.to/lastmile_qr_scan"}}, {"name": "f102ac344debe29a3c976d0bba03df9f", "fusion_lat": 0.0, "type": "electric_scooter", "lat": 38.903687833333336, "is_reserved": 0, "is_disabled": 0, "fusion_lon": 0.0, "bike_id": "f102ac344debe29a3c976d0bba03df9f", "lon": -77.04265866666667, "rental_uris": {"ios": "https://dc.lft.to/lastmile_qr_scan", "android": "https://dc.lft.to/lastmile_qr_scan"}}, {"name": "9b43fba6696a19083347a81b40211c98", "fusion_lat": 0.0, "type": "electric_scooter", "lat": 38.909516833333335, "is_reserved": 0, "is_disabled": 0, "fusion_lon": 0.0, "bike_id": "9b43fba6696a19083347a81b40211c98", "lon": -77.0466185, "rental_uris": {"ios": "https://dc.lft.to/lastmile_qr_scan", "android": "https://dc.lft.to/lastmile_qr_scan"}}, {"name": "187b1cfef83efd129403fa92fa65ed2d", "fusion_lat": 0.0, "type": "electric_scooter", "lat": 38.93574266666667, "is_reserved": 0, "is_disabled": 0, "fusion_lon": 0.0, "bike_id": "187b1cfef83efd129403fa92fa65ed2d", "lon": -77.02120183333334, "rental_uris": {"ios": "https://dc.lft.to/lastmile_qr_scan", "android": "https://dc.lft.to/lastmile_qr_scan"}}, {"name": "eeba45598de8ee26589242414bbd9e0f", "fusion_lat": 0.0, "type": "electric_scooter", "lat": 38.89883783333333, "is_reserved": 0, "is_disabled": 0, "fusion_lon": 0.0, "bike_id": "eeba45598de8ee26589242414bbd9e0f", "lon": -77.03339816666667, "rental_uris": {"ios": "https://dc.lft.to/lastmile_qr_scan", "android": "https://dc.lft.to/lastmile_qr_scan"}}, {"name": "9463814378f2f1ce18587c23168248a5", "fusion_lat": 0.0, "type": "electric_scooter", "lat": 38.935688166666665, "is_reserved": 0, "is_disabled": 0, "fusion_lon": 0.0, "bike_id": "9463814378f2f1ce18587c23168248a5", "lon": -77.0213805, "rental_uris": {"ios": "https://dc.lft.to/lastmile_qr_scan", "android": "https://dc.lft.to/lastmile_qr_scan"}}, {"name": "482779d2b0bb6b0d56c3695a7bd48b6a", "fusion_lat": 0.0, "type": "electric_scooter", "lat": 38.931010666666666, "is_reserved": 0, "is_disabled": 0, "fusion_lon": 0.0, "bike_id": "482779d2b0bb6b0d56c3695a7bd48b6a", "lon": -77.023992, "rental_uris": {"ios": "https://dc.lft.to/lastmile_qr_scan", "android": "https://dc.lft.to/lastmile_qr_scan"}}, {"name": "1b9328446016b7181cee4dd831f6ff32", "fusion_lat": 0.0, "type": "electric_scooter", "lat": 38.9096, "is_reserved": 0, "is_disabled": 0, "fusion_lon": 0.0, "bike_id": "1b9328446016b7181cee4dd831f6ff32", "lon": -77.0268665, "rental_uris": {"ios": "https://dc.lft.to/lastmile_qr_scan", "android": "https://dc.lft.to/lastmile_qr_scan"}}, {"name": "ff1b15d66f60ce07ab8c8163653add1e", "fusion_lat": 0.0, "type": "electric_scooter", "lat": 38.909632333333334, "is_reserved": 0, "is_disabled": 0, "fusion_lon": 0.0, "bike_id": "ff1b15d66f60ce07ab8c8163653add1e", "lon": -77.038649, "rental_uris": {"ios": "https://dc.lft.to/lastmile_qr_scan", "android": "https://dc.lft.to/lastmile_qr_scan"}}, {"name": "24e48803c6296e9c8aaeeeef2e45eba1", "fusion_lat": 0.0, "type": "electric_bike", "lat": 38.897553333333335, "is_reserved": 0, "is_disabled": 0, "fusion_lon": 0.0, "bike_id": "24e48803c6296e9c8aaeeeef2e45eba1", "lon": -76.9043235, "rental_uris": {"ios": "https://dc.lft.to/lastmile_qr_scan", "android": "https://dc.lft.to/lastmile_qr_scan"}}, {"name": "06bb614825da0e5c146f28f6c9977845", "fusion_lat": 0.0, "type": "electric_scooter", "lat": 38.896151333333336, "is_reserved": 0, "is_disabled": 0, "fusion_lon": 0.0, "bike_id": "06bb614825da0e5c146f28f6c9977845", "lon": -77.05075916666667, "rental_uris": {"ios": "https://dc.lft.to/lastmile_qr_scan", "android": "https://dc.lft.to/lastmile_qr_scan"}}, {"name": "d16ab016abec11525af1d7885727c7b7", "fusion_lat": 0.0, "type": "electric_scooter", "lat": 38.90524283333333, "is_reserved": 0, "is_disabled": 0, "fusion_lon": 0.0, "bike_id": "d16ab016abec11525af1d7885727c7b7", "lon": -77.06225483333333, "rental_uris": {"ios": "https://dc.lft.to/lastmile_qr_scan", "android": "https://dc.lft.to/lastmile_qr_scan"}}, {"name": "809aae561bcbdf7b1c3f58e6b53c8426", "fusion_lat": 0.0, "type": "electric_bike", "lat": 38.993632, "is_reserved": 0, "is_disabled": 0, "fusion_lon": 0.0, "bike_id": "809aae561bcbdf7b1c3f58e6b53c8426", "lon": -77.02665933333333, "rental_uris": {"ios": "https://dc.lft.to/lastmile_qr_scan", "android": "https://dc.lft.to/lastmile_qr_scan"}}, {"name": "74fe0f1688f309f83ff94a62057e574a", "fusion_lat": 0.0, "type": "electric_scooter", "lat": 38.938982833333334, "is_reserved": 0, "is_disabled": 0, "fusion_lon": 0.0, "bike_id": "74fe0f1688f309f83ff94a62057e574a", "lon": -77.0328075, "rental_uris": {"ios": "https://dc.lft.to/lastmile_qr_scan", "android": "https://dc.lft.to/lastmile_qr_scan"}}, {"name": "f41f4d5500d9296ca456166035452992", "fusion_lat": 0.0, "type": "electric_scooter", "lat": 38.888975333333335, "is_reserved": 0, "is_disabled": 0, "fusion_lon": 0.0, "bike_id": "f41f4d5500d9296ca456166035452992", "lon": -77.0328465, "rental_uris": {"ios": "https://dc.lft.to/lastmile_qr_scan", "android": "https://dc.lft.to/lastmile_qr_scan"}}, {"name": "619c27d2abbc2ce7b4830011459451fc", "fusion_lat": 0.0, "type": "electric_scooter", "lat": 38.90978916666667, "is_reserved": 0, "is_disabled": 0, "fusion_lon": 0.0, "bike_id": "619c27d2abbc2ce7b4830011459451fc", "lon": -77.0671405, "rental_uris": {"ios": "https://dc.lft.to/lastmile_qr_scan", "android": "https://dc.lft.to/lastmile_qr_scan"}}, {"name": "d5157b3a2b3eafb854081587480cada3", "fusion_lat": 0.0, "type": "electric_scooter", "lat": 38.911266833333336, "is_reserved": 0, "is_disabled": 0, "fusion_lon": 0.0, "bike_id": "d5157b3a2b3eafb854081587480cada3", "lon": -77.03825383333333, "rental_uris": {"ios": "https://dc.lft.to/lastmile_qr_scan", "android": "https://dc.lft.to/lastmile_qr_scan"}}, {"name": "00f6100b076b03306a195fbbf006fa03", "fusion_lat": 0.0, "type": "electric_scooter", "lat": 38.874164666666665, "is_reserved": 0, "is_disabled": 0, "fusion_lon": 0.0, "bike_id": "00f6100b076b03306a195fbbf006fa03", "lon": -76.96091033333333, "rental_uris": {"ios": "https://dc.lft.to/lastmile_qr_scan", "android": "https://dc.lft.to/lastmile_qr_scan"}}, {"name": "5a32d92e9c7e1502bb90279d362316a8", "fusion_lat": 0.0, "type": "electric_scooter", "lat": 38.8965935, "is_reserved": 0, "is_disabled": 0, "fusion_lon": 0.0, "bike_id": "5a32d92e9c7e1502bb90279d362316a8", "lon": -76.9485575, "rental_uris": {"ios": "https://dc.lft.to/lastmile_qr_scan", "android": "https://dc.lft.to/lastmile_qr_scan"}}, {"name": "a6cd9c555f73d5cdab8f2ac72443da4f", "fusion_lat": 0.0, "type": "electric_scooter", "lat": 38.909020166666664, "is_reserved": 0, "is_disabled": 0, "fusion_lon": 0.0, "bike_id": "a6cd9c555f73d5cdab8f2ac72443da4f", "lon": -77.03834016666667, "rental_uris": {"ios": "https://dc.lft.to/lastmile_qr_scan", "android": "https://dc.lft.to/lastmile_qr_scan"}}, {"name": "1bf7321dd9ce462ffed086ec94c005bb", "fusion_lat": 0.0, "type": "electric_scooter", "lat": 38.91835316666667, "is_reserved": 0, "is_disabled": 0, "fusion_lon": 0.0, "bike_id": "1bf7321dd9ce462ffed086ec94c005bb", "lon": -77.02305033333333, "rental_uris": {"ios": "https://dc.lft.to/lastmile_qr_scan", "android": "https://dc.lft.to/lastmile_qr_scan"}}, {"name": "e884086d566c070abf7bb27519e2496d", "fusion_lat": 0.0, "type": "electric_scooter", "lat": 38.903173333333335, "is_reserved": 0, "is_disabled": 0, "fusion_lon": 0.0, "bike_id": "e884086d566c070abf7bb27519e2496d", "lon": -76.991605, "rental_uris": {"ios": "https://dc.lft.to/lastmile_qr_scan", "android": "https://dc.lft.to/lastmile_qr_scan"}}, {"name": "e0d5aa30e24058d112931e7b3a573f68", "fusion_lat": 0.0, "type": "electric_scooter", "lat": 38.918736333333335, "is_reserved": 0, "is_disabled": 0, "fusion_lon": 0.0, "bike_id": "e0d5aa30e24058d112931e7b3a573f68", "lon": -77.02316483333334, "rental_uris": {"ios": "https://dc.lft.to/lastmile_qr_scan", "android": "https://dc.lft.to/lastmile_qr_scan"}}, {"name": "383fb60cca3b07b53d4821b817c6e448", "fusion_lat": 0.0, "type": "electric_scooter", "lat": 38.942938833333336, "is_reserved": 0, "is_disabled": 0, "fusion_lon": 0.0, "bike_id": "383fb60cca3b07b53d4821b817c6e448", "lon": -77.021725, "rental_uris": {"ios": "https://dc.lft.to/lastmile_qr_scan", "android": "https://dc.lft.to/lastmile_qr_scan"}}, {"name": "5795ef3cba6743846ff80b858111b6f2", "fusion_lat": 0.0, "type": "electric_scooter", "lat": 38.912682833333335, "is_reserved": 0, "is_disabled": 0, "fusion_lon": 0.0, "bike_id": "5795ef3cba6743846ff80b858111b6f2", "lon": -77.04214716666667, "rental_uris": {"ios": "https://dc.lft.to/lastmile_qr_scan", "android": "https://dc.lft.to/lastmile_qr_scan"}}, {"name": "1e4a1941759364e8bdc82fcecec1299d", "fusion_lat": 0.0, "type": "electric_scooter", "lat": 38.902366, "is_reserved": 0, "is_disabled": 0, "fusion_lon": 0.0, "bike_id": "1e4a1941759364e8bdc82fcecec1299d", "lon": -76.97415083333334, "rental_uris": {"ios": "https://dc.lft.to/lastmile_qr_scan", "android": "https://dc.lft.to/lastmile_qr_scan"}}, {"name": "94b93f82d6c8798a809ad17f06e58af0", "fusion_lat": 0.0, "type": "electric_bike", "lat": 38.86164016666667, "is_reserved": 0, "is_disabled": 0, "fusion_lon": 0.0, "bike_id": "94b93f82d6c8798a809ad17f06e58af0", "lon": -77.130926, "rental_uris": {"ios": "https://dc.lft.to/lastmile_qr_scan", "android": "https://dc.lft.to/lastmile_qr_scan"}}, {"name": "37a27e47ec7d0fb1640e490e23ad1e74", "fusion_lat": 0.0, "type": "electric_scooter", "lat": 38.92352783333333, "is_reserved": 0, "is_disabled": 0, "fusion_lon": 0.0, "bike_id": "37a27e47ec7d0fb1640e490e23ad1e74", "lon": -77.03376, "rental_uris": {"ios": "https://dc.lft.to/lastmile_qr_scan", "android": "https://dc.lft.to/lastmile_qr_scan"}}, {"name": "d9fd09b0aa6f2f34b520da12c0116d97", "fusion_lat": 0.0, "type": "electric_scooter", "lat": 38.88335466666667, "is_reserved": 0, "is_disabled": 0, "fusion_lon": 0.0, "bike_id": "d9fd09b0aa6f2f34b520da12c0116d97", "lon": -77.02322183333334, "rental_uris": {"ios": "https://dc.lft.to/lastmile_qr_scan", "android": "https://dc.lft.to/lastmile_qr_scan"}}, {"name": "4a95074835c8e572f537e02d993f284b", "fusion_lat": 0.0, "type": "electric_scooter", "lat": 38.93484733333333, "is_reserved": 0, "is_disabled": 0, "fusion_lon": 0.0, "bike_id": "4a95074835c8e572f537e02d993f284b", "lon": -77.03388583333333, "rental_uris": {"ios": "https://dc.lft.to/lastmile_qr_scan", "android": "https://dc.lft.to/lastmile_qr_scan"}}, {"name": "fe4c2352d5a97fae413517efb970fc62", "fusion_lat": 0.0, "type": "electric_scooter", "lat": 38.92179266666667, "is_reserved": 0, "is_disabled": 0, "fusion_lon": 0.0, "bike_id": "fe4c2352d5a97fae413517efb970fc62", "lon": -77.02669466666667, "rental_uris": {"ios": "https://dc.lft.to/lastmile_qr_scan", "android": "https://dc.lft.to/lastmile_qr_scan"}}, {"name": "d63b33ae11fe3b4bf784604cab1efb2b", "fusion_lat": 0.0, "type": "electric_scooter", "lat": 38.892439, "is_reserved": 0, "is_disabled": 0, "fusion_lon": 0.0, "bike_id": "d63b33ae11fe3b4bf784604cab1efb2b", "lon": -77.017924, "rental_uris": {"ios": "https://dc.lft.to/lastmile_qr_scan", "android": "https://dc.lft.to/lastmile_qr_scan"}}, {"name": "14e9c54443de07309ef968d305e7b30a", "fusion_lat": 0.0, "type": "electric_scooter", "lat": 38.900081666666665, "is_reserved": 0, "is_disabled": 0, "fusion_lon": 0.0, "bike_id": "14e9c54443de07309ef968d305e7b30a", "lon": -77.01191866666667, "rental_uris": {"ios": "https://dc.lft.to/lastmile_qr_scan", "android": "https://dc.lft.to/lastmile_qr_scan"}}, {"name": "11316115252d044ce80ae89d66ea0c54", "fusion_lat": 0.0, "type": "electric_scooter", "lat": 38.91407016666667, "is_reserved": 0, "is_disabled": 0, "fusion_lon": 0.0, "bike_id": "11316115252d044ce80ae89d66ea0c54", "lon": -77.0080615, "rental_uris": {"ios": "https://dc.lft.to/lastmile_qr_scan", "android": "https://dc.lft.to/lastmile_qr_scan"}}, {"name": "ee53bfe6864927a0a50a1d0ac1668945", "fusion_lat": 0.0, "type": "electric_scooter", "lat": 38.9057095, "is_reserved": 0, "is_disabled": 0, "fusion_lon": 0.0, "bike_id": "ee53bfe6864927a0a50a1d0ac1668945", "lon": -77.03655733333333, "rental_uris": {"ios": "https://dc.lft.to/lastmile_qr_scan", "android": "https://dc.lft.to/lastmile_qr_scan"}}, {"name": "60557be9948dd3e90ae133407563900e", "fusion_lat": 0.0, "type": "electric_bike", "lat": 38.96768333333333, "is_reserved": 0, "is_disabled": 0, "fusion_lon": 0.0, "bike_id": "60557be9948dd3e90ae133407563900e", "lon": -77.091663, "rental_uris": {"ios": "https://dc.lft.to/lastmile_qr_scan", "android": "https://dc.lft.to/lastmile_qr_scan"}}, {"name": "dddcd1f7f4aa93080f41b27a8e198593", "fusion_lat": 0.0, "type": "electric_scooter", "lat": 38.920745833333335, "is_reserved": 0, "is_disabled": 0, "fusion_lon": 0.0, "bike_id": "dddcd1f7f4aa93080f41b27a8e198593", "lon": -77.02395566666667, "rental_uris": {"ios": "https://dc.lft.to/lastmile_qr_scan", "android": "https://dc.lft.to/lastmile_qr_scan"}}, {"name": "5e162e647a2511d24cc859deb57ee45a", "fusion_lat": 0.0, "type": "electric_scooter", "lat": 38.909848333333336, "is_reserved": 0, "is_disabled": 0, "fusion_lon": 0.0, "bike_id": "5e162e647a2511d24cc859deb57ee45a", "lon": -77.04869266666667, "rental_uris": {"ios": "https://dc.lft.to/lastmile_qr_scan", "android": "https://dc.lft.to/lastmile_qr_scan"}}, {"name": "ad63afd6162ab777018ae622bfa1e369", "fusion_lat": 0.0, "type": "electric_scooter", "lat": 38.91595066666667, "is_reserved": 0, "is_disabled": 0, "fusion_lon": 0.0, "bike_id": "ad63afd6162ab777018ae622bfa1e369", "lon": -77.04362416666666, "rental_uris": {"ios": "https://dc.lft.to/lastmile_qr_scan", "android": "https://dc.lft.to/lastmile_qr_scan"}}, {"name": "fd2738c262b45e83e31b33a4a0f1aab5", "fusion_lat": 0.0, "type": "electric_bike", "lat": 38.84346933333333, "is_reserved": 0, "is_disabled": 0, "fusion_lon": 0.0, "bike_id": "fd2738c262b45e83e31b33a4a0f1aab5", "lon": -77.06344116666666, "rental_uris": {"ios": "https://dc.lft.to/lastmile_qr_scan", "android": "https://dc.lft.to/lastmile_qr_scan"}}, {"name": "6aa9719fa9da4e3c74dbf485d291f627", "fusion_lat": 0.0, "type": "electric_scooter", "lat": 38.901275, "is_reserved": 0, "is_disabled": 0, "fusion_lon": 0.0, "bike_id": "6aa9719fa9da4e3c74dbf485d291f627", "lon": -77.02479216666667, "rental_uris": {"ios": "https://dc.lft.to/lastmile_qr_scan", "android": "https://dc.lft.to/lastmile_qr_scan"}}, {"name": "9d4fcc7bb6161b3479cf61f2fecb12e0", "fusion_lat": 0.0, "type": "electric_scooter", "lat": 38.92485683333334, "is_reserved": 0, "is_disabled": 0, "fusion_lon": 0.0, "bike_id": "9d4fcc7bb6161b3479cf61f2fecb12e0", "lon": -77.02710083333334, "rental_uris": {"ios": "https://dc.lft.to/lastmile_qr_scan", "android": "https://dc.lft.to/lastmile_qr_scan"}}, {"name": "0a4ecf2e6da2f356e4fb38c00fd504a3", "fusion_lat": 0.0, "type": "electric_scooter", "lat": 38.897333333333336, "is_reserved": 0, "is_disabled": 0, "fusion_lon": 0.0, "bike_id": "0a4ecf2e6da2f356e4fb38c00fd504a3", "lon": -77.0434085, "rental_uris": {"ios": "https://dc.lft.to/lastmile_qr_scan", "android": "https://dc.lft.to/lastmile_qr_scan"}}, {"name": "572d1e1e8c02e02dfe3b2b29c29638dc", "fusion_lat": 0.0, "type": "electric_scooter", "lat": 38.907238166666666, "is_reserved": 0, "is_disabled": 0, "fusion_lon": 0.0, "bike_id": "572d1e1e8c02e02dfe3b2b29c29638dc", "lon": -77.033581, "rental_uris": {"ios": "https://dc.lft.to/lastmile_qr_scan", "android": "https://dc.lft.to/lastmile_qr_scan"}}, {"name": "5a6e7eed6760ee0872eafc66bd847268", "fusion_lat": 0.0, "type": "electric_scooter", "lat": 38.93012216666666, "is_reserved": 0, "is_disabled": 0, "fusion_lon": 0.0, "bike_id": "5a6e7eed6760ee0872eafc66bd847268", "lon": -77.02326383333333, "rental_uris": {"ios": "https://dc.lft.to/lastmile_qr_scan", "android": "https://dc.lft.to/lastmile_qr_scan"}}, {"name": "4d1ebf5208ad6568fb6795793d6eafcf", "fusion_lat": 0.0, "type": "electric_scooter", "lat": 38.89245283333333, "is_reserved": 0, "is_disabled": 0, "fusion_lon": 0.0, "bike_id": "4d1ebf5208ad6568fb6795793d6eafcf", "lon": -77.03183516666667, "rental_uris": {"ios": "https://dc.lft.to/lastmile_qr_scan", "android": "https://dc.lft.to/lastmile_qr_scan"}}, {"name": "b4e3e3e00c52626238f33ef4cad9c3e5", "fusion_lat": 0.0, "type": "electric_scooter", "lat": 38.879159, "is_reserved": 0, "is_disabled": 0, "fusion_lon": 0.0, "bike_id": "b4e3e3e00c52626238f33ef4cad9c3e5", "lon": -77.0216135, "rental_uris": {"ios": "https://dc.lft.to/lastmile_qr_scan", "android": "https://dc.lft.to/lastmile_qr_scan"}}, {"name": "e5b05616e8f071cd62d1f59fd9bd9453", "fusion_lat": 0.0, "type": "electric_scooter", "lat": 38.8955645, "is_reserved": 0, "is_disabled": 0, "fusion_lon": 0.0, "bike_id": "e5b05616e8f071cd62d1f59fd9bd9453", "lon": -76.98373383333333, "rental_uris": {"ios": "https://dc.lft.to/lastmile_qr_scan", "android": "https://dc.lft.to/lastmile_qr_scan"}}, {"name": "792b635cc9c1bfabf4c437cdf8c3dfd9", "fusion_lat": 0.0, "type": "electric_bike", "lat": 38.85215616666667, "is_reserved": 0, "is_disabled": 0, "fusion_lon": 0.0, "bike_id": "792b635cc9c1bfabf4c437cdf8c3dfd9", "lon": -77.12951416666667, "rental_uris": {"ios": "https://dc.lft.to/lastmile_qr_scan", "android": "https://dc.lft.to/lastmile_qr_scan"}}, {"name": "cf48be6f103efbdac4c8c6002d1b07e2", "fusion_lat": 0.0, "type": "electric_scooter", "lat": 38.919531666666664, "is_reserved": 0, "is_disabled": 0, "fusion_lon": 0.0, "bike_id": "cf48be6f103efbdac4c8c6002d1b07e2", "lon": -77.01386433333333, "rental_uris": {"ios": "https://dc.lft.to/lastmile_qr_scan", "android": "https://dc.lft.to/lastmile_qr_scan"}}, {"name": "7473c967406c6d11b143ee9ab0217643", "fusion_lat": 0.0, "type": "electric_scooter", "lat": 38.900704, "is_reserved": 0, "is_disabled": 0, "fusion_lon": 0.0, "bike_id": "7473c967406c6d11b143ee9ab0217643", "lon": -77.0488085, "rental_uris": {"ios": "https://dc.lft.to/lastmile_qr_scan", "android": "https://dc.lft.to/lastmile_qr_scan"}}, {"name": "3d98ff552034aa10eedae31f6d94ae6d", "fusion_lat": 0.0, "type": "electric_scooter", "lat": 38.91732716666667, "is_reserved": 0, "is_disabled": 0, "fusion_lon": 0.0, "bike_id": "3d98ff552034aa10eedae31f6d94ae6d", "lon": -77.038406, "rental_uris": {"ios": "https://dc.lft.to/lastmile_qr_scan", "android": "https://dc.lft.to/lastmile_qr_scan"}}, {"name": "effe415a0883b4f391e6c8f2c56503f0", "fusion_lat": 0.0, "type": "electric_scooter", "lat": 38.87662233333333, "is_reserved": 0, "is_disabled": 0, "fusion_lon": 0.0, "bike_id": "effe415a0883b4f391e6c8f2c56503f0", "lon": -77.00428816666667, "rental_uris": {"ios": "https://dc.lft.to/lastmile_qr_scan", "android": "https://dc.lft.to/lastmile_qr_scan"}}, {"name": "cc468c57fb430f5f23d272af5979d144", "fusion_lat": 0.0, "type": "electric_bike", "lat": 38.86598016666667, "is_reserved": 0, "is_disabled": 0, "fusion_lon": 0.0, "bike_id": "cc468c57fb430f5f23d272af5979d144", "lon": -76.9322725, "rental_uris": {"ios": "https://dc.lft.to/lastmile_qr_scan", "android": "https://dc.lft.to/lastmile_qr_scan"}}, {"name": "636d382393d1e52e007c1f2ff3ded55f", "fusion_lat": 0.0, "type": "electric_scooter", "lat": 38.880542166666665, "is_reserved": 0, "is_disabled": 0, "fusion_lon": 0.0, "bike_id": "636d382393d1e52e007c1f2ff3ded55f", "lon": -76.95990233333333, "rental_uris": {"ios": "https://dc.lft.to/lastmile_qr_scan", "android": "https://dc.lft.to/lastmile_qr_scan"}}, {"name": "bbb84130cb6908b6a87dee81f26657f7", "fusion_lat": 0.0, "type": "electric_scooter", "lat": 38.9158405, "is_reserved": 0, "is_disabled": 0, "fusion_lon": 0.0, "bike_id": "bbb84130cb6908b6a87dee81f26657f7", "lon": -77.03192566666667, "rental_uris": {"ios": "https://dc.lft.to/lastmile_qr_scan", "android": "https://dc.lft.to/lastmile_qr_scan"}}, {"name": "b5fe4aef2a7381915ebb37372e4f8280", "fusion_lat": 0.0, "type": "electric_bike", "lat": 38.98454666666667, "is_reserved": 0, "is_disabled": 0, "fusion_lon": 0.0, "bike_id": "b5fe4aef2a7381915ebb37372e4f8280", "lon": -76.95528166666666, "rental_uris": {"ios": "https://dc.lft.to/lastmile_qr_scan", "android": "https://dc.lft.to/lastmile_qr_scan"}}, {"name": "bb4a7c06302508120652658355c77611", "fusion_lat": 0.0, "type": "electric_scooter", "lat": 38.929672, "is_reserved": 0, "is_disabled": 0, "fusion_lon": 0.0, "bike_id": "bb4a7c06302508120652658355c77611", "lon": -77.01979216666666, "rental_uris": {"ios": "https://dc.lft.to/lastmile_qr_scan", "android": "https://dc.lft.to/lastmile_qr_scan"}}, {"name": "9803619b65eb7e0152136bfe6247d15f", "fusion_lat": 0.0, "type": "electric_bike", "lat": 38.923496166666666, "is_reserved": 0, "is_disabled": 0, "fusion_lon": 0.0, "bike_id": "9803619b65eb7e0152136bfe6247d15f", "lon": -76.99253633333333, "rental_uris": {"ios": "https://dc.lft.to/lastmile_qr_scan", "android": "https://dc.lft.to/lastmile_qr_scan"}}, {"name": "03b60d6e7166ef6389dc64a1c690deb3", "fusion_lat": 0.0, "type": "electric_scooter", "lat": 38.872684, "is_reserved": 0, "is_disabled": 0, "fusion_lon": 0.0, "bike_id": "03b60d6e7166ef6389dc64a1c690deb3", "lon": -77.01532533333334, "rental_uris": {"ios": "https://dc.lft.to/lastmile_qr_scan", "android": "https://dc.lft.to/lastmile_qr_scan"}}, {"name": "430cf7919d1f7bf370b571463d621570", "fusion_lat": 0.0, "type": "electric_scooter", "lat": 38.901372333333335, "is_reserved": 0, "is_disabled": 0, "fusion_lon": 0.0, "bike_id": "430cf7919d1f7bf370b571463d621570", "lon": -77.00069483333333, "rental_uris": {"ios": "https://dc.lft.to/lastmile_qr_scan", "android": "https://dc.lft.to/lastmile_qr_scan"}}, {"name": "12ae66714b5d50ca40d8d085ce1fad25", "fusion_lat": 0.0, "type": "electric_scooter", "lat": 38.93829866666667, "is_reserved": 0, "is_disabled": 0, "fusion_lon": 0.0, "bike_id": "12ae66714b5d50ca40d8d085ce1fad25", "lon": -77.02643033333334, "rental_uris": {"ios": "https://dc.lft.to/lastmile_qr_scan", "android": "https://dc.lft.to/lastmile_qr_scan"}}, {"name": "ca309d12797014dd16db9bcb0ecf2253", "fusion_lat": 0.0, "type": "electric_scooter", "lat": 38.91606266666667, "is_reserved": 0, "is_disabled": 0, "fusion_lon": 0.0, "bike_id": "ca309d12797014dd16db9bcb0ecf2253", "lon": -77.04158683333333, "rental_uris": {"ios": "https://dc.lft.to/lastmile_qr_scan", "android": "https://dc.lft.to/lastmile_qr_scan"}}, {"name": "a680889f0f6a85193f579e4bf5aeaae6", "fusion_lat": 0.0, "type": "electric_scooter", "lat": 38.907449, "is_reserved": 0, "is_disabled": 0, "fusion_lon": 0.0, "bike_id": "a680889f0f6a85193f579e4bf5aeaae6", "lon": -77.00115916666667, "rental_uris": {"ios": "https://dc.lft.to/lastmile_qr_scan", "android": "https://dc.lft.to/lastmile_qr_scan"}}, {"name": "c05b7365822dffdcc1df88b3d329da6d", "fusion_lat": 0.0, "type": "electric_scooter", "lat": 38.912259, "is_reserved": 0, "is_disabled": 0, "fusion_lon": 0.0, "bike_id": "c05b7365822dffdcc1df88b3d329da6d", "lon": -77.029492, "rental_uris": {"ios": "https://dc.lft.to/lastmile_qr_scan", "android": "https://dc.lft.to/lastmile_qr_scan"}}, {"name": "1d9c65478729de7d2e483a76db3a53e1", "fusion_lat": 0.0, "type": "electric_bike", "lat": 38.95186416666667, "is_reserved": 0, "is_disabled": 0, "fusion_lon": 0.0, "bike_id": "1d9c65478729de7d2e483a76db3a53e1", "lon": -76.93545216666666, "rental_uris": {"ios": "https://dc.lft.to/lastmile_qr_scan", "android": "https://dc.lft.to/lastmile_qr_scan"}}, {"name": "56b72ad48610b0d1c9be95c9076b0f99", "fusion_lat": 0.0, "type": "electric_scooter", "lat": 38.8983285, "is_reserved": 0, "is_disabled": 0, "fusion_lon": 0.0, "bike_id": "56b72ad48610b0d1c9be95c9076b0f99", "lon": -77.0407675, "rental_uris": {"ios": "https://dc.lft.to/lastmile_qr_scan", "android": "https://dc.lft.to/lastmile_qr_scan"}}, {"name": "12d7f1f4c7bc9c40e1e5015760239142", "fusion_lat": 0.0, "type": "electric_scooter", "lat": 38.941838, "is_reserved": 0, "is_disabled": 0, "fusion_lon": 0.0, "bike_id": "12d7f1f4c7bc9c40e1e5015760239142", "lon": -77.02490333333333, "rental_uris": {"ios": "https://dc.lft.to/lastmile_qr_scan", "android": "https://dc.lft.to/lastmile_qr_scan"}}, {"name": "121ef5ded0feb60a12393f1da40fa828", "fusion_lat": 0.0, "type": "electric_scooter", "lat": 38.905417, "is_reserved": 0, "is_disabled": 0, "fusion_lon": 0.0, "bike_id": "121ef5ded0feb60a12393f1da40fa828", "lon": -77.06270433333333, "rental_uris": {"ios": "https://dc.lft.to/lastmile_qr_scan", "android": "https://dc.lft.to/lastmile_qr_scan"}}, {"name": "bf5441a657976e1810c8c31bef884526", "fusion_lat": 0.0, "type": "electric_scooter", "lat": 38.8956835, "is_reserved": 0, "is_disabled": 0, "fusion_lon": 0.0, "bike_id": "bf5441a657976e1810c8c31bef884526", "lon": -77.011151, "rental_uris": {"ios": "https://dc.lft.to/lastmile_qr_scan", "android": "https://dc.lft.to/lastmile_qr_scan"}}, {"name": "26ed9cbda65ffbb2214a86def81fdef1", "fusion_lat": 0.0, "type": "electric_scooter", "lat": 38.938746333333334, "is_reserved": 0, "is_disabled": 0, "fusion_lon": 0.0, "bike_id": "26ed9cbda65ffbb2214a86def81fdef1", "lon": -77.03221483333333, "rental_uris": {"ios": "https://dc.lft.to/lastmile_qr_scan", "android": "https://dc.lft.to/lastmile_qr_scan"}}, {"name": "686d89d264a1195881794338474e7fbd", "fusion_lat": 0.0, "type": "electric_scooter", "lat": 38.9050415, "is_reserved": 0, "is_disabled": 0, "fusion_lon": 0.0, "bike_id": "686d89d264a1195881794338474e7fbd", "lon": -77.06939983333334, "rental_uris": {"ios": "https://dc.lft.to/lastmile_qr_scan", "android": "https://dc.lft.to/lastmile_qr_scan"}}, {"name": "566661791893aa3c2d127007d79ff931", "fusion_lat": 0.0, "type": "electric_scooter", "lat": 38.92053416666667, "is_reserved": 0, "is_disabled": 0, "fusion_lon": 0.0, "bike_id": "566661791893aa3c2d127007d79ff931", "lon": -77.01695016666666, "rental_uris": {"ios": "https://dc.lft.to/lastmile_qr_scan", "android": "https://dc.lft.to/lastmile_qr_scan"}}, {"name": "757cf7beecf7143142e3a7c56a68907b", "fusion_lat": 0.0, "type": "electric_scooter", "lat": 38.9074275, "is_reserved": 0, "is_disabled": 0, "fusion_lon": 0.0, "bike_id": "757cf7beecf7143142e3a7c56a68907b", "lon": -77.0467095, "rental_uris": {"ios": "https://dc.lft.to/lastmile_qr_scan", "android": "https://dc.lft.to/lastmile_qr_scan"}}, {"name": "1a0120389ea0e66b68afa700ed159549", "fusion_lat": 0.0, "type": "electric_scooter", "lat": 38.892404, "is_reserved": 0, "is_disabled": 0, "fusion_lon": 0.0, "bike_id": "1a0120389ea0e66b68afa700ed159549", "lon": -77.031907, "rental_uris": {"ios": "https://dc.lft.to/lastmile_qr_scan", "android": "https://dc.lft.to/lastmile_qr_scan"}}, {"name": "fb27d4405b104e13b430c65d5d264afc", "fusion_lat": 0.0, "type": "electric_scooter", "lat": 38.911845666666665, "is_reserved": 0, "is_disabled": 0, "fusion_lon": 0.0, "bike_id": "fb27d4405b104e13b430c65d5d264afc", "lon": -77.00731116666667, "rental_uris": {"ios": "https://dc.lft.to/lastmile_qr_scan", "android": "https://dc.lft.to/lastmile_qr_scan"}}, {"name": "a201b4ec8ff68178cdaf88b635fd6ca2", "fusion_lat": 0.0, "type": "electric_scooter", "lat": 38.911114166666664, "is_reserved": 0, "is_disabled": 0, "fusion_lon": 0.0, "bike_id": "a201b4ec8ff68178cdaf88b635fd6ca2", "lon": -77.01060516666666, "rental_uris": {"ios": "https://dc.lft.to/lastmile_qr_scan", "android": "https://dc.lft.to/lastmile_qr_scan"}}, {"name": "14ea577f536bb185e26e4d96651d8598", "fusion_lat": 0.0, "type": "electric_scooter", "lat": 38.92542266666667, "is_reserved": 0, "is_disabled": 0, "fusion_lon": 0.0, "bike_id": "14ea577f536bb185e26e4d96651d8598", "lon": -77.03269583333334, "rental_uris": {"ios": "https://dc.lft.to/lastmile_qr_scan", "android": "https://dc.lft.to/lastmile_qr_scan"}}, {"name": "50057a75548de670fd951ff827d80982", "fusion_lat": 0.0, "type": "electric_scooter", "lat": 38.923153, "is_reserved": 0, "is_disabled": 0, "fusion_lon": 0.0, "bike_id": "50057a75548de670fd951ff827d80982", "lon": -77.0395705, "rental_uris": {"ios": "https://dc.lft.to/lastmile_qr_scan", "android": "https://dc.lft.to/lastmile_qr_scan"}}, {"name": "2c8b9909861a8ba59b2535911c8fc677", "fusion_lat": 0.0, "type": "electric_scooter", "lat": 38.939463833333335, "is_reserved": 0, "is_disabled": 0, "fusion_lon": 0.0, "bike_id": "2c8b9909861a8ba59b2535911c8fc677", "lon": -77.03624966666666, "rental_uris": {"ios": "https://dc.lft.to/lastmile_qr_scan", "android": "https://dc.lft.to/lastmile_qr_scan"}}, {"name": "ae7c19860c1133ce2ab3da89027debe8", "fusion_lat": 0.0, "type": "electric_scooter", "lat": 38.902583166666666, "is_reserved": 0, "is_disabled": 0, "fusion_lon": 0.0, "bike_id": "ae7c19860c1133ce2ab3da89027debe8", "lon": -77.0154365, "rental_uris": {"ios": "https://dc.lft.to/lastmile_qr_scan", "android": "https://dc.lft.to/lastmile_qr_scan"}}, {"name": "d5daad6a348cbf77a6fbec7b1a136e5c", "fusion_lat": 0.0, "type": "electric_bike", "lat": 38.973272, "is_reserved": 0, "is_disabled": 0, "fusion_lon": 0.0, "bike_id": "d5daad6a348cbf77a6fbec7b1a136e5c", "lon": -77.0215065, "rental_uris": {"ios": "https://dc.lft.to/lastmile_qr_scan", "android": "https://dc.lft.to/lastmile_qr_scan"}}, {"name": "cc80476ab9cce237501e4777af17b84d", "fusion_lat": 0.0, "type": "electric_scooter", "lat": 38.90315366666667, "is_reserved": 0, "is_disabled": 0, "fusion_lon": 0.0, "bike_id": "cc80476ab9cce237501e4777af17b84d", "lon": -77.03843633333334, "rental_uris": {"ios": "https://dc.lft.to/lastmile_qr_scan", "android": "https://dc.lft.to/lastmile_qr_scan"}}, {"name": "7af031aead9fa230ea72f4b31336493c", "fusion_lat": 0.0, "type": "electric_scooter", "lat": 38.918011, "is_reserved": 0, "is_disabled": 0, "fusion_lon": 0.0, "bike_id": "7af031aead9fa230ea72f4b31336493c", "lon": -77.02818216666667, "rental_uris": {"ios": "https://dc.lft.to/lastmile_qr_scan", "android": "https://dc.lft.to/lastmile_qr_scan"}}, {"name": "401d8931ec2fb3945898c12772c43753", "fusion_lat": 0.0, "type": "electric_scooter", "lat": 38.92217766666667, "is_reserved": 0, "is_disabled": 0, "fusion_lon": 0.0, "bike_id": "401d8931ec2fb3945898c12772c43753", "lon": -77.04237766666667, "rental_uris": {"ios": "https://dc.lft.to/lastmile_qr_scan", "android": "https://dc.lft.to/lastmile_qr_scan"}}, {"name": "0f27bd1229b5540ccd1f40aafbc653e6", "fusion_lat": 0.0, "type": "electric_scooter", "lat": 38.93097083333333, "is_reserved": 0, "is_disabled": 0, "fusion_lon": 0.0, "bike_id": "0f27bd1229b5540ccd1f40aafbc653e6", "lon": -77.0240455, "rental_uris": {"ios": "https://dc.lft.to/lastmile_qr_scan", "android": "https://dc.lft.to/lastmile_qr_scan"}}, {"name": "2acd3b4a6b446806e438b0d9ea7910f3", "fusion_lat": 0.0, "type": "electric_scooter", "lat": 38.93966433333333, "is_reserved": 0, "is_disabled": 0, "fusion_lon": 0.0, "bike_id": "2acd3b4a6b446806e438b0d9ea7910f3", "lon": -77.03283766666667, "rental_uris": {"ios": "https://dc.lft.to/lastmile_qr_scan", "android": "https://dc.lft.to/lastmile_qr_scan"}}, {"name": "15eb72e9c43ce803a033687d23806548", "fusion_lat": 0.0, "type": "electric_scooter", "lat": 38.901402833333336, "is_reserved": 0, "is_disabled": 0, "fusion_lon": 0.0, "bike_id": "15eb72e9c43ce803a033687d23806548", "lon": -76.99971, "rental_uris": {"ios": "https://dc.lft.to/lastmile_qr_scan", "android": "https://dc.lft.to/lastmile_qr_scan"}}, {"name": "0717fa5e946499be34c88a283a454947", "fusion_lat": 0.0, "type": "electric_scooter", "lat": 38.903240833333335, "is_reserved": 0, "is_disabled": 0, "fusion_lon": 0.0, "bike_id": "0717fa5e946499be34c88a283a454947", "lon": -77.031974, "rental_uris": {"ios": "https://dc.lft.to/lastmile_qr_scan", "android": "https://dc.lft.to/lastmile_qr_scan"}}, {"name": "57c8eab3a328e32bdb722cdd88db1757", "fusion_lat": 0.0, "type": "electric_scooter", "lat": 38.91426116666667, "is_reserved": 0, "is_disabled": 0, "fusion_lon": 0.0, "bike_id": "57c8eab3a328e32bdb722cdd88db1757", "lon": -77.02605583333333, "rental_uris": {"ios": "https://dc.lft.to/lastmile_qr_scan", "android": "https://dc.lft.to/lastmile_qr_scan"}}, {"name": "b6f8dac97c14eef7270b9aaa1bcf5169", "fusion_lat": 0.0, "type": "electric_scooter", "lat": 38.88928333333333, "is_reserved": 0, "is_disabled": 0, "fusion_lon": 0.0, "bike_id": "b6f8dac97c14eef7270b9aaa1bcf5169", "lon": -76.94781466666667, "rental_uris": {"ios": "https://dc.lft.to/lastmile_qr_scan", "android": "https://dc.lft.to/lastmile_qr_scan"}}, {"name": "2ccd66389c87d41cc2140fb46d6303b7", "fusion_lat": 0.0, "type": "electric_bike", "lat": 38.83861433333333, "is_reserved": 0, "is_disabled": 0, "fusion_lon": 0.0, "bike_id": "2ccd66389c87d41cc2140fb46d6303b7", "lon": -77.08862383333333, "rental_uris": {"ios": "https://dc.lft.to/lastmile_qr_scan", "android": "https://dc.lft.to/lastmile_qr_scan"}}, {"name": "0c068546691fbaf0ed1551739796a397", "fusion_lat": 0.0, "type": "electric_scooter", "lat": 38.88917466666667, "is_reserved": 0, "is_disabled": 0, "fusion_lon": 0.0, "bike_id": "0c068546691fbaf0ed1551739796a397", "lon": -76.95372366666666, "rental_uris": {"ios": "https://dc.lft.to/lastmile_qr_scan", "android": "https://dc.lft.to/lastmile_qr_scan"}}, {"name": "880f353c4f5091dbfe24eafb244ba2cd", "fusion_lat": 0.0, "type": "electric_scooter", "lat": 38.928869, "is_reserved": 0, "is_disabled": 0, "fusion_lon": 0.0, "bike_id": "880f353c4f5091dbfe24eafb244ba2cd", "lon": -77.02313716666667, "rental_uris": {"ios": "https://dc.lft.to/lastmile_qr_scan", "android": "https://dc.lft.to/lastmile_qr_scan"}}, {"name": "aec1514f85056747d28d6efbeb1243e4", "fusion_lat": 0.0, "type": "electric_scooter", "lat": 38.911991666666665, "is_reserved": 0, "is_disabled": 0, "fusion_lon": 0.0, "bike_id": "aec1514f85056747d28d6efbeb1243e4", "lon": -77.04459, "rental_uris": {"ios": "https://dc.lft.to/lastmile_qr_scan", "android": "https://dc.lft.to/lastmile_qr_scan"}}, {"name": "38b025ea7540290f400d4b428c9baea0", "fusion_lat": 0.0, "type": "electric_scooter", "lat": 38.90577783333333, "is_reserved": 0, "is_disabled": 0, "fusion_lon": 0.0, "bike_id": "38b025ea7540290f400d4b428c9baea0", "lon": -77.02748416666667, "rental_uris": {"ios": "https://dc.lft.to/lastmile_qr_scan", "android": "https://dc.lft.to/lastmile_qr_scan"}}, {"name": "ea18726cb9e2d32cc8d77972043e92d0", "fusion_lat": 0.0, "type": "electric_scooter", "lat": 38.891992333333334, "is_reserved": 0, "is_disabled": 0, "fusion_lon": 0.0, "bike_id": "ea18726cb9e2d32cc8d77972043e92d0", "lon": -77.002441, "rental_uris": {"ios": "https://dc.lft.to/lastmile_qr_scan", "android": "https://dc.lft.to/lastmile_qr_scan"}}, {"name": "85044869670e2b7b1ad0fcfb005fb301", "fusion_lat": 0.0, "type": "electric_scooter", "lat": 38.93467533333333, "is_reserved": 0, "is_disabled": 0, "fusion_lon": 0.0, "bike_id": "85044869670e2b7b1ad0fcfb005fb301", "lon": -77.02849633333334, "rental_uris": {"ios": "https://dc.lft.to/lastmile_qr_scan", "android": "https://dc.lft.to/lastmile_qr_scan"}}, {"name": "ae118bc8720f06b8d96a2f1d956ca17a", "fusion_lat": 0.0, "type": "electric_scooter", "lat": 38.9036485, "is_reserved": 0, "is_disabled": 0, "fusion_lon": 0.0, "bike_id": "ae118bc8720f06b8d96a2f1d956ca17a", "lon": -77.04503033333333, "rental_uris": {"ios": "https://dc.lft.to/lastmile_qr_scan", "android": "https://dc.lft.to/lastmile_qr_scan"}}, {"name": "6b522d022f8e6bc22782c2b113856179", "fusion_lat": 0.0, "type": "electric_scooter", "lat": 38.902633333333334, "is_reserved": 0, "is_disabled": 0, "fusion_lon": 0.0, "bike_id": "6b522d022f8e6bc22782c2b113856179", "lon": -76.99602666666667, "rental_uris": {"ios": "https://dc.lft.to/lastmile_qr_scan", "android": "https://dc.lft.to/lastmile_qr_scan"}}, {"name": "319d8fa0bcc76916bbd1fd195c2b5cc1", "fusion_lat": 0.0, "type": "electric_scooter", "lat": 38.9377145, "is_reserved": 0, "is_disabled": 0, "fusion_lon": 0.0, "bike_id": "319d8fa0bcc76916bbd1fd195c2b5cc1", "lon": -77.0328305, "rental_uris": {"ios": "https://dc.lft.to/lastmile_qr_scan", "android": "https://dc.lft.to/lastmile_qr_scan"}}, {"name": "6b49a6a4589706f52f49bf8df532fb77", "fusion_lat": 0.0, "type": "electric_scooter", "lat": 38.92644683333333, "is_reserved": 0, "is_disabled": 0, "fusion_lon": 0.0, "bike_id": "6b49a6a4589706f52f49bf8df532fb77", "lon": -77.03696133333334, "rental_uris": {"ios": "https://dc.lft.to/lastmile_qr_scan", "android": "https://dc.lft.to/lastmile_qr_scan"}}, {"name": "12b8e19aba8eef5e27df66779bcfdd4a", "fusion_lat": 0.0, "type": "electric_scooter", "lat": 38.909704833333336, "is_reserved": 0, "is_disabled": 0, "fusion_lon": 0.0, "bike_id": "12b8e19aba8eef5e27df66779bcfdd4a", "lon": -77.03383483333333, "rental_uris": {"ios": "https://dc.lft.to/lastmile_qr_scan", "android": "https://dc.lft.to/lastmile_qr_scan"}}, {"name": "d3ce6b0d58d6013e49f058998e85ee4e", "fusion_lat": 0.0, "type": "electric_scooter", "lat": 38.920723333333335, "is_reserved": 0, "is_disabled": 0, "fusion_lon": 0.0, "bike_id": "d3ce6b0d58d6013e49f058998e85ee4e", "lon": -77.04378216666667, "rental_uris": {"ios": "https://dc.lft.to/lastmile_qr_scan", "android": "https://dc.lft.to/lastmile_qr_scan"}}, {"name": "9a18327e83dc4d68c4bc21dbb51052ba", "fusion_lat": 0.0, "type": "electric_scooter", "lat": 38.96112733333333, "is_reserved": 0, "is_disabled": 0, "fusion_lon": 0.0, "bike_id": "9a18327e83dc4d68c4bc21dbb51052ba", "lon": -77.028179, "rental_uris": {"ios": "https://dc.lft.to/lastmile_qr_scan", "android": "https://dc.lft.to/lastmile_qr_scan"}}, {"name": "68339cff24f83956ffaa92e421980f11", "fusion_lat": 0.0, "type": "electric_scooter", "lat": 38.91702266666667, "is_reserved": 0, "is_disabled": 0, "fusion_lon": 0.0, "bike_id": "68339cff24f83956ffaa92e421980f11", "lon": -77.02850783333334, "rental_uris": {"ios": "https://dc.lft.to/lastmile_qr_scan", "android": "https://dc.lft.to/lastmile_qr_scan"}}, {"name": "0d9a0b0e8f4ab87ffaf854fe5890f5b8", "fusion_lat": 0.0, "type": "electric_scooter", "lat": 38.9026615, "is_reserved": 0, "is_disabled": 0, "fusion_lon": 0.0, "bike_id": "0d9a0b0e8f4ab87ffaf854fe5890f5b8", "lon": -77.01762083333334, "rental_uris": {"ios": "https://dc.lft.to/lastmile_qr_scan", "android": "https://dc.lft.to/lastmile_qr_scan"}}, {"name": "bf5d34c4e552fbbffb433dc245a25df6", "fusion_lat": 0.0, "type": "electric_scooter", "lat": 38.9118805, "is_reserved": 0, "is_disabled": 0, "fusion_lon": 0.0, "bike_id": "bf5d34c4e552fbbffb433dc245a25df6", "lon": -76.99619766666666, "rental_uris": {"ios": "https://dc.lft.to/lastmile_qr_scan", "android": "https://dc.lft.to/lastmile_qr_scan"}}, {"name": "b684dac30d251d6c65bbb2958de3f87c", "fusion_lat": 0.0, "type": "electric_scooter", "lat": 38.8983445, "is_reserved": 0, "is_disabled": 0, "fusion_lon": 0.0, "bike_id": "b684dac30d251d6c65bbb2958de3f87c", "lon": -76.9464555, "rental_uris": {"ios": "https://dc.lft.to/lastmile_qr_scan", "android": "https://dc.lft.to/lastmile_qr_scan"}}, {"name": "397f26fa01b8354437bdfc7da2612fed", "fusion_lat": 0.0, "type": "electric_scooter", "lat": 38.91607483333333, "is_reserved": 0, "is_disabled": 0, "fusion_lon": 0.0, "bike_id": "397f26fa01b8354437bdfc7da2612fed", "lon": -77.02292216666666, "rental_uris": {"ios": "https://dc.lft.to/lastmile_qr_scan", "android": "https://dc.lft.to/lastmile_qr_scan"}}, {"name": "e752dec204152e409636d6c37e0f5b06", "fusion_lat": 0.0, "type": "electric_scooter", "lat": 38.91709783333334, "is_reserved": 0, "is_disabled": 0, "fusion_lon": 0.0, "bike_id": "e752dec204152e409636d6c37e0f5b06", "lon": -77.042657, "rental_uris": {"ios": "https://dc.lft.to/lastmile_qr_scan", "android": "https://dc.lft.to/lastmile_qr_scan"}}, {"name": "4bb1d427275829f0da63d718aaf321c5", "fusion_lat": 0.0, "type": "electric_scooter", "lat": 38.9231955, "is_reserved": 0, "is_disabled": 0, "fusion_lon": 0.0, "bike_id": "4bb1d427275829f0da63d718aaf321c5", "lon": -77.0451835, "rental_uris": {"ios": "https://dc.lft.to/lastmile_qr_scan", "android": "https://dc.lft.to/lastmile_qr_scan"}}, {"name": "49f3dd74ab1c367e7671ffac32161aa2", "fusion_lat": 0.0, "type": "electric_scooter", "lat": 38.9013795, "is_reserved": 0, "is_disabled": 0, "fusion_lon": 0.0, "bike_id": "49f3dd74ab1c367e7671ffac32161aa2", "lon": -76.99118166666666, "rental_uris": {"ios": "https://dc.lft.to/lastmile_qr_scan", "android": "https://dc.lft.to/lastmile_qr_scan"}}, {"name": "f0fe6bd5dcf4961a2568dbdceac1ac5c", "fusion_lat": 0.0, "type": "electric_scooter", "lat": 38.9098435, "is_reserved": 0, "is_disabled": 0, "fusion_lon": 0.0, "bike_id": "f0fe6bd5dcf4961a2568dbdceac1ac5c", "lon": -77.04875116666666, "rental_uris": {"ios": "https://dc.lft.to/lastmile_qr_scan", "android": "https://dc.lft.to/lastmile_qr_scan"}}, {"name": "0539974708d038958a493f6c9734ca16", "fusion_lat": 0.0, "type": "electric_scooter", "lat": 38.92361283333334, "is_reserved": 0, "is_disabled": 0, "fusion_lon": 0.0, "bike_id": "0539974708d038958a493f6c9734ca16", "lon": -77.01919433333333, "rental_uris": {"ios": "https://dc.lft.to/lastmile_qr_scan", "android": "https://dc.lft.to/lastmile_qr_scan"}}, {"name": "fc4f44d1d6891bb2d5791c4f171ec1fc", "fusion_lat": 0.0, "type": "electric_bike", "lat": 39.052055833333334, "is_reserved": 0, "is_disabled": 0, "fusion_lon": 0.0, "bike_id": "fc4f44d1d6891bb2d5791c4f171ec1fc", "lon": -77.10909766666667, "rental_uris": {"ios": "https://dc.lft.to/lastmile_qr_scan", "android": "https://dc.lft.to/lastmile_qr_scan"}}, {"name": "fb99f13b95665094e7448cfcd77a5094", "fusion_lat": 0.0, "type": "electric_bike", "lat": 38.8416235, "is_reserved": 0, "is_disabled": 0, "fusion_lon": 0.0, "bike_id": "fb99f13b95665094e7448cfcd77a5094", "lon": -77.08896, "rental_uris": {"ios": "https://dc.lft.to/lastmile_qr_scan", "android": "https://dc.lft.to/lastmile_qr_scan"}}, {"name": "992fe632c5fa35b96532d5334c6b6e13", "fusion_lat": 0.0, "type": "electric_scooter", "lat": 38.905493166666666, "is_reserved": 0, "is_disabled": 0, "fusion_lon": 0.0, "bike_id": "992fe632c5fa35b96532d5334c6b6e13", "lon": -76.99128366666666, "rental_uris": {"ios": "https://dc.lft.to/lastmile_qr_scan", "android": "https://dc.lft.to/lastmile_qr_scan"}}, {"name": "d85793df7676ca12b3ea12252a160195", "fusion_lat": 0.0, "type": "electric_scooter", "lat": 38.865055, "is_reserved": 0, "is_disabled": 0, "fusion_lon": 0.0, "bike_id": "d85793df7676ca12b3ea12252a160195", "lon": -76.99008966666666, "rental_uris": {"ios": "https://dc.lft.to/lastmile_qr_scan", "android": "https://dc.lft.to/lastmile_qr_scan"}}, {"name": "830bda073a081b084413623587248c1e", "fusion_lat": 0.0, "type": "electric_scooter", "lat": 38.928387, "is_reserved": 0, "is_disabled": 0, "fusion_lon": 0.0, "bike_id": "830bda073a081b084413623587248c1e", "lon": -77.0542315, "rental_uris": {"ios": "https://dc.lft.to/lastmile_qr_scan", "android": "https://dc.lft.to/lastmile_qr_scan"}}, {"name": "5e6d32fe99492dcf0cb8f1960a54f462", "fusion_lat": 0.0, "type": "electric_scooter", "lat": 38.900082833333336, "is_reserved": 0, "is_disabled": 0, "fusion_lon": 0.0, "bike_id": "5e6d32fe99492dcf0cb8f1960a54f462", "lon": -76.99746333333333, "rental_uris": {"ios": "https://dc.lft.to/lastmile_qr_scan", "android": "https://dc.lft.to/lastmile_qr_scan"}}, {"name": "e591ebcbefc32ba353452254d453f818", "fusion_lat": 0.0, "type": "electric_scooter", "lat": 38.9011605, "is_reserved": 0, "is_disabled": 0, "fusion_lon": 0.0, "bike_id": "e591ebcbefc32ba353452254d453f818", "lon": -77.03210216666666, "rental_uris": {"ios": "https://dc.lft.to/lastmile_qr_scan", "android": "https://dc.lft.to/lastmile_qr_scan"}}, {"name": "375b3d6fce3a9c6b095424af741417cf", "fusion_lat": 0.0, "type": "electric_scooter", "lat": 38.9189365, "is_reserved": 0, "is_disabled": 0, "fusion_lon": 0.0, "bike_id": "375b3d6fce3a9c6b095424af741417cf", "lon": -77.05290766666667, "rental_uris": {"ios": "https://dc.lft.to/lastmile_qr_scan", "android": "https://dc.lft.to/lastmile_qr_scan"}}, {"name": "854b672246a1a6724e68641b31a3323d", "fusion_lat": 0.0, "type": "electric_scooter", "lat": 38.898332, "is_reserved": 0, "is_disabled": 0, "fusion_lon": 0.0, "bike_id": "854b672246a1a6724e68641b31a3323d", "lon": -76.94642733333333, "rental_uris": {"ios": "https://dc.lft.to/lastmile_qr_scan", "android": "https://dc.lft.to/lastmile_qr_scan"}}, {"name": "a53f0aecc3b6e688383abfeda34df56c", "fusion_lat": 0.0, "type": "electric_scooter", "lat": 38.89511183333333, "is_reserved": 0, "is_disabled": 0, "fusion_lon": 0.0, "bike_id": "a53f0aecc3b6e688383abfeda34df56c", "lon": -76.94891216666667, "rental_uris": {"ios": "https://dc.lft.to/lastmile_qr_scan", "android": "https://dc.lft.to/lastmile_qr_scan"}}, {"name": "2689474fa5a56388c2758638a6de977d", "fusion_lat": 0.0, "type": "electric_scooter", "lat": 38.93231816666667, "is_reserved": 0, "is_disabled": 0, "fusion_lon": 0.0, "bike_id": "2689474fa5a56388c2758638a6de977d", "lon": -77.03099266666666, "rental_uris": {"ios": "https://dc.lft.to/lastmile_qr_scan", "android": "https://dc.lft.to/lastmile_qr_scan"}}, {"name": "801cc0d19a3e2f4e8ca6e6dee40d5b0b", "fusion_lat": 0.0, "type": "electric_scooter", "lat": 38.920748333333336, "is_reserved": 0, "is_disabled": 0, "fusion_lon": 0.0, "bike_id": "801cc0d19a3e2f4e8ca6e6dee40d5b0b", "lon": -77.02390866666667, "rental_uris": {"ios": "https://dc.lft.to/lastmile_qr_scan", "android": "https://dc.lft.to/lastmile_qr_scan"}}, {"name": "47f37ee4012f6e408dfbef1a9d8ae700", "fusion_lat": 0.0, "type": "electric_scooter", "lat": 38.90139083333333, "is_reserved": 0, "is_disabled": 0, "fusion_lon": 0.0, "bike_id": "47f37ee4012f6e408dfbef1a9d8ae700", "lon": -77.00072883333333, "rental_uris": {"ios": "https://dc.lft.to/lastmile_qr_scan", "android": "https://dc.lft.to/lastmile_qr_scan"}}, {"name": "7ef2f5bfe106992f70d5799fa5d7c042", "fusion_lat": 0.0, "type": "electric_scooter", "lat": 38.89492383333334, "is_reserved": 0, "is_disabled": 0, "fusion_lon": 0.0, "bike_id": "7ef2f5bfe106992f70d5799fa5d7c042", "lon": -77.02398083333334, "rental_uris": {"ios": "https://dc.lft.to/lastmile_qr_scan", "android": "https://dc.lft.to/lastmile_qr_scan"}}, {"name": "5d8450afb6f7e26d5421c079fbe7d22e", "fusion_lat": 0.0, "type": "electric_scooter", "lat": 38.88019033333333, "is_reserved": 0, "is_disabled": 0, "fusion_lon": 0.0, "bike_id": "5d8450afb6f7e26d5421c079fbe7d22e", "lon": -76.931322, "rental_uris": {"ios": "https://dc.lft.to/lastmile_qr_scan", "android": "https://dc.lft.to/lastmile_qr_scan"}}, {"name": "986c027090fd80f7a7ff16e451545eb1", "fusion_lat": 0.0, "type": "electric_bike", "lat": 38.866261333333334, "is_reserved": 0, "is_disabled": 0, "fusion_lon": 0.0, "bike_id": "986c027090fd80f7a7ff16e451545eb1", "lon": -77.01054316666666, "rental_uris": {"ios": "https://dc.lft.to/lastmile_qr_scan", "android": "https://dc.lft.to/lastmile_qr_scan"}}, {"name": "f72cd30b6fc0e2470c24dd7c603a02d4", "fusion_lat": 0.0, "type": "electric_scooter", "lat": 38.892816, "is_reserved": 0, "is_disabled": 0, "fusion_lon": 0.0, "bike_id": "f72cd30b6fc0e2470c24dd7c603a02d4", "lon": -77.05042333333333, "rental_uris": {"ios": "https://dc.lft.to/lastmile_qr_scan", "android": "https://dc.lft.to/lastmile_qr_scan"}}, {"name": "233d9a4ce498436e8577261749b53e0f", "fusion_lat": 0.0, "type": "electric_bike", "lat": 38.827324833333336, "is_reserved": 0, "is_disabled": 0, "fusion_lon": 0.0, "bike_id": "233d9a4ce498436e8577261749b53e0f", "lon": -77.008613, "rental_uris": {"ios": "https://dc.lft.to/lastmile_qr_scan", "android": "https://dc.lft.to/lastmile_qr_scan"}}, {"name": "9d5c1d992fa4e95ccad7521607e156af", "fusion_lat": 0.0, "type": "electric_scooter", "lat": 38.910612, "is_reserved": 0, "is_disabled": 0, "fusion_lon": 0.0, "bike_id": "9d5c1d992fa4e95ccad7521607e156af", "lon": -77.04580816666666, "rental_uris": {"ios": "https://dc.lft.to/lastmile_qr_scan", "android": "https://dc.lft.to/lastmile_qr_scan"}}, {"name": "7cef3c162928a41543bdba5a6afd5a6a", "fusion_lat": 0.0, "type": "electric_scooter", "lat": 38.905576833333335, "is_reserved": 0, "is_disabled": 0, "fusion_lon": 0.0, "bike_id": "7cef3c162928a41543bdba5a6afd5a6a", "lon": -77.00578966666667, "rental_uris": {"ios": "https://dc.lft.to/lastmile_qr_scan", "android": "https://dc.lft.to/lastmile_qr_scan"}}, {"name": "1296a2a246da662a4a456b77cacfbe21", "fusion_lat": 0.0, "type": "electric_scooter", "lat": 38.899160333333334, "is_reserved": 0, "is_disabled": 0, "fusion_lon": 0.0, "bike_id": "1296a2a246da662a4a456b77cacfbe21", "lon": -77.03297216666667, "rental_uris": {"ios": "https://dc.lft.to/lastmile_qr_scan", "android": "https://dc.lft.to/lastmile_qr_scan"}}, {"name": "f85c5821c4745a0138c0f8c5d8f4e019", "fusion_lat": 0.0, "type": "electric_scooter", "lat": 38.929829833333336, "is_reserved": 0, "is_disabled": 0, "fusion_lon": 0.0, "bike_id": "f85c5821c4745a0138c0f8c5d8f4e019", "lon": -77.0261245, "rental_uris": {"ios": "https://dc.lft.to/lastmile_qr_scan", "android": "https://dc.lft.to/lastmile_qr_scan"}}, {"name": "d19f9e0c5232e65d35229c2ceaa3da50", "fusion_lat": 0.0, "type": "electric_scooter", "lat": 38.94199866666666, "is_reserved": 0, "is_disabled": 0, "fusion_lon": 0.0, "bike_id": "d19f9e0c5232e65d35229c2ceaa3da50", "lon": -77.02513616666667, "rental_uris": {"ios": "https://dc.lft.to/lastmile_qr_scan", "android": "https://dc.lft.to/lastmile_qr_scan"}}, {"name": "190fe76e60a12b03ea73543758dfd8a0", "fusion_lat": 0.0, "type": "electric_scooter", "lat": 38.85800783333333, "is_reserved": 0, "is_disabled": 0, "fusion_lon": 0.0, "bike_id": "190fe76e60a12b03ea73543758dfd8a0", "lon": -76.986522, "rental_uris": {"ios": "https://dc.lft.to/lastmile_qr_scan", "android": "https://dc.lft.to/lastmile_qr_scan"}}, {"name": "706e17a1c748eafe6030c23ae5d22d98", "fusion_lat": 0.0, "type": "electric_scooter", "lat": 38.90020066666666, "is_reserved": 0, "is_disabled": 0, "fusion_lon": 0.0, "bike_id": "706e17a1c748eafe6030c23ae5d22d98", "lon": -77.02710016666667, "rental_uris": {"ios": "https://dc.lft.to/lastmile_qr_scan", "android": "https://dc.lft.to/lastmile_qr_scan"}}, {"name": "34a39bde2c1d82872494f3528dcfa7bd", "fusion_lat": 0.0, "type": "electric_scooter", "lat": 38.921319833333335, "is_reserved": 0, "is_disabled": 0, "fusion_lon": 0.0, "bike_id": "34a39bde2c1d82872494f3528dcfa7bd", "lon": -77.03665733333334, "rental_uris": {"ios": "https://dc.lft.to/lastmile_qr_scan", "android": "https://dc.lft.to/lastmile_qr_scan"}}, {"name": "d31bd6474acb757c7657cc1231fdaf21", "fusion_lat": 0.0, "type": "electric_scooter", "lat": 38.90238183333334, "is_reserved": 0, "is_disabled": 0, "fusion_lon": 0.0, "bike_id": "d31bd6474acb757c7657cc1231fdaf21", "lon": -77.043617, "rental_uris": {"ios": "https://dc.lft.to/lastmile_qr_scan", "android": "https://dc.lft.to/lastmile_qr_scan"}}, {"name": "4f802833b435f7495a7b01c6abf3e03c", "fusion_lat": 0.0, "type": "electric_scooter", "lat": 38.9294545, "is_reserved": 0, "is_disabled": 0, "fusion_lon": 0.0, "bike_id": "4f802833b435f7495a7b01c6abf3e03c", "lon": -77.03474233333333, "rental_uris": {"ios": "https://dc.lft.to/lastmile_qr_scan", "android": "https://dc.lft.to/lastmile_qr_scan"}}, {"name": "f45579932bf1ecd4180010e693787fd0", "fusion_lat": 0.0, "type": "electric_scooter", "lat": 38.91354833333333, "is_reserved": 0, "is_disabled": 0, "fusion_lon": 0.0, "bike_id": "f45579932bf1ecd4180010e693787fd0", "lon": -77.04357433333334, "rental_uris": {"ios": "https://dc.lft.to/lastmile_qr_scan", "android": "https://dc.lft.to/lastmile_qr_scan"}}, {"name": "be0ea9f12cf9eb3192b0b3a90da2cfd4", "fusion_lat": 0.0, "type": "electric_scooter", "lat": 38.852016, "is_reserved": 0, "is_disabled": 0, "fusion_lon": 0.0, "bike_id": "be0ea9f12cf9eb3192b0b3a90da2cfd4", "lon": -76.98558766666666, "rental_uris": {"ios": "https://dc.lft.to/lastmile_qr_scan", "android": "https://dc.lft.to/lastmile_qr_scan"}}, {"name": "b291a54c5aac28abf3d3d82d38c5a724", "fusion_lat": 0.0, "type": "electric_scooter", "lat": 38.9110305, "is_reserved": 0, "is_disabled": 0, "fusion_lon": 0.0, "bike_id": "b291a54c5aac28abf3d3d82d38c5a724", "lon": -77.0371915, "rental_uris": {"ios": "https://dc.lft.to/lastmile_qr_scan", "android": "https://dc.lft.to/lastmile_qr_scan"}}, {"name": "455fb45a146a95c8df5a570381070518", "fusion_lat": 0.0, "type": "electric_scooter", "lat": 38.905927166666665, "is_reserved": 0, "is_disabled": 0, "fusion_lon": 0.0, "bike_id": "455fb45a146a95c8df5a570381070518", "lon": -77.07001516666666, "rental_uris": {"ios": "https://dc.lft.to/lastmile_qr_scan", "android": "https://dc.lft.to/lastmile_qr_scan"}}, {"name": "22b7af75524b548c9b71ab58adcbd18d", "fusion_lat": 0.0, "type": "electric_scooter", "lat": 38.922119333333335, "is_reserved": 0, "is_disabled": 0, "fusion_lon": 0.0, "bike_id": "22b7af75524b548c9b71ab58adcbd18d", "lon": -77.0424255, "rental_uris": {"ios": "https://dc.lft.to/lastmile_qr_scan", "android": "https://dc.lft.to/lastmile_qr_scan"}}, {"name": "9106c76c89b96355e7d9ef47f9e1899d", "fusion_lat": 0.0, "type": "electric_scooter", "lat": 38.93785583333333, "is_reserved": 0, "is_disabled": 0, "fusion_lon": 0.0, "bike_id": "9106c76c89b96355e7d9ef47f9e1899d", "lon": -77.0600085, "rental_uris": {"ios": "https://dc.lft.to/lastmile_qr_scan", "android": "https://dc.lft.to/lastmile_qr_scan"}}, {"name": "78c22758bcfee384dd3eaf610faf9e4a", "fusion_lat": 0.0, "type": "electric_scooter", "lat": 38.903625, "is_reserved": 0, "is_disabled": 0, "fusion_lon": 0.0, "bike_id": "78c22758bcfee384dd3eaf610faf9e4a", "lon": -77.04007733333333, "rental_uris": {"ios": "https://dc.lft.to/lastmile_qr_scan", "android": "https://dc.lft.to/lastmile_qr_scan"}}, {"name": "e41434ee49d1e71acb9b5593b4394f47", "fusion_lat": 0.0, "type": "electric_scooter", "lat": 38.93850183333333, "is_reserved": 0, "is_disabled": 0, "fusion_lon": 0.0, "bike_id": "e41434ee49d1e71acb9b5593b4394f47", "lon": -77.02476216666666, "rental_uris": {"ios": "https://dc.lft.to/lastmile_qr_scan", "android": "https://dc.lft.to/lastmile_qr_scan"}}, {"name": "62a85afaf621993b3ad756116854e6cf", "fusion_lat": 0.0, "type": "electric_bike", "lat": 38.99066233333333, "is_reserved": 0, "is_disabled": 0, "fusion_lon": 0.0, "bike_id": "62a85afaf621993b3ad756116854e6cf", "lon": -77.10030416666666, "rental_uris": {"ios": "https://dc.lft.to/lastmile_qr_scan", "android": "https://dc.lft.to/lastmile_qr_scan"}}, {"name": "ba532b643a64285791c7d034d88e3170", "fusion_lat": 0.0, "type": "electric_scooter", "lat": 38.876503166666666, "is_reserved": 0, "is_disabled": 0, "fusion_lon": 0.0, "bike_id": "ba532b643a64285791c7d034d88e3170", "lon": -76.9650565, "rental_uris": {"ios": "https://dc.lft.to/lastmile_qr_scan", "android": "https://dc.lft.to/lastmile_qr_scan"}}, {"name": "7514d9dce7d818e37e192d14b1ab45ed", "fusion_lat": 0.0, "type": "electric_scooter", "lat": 38.93965633333333, "is_reserved": 0, "is_disabled": 0, "fusion_lon": 0.0, "bike_id": "7514d9dce7d818e37e192d14b1ab45ed", "lon": -77.02748266666667, "rental_uris": {"ios": "https://dc.lft.to/lastmile_qr_scan", "android": "https://dc.lft.to/lastmile_qr_scan"}}, {"name": "9c1a6d0960d68e455487021c9cee4a37", "fusion_lat": 0.0, "type": "electric_scooter", "lat": 38.90384366666667, "is_reserved": 0, "is_disabled": 0, "fusion_lon": 0.0, "bike_id": "9c1a6d0960d68e455487021c9cee4a37", "lon": -77.034387, "rental_uris": {"ios": "https://dc.lft.to/lastmile_qr_scan", "android": "https://dc.lft.to/lastmile_qr_scan"}}, {"name": "6390e0542c6ff6d883578982c84d0787", "fusion_lat": 0.0, "type": "electric_bike", "lat": 38.999399833333335, "is_reserved": 0, "is_disabled": 0, "fusion_lon": 0.0, "bike_id": "6390e0542c6ff6d883578982c84d0787", "lon": -77.01770216666667, "rental_uris": {"ios": "https://dc.lft.to/lastmile_qr_scan", "android": "https://dc.lft.to/lastmile_qr_scan"}}, {"name": "f3d271f220ceb7e084aaebe073dfc2b9", "fusion_lat": 0.0, "type": "electric_scooter", "lat": 38.90955866666667, "is_reserved": 0, "is_disabled": 0, "fusion_lon": 0.0, "bike_id": "f3d271f220ceb7e084aaebe073dfc2b9", "lon": -77.02312833333333, "rental_uris": {"ios": "https://dc.lft.to/lastmile_qr_scan", "android": "https://dc.lft.to/lastmile_qr_scan"}}, {"name": "242133d48f9f71a063f5d5d296ac5e97", "fusion_lat": 0.0, "type": "electric_bike", "lat": 38.95090716666667, "is_reserved": 0, "is_disabled": 0, "fusion_lon": 0.0, "bike_id": "242133d48f9f71a063f5d5d296ac5e97", "lon": -77.01230616666666, "rental_uris": {"ios": "https://dc.lft.to/lastmile_qr_scan", "android": "https://dc.lft.to/lastmile_qr_scan"}}, {"name": "9e6f7de6f1b63472e8c8e02191d04244", "fusion_lat": 0.0, "type": "electric_scooter", "lat": 38.92242516666666, "is_reserved": 0, "is_disabled": 0, "fusion_lon": 0.0, "bike_id": "9e6f7de6f1b63472e8c8e02191d04244", "lon": -77.03664433333333, "rental_uris": {"ios": "https://dc.lft.to/lastmile_qr_scan", "android": "https://dc.lft.to/lastmile_qr_scan"}}, {"name": "31fbb342d000830e22cfbdd8908d1b38", "fusion_lat": 0.0, "type": "electric_scooter", "lat": 38.93101583333333, "is_reserved": 0, "is_disabled": 0, "fusion_lon": 0.0, "bike_id": "31fbb342d000830e22cfbdd8908d1b38", "lon": -77.02447983333333, "rental_uris": {"ios": "https://dc.lft.to/lastmile_qr_scan", "android": "https://dc.lft.to/lastmile_qr_scan"}}, {"name": "1f6efb03d99280e57b585218e1a5b381", "fusion_lat": 0.0, "type": "electric_scooter", "lat": 38.92459016666667, "is_reserved": 0, "is_disabled": 0, "fusion_lon": 0.0, "bike_id": "1f6efb03d99280e57b585218e1a5b381", "lon": -77.03273033333333, "rental_uris": {"ios": "https://dc.lft.to/lastmile_qr_scan", "android": "https://dc.lft.to/lastmile_qr_scan"}}, {"name": "e2bcd14a3e987aa1607546e021813385", "fusion_lat": 0.0, "type": "electric_scooter", "lat": 38.88123366666667, "is_reserved": 0, "is_disabled": 0, "fusion_lon": 0.0, "bike_id": "e2bcd14a3e987aa1607546e021813385", "lon": -76.99020233333333, "rental_uris": {"ios": "https://dc.lft.to/lastmile_qr_scan", "android": "https://dc.lft.to/lastmile_qr_scan"}}, {"name": "5bdb1063012e934951d7bb457689467d", "fusion_lat": 0.0, "type": "electric_bike", "lat": 38.856905833333336, "is_reserved": 0, "is_disabled": 0, "fusion_lon": 0.0, "bike_id": "5bdb1063012e934951d7bb457689467d", "lon": -77.0853615, "rental_uris": {"ios": "https://dc.lft.to/lastmile_qr_scan", "android": "https://dc.lft.to/lastmile_qr_scan"}}, {"name": "14ac084de9b45e61db33de38242230bd", "fusion_lat": 0.0, "type": "electric_bike", "lat": 38.8075615, "is_reserved": 0, "is_disabled": 0, "fusion_lon": 0.0, "bike_id": "14ac084de9b45e61db33de38242230bd", "lon": -77.09455433333333, "rental_uris": {"ios": "https://dc.lft.to/lastmile_qr_scan", "android": "https://dc.lft.to/lastmile_qr_scan"}}, {"name": "4d5e6c9ea5be158317ebc346bf6ab04a", "fusion_lat": 0.0, "type": "electric_scooter", "lat": 38.922013166666666, "is_reserved": 0, "is_disabled": 0, "fusion_lon": 0.0, "bike_id": "4d5e6c9ea5be158317ebc346bf6ab04a", "lon": -77.02436566666667, "rental_uris": {"ios": "https://dc.lft.to/lastmile_qr_scan", "android": "https://dc.lft.to/lastmile_qr_scan"}}, {"name": "898f998cca7a9f3d203d7aeb0677551d", "fusion_lat": 0.0, "type": "electric_scooter", "lat": 38.920625333333334, "is_reserved": 0, "is_disabled": 0, "fusion_lon": 0.0, "bike_id": "898f998cca7a9f3d203d7aeb0677551d", "lon": -77.03462783333333, "rental_uris": {"ios": "https://dc.lft.to/lastmile_qr_scan", "android": "https://dc.lft.to/lastmile_qr_scan"}}, {"name": "aee14adb0b55588198a46dd9a02bbc81", "fusion_lat": 0.0, "type": "electric_scooter", "lat": 38.93067683333334, "is_reserved": 0, "is_disabled": 0, "fusion_lon": 0.0, "bike_id": "aee14adb0b55588198a46dd9a02bbc81", "lon": -77.02981483333333, "rental_uris": {"ios": "https://dc.lft.to/lastmile_qr_scan", "android": "https://dc.lft.to/lastmile_qr_scan"}}, {"name": "aa8105d5582c27b603e6d4f688b6ac14", "fusion_lat": 0.0, "type": "electric_scooter", "lat": 38.8850675, "is_reserved": 0, "is_disabled": 0, "fusion_lon": 0.0, "bike_id": "aa8105d5582c27b603e6d4f688b6ac14", "lon": -77.03069033333334, "rental_uris": {"ios": "https://dc.lft.to/lastmile_qr_scan", "android": "https://dc.lft.to/lastmile_qr_scan"}}, {"name": "c317e1821b89fedb18b3dad8b8434eaa", "fusion_lat": 0.0, "type": "electric_scooter", "lat": 38.90570833333334, "is_reserved": 0, "is_disabled": 0, "fusion_lon": 0.0, "bike_id": "c317e1821b89fedb18b3dad8b8434eaa", "lon": -77.029851, "rental_uris": {"ios": "https://dc.lft.to/lastmile_qr_scan", "android": "https://dc.lft.to/lastmile_qr_scan"}}, {"name": "a8242dfd1fbb574c8b5c2329a24a9cfa", "fusion_lat": 0.0, "type": "electric_scooter", "lat": 38.93914183333333, "is_reserved": 0, "is_disabled": 0, "fusion_lon": 0.0, "bike_id": "a8242dfd1fbb574c8b5c2329a24a9cfa", "lon": -77.0604495, "rental_uris": {"ios": "https://dc.lft.to/lastmile_qr_scan", "android": "https://dc.lft.to/lastmile_qr_scan"}}, {"name": "69ea2e4905da05171532aa8cb1c39819", "fusion_lat": 0.0, "type": "electric_scooter", "lat": 38.9056585, "is_reserved": 0, "is_disabled": 0, "fusion_lon": 0.0, "bike_id": "69ea2e4905da05171532aa8cb1c39819", "lon": -77.02963516666667, "rental_uris": {"ios": "https://dc.lft.to/lastmile_qr_scan", "android": "https://dc.lft.to/lastmile_qr_scan"}}, {"name": "31c5611ef16db171c6cc20b191e02c6c", "fusion_lat": 0.0, "type": "electric_scooter", "lat": 38.9205175, "is_reserved": 0, "is_disabled": 0, "fusion_lon": 0.0, "bike_id": "31c5611ef16db171c6cc20b191e02c6c", "lon": -77.03440766666667, "rental_uris": {"ios": "https://dc.lft.to/lastmile_qr_scan", "android": "https://dc.lft.to/lastmile_qr_scan"}}, {"name": "255a080b8088a027119be860d3704154", "fusion_lat": 0.0, "type": "electric_scooter", "lat": 38.900690166666664, "is_reserved": 0, "is_disabled": 0, "fusion_lon": 0.0, "bike_id": "255a080b8088a027119be860d3704154", "lon": -77.04507483333333, "rental_uris": {"ios": "https://dc.lft.to/lastmile_qr_scan", "android": "https://dc.lft.to/lastmile_qr_scan"}}, {"name": "dc5b187815aa89def3741dcf7141cd03", "fusion_lat": 0.0, "type": "electric_scooter", "lat": 38.918759, "is_reserved": 0, "is_disabled": 0, "fusion_lon": 0.0, "bike_id": "dc5b187815aa89def3741dcf7141cd03", "lon": -77.04136733333333, "rental_uris": {"ios": "https://dc.lft.to/lastmile_qr_scan", "android": "https://dc.lft.to/lastmile_qr_scan"}}, {"name": "e492c0a53d94d6f41a87b4a1e42cec0b", "fusion_lat": 0.0, "type": "electric_scooter", "lat": 38.91418916666667, "is_reserved": 0, "is_disabled": 0, "fusion_lon": 0.0, "bike_id": "e492c0a53d94d6f41a87b4a1e42cec0b", "lon": -77.02647816666666, "rental_uris": {"ios": "https://dc.lft.to/lastmile_qr_scan", "android": "https://dc.lft.to/lastmile_qr_scan"}}, {"name": "3e6d1661b5c65a06b9ed41b15261d17c", "fusion_lat": 0.0, "type": "electric_scooter", "lat": 38.904463666666665, "is_reserved": 0, "is_disabled": 0, "fusion_lon": 0.0, "bike_id": "3e6d1661b5c65a06b9ed41b15261d17c", "lon": -77.04813816666666, "rental_uris": {"ios": "https://dc.lft.to/lastmile_qr_scan", "android": "https://dc.lft.to/lastmile_qr_scan"}}, {"name": "3064650b4d7980e385ceabbb192a5c26", "fusion_lat": 0.0, "type": "electric_bike", "lat": 39.03880366666667, "is_reserved": 0, "is_disabled": 0, "fusion_lon": 0.0, "bike_id": "3064650b4d7980e385ceabbb192a5c26", "lon": -76.99049266666667, "rental_uris": {"ios": "https://dc.lft.to/lastmile_qr_scan", "android": "https://dc.lft.to/lastmile_qr_scan"}}, {"name": "22ca006bc44318a440139043fb6f37e9", "fusion_lat": 0.0, "type": "electric_bike", "lat": 38.9345925, "is_reserved": 0, "is_disabled": 0, "fusion_lon": 0.0, "bike_id": "22ca006bc44318a440139043fb6f37e9", "lon": -77.03079716666667, "rental_uris": {"ios": "https://dc.lft.to/lastmile_qr_scan", "android": "https://dc.lft.to/lastmile_qr_scan"}}, {"name": "0b4ed8089add27c6a94e195de1175748", "fusion_lat": 0.0, "type": "electric_scooter", "lat": 38.890910166666664, "is_reserved": 0, "is_disabled": 0, "fusion_lon": 0.0, "bike_id": "0b4ed8089add27c6a94e195de1175748", "lon": -76.99784983333333, "rental_uris": {"ios": "https://dc.lft.to/lastmile_qr_scan", "android": "https://dc.lft.to/lastmile_qr_scan"}}, {"name": "50d83b3f696128652dadbf11c1ad3720", "fusion_lat": 0.0, "type": "electric_scooter", "lat": 38.91418566666667, "is_reserved": 0, "is_disabled": 0, "fusion_lon": 0.0, "bike_id": "50d83b3f696128652dadbf11c1ad3720", "lon": -77.04164266666666, "rental_uris": {"ios": "https://dc.lft.to/lastmile_qr_scan", "android": "https://dc.lft.to/lastmile_qr_scan"}}, {"name": "10f6ad2d201db4b8737f333780af1168", "fusion_lat": 0.0, "type": "electric_bike", "lat": 38.96554066666667, "is_reserved": 0, "is_disabled": 0, "fusion_lon": 0.0, "bike_id": "10f6ad2d201db4b8737f333780af1168", "lon": -77.03516733333333, "rental_uris": {"ios": "https://dc.lft.to/lastmile_qr_scan", "android": "https://dc.lft.to/lastmile_qr_scan"}}, {"name": "40b5335369e46700395b87f8cafb5717", "fusion_lat": 0.0, "type": "electric_scooter", "lat": 38.91043483333333, "is_reserved": 0, "is_disabled": 0, "fusion_lon": 0.0, "bike_id": "40b5335369e46700395b87f8cafb5717", "lon": -77.028111, "rental_uris": {"ios": "https://dc.lft.to/lastmile_qr_scan", "android": "https://dc.lft.to/lastmile_qr_scan"}}, {"name": "340d7eaff99ac8d5acdbb78281bad8b4", "fusion_lat": 0.0, "type": "electric_scooter", "lat": 38.865225833333334, "is_reserved": 0, "is_disabled": 0, "fusion_lon": 0.0, "bike_id": "340d7eaff99ac8d5acdbb78281bad8b4", "lon": -76.98559066666667, "rental_uris": {"ios": "https://dc.lft.to/lastmile_qr_scan", "android": "https://dc.lft.to/lastmile_qr_scan"}}, {"name": "c5ac72ec831cecc9c8ff7490028e0efd", "fusion_lat": 0.0, "type": "electric_scooter", "lat": 38.90064733333333, "is_reserved": 0, "is_disabled": 0, "fusion_lon": 0.0, "bike_id": "c5ac72ec831cecc9c8ff7490028e0efd", "lon": -77.04510733333333, "rental_uris": {"ios": "https://dc.lft.to/lastmile_qr_scan", "android": "https://dc.lft.to/lastmile_qr_scan"}}, {"name": "9f95d39abaa7f74ddebffc276f29b06d", "fusion_lat": 0.0, "type": "electric_scooter", "lat": 38.924411666666664, "is_reserved": 0, "is_disabled": 0, "fusion_lon": 0.0, "bike_id": "9f95d39abaa7f74ddebffc276f29b06d", "lon": -77.04136583333333, "rental_uris": {"ios": "https://dc.lft.to/lastmile_qr_scan", "android": "https://dc.lft.to/lastmile_qr_scan"}}, {"name": "1a8d25a6b35af2e01a0aaa441c962f8c", "fusion_lat": 0.0, "type": "electric_scooter", "lat": 38.930782666666666, "is_reserved": 0, "is_disabled": 0, "fusion_lon": 0.0, "bike_id": "1a8d25a6b35af2e01a0aaa441c962f8c", "lon": -77.03397416666667, "rental_uris": {"ios": "https://dc.lft.to/lastmile_qr_scan", "android": "https://dc.lft.to/lastmile_qr_scan"}}, {"name": "d2077b4f420dc989b34ee1af52023178", "fusion_lat": 0.0, "type": "electric_scooter", "lat": 38.915662166666664, "is_reserved": 0, "is_disabled": 0, "fusion_lon": 0.0, "bike_id": "d2077b4f420dc989b34ee1af52023178", "lon": -77.02237166666667, "rental_uris": {"ios": "https://dc.lft.to/lastmile_qr_scan", "android": "https://dc.lft.to/lastmile_qr_scan"}}, {"name": "96a6600b157c576cd04ece790e6b960f", "fusion_lat": 0.0, "type": "electric_bike", "lat": 38.813309, "is_reserved": 0, "is_disabled": 0, "fusion_lon": 0.0, "bike_id": "96a6600b157c576cd04ece790e6b960f", "lon": -77.0507975, "rental_uris": {"ios": "https://dc.lft.to/lastmile_qr_scan", "android": "https://dc.lft.to/lastmile_qr_scan"}}, {"name": "4281bc3abf31847ad230a13692479811", "fusion_lat": 0.0, "type": "electric_scooter", "lat": 38.9327955, "is_reserved": 0, "is_disabled": 0, "fusion_lon": 0.0, "bike_id": "4281bc3abf31847ad230a13692479811", "lon": -77.03502, "rental_uris": {"ios": "https://dc.lft.to/lastmile_qr_scan", "android": "https://dc.lft.to/lastmile_qr_scan"}}, {"name": "3195646e46a7fbd4db8a08ea591e3562", "fusion_lat": 0.0, "type": "electric_scooter", "lat": 38.900398833333334, "is_reserved": 0, "is_disabled": 0, "fusion_lon": 0.0, "bike_id": "3195646e46a7fbd4db8a08ea591e3562", "lon": -77.0020105, "rental_uris": {"ios": "https://dc.lft.to/lastmile_qr_scan", "android": "https://dc.lft.to/lastmile_qr_scan"}}, {"name": "bb4f56ac9ba66473256e3b247a5e244d", "fusion_lat": 0.0, "type": "electric_scooter", "lat": 38.870125, "is_reserved": 0, "is_disabled": 0, "fusion_lon": 0.0, "bike_id": "bb4f56ac9ba66473256e3b247a5e244d", "lon": -77.01233316666666, "rental_uris": {"ios": "https://dc.lft.to/lastmile_qr_scan", "android": "https://dc.lft.to/lastmile_qr_scan"}}, {"name": "868189950c33827ee64c796240e8fbfc", "fusion_lat": 0.0, "type": "electric_scooter", "lat": 38.929011833333334, "is_reserved": 0, "is_disabled": 0, "fusion_lon": 0.0, "bike_id": "868189950c33827ee64c796240e8fbfc", "lon": -77.02498016666667, "rental_uris": {"ios": "https://dc.lft.to/lastmile_qr_scan", "android": "https://dc.lft.to/lastmile_qr_scan"}}, {"name": "d0a462af8c8324d228d5e47b9bd3d829", "fusion_lat": 0.0, "type": "electric_scooter", "lat": 38.9231355, "is_reserved": 0, "is_disabled": 0, "fusion_lon": 0.0, "bike_id": "d0a462af8c8324d228d5e47b9bd3d829", "lon": -77.041115, "rental_uris": {"ios": "https://dc.lft.to/lastmile_qr_scan", "android": "https://dc.lft.to/lastmile_qr_scan"}}, {"name": "4aff0aee6f7cedb06a3db798a05ab50f", "fusion_lat": 0.0, "type": "electric_scooter", "lat": 38.897005166666666, "is_reserved": 0, "is_disabled": 0, "fusion_lon": 0.0, "bike_id": "4aff0aee6f7cedb06a3db798a05ab50f", "lon": -77.02189683333333, "rental_uris": {"ios": "https://dc.lft.to/lastmile_qr_scan", "android": "https://dc.lft.to/lastmile_qr_scan"}}, {"name": "c21b5b53843211c9bba2a4fedf2ab3e4", "fusion_lat": 0.0, "type": "electric_scooter", "lat": 38.94839266666666, "is_reserved": 0, "is_disabled": 0, "fusion_lon": 0.0, "bike_id": "c21b5b53843211c9bba2a4fedf2ab3e4", "lon": -77.02553966666666, "rental_uris": {"ios": "https://dc.lft.to/lastmile_qr_scan", "android": "https://dc.lft.to/lastmile_qr_scan"}}, {"name": "bfad8e56d828cb18c7ff67cee6e70d9e", "fusion_lat": 0.0, "type": "electric_scooter", "lat": 38.941837, "is_reserved": 0, "is_disabled": 0, "fusion_lon": 0.0, "bike_id": "bfad8e56d828cb18c7ff67cee6e70d9e", "lon": -77.02491633333334, "rental_uris": {"ios": "https://dc.lft.to/lastmile_qr_scan", "android": "https://dc.lft.to/lastmile_qr_scan"}}, {"name": "53b35a8cb14d18ad40e28b7005c3cc84", "fusion_lat": 0.0, "type": "electric_scooter", "lat": 38.923843833333336, "is_reserved": 0, "is_disabled": 0, "fusion_lon": 0.0, "bike_id": "53b35a8cb14d18ad40e28b7005c3cc84", "lon": -77.01905616666667, "rental_uris": {"ios": "https://dc.lft.to/lastmile_qr_scan", "android": "https://dc.lft.to/lastmile_qr_scan"}}, {"name": "35df8154ffc54511d6174d9c3ebf97d8", "fusion_lat": 0.0, "type": "electric_bike", "lat": 38.94808783333333, "is_reserved": 0, "is_disabled": 0, "fusion_lon": 0.0, "bike_id": "35df8154ffc54511d6174d9c3ebf97d8", "lon": -77.02143083333333, "rental_uris": {"ios": "https://dc.lft.to/lastmile_qr_scan", "android": "https://dc.lft.to/lastmile_qr_scan"}}, {"name": "439d620eabfff65767011c95714e7a5f", "fusion_lat": 0.0, "type": "electric_bike", "lat": 38.870759, "is_reserved": 0, "is_disabled": 0, "fusion_lon": 0.0, "bike_id": "439d620eabfff65767011c95714e7a5f", "lon": -77.11054033333333, "rental_uris": {"ios": "https://dc.lft.to/lastmile_qr_scan", "android": "https://dc.lft.to/lastmile_qr_scan"}}, {"name": "60bd3e47aa9591d02ef0af409b48f48d", "fusion_lat": 0.0, "type": "electric_scooter", "lat": 38.87752866666666, "is_reserved": 0, "is_disabled": 0, "fusion_lon": 0.0, "bike_id": "60bd3e47aa9591d02ef0af409b48f48d", "lon": -76.97244666666667, "rental_uris": {"ios": "https://dc.lft.to/lastmile_qr_scan", "android": "https://dc.lft.to/lastmile_qr_scan"}}, {"name": "16aa0b7d26299519f78821185ee6828f", "fusion_lat": 0.0, "type": "electric_scooter", "lat": 38.86208416666667, "is_reserved": 0, "is_disabled": 0, "fusion_lon": 0.0, "bike_id": "16aa0b7d26299519f78821185ee6828f", "lon": -76.99471816666667, "rental_uris": {"ios": "https://dc.lft.to/lastmile_qr_scan", "android": "https://dc.lft.to/lastmile_qr_scan"}}, {"name": "530bf2c9f41071caa1916cfc45cb4b6f", "fusion_lat": 0.0, "type": "electric_scooter", "lat": 38.92348666666667, "is_reserved": 0, "is_disabled": 0, "fusion_lon": 0.0, "bike_id": "530bf2c9f41071caa1916cfc45cb4b6f", "lon": -77.05101266666667, "rental_uris": {"ios": "https://dc.lft.to/lastmile_qr_scan", "android": "https://dc.lft.to/lastmile_qr_scan"}}, {"name": "acbd4f361948be1036562ca8a0aede82", "fusion_lat": 0.0, "type": "electric_scooter", "lat": 38.90842133333334, "is_reserved": 0, "is_disabled": 0, "fusion_lon": 0.0, "bike_id": "acbd4f361948be1036562ca8a0aede82", "lon": -77.03287233333333, "rental_uris": {"ios": "https://dc.lft.to/lastmile_qr_scan", "android": "https://dc.lft.to/lastmile_qr_scan"}}, {"name": "ad6c4a6b6743eb48935c7ba324584d30", "fusion_lat": 0.0, "type": "electric_scooter", "lat": 38.89519966666667, "is_reserved": 0, "is_disabled": 0, "fusion_lon": 0.0, "bike_id": "ad6c4a6b6743eb48935c7ba324584d30", "lon": -77.01623416666666, "rental_uris": {"ios": "https://dc.lft.to/lastmile_qr_scan", "android": "https://dc.lft.to/lastmile_qr_scan"}}, {"name": "a1dece98930a5f5f0f0632d5203961dd", "fusion_lat": 0.0, "type": "electric_scooter", "lat": 38.90661383333333, "is_reserved": 0, "is_disabled": 0, "fusion_lon": 0.0, "bike_id": "a1dece98930a5f5f0f0632d5203961dd", "lon": -77.00594366666667, "rental_uris": {"ios": "https://dc.lft.to/lastmile_qr_scan", "android": "https://dc.lft.to/lastmile_qr_scan"}}, {"name": "54707a9cb31372677cdf107efc475ae1", "fusion_lat": 0.0, "type": "electric_scooter", "lat": 38.903571166666666, "is_reserved": 0, "is_disabled": 0, "fusion_lon": 0.0, "bike_id": "54707a9cb31372677cdf107efc475ae1", "lon": -77.041991, "rental_uris": {"ios": "https://dc.lft.to/lastmile_qr_scan", "android": "https://dc.lft.to/lastmile_qr_scan"}}, {"name": "6a4f3faa1eaa51628a680d19172086bc", "fusion_lat": 0.0, "type": "electric_bike", "lat": 38.94633433333333, "is_reserved": 0, "is_disabled": 0, "fusion_lon": 0.0, "bike_id": "6a4f3faa1eaa51628a680d19172086bc", "lon": -77.01844333333334, "rental_uris": {"ios": "https://dc.lft.to/lastmile_qr_scan", "android": "https://dc.lft.to/lastmile_qr_scan"}}, {"name": "66e19ce1273a2be6f00f9138cdb6d64f", "fusion_lat": 0.0, "type": "electric_scooter", "lat": 38.9172375, "is_reserved": 0, "is_disabled": 0, "fusion_lon": 0.0, "bike_id": "66e19ce1273a2be6f00f9138cdb6d64f", "lon": -77.02893266666666, "rental_uris": {"ios": "https://dc.lft.to/lastmile_qr_scan", "android": "https://dc.lft.to/lastmile_qr_scan"}}, {"name": "7144bbd3bf554ade88d6b042638349fa", "fusion_lat": 0.0, "type": "electric_scooter", "lat": 38.917204166666664, "is_reserved": 0, "is_disabled": 0, "fusion_lon": 0.0, "bike_id": "7144bbd3bf554ade88d6b042638349fa", "lon": -77.03562116666667, "rental_uris": {"ios": "https://dc.lft.to/lastmile_qr_scan", "android": "https://dc.lft.to/lastmile_qr_scan"}}, {"name": "3c855c7bfd25eb6c088a19e5c7039317", "fusion_lat": 0.0, "type": "electric_bike", "lat": 38.930916333333336, "is_reserved": 0, "is_disabled": 0, "fusion_lon": 0.0, "bike_id": "3c855c7bfd25eb6c088a19e5c7039317", "lon": -77.02469316666667, "rental_uris": {"ios": "https://dc.lft.to/lastmile_qr_scan", "android": "https://dc.lft.to/lastmile_qr_scan"}}, {"name": "47d97f68d070eba6acee6cc1a0caef26", "fusion_lat": 0.0, "type": "electric_scooter", "lat": 38.932082, "is_reserved": 0, "is_disabled": 0, "fusion_lon": 0.0, "bike_id": "47d97f68d070eba6acee6cc1a0caef26", "lon": -77.036386, "rental_uris": {"ios": "https://dc.lft.to/lastmile_qr_scan", "android": "https://dc.lft.to/lastmile_qr_scan"}}, {"name": "301a98f3bb37ec91fd94f4688d6170a3", "fusion_lat": 0.0, "type": "electric_scooter", "lat": 38.91763666666667, "is_reserved": 0, "is_disabled": 0, "fusion_lon": 0.0, "bike_id": "301a98f3bb37ec91fd94f4688d6170a3", "lon": -77.04742183333333, "rental_uris": {"ios": "https://dc.lft.to/lastmile_qr_scan", "android": "https://dc.lft.to/lastmile_qr_scan"}}, {"name": "681988fe227060c87af7316049b78cf9", "fusion_lat": 0.0, "type": "electric_bike", "lat": 38.85877383333333, "is_reserved": 0, "is_disabled": 0, "fusion_lon": 0.0, "bike_id": "681988fe227060c87af7316049b78cf9", "lon": -77.0955605, "rental_uris": {"ios": "https://dc.lft.to/lastmile_qr_scan", "android": "https://dc.lft.to/lastmile_qr_scan"}}, {"name": "abed6750a5d4b31ee31cc10ff8c08a87", "fusion_lat": 0.0, "type": "electric_scooter", "lat": 38.92917633333333, "is_reserved": 0, "is_disabled": 0, "fusion_lon": 0.0, "bike_id": "abed6750a5d4b31ee31cc10ff8c08a87", "lon": -77.019587, "rental_uris": {"ios": "https://dc.lft.to/lastmile_qr_scan", "android": "https://dc.lft.to/lastmile_qr_scan"}}, {"name": "efffbc6c9480ffa2b10cb77dc6d835b4", "fusion_lat": 0.0, "type": "electric_bike", "lat": 38.854448166666664, "is_reserved": 0, "is_disabled": 0, "fusion_lon": 0.0, "bike_id": "efffbc6c9480ffa2b10cb77dc6d835b4", "lon": -77.11681833333333, "rental_uris": {"ios": "https://dc.lft.to/lastmile_qr_scan", "android": "https://dc.lft.to/lastmile_qr_scan"}}, {"name": "ca46abb64b1d863aba08f726188f8c03", "fusion_lat": 0.0, "type": "electric_scooter", "lat": 38.892154, "is_reserved": 0, "is_disabled": 0, "fusion_lon": 0.0, "bike_id": "ca46abb64b1d863aba08f726188f8c03", "lon": -76.9956535, "rental_uris": {"ios": "https://dc.lft.to/lastmile_qr_scan", "android": "https://dc.lft.to/lastmile_qr_scan"}}, {"name": "ba0bbd1db8f555d21440a7f0722a6a94", "fusion_lat": 0.0, "type": "electric_scooter", "lat": 38.905736833333336, "is_reserved": 0, "is_disabled": 0, "fusion_lon": 0.0, "bike_id": "ba0bbd1db8f555d21440a7f0722a6a94", "lon": -77.02213866666666, "rental_uris": {"ios": "https://dc.lft.to/lastmile_qr_scan", "android": "https://dc.lft.to/lastmile_qr_scan"}}, {"name": "6494a4f5ea35df7c6badd46c03c72787", "fusion_lat": 0.0, "type": "electric_scooter", "lat": 38.91340366666667, "is_reserved": 0, "is_disabled": 0, "fusion_lon": 0.0, "bike_id": "6494a4f5ea35df7c6badd46c03c72787", "lon": -77.04264933333333, "rental_uris": {"ios": "https://dc.lft.to/lastmile_qr_scan", "android": "https://dc.lft.to/lastmile_qr_scan"}}, {"name": "a616cd1827fb05242dcb3d63b3ec373a", "fusion_lat": 0.0, "type": "electric_scooter", "lat": 38.880406666666666, "is_reserved": 0, "is_disabled": 0, "fusion_lon": 0.0, "bike_id": "a616cd1827fb05242dcb3d63b3ec373a", "lon": -76.927259, "rental_uris": {"ios": "https://dc.lft.to/lastmile_qr_scan", "android": "https://dc.lft.to/lastmile_qr_scan"}}, {"name": "5a70740de9ba5cad4c94fd6f82fe4752", "fusion_lat": 0.0, "type": "electric_scooter", "lat": 38.9157445, "is_reserved": 0, "is_disabled": 0, "fusion_lon": 0.0, "bike_id": "5a70740de9ba5cad4c94fd6f82fe4752", "lon": -77.0391575, "rental_uris": {"ios": "https://dc.lft.to/lastmile_qr_scan", "android": "https://dc.lft.to/lastmile_qr_scan"}}, {"name": "1a19f9cdbad853174cd1d023b423e432", "fusion_lat": 0.0, "type": "electric_scooter", "lat": 38.929305666666664, "is_reserved": 0, "is_disabled": 0, "fusion_lon": 0.0, "bike_id": "1a19f9cdbad853174cd1d023b423e432", "lon": -77.01967383333333, "rental_uris": {"ios": "https://dc.lft.to/lastmile_qr_scan", "android": "https://dc.lft.to/lastmile_qr_scan"}}, {"name": "8b9c5b5f03e1d003bcfc453bb0ed880b", "fusion_lat": 0.0, "type": "electric_scooter", "lat": 38.907596, "is_reserved": 0, "is_disabled": 0, "fusion_lon": 0.0, "bike_id": "8b9c5b5f03e1d003bcfc453bb0ed880b", "lon": -77.03096866666667, "rental_uris": {"ios": "https://dc.lft.to/lastmile_qr_scan", "android": "https://dc.lft.to/lastmile_qr_scan"}}, {"name": "8cb06e351581e0d4c258e70d0d782f91", "fusion_lat": 0.0, "type": "electric_bike", "lat": 38.892928, "is_reserved": 0, "is_disabled": 0, "fusion_lon": 0.0, "bike_id": "8cb06e351581e0d4c258e70d0d782f91", "lon": -76.98558616666666, "rental_uris": {"ios": "https://dc.lft.to/lastmile_qr_scan", "android": "https://dc.lft.to/lastmile_qr_scan"}}, {"name": "40efec4b920cad736ba18585da8ef158", "fusion_lat": 0.0, "type": "electric_bike", "lat": 38.852329, "is_reserved": 0, "is_disabled": 0, "fusion_lon": 0.0, "bike_id": "40efec4b920cad736ba18585da8ef158", "lon": -77.103374, "rental_uris": {"ios": "https://dc.lft.to/lastmile_qr_scan", "android": "https://dc.lft.to/lastmile_qr_scan"}}, {"name": "72d57888e59013b7c632678f8a7119c6", "fusion_lat": 0.0, "type": "electric_scooter", "lat": 38.907138833333335, "is_reserved": 0, "is_disabled": 0, "fusion_lon": 0.0, "bike_id": "72d57888e59013b7c632678f8a7119c6", "lon": -77.04075166666667, "rental_uris": {"ios": "https://dc.lft.to/lastmile_qr_scan", "android": "https://dc.lft.to/lastmile_qr_scan"}}, {"name": "73e9f6a51fa8ff0bad5bb94d690dd595", "fusion_lat": 0.0, "type": "electric_bike", "lat": 38.88047566666667, "is_reserved": 0, "is_disabled": 0, "fusion_lon": 0.0, "bike_id": "73e9f6a51fa8ff0bad5bb94d690dd595", "lon": -77.01327266666667, "rental_uris": {"ios": "https://dc.lft.to/lastmile_qr_scan", "android": "https://dc.lft.to/lastmile_qr_scan"}}, {"name": "ce3dcdd5c05bf2a35177fb2cb82878bb", "fusion_lat": 0.0, "type": "electric_scooter", "lat": 38.924399, "is_reserved": 0, "is_disabled": 0, "fusion_lon": 0.0, "bike_id": "ce3dcdd5c05bf2a35177fb2cb82878bb", "lon": -77.0298065, "rental_uris": {"ios": "https://dc.lft.to/lastmile_qr_scan", "android": "https://dc.lft.to/lastmile_qr_scan"}}, {"name": "e137529515cc44b2b2f3742780ab964e", "fusion_lat": 0.0, "type": "electric_scooter", "lat": 38.907330333333334, "is_reserved": 0, "is_disabled": 0, "fusion_lon": 0.0, "bike_id": "e137529515cc44b2b2f3742780ab964e", "lon": -77.029616, "rental_uris": {"ios": "https://dc.lft.to/lastmile_qr_scan", "android": "https://dc.lft.to/lastmile_qr_scan"}}, {"name": "2060ec9c9bc26c7f3f7d0d38e9f01093", "fusion_lat": 0.0, "type": "electric_scooter", "lat": 38.92377166666667, "is_reserved": 0, "is_disabled": 0, "fusion_lon": 0.0, "bike_id": "2060ec9c9bc26c7f3f7d0d38e9f01093", "lon": -77.03025016666666, "rental_uris": {"ios": "https://dc.lft.to/lastmile_qr_scan", "android": "https://dc.lft.to/lastmile_qr_scan"}}, {"name": "1745a04e4423d379241b52f0104c911b", "fusion_lat": 0.0, "type": "electric_bike", "lat": 38.952579, "is_reserved": 0, "is_disabled": 0, "fusion_lon": 0.0, "bike_id": "1745a04e4423d379241b52f0104c911b", "lon": -77.0698615, "rental_uris": {"ios": "https://dc.lft.to/lastmile_qr_scan", "android": "https://dc.lft.to/lastmile_qr_scan"}}, {"name": "408dedcc449f37f180aac4bd7ec20d10", "fusion_lat": 0.0, "type": "electric_scooter", "lat": 38.9178165, "is_reserved": 0, "is_disabled": 0, "fusion_lon": 0.0, "bike_id": "408dedcc449f37f180aac4bd7ec20d10", "lon": -77.014972, "rental_uris": {"ios": "https://dc.lft.to/lastmile_qr_scan", "android": "https://dc.lft.to/lastmile_qr_scan"}}, {"name": "67bf6eedf72475f90a20de34ea0862a8", "fusion_lat": 0.0, "type": "electric_scooter", "lat": 38.89101933333333, "is_reserved": 0, "is_disabled": 0, "fusion_lon": 0.0, "bike_id": "67bf6eedf72475f90a20de34ea0862a8", "lon": -76.98203133333334, "rental_uris": {"ios": "https://dc.lft.to/lastmile_qr_scan", "android": "https://dc.lft.to/lastmile_qr_scan"}}, {"name": "20d65a94d20876211c5d173b113f5282", "fusion_lat": 0.0, "type": "electric_scooter", "lat": 38.91266866666667, "is_reserved": 0, "is_disabled": 0, "fusion_lon": 0.0, "bike_id": "20d65a94d20876211c5d173b113f5282", "lon": -77.03145183333334, "rental_uris": {"ios": "https://dc.lft.to/lastmile_qr_scan", "android": "https://dc.lft.to/lastmile_qr_scan"}}, {"name": "bc7a11868d237dcf11f6c709614540a2", "fusion_lat": 0.0, "type": "electric_scooter", "lat": 38.9163305, "is_reserved": 0, "is_disabled": 0, "fusion_lon": 0.0, "bike_id": "bc7a11868d237dcf11f6c709614540a2", "lon": -77.04348683333333, "rental_uris": {"ios": "https://dc.lft.to/lastmile_qr_scan", "android": "https://dc.lft.to/lastmile_qr_scan"}}, {"name": "d46cab9efb3ec60ee92f5215ca7042a4", "fusion_lat": 0.0, "type": "electric_scooter", "lat": 38.900653, "is_reserved": 0, "is_disabled": 0, "fusion_lon": 0.0, "bike_id": "d46cab9efb3ec60ee92f5215ca7042a4", "lon": -77.0502985, "rental_uris": {"ios": "https://dc.lft.to/lastmile_qr_scan", "android": "https://dc.lft.to/lastmile_qr_scan"}}, {"name": "75635ff6a65a9822b66f31c26d22cbf4", "fusion_lat": 0.0, "type": "electric_scooter", "lat": 38.900005, "is_reserved": 0, "is_disabled": 0, "fusion_lon": 0.0, "bike_id": "75635ff6a65a9822b66f31c26d22cbf4", "lon": -76.98567533333333, "rental_uris": {"ios": "https://dc.lft.to/lastmile_qr_scan", "android": "https://dc.lft.to/lastmile_qr_scan"}}, {"name": "29c3e74067f99e1ede03dd11c4bcc6ba", "fusion_lat": 0.0, "type": "electric_scooter", "lat": 38.893354333333335, "is_reserved": 0, "is_disabled": 0, "fusion_lon": 0.0, "bike_id": "29c3e74067f99e1ede03dd11c4bcc6ba", "lon": -76.92892983333333, "rental_uris": {"ios": "https://dc.lft.to/lastmile_qr_scan", "android": "https://dc.lft.to/lastmile_qr_scan"}}, {"name": "610937866dd551f4a0c8c77aab50d4da", "fusion_lat": 0.0, "type": "electric_scooter", "lat": 38.90184516666667, "is_reserved": 0, "is_disabled": 0, "fusion_lon": 0.0, "bike_id": "610937866dd551f4a0c8c77aab50d4da", "lon": -77.03397083333333, "rental_uris": {"ios": "https://dc.lft.to/lastmile_qr_scan", "android": "https://dc.lft.to/lastmile_qr_scan"}}, {"name": "d6216009100b2ab4cbf676baeb63ccd4", "fusion_lat": 0.0, "type": "electric_scooter", "lat": 38.91869333333333, "is_reserved": 0, "is_disabled": 0, "fusion_lon": 0.0, "bike_id": "d6216009100b2ab4cbf676baeb63ccd4", "lon": -77.04599583333334, "rental_uris": {"ios": "https://dc.lft.to/lastmile_qr_scan", "android": "https://dc.lft.to/lastmile_qr_scan"}}, {"name": "ff0aca0dcf741ad1a979b6f632abc4d6", "fusion_lat": 0.0, "type": "electric_scooter", "lat": 38.90742433333333, "is_reserved": 0, "is_disabled": 0, "fusion_lon": 0.0, "bike_id": "ff0aca0dcf741ad1a979b6f632abc4d6", "lon": -77.04339233333333, "rental_uris": {"ios": "https://dc.lft.to/lastmile_qr_scan", "android": "https://dc.lft.to/lastmile_qr_scan"}}, {"name": "77bc954434a8107521d3d0bbc4923fe8", "fusion_lat": 0.0, "type": "electric_bike", "lat": 38.92544, "is_reserved": 0, "is_disabled": 0, "fusion_lon": 0.0, "bike_id": "77bc954434a8107521d3d0bbc4923fe8", "lon": -77.07896033333333, "rental_uris": {"ios": "https://dc.lft.to/lastmile_qr_scan", "android": "https://dc.lft.to/lastmile_qr_scan"}}, {"name": "bd7880f6feacdc153c13f3ac965ffe8e", "fusion_lat": 0.0, "type": "electric_scooter", "lat": 38.891946833333336, "is_reserved": 0, "is_disabled": 0, "fusion_lon": 0.0, "bike_id": "bd7880f6feacdc153c13f3ac965ffe8e", "lon": -77.00297, "rental_uris": {"ios": "https://dc.lft.to/lastmile_qr_scan", "android": "https://dc.lft.to/lastmile_qr_scan"}}, {"name": "96d487eefb4d8fad6df96e936f9921e7", "fusion_lat": 0.0, "type": "electric_scooter", "lat": 38.87433583333333, "is_reserved": 0, "is_disabled": 0, "fusion_lon": 0.0, "bike_id": "96d487eefb4d8fad6df96e936f9921e7", "lon": -77.02064016666667, "rental_uris": {"ios": "https://dc.lft.to/lastmile_qr_scan", "android": "https://dc.lft.to/lastmile_qr_scan"}}, {"name": "750c92b4bf714bf3c1b75fece44a8790", "fusion_lat": 0.0, "type": "electric_bike", "lat": 38.949035, "is_reserved": 0, "is_disabled": 0, "fusion_lon": 0.0, "bike_id": "750c92b4bf714bf3c1b75fece44a8790", "lon": -77.0395175, "rental_uris": {"ios": "https://dc.lft.to/lastmile_qr_scan", "android": "https://dc.lft.to/lastmile_qr_scan"}}, {"name": "866db9ffd6dfb4189dd90930f23b3350", "fusion_lat": 0.0, "type": "electric_scooter", "lat": 38.88452866666667, "is_reserved": 0, "is_disabled": 0, "fusion_lon": 0.0, "bike_id": "866db9ffd6dfb4189dd90930f23b3350", "lon": -77.02619633333333, "rental_uris": {"ios": "https://dc.lft.to/lastmile_qr_scan", "android": "https://dc.lft.to/lastmile_qr_scan"}}, {"name": "f535638b4c2117430ee1beb6c7d92272", "fusion_lat": 0.0, "type": "electric_bike", "lat": 38.94383766666667, "is_reserved": 0, "is_disabled": 0, "fusion_lon": 0.0, "bike_id": "f535638b4c2117430ee1beb6c7d92272", "lon": -76.96292083333333, "rental_uris": {"ios": "https://dc.lft.to/lastmile_qr_scan", "android": "https://dc.lft.to/lastmile_qr_scan"}}, {"name": "3cb28b55586d4983286cb6b3282c009c", "fusion_lat": 0.0, "type": "electric_scooter", "lat": 38.9101185, "is_reserved": 0, "is_disabled": 0, "fusion_lon": 0.0, "bike_id": "3cb28b55586d4983286cb6b3282c009c", "lon": -77.04424666666667, "rental_uris": {"ios": "https://dc.lft.to/lastmile_qr_scan", "android": "https://dc.lft.to/lastmile_qr_scan"}}, {"name": "be813ee387236b289308b4dd01e5dc28", "fusion_lat": 0.0, "type": "electric_scooter", "lat": 38.90122083333333, "is_reserved": 0, "is_disabled": 0, "fusion_lon": 0.0, "bike_id": "be813ee387236b289308b4dd01e5dc28", "lon": -77.049844, "rental_uris": {"ios": "https://dc.lft.to/lastmile_qr_scan", "android": "https://dc.lft.to/lastmile_qr_scan"}}, {"name": "022863ae2e4d7933c9297f7b30a21aed", "fusion_lat": 0.0, "type": "electric_scooter", "lat": 38.898882666666665, "is_reserved": 0, "is_disabled": 0, "fusion_lon": 0.0, "bike_id": "022863ae2e4d7933c9297f7b30a21aed", "lon": -76.98572466666667, "rental_uris": {"ios": "https://dc.lft.to/lastmile_qr_scan", "android": "https://dc.lft.to/lastmile_qr_scan"}}, {"name": "34d297895a872d2689221eda63f96c9b", "fusion_lat": 0.0, "type": "electric_scooter", "lat": 38.92629316666667, "is_reserved": 0, "is_disabled": 0, "fusion_lon": 0.0, "bike_id": "34d297895a872d2689221eda63f96c9b", "lon": -77.03475733333333, "rental_uris": {"ios": "https://dc.lft.to/lastmile_qr_scan", "android": "https://dc.lft.to/lastmile_qr_scan"}}, {"name": "7f30ac9b4e14d97d66d1b84f590cb401", "fusion_lat": 0.0, "type": "electric_scooter", "lat": 38.8988605, "is_reserved": 0, "is_disabled": 0, "fusion_lon": 0.0, "bike_id": "7f30ac9b4e14d97d66d1b84f590cb401", "lon": -76.9329735, "rental_uris": {"ios": "https://dc.lft.to/lastmile_qr_scan", "android": "https://dc.lft.to/lastmile_qr_scan"}}, {"name": "c06bcf14619373219d1f2d87ac61a36c", "fusion_lat": 0.0, "type": "electric_scooter", "lat": 38.918294333333336, "is_reserved": 0, "is_disabled": 0, "fusion_lon": 0.0, "bike_id": "c06bcf14619373219d1f2d87ac61a36c", "lon": -77.0344305, "rental_uris": {"ios": "https://dc.lft.to/lastmile_qr_scan", "android": "https://dc.lft.to/lastmile_qr_scan"}}, {"name": "60c45d0f8a16741a27e9b69bc7340376", "fusion_lat": 0.0, "type": "electric_scooter", "lat": 38.896079666666665, "is_reserved": 0, "is_disabled": 0, "fusion_lon": 0.0, "bike_id": "60c45d0f8a16741a27e9b69bc7340376", "lon": -77.011157, "rental_uris": {"ios": "https://dc.lft.to/lastmile_qr_scan", "android": "https://dc.lft.to/lastmile_qr_scan"}}, {"name": "d808631965e37c055e03e0fba6f330bc", "fusion_lat": 0.0, "type": "electric_scooter", "lat": 38.9223365, "is_reserved": 0, "is_disabled": 0, "fusion_lon": 0.0, "bike_id": "d808631965e37c055e03e0fba6f330bc", "lon": -77.02237683333334, "rental_uris": {"ios": "https://dc.lft.to/lastmile_qr_scan", "android": "https://dc.lft.to/lastmile_qr_scan"}}, {"name": "c07836a10e655630a3972f9264c76955", "fusion_lat": 0.0, "type": "electric_scooter", "lat": 38.9297025, "is_reserved": 0, "is_disabled": 0, "fusion_lon": 0.0, "bike_id": "c07836a10e655630a3972f9264c76955", "lon": -77.005338, "rental_uris": {"ios": "https://dc.lft.to/lastmile_qr_scan", "android": "https://dc.lft.to/lastmile_qr_scan"}}, {"name": "800384f90635b634bfa17e96c88da89e", "fusion_lat": 0.0, "type": "electric_scooter", "lat": 38.903103333333334, "is_reserved": 0, "is_disabled": 0, "fusion_lon": 0.0, "bike_id": "800384f90635b634bfa17e96c88da89e", "lon": -77.0364655, "rental_uris": {"ios": "https://dc.lft.to/lastmile_qr_scan", "android": "https://dc.lft.to/lastmile_qr_scan"}}, {"name": "fc33f80c627944c540171b623146af47", "fusion_lat": 0.0, "type": "electric_scooter", "lat": 38.901214833333334, "is_reserved": 0, "is_disabled": 0, "fusion_lon": 0.0, "bike_id": "fc33f80c627944c540171b623146af47", "lon": -77.03049716666666, "rental_uris": {"ios": "https://dc.lft.to/lastmile_qr_scan", "android": "https://dc.lft.to/lastmile_qr_scan"}}, {"name": "62b66ce41d17d678d02b69577b11d1bc", "fusion_lat": 0.0, "type": "electric_scooter", "lat": 38.90728466666667, "is_reserved": 0, "is_disabled": 0, "fusion_lon": 0.0, "bike_id": "62b66ce41d17d678d02b69577b11d1bc", "lon": -77.0231355, "rental_uris": {"ios": "https://dc.lft.to/lastmile_qr_scan", "android": "https://dc.lft.to/lastmile_qr_scan"}}, {"name": "3e778014fd9dedef81a2dabcb0425ce6", "fusion_lat": 0.0, "type": "electric_scooter", "lat": 38.917143333333335, "is_reserved": 0, "is_disabled": 0, "fusion_lon": 0.0, "bike_id": "3e778014fd9dedef81a2dabcb0425ce6", "lon": -77.04675733333333, "rental_uris": {"ios": "https://dc.lft.to/lastmile_qr_scan", "android": "https://dc.lft.to/lastmile_qr_scan"}}, {"name": "93f2d3c19f8a63ca49347aa811b56b70", "fusion_lat": 0.0, "type": "electric_bike", "lat": 38.9367345, "is_reserved": 0, "is_disabled": 0, "fusion_lon": 0.0, "bike_id": "93f2d3c19f8a63ca49347aa811b56b70", "lon": -76.95206783333333, "rental_uris": {"ios": "https://dc.lft.to/lastmile_qr_scan", "android": "https://dc.lft.to/lastmile_qr_scan"}}, {"name": "0d35b88a17fec38fd10076465e8a0a25", "fusion_lat": 0.0, "type": "electric_scooter", "lat": 38.92028783333333, "is_reserved": 0, "is_disabled": 0, "fusion_lon": 0.0, "bike_id": "0d35b88a17fec38fd10076465e8a0a25", "lon": -77.03118366666666, "rental_uris": {"ios": "https://dc.lft.to/lastmile_qr_scan", "android": "https://dc.lft.to/lastmile_qr_scan"}}, {"name": "927800cab699b4343e9f50b889766c06", "fusion_lat": 0.0, "type": "electric_scooter", "lat": 38.8834855, "is_reserved": 0, "is_disabled": 0, "fusion_lon": 0.0, "bike_id": "927800cab699b4343e9f50b889766c06", "lon": -76.98553083333333, "rental_uris": {"ios": "https://dc.lft.to/lastmile_qr_scan", "android": "https://dc.lft.to/lastmile_qr_scan"}}, {"name": "e8f16ce343a72ac22806d129d74487f8", "fusion_lat": 0.0, "type": "electric_scooter", "lat": 38.8941435, "is_reserved": 0, "is_disabled": 0, "fusion_lon": 0.0, "bike_id": "e8f16ce343a72ac22806d129d74487f8", "lon": -76.9396475, "rental_uris": {"ios": "https://dc.lft.to/lastmile_qr_scan", "android": "https://dc.lft.to/lastmile_qr_scan"}}, {"name": "c1bcd7dd6ddd3e06fa4fe2fd820b0afa", "fusion_lat": 0.0, "type": "electric_scooter", "lat": 38.9259315, "is_reserved": 0, "is_disabled": 0, "fusion_lon": 0.0, "bike_id": "c1bcd7dd6ddd3e06fa4fe2fd820b0afa", "lon": -77.02961466666666, "rental_uris": {"ios": "https://dc.lft.to/lastmile_qr_scan", "android": "https://dc.lft.to/lastmile_qr_scan"}}, {"name": "1a3d1a03d09b4c11997c0f134406d5bd", "fusion_lat": 0.0, "type": "electric_scooter", "lat": 38.901171, "is_reserved": 0, "is_disabled": 0, "fusion_lon": 0.0, "bike_id": "1a3d1a03d09b4c11997c0f134406d5bd", "lon": -77.028965, "rental_uris": {"ios": "https://dc.lft.to/lastmile_qr_scan", "android": "https://dc.lft.to/lastmile_qr_scan"}}, {"name": "587039b14c43f36278485808044fa15b", "fusion_lat": 0.0, "type": "electric_scooter", "lat": 38.901225833333335, "is_reserved": 0, "is_disabled": 0, "fusion_lon": 0.0, "bike_id": "587039b14c43f36278485808044fa15b", "lon": -77.02453516666667, "rental_uris": {"ios": "https://dc.lft.to/lastmile_qr_scan", "android": "https://dc.lft.to/lastmile_qr_scan"}},