{"data": {"bikes": [{"is_disabled": 0, "lat": 38.949216166666666, "bike_id": "3a830897af923250fadbf4af5f0b985e", "is_reserved": 0, "rental_uris": {"ios": "https://dc.lft.to/lastmile_qr_scan", "android": "https://dc.lft.to/lastmile_qr_scan"}, "name": "3a830897af923250fadbf4af5f0b985e", "fusion_lon": 0.0, "fusion_lat": 0.0, "lon": -77.0231975, "type": "electric_scooter"}, {"is_disabled": 0, "lat": 38.807689333333336, "bike_id": "20bab57e2b7aebbf2f06d1d795c65fcf", "is_reserved": 0, "rental_uris": {"ios": "https://dc.lft.to/lastmile_qr_scan", "android": "https://dc.lft.to/lastmile_qr_scan"}, "name": "20bab57e2b7aebbf2f06d1d795c65fcf", "fusion_lon": 0.0, "fusion_lat": 0.0, "lon": -77.05742116666667, "type": "electric_bike"}, {"is_disabled": 0, "lat": 38.91758466666667, "bike_id": "5b8db427efc64dfd6653d04878fc07b6", "is_reserved": 0, "rental_uris": {"ios": "https://dc.lft.to/lastmile_qr_scan", "android": "https://dc.lft.to/lastmile_qr_scan"}, "name": "5b8db427efc64dfd6653d04878fc07b6", "fusion_lon": 0.0, "fusion_lat": 0.0, "lon": -77.01604266666666, "type": "electric_scooter"}, {"is_disabled": 0, "lat": 38.9048665, "bike_id": "2190276201746342a698161bb6c797ad", "is_reserved": 0, "rental_uris": {"ios": "https://dc.lft.to/lastmile_qr_scan", "android": "https://dc.lft.to/lastmile_qr_scan"}, "name": "2190276201746342a698161bb6c797ad", "fusion_lon": 0.0, "fusion_lat": 0.0, "lon": -76.949594, "type": "electric_scooter"}, {"is_disabled": 0, "lat": 38.86683166666667, "bike_id": "0e82dd6b5d7a8ee74b039ed90b99ecd7", "is_reserved": 0, "rental_uris": {"ios": "https://dc.lft.to/lastmile_qr_scan", "android": "https://dc.lft.to/lastmile_qr_scan"}, "name": "0e82dd6b5d7a8ee74b039ed90b99ecd7", "fusion_lon": 0.0, "fusion_lat": 0.0, "lon": -76.94852883333333, "type": "electric_scooter"}, {"is_disabled": 0, "lat": 38.9243915, "bike_id": "7348d6ff6f25e555d615f161bad5bf8b", "is_reserved": 0, "rental_uris": {"ios": "https://dc.lft.to/lastmile_qr_scan", "android": "https://dc.lft.to/lastmile_qr_scan"}, "name": "7348d6ff6f25e555d615f161bad5bf8b", "fusion_lon": 0.0, "fusion_lat": 0.0, "lon": -77.03407266666666, "type": "electric_scooter"}, {"is_disabled": 0, "lat": 38.876574833333336, "bike_id": "c759a012ecd66fbc430861d8fe2d257a", "is_reserved": 0, "rental_uris": {"ios": "https://dc.lft.to/lastmile_qr_scan", "android": "https://dc.lft.to/lastmile_qr_scan"}, "name": "c759a012ecd66fbc430861d8fe2d257a", "fusion_lon": 0.0, "fusion_lat": 0.0, "lon": -77.004366, "type": "electric_scooter"}, {"is_disabled": 0, "lat": 38.907551, "bike_id": "97fc0068b1d737917bf40dd858500e19", "is_reserved": 0, "rental_uris": {"ios": "https://dc.lft.to/lastmile_qr_scan", "android": "https://dc.lft.to/lastmile_qr_scan"}, "name": "97fc0068b1d737917bf40dd858500e19", "fusion_lon": 0.0, "fusion_lat": 0.0, "lon": -77.04241666666667, "type": "electric_scooter"}, {"is_disabled": 0, "lat": 38.85630966666667, "bike_id": "623450824636da956491735a2e8c8dd4", "is_reserved": 0, "rental_uris": {"ios": "https://dc.lft.to/lastmile_qr_scan", "android": "https://dc.lft.to/lastmile_qr_scan"}, "name": "623450824636da956491735a2e8c8dd4", "fusion_lon": 0.0, "fusion_lat": 0.0, "lon": -76.982303, "type": "electric_scooter"}, {"is_disabled": 0, "lat": 38.892156666666665, "bike_id": "86b756deeface5e17acfb90ca2866d34", "is_reserved": 0, "rental_uris": {"ios": "https://dc.lft.to/lastmile_qr_scan", "android": "https://dc.lft.to/lastmile_qr_scan"}, "name": "86b756deeface5e17acfb90ca2866d34", "fusion_lon": 0.0, "fusion_lat": 0.0, "lon": -77.02374, "type": "electric_scooter"}, {"is_disabled": 0, "lat": 38.89608166666667, "bike_id": "708db5c989fc5d9b7c32cd5e077c19bb", "is_reserved": 0, "rental_uris": {"ios": "https://dc.lft.to/lastmile_qr_scan", "android": "https://dc.lft.to/lastmile_qr_scan"}, "name": "708db5c989fc5d9b7c32cd5e077c19bb", "fusion_lon": 0.0, "fusion_lat": 0.0, "lon": -77.04543916666667, "type": "electric_scooter"}, {"is_disabled": 0, "lat": 38.9078105, "bike_id": "b2e2ac7304a3a72e53d96943b1c27e79", "is_reserved": 0, "rental_uris": {"ios": "https://dc.lft.to/lastmile_qr_scan", "android": "https://dc.lft.to/lastmile_qr_scan"}, "name": "b2e2ac7304a3a72e53d96943b1c27e79", "fusion_lon": 0.0, "fusion_lat": 0.0, "lon": -77.04507633333333, "type": "electric_scooter"}, {"is_disabled": 0, "lat": 38.906169166666665, "bike_id": "a3576336126c4947848490fbe3cac9ad", "is_reserved": 0, "rental_uris": {"ios": "https://dc.lft.to/lastmile_qr_scan", "android": "https://dc.lft.to/lastmile_qr_scan"}, "name": "a3576336126c4947848490fbe3cac9ad", "fusion_lon": 0.0, "fusion_lat": 0.0, "lon": -77.00714783333333, "type": "electric_scooter"}, {"is_disabled": 0, "lat": 38.88496, "bike_id": "e546a4bb561d13622113b7bcce114298", "is_reserved": 0, "rental_uris": {"ios": "https://dc.lft.to/lastmile_qr_scan", "android": "https://dc.lft.to/lastmile_qr_scan"}, "name": "e546a4bb561d13622113b7bcce114298", "fusion_lon": 0.0, "fusion_lat": 0.0, "lon": -77.02641716666666, "type": "electric_scooter"}, {"is_disabled": 0, "lat": 38.9078175, "bike_id": "b1054da3dc8380fd765c3cf014fa4155", "is_reserved": 0, "rental_uris": {"ios": "https://dc.lft.to/lastmile_qr_scan", "android": "https://dc.lft.to/lastmile_qr_scan"}, "name": "b1054da3dc8380fd765c3cf014fa4155", "fusion_lon": 0.0, "fusion_lat": 0.0, "lon": -77.04512516666666, "type": "electric_scooter"}, {"is_disabled": 0, "lat": 38.852432666666665, "bike_id": "1c9b9e47e7ccd7f818864ad6a5a91737", "is_reserved": 0, "rental_uris": {"ios": "https://dc.lft.to/lastmile_qr_scan", "android": "https://dc.lft.to/lastmile_qr_scan"}, "name": "1c9b9e47e7ccd7f818864ad6a5a91737", "fusion_lon": 0.0, "fusion_lat": 0.0, "lon": -77.11414333333333, "type": "electric_bike"}, {"is_disabled": 0, "lat": 38.90243533333334, "bike_id": "6a92998434c14e975dbf429e79f5d55a", "is_reserved": 0, "rental_uris": {"ios": "https://dc.lft.to/lastmile_qr_scan", "android": "https://dc.lft.to/lastmile_qr_scan"}, "name": "6a92998434c14e975dbf429e79f5d55a", "fusion_lon": 0.0, "fusion_lat": 0.0, "lon": -77.03257783333333, "type": "electric_scooter"}, {"is_disabled": 0, "lat": 38.9204265, "bike_id": "b0ecca5bd4913d690bc28d1b4153744e", "is_reserved": 0, "rental_uris": {"ios": "https://dc.lft.to/lastmile_qr_scan", "android": "https://dc.lft.to/lastmile_qr_scan"}, "name": "b0ecca5bd4913d690bc28d1b4153744e", "fusion_lon": 0.0, "fusion_lat": 0.0, "lon": -77.0383805, "type": "electric_scooter"}, {"is_disabled": 0, "lat": 38.923267, "bike_id": "e90dd3e80c0fa26c46d352fc8c809ebf", "is_reserved": 0, "rental_uris": {"ios": "https://dc.lft.to/lastmile_qr_scan", "android": "https://dc.lft.to/lastmile_qr_scan"}, "name": "e90dd3e80c0fa26c46d352fc8c809ebf", "fusion_lon": 0.0, "fusion_lat": 0.0, "lon": -77.05681566666667, "type": "electric_scooter"}, {"is_disabled": 0, "lat": 38.93929166666667, "bike_id": "657d1b802be34d526ca67ac425ccc9dc", "is_reserved": 0, "rental_uris": {"ios": "https://dc.lft.to/lastmile_qr_scan", "android": "https://dc.lft.to/lastmile_qr_scan"}, "name": "657d1b802be34d526ca67ac425ccc9dc", "fusion_lon": 0.0, "fusion_lat": 0.0, "lon": -77.0725505, "type": "electric_scooter"}, {"is_disabled": 0, "lat": 38.90016716666667, "bike_id": "4b6fab3e26edb2d0cea098dd0090cbd0", "is_reserved": 0, "rental_uris": {"ios": "https://dc.lft.to/lastmile_qr_scan", "android": "https://dc.lft.to/lastmile_qr_scan"}, "name": "4b6fab3e26edb2d0cea098dd0090cbd0", "fusion_lon": 0.0, "fusion_lat": 0.0, "lon": -77.04378666666666, "type": "electric_scooter"}, {"is_disabled": 0, "lat": 38.913749333333335, "bike_id": "e333b08ac481d3220900c8f20cb12167", "is_reserved": 0, "rental_uris": {"ios": "https://dc.lft.to/lastmile_qr_scan", "android": "https://dc.lft.to/lastmile_qr_scan"}, "name": "e333b08ac481d3220900c8f20cb12167", "fusion_lon": 0.0, "fusion_lat": 0.0, "lon": -77.0239095, "type": "electric_scooter"}, {"is_disabled": 0, "lat": 38.904481, "bike_id": "fec2466e655e8665df2ddaa74612ac80", "is_reserved": 0, "rental_uris": {"ios": "https://dc.lft.to/lastmile_qr_scan", "android": "https://dc.lft.to/lastmile_qr_scan"}, "name": "fec2466e655e8665df2ddaa74612ac80", "fusion_lon": 0.0, "fusion_lat": 0.0, "lon": -77.0433225, "type": "electric_scooter"}, {"is_disabled": 0, "lat": 38.9319825, "bike_id": "2f55e48d9e437d920f5643cf3ad7c46d", "is_reserved": 0, "rental_uris": {"ios": "https://dc.lft.to/lastmile_qr_scan", "android": "https://dc.lft.to/lastmile_qr_scan"}, "name": "2f55e48d9e437d920f5643cf3ad7c46d", "fusion_lon": 0.0, "fusion_lat": 0.0, "lon": -77.02388183333333, "type": "electric_scooter"}, {"is_disabled": 0, "lat": 38.91913266666667, "bike_id": "2a41af983a393cdcb980cf268002f8e6", "is_reserved": 0, "rental_uris": {"ios": "https://dc.lft.to/lastmile_qr_scan", "android": "https://dc.lft.to/lastmile_qr_scan"}, "name": "2a41af983a393cdcb980cf268002f8e6", "fusion_lon": 0.0, "fusion_lat": 0.0, "lon": -77.031802, "type": "electric_scooter"}, {"is_disabled": 0, "lat": 38.89232, "bike_id": "fba102fcfbddcd12b7bcd59741111234", "is_reserved": 0, "rental_uris": {"ios": "https://dc.lft.to/lastmile_qr_scan", "android": "https://dc.lft.to/lastmile_qr_scan"}, "name": "fba102fcfbddcd12b7bcd59741111234", "fusion_lon": 0.0, "fusion_lat": 0.0, "lon": -77.04874333333333, "type": "electric_scooter"}, {"is_disabled": 0, "lat": 38.910280166666666, "bike_id": "746e043f38ee5ed7b1288f4c7c139429", "is_reserved": 0, "rental_uris": {"ios": "https://dc.lft.to/lastmile_qr_scan", "android": "https://dc.lft.to/lastmile_qr_scan"}, "name": "746e043f38ee5ed7b1288f4c7c139429", "fusion_lon": 0.0, "fusion_lat": 0.0, "lon": -77.012161, "type": "electric_scooter"}, {"is_disabled": 0, "lat": 38.94439666666667, "bike_id": "44286f0ad4e06ccbbe5177006233a50b", "is_reserved": 0, "rental_uris": {"ios": "https://dc.lft.to/lastmile_qr_scan", "android": "https://dc.lft.to/lastmile_qr_scan"}, "name": "44286f0ad4e06ccbbe5177006233a50b", "fusion_lon": 0.0, "fusion_lat": 0.0, "lon": -77.06357166666666, "type": "electric_scooter"}, {"is_disabled": 0, "lat": 38.90471733333333, "bike_id": "91325321d418b4fc037901669cbd18b1", "is_reserved": 0, "rental_uris": {"ios": "https://dc.lft.to/lastmile_qr_scan", "android": "https://dc.lft.to/lastmile_qr_scan"}, "name": "91325321d418b4fc037901669cbd18b1", "fusion_lon": 0.0, "fusion_lat": 0.0, "lon": -77.06597516666666, "type": "electric_scooter"}, {"is_disabled": 0, "lat": 38.92313433333333, "bike_id": "91f1fe36ecd14a3a7b8dae38eb5c66f3", "is_reserved": 0, "rental_uris": {"ios": "https://dc.lft.to/lastmile_qr_scan", "android": "https://dc.lft.to/lastmile_qr_scan"}, "name": "91f1fe36ecd14a3a7b8dae38eb5c66f3", "fusion_lon": 0.0, "fusion_lat": 0.0, "lon": -77.02904566666666, "type": "electric_scooter"}, {"is_disabled": 0, "lat": 38.92040983333333, "bike_id": "76d69d3c9a6fece1720df6528a0b917e", "is_reserved": 0, "rental_uris": {"ios": "https://dc.lft.to/lastmile_qr_scan", "android": "https://dc.lft.to/lastmile_qr_scan"}, "name": "76d69d3c9a6fece1720df6528a0b917e", "fusion_lon": 0.0, "fusion_lat": 0.0, "lon": -77.01733533333334, "type": "electric_scooter"}, {"is_disabled": 0, "lat": 38.882933333333334, "bike_id": "5453875fa74bcb0c8b0fa8a6f76641a5", "is_reserved": 0, "rental_uris": {"ios": "https://dc.lft.to/lastmile_qr_scan", "android": "https://dc.lft.to/lastmile_qr_scan"}, "name": "5453875fa74bcb0c8b0fa8a6f76641a5", "fusion_lon": 0.0, "fusion_lat": 0.0, "lon": -76.93493183333334, "type": "electric_scooter"}, {"is_disabled": 0, "lat": 38.89208716666667, "bike_id": "7362398cd3c2d79f00299fd8ae59e6b1", "is_reserved": 0, "rental_uris": {"ios": "https://dc.lft.to/lastmile_qr_scan", "android": "https://dc.lft.to/lastmile_qr_scan"}, "name": "7362398cd3c2d79f00299fd8ae59e6b1", "fusion_lon": 0.0, "fusion_lat": 0.0, "lon": -76.99926166666667, "type": "electric_scooter"}, {"is_disabled": 0, "lat": 38.89404233333333, "bike_id": "5d78704dd96a3fe4dbbf53f2612642d1", "is_reserved": 0, "rental_uris": {"ios": "https://dc.lft.to/lastmile_qr_scan", "android": "https://dc.lft.to/lastmile_qr_scan"}, "name": "5d78704dd96a3fe4dbbf53f2612642d1", "fusion_lon": 0.0, "fusion_lat": 0.0, "lon": -77.03215833333333, "type": "electric_scooter"}, {"is_disabled": 0, "lat": 38.89519416666667, "bike_id": "f69db1b206aa2c541d19f94e854126fb", "is_reserved": 0, "rental_uris": {"ios": "https://dc.lft.to/lastmile_qr_scan", "android": "https://dc.lft.to/lastmile_qr_scan"}, "name": "f69db1b206aa2c541d19f94e854126fb", "fusion_lon": 0.0, "fusion_lat": 0.0, "lon": -77.02943683333334, "type": "electric_scooter"}, {"is_disabled": 0, "lat": 38.892208333333336, "bike_id": "f9d6eef2c74a932d257ad5f58f8a2346", "is_reserved": 0, "rental_uris": {"ios": "https://dc.lft.to/lastmile_qr_scan", "android": "https://dc.lft.to/lastmile_qr_scan"}, "name": "f9d6eef2c74a932d257ad5f58f8a2346", "fusion_lon": 0.0, "fusion_lat": 0.0, "lon": -77.04642433333333, "type": "electric_scooter"}, {"is_disabled": 0, "lat": 38.93661733333333, "bike_id": "5ea1c55e412535bc982625bb4d85e39c", "is_reserved": 0, "rental_uris": {"ios": "https://dc.lft.to/lastmile_qr_scan", "android": "https://dc.lft.to/lastmile_qr_scan"}, "name": "5ea1c55e412535bc982625bb4d85e39c", "fusion_lon": 0.0, "fusion_lat": 0.0, "lon": -77.06609533333334, "type": "electric_scooter"}, {"is_disabled": 0, "lat": 38.916887333333335, "bike_id": "ff0cdd808b680655a0c5c10417b81bad", "is_reserved": 0, "rental_uris": {"ios": "https://dc.lft.to/lastmile_qr_scan", "android": "https://dc.lft.to/lastmile_qr_scan"}, "name": "ff0cdd808b680655a0c5c10417b81bad", "fusion_lon": 0.0, "fusion_lat": 0.0, "lon": -77.03783683333333, "type": "electric_scooter"}, {"is_disabled": 0, "lat": 38.92578566666667, "bike_id": "3541d128783ed65a056b96b540130e1e", "is_reserved": 0, "rental_uris": {"ios": "https://dc.lft.to/lastmile_qr_scan", "android": "https://dc.lft.to/lastmile_qr_scan"}, "name": "3541d128783ed65a056b96b540130e1e", "fusion_lon": 0.0, "fusion_lat": 0.0, "lon": -76.994944, "type": "electric_scooter"}, {"is_disabled": 0, "lat": 38.92967133333333, "bike_id": "ccf81bd67148d7c315ef2810cfc07045", "is_reserved": 0, "rental_uris": {"ios": "https://dc.lft.to/lastmile_qr_scan", "android": "https://dc.lft.to/lastmile_qr_scan"}, "name": "ccf81bd67148d7c315ef2810cfc07045", "fusion_lon": 0.0, "fusion_lat": 0.0, "lon": -77.0234315, "type": "electric_scooter"}, {"is_disabled": 0, "lat": 38.898422833333335, "bike_id": "20579fd2026c1e6f275bedfb6ad140c7", "is_reserved": 0, "rental_uris": {"ios": "https://dc.lft.to/lastmile_qr_scan", "android": "https://dc.lft.to/lastmile_qr_scan"}, "name": "20579fd2026c1e6f275bedfb6ad140c7", "fusion_lon": 0.0, "fusion_lat": 0.0, "lon": -77.02948366666666, "type": "electric_scooter"}, {"is_disabled": 0, "lat": 38.9395535, "bike_id": "659a5dc39b8781eeb9e6a25edb1315ba", "is_reserved": 0, "rental_uris": {"ios": "https://dc.lft.to/lastmile_qr_scan", "android": "https://dc.lft.to/lastmile_qr_scan"}, "name": "659a5dc39b8781eeb9e6a25edb1315ba", "fusion_lon": 0.0, "fusion_lat": 0.0, "lon": -77.03601883333333, "type": "electric_scooter"}, {"is_disabled": 0, "lat": 38.90791266666667, "bike_id": "4f5afd275ed383480446dd462449372e", "is_reserved": 0, "rental_uris": {"ios": "https://dc.lft.to/lastmile_qr_scan", "android": "https://dc.lft.to/lastmile_qr_scan"}, "name": "4f5afd275ed383480446dd462449372e", "fusion_lon": 0.0, "fusion_lat": 0.0, "lon": -76.9972365, "type": "electric_scooter"}, {"is_disabled": 0, "lat": 38.92193183333333, "bike_id": "2042bf5f6e11b2bd96a40090772ccd04", "is_reserved": 0, "rental_uris": {"ios": "https://dc.lft.to/lastmile_qr_scan", "android": "https://dc.lft.to/lastmile_qr_scan"}, "name": "2042bf5f6e11b2bd96a40090772ccd04", "fusion_lon": 0.0, "fusion_lat": 0.0, "lon": -77.04237116666667, "type": "electric_scooter"}, {"is_disabled": 0, "lat": 38.903272333333334, "bike_id": "bbdf8515393a5001e195063854e7b9f8", "is_reserved": 0, "rental_uris": {"ios": "https://dc.lft.to/lastmile_qr_scan", "android": "https://dc.lft.to/lastmile_qr_scan"}, "name": "bbdf8515393a5001e195063854e7b9f8", "fusion_lon": 0.0, "fusion_lat": 0.0, "lon": -77.0445355, "type": "electric_scooter"}, {"is_disabled": 0, "lat": 38.898278, "bike_id": "b3e3e60671e17c97c24a95df63715a66", "is_reserved": 0, "rental_uris": {"ios": "https://dc.lft.to/lastmile_qr_scan", "android": "https://dc.lft.to/lastmile_qr_scan"}, "name": "b3e3e60671e17c97c24a95df63715a66", "fusion_lon": 0.0, "fusion_lat": 0.0, "lon": -77.0260615, "type": "electric_scooter"}, {"is_disabled": 0, "lat": 38.909029833333335, "bike_id": "abde2a5747a19b465138596d7f99051c", "is_reserved": 0, "rental_uris": {"ios": "https://dc.lft.to/lastmile_qr_scan", "android": "https://dc.lft.to/lastmile_qr_scan"}, "name": "abde2a5747a19b465138596d7f99051c", "fusion_lon": 0.0, "fusion_lat": 0.0, "lon": -77.042108, "type": "electric_scooter"}, {"is_disabled": 0, "lat": 38.862604, "bike_id": "e2e2967a11570fbb2572cdcc1adc3361", "is_reserved": 0, "rental_uris": {"ios": "https://dc.lft.to/lastmile_qr_scan", "android": "https://dc.lft.to/lastmile_qr_scan"}, "name": "e2e2967a11570fbb2572cdcc1adc3361", "fusion_lon": 0.0, "fusion_lat": 0.0, "lon": -77.0892085, "type": "electric_bike"}, {"is_disabled": 0, "lat": 38.899374, "bike_id": "78254553ab152781ff505991edfec422", "is_reserved": 0, "rental_uris": {"ios": "https://dc.lft.to/lastmile_qr_scan", "android": "https://dc.lft.to/lastmile_qr_scan"}, "name": "78254553ab152781ff505991edfec422", "fusion_lon": 0.0, "fusion_lat": 0.0, "lon": -77.03232516666667, "type": "electric_scooter"}, {"is_disabled": 0, "lat": 38.9131415, "bike_id": "3b61ab44b56e9a8a7dc43fd6aefdcf3d", "is_reserved": 0, "rental_uris": {"ios": "https://dc.lft.to/lastmile_qr_scan", "android": "https://dc.lft.to/lastmile_qr_scan"}, "name": "3b61ab44b56e9a8a7dc43fd6aefdcf3d", "fusion_lon": 0.0, "fusion_lat": 0.0, "lon": -77.01439266666667, "type": "electric_scooter"}, {"is_disabled": 0, "lat": 38.900583166666664, "bike_id": "c6c49d0528f6054e9db3c4ba6f1b5af4", "is_reserved": 0, "rental_uris": {"ios": "https://dc.lft.to/lastmile_qr_scan", "android": "https://dc.lft.to/lastmile_qr_scan"}, "name": "c6c49d0528f6054e9db3c4ba6f1b5af4", "fusion_lon": 0.0, "fusion_lat": 0.0, "lon": -76.98699133333334, "type": "electric_scooter"}, {"is_disabled": 0, "lat": 38.8040035, "bike_id": "5c2b52bfe2f5818694210d8f9ab67663", "is_reserved": 0, "rental_uris": {"ios": "https://dc.lft.to/lastmile_qr_scan", "android": "https://dc.lft.to/lastmile_qr_scan"}, "name": "5c2b52bfe2f5818694210d8f9ab67663", "fusion_lon": 0.0, "fusion_lat": 0.0, "lon": -77.11328083333333, "type": "electric_bike"}, {"is_disabled": 0, "lat": 38.88408666666667, "bike_id": "89e7c63ea8df01127c0e2ff1803a2f2e", "is_reserved": 0, "rental_uris": {"ios": "https://dc.lft.to/lastmile_qr_scan", "android": "https://dc.lft.to/lastmile_qr_scan"}, "name": "89e7c63ea8df01127c0e2ff1803a2f2e", "fusion_lon": 0.0, "fusion_lat": 0.0, "lon": -76.98587016666667, "type": "electric_bike"}, {"is_disabled": 0, "lat": 38.941789, "bike_id": "834fc02bc02ae9a64253a1d6773a227e", "is_reserved": 0, "rental_uris": {"ios": "https://dc.lft.to/lastmile_qr_scan", "android": "https://dc.lft.to/lastmile_qr_scan"}, "name": "834fc02bc02ae9a64253a1d6773a227e", "fusion_lon": 0.0, "fusion_lat": 0.0, "lon": -77.03108483333334, "type": "electric_scooter"}, {"is_disabled": 0, "lat": 38.89622583333333, "bike_id": "2a1d677ef64d19d86cc29354616a34d0", "is_reserved": 0, "rental_uris": {"ios": "https://dc.lft.to/lastmile_qr_scan", "android": "https://dc.lft.to/lastmile_qr_scan"}, "name": "2a1d677ef64d19d86cc29354616a34d0", "fusion_lon": 0.0, "fusion_lat": 0.0, "lon": -77.04361833333333, "type": "electric_scooter"}, {"is_disabled": 0, "lat": 38.89197383333333, "bike_id": "52c5cd51c02587ca7266fe7f08092b8a", "is_reserved": 0, "rental_uris": {"ios": "https://dc.lft.to/lastmile_qr_scan", "android": "https://dc.lft.to/lastmile_qr_scan"}, "name": "52c5cd51c02587ca7266fe7f08092b8a", "fusion_lon": 0.0, "fusion_lat": 0.0, "lon": -77.04387416666667, "type": "electric_scooter"}, {"is_disabled": 0, "lat": 38.911355666666665, "bike_id": "e7f01e6f841a485a6e96cc79b9932d15", "is_reserved": 0, "rental_uris": {"ios": "https://dc.lft.to/lastmile_qr_scan", "android": "https://dc.lft.to/lastmile_qr_scan"}, "name": "e7f01e6f841a485a6e96cc79b9932d15", "fusion_lon": 0.0, "fusion_lat": 0.0, "lon": -77.04863783333333, "type": "electric_scooter"}, {"is_disabled": 0, "lat": 38.90098, "bike_id": "9aa21f9b32a9f3c1c3b0dbf8cba87c24", "is_reserved": 0, "rental_uris": {"ios": "https://dc.lft.to/lastmile_qr_scan", "android": "https://dc.lft.to/lastmile_qr_scan"}, "name": "9aa21f9b32a9f3c1c3b0dbf8cba87c24", "fusion_lon": 0.0, "fusion_lat": 0.0, "lon": -77.0478095, "type": "electric_scooter"}, {"is_disabled": 0, "lat": 38.931692166666664, "bike_id": "56fa6ca60a219f0da9a9f8dc6fcd9a82", "is_reserved": 0, "rental_uris": {"ios": "https://dc.lft.to/lastmile_qr_scan", "android": "https://dc.lft.to/lastmile_qr_scan"}, "name": "56fa6ca60a219f0da9a9f8dc6fcd9a82", "fusion_lon": 0.0, "fusion_lat": 0.0, "lon": -77.0282485, "type": "electric_scooter"}, {"is_disabled": 0, "lat": 38.9260775, "bike_id": "6c2ff3684b21b443d68b1e7d98e5f575", "is_reserved": 0, "rental_uris": {"ios": "https://dc.lft.to/lastmile_qr_scan", "android": "https://dc.lft.to/lastmile_qr_scan"}, "name": "6c2ff3684b21b443d68b1e7d98e5f575", "fusion_lon": 0.0, "fusion_lat": 0.0, "lon": -77.021634, "type": "electric_scooter"}, {"is_disabled": 0, "lat": 38.9090045, "bike_id": "4d4986e19c074b335fde0b8f5c8e1710", "is_reserved": 0, "rental_uris": {"ios": "https://dc.lft.to/lastmile_qr_scan", "android": "https://dc.lft.to/lastmile_qr_scan"}, "name": "4d4986e19c074b335fde0b8f5c8e1710", "fusion_lon": 0.0, "fusion_lat": 0.0, "lon": -77.04203216666667, "type": "electric_scooter"}, {"is_disabled": 0, "lat": 38.82760066666667, "bike_id": "3f5877986be1151fb2b0663534fab0e9", "is_reserved": 0, "rental_uris": {"ios": "https://dc.lft.to/lastmile_qr_scan", "android": "https://dc.lft.to/lastmile_qr_scan"}, "name": "3f5877986be1151fb2b0663534fab0e9", "fusion_lon": 0.0, "fusion_lat": 0.0, "lon": -77.050328, "type": "electric_bike"}, {"is_disabled": 0, "lat": 38.92424883333333, "bike_id": "8f176f6ed479e418431ff41d48110713", "is_reserved": 0, "rental_uris": {"ios": "https://dc.lft.to/lastmile_qr_scan", "android": "https://dc.lft.to/lastmile_qr_scan"}, "name": "8f176f6ed479e418431ff41d48110713", "fusion_lon": 0.0, "fusion_lat": 0.0, "lon": -77.02268066666667, "type": "electric_scooter"}, {"is_disabled": 0, "lat": 38.937002666666665, "bike_id": "65c314e2683d0cc0157a6a8a556a5abe", "is_reserved": 0, "rental_uris": {"ios": "https://dc.lft.to/lastmile_qr_scan", "android": "https://dc.lft.to/lastmile_qr_scan"}, "name": "65c314e2683d0cc0157a6a8a556a5abe", "fusion_lon": 0.0, "fusion_lat": 0.0, "lon": -77.05597916666666, "type": "electric_scooter"}, {"is_disabled": 0, "lat": 38.9039635, "bike_id": "03e00b51ff233101ecc4cd4a00df5bec", "is_reserved": 0, "rental_uris": {"ios": "https://dc.lft.to/lastmile_qr_scan", "android": "https://dc.lft.to/lastmile_qr_scan"}, "name": "03e00b51ff233101ecc4cd4a00df5bec", "fusion_lon": 0.0, "fusion_lat": 0.0, "lon": -77.04840133333333, "type": "electric_scooter"}, {"is_disabled": 0, "lat": 38.9044315, "bike_id": "843049480a13dcec9caf90aee566a96a", "is_reserved": 0, "rental_uris": {"ios": "https://dc.lft.to/lastmile_qr_scan", "android": "https://dc.lft.to/lastmile_qr_scan"}, "name": "843049480a13dcec9caf90aee566a96a", "fusion_lon": 0.0, "fusion_lat": 0.0, "lon": -77.02592866666667, "type": "electric_scooter"}, {"is_disabled": 0, "lat": 38.922498166666664, "bike_id": "39a72e55fe961d02cab5d544978cd933", "is_reserved": 0, "rental_uris": {"ios": "https://dc.lft.to/lastmile_qr_scan", "android": "https://dc.lft.to/lastmile_qr_scan"}, "name": "39a72e55fe961d02cab5d544978cd933", "fusion_lon": 0.0, "fusion_lat": 0.0, "lon": -77.02961483333333, "type": "electric_scooter"}, {"is_disabled": 0, "lat": 38.9802545, "bike_id": "a22ef36fecd22decc99f9c7d40ae69f3", "is_reserved": 0, "rental_uris": {"ios": "https://dc.lft.to/lastmile_qr_scan", "android": "https://dc.lft.to/lastmile_qr_scan"}, "name": "a22ef36fecd22decc99f9c7d40ae69f3", "fusion_lon": 0.0, "fusion_lat": 0.0, "lon": -76.9424765, "type": "electric_bike"}, {"is_disabled": 0, "lat": 38.953153, "bike_id": "a137c8e35964cbaa5da1dd5a10b249a5", "is_reserved": 0, "rental_uris": {"ios": "https://dc.lft.to/lastmile_qr_scan", "android": "https://dc.lft.to/lastmile_qr_scan"}, "name": "a137c8e35964cbaa5da1dd5a10b249a5", "fusion_lon": 0.0, "fusion_lat": 0.0, "lon": -76.994613, "type": "electric_scooter"}, {"is_disabled": 0, "lat": 38.9442755, "bike_id": "17be042f7eae5cfd8026b847fe3873eb", "is_reserved": 0, "rental_uris": {"ios": "https://dc.lft.to/lastmile_qr_scan", "android": "https://dc.lft.to/lastmile_qr_scan"}, "name": "17be042f7eae5cfd8026b847fe3873eb", "fusion_lon": 0.0, "fusion_lat": 0.0, "lon": -77.01383716666666, "type": "electric_bike"}, {"is_disabled": 0, "lat": 38.8717255, "bike_id": "d51ec4d2b10cc1f70ab729f024d3e467", "is_reserved": 0, "rental_uris": {"ios": "https://dc.lft.to/lastmile_qr_scan", "android": "https://dc.lft.to/lastmile_qr_scan"}, "name": "d51ec4d2b10cc1f70ab729f024d3e467", "fusion_lon": 0.0, "fusion_lat": 0.0, "lon": -77.233907, "type": "electric_bike"}, {"is_disabled": 0, "lat": 38.930900333333334, "bike_id": "348dd1623347f74f4ec83714e30835f9", "is_reserved": 0, "rental_uris": {"ios": "https://dc.lft.to/lastmile_qr_scan", "android": "https://dc.lft.to/lastmile_qr_scan"}, "name": "348dd1623347f74f4ec83714e30835f9", "fusion_lon": 0.0, "fusion_lat": 0.0, "lon": -77.03447133333333, "type": "electric_scooter"}, {"is_disabled": 0, "lat": 38.890443833333336, "bike_id": "38c8c572c36c3f8992679c8faf7ae66e", "is_reserved": 0, "rental_uris": {"ios": "https://dc.lft.to/lastmile_qr_scan", "android": "https://dc.lft.to/lastmile_qr_scan"}, "name": "38c8c572c36c3f8992679c8faf7ae66e", "fusion_lon": 0.0, "fusion_lat": 0.0, "lon": -76.9374225, "type": "electric_scooter"}, {"is_disabled": 0, "lat": 38.9264585, "bike_id": "4dccac49271c63e53d29dbae6cd42c89", "is_reserved": 0, "rental_uris": {"ios": "https://dc.lft.to/lastmile_qr_scan", "android": "https://dc.lft.to/lastmile_qr_scan"}, "name": "4dccac49271c63e53d29dbae6cd42c89", "fusion_lon": 0.0, "fusion_lat": 0.0, "lon": -77.03852183333333, "type": "electric_scooter"}, {"is_disabled": 0, "lat": 38.9058775, "bike_id": "154fe6a259eed02961b919da1da37d96", "is_reserved": 0, "rental_uris": {"ios": "https://dc.lft.to/lastmile_qr_scan", "android": "https://dc.lft.to/lastmile_qr_scan"}, "name": "154fe6a259eed02961b919da1da37d96", "fusion_lon": 0.0, "fusion_lat": 0.0, "lon": -77.02971483333333, "type": "electric_scooter"}, {"is_disabled": 0, "lat": 38.8852005, "bike_id": "0141b875b548a86599bc8487a1a62270", "is_reserved": 0, "rental_uris": {"ios": "https://dc.lft.to/lastmile_qr_scan", "android": "https://dc.lft.to/lastmile_qr_scan"}, "name": "0141b875b548a86599bc8487a1a62270", "fusion_lon": 0.0, "fusion_lat": 0.0, "lon": -76.97711483333333, "type": "electric_scooter"}, {"is_disabled": 0, "lat": 38.8991465, "bike_id": "45d2ba4be24c13ed233e63bb77e09388", "is_reserved": 0, "rental_uris": {"ios": "https://dc.lft.to/lastmile_qr_scan", "android": "https://dc.lft.to/lastmile_qr_scan"}, "name": "45d2ba4be24c13ed233e63bb77e09388", "fusion_lon": 0.0, "fusion_lat": 0.0, "lon": -77.03293866666667, "type": "electric_scooter"}, {"is_disabled": 0, "lat": 38.90851883333333, "bike_id": "19c1113438939386864013931c273084", "is_reserved": 0, "rental_uris": {"ios": "https://dc.lft.to/lastmile_qr_scan", "android": "https://dc.lft.to/lastmile_qr_scan"}, "name": "19c1113438939386864013931c273084", "fusion_lon": 0.0, "fusion_lat": 0.0, "lon": -76.99963966666667, "type": "electric_scooter"}, {"is_disabled": 0, "lat": 38.881312333333334, "bike_id": "a049e0b07ce979d18d428d1f4e67443e", "is_reserved": 0, "rental_uris": {"ios": "https://dc.lft.to/lastmile_qr_scan", "android": "https://dc.lft.to/lastmile_qr_scan"}, "name": "a049e0b07ce979d18d428d1f4e67443e", "fusion_lon": 0.0, "fusion_lat": 0.0, "lon": -77.027112, "type": "electric_scooter"}, {"is_disabled": 0, "lat": 38.975842166666666, "bike_id": "f2415fde41e24e6eb396ec582f1b8026", "is_reserved": 0, "rental_uris": {"ios": "https://dc.lft.to/lastmile_qr_scan", "android": "https://dc.lft.to/lastmile_qr_scan"}, "name": "f2415fde41e24e6eb396ec582f1b8026", "fusion_lon": 0.0, "fusion_lat": 0.0, "lon": -77.018696, "type": "electric_scooter"}, {"is_disabled": 0, "lat": 38.895332333333336, "bike_id": "7a8d2a417fb240c225fab55ebb10286e", "is_reserved": 0, "rental_uris": {"ios": "https://dc.lft.to/lastmile_qr_scan", "android": "https://dc.lft.to/lastmile_qr_scan"}, "name": "7a8d2a417fb240c225fab55ebb10286e", "fusion_lon": 0.0, "fusion_lat": 0.0, "lon": -76.98378133333334, "type": "electric_scooter"}, {"is_disabled": 0, "lat": 38.891719, "bike_id": "6a9c29be311271d490d6b6ae6334f13d", "is_reserved": 0, "rental_uris": {"ios": "https://dc.lft.to/lastmile_qr_scan", "android": "https://dc.lft.to/lastmile_qr_scan"}, "name": "6a9c29be311271d490d6b6ae6334f13d", "fusion_lon": 0.0, "fusion_lat": 0.0, "lon": -77.01554316666666, "type": "electric_scooter"}, {"is_disabled": 0, "lat": 38.813312333333336, "bike_id": "de84921cc5bdf9a13eeafc9cce9d92fa", "is_reserved": 0, "rental_uris": {"ios": "https://dc.lft.to/lastmile_qr_scan", "android": "https://dc.lft.to/lastmile_qr_scan"}, "name": "de84921cc5bdf9a13eeafc9cce9d92fa", "fusion_lon": 0.0, "fusion_lat": 0.0, "lon": -77.05098416666667, "type": "electric_bike"}, {"is_disabled": 0, "lat": 38.88703233333333, "bike_id": "2c0d067012fdab3e0f1b1976e14be278", "is_reserved": 0, "rental_uris": {"ios": "https://dc.lft.to/lastmile_qr_scan", "android": "https://dc.lft.to/lastmile_qr_scan"}, "name": "2c0d067012fdab3e0f1b1976e14be278", "fusion_lon": 0.0, "fusion_lat": 0.0, "lon": -77.01368266666667, "type": "electric_scooter"}, {"is_disabled": 0, "lat": 38.99405016666667, "bike_id": "b8be6538a9a32526ef2e9f20d0916bc4", "is_reserved": 0, "rental_uris": {"ios": "https://dc.lft.to/lastmile_qr_scan", "android": "https://dc.lft.to/lastmile_qr_scan"}, "name": "b8be6538a9a32526ef2e9f20d0916bc4", "fusion_lon": 0.0, "fusion_lat": 0.0, "lon": -77.0231935, "type": "electric_bike"}, {"is_disabled": 0, "lat": 38.9142235, "bike_id": "de15a1b697bde7bdcb06959e768ce2a8", "is_reserved": 0, "rental_uris": {"ios": "https://dc.lft.to/lastmile_qr_scan", "android": "https://dc.lft.to/lastmile_qr_scan"}, "name": "de15a1b697bde7bdcb06959e768ce2a8", "fusion_lon": 0.0, "fusion_lat": 0.0, "lon": -77.03175533333334, "type": "electric_scooter"}, {"is_disabled": 0, "lat": 38.90344566666667, "bike_id": "a57dad846d0608d626fca1f6e6786572", "is_reserved": 0, "rental_uris": {"ios": "https://dc.lft.to/lastmile_qr_scan", "android": "https://dc.lft.to/lastmile_qr_scan"}, "name": "a57dad846d0608d626fca1f6e6786572", "fusion_lon": 0.0, "fusion_lat": 0.0, "lon": -76.9827275, "type": "electric_scooter"}, {"is_disabled": 0, "lat": 38.8428825, "bike_id": "3379646bd5b12dfe6f0f65bd4195e986", "is_reserved": 0, "rental_uris": {"ios": "https://dc.lft.to/lastmile_qr_scan", "android": "https://dc.lft.to/lastmile_qr_scan"}, "name": "3379646bd5b12dfe6f0f65bd4195e986", "fusion_lon": 0.0, "fusion_lat": 0.0, "lon": -77.063833, "type": "electric_bike"}, {"is_disabled": 0, "lat": 38.878914333333334, "bike_id": "8b509f1e8b47188515c211a602e3347b", "is_reserved": 0, "rental_uris": {"ios": "https://dc.lft.to/lastmile_qr_scan", "android": "https://dc.lft.to/lastmile_qr_scan"}, "name": "8b509f1e8b47188515c211a602e3347b", "fusion_lon": 0.0, "fusion_lat": 0.0, "lon": -76.935295, "type": "electric_scooter"}, {"is_disabled": 0, "lat": 38.89492633333333, "bike_id": "ca5fa7c1c03c3746a4e1bd27ca8908a1", "is_reserved": 0, "rental_uris": {"ios": "https://dc.lft.to/lastmile_qr_scan", "android": "https://dc.lft.to/lastmile_qr_scan"}, "name": "ca5fa7c1c03c3746a4e1bd27ca8908a1", "fusion_lon": 0.0, "fusion_lat": 0.0, "lon": -77.02836816666667, "type": "electric_scooter"}, {"is_disabled": 0, "lat": 38.85811283333334, "bike_id": "e83feb3d35a34974326cb66e13053a7b", "is_reserved": 0, "rental_uris": {"ios": "https://dc.lft.to/lastmile_qr_scan", "android": "https://dc.lft.to/lastmile_qr_scan"}, "name": "e83feb3d35a34974326cb66e13053a7b", "fusion_lon": 0.0, "fusion_lat": 0.0, "lon": -76.989111, "type": "electric_scooter"}, {"is_disabled": 0, "lat": 38.9292845, "bike_id": "46e7b743e16ba22945eb7785e7c8885e", "is_reserved": 0, "rental_uris": {"ios": "https://dc.lft.to/lastmile_qr_scan", "android": "https://dc.lft.to/lastmile_qr_scan"}, "name": "46e7b743e16ba22945eb7785e7c8885e", "fusion_lon": 0.0, "fusion_lat": 0.0, "lon": -77.03248583333334, "type": "electric_scooter"}, {"is_disabled": 0, "lat": 38.9497585, "bike_id": "1b43b28626ae751371fe0602d2afe050", "is_reserved": 0, "rental_uris": {"ios": "https://dc.lft.to/lastmile_qr_scan", "android": "https://dc.lft.to/lastmile_qr_scan"}, "name": "1b43b28626ae751371fe0602d2afe050", "fusion_lon": 0.0, "fusion_lat": 0.0, "lon": -77.02437216666667, "type": "electric_scooter"}, {"is_disabled": 0, "lat": 38.917804833333335, "bike_id": "3245cc83b3c3df83935a382050840358", "is_reserved": 0, "rental_uris": {"ios": "https://dc.lft.to/lastmile_qr_scan", "android": "https://dc.lft.to/lastmile_qr_scan"}, "name": "3245cc83b3c3df83935a382050840358", "fusion_lon": 0.0, "fusion_lat": 0.0, "lon": -77.02295166666667, "type": "electric_scooter"}, {"is_disabled": 0, "lat": 38.91963466666667, "bike_id": "c38bc5f3ad67e552d290c7718082ce8f", "is_reserved": 0, "rental_uris": {"ios": "https://dc.lft.to/lastmile_qr_scan", "android": "https://dc.lft.to/lastmile_qr_scan"}, "name": "c38bc5f3ad67e552d290c7718082ce8f", "fusion_lon": 0.0, "fusion_lat": 0.0, "lon": -77.01898716666666, "type": "electric_scooter"}, {"is_disabled": 0, "lat": 38.92218866666666, "bike_id": "b66932d3f74086a83a3b652e3b7c563e", "is_reserved": 0, "rental_uris": {"ios": "https://dc.lft.to/lastmile_qr_scan", "android": "https://dc.lft.to/lastmile_qr_scan"}, "name": "b66932d3f74086a83a3b652e3b7c563e", "fusion_lon": 0.0, "fusion_lat": 0.0, "lon": -77.03898883333333, "type": "electric_scooter"}, {"is_disabled": 0, "lat": 38.9070505, "bike_id": "70419d4605af77124d20baea4a8aa01f", "is_reserved": 0, "rental_uris": {"ios": "https://dc.lft.to/lastmile_qr_scan", "android": "https://dc.lft.to/lastmile_qr_scan"}, "name": "70419d4605af77124d20baea4a8aa01f", "fusion_lon": 0.0, "fusion_lat": 0.0, "lon": -77.00570466666667, "type": "electric_scooter"}, {"is_disabled": 0, "lat": 38.864945166666665, "bike_id": "e856b0675aea5fdd08a8d455007a5a0b", "is_reserved": 0, "rental_uris": {"ios": "https://dc.lft.to/lastmile_qr_scan", "android": "https://dc.lft.to/lastmile_qr_scan"}, "name": "e856b0675aea5fdd08a8d455007a5a0b", "fusion_lon": 0.0, "fusion_lat": 0.0, "lon": -76.96987616666667, "type": "electric_bike"}, {"is_disabled": 0, "lat": 38.92339583333333, "bike_id": "c23bc9a5b622fb30128fb8903828dc34", "is_reserved": 0, "rental_uris": {"ios": "https://dc.lft.to/lastmile_qr_scan", "android": "https://dc.lft.to/lastmile_qr_scan"}, "name": "c23bc9a5b622fb30128fb8903828dc34", "fusion_lon": 0.0, "fusion_lat": 0.0, "lon": -77.035233, "type": "electric_scooter"}, {"is_disabled": 0, "lat": 38.935201, "bike_id": "65e7e1bb864cab69555822b53aef3392", "is_reserved": 0, "rental_uris": {"ios": "https://dc.lft.to/lastmile_qr_scan", "android": "https://dc.lft.to/lastmile_qr_scan"}, "name": "65e7e1bb864cab69555822b53aef3392", "fusion_lon": 0.0, "fusion_lat": 0.0, "lon": -77.0729555, "type": "electric_scooter"}, {"is_disabled": 0, "lat": 38.911278833333334, "bike_id": "dace664fedce8ae800f4b0fa7fc4975a", "is_reserved": 0, "rental_uris": {"ios": "https://dc.lft.to/lastmile_qr_scan", "android": "https://dc.lft.to/lastmile_qr_scan"}, "name": "dace664fedce8ae800f4b0fa7fc4975a", "fusion_lon": 0.0, "fusion_lat": 0.0, "lon": -77.02200933333333, "type": "electric_scooter"}, {"is_disabled": 0, "lat": 38.910149833333335, "bike_id": "387335e2001d028f90b40096752e1fde", "is_reserved": 0, "rental_uris": {"ios": "https://dc.lft.to/lastmile_qr_scan", "android": "https://dc.lft.to/lastmile_qr_scan"}, "name": "387335e2001d028f90b40096752e1fde", "fusion_lon": 0.0, "fusion_lat": 0.0, "lon": -77.0445715, "type": "electric_scooter"}, {"is_disabled": 0, "lat": 38.88766616666667, "bike_id": "e51a94deff3f3defbc41317e383647b0", "is_reserved": 0, "rental_uris": {"ios": "https://dc.lft.to/lastmile_qr_scan", "android": "https://dc.lft.to/lastmile_qr_scan"}, "name": "e51a94deff3f3defbc41317e383647b0", "fusion_lon": 0.0, "fusion_lat": 0.0, "lon": -77.01462816666667, "type": "electric_scooter"}, {"is_disabled": 0, "lat": 38.874628, "bike_id": "9ccdb2f667d30fb606dcf4f7f82fb255", "is_reserved": 0, "rental_uris": {"ios": "https://dc.lft.to/lastmile_qr_scan", "android": "https://dc.lft.to/lastmile_qr_scan"}, "name": "9ccdb2f667d30fb606dcf4f7f82fb255", "fusion_lon": 0.0, "fusion_lat": 0.0, "lon": -77.00409083333334, "type": "electric_scooter"}, {"is_disabled": 0, "lat": 38.9208705, "bike_id": "43b845aac90970d40898aaf1efe9a6af", "is_reserved": 0, "rental_uris": {"ios": "https://dc.lft.to/lastmile_qr_scan", "android": "https://dc.lft.to/lastmile_qr_scan"}, "name": "43b845aac90970d40898aaf1efe9a6af", "fusion_lon": 0.0, "fusion_lat": 0.0, "lon": -77.041207, "type": "electric_scooter"}, {"is_disabled": 0, "lat": 38.859366, "bike_id": "c322c45b3ea1c9da5fff65420f10884e", "is_reserved": 0, "rental_uris": {"ios": "https://dc.lft.to/lastmile_qr_scan", "android": "https://dc.lft.to/lastmile_qr_scan"}, "name": "c322c45b3ea1c9da5fff65420f10884e", "fusion_lon": 0.0, "fusion_lat": 0.0, "lon": -76.98685133333333, "type": "electric_scooter"}, {"is_disabled": 0, "lat": 38.903811166666664, "bike_id": "f12a59c4259c04f8c35a9b27b0e6122f", "is_reserved": 0, "rental_uris": {"ios": "https://dc.lft.to/lastmile_qr_scan", "android": "https://dc.lft.to/lastmile_qr_scan"}, "name": "f12a59c4259c04f8c35a9b27b0e6122f", "fusion_lon": 0.0, "fusion_lat": 0.0, "lon": -77.044861, "type": "electric_scooter"}, {"is_disabled": 0, "lat": 38.9184045, "bike_id": "ae772609601f2aefdd7185ce7781c682", "is_reserved": 0, "rental_uris": {"ios": "https://dc.lft.to/lastmile_qr_scan", "android": "https://dc.lft.to/lastmile_qr_scan"}, "name": "ae772609601f2aefdd7185ce7781c682", "fusion_lon": 0.0, "fusion_lat": 0.0, "lon": -77.03913516666667, "type": "electric_scooter"}, {"is_disabled": 0, "lat": 38.918063, "bike_id": "e95b5ef7c7b69f71102be1579a51c4a2", "is_reserved": 0, "rental_uris": {"ios": "https://dc.lft.to/lastmile_qr_scan", "android": "https://dc.lft.to/lastmile_qr_scan"}, "name": "e95b5ef7c7b69f71102be1579a51c4a2", "fusion_lon": 0.0, "fusion_lat": 0.0, "lon": -77.03720333333334, "type": "electric_scooter"}, {"is_disabled": 0, "lat": 38.8968605, "bike_id": "409f44b7c0c8c8089e0bc8e0e451cb26", "is_reserved": 0, "rental_uris": {"ios": "https://dc.lft.to/lastmile_qr_scan", "android": "https://dc.lft.to/lastmile_qr_scan"}, "name": "409f44b7c0c8c8089e0bc8e0e451cb26", "fusion_lon": 0.0, "fusion_lat": 0.0, "lon": -76.9390545, "type": "electric_scooter"}, {"is_disabled": 0, "lat": 38.9197455, "bike_id": "8f6b32145ce1ceedf8b14709d12ad95a", "is_reserved": 0, "rental_uris": {"ios": "https://dc.lft.to/lastmile_qr_scan", "android": "https://dc.lft.to/lastmile_qr_scan"}, "name": "8f6b32145ce1ceedf8b14709d12ad95a", "fusion_lon": 0.0, "fusion_lat": 0.0, "lon": -77.0417535, "type": "electric_scooter"}, {"is_disabled": 0, "lat": 38.885029833333334, "bike_id": "d2574fe5185231054c75e8e8ae608fae", "is_reserved": 0, "rental_uris": {"ios": "https://dc.lft.to/lastmile_qr_scan", "android": "https://dc.lft.to/lastmile_qr_scan"}, "name": "d2574fe5185231054c75e8e8ae608fae", "fusion_lon": 0.0, "fusion_lat": 0.0, "lon": -77.00563816666667, "type": "electric_scooter"}, {"is_disabled": 0, "lat": 38.9545155, "bike_id": "797477f4a8bb3ac22bda572cc99bf833", "is_reserved": 0, "rental_uris": {"ios": "https://dc.lft.to/lastmile_qr_scan", "android": "https://dc.lft.to/lastmile_qr_scan"}, "name": "797477f4a8bb3ac22bda572cc99bf833", "fusion_lon": 0.0, "fusion_lat": 0.0, "lon": -76.98779133333333, "type": "electric_bike"}, {"is_disabled": 0, "lat": 38.89364483333333, "bike_id": "9c398086c130a8186d7016fb727c95e2", "is_reserved": 0, "rental_uris": {"ios": "https://dc.lft.to/lastmile_qr_scan", "android": "https://dc.lft.to/lastmile_qr_scan"}, "name": "9c398086c130a8186d7016fb727c95e2", "fusion_lon": 0.0, "fusion_lat": 0.0, "lon": -77.04675966666667, "type": "electric_scooter"}, {"is_disabled": 0, "lat": 38.93274366666667, "bike_id": "538060e6281823760815c7ca3e202185", "is_reserved": 0, "rental_uris": {"ios": "https://dc.lft.to/lastmile_qr_scan", "android": "https://dc.lft.to/lastmile_qr_scan"}, "name": "538060e6281823760815c7ca3e202185", "fusion_lon": 0.0, "fusion_lat": 0.0, "lon": -77.03494216666667, "type": "electric_scooter"}, {"is_disabled": 0, "lat": 38.9247165, "bike_id": "6667ee2b43bca3924c0b635181882241", "is_reserved": 0, "rental_uris": {"ios": "https://dc.lft.to/lastmile_qr_scan", "android": "https://dc.lft.to/lastmile_qr_scan"}, "name": "6667ee2b43bca3924c0b635181882241", "fusion_lon": 0.0, "fusion_lat": 0.0, "lon": -77.02198466666667, "type": "electric_scooter"}, {"is_disabled": 0, "lat": 38.90248833333333, "bike_id": "7d98e57f12dedeced1c9425c00b822da", "is_reserved": 0, "rental_uris": {"ios": "https://dc.lft.to/lastmile_qr_scan", "android": "https://dc.lft.to/lastmile_qr_scan"}, "name": "7d98e57f12dedeced1c9425c00b822da", "fusion_lon": 0.0, "fusion_lat": 0.0, "lon": -77.02645933333334, "type": "electric_scooter"}, {"is_disabled": 0, "lat": 38.916872833333336, "bike_id": "ec73e1f1e0af22dc24e0ab661d2a8489", "is_reserved": 0, "rental_uris": {"ios": "https://dc.lft.to/lastmile_qr_scan", "android": "https://dc.lft.to/lastmile_qr_scan"}, "name": "ec73e1f1e0af22dc24e0ab661d2a8489", "fusion_lon": 0.0, "fusion_lat": 0.0, "lon": -77.02517916666666, "type": "electric_scooter"}, {"is_disabled": 0, "lat": 38.911291, "bike_id": "bc45344ef25d4d4a225002d3dce78d97", "is_reserved": 0, "rental_uris": {"ios": "https://dc.lft.to/lastmile_qr_scan", "android": "https://dc.lft.to/lastmile_qr_scan"}, "name": "bc45344ef25d4d4a225002d3dce78d97", "fusion_lon": 0.0, "fusion_lat": 0.0, "lon": -77.02199866666666, "type": "electric_scooter"}, {"is_disabled": 0, "lat": 38.896193333333336, "bike_id": "17d11ebbb2d7eb6dfcd906c239adcde2", "is_reserved": 0, "rental_uris": {"ios": "https://dc.lft.to/lastmile_qr_scan", "android": "https://dc.lft.to/lastmile_qr_scan"}, "name": "17d11ebbb2d7eb6dfcd906c239adcde2", "fusion_lon": 0.0, "fusion_lat": 0.0, "lon": -77.0220845, "type": "electric_scooter"}, {"is_disabled": 0, "lat": 38.89509616666667, "bike_id": "2f935092181fb9063a166b07244445f8", "is_reserved": 0, "rental_uris": {"ios": "https://dc.lft.to/lastmile_qr_scan", "android": "https://dc.lft.to/lastmile_qr_scan"}, "name": "2f935092181fb9063a166b07244445f8", "fusion_lon": 0.0, "fusion_lat": 0.0, "lon": -76.99506566666666, "type": "electric_scooter"}, {"is_disabled": 0, "lat": 38.91583383333333, "bike_id": "12fc20f0a049e8c11fe3ce85d767b4c9", "is_reserved": 0, "rental_uris": {"ios": "https://dc.lft.to/lastmile_qr_scan", "android": "https://dc.lft.to/lastmile_qr_scan"}, "name": "12fc20f0a049e8c11fe3ce85d767b4c9", "fusion_lon": 0.0, "fusion_lat": 0.0, "lon": -77.02003216666667, "type": "electric_scooter"}, {"is_disabled": 0, "lat": 39.01072, "bike_id": "f75289319bf95423c644774d0567c15c", "is_reserved": 0, "rental_uris": {"ios": "https://dc.lft.to/lastmile_qr_scan", "android": "https://dc.lft.to/lastmile_qr_scan"}, "name": "f75289319bf95423c644774d0567c15c", "fusion_lon": 0.0, "fusion_lat": 0.0, "lon": -76.91064666666666, "type": "electric_bike"}, {"is_disabled": 0, "lat": 38.922433166666664, "bike_id": "381ced8ebd7df61b647341022d7b8726", "is_reserved": 0, "rental_uris": {"ios": "https://dc.lft.to/lastmile_qr_scan", "android": "https://dc.lft.to/lastmile_qr_scan"}, "name": "381ced8ebd7df61b647341022d7b8726", "fusion_lon": 0.0, "fusion_lat": 0.0, "lon": -77.0307085, "type": "electric_scooter"}, {"is_disabled": 0, "lat": 38.91429983333333, "bike_id": "54635ae94d8df8363664b7510501eebd", "is_reserved": 0, "rental_uris": {"ios": "https://dc.lft.to/lastmile_qr_scan", "android": "https://dc.lft.to/lastmile_qr_scan"}, "name": "54635ae94d8df8363664b7510501eebd", "fusion_lon": 0.0, "fusion_lat": 0.0, "lon": -77.01710983333334, "type": "electric_bike"}, {"is_disabled": 0, "lat": 38.89941, "bike_id": "d9d98e401ba5d068226a3ac715ad1836", "is_reserved": 0, "rental_uris": {"ios": "https://dc.lft.to/lastmile_qr_scan", "android": "https://dc.lft.to/lastmile_qr_scan"}, "name": "d9d98e401ba5d068226a3ac715ad1836", "fusion_lon": 0.0, "fusion_lat": 0.0, "lon": -77.0240035, "type": "electric_scooter"}, {"is_disabled": 0, "lat": 38.929685166666665, "bike_id": "3a61b3f2cdebabd99471f92dbdf33997", "is_reserved": 0, "rental_uris": {"ios": "https://dc.lft.to/lastmile_qr_scan", "android": "https://dc.lft.to/lastmile_qr_scan"}, "name": "3a61b3f2cdebabd99471f92dbdf33997", "fusion_lon": 0.0, "fusion_lat": 0.0, "lon": -77.01480216666667, "type": "electric_scooter"}, {"is_disabled": 0, "lat": 38.921500333333334, "bike_id": "5cfa9ddd4500eb424d80fb7426972d61", "is_reserved": 0, "rental_uris": {"ios": "https://dc.lft.to/lastmile_qr_scan", "android": "https://dc.lft.to/lastmile_qr_scan"}, "name": "5cfa9ddd4500eb424d80fb7426972d61", "fusion_lon": 0.0, "fusion_lat": 0.0, "lon": -77.03510416666667, "type": "electric_scooter"}, {"is_disabled": 0, "lat": 38.89672016666667, "bike_id": "c5111d052cd74b9c497d635ec09b542b", "is_reserved": 0, "rental_uris": {"ios": "https://dc.lft.to/lastmile_qr_scan", "android": "https://dc.lft.to/lastmile_qr_scan"}, "name": "c5111d052cd74b9c497d635ec09b542b", "fusion_lon": 0.0, "fusion_lat": 0.0, "lon": -77.05128483333333, "type": "electric_scooter"}, {"is_disabled": 0, "lat": 38.89298816666667, "bike_id": "9e71af765c4a48fd1f399e063a029f83", "is_reserved": 0, "rental_uris": {"ios": "https://dc.lft.to/lastmile_qr_scan", "android": "https://dc.lft.to/lastmile_qr_scan"}, "name": "9e71af765c4a48fd1f399e063a029f83", "fusion_lon": 0.0, "fusion_lat": 0.0, "lon": -76.99959683333333, "type": "electric_scooter"}, {"is_disabled": 0, "lat": 38.90127066666667, "bike_id": "a11697adab7e67ab7d0e76e101c070f5", "is_reserved": 0, "rental_uris": {"ios": "https://dc.lft.to/lastmile_qr_scan", "android": "https://dc.lft.to/lastmile_qr_scan"}, "name": "a11697adab7e67ab7d0e76e101c070f5", "fusion_lon": 0.0, "fusion_lat": 0.0, "lon": -77.04352766666666, "type": "electric_scooter"}, {"is_disabled": 0, "lat": 38.938729, "bike_id": "080f55676cd39025a4e7f12c78de48d7", "is_reserved": 0, "rental_uris": {"ios": "https://dc.lft.to/lastmile_qr_scan", "android": "https://dc.lft.to/lastmile_qr_scan"}, "name": "080f55676cd39025a4e7f12c78de48d7", "fusion_lon": 0.0, "fusion_lat": 0.0, "lon": -77.030384, "type": "electric_scooter"}, {"is_disabled": 0, "lat": 38.907090333333336, "bike_id": "4134a93f2590ddcc91e60b999cde91dc", "is_reserved": 0, "rental_uris": {"ios": "https://dc.lft.to/lastmile_qr_scan", "android": "https://dc.lft.to/lastmile_qr_scan"}, "name": "4134a93f2590ddcc91e60b999cde91dc", "fusion_lon": 0.0, "fusion_lat": 0.0, "lon": -77.00580466666666, "type": "electric_scooter"}, {"is_disabled": 0, "lat": 38.89882683333333, "bike_id": "966547df911152aba93c3055b3e894eb", "is_reserved": 0, "rental_uris": {"ios": "https://dc.lft.to/lastmile_qr_scan", "android": "https://dc.lft.to/lastmile_qr_scan"}, "name": "966547df911152aba93c3055b3e894eb", "fusion_lon": 0.0, "fusion_lat": 0.0, "lon": -76.93242933333333, "type": "electric_scooter"}, {"is_disabled": 0, "lat": 38.88320216666666, "bike_id": "65aacde9be05720b406dbfc4ba0a2484", "is_reserved": 0, "rental_uris": {"ios": "https://dc.lft.to/lastmile_qr_scan", "android": "https://dc.lft.to/lastmile_qr_scan"}, "name": "65aacde9be05720b406dbfc4ba0a2484", "fusion_lon": 0.0, "fusion_lat": 0.0, "lon": -77.00955983333333, "type": "electric_scooter"}, {"is_disabled": 0, "lat": 38.9004445, "bike_id": "f4cfdb28eca71636798ccf000ba477dd", "is_reserved": 0, "rental_uris": {"ios": "https://dc.lft.to/lastmile_qr_scan", "android": "https://dc.lft.to/lastmile_qr_scan"}, "name": "f4cfdb28eca71636798ccf000ba477dd", "fusion_lon": 0.0, "fusion_lat": 0.0, "lon": -77.03214633333333, "type": "electric_scooter"}, {"is_disabled": 0, "lat": 38.90381466666667, "bike_id": "daea9eb68dc7db657e409696c6ab4aaa", "is_reserved": 0, "rental_uris": {"ios": "https://dc.lft.to/lastmile_qr_scan", "android": "https://dc.lft.to/lastmile_qr_scan"}, "name": "daea9eb68dc7db657e409696c6ab4aaa", "fusion_lon": 0.0, "fusion_lat": 0.0, "lon": -77.04491216666666, "type": "electric_scooter"}, {"is_disabled": 0, "lat": 38.90898816666667, "bike_id": "8197b24f5763ddb62c0a9cf47aab53cf", "is_reserved": 0, "rental_uris": {"ios": "https://dc.lft.to/lastmile_qr_scan", "android": "https://dc.lft.to/lastmile_qr_scan"}, "name": "8197b24f5763ddb62c0a9cf47aab53cf", "fusion_lon": 0.0, "fusion_lat": 0.0, "lon": -77.00458683333333, "type": "electric_scooter"}, {"is_disabled": 0, "lat": 38.898275166666664, "bike_id": "6ee751d71b3673ba032cca6788772d82", "is_reserved": 0, "rental_uris": {"ios": "https://dc.lft.to/lastmile_qr_scan", "android": "https://dc.lft.to/lastmile_qr_scan"}, "name": "6ee751d71b3673ba032cca6788772d82", "fusion_lon": 0.0, "fusion_lat": 0.0, "lon": -76.9260265, "type": "electric_scooter"}, {"is_disabled": 0, "lat": 38.925237833333334, "bike_id": "952badf3f9fd383c17d9dda5b729e413", "is_reserved": 0, "rental_uris": {"ios": "https://dc.lft.to/lastmile_qr_scan", "android": "https://dc.lft.to/lastmile_qr_scan"}, "name": "952badf3f9fd383c17d9dda5b729e413", "fusion_lon": 0.0, "fusion_lat": 0.0, "lon": -77.03845383333334, "type": "electric_scooter"}, {"is_disabled": 0, "lat": 38.94911233333333, "bike_id": "41f658743c38f404545d3ca71c82a9d6", "is_reserved": 0, "rental_uris": {"ios": "https://dc.lft.to/lastmile_qr_scan", "android": "https://dc.lft.to/lastmile_qr_scan"}, "name": "41f658743c38f404545d3ca71c82a9d6", "fusion_lon": 0.0, "fusion_lat": 0.0, "lon": -77.02084083333334, "type": "electric_scooter"}, {"is_disabled": 0, "lat": 38.87524116666667, "bike_id": "a3d07a20d9874750223e285dd930964a", "is_reserved": 0, "rental_uris": {"ios": "https://dc.lft.to/lastmile_qr_scan", "android": "https://dc.lft.to/lastmile_qr_scan"}, "name": "a3d07a20d9874750223e285dd930964a", "fusion_lon": 0.0, "fusion_lat": 0.0, "lon": -77.0123225, "type": "electric_scooter"}, {"is_disabled": 0, "lat": 38.918907833333336, "bike_id": "6d5a6b9aa6487ef511de4db28d85cd52", "is_reserved": 0, "rental_uris": {"ios": "https://dc.lft.to/lastmile_qr_scan", "android": "https://dc.lft.to/lastmile_qr_scan"}, "name": "6d5a6b9aa6487ef511de4db28d85cd52", "fusion_lon": 0.0, "fusion_lat": 0.0, "lon": -77.04176366666667, "type": "electric_scooter"}, {"is_disabled": 0, "lat": 38.90171866666667, "bike_id": "48092697a5bcdd8b711d3e64751877a0", "is_reserved": 0, "rental_uris": {"ios": "https://dc.lft.to/lastmile_qr_scan", "android": "https://dc.lft.to/lastmile_qr_scan"}, "name": "48092697a5bcdd8b711d3e64751877a0", "fusion_lon": 0.0, "fusion_lat": 0.0, "lon": -77.023918, "type": "electric_scooter"}, {"is_disabled": 0, "lat": 38.896011333333334, "bike_id": "7611b9df320d31e96b7bdb51a6ed27f3", "is_reserved": 0, "rental_uris": {"ios": "https://dc.lft.to/lastmile_qr_scan", "android": "https://dc.lft.to/lastmile_qr_scan"}, "name": "7611b9df320d31e96b7bdb51a6ed27f3", "fusion_lon": 0.0, "fusion_lat": 0.0, "lon": -77.02318416666667, "type": "electric_bike"}, {"is_disabled": 0, "lat": 38.877004166666666, "bike_id": "c662c397955c646feb7cd3d2c69c4200", "is_reserved": 0, "rental_uris": {"ios": "https://dc.lft.to/lastmile_qr_scan", "android": "https://dc.lft.to/lastmile_qr_scan"}, "name": "c662c397955c646feb7cd3d2c69c4200", "fusion_lon": 0.0, "fusion_lat": 0.0, "lon": -77.01768683333333, "type": "electric_scooter"}, {"is_disabled": 0, "lat": 38.927040833333336, "bike_id": "4b4bd941c730cc2fef20791bbdba169e", "is_reserved": 0, "rental_uris": {"ios": "https://dc.lft.to/lastmile_qr_scan", "android": "https://dc.lft.to/lastmile_qr_scan"}, "name": "4b4bd941c730cc2fef20791bbdba169e", "fusion_lon": 0.0, "fusion_lat": 0.0, "lon": -76.96079666666667, "type": "electric_scooter"}, {"is_disabled": 0, "lat": 38.918154333333334, "bike_id": "0624c6b088e2716348d764f5230dc327", "is_reserved": 0, "rental_uris": {"ios": "https://dc.lft.to/lastmile_qr_scan", "android": "https://dc.lft.to/lastmile_qr_scan"}, "name": "0624c6b088e2716348d764f5230dc327", "fusion_lon": 0.0, "fusion_lat": 0.0, "lon": -77.02527183333333, "type": "electric_scooter"}, {"is_disabled": 0, "lat": 38.89707716666667, "bike_id": "8bda1848a29f966f5c9222394d6f8c14", "is_reserved": 0, "rental_uris": {"ios": "https://dc.lft.to/lastmile_qr_scan", "android": "https://dc.lft.to/lastmile_qr_scan"}, "name": "8bda1848a29f966f5c9222394d6f8c14", "fusion_lon": 0.0, "fusion_lat": 0.0, "lon": -77.01318116666667, "type": "electric_scooter"}, {"is_disabled": 0, "lat": 38.89224033333333, "bike_id": "5c08fe34fffe663eeadb13f393cbb04f", "is_reserved": 0, "rental_uris": {"ios": "https://dc.lft.to/lastmile_qr_scan", "android": "https://dc.lft.to/lastmile_qr_scan"}, "name": "5c08fe34fffe663eeadb13f393cbb04f", "fusion_lon": 0.0, "fusion_lat": 0.0, "lon": -77.0500785, "type": "electric_scooter"}, {"is_disabled": 0, "lat": 38.84393216666667, "bike_id": "6e18bcc914d7f161d80a0bfb1d950cf4", "is_reserved": 0, "rental_uris": {"ios": "https://dc.lft.to/lastmile_qr_scan", "android": "https://dc.lft.to/lastmile_qr_scan"}, "name": "6e18bcc914d7f161d80a0bfb1d950cf4", "fusion_lon": 0.0, "fusion_lat": 0.0, "lon": -76.99530083333333, "type": "electric_scooter"}, {"is_disabled": 0, "lat": 38.927032833333335, "bike_id": "7d78830ad0e9f3d7bcd6b8fd60a9e1a5", "is_reserved": 0, "rental_uris": {"ios": "https://dc.lft.to/lastmile_qr_scan", "android": "https://dc.lft.to/lastmile_qr_scan"}, "name": "7d78830ad0e9f3d7bcd6b8fd60a9e1a5", "fusion_lon": 0.0, "fusion_lat": 0.0, "lon": -77.038234, "type": "electric_scooter"}, {"is_disabled": 0, "lat": 38.90571683333334, "bike_id": "9343c29f8e8c857b2bf97962bc064a3a", "is_reserved": 0, "rental_uris": {"ios": "https://dc.lft.to/lastmile_qr_scan", "android": "https://dc.lft.to/lastmile_qr_scan"}, "name": "9343c29f8e8c857b2bf97962bc064a3a", "fusion_lon": 0.0, "fusion_lat": 0.0, "lon": -77.043553, "type": "electric_scooter"}, {"is_disabled": 0, "lat": 38.928208833333336, "bike_id": "6116c8a4bb87cf09fd52a20db6c61a81", "is_reserved": 0, "rental_uris": {"ios": "https://dc.lft.to/lastmile_qr_scan", "android": "https://dc.lft.to/lastmile_qr_scan"}, "name": "6116c8a4bb87cf09fd52a20db6c61a81", "fusion_lon": 0.0, "fusion_lat": 0.0, "lon": -77.02259566666666, "type": "electric_scooter"}, {"is_disabled": 0, "lat": 38.842169166666665, "bike_id": "cdc0618e7c87df8e7edf23bb13066b92", "is_reserved": 0, "rental_uris": {"ios": "https://dc.lft.to/lastmile_qr_scan", "android": "https://dc.lft.to/lastmile_qr_scan"}, "name": "cdc0618e7c87df8e7edf23bb13066b92", "fusion_lon": 0.0, "fusion_lat": 0.0, "lon": -76.94898916666666, "type": "electric_bike"}, {"is_disabled": 0, "lat": 38.855567666666666, "bike_id": "6eba0a72e472fd35140e15ca7ca3f668", "is_reserved": 0, "rental_uris": {"ios": "https://dc.lft.to/lastmile_qr_scan", "android": "https://dc.lft.to/lastmile_qr_scan"}, "name": "6eba0a72e472fd35140e15ca7ca3f668", "fusion_lon": 0.0, "fusion_lat": 0.0, "lon": -77.06415266666667, "type": "electric_bike"}, {"is_disabled": 0, "lat": 38.91614766666667, "bike_id": "756f52612f3d202f8ad4dd7f7acd6057", "is_reserved": 0, "rental_uris": {"ios": "https://dc.lft.to/lastmile_qr_scan", "android": "https://dc.lft.to/lastmile_qr_scan"}, "name": "756f52612f3d202f8ad4dd7f7acd6057", "fusion_lon": 0.0, "fusion_lat": 0.0, "lon": -77.04861733333334, "type": "electric_scooter"}, {"is_disabled": 0, "lat": 38.896583166666666, "bike_id": "8de31645144bb340e7a204306bae3380", "is_reserved": 0, "rental_uris": {"ios": "https://dc.lft.to/lastmile_qr_scan", "android": "https://dc.lft.to/lastmile_qr_scan"}, "name": "8de31645144bb340e7a204306bae3380", "fusion_lon": 0.0, "fusion_lat": 0.0, "lon": -77.027214, "type": "electric_scooter"}, {"is_disabled": 0, "lat": 38.9810515, "bike_id": "ba97bdaa9745ff9861a14b0ae1268358", "is_reserved": 0, "rental_uris": {"ios": "https://dc.lft.to/lastmile_qr_scan", "android": "https://dc.lft.to/lastmile_qr_scan"}, "name": "ba97bdaa9745ff9861a14b0ae1268358", "fusion_lon": 0.0, "fusion_lat": 0.0, "lon": -77.00785216666667, "type": "electric_bike"}, {"is_disabled": 0, "lat": 38.922511666666665, "bike_id": "159e138dad8e90cb056ac5dc5016e24a", "is_reserved": 0, "rental_uris": {"ios": "https://dc.lft.to/lastmile_qr_scan", "android": "https://dc.lft.to/lastmile_qr_scan"}, "name": "159e138dad8e90cb056ac5dc5016e24a", "fusion_lon": 0.0, "fusion_lat": 0.0, "lon": -77.03657483333333, "type": "electric_scooter"}, {"is_disabled": 0, "lat": 38.89475133333333, "bike_id": "eda016c5e806ce69172b56e6522921b0", "is_reserved": 0, "rental_uris": {"ios": "https://dc.lft.to/lastmile_qr_scan", "android": "https://dc.lft.to/lastmile_qr_scan"}, "name": "eda016c5e806ce69172b56e6522921b0", "fusion_lon": 0.0, "fusion_lat": 0.0, "lon": -77.041842, "type": "electric_scooter"}, {"is_disabled": 0, "lat": 38.92333466666667, "bike_id": "bbbc0ebb2469954f1ca5dcb4ec6f8221", "is_reserved": 0, "rental_uris": {"ios": "https://dc.lft.to/lastmile_qr_scan", "android": "https://dc.lft.to/lastmile_qr_scan"}, "name": "bbbc0ebb2469954f1ca5dcb4ec6f8221", "fusion_lon": 0.0, "fusion_lat": 0.0, "lon": -77.05681833333334, "type": "electric_scooter"}, {"is_disabled": 0, "lat": 38.9443615, "bike_id": "33018cfb41aaaa5562e62f295391418d", "is_reserved": 0, "rental_uris": {"ios": "https://dc.lft.to/lastmile_qr_scan", "android": "https://dc.lft.to/lastmile_qr_scan"}, "name": "33018cfb41aaaa5562e62f295391418d", "fusion_lon": 0.0, "fusion_lat": 0.0, "lon": -77.0635145, "type": "electric_scooter"}, {"is_disabled": 0, "lat": 38.983617333333335, "bike_id": "7f5c330c296f3b8d1186c5a7c86a4c20", "is_reserved": 0, "rental_uris": {"ios": "https://dc.lft.to/lastmile_qr_scan", "android": "https://dc.lft.to/lastmile_qr_scan"}, "name": "7f5c330c296f3b8d1186c5a7c86a4c20", "fusion_lon": 0.0, "fusion_lat": 0.0, "lon": -76.988487, "type": "electric_bike"}, {"is_disabled": 0, "lat": 38.9190615, "bike_id": "7ba469edadddc109849e4c21b935ba9e", "is_reserved": 0, "rental_uris": {"ios": "https://dc.lft.to/lastmile_qr_scan", "android": "https://dc.lft.to/lastmile_qr_scan"}, "name": "7ba469edadddc109849e4c21b935ba9e", "fusion_lon": 0.0, "fusion_lat": 0.0, "lon": -77.10181716666666, "type": "electric_bike"}, {"is_disabled": 0, "lat": 38.9088745, "bike_id": "ad7d539e964f5b58e8617ec741c39938", "is_reserved": 0, "rental_uris": {"ios": "https://dc.lft.to/lastmile_qr_scan", "android": "https://dc.lft.to/lastmile_qr_scan"}, "name": "ad7d539e964f5b58e8617ec741c39938", "fusion_lon": 0.0, "fusion_lat": 0.0, "lon": -76.99789066666666, "type": "electric_scooter"}, {"is_disabled": 0, "lat": 38.905094166666665, "bike_id": "4795556d742eaacd0a6ff727519f1c00", "is_reserved": 0, "rental_uris": {"ios": "https://dc.lft.to/lastmile_qr_scan", "android": "https://dc.lft.to/lastmile_qr_scan"}, "name": "4795556d742eaacd0a6ff727519f1c00", "fusion_lon": 0.0, "fusion_lat": 0.0, "lon": -77.07015683333333, "type": "electric_scooter"}, {"is_disabled": 0, "lat": 38.9052375, "bike_id": "47da67ac2140a12547c5c90b512f6292", "is_reserved": 0, "rental_uris": {"ios": "https://dc.lft.to/lastmile_qr_scan", "android": "https://dc.lft.to/lastmile_qr_scan"}, "name": "47da67ac2140a12547c5c90b512f6292", "fusion_lon": 0.0, "fusion_lat": 0.0, "lon": -77.04187466666667, "type": "electric_scooter"}, {"is_disabled": 0, "lat": 38.90029066666666, "bike_id": "e6c15d25d517410cd04d3ebe1035a472", "is_reserved": 0, "rental_uris": {"ios": "https://dc.lft.to/lastmile_qr_scan", "android": "https://dc.lft.to/lastmile_qr_scan"}, "name": "e6c15d25d517410cd04d3ebe1035a472", "fusion_lon": 0.0, "fusion_lat": 0.0, "lon": -76.99846066666667, "type": "electric_scooter"}, {"is_disabled": 0, "lat": 38.928638166666666, "bike_id": "196f0862a64e3e4f6fa0dc9f69e79e7c", "is_reserved": 0, "rental_uris": {"ios": "https://dc.lft.to/lastmile_qr_scan", "android": "https://dc.lft.to/lastmile_qr_scan"}, "name": "196f0862a64e3e4f6fa0dc9f69e79e7c", "fusion_lon": 0.0, "fusion_lat": 0.0, "lon": -77.03443266666666, "type": "electric_scooter"}, {"is_disabled": 0, "lat": 38.93603516666667, "bike_id": "2c872a82ebaaa8c1d0a7644fecbbd242", "is_reserved": 0, "rental_uris": {"ios": "https://dc.lft.to/lastmile_qr_scan", "android": "https://dc.lft.to/lastmile_qr_scan"}, "name": "2c872a82ebaaa8c1d0a7644fecbbd242", "fusion_lon": 0.0, "fusion_lat": 0.0, "lon": -77.03884916666667, "type": "electric_scooter"}, {"is_disabled": 0, "lat": 38.906371, "bike_id": "10402649ebaf32d6eaa9816077ef1c28", "is_reserved": 0, "rental_uris": {"ios": "https://dc.lft.to/lastmile_qr_scan", "android": "https://dc.lft.to/lastmile_qr_scan"}, "name": "10402649ebaf32d6eaa9816077ef1c28", "fusion_lon": 0.0, "fusion_lat": 0.0, "lon": -77.02462816666667, "type": "electric_scooter"}, {"is_disabled": 0, "lat": 38.9325365, "bike_id": "4f62b2bc907d7593f5b3a316a11f25a4", "is_reserved": 0, "rental_uris": {"ios": "https://dc.lft.to/lastmile_qr_scan", "android": "https://dc.lft.to/lastmile_qr_scan"}, "name": "4f62b2bc907d7593f5b3a316a11f25a4", "fusion_lon": 0.0, "fusion_lat": 0.0, "lon": -77.03283116666667, "type": "electric_scooter"}, {"is_disabled": 0, "lat": 38.884017166666666, "bike_id": "1f0bd942d5c4a969d078993a4187e71f", "is_reserved": 0, "rental_uris": {"ios": "https://dc.lft.to/lastmile_qr_scan", "android": "https://dc.lft.to/lastmile_qr_scan"}, "name": "1f0bd942d5c4a969d078993a4187e71f", "fusion_lon": 0.0, "fusion_lat": 0.0, "lon": -77.01764616666667, "type": "electric_scooter"}, {"is_disabled": 0, "lat": 38.83584616666667, "bike_id": "f07814d8732b450c2dd1de201ba3de61", "is_reserved": 0, "rental_uris": {"ios": "https://dc.lft.to/lastmile_qr_scan", "android": "https://dc.lft.to/lastmile_qr_scan"}, "name": "f07814d8732b450c2dd1de201ba3de61", "fusion_lon": 0.0, "fusion_lat": 0.0, "lon": -76.99025783333333, "type": "electric_bike"}, {"is_disabled": 0, "lat": 38.891748, "bike_id": "fe97cd2c90ff58afe06caeccaaf94016", "is_reserved": 0, "rental_uris": {"ios": "https://dc.lft.to/lastmile_qr_scan", "android": "https://dc.lft.to/lastmile_qr_scan"}, "name": "fe97cd2c90ff58afe06caeccaaf94016", "fusion_lon": 0.0, "fusion_lat": 0.0, "lon": -77.01570316666667, "type": "electric_scooter"}, {"is_disabled": 0, "lat": 38.907771, "bike_id": "84f34bd1116caacab1065ad2edac7b7d", "is_reserved": 0, "rental_uris": {"ios": "https://dc.lft.to/lastmile_qr_scan", "android": "https://dc.lft.to/lastmile_qr_scan"}, "name": "84f34bd1116caacab1065ad2edac7b7d", "fusion_lon": 0.0, "fusion_lat": 0.0, "lon": -77.046693, "type": "electric_scooter"}, {"is_disabled": 0, "lat": 38.898361666666666, "bike_id": "da76bdb6ab1bf0f088daad79f7a0c716", "is_reserved": 0, "rental_uris": {"ios": "https://dc.lft.to/lastmile_qr_scan", "android": "https://dc.lft.to/lastmile_qr_scan"}, "name": "da76bdb6ab1bf0f088daad79f7a0c716", "fusion_lon": 0.0, "fusion_lat": 0.0, "lon": -77.02796583333334, "type": "electric_scooter"}, {"is_disabled": 0, "lat": 38.9019275, "bike_id": "58434c5b50c7b2b26b50bfedb1d794d4", "is_reserved": 0, "rental_uris": {"ios": "https://dc.lft.to/lastmile_qr_scan", "android": "https://dc.lft.to/lastmile_qr_scan"}, "name": "58434c5b50c7b2b26b50bfedb1d794d4", "fusion_lon": 0.0, "fusion_lat": 0.0, "lon": -77.02197833333334, "type": "electric_scooter"}, {"is_disabled": 0, "lat": 38.880364166666666, "bike_id": "cfb8462471b57aaa4a0504157b28e0d3", "is_reserved": 0, "rental_uris": {"ios": "https://dc.lft.to/lastmile_qr_scan", "android": "https://dc.lft.to/lastmile_qr_scan"}, "name": "cfb8462471b57aaa4a0504157b28e0d3", "fusion_lon": 0.0, "fusion_lat": 0.0, "lon": -76.92724216666667, "type": "electric_scooter"}, {"is_disabled": 0, "lat": 38.91636233333333, "bike_id": "275c49e55e8185fc45b5ecd83dcd600c", "is_reserved": 0, "rental_uris": {"ios": "https://dc.lft.to/lastmile_qr_scan", "android": "https://dc.lft.to/lastmile_qr_scan"}, "name": "275c49e55e8185fc45b5ecd83dcd600c", "fusion_lon": 0.0, "fusion_lat": 0.0, "lon": -77.03960516666666, "type": "electric_scooter"}, {"is_disabled": 0, "lat": 38.97151816666667, "bike_id": "470b0cc91aed10953bd1910b89ab4fca", "is_reserved": 0, "rental_uris": {"ios": "https://dc.lft.to/lastmile_qr_scan", "android": "https://dc.lft.to/lastmile_qr_scan"}, "name": "470b0cc91aed10953bd1910b89ab4fca", "fusion_lon": 0.0, "fusion_lat": 0.0, "lon": -76.98363433333333, "type": "electric_bike"}, {"is_disabled": 0, "lat": 38.90793433333333, "bike_id": "264a34eac6c9e702cf44410b5f2bced4", "is_reserved": 0, "rental_uris": {"ios": "https://dc.lft.to/lastmile_qr_scan", "android": "https://dc.lft.to/lastmile_qr_scan"}, "name": "264a34eac6c9e702cf44410b5f2bced4", "fusion_lon": 0.0, "fusion_lat": 0.0, "lon": -77.04247683333334, "type": "electric_scooter"}, {"is_disabled": 0, "lat": 38.88648933333333, "bike_id": "b1df2b1fc2314ab8066b2f5c12975995", "is_reserved": 0, "rental_uris": {"ios": "https://dc.lft.to/lastmile_qr_scan", "android": "https://dc.lft.to/lastmile_qr_scan"}, "name": "b1df2b1fc2314ab8066b2f5c12975995", "fusion_lon": 0.0, "fusion_lat": 0.0, "lon": -77.16227883333333, "type": "electric_bike"}, {"is_disabled": 0, "lat": 38.926462666666666, "bike_id": "00aadc7c4d04c73c436d157d6c65f885", "is_reserved": 0, "rental_uris": {"ios": "https://dc.lft.to/lastmile_qr_scan", "android": "https://dc.lft.to/lastmile_qr_scan"}, "name": "00aadc7c4d04c73c436d157d6c65f885", "fusion_lon": 0.0, "fusion_lat": 0.0, "lon": -77.0383835, "type": "electric_scooter"}, {"is_disabled": 0, "lat": 38.897028666666664, "bike_id": "c9297ed4143e860f70098a0bce486845", "is_reserved": 0, "rental_uris": {"ios": "https://dc.lft.to/lastmile_qr_scan", "android": "https://dc.lft.to/lastmile_qr_scan"}, "name": "c9297ed4143e860f70098a0bce486845", "fusion_lon": 0.0, "fusion_lat": 0.0, "lon": -76.939108, "type": "electric_scooter"}, {"is_disabled": 0, "lat": 38.949761, "bike_id": "1cea9973c8685562d6304fb89cb55ad7", "is_reserved": 0, "rental_uris": {"ios": "https://dc.lft.to/lastmile_qr_scan", "android": "https://dc.lft.to/lastmile_qr_scan"}, "name": "1cea9973c8685562d6304fb89cb55ad7", "fusion_lon": 0.0, "fusion_lat": 0.0, "lon": -77.02433683333334, "type": "electric_scooter"}, {"is_disabled": 0, "lat": 38.923292333333336, "bike_id": "036dce865d7d991b10037fcb5df45b2e", "is_reserved": 0, "rental_uris": {"ios": "https://dc.lft.to/lastmile_qr_scan", "android": "https://dc.lft.to/lastmile_qr_scan"}, "name": "036dce865d7d991b10037fcb5df45b2e", "fusion_lon": 0.0, "fusion_lat": 0.0, "lon": -77.03668383333333, "type": "electric_scooter"}, {"is_disabled": 0, "lat": 38.917503333333336, "bike_id": "326889c4cc483884c5ced788987419c9", "is_reserved": 0, "rental_uris": {"ios": "https://dc.lft.to/lastmile_qr_scan", "android": "https://dc.lft.to/lastmile_qr_scan"}, "name": "326889c4cc483884c5ced788987419c9", "fusion_lon": 0.0, "fusion_lat": 0.0, "lon": -77.02118716666666, "type": "electric_scooter"}, {"is_disabled": 0, "lat": 38.901262833333334, "bike_id": "b859c077948a6a03c18d144a283ebe7b", "is_reserved": 0, "rental_uris": {"ios": "https://dc.lft.to/lastmile_qr_scan", "android": "https://dc.lft.to/lastmile_qr_scan"}, "name": "b859c077948a6a03c18d144a283ebe7b", "fusion_lon": 0.0, "fusion_lat": 0.0, "lon": -77.05002433333334, "type": "electric_scooter"}, {"is_disabled": 0, "lat": 38.91159783333333, "bike_id": "d5b0d9e41ecc3a2c7624334f1b32d838", "is_reserved": 0, "rental_uris": {"ios": "https://dc.lft.to/lastmile_qr_scan", "android": "https://dc.lft.to/lastmile_qr_scan"}, "name": "d5b0d9e41ecc3a2c7624334f1b32d838", "fusion_lon": 0.0, "fusion_lat": 0.0, "lon": -77.010807, "type": "electric_scooter"}, {"is_disabled": 0, "lat": 38.91793033333333, "bike_id": "f6ef79d2ec71f01c97fe8ea6bd8965b1", "is_reserved": 0, "rental_uris": {"ios": "https://dc.lft.to/lastmile_qr_scan", "android": "https://dc.lft.to/lastmile_qr_scan"}, "name": "f6ef79d2ec71f01c97fe8ea6bd8965b1", "fusion_lon": 0.0, "fusion_lat": 0.0, "lon": -77.02306533333334, "type": "electric_scooter"}, {"is_disabled": 0, "lat": 38.884312666666666, "bike_id": "5c4c0057450a697de3c4b72530660d88", "is_reserved": 0, "rental_uris": {"ios": "https://dc.lft.to/lastmile_qr_scan", "android": "https://dc.lft.to/lastmile_qr_scan"}, "name": "5c4c0057450a697de3c4b72530660d88", "fusion_lon": 0.0, "fusion_lat": 0.0, "lon": -77.0298655, "type": "electric_bike"}, {"is_disabled": 0, "lat": 38.932217666666666, "bike_id": "dfd18bd166ad889c486bad1d2975f7f9", "is_reserved": 0, "rental_uris": {"ios": "https://dc.lft.to/lastmile_qr_scan", "android": "https://dc.lft.to/lastmile_qr_scan"}, "name": "dfd18bd166ad889c486bad1d2975f7f9", "fusion_lon": 0.0, "fusion_lat": 0.0, "lon": -76.9826235, "type": "electric_scooter"}, {"is_disabled": 0, "lat": 38.92270666666667, "bike_id": "1c81394f2873f9a72b90ae4e442599b3", "is_reserved": 0, "rental_uris": {"ios": "https://dc.lft.to/lastmile_qr_scan", "android": "https://dc.lft.to/lastmile_qr_scan"}, "name": "1c81394f2873f9a72b90ae4e442599b3", "fusion_lon": 0.0, "fusion_lat": 0.0, "lon": -77.04236, "type": "electric_scooter"}, {"is_disabled": 0, "lat": 38.902577666666666, "bike_id": "70818149ef36d018476b5ec3448f4e33", "is_reserved": 0, "rental_uris": {"ios": "https://dc.lft.to/lastmile_qr_scan", "android": "https://dc.lft.to/lastmile_qr_scan"}, "name": "70818149ef36d018476b5ec3448f4e33", "fusion_lon": 0.0, "fusion_lat": 0.0, "lon": -77.03982266666667, "type": "electric_scooter"}, {"is_disabled": 0, "lat": 38.929677166666664, "bike_id": "2f7d7e1ac76ea5cec4a7320f8ef27ae6", "is_reserved": 0, "rental_uris": {"ios": "https://dc.lft.to/lastmile_qr_scan", "android": "https://dc.lft.to/lastmile_qr_scan"}, "name": "2f7d7e1ac76ea5cec4a7320f8ef27ae6", "fusion_lon": 0.0, "fusion_lat": 0.0, "lon": -77.0281905, "type": "electric_scooter"}, {"is_disabled": 0, "lat": 38.90515766666667, "bike_id": "3483a67b4b01e7a210f9ddff2c4cf1c4", "is_reserved": 0, "rental_uris": {"ios": "https://dc.lft.to/lastmile_qr_scan", "android": "https://dc.lft.to/lastmile_qr_scan"}, "name": "3483a67b4b01e7a210f9ddff2c4cf1c4", "fusion_lon": 0.0, "fusion_lat": 0.0, "lon": -77.06570916666666, "type": "electric_scooter"}, {"is_disabled": 0, "lat": 38.887451666666664, "bike_id": "28578999d38a5b4f9dea6df4b04a8445", "is_reserved": 0, "rental_uris": {"ios": "https://dc.lft.to/lastmile_qr_scan", "android": "https://dc.lft.to/lastmile_qr_scan"}, "name": "28578999d38a5b4f9dea6df4b04a8445", "fusion_lon": 0.0, "fusion_lat": 0.0, "lon": -77.028445, "type": "electric_scooter"}, {"is_disabled": 0, "lat": 38.9151125, "bike_id": "68861eab76dedc0650a7425b017b93f0", "is_reserved": 0, "rental_uris": {"ios": "https://dc.lft.to/lastmile_qr_scan", "android": "https://dc.lft.to/lastmile_qr_scan"}, "name": "68861eab76dedc0650a7425b017b93f0", "fusion_lon": 0.0, "fusion_lat": 0.0, "lon": -77.01854, "type": "electric_scooter"}, {"is_disabled": 0, "lat": 38.9283265, "bike_id": "2c20f4775000ac36b413a0eddb4ee88a", "is_reserved": 0, "rental_uris": {"ios": "https://dc.lft.to/lastmile_qr_scan", "android": "https://dc.lft.to/lastmile_qr_scan"}, "name": "2c20f4775000ac36b413a0eddb4ee88a", "fusion_lon": 0.0, "fusion_lat": 0.0, "lon": -77.05420733333334, "type": "electric_scooter"}, {"is_disabled": 0, "lat": 38.876569, "bike_id": "f2ee09c62d2f4406d42b131cceee566d", "is_reserved": 0, "rental_uris": {"ios": "https://dc.lft.to/lastmile_qr_scan", "android": "https://dc.lft.to/lastmile_qr_scan"}, "name": "f2ee09c62d2f4406d42b131cceee566d", "fusion_lon": 0.0, "fusion_lat": 0.0, "lon": -77.0080425, "type": "electric_scooter"}, {"is_disabled": 0, "lat": 38.91573066666667, "bike_id": "bbae697a20d1da30373bd335b703cee5", "is_reserved": 0, "rental_uris": {"ios": "https://dc.lft.to/lastmile_qr_scan", "android": "https://dc.lft.to/lastmile_qr_scan"}, "name": "bbae697a20d1da30373bd335b703cee5", "fusion_lon": 0.0, "fusion_lat": 0.0, "lon": -77.04554966666667, "type": "electric_scooter"}, {"is_disabled": 0, "lat": 38.89457983333333, "bike_id": "84e6f2d44586d8129b21bb290d60016d", "is_reserved": 0, "rental_uris": {"ios": "https://dc.lft.to/lastmile_qr_scan", "android": "https://dc.lft.to/lastmile_qr_scan"}, "name": "84e6f2d44586d8129b21bb290d60016d", "fusion_lon": 0.0, "fusion_lat": 0.0, "lon": -77.0221105, "type": "electric_bike"}, {"is_disabled": 0, "lat": 38.90223183333333, "bike_id": "afeae5b22acdb067c220bbc79c4a4782", "is_reserved": 0, "rental_uris": {"ios": "https://dc.lft.to/lastmile_qr_scan", "android": "https://dc.lft.to/lastmile_qr_scan"}, "name": "afeae5b22acdb067c220bbc79c4a4782", "fusion_lon": 0.0, "fusion_lat": 0.0, "lon": -77.0160695, "type": "electric_scooter"}, {"is_disabled": 0, "lat": 38.90521566666666, "bike_id": "20f664469db7401f295032ff23e52959", "is_reserved": 0, "rental_uris": {"ios": "https://dc.lft.to/lastmile_qr_scan", "android": "https://dc.lft.to/lastmile_qr_scan"}, "name": "20f664469db7401f295032ff23e52959", "fusion_lon": 0.0, "fusion_lat": 0.0, "lon": -77.02949766666667, "type": "electric_scooter"}, {"is_disabled": 0, "lat": 38.94277433333333, "bike_id": "a748d2a94023f158888af360be6675fd", "is_reserved": 0, "rental_uris": {"ios": "https://dc.lft.to/lastmile_qr_scan", "android": "https://dc.lft.to/lastmile_qr_scan"}, "name": "a748d2a94023f158888af360be6675fd", "fusion_lon": 0.0, "fusion_lat": 0.0, "lon": -77.02935716666667, "type": "electric_scooter"}, {"is_disabled": 0, "lat": 38.90520016666667, "bike_id": "a93d74583e5b1a9dfc50bf0162ffeded", "is_reserved": 0, "rental_uris": {"ios": "https://dc.lft.to/lastmile_qr_scan", "android": "https://dc.lft.to/lastmile_qr_scan"}, "name": "a93d74583e5b1a9dfc50bf0162ffeded", "fusion_lon": 0.0, "fusion_lat": 0.0, "lon": -77.06280333333333, "type": "electric_bike"}, {"is_disabled": 0, "lat": 38.892207666666664, "bike_id": "3ae9a7f18f622d9787731a1e8d9db14c", "is_reserved": 0, "rental_uris": {"ios": "https://dc.lft.to/lastmile_qr_scan", "android": "https://dc.lft.to/lastmile_qr_scan"}, "name": "3ae9a7f18f622d9787731a1e8d9db14c", "fusion_lon": 0.0, "fusion_lat": 0.0, "lon": -77.03168966666667, "type": "electric_scooter"}, {"is_disabled": 0, "lat": 38.91443, "bike_id": "6bc0fbe33af0f4b25ee9267ab47bc004", "is_reserved": 0, "rental_uris": {"ios": "https://dc.lft.to/lastmile_qr_scan", "android": "https://dc.lft.to/lastmile_qr_scan"}, "name": "6bc0fbe33af0f4b25ee9267ab47bc004", "fusion_lon": 0.0, "fusion_lat": 0.0, "lon": -77.00463016666667, "type": "electric_bike"}, {"is_disabled": 0, "lat": 38.88486866666667, "bike_id": "6462bb9c998fe1bcf458c289680250c6", "is_reserved": 0, "rental_uris": {"ios": "https://dc.lft.to/lastmile_qr_scan", "android": "https://dc.lft.to/lastmile_qr_scan"}, "name": "6462bb9c998fe1bcf458c289680250c6", "fusion_lon": 0.0, "fusion_lat": 0.0, "lon": -77.00710316666667, "type": "electric_scooter"}, {"is_disabled": 0, "lat": 38.89247266666667, "bike_id": "3be0a2ee4a887d8c995cb2db647f6d80", "is_reserved": 0, "rental_uris": {"ios": "https://dc.lft.to/lastmile_qr_scan", "android": "https://dc.lft.to/lastmile_qr_scan"}, "name": "3be0a2ee4a887d8c995cb2db647f6d80", "fusion_lon": 0.0, "fusion_lat": 0.0, "lon": -77.04663516666666, "type": "electric_scooter"}, {"is_disabled": 0, "lat": 38.89220916666667, "bike_id": "af564d94196166b02e7682c4dfd400dd", "is_reserved": 0, "rental_uris": {"ios": "https://dc.lft.to/lastmile_qr_scan", "android": "https://dc.lft.to/lastmile_qr_scan"}, "name": "af564d94196166b02e7682c4dfd400dd", "fusion_lon": 0.0, "fusion_lat": 0.0, "lon": -77.02369616666667, "type": "electric_scooter"}, {"is_disabled": 0, "lat": 38.917468166666666, "bike_id": "53020739a50d6af8f2c6495d0a65c743", "is_reserved": 0, "rental_uris": {"ios": "https://dc.lft.to/lastmile_qr_scan", "android": "https://dc.lft.to/lastmile_qr_scan"}, "name": "53020739a50d6af8f2c6495d0a65c743", "fusion_lon": 0.0, "fusion_lat": 0.0, "lon": -77.04056583333333, "type": "electric_scooter"}, {"is_disabled": 0, "lat": 38.92980933333333, "bike_id": "a9a57f8d06a064bdcb6f73bb15478779", "is_reserved": 0, "rental_uris": {"ios": "https://dc.lft.to/lastmile_qr_scan", "android": "https://dc.lft.to/lastmile_qr_scan"}, "name": "a9a57f8d06a064bdcb6f73bb15478779", "fusion_lon": 0.0, "fusion_lat": 0.0, "lon": -77.014631, "type": "electric_scooter"}, {"is_disabled": 0, "lat": 38.822002833333336, "bike_id": "2277be902457630082f08cbe5ab3f767", "is_reserved": 0, "rental_uris": {"ios": "https://dc.lft.to/lastmile_qr_scan", "android": "https://dc.lft.to/lastmile_qr_scan"}, "name": "2277be902457630082f08cbe5ab3f767", "fusion_lon": 0.0, "fusion_lat": 0.0, "lon": -76.97707683333333, "type": "electric_bike"}, {"is_disabled": 0, "lat": 38.911159166666664, "bike_id": "7a3f71d5bb803e0a897602cf23852d1d", "is_reserved": 0, "rental_uris": {"ios": "https://dc.lft.to/lastmile_qr_scan", "android": "https://dc.lft.to/lastmile_qr_scan"}, "name": "7a3f71d5bb803e0a897602cf23852d1d", "fusion_lon": 0.0, "fusion_lat": 0.0, "lon": -77.03871616666666, "type": "electric_scooter"}, {"is_disabled": 0, "lat": 38.91559133333333, "bike_id": "6203ab66dd226c602529c0b5270800aa", "is_reserved": 0, "rental_uris": {"ios": "https://dc.lft.to/lastmile_qr_scan", "android": "https://dc.lft.to/lastmile_qr_scan"}, "name": "6203ab66dd226c602529c0b5270800aa", "fusion_lon": 0.0, "fusion_lat": 0.0, "lon": -77.00079083333334, "type": "electric_scooter"}, {"is_disabled": 0, "lat": 38.911002333333336, "bike_id": "bdbb3946b0cc5afcc0b8de5bafd9df6d", "is_reserved": 0, "rental_uris": {"ios": "https://dc.lft.to/lastmile_qr_scan", "android": "https://dc.lft.to/lastmile_qr_scan"}, "name": "bdbb3946b0cc5afcc0b8de5bafd9df6d", "fusion_lon": 0.0, "fusion_lat": 0.0, "lon": -77.03833366666667, "type": "electric_scooter"}, {"is_disabled": 0, "lat": 38.924336333333336, "bike_id": "60e922bd6c88be2989df7197e2c1c58c", "is_reserved": 0, "rental_uris": {"ios": "https://dc.lft.to/lastmile_qr_scan", "android": "https://dc.lft.to/lastmile_qr_scan"}, "name": "60e922bd6c88be2989df7197e2c1c58c", "fusion_lon": 0.0, "fusion_lat": 0.0, "lon": -76.97160483333333, "type": "electric_bike"}, {"is_disabled": 0, "lat": 38.891969, "bike_id": "eb10956b812547956af230155c394469", "is_reserved": 0, "rental_uris": {"ios": "https://dc.lft.to/lastmile_qr_scan", "android": "https://dc.lft.to/lastmile_qr_scan"}, "name": "eb10956b812547956af230155c394469", "fusion_lon": 0.0, "fusion_lat": 0.0, "lon": -77.04388783333333, "type": "electric_scooter"}, {"is_disabled": 0, "lat": 38.8922, "bike_id": "6ca553ace6d9f79991bd91ce5726c661", "is_reserved": 0, "rental_uris": {"ios": "https://dc.lft.to/lastmile_qr_scan", "android": "https://dc.lft.to/lastmile_qr_scan"}, "name": "6ca553ace6d9f79991bd91ce5726c661", "fusion_lon": 0.0, "fusion_lat": 0.0, "lon": -77.02223116666667, "type": "electric_scooter"}, {"is_disabled": 0, "lat": 38.923286, "bike_id": "2687232126cfa791c191de6107b35f9e", "is_reserved": 0, "rental_uris": {"ios": "https://dc.lft.to/lastmile_qr_scan", "android": "https://dc.lft.to/lastmile_qr_scan"}, "name": "2687232126cfa791c191de6107b35f9e", "fusion_lon": 0.0, "fusion_lat": 0.0, "lon": -77.03671233333333, "type": "electric_scooter"}, {"is_disabled": 0, "lat": 38.91258216666667, "bike_id": "d3d0c53c3fd192c7b51e5a183610f24b", "is_reserved": 0, "rental_uris": {"ios": "https://dc.lft.to/lastmile_qr_scan", "android": "https://dc.lft.to/lastmile_qr_scan"}, "name": "d3d0c53c3fd192c7b51e5a183610f24b", "fusion_lon": 0.0, "fusion_lat": 0.0, "lon": -77.03876733333334, "type": "electric_scooter"}, {"is_disabled": 0, "lat": 39.08428083333333, "bike_id": "b79422e60b316aec422e5f14427912d1", "is_reserved": 0, "rental_uris": {"ios": "https://dc.lft.to/lastmile_qr_scan", "android": "https://dc.lft.to/lastmile_qr_scan"}, "name": "b79422e60b316aec422e5f14427912d1", "fusion_lon": 0.0, "fusion_lat": 0.0, "lon": -76.95145049999999, "type": "electric_bike"}, {"is_disabled": 0, "lat": 38.8877495, "bike_id": "a4ecb8599f21ae4e7b4b051188f8a0f4", "is_reserved": 0, "rental_uris": {"ios": "https://dc.lft.to/lastmile_qr_scan", "android": "https://dc.lft.to/lastmile_qr_scan"}, "name": "a4ecb8599f21ae4e7b4b051188f8a0f4", "fusion_lon": 0.0, "fusion_lat": 0.0, "lon": -76.932623, "type": "electric_scooter"}, {"is_disabled": 0, "lat": 38.90608616666667, "bike_id": "7e458f9b620f56b0ac93e9d65714a9c9", "is_reserved": 0, "rental_uris": {"ios": "https://dc.lft.to/lastmile_qr_scan", "android": "https://dc.lft.to/lastmile_qr_scan"}, "name": "7e458f9b620f56b0ac93e9d65714a9c9", "fusion_lon": 0.0, "fusion_lat": 0.0, "lon": -76.97802166666666, "type": "electric_scooter"}, {"is_disabled": 0, "lat": 38.883767, "bike_id": "abb2f5d7097c8969a92571258563e858", "is_reserved": 0, "rental_uris": {"ios": "https://dc.lft.to/lastmile_qr_scan", "android": "https://dc.lft.to/lastmile_qr_scan"}, "name": "abb2f5d7097c8969a92571258563e858", "fusion_lon": 0.0, "fusion_lat": 0.0, "lon": -76.92372816666666, "type": "electric_bike"}, {"is_disabled": 0, "lat": 38.883849166666664, "bike_id": "f0bbee6000cf574007cf68e81a725843", "is_reserved": 0, "rental_uris": {"ios": "https://dc.lft.to/lastmile_qr_scan", "android": "https://dc.lft.to/lastmile_qr_scan"}, "name": "f0bbee6000cf574007cf68e81a725843", "fusion_lon": 0.0, "fusion_lat": 0.0, "lon": -76.93034666666667, "type": "electric_scooter"}, {"is_disabled": 0, "lat": 38.90974283333333, "bike_id": "231bb907a44cc87009f6482f910d97b6", "is_reserved": 0, "rental_uris": {"ios": "https://dc.lft.to/lastmile_qr_scan", "android": "https://dc.lft.to/lastmile_qr_scan"}, "name": "231bb907a44cc87009f6482f910d97b6", "fusion_lon": 0.0, "fusion_lat": 0.0, "lon": -77.0241825, "type": "electric_scooter"}, {"is_disabled": 0, "lat": 38.918351666666666, "bike_id": "58d2b9423fa407a044ef4bf425ff5751", "is_reserved": 0, "rental_uris": {"ios": "https://dc.lft.to/lastmile_qr_scan", "android": "https://dc.lft.to/lastmile_qr_scan"}, "name": "58d2b9423fa407a044ef4bf425ff5751", "fusion_lon": 0.0, "fusion_lat": 0.0, "lon": -77.0228665, "type": "electric_scooter"}, {"is_disabled": 0, "lat": 38.924707, "bike_id": "da63781616a1d7e59cf396e9c53c284b", "is_reserved": 0, "rental_uris": {"ios": "https://dc.lft.to/lastmile_qr_scan", "android": "https://dc.lft.to/lastmile_qr_scan"}, "name": "da63781616a1d7e59cf396e9c53c284b", "fusion_lon": 0.0, "fusion_lat": 0.0, "lon": -77.02215316666667, "type": "electric_scooter"}, {"is_disabled": 0, "lat": 38.859011833333334, "bike_id": "5505edafe5c520723cfb01103ed4a1c8", "is_reserved": 0, "rental_uris": {"ios": "https://dc.lft.to/lastmile_qr_scan", "android": "https://dc.lft.to/lastmile_qr_scan"}, "name": "5505edafe5c520723cfb01103ed4a1c8", "fusion_lon": 0.0, "fusion_lat": 0.0, "lon": -77.09556416666666, "type": "electric_bike"}, {"is_disabled": 0, "lat": 38.905699166666665, "bike_id": "d9e42a9af292f8780760baec8f6d9a0f", "is_reserved": 0, "rental_uris": {"ios": "https://dc.lft.to/lastmile_qr_scan", "android": "https://dc.lft.to/lastmile_qr_scan"}, "name": "d9e42a9af292f8780760baec8f6d9a0f", "fusion_lon": 0.0, "fusion_lat": 0.0, "lon": -77.00250966666667, "type": "electric_scooter"}, {"is_disabled": 0, "lat": 38.957021166666664, "bike_id": "c73be2be74368088dec02699b81a94f1", "is_reserved": 0, "rental_uris": {"ios": "https://dc.lft.to/lastmile_qr_scan", "android": "https://dc.lft.to/lastmile_qr_scan"}, "name": "c73be2be74368088dec02699b81a94f1", "fusion_lon": 0.0, "fusion_lat": 0.0, "lon": -77.35975233333333, "type": "electric_bike"}, {"is_disabled": 0, "lat": 38.90583383333333, "bike_id": "86f29ad550ffcc6b81adec887c1085a9", "is_reserved": 0, "rental_uris": {"ios": "https://dc.lft.to/lastmile_qr_scan", "android": "https://dc.lft.to/lastmile_qr_scan"}, "name": "86f29ad550ffcc6b81adec887c1085a9", "fusion_lon": 0.0, "fusion_lat": 0.0, "lon": -77.0218915, "type": "electric_scooter"}, {"is_disabled": 0, "lat": 38.903794500000004, "bike_id": "d9d5f241f05cd20fee026761162c2cff", "is_reserved": 0, "rental_uris": {"ios": "https://dc.lft.to/lastmile_qr_scan", "android": "https://dc.lft.to/lastmile_qr_scan"}, "name": "d9d5f241f05cd20fee026761162c2cff", "fusion_lon": 0.0, "fusion_lat": 0.0, "lon": -77.03630616666666, "type": "electric_scooter"}, {"is_disabled": 0, "lat": 38.9035505, "bike_id": "c1a48837b478b0485ab9bbddeda3e58f", "is_reserved": 0, "rental_uris": {"ios": "https://dc.lft.to/lastmile_qr_scan", "android": "https://dc.lft.to/lastmile_qr_scan"}, "name": "c1a48837b478b0485ab9bbddeda3e58f", "fusion_lon": 0.0, "fusion_lat": 0.0, "lon": -77.0375695, "type": "electric_scooter"}, {"is_disabled": 0, "lat": 38.893469833333334, "bike_id": "f71970c466e9b52694304ff0356ac5e3", "is_reserved": 0, "rental_uris": {"ios": "https://dc.lft.to/lastmile_qr_scan", "android": "https://dc.lft.to/lastmile_qr_scan"}, "name": "f71970c466e9b52694304ff0356ac5e3", "fusion_lon": 0.0, "fusion_lat": 0.0, "lon": -76.9921275, "type": "electric_scooter"}, {"is_disabled": 0, "lat": 38.92163266666667, "bike_id": "7e8a26793d5b338cb26ad89e562283bb", "is_reserved": 0, "rental_uris": {"ios": "https://dc.lft.to/lastmile_qr_scan", "android": "https://dc.lft.to/lastmile_qr_scan"}, "name": "7e8a26793d5b338cb26ad89e562283bb", "fusion_lon": 0.0, "fusion_lat": 0.0, "lon": -77.03665816666667, "type": "electric_scooter"}, {"is_disabled": 0, "lat": 38.9215635, "bike_id": "c300a16145c51ba7138b8be6bca728d1", "is_reserved": 0, "rental_uris": {"ios": "https://dc.lft.to/lastmile_qr_scan", "android": "https://dc.lft.to/lastmile_qr_scan"}, "name": "c300a16145c51ba7138b8be6bca728d1", "fusion_lon": 0.0, "fusion_lat": 0.0, "lon": -77.034682, "type": "electric_scooter"}, {"is_disabled": 0, "lat": 38.893847, "bike_id": "261f4675d0962b35dcf5a43ce5f71f71", "is_reserved": 0, "rental_uris": {"ios": "https://dc.lft.to/lastmile_qr_scan", "android": "https://dc.lft.to/lastmile_qr_scan"}, "name": "261f4675d0962b35dcf5a43ce5f71f71", "fusion_lon": 0.0, "fusion_lat": 0.0, "lon": -76.9230815, "type": "electric_scooter"}, {"is_disabled": 0, "lat": 38.8848065, "bike_id": "6d52e0f3c6e4628c19c181b72cbadd3e", "is_reserved": 0, "rental_uris": {"ios": "https://dc.lft.to/lastmile_qr_scan", "android": "https://dc.lft.to/lastmile_qr_scan"}, "name": "6d52e0f3c6e4628c19c181b72cbadd3e", "fusion_lon": 0.0, "fusion_lat": 0.0, "lon": -77.03361933333333, "type": "electric_scooter"}, {"is_disabled": 0, "lat": 38.92328466666667, "bike_id": "3241f47959682761eb5ba14b93706026", "is_reserved": 0, "rental_uris": {"ios": "https://dc.lft.to/lastmile_qr_scan", "android": "https://dc.lft.to/lastmile_qr_scan"}, "name": "3241f47959682761eb5ba14b93706026", "fusion_lon": 0.0, "fusion_lat": 0.0, "lon": -77.0089515, "type": "electric_scooter"}, {"is_disabled": 0, "lat": 38.928841166666665, "bike_id": "388a78dd7cac55b672a19f36d92fe326", "is_reserved": 0, "rental_uris": {"ios": "https://dc.lft.to/lastmile_qr_scan", "android": "https://dc.lft.to/lastmile_qr_scan"}, "name": "388a78dd7cac55b672a19f36d92fe326", "fusion_lon": 0.0, "fusion_lat": 0.0, "lon": -77.01390083333334, "type": "electric_scooter"}, {"is_disabled": 0, "lat": 38.93309416666666, "bike_id": "b78484573e827728207db47f65834878", "is_reserved": 0, "rental_uris": {"ios": "https://dc.lft.to/lastmile_qr_scan", "android": "https://dc.lft.to/lastmile_qr_scan"}, "name": "b78484573e827728207db47f65834878", "fusion_lon": 0.0, "fusion_lat": 0.0, "lon": -77.03191583333333, "type": "electric_scooter"}, {"is_disabled": 0, "lat": 38.87642483333333, "bike_id": "e2ada4199e7c4a1126d3ac7ce3473f67", "is_reserved": 0, "rental_uris": {"ios": "https://dc.lft.to/lastmile_qr_scan", "android": "https://dc.lft.to/lastmile_qr_scan"}, "name": "e2ada4199e7c4a1126d3ac7ce3473f67", "fusion_lon": 0.0, "fusion_lat": 0.0, "lon": -76.9354835, "type": "electric_bike"}, {"is_disabled": 0, "lat": 38.876678, "bike_id": "ab7e5bf2a81969667596ba9a90fe6253", "is_reserved": 0, "rental_uris": {"ios": "https://dc.lft.to/lastmile_qr_scan", "android": "https://dc.lft.to/lastmile_qr_scan"}, "name": "ab7e5bf2a81969667596ba9a90fe6253", "fusion_lon": 0.0, "fusion_lat": 0.0, "lon": -77.01757683333334, "type": "electric_scooter"}, {"is_disabled": 0, "lat": 38.892605333333336, "bike_id": "ea3b6801407103c4f5f198c4c1e02227", "is_reserved": 0, "rental_uris": {"ios": "https://dc.lft.to/lastmile_qr_scan", "android": "https://dc.lft.to/lastmile_qr_scan"}, "name": "ea3b6801407103c4f5f198c4c1e02227", "fusion_lon": 0.0, "fusion_lat": 0.0, "lon": -77.050246, "type": "electric_scooter"}, {"is_disabled": 0, "lat": 38.911989, "bike_id": "030150eafd7c517d139740884c5391b7", "is_reserved": 0, "rental_uris": {"ios": "https://dc.lft.to/lastmile_qr_scan", "android": "https://dc.lft.to/lastmile_qr_scan"}, "name": "030150eafd7c517d139740884c5391b7", "fusion_lon": 0.0, "fusion_lat": 0.0, "lon": -77.0210065, "type": "electric_scooter"}, {"is_disabled": 0, "lat": 38.894573666666666, "bike_id": "72504ba40c7aea976d6efeee1e6125fb", "is_reserved": 0, "rental_uris": {"ios": "https://dc.lft.to/lastmile_qr_scan", "android": "https://dc.lft.to/lastmile_qr_scan"}, "name": "72504ba40c7aea976d6efeee1e6125fb", "fusion_lon": 0.0, "fusion_lat": 0.0, "lon": -77.02427166666666, "type": "electric_scooter"}, {"is_disabled": 0, "lat": 38.907177833333336, "bike_id": "fe09023b334219b3c26c1f9bf16312e3", "is_reserved": 0, "rental_uris": {"ios": "https://dc.lft.to/lastmile_qr_scan", "android": "https://dc.lft.to/lastmile_qr_scan"}, "name": "fe09023b334219b3c26c1f9bf16312e3", "fusion_lon": 0.0, "fusion_lat": 0.0, "lon": -77.0530725, "type": "electric_scooter"}, {"is_disabled": 0, "lat": 38.93130516666667, "bike_id": "50491d3da7fbea7488edf067b5602eff", "is_reserved": 0, "rental_uris": {"ios": "https://dc.lft.to/lastmile_qr_scan", "android": "https://dc.lft.to/lastmile_qr_scan"}, "name": "50491d3da7fbea7488edf067b5602eff", "fusion_lon": 0.0, "fusion_lat": 0.0, "lon": -77.02815016666666, "type": "electric_scooter"}, {"is_disabled": 0, "lat": 38.892232166666666, "bike_id": "99a70168af769a09287f1e22ddd6ada6", "is_reserved": 0, "rental_uris": {"ios": "https://dc.lft.to/lastmile_qr_scan", "android": "https://dc.lft.to/lastmile_qr_scan"}, "name": "99a70168af769a09287f1e22ddd6ada6", "fusion_lon": 0.0, "fusion_lat": 0.0, "lon": -77.04333983333333, "type": "electric_scooter"}, {"is_disabled": 0, "lat": 38.9236055, "bike_id": "91427579ab3308ac760330006750f3aa", "is_reserved": 0, "rental_uris": {"ios": "https://dc.lft.to/lastmile_qr_scan", "android": "https://dc.lft.to/lastmile_qr_scan"}, "name": "91427579ab3308ac760330006750f3aa", "fusion_lon": 0.0, "fusion_lat": 0.0, "lon": -77.02140033333333, "type": "electric_scooter"}, {"is_disabled": 0, "lat": 38.930608166666666, "bike_id": "3d5582443671063b815e0ca9c49e8ee7", "is_reserved": 0, "rental_uris": {"ios": "https://dc.lft.to/lastmile_qr_scan", "android": "https://dc.lft.to/lastmile_qr_scan"}, "name": "3d5582443671063b815e0ca9c49e8ee7", "fusion_lon": 0.0, "fusion_lat": 0.0, "lon": -77.04053216666667, "type": "electric_scooter"}, {"is_disabled": 0, "lat": 38.90463833333333, "bike_id": "458f19f4c4c963853f534841e03144e3", "is_reserved": 0, "rental_uris": {"ios": "https://dc.lft.to/lastmile_qr_scan", "android": "https://dc.lft.to/lastmile_qr_scan"}, "name": "458f19f4c4c963853f534841e03144e3", "fusion_lon": 0.0, "fusion_lat": 0.0, "lon": -77.0381555, "type": "electric_scooter"}, {"is_disabled": 0, "lat": 38.89810533333333, "bike_id": "3a9749a49bc6a12f56be1287a4b196d7", "is_reserved": 0, "rental_uris": {"ios": "https://dc.lft.to/lastmile_qr_scan", "android": "https://dc.lft.to/lastmile_qr_scan"}, "name": "3a9749a49bc6a12f56be1287a4b196d7", "fusion_lon": 0.0, "fusion_lat": 0.0, "lon": -77.02946383333334, "type": "electric_scooter"}, {"is_disabled": 0, "lat": 39.02647, "bike_id": "b0619d014c9bcc766196d02abd8d6da6", "is_reserved": 0, "rental_uris": {"ios": "https://dc.lft.to/lastmile_qr_scan", "android": "https://dc.lft.to/lastmile_qr_scan"}, "name": "b0619d014c9bcc766196d02abd8d6da6", "fusion_lon": 0.0, "fusion_lat": 0.0, "lon": -77.03684716666666, "type": "electric_bike"}, {"is_disabled": 0, "lat": 38.90510366666667, "bike_id": "00f7daa58ff5678e4ecfb3bfc37de373", "is_reserved": 0, "rental_uris": {"ios": "https://dc.lft.to/lastmile_qr_scan", "android": "https://dc.lft.to/lastmile_qr_scan"}, "name": "00f7daa58ff5678e4ecfb3bfc37de373", "fusion_lon": 0.0, "fusion_lat": 0.0, "lon": -76.952016, "type": "electric_scooter"}, {"is_disabled": 0, "lat": 38.9147345, "bike_id": "c4da6c98b7554adaac0b27d8df213e6e", "is_reserved": 0, "rental_uris": {"ios": "https://dc.lft.to/lastmile_qr_scan", "android": "https://dc.lft.to/lastmile_qr_scan"}, "name": "c4da6c98b7554adaac0b27d8df213e6e", "fusion_lon": 0.0, "fusion_lat": 0.0, "lon": -77.00914383333334, "type": "electric_scooter"}, {"is_disabled": 0, "lat": 38.91409566666667, "bike_id": "32c8234e83f99183a24751f5b4b4b5fb", "is_reserved": 0, "rental_uris": {"ios": "https://dc.lft.to/lastmile_qr_scan", "android": "https://dc.lft.to/lastmile_qr_scan"}, "name": "32c8234e83f99183a24751f5b4b4b5fb", "fusion_lon": 0.0, "fusion_lat": 0.0, "lon": -77.0520925, "type": "electric_scooter"}, {"is_disabled": 0, "lat": 38.88623966666667, "bike_id": "741244b288881f9136ffa2e16da5b5ca", "is_reserved": 0, "rental_uris": {"ios": "https://dc.lft.to/lastmile_qr_scan", "android": "https://dc.lft.to/lastmile_qr_scan"}, "name": "741244b288881f9136ffa2e16da5b5ca", "fusion_lon": 0.0, "fusion_lat": 0.0, "lon": -76.92633466666666, "type": "electric_scooter"}, {"is_disabled": 0, "lat": 38.9251045, "bike_id": "183fb40b1071f43644304ef8d2c0c07c", "is_reserved": 0, "rental_uris": {"ios": "https://dc.lft.to/lastmile_qr_scan", "android": "https://dc.lft.to/lastmile_qr_scan"}, "name": "183fb40b1071f43644304ef8d2c0c07c", "fusion_lon": 0.0, "fusion_lat": 0.0, "lon": -76.995635, "type": "electric_scooter"}, {"is_disabled": 0, "lat": 38.943289666666665, "bike_id": "45f44a9acd619b465d98447ff9e2ffdc", "is_reserved": 0, "rental_uris": {"ios": "https://dc.lft.to/lastmile_qr_scan", "android": "https://dc.lft.to/lastmile_qr_scan"}, "name": "45f44a9acd619b465d98447ff9e2ffdc", "fusion_lon": 0.0, "fusion_lat": 0.0, "lon": -77.02691133333333, "type": "electric_scooter"}, {"is_disabled": 0, "lat": 38.900047666666666, "bike_id": "b639592fafb58167dce8ad5e4ab2d9b7", "is_reserved": 0, "rental_uris": {"ios": "https://dc.lft.to/lastmile_qr_scan", "android": "https://dc.lft.to/lastmile_qr_scan"}, "name": "b639592fafb58167dce8ad5e4ab2d9b7", "fusion_lon": 0.0, "fusion_lat": 0.0, "lon": -77.027268, "type": "electric_scooter"}, {"is_disabled": 0, "lat": 38.930757, "bike_id": "d30992b6ec627a1fc25d342bccfd4944", "is_reserved": 0, "rental_uris": {"ios": "https://dc.lft.to/lastmile_qr_scan", "android": "https://dc.lft.to/lastmile_qr_scan"}, "name": "d30992b6ec627a1fc25d342bccfd4944", "fusion_lon": 0.0, "fusion_lat": 0.0, "lon": -77.02758016666667, "type": "electric_scooter"}, {"is_disabled": 0, "lat": 38.913487333333336, "bike_id": "b56ea32671395a9dcec084b115d49fe5", "is_reserved": 0, "rental_uris": {"ios": "https://dc.lft.to/lastmile_qr_scan", "android": "https://dc.lft.to/lastmile_qr_scan"}, "name": "b56ea32671395a9dcec084b115d49fe5", "fusion_lon": 0.0, "fusion_lat": 0.0, "lon": -77.03216383333333, "type": "electric_scooter"}, {"is_disabled": 0, "lat": 38.9472065, "bike_id": "5617df4b8a3fc9fc88b60949fd4fa757", "is_reserved": 0, "rental_uris": {"ios": "https://dc.lft.to/lastmile_qr_scan", "android": "https://dc.lft.to/lastmile_qr_scan"}, "name": "5617df4b8a3fc9fc88b60949fd4fa757", "fusion_lon": 0.0, "fusion_lat": 0.0, "lon": -77.02355466666667, "type": "electric_scooter"}, {"is_disabled": 0, "lat": 38.91781533333333, "bike_id": "ab709174c353a4f21ca22eb8418d5902", "is_reserved": 0, "rental_uris": {"ios": "https://dc.lft.to/lastmile_qr_scan", "android": "https://dc.lft.to/lastmile_qr_scan"}, "name": "ab709174c353a4f21ca22eb8418d5902", "fusion_lon": 0.0, "fusion_lat": 0.0, "lon": -77.02475333333334, "type": "electric_scooter"}, {"is_disabled": 0, "lat": 38.9296235, "bike_id": "15d2cbff40b80a2fc242655a400e944d", "is_reserved": 0, "rental_uris": {"ios": "https://dc.lft.to/lastmile_qr_scan", "android": "https://dc.lft.to/lastmile_qr_scan"}, "name": "15d2cbff40b80a2fc242655a400e944d", "fusion_lon": 0.0, "fusion_lat": 0.0, "lon": -77.04206583333334, "type": "electric_scooter"}, {"is_disabled": 0, "lat": 38.89606883333333, "bike_id": "d625199a7b87a436b2ac48daf4b96ba4", "is_reserved": 0, "rental_uris": {"ios": "https://dc.lft.to/lastmile_qr_scan", "android": "https://dc.lft.to/lastmile_qr_scan"}, "name": "d625199a7b87a436b2ac48daf4b96ba4", "fusion_lon": 0.0, "fusion_lat": 0.0, "lon": -77.02519633333333, "type": "electric_scooter"}, {"is_disabled": 0, "lat": 38.90849166666667, "bike_id": "45ee795e308528b23f79386c8edc67d4", "is_reserved": 0, "rental_uris": {"ios": "https://dc.lft.to/lastmile_qr_scan", "android": "https://dc.lft.to/lastmile_qr_scan"}, "name": "45ee795e308528b23f79386c8edc67d4", "fusion_lon": 0.0, "fusion_lat": 0.0, "lon": -77.04835483333333, "type": "electric_scooter"}, {"is_disabled": 0, "lat": 38.912249833333334, "bike_id": "949c36ff746061d822561c6ea7dcb2af", "is_reserved": 0, "rental_uris": {"ios": "https://dc.lft.to/lastmile_qr_scan", "android": "https://dc.lft.to/lastmile_qr_scan"}, "name": "949c36ff746061d822561c6ea7dcb2af", "fusion_lon": 0.0, "fusion_lat": 0.0, "lon": -77.07748866666667, "type": "electric_scooter"}, {"is_disabled": 0, "lat": 38.90190483333333, "bike_id": "569c533a19d897205244590a9f507534", "is_reserved": 0, "rental_uris": {"ios": "https://dc.lft.to/lastmile_qr_scan", "android": "https://dc.lft.to/lastmile_qr_scan"}, "name": "569c533a19d897205244590a9f507534", "fusion_lon": 0.0, "fusion_lat": 0.0, "lon": -77.050855, "type": "electric_scooter"}, {"is_disabled": 0, "lat": 38.90266533333333, "bike_id": "d8cf84c8aebf5e5766f052c5bc7650e4", "is_reserved": 0, "rental_uris": {"ios": "https://dc.lft.to/lastmile_qr_scan", "android": "https://dc.lft.to/lastmile_qr_scan"}, "name": "d8cf84c8aebf5e5766f052c5bc7650e4", "fusion_lon": 0.0, "fusion_lat": 0.0, "lon": -77.03841216666666, "type": "electric_scooter"}, {"is_disabled": 0, "lat": 38.90668516666667, "bike_id": "005471e48ae8a8d95294e437acf56218", "is_reserved": 0, "rental_uris": {"ios": "https://dc.lft.to/lastmile_qr_scan", "android": "https://dc.lft.to/lastmile_qr_scan"}, "name": "005471e48ae8a8d95294e437acf56218", "fusion_lon": 0.0, "fusion_lat": 0.0, "lon": -77.02713816666666, "type": "electric_scooter"}, {"is_disabled": 0, "lat": 38.91415716666667, "bike_id": "b6904159d129c5c3bd5a888a0c3c3bc1", "is_reserved": 0, "rental_uris": {"ios": "https://dc.lft.to/lastmile_qr_scan", "android": "https://dc.lft.to/lastmile_qr_scan"}, "name": "b6904159d129c5c3bd5a888a0c3c3bc1", "fusion_lon": 0.0, "fusion_lat": 0.0, "lon": -77.03178266666667, "type": "electric_scooter"}, {"is_disabled": 0, "lat": 38.899528833333335, "bike_id": "6751da95315dd73ef34cfbed6297a948", "is_reserved": 0, "rental_uris": {"ios": "https://dc.lft.to/lastmile_qr_scan", "android": "https://dc.lft.to/lastmile_qr_scan"}, "name": "6751da95315dd73ef34cfbed6297a948", "fusion_lon": 0.0, "fusion_lat": 0.0, "lon": -77.04508883333334, "type": "electric_scooter"}, {"is_disabled": 0, "lat": 38.90440516666666, "bike_id": "2056534c2862f8a2998fa4ee89d820de", "is_reserved": 0, "rental_uris": {"ios": "https://dc.lft.to/lastmile_qr_scan", "android": "https://dc.lft.to/lastmile_qr_scan"}, "name": "2056534c2862f8a2998fa4ee89d820de", "fusion_lon": 0.0, "fusion_lat": 0.0, "lon": -77.03130966666667, "type": "electric_scooter"}, {"is_disabled": 0, "lat": 38.9059005, "bike_id": "e470b14e8c22c0d0e4990ab4f1f03317", "is_reserved": 0, "rental_uris": {"ios": "https://dc.lft.to/lastmile_qr_scan", "android": "https://dc.lft.to/lastmile_qr_scan"}, "name": "e470b14e8c22c0d0e4990ab4f1f03317", "fusion_lon": 0.0, "fusion_lat": 0.0, "lon": -77.04472633333333, "type": "electric_bike"}, {"is_disabled": 0, "lat": 38.935409, "bike_id": "4cb0212218b8e95db8294707f8dc1a8f", "is_reserved": 0, "rental_uris": {"ios": "https://dc.lft.to/lastmile_qr_scan", "android": "https://dc.lft.to/lastmile_qr_scan"}, "name": "4cb0212218b8e95db8294707f8dc1a8f", "fusion_lon": 0.0, "fusion_lat": 0.0, "lon": -77.07291433333333, "type": "electric_scooter"},