{"data": {"bikes": [{"lat": 38.901368166666664, "is_disabled": 0, "type": "electric_scooter", "lon": -76.94154933333333, "bike_id": "aa887ce0a5dcec6656bc2a29aa4bbbce", "fusion_lat": 0.0, "name": "aa887ce0a5dcec6656bc2a29aa4bbbce", "is_reserved": 0, "rental_uris": {"android": "https://dc.lft.to/lastmile_qr_scan", "ios": "https://dc.lft.to/lastmile_qr_scan"}, "fusion_lon": 0.0}, {"lat": 38.961433, "is_disabled": 0, "type": "electric_bike", "lon": -77.03233316666666, "bike_id": "1fd05209fe93e6d26f1cd05dea3d8705", "fusion_lat": 0.0, "name": "1fd05209fe93e6d26f1cd05dea3d8705", "is_reserved": 0, "rental_uris": {"android": "https://dc.lft.to/lastmile_qr_scan", "ios": "https://dc.lft.to/lastmile_qr_scan"}, "fusion_lon": 0.0}, {"lat": 38.93232116666667, "is_disabled": 0, "type": "electric_scooter", "lon": -77.038589, "bike_id": "af47a4a54dac8f973eadbc9e6262fa25", "fusion_lat": 0.0, "name": "af47a4a54dac8f973eadbc9e6262fa25", "is_reserved": 0, "rental_uris": {"android": "https://dc.lft.to/lastmile_qr_scan", "ios": "https://dc.lft.to/lastmile_qr_scan"}, "fusion_lon": 0.0}, {"lat": 38.90266416666667, "is_disabled": 0, "type": "electric_scooter", "lon": -77.05312416666666, "bike_id": "d3e86fffa2edb4cb66b0b504667b5e4f", "fusion_lat": 0.0, "name": "d3e86fffa2edb4cb66b0b504667b5e4f", "is_reserved": 0, "rental_uris": {"android": "https://dc.lft.to/lastmile_qr_scan", "ios": "https://dc.lft.to/lastmile_qr_scan"}, "fusion_lon": 0.0}, {"lat": 38.86616883333333, "is_disabled": 0, "type": "electric_scooter", "lon": -76.9866605, "bike_id": "d11e2bf90316b2717617f58cfa3df5fd", "fusion_lat": 0.0, "name": "d11e2bf90316b2717617f58cfa3df5fd", "is_reserved": 0, "rental_uris": {"android": "https://dc.lft.to/lastmile_qr_scan", "ios": "https://dc.lft.to/lastmile_qr_scan"}, "fusion_lon": 0.0}, {"lat": 38.903543666666664, "is_disabled": 0, "type": "electric_scooter", "lon": -77.04902933333334, "bike_id": "9f44edfc66b66494980afce22c6ffdde", "fusion_lat": 0.0, "name": "9f44edfc66b66494980afce22c6ffdde", "is_reserved": 0, "rental_uris": {"android": "https://dc.lft.to/lastmile_qr_scan", "ios": "https://dc.lft.to/lastmile_qr_scan"}, "fusion_lon": 0.0}, {"lat": 38.90952683333333, "is_disabled": 0, "type": "electric_scooter", "lon": -77.04633933333334, "bike_id": "673496040f76a813cf1a450e14174ea7", "fusion_lat": 0.0, "name": "673496040f76a813cf1a450e14174ea7", "is_reserved": 0, "rental_uris": {"android": "https://dc.lft.to/lastmile_qr_scan", "ios": "https://dc.lft.to/lastmile_qr_scan"}, "fusion_lon": 0.0}, {"lat": 38.89220433333333, "is_disabled": 0, "type": "electric_scooter", "lon": -77.04804016666667, "bike_id": "90bc4fd49946e9944402fe1ca261795c", "fusion_lat": 0.0, "name": "90bc4fd49946e9944402fe1ca261795c", "is_reserved": 0, "rental_uris": {"android": "https://dc.lft.to/lastmile_qr_scan", "ios": "https://dc.lft.to/lastmile_qr_scan"}, "fusion_lon": 0.0}, {"lat": 38.90331033333333, "is_disabled": 0, "type": "electric_scooter", "lon": -76.97057583333333, "bike_id": "7181a6be2c018affb600e495947215c4", "fusion_lat": 0.0, "name": "7181a6be2c018affb600e495947215c4", "is_reserved": 0, "rental_uris": {"android": "https://dc.lft.to/lastmile_qr_scan", "ios": "https://dc.lft.to/lastmile_qr_scan"}, "fusion_lon": 0.0}, {"lat": 38.919838166666665, "is_disabled": 0, "type": "electric_scooter", "lon": -77.023784, "bike_id": "65e70c8b5540f38933ddb331fbde09cb", "fusion_lat": 0.0, "name": "65e70c8b5540f38933ddb331fbde09cb", "is_reserved": 0, "rental_uris": {"android": "https://dc.lft.to/lastmile_qr_scan", "ios": "https://dc.lft.to/lastmile_qr_scan"}, "fusion_lon": 0.0}, {"lat": 38.8858235, "is_disabled": 0, "type": "electric_scooter", "lon": -77.00071733333333, "bike_id": "973fdcbd8694020f65d313ca96f8a98b", "fusion_lat": 0.0, "name": "973fdcbd8694020f65d313ca96f8a98b", "is_reserved": 0, "rental_uris": {"android": "https://dc.lft.to/lastmile_qr_scan", "ios": "https://dc.lft.to/lastmile_qr_scan"}, "fusion_lon": 0.0}, {"lat": 38.8948005, "is_disabled": 0, "type": "electric_scooter", "lon": -76.94958216666667, "bike_id": "427b33a7d49768a166137f9d4f0c71cd", "fusion_lat": 0.0, "name": "427b33a7d49768a166137f9d4f0c71cd", "is_reserved": 0, "rental_uris": {"android": "https://dc.lft.to/lastmile_qr_scan", "ios": "https://dc.lft.to/lastmile_qr_scan"}, "fusion_lon": 0.0}, {"lat": 38.910101, "is_disabled": 0, "type": "electric_scooter", "lon": -76.993923, "bike_id": "ed8708adda1d78b74a9c09514bc64512", "fusion_lat": 0.0, "name": "ed8708adda1d78b74a9c09514bc64512", "is_reserved": 0, "rental_uris": {"android": "https://dc.lft.to/lastmile_qr_scan", "ios": "https://dc.lft.to/lastmile_qr_scan"}, "fusion_lon": 0.0}, {"lat": 38.90449666666667, "is_disabled": 0, "type": "electric_scooter", "lon": -77.05928066666667, "bike_id": "9e000be4852f2a4b085cb8433f1eb61a", "fusion_lat": 0.0, "name": "9e000be4852f2a4b085cb8433f1eb61a", "is_reserved": 0, "rental_uris": {"android": "https://dc.lft.to/lastmile_qr_scan", "ios": "https://dc.lft.to/lastmile_qr_scan"}, "fusion_lon": 0.0}, {"lat": 38.9224035, "is_disabled": 0, "type": "electric_scooter", "lon": -77.02912183333333, "bike_id": "e37569c8aad2dc4402f7f3f152e762d3", "fusion_lat": 0.0, "name": "e37569c8aad2dc4402f7f3f152e762d3", "is_reserved": 0, "rental_uris": {"android": "https://dc.lft.to/lastmile_qr_scan", "ios": "https://dc.lft.to/lastmile_qr_scan"}, "fusion_lon": 0.0}, {"lat": 38.91811933333334, "is_disabled": 0, "type": "electric_scooter", "lon": -77.027877, "bike_id": "fe2d52fb8172ca738179ed95bb5b48af", "fusion_lat": 0.0, "name": "fe2d52fb8172ca738179ed95bb5b48af", "is_reserved": 0, "rental_uris": {"android": "https://dc.lft.to/lastmile_qr_scan", "ios": "https://dc.lft.to/lastmile_qr_scan"}, "fusion_lon": 0.0}, {"lat": 38.895581166666666, "is_disabled": 0, "type": "electric_scooter", "lon": -77.0297715, "bike_id": "086163ca2b6e7aa91fe018e817c2cfa0", "fusion_lat": 0.0, "name": "086163ca2b6e7aa91fe018e817c2cfa0", "is_reserved": 0, "rental_uris": {"android": "https://dc.lft.to/lastmile_qr_scan", "ios": "https://dc.lft.to/lastmile_qr_scan"}, "fusion_lon": 0.0}, {"lat": 38.916763333333336, "is_disabled": 0, "type": "electric_scooter", "lon": -77.02958466666666, "bike_id": "7416d5874d4f996e0238d4cb6924e46c", "fusion_lat": 0.0, "name": "7416d5874d4f996e0238d4cb6924e46c", "is_reserved": 0, "rental_uris": {"android": "https://dc.lft.to/lastmile_qr_scan", "ios": "https://dc.lft.to/lastmile_qr_scan"}, "fusion_lon": 0.0}, {"lat": 38.8922075, "is_disabled": 0, "type": "electric_scooter", "lon": -77.043712, "bike_id": "aa55936c31ccafa4a8df741a6d64fdb6", "fusion_lat": 0.0, "name": "aa55936c31ccafa4a8df741a6d64fdb6", "is_reserved": 0, "rental_uris": {"android": "https://dc.lft.to/lastmile_qr_scan", "ios": "https://dc.lft.to/lastmile_qr_scan"}, "fusion_lon": 0.0}, {"lat": 38.9124995, "is_disabled": 0, "type": "electric_scooter", "lon": -77.03503333333333, "bike_id": "652235b2470b1537196180ab2648991c", "fusion_lat": 0.0, "name": "652235b2470b1537196180ab2648991c", "is_reserved": 0, "rental_uris": {"android": "https://dc.lft.to/lastmile_qr_scan", "ios": "https://dc.lft.to/lastmile_qr_scan"}, "fusion_lon": 0.0}, {"lat": 38.95605666666667, "is_disabled": 0, "type": "electric_scooter", "lon": -77.02762783333333, "bike_id": "66c8c27b0281768fc370dcbd87cfd21a", "fusion_lat": 0.0, "name": "66c8c27b0281768fc370dcbd87cfd21a", "is_reserved": 0, "rental_uris": {"android": "https://dc.lft.to/lastmile_qr_scan", "ios": "https://dc.lft.to/lastmile_qr_scan"}, "fusion_lon": 0.0}, {"lat": 38.886337833333336, "is_disabled": 0, "type": "electric_bike", "lon": -76.954735, "bike_id": "a31e2141fd96b1c65c125d511c0b674b", "fusion_lat": 0.0, "name": "a31e2141fd96b1c65c125d511c0b674b", "is_reserved": 0, "rental_uris": {"android": "https://dc.lft.to/lastmile_qr_scan", "ios": "https://dc.lft.to/lastmile_qr_scan"}, "fusion_lon": 0.0}, {"lat": 38.930682, "is_disabled": 0, "type": "electric_scooter", "lon": -77.0374735, "bike_id": "08782d172538df61df7b15145987fde4", "fusion_lat": 0.0, "name": "08782d172538df61df7b15145987fde4", "is_reserved": 0, "rental_uris": {"android": "https://dc.lft.to/lastmile_qr_scan", "ios": "https://dc.lft.to/lastmile_qr_scan"}, "fusion_lon": 0.0}, {"lat": 38.92362216666667, "is_disabled": 0, "type": "electric_scooter", "lon": -77.041292, "bike_id": "f00a78957c3ffa4af4feeba7b2622bb8", "fusion_lat": 0.0, "name": "f00a78957c3ffa4af4feeba7b2622bb8", "is_reserved": 0, "rental_uris": {"android": "https://dc.lft.to/lastmile_qr_scan", "ios": "https://dc.lft.to/lastmile_qr_scan"}, "fusion_lon": 0.0}, {"lat": 38.911740333333334, "is_disabled": 0, "type": "electric_scooter", "lon": -77.06093683333333, "bike_id": "4c509b219219d7049fc3fe344dae7d7b", "fusion_lat": 0.0, "name": "4c509b219219d7049fc3fe344dae7d7b", "is_reserved": 0, "rental_uris": {"android": "https://dc.lft.to/lastmile_qr_scan", "ios": "https://dc.lft.to/lastmile_qr_scan"}, "fusion_lon": 0.0}, {"lat": 38.90120233333333, "is_disabled": 0, "type": "electric_scooter", "lon": -77.02891316666667, "bike_id": "1a5eb5525c873c21729b2d2266adf4bf", "fusion_lat": 0.0, "name": "1a5eb5525c873c21729b2d2266adf4bf", "is_reserved": 0, "rental_uris": {"android": "https://dc.lft.to/lastmile_qr_scan", "ios": "https://dc.lft.to/lastmile_qr_scan"}, "fusion_lon": 0.0}, {"lat": 38.88514933333333, "is_disabled": 0, "type": "electric_scooter", "lon": -77.00572233333334, "bike_id": "ce1955fda777e20981847fa441d58e3e", "fusion_lat": 0.0, "name": "ce1955fda777e20981847fa441d58e3e", "is_reserved": 0, "rental_uris": {"android": "https://dc.lft.to/lastmile_qr_scan", "ios": "https://dc.lft.to/lastmile_qr_scan"}, "fusion_lon": 0.0}, {"lat": 38.8981395, "is_disabled": 0, "type": "electric_scooter", "lon": -76.99697366666666, "bike_id": "82f3f007d8f1b3427f17dbbdf0603689", "fusion_lat": 0.0, "name": "82f3f007d8f1b3427f17dbbdf0603689", "is_reserved": 0, "rental_uris": {"android": "https://dc.lft.to/lastmile_qr_scan", "ios": "https://dc.lft.to/lastmile_qr_scan"}, "fusion_lon": 0.0}, {"lat": 38.914004166666665, "is_disabled": 0, "type": "electric_scooter", "lon": -77.03897166666667, "bike_id": "fb1fd504d738cb5b41bffcdccdffce07", "fusion_lat": 0.0, "name": "fb1fd504d738cb5b41bffcdccdffce07", "is_reserved": 0, "rental_uris": {"android": "https://dc.lft.to/lastmile_qr_scan", "ios": "https://dc.lft.to/lastmile_qr_scan"}, "fusion_lon": 0.0}, {"lat": 39.056365, "is_disabled": 0, "type": "electric_bike", "lon": -77.1252835, "bike_id": "49b30169cb560cd625020593a57493bb", "fusion_lat": 0.0, "name": "49b30169cb560cd625020593a57493bb", "is_reserved": 0, "rental_uris": {"android": "https://dc.lft.to/lastmile_qr_scan", "ios": "https://dc.lft.to/lastmile_qr_scan"}, "fusion_lon": 0.0}, {"lat": 38.9077325, "is_disabled": 0, "type": "electric_scooter", "lon": -77.03833216666666, "bike_id": "36c28455e1462a765082d3d4b893c204", "fusion_lat": 0.0, "name": "36c28455e1462a765082d3d4b893c204", "is_reserved": 0, "rental_uris": {"android": "https://dc.lft.to/lastmile_qr_scan", "ios": "https://dc.lft.to/lastmile_qr_scan"}, "fusion_lon": 0.0}, {"lat": 38.90447133333333, "is_disabled": 0, "type": "electric_scooter", "lon": -77.02898833333333, "bike_id": "3fce08221693278f6ee324ab9ccd0e18", "fusion_lat": 0.0, "name": "3fce08221693278f6ee324ab9ccd0e18", "is_reserved": 0, "rental_uris": {"android": "https://dc.lft.to/lastmile_qr_scan", "ios": "https://dc.lft.to/lastmile_qr_scan"}, "fusion_lon": 0.0}, {"lat": 38.927541, "is_disabled": 0, "type": "electric_scooter", "lon": -77.03219666666666, "bike_id": "e4362fe05d454fd56b82549f80eecc68", "fusion_lat": 0.0, "name": "e4362fe05d454fd56b82549f80eecc68", "is_reserved": 0, "rental_uris": {"android": "https://dc.lft.to/lastmile_qr_scan", "ios": "https://dc.lft.to/lastmile_qr_scan"}, "fusion_lon": 0.0}, {"lat": 38.90258866666667, "is_disabled": 0, "type": "electric_scooter", "lon": -77.03858433333333, "bike_id": "a4c6935761aeeaa1cb0b2fbb57f123c8", "fusion_lat": 0.0, "name": "a4c6935761aeeaa1cb0b2fbb57f123c8", "is_reserved": 0, "rental_uris": {"android": "https://dc.lft.to/lastmile_qr_scan", "ios": "https://dc.lft.to/lastmile_qr_scan"}, "fusion_lon": 0.0}, {"lat": 38.89122733333333, "is_disabled": 0, "type": "electric_scooter", "lon": -76.94092983333333, "bike_id": "75045198e1e5b3a4be2d5bef6d9a6b78", "fusion_lat": 0.0, "name": "75045198e1e5b3a4be2d5bef6d9a6b78", "is_reserved": 0, "rental_uris": {"android": "https://dc.lft.to/lastmile_qr_scan", "ios": "https://dc.lft.to/lastmile_qr_scan"}, "fusion_lon": 0.0}, {"lat": 38.91080783333334, "is_disabled": 0, "type": "electric_scooter", "lon": -77.07643816666666, "bike_id": "fbd51a2d3080f16f0bf5a7e564491881", "fusion_lat": 0.0, "name": "fbd51a2d3080f16f0bf5a7e564491881", "is_reserved": 0, "rental_uris": {"android": "https://dc.lft.to/lastmile_qr_scan", "ios": "https://dc.lft.to/lastmile_qr_scan"}, "fusion_lon": 0.0}, {"lat": 38.90002916666667, "is_disabled": 0, "type": "electric_scooter", "lon": -76.99853866666666, "bike_id": "32a7289889885d3a62600bc19e6ead01", "fusion_lat": 0.0, "name": "32a7289889885d3a62600bc19e6ead01", "is_reserved": 0, "rental_uris": {"android": "https://dc.lft.to/lastmile_qr_scan", "ios": "https://dc.lft.to/lastmile_qr_scan"}, "fusion_lon": 0.0}, {"lat": 38.90319216666666, "is_disabled": 0, "type": "electric_scooter", "lon": -77.0518665, "bike_id": "005a85fa3bdc7bf8e1acb161a2663f28", "fusion_lat": 0.0, "name": "005a85fa3bdc7bf8e1acb161a2663f28", "is_reserved": 0, "rental_uris": {"android": "https://dc.lft.to/lastmile_qr_scan", "ios": "https://dc.lft.to/lastmile_qr_scan"}, "fusion_lon": 0.0}, {"lat": 38.905249833333336, "is_disabled": 0, "type": "electric_scooter", "lon": -77.06383716666667, "bike_id": "ffc134ca80e3317b2f89d2b18470531d", "fusion_lat": 0.0, "name": "ffc134ca80e3317b2f89d2b18470531d", "is_reserved": 0, "rental_uris": {"android": "https://dc.lft.to/lastmile_qr_scan", "ios": "https://dc.lft.to/lastmile_qr_scan"}, "fusion_lon": 0.0}, {"lat": 39.0158965, "is_disabled": 0, "type": "electric_bike", "lon": -77.04437916666667, "bike_id": "078fcb00acc07d5b2b8e0a74951298ae", "fusion_lat": 0.0, "name": "078fcb00acc07d5b2b8e0a74951298ae", "is_reserved": 0, "rental_uris": {"android": "https://dc.lft.to/lastmile_qr_scan", "ios": "https://dc.lft.to/lastmile_qr_scan"}, "fusion_lon": 0.0}, {"lat": 38.924687666666664, "is_disabled": 0, "type": "electric_scooter", "lon": -77.02722066666666, "bike_id": "96871b74b9296b012d9506fd4719f107", "fusion_lat": 0.0, "name": "96871b74b9296b012d9506fd4719f107", "is_reserved": 0, "rental_uris": {"android": "https://dc.lft.to/lastmile_qr_scan", "ios": "https://dc.lft.to/lastmile_qr_scan"}, "fusion_lon": 0.0}, {"lat": 38.884267666666666, "is_disabled": 0, "type": "electric_scooter", "lon": -77.0304955, "bike_id": "05895419850ad379af3b59df6a7d2f29", "fusion_lat": 0.0, "name": "05895419850ad379af3b59df6a7d2f29", "is_reserved": 0, "rental_uris": {"android": "https://dc.lft.to/lastmile_qr_scan", "ios": "https://dc.lft.to/lastmile_qr_scan"}, "fusion_lon": 0.0}, {"lat": 38.87504033333333, "is_disabled": 0, "type": "electric_bike", "lon": -77.02593533333334, "bike_id": "737e8d4ba6634531ae29102deea3e200", "fusion_lat": 0.0, "name": "737e8d4ba6634531ae29102deea3e200", "is_reserved": 0, "rental_uris": {"android": "https://dc.lft.to/lastmile_qr_scan", "ios": "https://dc.lft.to/lastmile_qr_scan"}, "fusion_lon": 0.0}, {"lat": 38.86253083333333, "is_disabled": 0, "type": "electric_scooter", "lon": -76.98704133333334, "bike_id": "da8dc86ac9155bc0ce4ac67bf2682f26", "fusion_lat": 0.0, "name": "da8dc86ac9155bc0ce4ac67bf2682f26", "is_reserved": 0, "rental_uris": {"android": "https://dc.lft.to/lastmile_qr_scan", "ios": "https://dc.lft.to/lastmile_qr_scan"}, "fusion_lon": 0.0}, {"lat": 38.922323166666665, "is_disabled": 0, "type": "electric_scooter", "lon": -77.038971, "bike_id": "11682a91f72fdfc33b7a47275780d9b3", "fusion_lat": 0.0, "name": "11682a91f72fdfc33b7a47275780d9b3", "is_reserved": 0, "rental_uris": {"android": "https://dc.lft.to/lastmile_qr_scan", "ios": "https://dc.lft.to/lastmile_qr_scan"}, "fusion_lon": 0.0}, {"lat": 38.952430166666666, "is_disabled": 0, "type": "electric_bike", "lon": -77.00708766666666, "bike_id": "817a0e09edd8b76a498deaab7e90abea", "fusion_lat": 0.0, "name": "817a0e09edd8b76a498deaab7e90abea", "is_reserved": 0, "rental_uris": {"android": "https://dc.lft.to/lastmile_qr_scan", "ios": "https://dc.lft.to/lastmile_qr_scan"}, "fusion_lon": 0.0}, {"lat": 38.90768116666667, "is_disabled": 0, "type": "electric_scooter", "lon": -77.020692, "bike_id": "a768b6efa4d17c89bea8f7d99f5add2b", "fusion_lat": 0.0, "name": "a768b6efa4d17c89bea8f7d99f5add2b", "is_reserved": 0, "rental_uris": {"android": "https://dc.lft.to/lastmile_qr_scan", "ios": "https://dc.lft.to/lastmile_qr_scan"}, "fusion_lon": 0.0}, {"lat": 38.956615166666666, "is_disabled": 0, "type": "electric_bike", "lon": -77.027887, "bike_id": "c71e4e68e3fa8b120d1ca1d0d9cceb5d", "fusion_lat": 0.0, "name": "c71e4e68e3fa8b120d1ca1d0d9cceb5d", "is_reserved": 0, "rental_uris": {"android": "https://dc.lft.to/lastmile_qr_scan", "ios": "https://dc.lft.to/lastmile_qr_scan"}, "fusion_lon": 0.0}, {"lat": 38.892195666666666, "is_disabled": 0, "type": "electric_scooter", "lon": -77.02845016666667, "bike_id": "7fcea9c0cd7961fb0480328b51f81491", "fusion_lat": 0.0, "name": "7fcea9c0cd7961fb0480328b51f81491", "is_reserved": 0, "rental_uris": {"android": "https://dc.lft.to/lastmile_qr_scan", "ios": "https://dc.lft.to/lastmile_qr_scan"}, "fusion_lon": 0.0}, {"lat": 38.86614516666667, "is_disabled": 0, "type": "electric_scooter", "lon": -76.98652266666667, "bike_id": "5fcc5592696dd14d58201c50c00f2c28", "fusion_lat": 0.0, "name": "5fcc5592696dd14d58201c50c00f2c28", "is_reserved": 0, "rental_uris": {"android": "https://dc.lft.to/lastmile_qr_scan", "ios": "https://dc.lft.to/lastmile_qr_scan"}, "fusion_lon": 0.0}, {"lat": 38.892914166666664, "is_disabled": 0, "type": "electric_scooter", "lon": -77.033774, "bike_id": "165be8b71eb466e304776f2b7cf09ecd", "fusion_lat": 0.0, "name": "165be8b71eb466e304776f2b7cf09ecd", "is_reserved": 0, "rental_uris": {"android": "https://dc.lft.to/lastmile_qr_scan", "ios": "https://dc.lft.to/lastmile_qr_scan"}, "fusion_lon": 0.0}, {"lat": 38.80224533333333, "is_disabled": 0, "type": "electric_bike", "lon": -77.07920433333334, "bike_id": "9b9da2d970558f4b7f3b68bc1303324f", "fusion_lat": 0.0, "name": "9b9da2d970558f4b7f3b68bc1303324f", "is_reserved": 0, "rental_uris": {"android": "https://dc.lft.to/lastmile_qr_scan", "ios": "https://dc.lft.to/lastmile_qr_scan"}, "fusion_lon": 0.0}, {"lat": 38.885862333333336, "is_disabled": 0, "type": "electric_scooter", "lon": -76.99159316666666, "bike_id": "fc4453b335eaf0b4d21928dcaaa2fa45", "fusion_lat": 0.0, "name": "fc4453b335eaf0b4d21928dcaaa2fa45", "is_reserved": 0, "rental_uris": {"android": "https://dc.lft.to/lastmile_qr_scan", "ios": "https://dc.lft.to/lastmile_qr_scan"}, "fusion_lon": 0.0}, {"lat": 38.932354333333336, "is_disabled": 0, "type": "electric_scooter", "lon": -77.03276633333333, "bike_id": "c18e3ad5b226400be3cc3f93b6742e37", "fusion_lat": 0.0, "name": "c18e3ad5b226400be3cc3f93b6742e37", "is_reserved": 0, "rental_uris": {"android": "https://dc.lft.to/lastmile_qr_scan", "ios": "https://dc.lft.to/lastmile_qr_scan"}, "fusion_lon": 0.0}, {"lat": 38.909359333333335, "is_disabled": 0, "type": "electric_scooter", "lon": -77.04479983333333, "bike_id": "60ccc461c23d8f47dd0b1e618860a305", "fusion_lat": 0.0, "name": "60ccc461c23d8f47dd0b1e618860a305", "is_reserved": 0, "rental_uris": {"android": "https://dc.lft.to/lastmile_qr_scan", "ios": "https://dc.lft.to/lastmile_qr_scan"}, "fusion_lon": 0.0}, {"lat": 38.8442155, "is_disabled": 0, "type": "electric_scooter", "lon": -76.99783583333334, "bike_id": "67f093286d5ab32b23658a72097030d1", "fusion_lat": 0.0, "name": "67f093286d5ab32b23658a72097030d1", "is_reserved": 0, "rental_uris": {"android": "https://dc.lft.to/lastmile_qr_scan", "ios": "https://dc.lft.to/lastmile_qr_scan"}, "fusion_lon": 0.0}, {"lat": 38.909508833333334, "is_disabled": 0, "type": "electric_scooter", "lon": -77.03382533333334, "bike_id": "1519f8b83b5a452525af0b1424a3d337", "fusion_lat": 0.0, "name": "1519f8b83b5a452525af0b1424a3d337", "is_reserved": 0, "rental_uris": {"android": "https://dc.lft.to/lastmile_qr_scan", "ios": "https://dc.lft.to/lastmile_qr_scan"}, "fusion_lon": 0.0}, {"lat": 38.90674416666667, "is_disabled": 0, "type": "electric_bike", "lon": -76.951923, "bike_id": "3bdfc01e34807ab497ef784636b73fb2", "fusion_lat": 0.0, "name": "3bdfc01e34807ab497ef784636b73fb2", "is_reserved": 0, "rental_uris": {"android": "https://dc.lft.to/lastmile_qr_scan", "ios": "https://dc.lft.to/lastmile_qr_scan"}, "fusion_lon": 0.0}, {"lat": 38.93102, "is_disabled": 0, "type": "electric_scooter", "lon": -76.9672875, "bike_id": "351d6e005a9bd4a856ac37a1f8de840d", "fusion_lat": 0.0, "name": "351d6e005a9bd4a856ac37a1f8de840d", "is_reserved": 0, "rental_uris": {"android": "https://dc.lft.to/lastmile_qr_scan", "ios": "https://dc.lft.to/lastmile_qr_scan"}, "fusion_lon": 0.0}, {"lat": 38.89591866666667, "is_disabled": 0, "type": "electric_scooter", "lon": -77.02793116666666, "bike_id": "0d17bff20e3d96c9413f9842975c3927", "fusion_lat": 0.0, "name": "0d17bff20e3d96c9413f9842975c3927", "is_reserved": 0, "rental_uris": {"android": "https://dc.lft.to/lastmile_qr_scan", "ios": "https://dc.lft.to/lastmile_qr_scan"}, "fusion_lon": 0.0}, {"lat": 38.9228345, "is_disabled": 0, "type": "electric_scooter", "lon": -77.03659516666667, "bike_id": "3ea1380f8e49143b6eaec1c4717c1bdc", "fusion_lat": 0.0, "name": "3ea1380f8e49143b6eaec1c4717c1bdc", "is_reserved": 0, "rental_uris": {"android": "https://dc.lft.to/lastmile_qr_scan", "ios": "https://dc.lft.to/lastmile_qr_scan"}, "fusion_lon": 0.0}, {"lat": 38.887275833333334, "is_disabled": 0, "type": "electric_scooter", "lon": -77.0138965, "bike_id": "f426969de82d8bab916b00331e3f71be", "fusion_lat": 0.0, "name": "f426969de82d8bab916b00331e3f71be", "is_reserved": 0, "rental_uris": {"android": "https://dc.lft.to/lastmile_qr_scan", "ios": "https://dc.lft.to/lastmile_qr_scan"}, "fusion_lon": 0.0}, {"lat": 38.92124866666666, "is_disabled": 0, "type": "electric_scooter", "lon": -77.01809616666667, "bike_id": "9a4e930d2b60f6323fe957f57dbd5515", "fusion_lat": 0.0, "name": "9a4e930d2b60f6323fe957f57dbd5515", "is_reserved": 0, "rental_uris": {"android": "https://dc.lft.to/lastmile_qr_scan", "ios": "https://dc.lft.to/lastmile_qr_scan"}, "fusion_lon": 0.0}, {"lat": 38.862764, "is_disabled": 0, "type": "electric_scooter", "lon": -76.99232866666667, "bike_id": "76474ce9fc74715adc955f84bff00076", "fusion_lat": 0.0, "name": "76474ce9fc74715adc955f84bff00076", "is_reserved": 0, "rental_uris": {"android": "https://dc.lft.to/lastmile_qr_scan", "ios": "https://dc.lft.to/lastmile_qr_scan"}, "fusion_lon": 0.0}, {"lat": 38.872999166666666, "is_disabled": 0, "type": "electric_bike", "lon": -77.01569766666667, "bike_id": "b3c4c03fcdfef2178500ec624e953303", "fusion_lat": 0.0, "name": "b3c4c03fcdfef2178500ec624e953303", "is_reserved": 0, "rental_uris": {"android": "https://dc.lft.to/lastmile_qr_scan", "ios": "https://dc.lft.to/lastmile_qr_scan"}, "fusion_lon": 0.0}, {"lat": 38.922963, "is_disabled": 0, "type": "electric_scooter", "lon": -77.02244966666666, "bike_id": "fc4ad4da48045bbe377b56f5e9a8fe49", "fusion_lat": 0.0, "name": "fc4ad4da48045bbe377b56f5e9a8fe49", "is_reserved": 0, "rental_uris": {"android": "https://dc.lft.to/lastmile_qr_scan", "ios": "https://dc.lft.to/lastmile_qr_scan"}, "fusion_lon": 0.0}, {"lat": 38.941684333333335, "is_disabled": 0, "type": "electric_scooter", "lon": -77.02342833333333, "bike_id": "024416de0b7c3f2c74f36d1c7609ca0e", "fusion_lat": 0.0, "name": "024416de0b7c3f2c74f36d1c7609ca0e", "is_reserved": 0, "rental_uris": {"android": "https://dc.lft.to/lastmile_qr_scan", "ios": "https://dc.lft.to/lastmile_qr_scan"}, "fusion_lon": 0.0}, {"lat": 38.94940966666667, "is_disabled": 0, "type": "electric_scooter", "lon": -77.02019483333333, "bike_id": "e68b21be41246381de0d6c8542e77636", "fusion_lat": 0.0, "name": "e68b21be41246381de0d6c8542e77636", "is_reserved": 0, "rental_uris": {"android": "https://dc.lft.to/lastmile_qr_scan", "ios": "https://dc.lft.to/lastmile_qr_scan"}, "fusion_lon": 0.0}, {"lat": 38.919012, "is_disabled": 0, "type": "electric_scooter", "lon": -77.031966, "bike_id": "6e996ad0602dc9a2078c61628dc06a11", "fusion_lat": 0.0, "name": "6e996ad0602dc9a2078c61628dc06a11", "is_reserved": 0, "rental_uris": {"android": "https://dc.lft.to/lastmile_qr_scan", "ios": "https://dc.lft.to/lastmile_qr_scan"}, "fusion_lon": 0.0}, {"lat": 38.900566, "is_disabled": 0, "type": "electric_scooter", "lon": -77.01390633333334, "bike_id": "12965b7daef0cd5ad432fa628743d197", "fusion_lat": 0.0, "name": "12965b7daef0cd5ad432fa628743d197", "is_reserved": 0, "rental_uris": {"android": "https://dc.lft.to/lastmile_qr_scan", "ios": "https://dc.lft.to/lastmile_qr_scan"}, "fusion_lon": 0.0}, {"lat": 38.90489133333333, "is_disabled": 0, "type": "electric_scooter", "lon": -77.062714, "bike_id": "7ec7931e52cda7cb0c64c01c2d48171b", "fusion_lat": 0.0, "name": "7ec7931e52cda7cb0c64c01c2d48171b", "is_reserved": 0, "rental_uris": {"android": "https://dc.lft.to/lastmile_qr_scan", "ios": "https://dc.lft.to/lastmile_qr_scan"}, "fusion_lon": 0.0}, {"lat": 38.9168395, "is_disabled": 0, "type": "electric_scooter", "lon": -77.03273383333334, "bike_id": "b0f65f8d006974cd8b6b16058de4383a", "fusion_lat": 0.0, "name": "b0f65f8d006974cd8b6b16058de4383a", "is_reserved": 0, "rental_uris": {"android": "https://dc.lft.to/lastmile_qr_scan", "ios": "https://dc.lft.to/lastmile_qr_scan"}, "fusion_lon": 0.0}, {"lat": 38.923266, "is_disabled": 0, "type": "electric_scooter", "lon": -77.03787016666666, "bike_id": "f0d3a2762f2cbd387d2c139195ac7e16", "fusion_lat": 0.0, "name": "f0d3a2762f2cbd387d2c139195ac7e16", "is_reserved": 0, "rental_uris": {"android": "https://dc.lft.to/lastmile_qr_scan", "ios": "https://dc.lft.to/lastmile_qr_scan"}, "fusion_lon": 0.0}, {"lat": 38.926066, "is_disabled": 0, "type": "electric_scooter", "lon": -77.03683766666667, "bike_id": "ce58fcd472e0198c0fea296d3514a9e3", "fusion_lat": 0.0, "name": "ce58fcd472e0198c0fea296d3514a9e3", "is_reserved": 0, "rental_uris": {"android": "https://dc.lft.to/lastmile_qr_scan", "ios": "https://dc.lft.to/lastmile_qr_scan"}, "fusion_lon": 0.0}, {"lat": 38.9110105, "is_disabled": 0, "type": "electric_scooter", "lon": -77.03215233333333, "bike_id": "f1d852013998ca426751f0b3f615caac", "fusion_lat": 0.0, "name": "f1d852013998ca426751f0b3f615caac", "is_reserved": 0, "rental_uris": {"android": "https://dc.lft.to/lastmile_qr_scan", "ios": "https://dc.lft.to/lastmile_qr_scan"}, "fusion_lon": 0.0}, {"lat": 38.924269, "is_disabled": 0, "type": "electric_scooter", "lon": -77.04014333333333, "bike_id": "da27fbe1f27b1cd2cdcc0b5f33cc96ef", "fusion_lat": 0.0, "name": "da27fbe1f27b1cd2cdcc0b5f33cc96ef", "is_reserved": 0, "rental_uris": {"android": "https://dc.lft.to/lastmile_qr_scan", "ios": "https://dc.lft.to/lastmile_qr_scan"}, "fusion_lon": 0.0}, {"lat": 38.897192833333335, "is_disabled": 0, "type": "electric_scooter", "lon": -77.00715483333333, "bike_id": "0444796e8bf323c9e52b0fc06bc64012", "fusion_lat": 0.0, "name": "0444796e8bf323c9e52b0fc06bc64012", "is_reserved": 0, "rental_uris": {"android": "https://dc.lft.to/lastmile_qr_scan", "ios": "https://dc.lft.to/lastmile_qr_scan"}, "fusion_lon": 0.0}, {"lat": 38.89991416666667, "is_disabled": 0, "type": "electric_scooter", "lon": -77.0062085, "bike_id": "15da757e8be0c6402a374b5d9aea02d9", "fusion_lat": 0.0, "name": "15da757e8be0c6402a374b5d9aea02d9", "is_reserved": 0, "rental_uris": {"android": "https://dc.lft.to/lastmile_qr_scan", "ios": "https://dc.lft.to/lastmile_qr_scan"}, "fusion_lon": 0.0}, {"lat": 38.9049865, "is_disabled": 0, "type": "electric_scooter", "lon": -77.05375466666666, "bike_id": "d6727af325dc2ca2d4cc534e6c273acb", "fusion_lat": 0.0, "name": "d6727af325dc2ca2d4cc534e6c273acb", "is_reserved": 0, "rental_uris": {"android": "https://dc.lft.to/lastmile_qr_scan", "ios": "https://dc.lft.to/lastmile_qr_scan"}, "fusion_lon": 0.0}, {"lat": 38.91107216666666, "is_disabled": 0, "type": "electric_scooter", "lon": -77.04204516666667, "bike_id": "5efa8f2741e60d10b4a950474bcd8de6", "fusion_lat": 0.0, "name": "5efa8f2741e60d10b4a950474bcd8de6", "is_reserved": 0, "rental_uris": {"android": "https://dc.lft.to/lastmile_qr_scan", "ios": "https://dc.lft.to/lastmile_qr_scan"}, "fusion_lon": 0.0}, {"lat": 38.94430116666667, "is_disabled": 0, "type": "electric_scooter", "lon": -77.06304116666666, "bike_id": "bb093c84c8e629a1c2c481df63825781", "fusion_lat": 0.0, "name": "bb093c84c8e629a1c2c481df63825781", "is_reserved": 0, "rental_uris": {"android": "https://dc.lft.to/lastmile_qr_scan", "ios": "https://dc.lft.to/lastmile_qr_scan"}, "fusion_lon": 0.0}, {"lat": 38.92044283333333, "is_disabled": 0, "type": "electric_scooter", "lon": -77.02420666666667, "bike_id": "7b180694aed716d8f8e609cf688480e8", "fusion_lat": 0.0, "name": "7b180694aed716d8f8e609cf688480e8", "is_reserved": 0, "rental_uris": {"android": "https://dc.lft.to/lastmile_qr_scan", "ios": "https://dc.lft.to/lastmile_qr_scan"}, "fusion_lon": 0.0}, {"lat": 38.90503866666667, "is_disabled": 0, "type": "electric_scooter", "lon": -77.050772, "bike_id": "ace83935de9801bd7ffa194cf9e90e3d", "fusion_lat": 0.0, "name": "ace83935de9801bd7ffa194cf9e90e3d", "is_reserved": 0, "rental_uris": {"android": "https://dc.lft.to/lastmile_qr_scan", "ios": "https://dc.lft.to/lastmile_qr_scan"}, "fusion_lon": 0.0}, {"lat": 38.8746875, "is_disabled": 0, "type": "electric_scooter", "lon": -77.00550183333333, "bike_id": "0171f0a2e0393a20f8359c18c3a7c38f", "fusion_lat": 0.0, "name": "0171f0a2e0393a20f8359c18c3a7c38f", "is_reserved": 0, "rental_uris": {"android": "https://dc.lft.to/lastmile_qr_scan", "ios": "https://dc.lft.to/lastmile_qr_scan"}, "fusion_lon": 0.0}, {"lat": 38.921862, "is_disabled": 0, "type": "electric_scooter", "lon": -77.0319455, "bike_id": "e80dd4a6563b32270670dd7660ee81fb", "fusion_lat": 0.0, "name": "e80dd4a6563b32270670dd7660ee81fb", "is_reserved": 0, "rental_uris": {"android": "https://dc.lft.to/lastmile_qr_scan", "ios": "https://dc.lft.to/lastmile_qr_scan"}, "fusion_lon": 0.0}, {"lat": 38.87144383333333, "is_disabled": 0, "type": "electric_bike", "lon": -76.93671733333333, "bike_id": "e0950d2e689fce64068b546875b48594", "fusion_lat": 0.0, "name": "e0950d2e689fce64068b546875b48594", "is_reserved": 0, "rental_uris": {"android": "https://dc.lft.to/lastmile_qr_scan", "ios": "https://dc.lft.to/lastmile_qr_scan"}, "fusion_lon": 0.0}, {"lat": 38.8924625, "is_disabled": 0, "type": "electric_scooter", "lon": -76.94329183333333, "bike_id": "5af5b3d4ab7f79c6f1ac408c86bfb73d", "fusion_lat": 0.0, "name": "5af5b3d4ab7f79c6f1ac408c86bfb73d", "is_reserved": 0, "rental_uris": {"android": "https://dc.lft.to/lastmile_qr_scan", "ios": "https://dc.lft.to/lastmile_qr_scan"}, "fusion_lon": 0.0}, {"lat": 38.88314716666667, "is_disabled": 0, "type": "electric_scooter", "lon": -77.00939366666667, "bike_id": "cc0b63f0ab6acac1a38ecf4ef247d357", "fusion_lat": 0.0, "name": "cc0b63f0ab6acac1a38ecf4ef247d357", "is_reserved": 0, "rental_uris": {"android": "https://dc.lft.to/lastmile_qr_scan", "ios": "https://dc.lft.to/lastmile_qr_scan"}, "fusion_lon": 0.0}, {"lat": 38.905544666666664, "is_disabled": 0, "type": "electric_scooter", "lon": -77.00583333333333, "bike_id": "c45009c308435021d79a12e71c0e2592", "fusion_lat": 0.0, "name": "c45009c308435021d79a12e71c0e2592", "is_reserved": 0, "rental_uris": {"android": "https://dc.lft.to/lastmile_qr_scan", "ios": "https://dc.lft.to/lastmile_qr_scan"}, "fusion_lon": 0.0}, {"lat": 38.950843666666664, "is_disabled": 0, "type": "electric_bike", "lon": -77.01230533333333, "bike_id": "695fe0f139c8a4f4e2d221371424c7d7", "fusion_lat": 0.0, "name": "695fe0f139c8a4f4e2d221371424c7d7", "is_reserved": 0, "rental_uris": {"android": "https://dc.lft.to/lastmile_qr_scan", "ios": "https://dc.lft.to/lastmile_qr_scan"}, "fusion_lon": 0.0}, {"lat": 38.907131166666666, "is_disabled": 0, "type": "electric_scooter", "lon": -77.02677816666667, "bike_id": "f5d2f05b801f2f89ccc0fc12b09ea475", "fusion_lat": 0.0, "name": "f5d2f05b801f2f89ccc0fc12b09ea475", "is_reserved": 0, "rental_uris": {"android": "https://dc.lft.to/lastmile_qr_scan", "ios": "https://dc.lft.to/lastmile_qr_scan"}, "fusion_lon": 0.0}, {"lat": 38.9236045, "is_disabled": 0, "type": "electric_scooter", "lon": -77.04155883333334, "bike_id": "6a8f001f3871cc751b52d53b14442b79", "fusion_lat": 0.0, "name": "6a8f001f3871cc751b52d53b14442b79", "is_reserved": 0, "rental_uris": {"android": "https://dc.lft.to/lastmile_qr_scan", "ios": "https://dc.lft.to/lastmile_qr_scan"}, "fusion_lon": 0.0}, {"lat": 38.907031, "is_disabled": 0, "type": "electric_scooter", "lon": -77.04363716666667, "bike_id": "b69076bfc6d35d061ea5203ee51c7cbc", "fusion_lat": 0.0, "name": "b69076bfc6d35d061ea5203ee51c7cbc", "is_reserved": 0, "rental_uris": {"android": "https://dc.lft.to/lastmile_qr_scan", "ios": "https://dc.lft.to/lastmile_qr_scan"}, "fusion_lon": 0.0}, {"lat": 38.94779616666667, "is_disabled": 0, "type": "electric_scooter", "lon": -77.0793975, "bike_id": "789e41c28b700816aeb5a5fc02402fb8", "fusion_lat": 0.0, "name": "789e41c28b700816aeb5a5fc02402fb8", "is_reserved": 0, "rental_uris": {"android": "https://dc.lft.to/lastmile_qr_scan", "ios": "https://dc.lft.to/lastmile_qr_scan"}, "fusion_lon": 0.0}, {"lat": 38.9035495, "is_disabled": 0, "type": "electric_scooter", "lon": -77.03892966666666, "bike_id": "5556408238b2da81699327d19fe6bb45", "fusion_lat": 0.0, "name": "5556408238b2da81699327d19fe6bb45", "is_reserved": 0, "rental_uris": {"android": "https://dc.lft.to/lastmile_qr_scan", "ios": "https://dc.lft.to/lastmile_qr_scan"}, "fusion_lon": 0.0}, {"lat": 38.90528883333333, "is_disabled": 0, "type": "electric_scooter", "lon": -77.06448383333333, "bike_id": "496a79cb15df01406a1576edf932b25e", "fusion_lat": 0.0, "name": "496a79cb15df01406a1576edf932b25e", "is_reserved": 0, "rental_uris": {"android": "https://dc.lft.to/lastmile_qr_scan", "ios": "https://dc.lft.to/lastmile_qr_scan"}, "fusion_lon": 0.0}, {"lat": 38.923479, "is_disabled": 0, "type": "electric_bike", "lon": -76.99253166666666, "bike_id": "f5352302b6f2b572b7a4daa94e414167", "fusion_lat": 0.0, "name": "f5352302b6f2b572b7a4daa94e414167", "is_reserved": 0, "rental_uris": {"android": "https://dc.lft.to/lastmile_qr_scan", "ios": "https://dc.lft.to/lastmile_qr_scan"}, "fusion_lon": 0.0}, {"lat": 38.887407, "is_disabled": 0, "type": "electric_scooter", "lon": -77.02161816666667, "bike_id": "4901a5c7ece4ebbf8504520b932c5fda", "fusion_lat": 0.0, "name": "4901a5c7ece4ebbf8504520b932c5fda", "is_reserved": 0, "rental_uris": {"android": "https://dc.lft.to/lastmile_qr_scan", "ios": "https://dc.lft.to/lastmile_qr_scan"}, "fusion_lon": 0.0}, {"lat": 38.932336166666666, "is_disabled": 0, "type": "electric_scooter", "lon": -77.03281216666667, "bike_id": "b28ca5fade27347bed35c0e3b478659b", "fusion_lat": 0.0, "name": "b28ca5fade27347bed35c0e3b478659b", "is_reserved": 0, "rental_uris": {"android": "https://dc.lft.to/lastmile_qr_scan", "ios": "https://dc.lft.to/lastmile_qr_scan"}, "fusion_lon": 0.0}, {"lat": 38.915484166666666, "is_disabled": 0, "type": "electric_scooter", "lon": -77.0317285, "bike_id": "6826d7368ca3564899052041e5868542", "fusion_lat": 0.0, "name": "6826d7368ca3564899052041e5868542", "is_reserved": 0, "rental_uris": {"android": "https://dc.lft.to/lastmile_qr_scan", "ios": "https://dc.lft.to/lastmile_qr_scan"}, "fusion_lon": 0.0}, {"lat": 38.90954816666667, "is_disabled": 0, "type": "electric_scooter", "lon": -77.03948966666667, "bike_id": "2c62a6cb28f111741388b2fa35555798", "fusion_lat": 0.0, "name": "2c62a6cb28f111741388b2fa35555798", "is_reserved": 0, "rental_uris": {"android": "https://dc.lft.to/lastmile_qr_scan", "ios": "https://dc.lft.to/lastmile_qr_scan"}, "fusion_lon": 0.0}, {"lat": 38.93123716666667, "is_disabled": 0, "type": "electric_scooter", "lon": -77.05621416666666, "bike_id": "7a9db30b53935fec6f927f86687fa1b3", "fusion_lat": 0.0, "name": "7a9db30b53935fec6f927f86687fa1b3", "is_reserved": 0, "rental_uris": {"android": "https://dc.lft.to/lastmile_qr_scan", "ios": "https://dc.lft.to/lastmile_qr_scan"}, "fusion_lon": 0.0}, {"lat": 38.922040833333334, "is_disabled": 0, "type": "electric_scooter", "lon": -77.0401375, "bike_id": "49e0cf14c19504e0459d576520968d8c", "fusion_lat": 0.0, "name": "49e0cf14c19504e0459d576520968d8c", "is_reserved": 0, "rental_uris": {"android": "https://dc.lft.to/lastmile_qr_scan", "ios": "https://dc.lft.to/lastmile_qr_scan"}, "fusion_lon": 0.0}, {"lat": 38.947577333333335, "is_disabled": 0, "type": "electric_scooter", "lon": -77.06568283333333, "bike_id": "50b3ed40c2a1a62b36e7ca41e697e689", "fusion_lat": 0.0, "name": "50b3ed40c2a1a62b36e7ca41e697e689", "is_reserved": 0, "rental_uris": {"android": "https://dc.lft.to/lastmile_qr_scan", "ios": "https://dc.lft.to/lastmile_qr_scan"}, "fusion_lon": 0.0}, {"lat": 38.92059533333333, "is_disabled": 0, "type": "electric_scooter", "lon": -77.02222783333333, "bike_id": "4386783d26e365fe7a2fc08c702e2ac1", "fusion_lat": 0.0, "name": "4386783d26e365fe7a2fc08c702e2ac1", "is_reserved": 0, "rental_uris": {"android": "https://dc.lft.to/lastmile_qr_scan", "ios": "https://dc.lft.to/lastmile_qr_scan"}, "fusion_lon": 0.0}, {"lat": 38.89315783333333, "is_disabled": 0, "type": "electric_scooter", "lon": -77.04490866666667, "bike_id": "5867ee8b6a8bace637156f05344a77c8", "fusion_lat": 0.0, "name": "5867ee8b6a8bace637156f05344a77c8", "is_reserved": 0, "rental_uris": {"android": "https://dc.lft.to/lastmile_qr_scan", "ios": "https://dc.lft.to/lastmile_qr_scan"}, "fusion_lon": 0.0}, {"lat": 38.88731533333333, "is_disabled": 0, "type": "electric_scooter", "lon": -77.02072933333334, "bike_id": "5aa7b5f6823f2d494e556f209ef991b1", "fusion_lat": 0.0, "name": "5aa7b5f6823f2d494e556f209ef991b1", "is_reserved": 0, "rental_uris": {"android": "https://dc.lft.to/lastmile_qr_scan", "ios": "https://dc.lft.to/lastmile_qr_scan"}, "fusion_lon": 0.0}, {"lat": 38.86345816666667, "is_disabled": 0, "type": "electric_scooter", "lon": -76.99005083333333, "bike_id": "15b1f5319b0e5af49fad50feff6c6bd3", "fusion_lat": 0.0, "name": "15b1f5319b0e5af49fad50feff6c6bd3", "is_reserved": 0, "rental_uris": {"android": "https://dc.lft.to/lastmile_qr_scan", "ios": "https://dc.lft.to/lastmile_qr_scan"}, "fusion_lon": 0.0}, {"lat": 38.9212605, "is_disabled": 0, "type": "electric_scooter", "lon": -77.04439, "bike_id": "316a7242f1da8f991ec227e451a85f02", "fusion_lat": 0.0, "name": "316a7242f1da8f991ec227e451a85f02", "is_reserved": 0, "rental_uris": {"android": "https://dc.lft.to/lastmile_qr_scan", "ios": "https://dc.lft.to/lastmile_qr_scan"}, "fusion_lon": 0.0}, {"lat": 38.904391, "is_disabled": 0, "type": "electric_scooter", "lon": -77.06106783333334, "bike_id": "01df9ab573b4a553d777b4226d5cfe98", "fusion_lat": 0.0, "name": "01df9ab573b4a553d777b4226d5cfe98", "is_reserved": 0, "rental_uris": {"android": "https://dc.lft.to/lastmile_qr_scan", "ios": "https://dc.lft.to/lastmile_qr_scan"}, "fusion_lon": 0.0}, {"lat": 38.957753333333336, "is_disabled": 0, "type": "electric_scooter", "lon": -77.0246675, "bike_id": "ae5eaad6d8f14f27acbb97e58b7641f6", "fusion_lat": 0.0, "name": "ae5eaad6d8f14f27acbb97e58b7641f6", "is_reserved": 0, "rental_uris": {"android": "https://dc.lft.to/lastmile_qr_scan", "ios": "https://dc.lft.to/lastmile_qr_scan"}, "fusion_lon": 0.0}, {"lat": 38.89801833333333, "is_disabled": 0, "type": "electric_scooter", "lon": -77.03285783333334, "bike_id": "ab9856a282265ab6a3773fa843862bc7", "fusion_lat": 0.0, "name": "ab9856a282265ab6a3773fa843862bc7", "is_reserved": 0, "rental_uris": {"android": "https://dc.lft.to/lastmile_qr_scan", "ios": "https://dc.lft.to/lastmile_qr_scan"}, "fusion_lon": 0.0}, {"lat": 38.84291016666667, "is_disabled": 0, "type": "electric_scooter", "lon": -76.999516, "bike_id": "5f3fa85890bb37874269a4bb0f863d43", "fusion_lat": 0.0, "name": "5f3fa85890bb37874269a4bb0f863d43", "is_reserved": 0, "rental_uris": {"android": "https://dc.lft.to/lastmile_qr_scan", "ios": "https://dc.lft.to/lastmile_qr_scan"}, "fusion_lon": 0.0}, {"lat": 38.899169666666666, "is_disabled": 0, "type": "electric_scooter", "lon": -76.933811, "bike_id": "97442d93b829f25b710b1603670a9867", "fusion_lat": 0.0, "name": "97442d93b829f25b710b1603670a9867", "is_reserved": 0, "rental_uris": {"android": "https://dc.lft.to/lastmile_qr_scan", "ios": "https://dc.lft.to/lastmile_qr_scan"}, "fusion_lon": 0.0}, {"lat": 38.955483, "is_disabled": 0, "type": "electric_bike", "lon": -76.935418, "bike_id": "c832412f4ceb03970654afc4146c1951", "fusion_lat": 0.0, "name": "c832412f4ceb03970654afc4146c1951", "is_reserved": 0, "rental_uris": {"android": "https://dc.lft.to/lastmile_qr_scan", "ios": "https://dc.lft.to/lastmile_qr_scan"}, "fusion_lon": 0.0}, {"lat": 38.92328783333333, "is_disabled": 0, "type": "electric_scooter", "lon": -77.05690666666666, "bike_id": "dba4dfc8a968a4dabae11598685413be", "fusion_lat": 0.0, "name": "dba4dfc8a968a4dabae11598685413be", "is_reserved": 0, "rental_uris": {"android": "https://dc.lft.to/lastmile_qr_scan", "ios": "https://dc.lft.to/lastmile_qr_scan"}, "fusion_lon": 0.0}, {"lat": 38.924433, "is_disabled": 0, "type": "electric_scooter", "lon": -77.0413245, "bike_id": "6fbc2def5f1dad2b8d13e05cb82fa1ec", "fusion_lat": 0.0, "name": "6fbc2def5f1dad2b8d13e05cb82fa1ec", "is_reserved": 0, "rental_uris": {"android": "https://dc.lft.to/lastmile_qr_scan", "ios": "https://dc.lft.to/lastmile_qr_scan"}, "fusion_lon": 0.0}, {"lat": 38.89192666666667, "is_disabled": 0, "type": "electric_scooter", "lon": -77.02459516666667, "bike_id": "5de138657a6ffce93f67c7839ab635a2", "fusion_lat": 0.0, "name": "5de138657a6ffce93f67c7839ab635a2", "is_reserved": 0, "rental_uris": {"android": "https://dc.lft.to/lastmile_qr_scan", "ios": "https://dc.lft.to/lastmile_qr_scan"}, "fusion_lon": 0.0}, {"lat": 38.9091885, "is_disabled": 0, "type": "electric_scooter", "lon": -77.0319455, "bike_id": "1feca8d8802e724260bee6e90b5e051c", "fusion_lat": 0.0, "name": "1feca8d8802e724260bee6e90b5e051c", "is_reserved": 0, "rental_uris": {"android": "https://dc.lft.to/lastmile_qr_scan", "ios": "https://dc.lft.to/lastmile_qr_scan"}, "fusion_lon": 0.0}, {"lat": 38.91193083333334, "is_disabled": 0, "type": "electric_scooter", "lon": -77.0609205, "bike_id": "ca45eb6df6551f8eed1a4afbb436ffd5", "fusion_lat": 0.0, "name": "ca45eb6df6551f8eed1a4afbb436ffd5", "is_reserved": 0, "rental_uris": {"android": "https://dc.lft.to/lastmile_qr_scan", "ios": "https://dc.lft.to/lastmile_qr_scan"}, "fusion_lon": 0.0}, {"lat": 38.90624433333333, "is_disabled": 0, "type": "electric_scooter", "lon": -77.03428816666667, "bike_id": "447b5c5459157e09e487e8496ffcb495", "fusion_lat": 0.0, "name": "447b5c5459157e09e487e8496ffcb495", "is_reserved": 0, "rental_uris": {"android": "https://dc.lft.to/lastmile_qr_scan", "ios": "https://dc.lft.to/lastmile_qr_scan"}, "fusion_lon": 0.0}, {"lat": 38.92112233333334, "is_disabled": 0, "type": "electric_scooter", "lon": -77.04207, "bike_id": "11ed957ca62bfac7ddb5d791253d22c6", "fusion_lat": 0.0, "name": "11ed957ca62bfac7ddb5d791253d22c6", "is_reserved": 0, "rental_uris": {"android": "https://dc.lft.to/lastmile_qr_scan", "ios": "https://dc.lft.to/lastmile_qr_scan"}, "fusion_lon": 0.0}, {"lat": 38.92667516666667, "is_disabled": 0, "type": "electric_scooter", "lon": -77.05364616666667, "bike_id": "87bd4e06b2324e7d9f059767359bb9de", "fusion_lat": 0.0, "name": "87bd4e06b2324e7d9f059767359bb9de", "is_reserved": 0, "rental_uris": {"android": "https://dc.lft.to/lastmile_qr_scan", "ios": "https://dc.lft.to/lastmile_qr_scan"}, "fusion_lon": 0.0}, {"lat": 38.89220566666667, "is_disabled": 0, "type": "electric_scooter", "lon": -77.0486225, "bike_id": "0ba763ae9542bdf1f79d88c9c852bf7b", "fusion_lat": 0.0, "name": "0ba763ae9542bdf1f79d88c9c852bf7b", "is_reserved": 0, "rental_uris": {"android": "https://dc.lft.to/lastmile_qr_scan", "ios": "https://dc.lft.to/lastmile_qr_scan"}, "fusion_lon": 0.0}, {"lat": 38.887608666666665, "is_disabled": 0, "type": "electric_scooter", "lon": -76.956008, "bike_id": "47f4f0c7a07cf7af6f634a197525a66a", "fusion_lat": 0.0, "name": "47f4f0c7a07cf7af6f634a197525a66a", "is_reserved": 0, "rental_uris": {"android": "https://dc.lft.to/lastmile_qr_scan", "ios": "https://dc.lft.to/lastmile_qr_scan"}, "fusion_lon": 0.0}, {"lat": 38.93909633333333, "is_disabled": 0, "type": "electric_scooter", "lon": -77.02481633333333, "bike_id": "f136e3b7dad086c8e71128831179ed90", "fusion_lat": 0.0, "name": "f136e3b7dad086c8e71128831179ed90", "is_reserved": 0, "rental_uris": {"android": "https://dc.lft.to/lastmile_qr_scan", "ios": "https://dc.lft.to/lastmile_qr_scan"}, "fusion_lon": 0.0}, {"lat": 38.9246235, "is_disabled": 0, "type": "electric_scooter", "lon": -77.0366695, "bike_id": "e44c9b933293570bddb2a310bac69f44", "fusion_lat": 0.0, "name": "e44c9b933293570bddb2a310bac69f44", "is_reserved": 0, "rental_uris": {"android": "https://dc.lft.to/lastmile_qr_scan", "ios": "https://dc.lft.to/lastmile_qr_scan"}, "fusion_lon": 0.0}, {"lat": 38.88709583333333, "is_disabled": 0, "type": "electric_scooter", "lon": -77.03208816666667, "bike_id": "9c37e6e0f8eda1f7e00a6bb4c9a2f739", "fusion_lat": 0.0, "name": "9c37e6e0f8eda1f7e00a6bb4c9a2f739", "is_reserved": 0, "rental_uris": {"android": "https://dc.lft.to/lastmile_qr_scan", "ios": "https://dc.lft.to/lastmile_qr_scan"}, "fusion_lon": 0.0}, {"lat": 38.91707783333333, "is_disabled": 0, "type": "electric_scooter", "lon": -77.03126416666667, "bike_id": "63d12134f0cc56df315c67cd276ec153", "fusion_lat": 0.0, "name": "63d12134f0cc56df315c67cd276ec153", "is_reserved": 0, "rental_uris": {"android": "https://dc.lft.to/lastmile_qr_scan", "ios": "https://dc.lft.to/lastmile_qr_scan"}, "fusion_lon": 0.0}, {"lat": 38.921456666666664, "is_disabled": 0, "type": "electric_scooter", "lon": -76.96928666666666, "bike_id": "c4c4ffb5d32a8ac5acd7a90cc3333859", "fusion_lat": 0.0, "name": "c4c4ffb5d32a8ac5acd7a90cc3333859", "is_reserved": 0, "rental_uris": {"android": "https://dc.lft.to/lastmile_qr_scan", "ios": "https://dc.lft.to/lastmile_qr_scan"}, "fusion_lon": 0.0}, {"lat": 38.86164383333333, "is_disabled": 0, "type": "electric_bike", "lon": -76.9507135, "bike_id": "bd1a4422b9bdb18d2558c6e718ab5d92", "fusion_lat": 0.0, "name": "bd1a4422b9bdb18d2558c6e718ab5d92", "is_reserved": 0, "rental_uris": {"android": "https://dc.lft.to/lastmile_qr_scan", "ios": "https://dc.lft.to/lastmile_qr_scan"}, "fusion_lon": 0.0}, {"lat": 38.9372305, "is_disabled": 0, "type": "electric_scooter", "lon": -77.032751, "bike_id": "0616f40e4a3508cda4056f14aa69d91f", "fusion_lat": 0.0, "name": "0616f40e4a3508cda4056f14aa69d91f", "is_reserved": 0, "rental_uris": {"android": "https://dc.lft.to/lastmile_qr_scan", "ios": "https://dc.lft.to/lastmile_qr_scan"}, "fusion_lon": 0.0}, {"lat": 38.902052833333336, "is_disabled": 0, "type": "electric_scooter", "lon": -77.04706283333333, "bike_id": "bdfbfe8dc4ea5e2cc7dadd7c78b35002", "fusion_lat": 0.0, "name": "bdfbfe8dc4ea5e2cc7dadd7c78b35002", "is_reserved": 0, "rental_uris": {"android": "https://dc.lft.to/lastmile_qr_scan", "ios": "https://dc.lft.to/lastmile_qr_scan"}, "fusion_lon": 0.0}, {"lat": 38.917570166666664, "is_disabled": 0, "type": "electric_scooter", "lon": -77.02392016666667, "bike_id": "5b27a1927adfed7217e6ce4da3c72d06", "fusion_lat": 0.0, "name": "5b27a1927adfed7217e6ce4da3c72d06", "is_reserved": 0, "rental_uris": {"android": "https://dc.lft.to/lastmile_qr_scan", "ios": "https://dc.lft.to/lastmile_qr_scan"}, "fusion_lon": 0.0}, {"lat": 38.90394, "is_disabled": 0, "type": "electric_scooter", "lon": -77.0440895, "bike_id": "24d47a1cf2271fdcb4e33f55aac8576e", "fusion_lat": 0.0, "name": "24d47a1cf2271fdcb4e33f55aac8576e", "is_reserved": 0, "rental_uris": {"android": "https://dc.lft.to/lastmile_qr_scan", "ios": "https://dc.lft.to/lastmile_qr_scan"}, "fusion_lon": 0.0}, {"lat": 38.91991316666667, "is_disabled": 0, "type": "electric_scooter", "lon": -77.04766416666666, "bike_id": "c1d60b57389e48a0db86a5cb25fabc32", "fusion_lat": 0.0, "name": "c1d60b57389e48a0db86a5cb25fabc32", "is_reserved": 0, "rental_uris": {"android": "https://dc.lft.to/lastmile_qr_scan", "ios": "https://dc.lft.to/lastmile_qr_scan"}, "fusion_lon": 0.0}, {"lat": 38.91392466666667, "is_disabled": 0, "type": "electric_scooter", "lon": -77.03062916666667, "bike_id": "553d1c38a89e04acd4a9132b62e1f383", "fusion_lat": 0.0, "name": "553d1c38a89e04acd4a9132b62e1f383", "is_reserved": 0, "rental_uris": {"android": "https://dc.lft.to/lastmile_qr_scan", "ios": "https://dc.lft.to/lastmile_qr_scan"}, "fusion_lon": 0.0}, {"lat": 38.9232005, "is_disabled": 0, "type": "electric_scooter", "lon": -77.0396415, "bike_id": "be22293f85d3191e0d5137150c18e220", "fusion_lat": 0.0, "name": "be22293f85d3191e0d5137150c18e220", "is_reserved": 0, "rental_uris": {"android": "https://dc.lft.to/lastmile_qr_scan", "ios": "https://dc.lft.to/lastmile_qr_scan"}, "fusion_lon": 0.0}, {"lat": 38.8960525, "is_disabled": 0, "type": "electric_scooter", "lon": -76.95595683333333, "bike_id": "a3cf5e2f15f327aac46474a27bf1acc7", "fusion_lat": 0.0, "name": "a3cf5e2f15f327aac46474a27bf1acc7", "is_reserved": 0, "rental_uris": {"android": "https://dc.lft.to/lastmile_qr_scan", "ios": "https://dc.lft.to/lastmile_qr_scan"}, "fusion_lon": 0.0}, {"lat": 38.886539666666664, "is_disabled": 0, "type": "electric_bike", "lon": -77.16240733333333, "bike_id": "b04dca0065f2e663ffde7914cb6959d5", "fusion_lat": 0.0, "name": "b04dca0065f2e663ffde7914cb6959d5", "is_reserved": 0, "rental_uris": {"android": "https://dc.lft.to/lastmile_qr_scan", "ios": "https://dc.lft.to/lastmile_qr_scan"}, "fusion_lon": 0.0}, {"lat": 38.92754583333333, "is_disabled": 0, "type": "electric_scooter", "lon": -77.0322315, "bike_id": "f2a0d295259f7366bbb431e92b4ebbf7", "fusion_lat": 0.0, "name": "f2a0d295259f7366bbb431e92b4ebbf7", "is_reserved": 0, "rental_uris": {"android": "https://dc.lft.to/lastmile_qr_scan", "ios": "https://dc.lft.to/lastmile_qr_scan"}, "fusion_lon": 0.0}, {"lat": 38.914573, "is_disabled": 0, "type": "electric_scooter", "lon": -77.03217283333333, "bike_id": "a33b5cc06bcf44ec536bbad5b10219eb", "fusion_lat": 0.0, "name": "a33b5cc06bcf44ec536bbad5b10219eb", "is_reserved": 0, "rental_uris": {"android": "https://dc.lft.to/lastmile_qr_scan", "ios": "https://dc.lft.to/lastmile_qr_scan"}, "fusion_lon": 0.0}, {"lat": 38.9213835, "is_disabled": 0, "type": "electric_scooter", "lon": -77.04228266666667, "bike_id": "428b342b384fa3983cc578f21fa7424b", "fusion_lat": 0.0, "name": "428b342b384fa3983cc578f21fa7424b", "is_reserved": 0, "rental_uris": {"android": "https://dc.lft.to/lastmile_qr_scan", "ios": "https://dc.lft.to/lastmile_qr_scan"}, "fusion_lon": 0.0}, {"lat": 38.9046425, "is_disabled": 0, "type": "electric_scooter", "lon": -77.0078015, "bike_id": "d69c60f73ecd8b1642d30ac13b13f38a", "fusion_lat": 0.0, "name": "d69c60f73ecd8b1642d30ac13b13f38a", "is_reserved": 0, "rental_uris": {"android": "https://dc.lft.to/lastmile_qr_scan", "ios": "https://dc.lft.to/lastmile_qr_scan"}, "fusion_lon": 0.0}, {"lat": 38.91875366666667, "is_disabled": 0, "type": "electric_scooter", "lon": -77.03925866666667, "bike_id": "682175dffbdd7a0c1785317e79125fa0", "fusion_lat": 0.0, "name": "682175dffbdd7a0c1785317e79125fa0", "is_reserved": 0, "rental_uris": {"android": "https://dc.lft.to/lastmile_qr_scan", "ios": "https://dc.lft.to/lastmile_qr_scan"}, "fusion_lon": 0.0}, {"lat": 38.911043, "is_disabled": 0, "type": "electric_scooter", "lon": -77.04884033333333, "bike_id": "2a74ba9ae3ef2a6deac947b00e82b90f", "fusion_lat": 0.0, "name": "2a74ba9ae3ef2a6deac947b00e82b90f", "is_reserved": 0, "rental_uris": {"android": "https://dc.lft.to/lastmile_qr_scan", "ios": "https://dc.lft.to/lastmile_qr_scan"}, "fusion_lon": 0.0}, {"lat": 38.921434833333336, "is_disabled": 0, "type": "electric_scooter", "lon": -77.0435975, "bike_id": "c140ca2d18633fc0fbc35bb3261be0c4", "fusion_lat": 0.0, "name": "c140ca2d18633fc0fbc35bb3261be0c4", "is_reserved": 0, "rental_uris": {"android": "https://dc.lft.to/lastmile_qr_scan", "ios": "https://dc.lft.to/lastmile_qr_scan"}, "fusion_lon": 0.0}, {"lat": 38.899583166666666, "is_disabled": 0, "type": "electric_scooter", "lon": -77.02495216666667, "bike_id": "034d817e6664ab977d978beae2fe16ae", "fusion_lat": 0.0, "name": "034d817e6664ab977d978beae2fe16ae", "is_reserved": 0, "rental_uris": {"android": "https://dc.lft.to/lastmile_qr_scan", "ios": "https://dc.lft.to/lastmile_qr_scan"}, "fusion_lon": 0.0}, {"lat": 38.89832833333333, "is_disabled": 0, "type": "electric_scooter", "lon": -76.94638866666666, "bike_id": "66cbdb5ae8a80d06ac9558da49562c60", "fusion_lat": 0.0, "name": "66cbdb5ae8a80d06ac9558da49562c60", "is_reserved": 0, "rental_uris": {"android": "https://dc.lft.to/lastmile_qr_scan", "ios": "https://dc.lft.to/lastmile_qr_scan"}, "fusion_lon": 0.0}, {"lat": 38.964944333333335, "is_disabled": 0, "type": "electric_bike", "lon": -77.0649685, "bike_id": "d4a578d1568dd0c4c9e565a9d2c5288f", "fusion_lat": 0.0, "name": "d4a578d1568dd0c4c9e565a9d2c5288f", "is_reserved": 0, "rental_uris": {"android": "https://dc.lft.to/lastmile_qr_scan", "ios": "https://dc.lft.to/lastmile_qr_scan"}, "fusion_lon": 0.0}, {"lat": 38.8665875, "is_disabled": 0, "type": "electric_scooter", "lon": -76.98904333333333, "bike_id": "478e6cf537c80dd961cfcaa37856e700", "fusion_lat": 0.0, "name": "478e6cf537c80dd961cfcaa37856e700", "is_reserved": 0, "rental_uris": {"android": "https://dc.lft.to/lastmile_qr_scan", "ios": "https://dc.lft.to/lastmile_qr_scan"}, "fusion_lon": 0.0}, {"lat": 38.903733333333335, "is_disabled": 0, "type": "electric_scooter", "lon": -77.04389816666666, "bike_id": "dec814efa7727029c698092f7d33d3fa", "fusion_lat": 0.0, "name": "dec814efa7727029c698092f7d33d3fa", "is_reserved": 0, "rental_uris": {"android": "https://dc.lft.to/lastmile_qr_scan", "ios": "https://dc.lft.to/lastmile_qr_scan"}, "fusion_lon": 0.0}, {"lat": 38.90454116666667, "is_disabled": 0, "type": "electric_scooter", "lon": -77.04032116666667, "bike_id": "c750a5a7b5845f269a8b2e1e2415a957", "fusion_lat": 0.0, "name": "c750a5a7b5845f269a8b2e1e2415a957", "is_reserved": 0, "rental_uris": {"android": "https://dc.lft.to/lastmile_qr_scan", "ios": "https://dc.lft.to/lastmile_qr_scan"}, "fusion_lon": 0.0}, {"lat": 38.889692, "is_disabled": 0, "type": "electric_scooter", "lon": -76.9373735, "bike_id": "cc2824bf9dde68e127516411ca35f4dc", "fusion_lat": 0.0, "name": "cc2824bf9dde68e127516411ca35f4dc", "is_reserved": 0, "rental_uris": {"android": "https://dc.lft.to/lastmile_qr_scan", "ios": "https://dc.lft.to/lastmile_qr_scan"}, "fusion_lon": 0.0}, {"lat": 38.907498, "is_disabled": 0, "type": "electric_scooter", "lon": -76.999072, "bike_id": "3d500306c4eb42caeac9fc6ca30474e7", "fusion_lat": 0.0, "name": "3d500306c4eb42caeac9fc6ca30474e7", "is_reserved": 0, "rental_uris": {"android": "https://dc.lft.to/lastmile_qr_scan", "ios": "https://dc.lft.to/lastmile_qr_scan"}, "fusion_lon": 0.0}, {"lat": 38.925013, "is_disabled": 0, "type": "electric_scooter", "lon": -77.04103983333333, "bike_id": "7af5b55ee7ae2156b318de6dd965850b", "fusion_lat": 0.0, "name": "7af5b55ee7ae2156b318de6dd965850b", "is_reserved": 0, "rental_uris": {"android": "https://dc.lft.to/lastmile_qr_scan", "ios": "https://dc.lft.to/lastmile_qr_scan"}, "fusion_lon": 0.0}, {"lat": 38.90529133333333, "is_disabled": 0, "type": "electric_scooter", "lon": -77.050202, "bike_id": "b7d73add3a7c992a4b8c393dcefc496b", "fusion_lat": 0.0, "name": "b7d73add3a7c992a4b8c393dcefc496b", "is_reserved": 0, "rental_uris": {"android": "https://dc.lft.to/lastmile_qr_scan", "ios": "https://dc.lft.to/lastmile_qr_scan"}, "fusion_lon": 0.0}, {"lat": 38.87455966666667, "is_disabled": 0, "type": "electric_scooter", "lon": -77.00510783333333, "bike_id": "3afb262b33f22f5093602f9b633ef8c9", "fusion_lat": 0.0, "name": "3afb262b33f22f5093602f9b633ef8c9", "is_reserved": 0, "rental_uris": {"android": "https://dc.lft.to/lastmile_qr_scan", "ios": "https://dc.lft.to/lastmile_qr_scan"}, "fusion_lon": 0.0}, {"lat": 38.9214125, "is_disabled": 0, "type": "electric_scooter", "lon": -77.03319966666666, "bike_id": "016968228b5c38df2c5579c6c0a82f97", "fusion_lat": 0.0, "name": "016968228b5c38df2c5579c6c0a82f97", "is_reserved": 0, "rental_uris": {"android": "https://dc.lft.to/lastmile_qr_scan", "ios": "https://dc.lft.to/lastmile_qr_scan"}, "fusion_lon": 0.0}, {"lat": 38.92417233333333, "is_disabled": 0, "type": "electric_scooter", "lon": -77.05067633333333, "bike_id": "38f9148070eb216dcce551f6de051137", "fusion_lat": 0.0, "name": "38f9148070eb216dcce551f6de051137", "is_reserved": 0, "rental_uris": {"android": "https://dc.lft.to/lastmile_qr_scan", "ios": "https://dc.lft.to/lastmile_qr_scan"}, "fusion_lon": 0.0}, {"lat": 38.884234, "is_disabled": 0, "type": "electric_scooter", "lon": -76.95763016666666, "bike_id": "6666838b1a70d14a972723a1af64e1b9", "fusion_lat": 0.0, "name": "6666838b1a70d14a972723a1af64e1b9", "is_reserved": 0, "rental_uris": {"android": "https://dc.lft.to/lastmile_qr_scan", "ios": "https://dc.lft.to/lastmile_qr_scan"}, "fusion_lon": 0.0}, {"lat": 38.909507166666664, "is_disabled": 0, "type": "electric_scooter", "lon": -77.046714, "bike_id": "ec3a39d2d228c72133076aa325f94b3b", "fusion_lat": 0.0, "name": "ec3a39d2d228c72133076aa325f94b3b", "is_reserved": 0, "rental_uris": {"android": "https://dc.lft.to/lastmile_qr_scan", "ios": "https://dc.lft.to/lastmile_qr_scan"}, "fusion_lon": 0.0}, {"lat": 38.91272883333333, "is_disabled": 0, "type": "electric_scooter", "lon": -77.02248316666666, "bike_id": "5d81a9165d64fa65177f80bbd0a2c5b0", "fusion_lat": 0.0, "name": "5d81a9165d64fa65177f80bbd0a2c5b0", "is_reserved": 0, "rental_uris": {"android": "https://dc.lft.to/lastmile_qr_scan", "ios": "https://dc.lft.to/lastmile_qr_scan"}, "fusion_lon": 0.0}, {"lat": 38.905725, "is_disabled": 0, "type": "electric_scooter", "lon": -77.00588533333334, "bike_id": "ba3330e2265f8b391745bcefc62f1fc5", "fusion_lat": 0.0, "name": "ba3330e2265f8b391745bcefc62f1fc5", "is_reserved": 0, "rental_uris": {"android": "https://dc.lft.to/lastmile_qr_scan", "ios": "https://dc.lft.to/lastmile_qr_scan"}, "fusion_lon": 0.0}, {"lat": 38.912709666666665, "is_disabled": 0, "type": "electric_scooter", "lon": -77.02979216666667, "bike_id": "da6bb3f6e3c338668adbb58040da569c", "fusion_lat": 0.0, "name": "da6bb3f6e3c338668adbb58040da569c", "is_reserved": 0, "rental_uris": {"android": "https://dc.lft.to/lastmile_qr_scan", "ios": "https://dc.lft.to/lastmile_qr_scan"}, "fusion_lon": 0.0}, {"lat": 38.900096, "is_disabled": 0, "type": "electric_scooter", "lon": -76.99867583333334, "bike_id": "7a1f235a1bafabcbfc393ebc838bed76", "fusion_lat": 0.0, "name": "7a1f235a1bafabcbfc393ebc838bed76", "is_reserved": 0, "rental_uris": {"android": "https://dc.lft.to/lastmile_qr_scan", "ios": "https://dc.lft.to/lastmile_qr_scan"}, "fusion_lon": 0.0}, {"lat": 38.93059133333333, "is_disabled": 0, "type": "electric_scooter", "lon": -77.0225925, "bike_id": "807d7d48cfbbf57cd7085c5e6a886ee2", "fusion_lat": 0.0, "name": "807d7d48cfbbf57cd7085c5e6a886ee2", "is_reserved": 0, "rental_uris": {"android": "https://dc.lft.to/lastmile_qr_scan", "ios": "https://dc.lft.to/lastmile_qr_scan"}, "fusion_lon": 0.0}, {"lat": 38.9259775, "is_disabled": 0, "type": "electric_scooter", "lon": -77.056972, "bike_id": "487e0481f75aec3800b19dc0b2cc848e", "fusion_lat": 0.0, "name": "487e0481f75aec3800b19dc0b2cc848e", "is_reserved": 0, "rental_uris": {"android": "https://dc.lft.to/lastmile_qr_scan", "ios": "https://dc.lft.to/lastmile_qr_scan"}, "fusion_lon": 0.0}, {"lat": 38.923226166666666, "is_disabled": 0, "type": "electric_scooter", "lon": -77.03910683333334, "bike_id": "6ae28ef21688b04d959178328fae59ce", "fusion_lat": 0.0, "name": "6ae28ef21688b04d959178328fae59ce", "is_reserved": 0, "rental_uris": {"android": "https://dc.lft.to/lastmile_qr_scan", "ios": "https://dc.lft.to/lastmile_qr_scan"}, "fusion_lon": 0.0}, {"lat": 38.894636166666665, "is_disabled": 0, "type": "electric_bike", "lon": -76.94840933333333, "bike_id": "54afbea1fdffeaa53359d89c3624bfed", "fusion_lat": 0.0, "name": "54afbea1fdffeaa53359d89c3624bfed", "is_reserved": 0, "rental_uris": {"android": "https://dc.lft.to/lastmile_qr_scan", "ios": "https://dc.lft.to/lastmile_qr_scan"}, "fusion_lon": 0.0}, {"lat": 38.90109183333333, "is_disabled": 0, "type": "electric_scooter", "lon": -77.03202266666666, "bike_id": "4a76b8a8a3526d22d5f0bd6078889a74", "fusion_lat": 0.0, "name": "4a76b8a8a3526d22d5f0bd6078889a74", "is_reserved": 0, "rental_uris": {"android": "https://dc.lft.to/lastmile_qr_scan", "ios": "https://dc.lft.to/lastmile_qr_scan"}, "fusion_lon": 0.0}, {"lat": 38.909467166666666, "is_disabled": 0, "type": "electric_scooter", "lon": -77.03378966666666, "bike_id": "5add715775d71deec0a08a5082e903f0", "fusion_lat": 0.0, "name": "5add715775d71deec0a08a5082e903f0", "is_reserved": 0, "rental_uris": {"android": "https://dc.lft.to/lastmile_qr_scan", "ios": "https://dc.lft.to/lastmile_qr_scan"}, "fusion_lon": 0.0}, {"lat": 38.91682183333333, "is_disabled": 0, "type": "electric_scooter", "lon": -77.0297235, "bike_id": "a0cab6d29661d0db5cf8a0e0aacf592f", "fusion_lat": 0.0, "name": "a0cab6d29661d0db5cf8a0e0aacf592f", "is_reserved": 0, "rental_uris": {"android": "https://dc.lft.to/lastmile_qr_scan", "ios": "https://dc.lft.to/lastmile_qr_scan"}, "fusion_lon": 0.0}, {"lat": 38.91608383333333, "is_disabled": 0, "type": "electric_scooter", "lon": -77.02305233333334, "bike_id": "e8b73980fd615b9c1023dbd4073a6769", "fusion_lat": 0.0, "name": "e8b73980fd615b9c1023dbd4073a6769", "is_reserved": 0, "rental_uris": {"android": "https://dc.lft.to/lastmile_qr_scan", "ios": "https://dc.lft.to/lastmile_qr_scan"}, "fusion_lon": 0.0}, {"lat": 38.925873, "is_disabled": 0, "type": "electric_scooter", "lon": -77.03227416666667, "bike_id": "5cd93bb003ebacaf0af049969e04db3a", "fusion_lat": 0.0, "name": "5cd93bb003ebacaf0af049969e04db3a", "is_reserved": 0, "rental_uris": {"android": "https://dc.lft.to/lastmile_qr_scan", "ios": "https://dc.lft.to/lastmile_qr_scan"}, "fusion_lon": 0.0}, {"lat": 38.911019, "is_disabled": 0, "type": "electric_scooter", "lon": -77.02139116666666, "bike_id": "488bbb4a65ad22585c3fb7446e2b75cb", "fusion_lat": 0.0, "name": "488bbb4a65ad22585c3fb7446e2b75cb", "is_reserved": 0, "rental_uris": {"android": "https://dc.lft.to/lastmile_qr_scan", "ios": "https://dc.lft.to/lastmile_qr_scan"}, "fusion_lon": 0.0}, {"lat": 38.896432833333336, "is_disabled": 0, "type": "electric_scooter", "lon": -77.00902033333334, "bike_id": "3b8440867e3e707023d635e18fadd61b", "fusion_lat": 0.0, "name": "3b8440867e3e707023d635e18fadd61b", "is_reserved": 0, "rental_uris": {"android": "https://dc.lft.to/lastmile_qr_scan", "ios": "https://dc.lft.to/lastmile_qr_scan"}, "fusion_lon": 0.0}, {"lat": 38.93250966666667, "is_disabled": 0, "type": "electric_scooter", "lon": -77.03266166666667, "bike_id": "90ce56feaafd6b3a71d41df8e88f6372", "fusion_lat": 0.0, "name": "90ce56feaafd6b3a71d41df8e88f6372", "is_reserved": 0, "rental_uris": {"android": "https://dc.lft.to/lastmile_qr_scan", "ios": "https://dc.lft.to/lastmile_qr_scan"}, "fusion_lon": 0.0}, {"lat": 38.908323833333334, "is_disabled": 0, "type": "electric_scooter", "lon": -76.99705416666667, "bike_id": "5f00ced15f89e3ec7d966a7a5dc15934", "fusion_lat": 0.0, "name": "5f00ced15f89e3ec7d966a7a5dc15934", "is_reserved": 0, "rental_uris": {"android": "https://dc.lft.to/lastmile_qr_scan", "ios": "https://dc.lft.to/lastmile_qr_scan"}, "fusion_lon": 0.0}, {"lat": 38.93881066666667, "is_disabled": 0, "type": "electric_scooter", "lon": -77.03285983333333, "bike_id": "56c9ad120ef798f2e61024d7ff6cb350", "fusion_lat": 0.0, "name": "56c9ad120ef798f2e61024d7ff6cb350", "is_reserved": 0, "rental_uris": {"android": "https://dc.lft.to/lastmile_qr_scan", "ios": "https://dc.lft.to/lastmile_qr_scan"}, "fusion_lon": 0.0}, {"lat": 38.907929333333335, "is_disabled": 0, "type": "electric_scooter", "lon": -77.03673916666666, "bike_id": "1910e8ecf4705256c55a3bb0a15ef386", "fusion_lat": 0.0, "name": "1910e8ecf4705256c55a3bb0a15ef386", "is_reserved": 0, "rental_uris": {"android": "https://dc.lft.to/lastmile_qr_scan", "ios": "https://dc.lft.to/lastmile_qr_scan"}, "fusion_lon": 0.0}, {"lat": 38.86982233333333, "is_disabled": 0, "type": "electric_bike", "lon": -76.95990833333333, "bike_id": "920d8e06432975f9366239c53ad2309f", "fusion_lat": 0.0, "name": "920d8e06432975f9366239c53ad2309f", "is_reserved": 0, "rental_uris": {"android": "https://dc.lft.to/lastmile_qr_scan", "ios": "https://dc.lft.to/lastmile_qr_scan"}, "fusion_lon": 0.0}, {"lat": 38.88492033333333, "is_disabled": 0, "type": "electric_scooter", "lon": -77.0071395, "bike_id": "c6d74b9f06b6e17e49826633c36ca915", "fusion_lat": 0.0, "name": "c6d74b9f06b6e17e49826633c36ca915", "is_reserved": 0, "rental_uris": {"android": "https://dc.lft.to/lastmile_qr_scan", "ios": "https://dc.lft.to/lastmile_qr_scan"}, "fusion_lon": 0.0}, {"lat": 38.87493766666667, "is_disabled": 0, "type": "electric_scooter", "lon": -77.00177333333333, "bike_id": "ac675ab4d4eabb6a7aa9837343a2a680", "fusion_lat": 0.0, "name": "ac675ab4d4eabb6a7aa9837343a2a680", "is_reserved": 0, "rental_uris": {"android": "https://dc.lft.to/lastmile_qr_scan", "ios": "https://dc.lft.to/lastmile_qr_scan"}, "fusion_lon": 0.0}, {"lat": 38.898110333333335, "is_disabled": 0, "type": "electric_scooter", "lon": -77.0314455, "bike_id": "9d9164240d8b2834b6443de571eb2d7c", "fusion_lat": 0.0, "name": "9d9164240d8b2834b6443de571eb2d7c", "is_reserved": 0, "rental_uris": {"android": "https://dc.lft.to/lastmile_qr_scan", "ios": "https://dc.lft.to/lastmile_qr_scan"}, "fusion_lon": 0.0}, {"lat": 38.926534333333336, "is_disabled": 0, "type": "electric_scooter", "lon": -77.02592933333334, "bike_id": "98737d5be0a1ff17aaa973c8128ae215", "fusion_lat": 0.0, "name": "98737d5be0a1ff17aaa973c8128ae215", "is_reserved": 0, "rental_uris": {"android": "https://dc.lft.to/lastmile_qr_scan", "ios": "https://dc.lft.to/lastmile_qr_scan"}, "fusion_lon": 0.0}, {"lat": 38.89728066666667, "is_disabled": 0, "type": "electric_scooter", "lon": -77.04675966666667, "bike_id": "f9ef4161965c9ce28e2d857c99ebd6f0", "fusion_lat": 0.0, "name": "f9ef4161965c9ce28e2d857c99ebd6f0", "is_reserved": 0, "rental_uris": {"android": "https://dc.lft.to/lastmile_qr_scan", "ios": "https://dc.lft.to/lastmile_qr_scan"}, "fusion_lon": 0.0}, {"lat": 38.89559533333333, "is_disabled": 0, "type": "electric_scooter", "lon": -77.02189783333333, "bike_id": "8664543be33ecbe5b816fdd9bc546135", "fusion_lat": 0.0, "name": "8664543be33ecbe5b816fdd9bc546135", "is_reserved": 0, "rental_uris": {"android": "https://dc.lft.to/lastmile_qr_scan", "ios": "https://dc.lft.to/lastmile_qr_scan"}, "fusion_lon": 0.0}, {"lat": 38.921567, "is_disabled": 0, "type": "electric_scooter", "lon": -77.03841516666667, "bike_id": "9b6668da672c96582f059dab700bfb18", "fusion_lat": 0.0, "name": "9b6668da672c96582f059dab700bfb18", "is_reserved": 0, "rental_uris": {"android": "https://dc.lft.to/lastmile_qr_scan", "ios": "https://dc.lft.to/lastmile_qr_scan"}, "fusion_lon": 0.0}, {"lat": 38.8922315, "is_disabled": 0, "type": "electric_scooter", "lon": -77.0269085, "bike_id": "d97c7af2a352a98cb3a98c0ec93ffb3b", "fusion_lat": 0.0, "name": "d97c7af2a352a98cb3a98c0ec93ffb3b", "is_reserved": 0, "rental_uris": {"android": "https://dc.lft.to/lastmile_qr_scan", "ios": "https://dc.lft.to/lastmile_qr_scan"}, "fusion_lon": 0.0}, {"lat": 38.984981, "is_disabled": 0, "type": "electric_bike", "lon": -76.98198883333333, "bike_id": "d4587372714f323567b49197820f3dcd", "fusion_lat": 0.0, "name": "d4587372714f323567b49197820f3dcd", "is_reserved": 0, "rental_uris": {"android": "https://dc.lft.to/lastmile_qr_scan", "ios": "https://dc.lft.to/lastmile_qr_scan"}, "fusion_lon": 0.0}, {"lat": 38.822610833333336, "is_disabled": 0, "type": "electric_bike", "lon": -77.05810416666667, "bike_id": "35af6c5b4fcd12ba8f057d5cb1ec7f06", "fusion_lat": 0.0, "name": "35af6c5b4fcd12ba8f057d5cb1ec7f06", "is_reserved": 0, "rental_uris": {"android": "https://dc.lft.to/lastmile_qr_scan", "ios": "https://dc.lft.to/lastmile_qr_scan"}, "fusion_lon": 0.0}, {"lat": 38.99412683333333, "is_disabled": 0, "type": "electric_bike", "lon": -77.031289, "bike_id": "f88c1be3aa3b00657c46de089e6fc4a3", "fusion_lat": 0.0, "name": "f88c1be3aa3b00657c46de089e6fc4a3", "is_reserved": 0, "rental_uris": {"android": "https://dc.lft.to/lastmile_qr_scan", "ios": "https://dc.lft.to/lastmile_qr_scan"}, "fusion_lon": 0.0}, {"lat": 38.9301045, "is_disabled": 0, "type": "electric_bike", "lon": -77.21651933333334, "bike_id": "fdf7da091709a8d37b7850d71fee67f0", "fusion_lat": 0.0, "name": "fdf7da091709a8d37b7850d71fee67f0", "is_reserved": 0, "rental_uris": {"android": "https://dc.lft.to/lastmile_qr_scan", "ios": "https://dc.lft.to/lastmile_qr_scan"}, "fusion_lon": 0.0}, {"lat": 38.895098, "is_disabled": 0, "type": "electric_bike", "lon": -77.00738833333334, "bike_id": "2b90c9a223dc3a2d3bce60cdd551b3c0", "fusion_lat": 0.0, "name": "2b90c9a223dc3a2d3bce60cdd551b3c0", "is_reserved": 0, "rental_uris": {"android": "https://dc.lft.to/lastmile_qr_scan", "ios": "https://dc.lft.to/lastmile_qr_scan"}, "fusion_lon": 0.0}, {"lat": 38.9196025, "is_disabled": 0, "type": "electric_bike", "lon": -76.972729, "bike_id": "c3451f37792606df82a4b7170f3d11ac", "fusion_lat": 0.0, "name": "c3451f37792606df82a4b7170f3d11ac", "is_reserved": 0, "rental_uris": {"android": "https://dc.lft.to/lastmile_qr_scan", "ios": "https://dc.lft.to/lastmile_qr_scan"}, "fusion_lon": 0.0}, {"lat": 38.8674775, "is_disabled": 0, "type": "electric_scooter", "lon": -76.98665933333334, "bike_id": "62e648e52b12abeff17ba5e0d77f47ff", "fusion_lat": 0.0, "name": "62e648e52b12abeff17ba5e0d77f47ff", "is_reserved": 0, "rental_uris": {"android": "https://dc.lft.to/lastmile_qr_scan", "ios": "https://dc.lft.to/lastmile_qr_scan"}, "fusion_lon": 0.0}, {"lat": 38.897773666666666, "is_disabled": 0, "type": "electric_scooter", "lon": -77.04346366666667, "bike_id": "128cbdf0e76ef9e6b6845d47871a9551", "fusion_lat": 0.0, "name": "128cbdf0e76ef9e6b6845d47871a9551", "is_reserved": 0, "rental_uris": {"android": "https://dc.lft.to/lastmile_qr_scan", "ios": "https://dc.lft.to/lastmile_qr_scan"}, "fusion_lon": 0.0}, {"lat": 38.9110145, "is_disabled": 0, "type": "electric_scooter", "lon": -77.0356445, "bike_id": "30bd4f63e95b3d81cac511fa9c0a4a92", "fusion_lat": 0.0, "name": "30bd4f63e95b3d81cac511fa9c0a4a92", "is_reserved": 0, "rental_uris": {"android": "https://dc.lft.to/lastmile_qr_scan", "ios": "https://dc.lft.to/lastmile_qr_scan"}, "fusion_lon": 0.0}, {"lat": 38.9028185, "is_disabled": 0, "type": "electric_scooter", "lon": -77.03291733333333, "bike_id": "9dc9147401b3ac0744bcc20232c10f57", "fusion_lat": 0.0, "name": "9dc9147401b3ac0744bcc20232c10f57", "is_reserved": 0, "rental_uris": {"android": "https://dc.lft.to/lastmile_qr_scan", "ios": "https://dc.lft.to/lastmile_qr_scan"}, "fusion_lon": 0.0}, {"lat": 38.915781333333335, "is_disabled": 0, "type": "electric_scooter", "lon": -77.046759, "bike_id": "51779a537a4a84456e018e6d4d6cfc10", "fusion_lat": 0.0, "name": "51779a537a4a84456e018e6d4d6cfc10", "is_reserved": 0, "rental_uris": {"android": "https://dc.lft.to/lastmile_qr_scan", "ios": "https://dc.lft.to/lastmile_qr_scan"}, "fusion_lon": 0.0}, {"lat": 38.902672333333335, "is_disabled": 0, "type": "electric_scooter", "lon": -77.0335925, "bike_id": "c63f45b74ba81e2c1c18011093c1c290", "fusion_lat": 0.0, "name": "c63f45b74ba81e2c1c18011093c1c290", "is_reserved": 0, "rental_uris": {"android": "https://dc.lft.to/lastmile_qr_scan", "ios": "https://dc.lft.to/lastmile_qr_scan"}, "fusion_lon": 0.0}, {"lat": 38.883068333333334, "is_disabled": 0, "type": "electric_scooter", "lon": -77.01540533333333, "bike_id": "2b8507c5d05c8c26cbca71f6f3ab3002", "fusion_lat": 0.0, "name": "2b8507c5d05c8c26cbca71f6f3ab3002", "is_reserved": 0, "rental_uris": {"android": "https://dc.lft.to/lastmile_qr_scan", "ios": "https://dc.lft.to/lastmile_qr_scan"}, "fusion_lon": 0.0}, {"lat": 38.9331665, "is_disabled": 0, "type": "electric_scooter", "lon": -77.02974416666666, "bike_id": "8f40f90d3f082d035030348373d4f5de", "fusion_lat": 0.0, "name": "8f40f90d3f082d035030348373d4f5de", "is_reserved": 0, "rental_uris": {"android": "https://dc.lft.to/lastmile_qr_scan", "ios": "https://dc.lft.to/lastmile_qr_scan"}, "fusion_lon": 0.0}, {"lat": 38.902116166666666, "is_disabled": 0, "type": "electric_scooter", "lon": -76.94581266666667, "bike_id": "6d1ab2fab4c13c7852842c9e0b99c545", "fusion_lat": 0.0, "name": "6d1ab2fab4c13c7852842c9e0b99c545", "is_reserved": 0, "rental_uris": {"android": "https://dc.lft.to/lastmile_qr_scan", "ios": "https://dc.lft.to/lastmile_qr_scan"}, "fusion_lon": 0.0}, {"lat": 38.949494666666666, "is_disabled": 0, "type": "electric_scooter", "lon": -77.0162815, "bike_id": "47bca176692686464b23fa419339a277", "fusion_lat": 0.0, "name": "47bca176692686464b23fa419339a277", "is_reserved": 0, "rental_uris": {"android": "https://dc.lft.to/lastmile_qr_scan", "ios": "https://dc.lft.to/lastmile_qr_scan"}, "fusion_lon": 0.0}, {"lat": 38.93201033333333, "is_disabled": 0, "type": "electric_bike", "lon": -76.974289, "bike_id": "afcb1dd386b51a6221f77ada61e96f04", "fusion_lat": 0.0, "name": "afcb1dd386b51a6221f77ada61e96f04", "is_reserved": 0, "rental_uris": {"android": "https://dc.lft.to/lastmile_qr_scan", "ios": "https://dc.lft.to/lastmile_qr_scan"}, "fusion_lon": 0.0}, {"lat": 38.92362166666667, "is_disabled": 0, "type": "electric_scooter", "lon": -77.057582, "bike_id": "128d7e97c950b1f5ac6f2507a05b90a9", "fusion_lat": 0.0, "name": "128d7e97c950b1f5ac6f2507a05b90a9", "is_reserved": 0, "rental_uris": {"android": "https://dc.lft.to/lastmile_qr_scan", "ios": "https://dc.lft.to/lastmile_qr_scan"}, "fusion_lon": 0.0}, {"lat": 38.8926205, "is_disabled": 0, "type": "electric_scooter", "lon": -77.02587583333333, "bike_id": "f8d5a388df0e19036f1011f7558b3d82", "fusion_lat": 0.0, "name": "f8d5a388df0e19036f1011f7558b3d82", "is_reserved": 0, "rental_uris": {"android": "https://dc.lft.to/lastmile_qr_scan", "ios": "https://dc.lft.to/lastmile_qr_scan"}, "fusion_lon": 0.0}, {"lat": 38.897996166666665, "is_disabled": 0, "type": "electric_scooter", "lon": -77.02203366666667, "bike_id": "9072852b8161dd689ef252b7770e31ff", "fusion_lat": 0.0, "name": "9072852b8161dd689ef252b7770e31ff", "is_reserved": 0, "rental_uris": {"android": "https://dc.lft.to/lastmile_qr_scan", "ios": "https://dc.lft.to/lastmile_qr_scan"}, "fusion_lon": 0.0}, {"lat": 38.90317133333333, "is_disabled": 0, "type": "electric_scooter", "lon": -77.03464983333333, "bike_id": "b06f4943c992377b8e1b05d958e9dbb8", "fusion_lat": 0.0, "name": "b06f4943c992377b8e1b05d958e9dbb8", "is_reserved": 0, "rental_uris": {"android": "https://dc.lft.to/lastmile_qr_scan", "ios": "https://dc.lft.to/lastmile_qr_scan"}, "fusion_lon": 0.0}, {"lat": 38.91578716666667, "is_disabled": 0, "type": "electric_scooter", "lon": -77.01235983333333, "bike_id": "333114a37e22c1f4319aab5525655932", "fusion_lat": 0.0, "name": "333114a37e22c1f4319aab5525655932", "is_reserved": 0, "rental_uris": {"android": "https://dc.lft.to/lastmile_qr_scan", "ios": "https://dc.lft.to/lastmile_qr_scan"}, "fusion_lon": 0.0}, {"lat": 38.8722645, "is_disabled": 0, "type": "electric_scooter", "lon": -77.0176055, "bike_id": "6f1582d6ce7af0f64b4bd1fb15cdcb2f", "fusion_lat": 0.0, "name": "6f1582d6ce7af0f64b4bd1fb15cdcb2f", "is_reserved": 0, "rental_uris": {"android": "https://dc.lft.to/lastmile_qr_scan", "ios": "https://dc.lft.to/lastmile_qr_scan"}, "fusion_lon": 0.0}, {"lat": 38.897162333333334, "is_disabled": 0, "type": "electric_scooter", "lon": -77.00801833333334, "bike_id": "b3be60b9371af2d676e45f8144261f95", "fusion_lat": 0.0, "name": "b3be60b9371af2d676e45f8144261f95", "is_reserved": 0, "rental_uris": {"android": "https://dc.lft.to/lastmile_qr_scan", "ios": "https://dc.lft.to/lastmile_qr_scan"}, "fusion_lon": 0.0}, {"lat": 38.929252, "is_disabled": 0, "type": "electric_scooter", "lon": -77.03273533333333, "bike_id": "44711289ad0e731e07402d1cbb53e4f0", "fusion_lat": 0.0, "name": "44711289ad0e731e07402d1cbb53e4f0", "is_reserved": 0, "rental_uris": {"android": "https://dc.lft.to/lastmile_qr_scan", "ios": "https://dc.lft.to/lastmile_qr_scan"}, "fusion_lon": 0.0}, {"lat": 38.925810166666665, "is_disabled": 0, "type": "electric_scooter", "lon": -77.05776833333333, "bike_id": "60839fe2089160a96486a49f6e8c6501", "fusion_lat": 0.0, "name": "60839fe2089160a96486a49f6e8c6501", "is_reserved": 0, "rental_uris": {"android": "https://dc.lft.to/lastmile_qr_scan", "ios": "https://dc.lft.to/lastmile_qr_scan"}, "fusion_lon": 0.0}, {"lat": 38.89632133333333, "is_disabled": 0, "type": "electric_scooter", "lon": -77.02973966666667, "bike_id": "039c585409472605266b9c06d4213ead", "fusion_lat": 0.0, "name": "039c585409472605266b9c06d4213ead", "is_reserved": 0, "rental_uris": {"android": "https://dc.lft.to/lastmile_qr_scan", "ios": "https://dc.lft.to/lastmile_qr_scan"}, "fusion_lon": 0.0}, {"lat": 38.884274166666664, "is_disabled": 0, "type": "electric_scooter", "lon": -77.030423, "bike_id": "e3f651d0045d0737b343808ad85f6668", "fusion_lat": 0.0, "name": "e3f651d0045d0737b343808ad85f6668", "is_reserved": 0, "rental_uris": {"android": "https://dc.lft.to/lastmile_qr_scan", "ios": "https://dc.lft.to/lastmile_qr_scan"}, "fusion_lon": 0.0}, {"lat": 38.901742, "is_disabled": 0, "type": "electric_scooter", "lon": -77.00006466666666, "bike_id": "6b7ed41ce1220a2e22131516def7a094", "fusion_lat": 0.0, "name": "6b7ed41ce1220a2e22131516def7a094", "is_reserved": 0, "rental_uris": {"android": "https://dc.lft.to/lastmile_qr_scan", "ios": "https://dc.lft.to/lastmile_qr_scan"}, "fusion_lon": 0.0}, {"lat": 38.8661515, "is_disabled": 0, "type": "electric_scooter", "lon": -76.98668366666666, "bike_id": "03bf609082c598a4f4823e34544416a4", "fusion_lat": 0.0, "name": "03bf609082c598a4f4823e34544416a4", "is_reserved": 0, "rental_uris": {"android": "https://dc.lft.to/lastmile_qr_scan", "ios": "https://dc.lft.to/lastmile_qr_scan"}, "fusion_lon": 0.0}, {"lat": 38.96609016666667, "is_disabled": 0, "type": "electric_bike", "lon": -77.03649683333333, "bike_id": "a7f4512be18e63b3167edeacdc60b1dc", "fusion_lat": 0.0, "name": "a7f4512be18e63b3167edeacdc60b1dc", "is_reserved": 0, "rental_uris": {"android": "https://dc.lft.to/lastmile_qr_scan", "ios": "https://dc.lft.to/lastmile_qr_scan"}, "fusion_lon": 0.0}, {"lat": 38.939245, "is_disabled": 0, "type": "electric_scooter", "lon": -77.02223266666667, "bike_id": "16ac81974a6b5fec79fe959b20d3db69", "fusion_lat": 0.0, "name": "16ac81974a6b5fec79fe959b20d3db69", "is_reserved": 0, "rental_uris": {"android": "https://dc.lft.to/lastmile_qr_scan", "ios": "https://dc.lft.to/lastmile_qr_scan"}, "fusion_lon": 0.0}, {"lat": 38.8458955, "is_disabled": 0, "type": "electric_bike", "lon": -77.07681833333334, "bike_id": "c29430f265b1cfea8b353329d7ad8f83", "fusion_lat": 0.0, "name": "c29430f265b1cfea8b353329d7ad8f83", "is_reserved": 0, "rental_uris": {"android": "https://dc.lft.to/lastmile_qr_scan", "ios": "https://dc.lft.to/lastmile_qr_scan"}, "fusion_lon": 0.0}, {"lat": 38.9084115, "is_disabled": 0, "type": "electric_scooter", "lon": -77.01261683333334, "bike_id": "4307db3b54fe85d65a2ad3ae7d6c6ba3", "fusion_lat": 0.0, "name": "4307db3b54fe85d65a2ad3ae7d6c6ba3", "is_reserved": 0, "rental_uris": {"android": "https://dc.lft.to/lastmile_qr_scan", "ios": "https://dc.lft.to/lastmile_qr_scan"}, "fusion_lon": 0.0}, {"lat": 38.907205833333336, "is_disabled": 0, "type": "electric_scooter", "lon": -77.03998833333333, "bike_id": "739632a8a168a3a78a07d0f1eb48130c", "fusion_lat": 0.0, "name": "739632a8a168a3a78a07d0f1eb48130c", "is_reserved": 0, "rental_uris": {"android": "https://dc.lft.to/lastmile_qr_scan", "ios": "https://dc.lft.to/lastmile_qr_scan"}, "fusion_lon": 0.0}, {"lat": 38.899589666666664, "is_disabled": 0, "type": "electric_scooter", "lon": -77.01619266666667, "bike_id": "f464ca679229e145ebca01260bca015d", "fusion_lat": 0.0, "name": "f464ca679229e145ebca01260bca015d", "is_reserved": 0, "rental_uris": {"android": "https://dc.lft.to/lastmile_qr_scan", "ios": "https://dc.lft.to/lastmile_qr_scan"}, "fusion_lon": 0.0}, {"lat": 38.92340083333333, "is_disabled": 0, "type": "electric_scooter", "lon": -77.05077483333334, "bike_id": "df5dbf31a0167009294148ffc971cb81", "fusion_lat": 0.0, "name": "df5dbf31a0167009294148ffc971cb81", "is_reserved": 0, "rental_uris": {"android": "https://dc.lft.to/lastmile_qr_scan", "ios": "https://dc.lft.to/lastmile_qr_scan"}, "fusion_lon": 0.0}, {"lat": 38.91700766666666, "is_disabled": 0, "type": "electric_scooter", "lon": -77.03887716666667, "bike_id": "6e7b9da28f380b3260b3e850cfa32074", "fusion_lat": 0.0, "name": "6e7b9da28f380b3260b3e850cfa32074", "is_reserved": 0, "rental_uris": {"android": "https://dc.lft.to/lastmile_qr_scan", "ios": "https://dc.lft.to/lastmile_qr_scan"}, "fusion_lon": 0.0}, {"lat": 38.900289666666666, "is_disabled": 0, "type": "electric_scooter", "lon": -77.02912383333333, "bike_id": "bc0dcb10be24385fd473ad8c203212dd", "fusion_lat": 0.0, "name": "bc0dcb10be24385fd473ad8c203212dd", "is_reserved": 0, "rental_uris": {"android": "https://dc.lft.to/lastmile_qr_scan", "ios": "https://dc.lft.to/lastmile_qr_scan"}, "fusion_lon": 0.0}, {"lat": 38.9044855, "is_disabled": 0, "type": "electric_scooter", "lon": -77.03210583333333, "bike_id": "1b794fba9271fb260a07b37b93e9051a", "fusion_lat": 0.0, "name": "1b794fba9271fb260a07b37b93e9051a", "is_reserved": 0, "rental_uris": {"android": "https://dc.lft.to/lastmile_qr_scan", "ios": "https://dc.lft.to/lastmile_qr_scan"}, "fusion_lon": 0.0}, {"lat": 38.866527, "is_disabled": 0, "type": "electric_scooter", "lon": -76.9888915, "bike_id": "dd45b7ad1fb453b13df6214e2162968a", "fusion_lat": 0.0, "name": "dd45b7ad1fb453b13df6214e2162968a", "is_reserved": 0, "rental_uris": {"android": "https://dc.lft.to/lastmile_qr_scan", "ios": "https://dc.lft.to/lastmile_qr_scan"}, "fusion_lon": 0.0}, {"lat": 38.8951345, "is_disabled": 0, "type": "electric_scooter", "lon": -76.9773085, "bike_id": "764504d307707b901406a4d4d07f858c", "fusion_lat": 0.0, "name": "764504d307707b901406a4d4d07f858c", "is_reserved": 0, "rental_uris": {"android": "https://dc.lft.to/lastmile_qr_scan", "ios": "https://dc.lft.to/lastmile_qr_scan"}, "fusion_lon": 0.0}, {"lat": 38.872304166666666, "is_disabled": 0, "type": "electric_scooter", "lon": -77.01641566666666, "bike_id": "03eaf4d3ee5aac3ee155477ebebf7071", "fusion_lat": 0.0, "name": "03eaf4d3ee5aac3ee155477ebebf7071", "is_reserved": 0, "rental_uris": {"android": "https://dc.lft.to/lastmile_qr_scan", "ios": "https://dc.lft.to/lastmile_qr_scan"}, "fusion_lon": 0.0}, {"lat": 38.928648, "is_disabled": 0, "type": "electric_scooter", "lon": -77.03306316666666, "bike_id": "93be92ff331b92b32e42d5db9e63c354", "fusion_lat": 0.0, "name": "93be92ff331b92b32e42d5db9e63c354", "is_reserved": 0, "rental_uris": {"android": "https://dc.lft.to/lastmile_qr_scan", "ios": "https://dc.lft.to/lastmile_qr_scan"}, "fusion_lon": 0.0}, {"lat": 38.93397933333333, "is_disabled": 0, "type": "electric_scooter", "lon": -77.04132083333333, "bike_id": "2dd1e8520cd751c169a480d1824cf924", "fusion_lat": 0.0, "name": "2dd1e8520cd751c169a480d1824cf924", "is_reserved": 0, "rental_uris": {"android": "https://dc.lft.to/lastmile_qr_scan", "ios": "https://dc.lft.to/lastmile_qr_scan"}, "fusion_lon": 0.0}, {"lat": 38.954864, "is_disabled": 0, "type": "electric_scooter", "lon": -77.0655625, "bike_id": "4ae87b889bbb2862bded91315cd2d1ad", "fusion_lat": 0.0, "name": "4ae87b889bbb2862bded91315cd2d1ad", "is_reserved": 0, "rental_uris": {"android": "https://dc.lft.to/lastmile_qr_scan", "ios": "https://dc.lft.to/lastmile_qr_scan"}, "fusion_lon": 0.0}, {"lat": 38.917038, "is_disabled": 0, "type": "electric_scooter", "lon": -77.004589, "bike_id": "30b715e4f13582962fea14d613ed7282", "fusion_lat": 0.0, "name": "30b715e4f13582962fea14d613ed7282", "is_reserved": 0, "rental_uris": {"android": "https://dc.lft.to/lastmile_qr_scan", "ios": "https://dc.lft.to/lastmile_qr_scan"}, "fusion_lon": 0.0}, {"lat": 38.922444666666664, "is_disabled": 0, "type": "electric_scooter", "lon": -77.04259616666667, "bike_id": "f99d699c4cd135b87d71f6d743a69867", "fusion_lat": 0.0, "name": "f99d699c4cd135b87d71f6d743a69867", "is_reserved": 0, "rental_uris": {"android": "https://dc.lft.to/lastmile_qr_scan", "ios": "https://dc.lft.to/lastmile_qr_scan"}, "fusion_lon": 0.0}, {"lat": 38.9222075, "is_disabled": 0, "type": "electric_scooter", "lon": -77.04399166666667, "bike_id": "caf5468908a1254f6129a9da8d298ced", "fusion_lat": 0.0, "name": "caf5468908a1254f6129a9da8d298ced", "is_reserved": 0, "rental_uris": {"android": "https://dc.lft.to/lastmile_qr_scan", "ios": "https://dc.lft.to/lastmile_qr_scan"}, "fusion_lon": 0.0}, {"lat": 38.893684666666665, "is_disabled": 0, "type": "electric_scooter", "lon": -76.9500065, "bike_id": "85a7833a587eed72384c7f39d6aee146", "fusion_lat": 0.0, "name": "85a7833a587eed72384c7f39d6aee146", "is_reserved": 0, "rental_uris": {"android": "https://dc.lft.to/lastmile_qr_scan", "ios": "https://dc.lft.to/lastmile_qr_scan"}, "fusion_lon": 0.0}, {"lat": 38.9522555, "is_disabled": 0, "type": "electric_scooter", "lon": -77.002431, "bike_id": "6b65f880fc697e22b5e450cd97780555", "fusion_lat": 0.0, "name": "6b65f880fc697e22b5e450cd97780555", "is_reserved": 0, "rental_uris": {"android": "https://dc.lft.to/lastmile_qr_scan", "ios": "https://dc.lft.to/lastmile_qr_scan"}, "fusion_lon": 0.0}, {"lat": 38.89977366666667, "is_disabled": 0, "type": "electric_scooter", "lon": -77.03363883333333, "bike_id": "377439062139208c9bf6ba9b8bdcbc88", "fusion_lat": 0.0, "name": "377439062139208c9bf6ba9b8bdcbc88", "is_reserved": 0, "rental_uris": {"android": "https://dc.lft.to/lastmile_qr_scan", "ios": "https://dc.lft.to/lastmile_qr_scan"}, "fusion_lon": 0.0}, {"lat": 38.905596833333334, "is_disabled": 0, "type": "electric_scooter", "lon": -77.00592816666666, "bike_id": "3d7ec8928b7f02c8e5bdabe494479d95", "fusion_lat": 0.0, "name": "3d7ec8928b7f02c8e5bdabe494479d95", "is_reserved": 0, "rental_uris": {"android": "https://dc.lft.to/lastmile_qr_scan", "ios": "https://dc.lft.to/lastmile_qr_scan"}, "fusion_lon": 0.0}, {"lat": 38.883022833333335, "is_disabled": 0, "type": "electric_bike", "lon": -77.03158716666667, "bike_id": "896b99eb1cfc64070ef3d3d385aa3450", "fusion_lat": 0.0, "name": "896b99eb1cfc64070ef3d3d385aa3450", "is_reserved": 0, "rental_uris": {"android": "https://dc.lft.to/lastmile_qr_scan", "ios": "https://dc.lft.to/lastmile_qr_scan"}, "fusion_lon": 0.0}, {"lat": 38.903217166666664, "is_disabled": 0, "type": "electric_scooter", "lon": -77.03857233333333, "bike_id": "cbf4906d9cf819dc090184137c3c0cdd", "fusion_lat": 0.0, "name": "cbf4906d9cf819dc090184137c3c0cdd", "is_reserved": 0, "rental_uris": {"android": "https://dc.lft.to/lastmile_qr_scan", "ios": "https://dc.lft.to/lastmile_qr_scan"}, "fusion_lon": 0.0}, {"lat": 38.93660666666667, "is_disabled": 0, "type": "electric_scooter", "lon": -77.03597766666667, "bike_id": "352b8ff8964b8016fbff79769be9f01c", "fusion_lat": 0.0, "name": "352b8ff8964b8016fbff79769be9f01c", "is_reserved": 0, "rental_uris": {"android": "https://dc.lft.to/lastmile_qr_scan", "ios": "https://dc.lft.to/lastmile_qr_scan"}, "fusion_lon": 0.0}, {"lat": 38.9588115, "is_disabled": 0, "type": "electric_bike", "lon": -76.92497966666667, "bike_id": "a5dd9f5f73f4bf292ea091cb0bd8a05c", "fusion_lat": 0.0, "name": "a5dd9f5f73f4bf292ea091cb0bd8a05c", "is_reserved": 0, "rental_uris": {"android": "https://dc.lft.to/lastmile_qr_scan", "ios": "https://dc.lft.to/lastmile_qr_scan"}, "fusion_lon": 0.0}, {"lat": 38.921989833333335, "is_disabled": 0, "type": "electric_scooter", "lon": -76.9837075, "bike_id": "2ffc222a0f2a7410ef1aa65988d49344", "fusion_lat": 0.0, "name": "2ffc222a0f2a7410ef1aa65988d49344", "is_reserved": 0, "rental_uris": {"android": "https://dc.lft.to/lastmile_qr_scan", "ios": "https://dc.lft.to/lastmile_qr_scan"}, "fusion_lon": 0.0}, {"lat": 38.90005216666667, "is_disabled": 0, "type": "electric_scooter", "lon": -76.99924983333334, "bike_id": "5f1cc67cc46b2bd2dd26d76e466ddacd", "fusion_lat": 0.0, "name": "5f1cc67cc46b2bd2dd26d76e466ddacd", "is_reserved": 0, "rental_uris": {"android": "https://dc.lft.to/lastmile_qr_scan", "ios": "https://dc.lft.to/lastmile_qr_scan"}, "fusion_lon": 0.0}, {"lat": 38.91811533333333, "is_disabled": 0, "type": "electric_scooter", "lon": -77.04167383333333, "bike_id": "93772275467cd3b137c6705bbf3568d5", "fusion_lat": 0.0, "name": "93772275467cd3b137c6705bbf3568d5", "is_reserved": 0, "rental_uris": {"android": "https://dc.lft.to/lastmile_qr_scan", "ios": "https://dc.lft.to/lastmile_qr_scan"}, "fusion_lon": 0.0}, {"lat": 38.915573333333334, "is_disabled": 0, "type": "electric_scooter", "lon": -77.038875, "bike_id": "eecea48a55a9a226cc19c4cae7512978", "fusion_lat": 0.0, "name": "eecea48a55a9a226cc19c4cae7512978", "is_reserved": 0, "rental_uris": {"android": "https://dc.lft.to/lastmile_qr_scan", "ios": "https://dc.lft.to/lastmile_qr_scan"}, "fusion_lon": 0.0}, {"lat": 38.97320366666667, "is_disabled": 0, "type": "electric_bike", "lon": -77.021529, "bike_id": "dac3fade6acd764aec6453f09ef6b967", "fusion_lat": 0.0, "name": "dac3fade6acd764aec6453f09ef6b967", "is_reserved": 0, "rental_uris": {"android": "https://dc.lft.to/lastmile_qr_scan", "ios": "https://dc.lft.to/lastmile_qr_scan"}, "fusion_lon": 0.0}, {"lat": 38.92833016666667, "is_disabled": 0, "type": "electric_scooter", "lon": -77.01366566666667, "bike_id": "86d2f2bc708bed8d9707fb9c88d5e156", "fusion_lat": 0.0, "name": "86d2f2bc708bed8d9707fb9c88d5e156", "is_reserved": 0, "rental_uris": {"android": "https://dc.lft.to/lastmile_qr_scan", "ios": "https://dc.lft.to/lastmile_qr_scan"}, "fusion_lon": 0.0}, {"lat": 38.93426133333333, "is_disabled": 0, "type": "electric_scooter", "lon": -77.0399445, "bike_id": "a404c43e3ccd8e6b891d50aedaddd6e1", "fusion_lat": 0.0, "name": "a404c43e3ccd8e6b891d50aedaddd6e1", "is_reserved": 0, "rental_uris": {"android": "https://dc.lft.to/lastmile_qr_scan", "ios": "https://dc.lft.to/lastmile_qr_scan"}, "fusion_lon": 0.0}, {"lat": 38.8971325, "is_disabled": 0, "type": "electric_scooter", "lon": -77.046152, "bike_id": "af56c120dd4477ea8c8a85221bc7a746", "fusion_lat": 0.0, "name": "af56c120dd4477ea8c8a85221bc7a746", "is_reserved": 0, "rental_uris": {"android": "https://dc.lft.to/lastmile_qr_scan", "ios": "https://dc.lft.to/lastmile_qr_scan"}, "fusion_lon": 0.0}, {"lat": 38.922566, "is_disabled": 0, "type": "electric_scooter", "lon": -77.03681933333333, "bike_id": "e750958bc8823b32aeecfff43b01d4e3", "fusion_lat": 0.0, "name": "e750958bc8823b32aeecfff43b01d4e3", "is_reserved": 0, "rental_uris": {"android": "https://dc.lft.to/lastmile_qr_scan", "ios": "https://dc.lft.to/lastmile_qr_scan"}, "fusion_lon": 0.0}, {"lat": 38.8372415, "is_disabled": 0, "type": "electric_bike", "lon": -76.99770116666667, "bike_id": "7ba85cbd0eec5b3106560ba97ebb84cd", "fusion_lat": 0.0, "name": "7ba85cbd0eec5b3106560ba97ebb84cd", "is_reserved": 0, "rental_uris": {"android": "https://dc.lft.to/lastmile_qr_scan", "ios": "https://dc.lft.to/lastmile_qr_scan"}, "fusion_lon": 0.0}, {"lat": 38.88613133333333, "is_disabled": 0, "type": "electric_scooter", "lon": -77.00588566666667, "bike_id": "21946fcfc886427ae76daa976b7b5832", "fusion_lat": 0.0, "name": "21946fcfc886427ae76daa976b7b5832", "is_reserved": 0, "rental_uris": {"android": "https://dc.lft.to/lastmile_qr_scan", "ios": "https://dc.lft.to/lastmile_qr_scan"}, "fusion_lon": 0.0}, {"lat": 38.8881305, "is_disabled": 0, "type": "electric_scooter", "lon": -77.00219, "bike_id": "d91bd833ae73c427cf18f71bad6afd36", "fusion_lat": 0.0, "name": "d91bd833ae73c427cf18f71bad6afd36", "is_reserved": 0, "rental_uris": {"android": "https://dc.lft.to/lastmile_qr_scan", "ios": "https://dc.lft.to/lastmile_qr_scan"}, "fusion_lon": 0.0}, {"lat": 38.889918, "is_disabled": 0, "type": "electric_scooter", "lon": -76.9557705, "bike_id": "3dc04f670d0da2aa2e07962d9a1809bc", "fusion_lat": 0.0, "name": "3dc04f670d0da2aa2e07962d9a1809bc", "is_reserved": 0, "rental_uris": {"android": "https://dc.lft.to/lastmile_qr_scan", "ios": "https://dc.lft.to/lastmile_qr_scan"}, "fusion_lon": 0.0}, {"lat": 38.913600833333334, "is_disabled": 0, "type": "electric_scooter", "lon": -77.04572566666667, "bike_id": "ae77ae6a9c8c5ab45414dcc23af8c4c3", "fusion_lat": 0.0, "name": "ae77ae6a9c8c5ab45414dcc23af8c4c3", "is_reserved": 0, "rental_uris": {"android": "https://dc.lft.to/lastmile_qr_scan", "ios": "https://dc.lft.to/lastmile_qr_scan"}, "fusion_lon": 0.0}, {"lat": 38.8550495, "is_disabled": 0, "type": "electric_bike", "lon": -76.9841505, "bike_id": "f5819a92b9c57d98811281fb2a87c30b", "fusion_lat": 0.0, "name": "f5819a92b9c57d98811281fb2a87c30b", "is_reserved": 0, "rental_uris": {"android": "https://dc.lft.to/lastmile_qr_scan", "ios": "https://dc.lft.to/lastmile_qr_scan"}, "fusion_lon": 0.0}, {"lat": 38.90672966666666, "is_disabled": 0, "type": "electric_scooter", "lon": -77.07181416666667, "bike_id": "3475a05192a1746c08cf70947375ebe1", "fusion_lat": 0.0, "name": "3475a05192a1746c08cf70947375ebe1", "is_reserved": 0, "rental_uris": {"android": "https://dc.lft.to/lastmile_qr_scan", "ios": "https://dc.lft.to/lastmile_qr_scan"}, "fusion_lon": 0.0}, {"lat": 38.95304816666667, "is_disabled": 0, "type": "electric_bike", "lon": -76.99901616666666, "bike_id": "33c3a0ce60bdf8b989f2b6314bc2cf4e", "fusion_lat": 0.0, "name": "33c3a0ce60bdf8b989f2b6314bc2cf4e", "is_reserved": 0, "rental_uris": {"android": "https://dc.lft.to/lastmile_qr_scan", "ios": "https://dc.lft.to/lastmile_qr_scan"}, "fusion_lon": 0.0}, {"lat": 38.925737166666664, "is_disabled": 0, "type": "electric_scooter", "lon": -77.03364166666667, "bike_id": "e06e0ca9bd691428c678489709e22968", "fusion_lat": 0.0, "name": "e06e0ca9bd691428c678489709e22968", "is_reserved": 0, "rental_uris": {"android": "https://dc.lft.to/lastmile_qr_scan", "ios": "https://dc.lft.to/lastmile_qr_scan"}, "fusion_lon": 0.0}, {"lat": 38.90902916666667, "is_disabled": 0, "type": "electric_scooter", "lon": -77.046655, "bike_id": "221790159bdf8b3e383a4f7d4ac31277", "fusion_lat": 0.0, "name": "221790159bdf8b3e383a4f7d4ac31277", "is_reserved": 0, "rental_uris": {"android": "https://dc.lft.to/lastmile_qr_scan", "ios": "https://dc.lft.to/lastmile_qr_scan"}, "fusion_lon": 0.0}, {"lat": 38.8429195, "is_disabled": 0, "type": "electric_scooter", "lon": -76.9995135, "bike_id": "f856b83169c6ddd2569b3db52d7beea0", "fusion_lat": 0.0, "name": "f856b83169c6ddd2569b3db52d7beea0", "is_reserved": 0, "rental_uris": {"android": "https://dc.lft.to/lastmile_qr_scan", "ios": "https://dc.lft.to/lastmile_qr_scan"}, "fusion_lon": 0.0}, {"lat": 38.90689966666667, "is_disabled": 0, "type": "electric_scooter", "lon": -76.99960983333334, "bike_id": "54b82c2929094afb0e87c848a45b48f1", "fusion_lat": 0.0, "name": "54b82c2929094afb0e87c848a45b48f1", "is_reserved": 0, "rental_uris": {"android": "https://dc.lft.to/lastmile_qr_scan", "ios": "https://dc.lft.to/lastmile_qr_scan"}, "fusion_lon": 0.0}, {"lat": 38.973664666666664, "is_disabled": 0, "type": "electric_scooter", "lon": -77.01868983333334, "bike_id": "e8fd41ce77386e7be600c7b4f8e361bc", "fusion_lat": 0.0, "name": "e8fd41ce77386e7be600c7b4f8e361bc", "is_reserved": 0, "rental_uris": {"android": "https://dc.lft.to/lastmile_qr_scan", "ios": "https://dc.lft.to/lastmile_qr_scan"}, "fusion_lon": 0.0}, {"lat": 38.86726266666667, "is_disabled": 0, "type": "electric_scooter", "lon": -76.98791016666667, "bike_id": "128b24c3f7cc190cdb5f61a2cb2b9eb9", "fusion_lat": 0.0, "name": "128b24c3f7cc190cdb5f61a2cb2b9eb9", "is_reserved": 0, "rental_uris": {"android": "https://dc.lft.to/lastmile_qr_scan", "ios": "https://dc.lft.to/lastmile_qr_scan"}, "fusion_lon": 0.0}, {"lat": 38.91664866666667, "is_disabled": 0, "type": "electric_scooter", "lon": -77.006581, "bike_id": "7378d886dcd00f8289fdce3e2d7c5b87", "fusion_lat": 0.0, "name": "7378d886dcd00f8289fdce3e2d7c5b87", "is_reserved": 0, "rental_uris": {"android": "https://dc.lft.to/lastmile_qr_scan", "ios": "https://dc.lft.to/lastmile_qr_scan"}, "fusion_lon": 0.0}, {"lat": 38.940477333333334, "is_disabled": 0, "type": "electric_scooter", "lon": -77.09275966666667, "bike_id": "a5bc77bbfbbfc264959f854823c3b5c4", "fusion_lat": 0.0, "name": "a5bc77bbfbbfc264959f854823c3b5c4", "is_reserved": 0, "rental_uris": {"android": "https://dc.lft.to/lastmile_qr_scan", "ios": "https://dc.lft.to/lastmile_qr_scan"}, "fusion_lon": 0.0}, {"lat": 38.91979966666667, "is_disabled": 0, "type": "electric_scooter", "lon": -77.04187933333333, "bike_id": "707354b6a78979a7caf46d15241916a0", "fusion_lat": 0.0, "name": "707354b6a78979a7caf46d15241916a0", "is_reserved": 0, "rental_uris": {"android": "https://dc.lft.to/lastmile_qr_scan", "ios": "https://dc.lft.to/lastmile_qr_scan"}, "fusion_lon": 0.0}, {"lat": 38.890426166666664, "is_disabled": 0, "type": "electric_scooter", "lon": -76.93755883333333, "bike_id": "32dea62f353906fb799f1f4dba6534c9", "fusion_lat": 0.0, "name": "32dea62f353906fb799f1f4dba6534c9", "is_reserved": 0, "rental_uris": {"android": "https://dc.lft.to/lastmile_qr_scan", "ios": "https://dc.lft.to/lastmile_qr_scan"}, "fusion_lon": 0.0}, {"lat": 38.8652465, "is_disabled": 0, "type": "electric_scooter", "lon": -76.99027183333334, "bike_id": "65a8374f1d39c492f752b48d347efeb9", "fusion_lat": 0.0, "name": "65a8374f1d39c492f752b48d347efeb9", "is_reserved": 0, "rental_uris": {"android": "https://dc.lft.to/lastmile_qr_scan", "ios": "https://dc.lft.to/lastmile_qr_scan"}, "fusion_lon": 0.0}, {"lat": 38.91961916666666, "is_disabled": 0, "type": "electric_scooter", "lon": -77.0271805, "bike_id": "c83aa7509928749df01b9eb171b7328d", "fusion_lat": 0.0, "name": "c83aa7509928749df01b9eb171b7328d", "is_reserved": 0, "rental_uris": {"android": "https://dc.lft.to/lastmile_qr_scan", "ios": "https://dc.lft.to/lastmile_qr_scan"}, "fusion_lon": 0.0}, {"lat": 38.907158333333335, "is_disabled": 0, "type": "electric_scooter", "lon": -77.02891266666667, "bike_id": "ec5d98124d49ac7491e7be6eb5a89127", "fusion_lat": 0.0, "name": "ec5d98124d49ac7491e7be6eb5a89127", "is_reserved": 0, "rental_uris": {"android": "https://dc.lft.to/lastmile_qr_scan", "ios": "https://dc.lft.to/lastmile_qr_scan"}, "fusion_lon": 0.0}, {"lat": 38.90064566666667, "is_disabled": 0, "type": "electric_scooter", "lon": -77.02456, "bike_id": "f6872133eee494738ccdf17e11589caf", "fusion_lat": 0.0, "name": "f6872133eee494738ccdf17e11589caf", "is_reserved": 0, "rental_uris": {"android": "https://dc.lft.to/lastmile_qr_scan", "ios": "https://dc.lft.to/lastmile_qr_scan"}, "fusion_lon": 0.0}, {"lat": 38.8968395, "is_disabled": 0, "type": "electric_scooter", "lon": -77.00493716666666, "bike_id": "a8a9e6ea6f2fd4ae9c832ea4572a230b", "fusion_lat": 0.0, "name": "a8a9e6ea6f2fd4ae9c832ea4572a230b", "is_reserved": 0, "rental_uris": {"android": "https://dc.lft.to/lastmile_qr_scan", "ios": "https://dc.lft.to/lastmile_qr_scan"}, "fusion_lon": 0.0}, {"lat": 38.876243333333335, "is_disabled": 0, "type": "electric_scooter", "lon": -76.96531366666666, "bike_id": "ca1a10fac7f471ab29754123587af2e4", "fusion_lat": 0.0, "name": "ca1a10fac7f471ab29754123587af2e4", "is_reserved": 0, "rental_uris": {"android": "https://dc.lft.to/lastmile_qr_scan", "ios": "https://dc.lft.to/lastmile_qr_scan"}, "fusion_lon": 0.0}, {"lat": 38.90634383333333, "is_disabled": 0, "type": "electric_scooter", "lon": -77.0485385, "bike_id": "92cfa41482e30e7911139297db4697b1", "fusion_lat": 0.0, "name": "92cfa41482e30e7911139297db4697b1", "is_reserved": 0, "rental_uris": {"android": "https://dc.lft.to/lastmile_qr_scan", "ios": "https://dc.lft.to/lastmile_qr_scan"}, "fusion_lon": 0.0}, {"lat": 38.954058333333336, "is_disabled": 0, "type": "electric_scooter", "lon": -77.0274595, "bike_id": "da2419a67030dfb2736aac585dc8ae99", "fusion_lat": 0.0, "name": "da2419a67030dfb2736aac585dc8ae99", "is_reserved": 0, "rental_uris": {"android": "https://dc.lft.to/lastmile_qr_scan", "ios": "https://dc.lft.to/lastmile_qr_scan"}, "fusion_lon": 0.0},