{"data": {"bikes": [{"is_disabled": 0, "is_reserved": 0, "fusion_lat": 0.0, "lat": 38.92484966666667, "fusion_lon": 0.0, "rental_uris": {"ios": "https://dc.lft.to/lastmile_qr_scan", "android": "https://dc.lft.to/lastmile_qr_scan"}, "lon": -77.02661383333333, "bike_id": "eb8968df2b4380ea056c8ba4b47c8c25", "type": "electric_scooter", "name": "eb8968df2b4380ea056c8ba4b47c8c25"}, {"is_disabled": 0, "is_reserved": 0, "fusion_lat": 0.0, "lat": 38.9220935, "fusion_lon": 0.0, "rental_uris": {"ios": "https://dc.lft.to/lastmile_qr_scan", "android": "https://dc.lft.to/lastmile_qr_scan"}, "lon": -77.03771533333334, "bike_id": "e2e9d0e71aa2bb3d66549abfaa41b322", "type": "electric_scooter", "name": "e2e9d0e71aa2bb3d66549abfaa41b322"}, {"is_disabled": 0, "is_reserved": 0, "fusion_lat": 0.0, "lat": 38.9282205, "fusion_lon": 0.0, "rental_uris": {"ios": "https://dc.lft.to/lastmile_qr_scan", "android": "https://dc.lft.to/lastmile_qr_scan"}, "lon": -77.04353516666667, "bike_id": "3eacf676c4dfff348aefc0f515b7dc3f", "type": "electric_scooter", "name": "3eacf676c4dfff348aefc0f515b7dc3f"}, {"is_disabled": 0, "is_reserved": 0, "fusion_lat": 0.0, "lat": 38.935319666666665, "fusion_lon": 0.0, "rental_uris": {"ios": "https://dc.lft.to/lastmile_qr_scan", "android": "https://dc.lft.to/lastmile_qr_scan"}, "lon": -77.0235345, "bike_id": "0affa8bb625128c22c8e0ac86360525a", "type": "electric_scooter", "name": "0affa8bb625128c22c8e0ac86360525a"}, {"is_disabled": 0, "is_reserved": 0, "fusion_lat": 0.0, "lat": 38.9008215, "fusion_lon": 0.0, "rental_uris": {"ios": "https://dc.lft.to/lastmile_qr_scan", "android": "https://dc.lft.to/lastmile_qr_scan"}, "lon": -77.018773, "bike_id": "5d80bdaf691139a791058400e99289d1", "type": "electric_scooter", "name": "5d80bdaf691139a791058400e99289d1"}, {"is_disabled": 0, "is_reserved": 0, "fusion_lat": 0.0, "lat": 38.9284715, "fusion_lon": 0.0, "rental_uris": {"ios": "https://dc.lft.to/lastmile_qr_scan", "android": "https://dc.lft.to/lastmile_qr_scan"}, "lon": -77.03589766666667, "bike_id": "585ea667a873625cbe0465d601ac00d2", "type": "electric_scooter", "name": "585ea667a873625cbe0465d601ac00d2"}, {"is_disabled": 0, "is_reserved": 0, "fusion_lat": 0.0, "lat": 38.941415, "fusion_lon": 0.0, "rental_uris": {"ios": "https://dc.lft.to/lastmile_qr_scan", "android": "https://dc.lft.to/lastmile_qr_scan"}, "lon": -77.023212, "bike_id": "0e912b7f2f00dd197532510c8574a222", "type": "electric_scooter", "name": "0e912b7f2f00dd197532510c8574a222"}, {"is_disabled": 0, "is_reserved": 0, "fusion_lat": 0.0, "lat": 38.9038845, "fusion_lon": 0.0, "rental_uris": {"ios": "https://dc.lft.to/lastmile_qr_scan", "android": "https://dc.lft.to/lastmile_qr_scan"}, "lon": -77.0164785, "bike_id": "7f859a491f9a6d767ad6b847bcad8130", "type": "electric_scooter", "name": "7f859a491f9a6d767ad6b847bcad8130"}, {"is_disabled": 0, "is_reserved": 0, "fusion_lat": 0.0, "lat": 38.8221155, "fusion_lon": 0.0, "rental_uris": {"ios": "https://dc.lft.to/lastmile_qr_scan", "android": "https://dc.lft.to/lastmile_qr_scan"}, "lon": -76.97701566666667, "bike_id": "eaa3aedabacb124dd03dc0045d474054", "type": "electric_bike", "name": "eaa3aedabacb124dd03dc0045d474054"}, {"is_disabled": 0, "is_reserved": 0, "fusion_lat": 0.0, "lat": 38.9147385, "fusion_lon": 0.0, "rental_uris": {"ios": "https://dc.lft.to/lastmile_qr_scan", "android": "https://dc.lft.to/lastmile_qr_scan"}, "lon": -77.00197083333333, "bike_id": "a50d8ec67701d7e7214ca0f920b3b98d", "type": "electric_scooter", "name": "a50d8ec67701d7e7214ca0f920b3b98d"}, {"is_disabled": 0, "is_reserved": 0, "fusion_lat": 0.0, "lat": 38.90613233333333, "fusion_lon": 0.0, "rental_uris": {"ios": "https://dc.lft.to/lastmile_qr_scan", "android": "https://dc.lft.to/lastmile_qr_scan"}, "lon": -77.04137233333333, "bike_id": "233dcf4f260750b0a2a0111a9c6de4f8", "type": "electric_scooter", "name": "233dcf4f260750b0a2a0111a9c6de4f8"}, {"is_disabled": 0, "is_reserved": 0, "fusion_lat": 0.0, "lat": 38.914105166666666, "fusion_lon": 0.0, "rental_uris": {"ios": "https://dc.lft.to/lastmile_qr_scan", "android": "https://dc.lft.to/lastmile_qr_scan"}, "lon": -77.010762, "bike_id": "fe4fca2287791f1b0cccb6781d8dd03a", "type": "electric_scooter", "name": "fe4fca2287791f1b0cccb6781d8dd03a"}, {"is_disabled": 0, "is_reserved": 0, "fusion_lat": 0.0, "lat": 38.928078, "fusion_lon": 0.0, "rental_uris": {"ios": "https://dc.lft.to/lastmile_qr_scan", "android": "https://dc.lft.to/lastmile_qr_scan"}, "lon": -76.976054, "bike_id": "d10b682d4888de7b99602d0871b13625", "type": "electric_scooter", "name": "d10b682d4888de7b99602d0871b13625"}, {"is_disabled": 0, "is_reserved": 0, "fusion_lat": 0.0, "lat": 38.905268666666665, "fusion_lon": 0.0, "rental_uris": {"ios": "https://dc.lft.to/lastmile_qr_scan", "android": "https://dc.lft.to/lastmile_qr_scan"}, "lon": -77.04830333333334, "bike_id": "249b6fe7652f50bc30784947abcd6527", "type": "electric_scooter", "name": "249b6fe7652f50bc30784947abcd6527"}, {"is_disabled": 0, "is_reserved": 0, "fusion_lat": 0.0, "lat": 38.92242183333333, "fusion_lon": 0.0, "rental_uris": {"ios": "https://dc.lft.to/lastmile_qr_scan", "android": "https://dc.lft.to/lastmile_qr_scan"}, "lon": -77.03662633333333, "bike_id": "2de54ceac0452b04dad7bddeb7017168", "type": "electric_scooter", "name": "2de54ceac0452b04dad7bddeb7017168"}, {"is_disabled": 0, "is_reserved": 0, "fusion_lat": 0.0, "lat": 38.91694966666667, "fusion_lon": 0.0, "rental_uris": {"ios": "https://dc.lft.to/lastmile_qr_scan", "android": "https://dc.lft.to/lastmile_qr_scan"}, "lon": -77.02329933333333, "bike_id": "8442e1ed0d5b6823b8931d25eeadcb0c", "type": "electric_scooter", "name": "8442e1ed0d5b6823b8931d25eeadcb0c"}, {"is_disabled": 0, "is_reserved": 0, "fusion_lat": 0.0, "lat": 38.9238255, "fusion_lon": 0.0, "rental_uris": {"ios": "https://dc.lft.to/lastmile_qr_scan", "android": "https://dc.lft.to/lastmile_qr_scan"}, "lon": -77.04017616666667, "bike_id": "24ffad167c2d41f70316213f2a96cb2d", "type": "electric_scooter", "name": "24ffad167c2d41f70316213f2a96cb2d"}, {"is_disabled": 0, "is_reserved": 0, "fusion_lat": 0.0, "lat": 38.938597333333334, "fusion_lon": 0.0, "rental_uris": {"ios": "https://dc.lft.to/lastmile_qr_scan", "android": "https://dc.lft.to/lastmile_qr_scan"}, "lon": -76.99435866666667, "bike_id": "ca86492c3fe40eb534d9e32dd6398a8c", "type": "electric_scooter", "name": "ca86492c3fe40eb534d9e32dd6398a8c"}, {"is_disabled": 0, "is_reserved": 0, "fusion_lat": 0.0, "lat": 38.944624833333336, "fusion_lon": 0.0, "rental_uris": {"ios": "https://dc.lft.to/lastmile_qr_scan", "android": "https://dc.lft.to/lastmile_qr_scan"}, "lon": -77.0065745, "bike_id": "61f2c4e34f21e84f198b28ed2258d56a", "type": "electric_scooter", "name": "61f2c4e34f21e84f198b28ed2258d56a"}, {"is_disabled": 0, "is_reserved": 0, "fusion_lat": 0.0, "lat": 38.90244116666667, "fusion_lon": 0.0, "rental_uris": {"ios": "https://dc.lft.to/lastmile_qr_scan", "android": "https://dc.lft.to/lastmile_qr_scan"}, "lon": -77.01441933333334, "bike_id": "1b9b27966eaecda3a29087fae6dd3248", "type": "electric_scooter", "name": "1b9b27966eaecda3a29087fae6dd3248"}, {"is_disabled": 0, "is_reserved": 0, "fusion_lat": 0.0, "lat": 38.87661583333333, "fusion_lon": 0.0, "rental_uris": {"ios": "https://dc.lft.to/lastmile_qr_scan", "android": "https://dc.lft.to/lastmile_qr_scan"}, "lon": -77.0020585, "bike_id": "0a89c6bae4d793a12c4383625c5ac137", "type": "electric_scooter", "name": "0a89c6bae4d793a12c4383625c5ac137"}, {"is_disabled": 0, "is_reserved": 0, "fusion_lat": 0.0, "lat": 38.93557583333333, "fusion_lon": 0.0, "rental_uris": {"ios": "https://dc.lft.to/lastmile_qr_scan", "android": "https://dc.lft.to/lastmile_qr_scan"}, "lon": -77.07710883333333, "bike_id": "3051b3e4fd3c9d71e6f9438da4de9bfb", "type": "electric_scooter", "name": "3051b3e4fd3c9d71e6f9438da4de9bfb"}, {"is_disabled": 0, "is_reserved": 0, "fusion_lat": 0.0, "lat": 38.852457666666666, "fusion_lon": 0.0, "rental_uris": {"ios": "https://dc.lft.to/lastmile_qr_scan", "android": "https://dc.lft.to/lastmile_qr_scan"}, "lon": -77.11411, "bike_id": "467243dd7c630102a9713ea9a81a396f", "type": "electric_bike", "name": "467243dd7c630102a9713ea9a81a396f"}, {"is_disabled": 0, "is_reserved": 0, "fusion_lat": 0.0, "lat": 38.9141375, "fusion_lon": 0.0, "rental_uris": {"ios": "https://dc.lft.to/lastmile_qr_scan", "android": "https://dc.lft.to/lastmile_qr_scan"}, "lon": -77.02424566666667, "bike_id": "7fe4ca924cd0fcc2e4b87e43f395c30e", "type": "electric_scooter", "name": "7fe4ca924cd0fcc2e4b87e43f395c30e"}, {"is_disabled": 0, "is_reserved": 0, "fusion_lat": 0.0, "lat": 38.894873833333335, "fusion_lon": 0.0, "rental_uris": {"ios": "https://dc.lft.to/lastmile_qr_scan", "android": "https://dc.lft.to/lastmile_qr_scan"}, "lon": -77.02281016666667, "bike_id": "997ad937dd956a95ae3e8a512835f73f", "type": "electric_scooter", "name": "997ad937dd956a95ae3e8a512835f73f"}, {"is_disabled": 0, "is_reserved": 0, "fusion_lat": 0.0, "lat": 38.91547116666667, "fusion_lon": 0.0, "rental_uris": {"ios": "https://dc.lft.to/lastmile_qr_scan", "android": "https://dc.lft.to/lastmile_qr_scan"}, "lon": -77.03842516666667, "bike_id": "4b2721a78813795dd63f0abb5811db25", "type": "electric_scooter", "name": "4b2721a78813795dd63f0abb5811db25"}, {"is_disabled": 0, "is_reserved": 0, "fusion_lat": 0.0, "lat": 38.910454333333334, "fusion_lon": 0.0, "rental_uris": {"ios": "https://dc.lft.to/lastmile_qr_scan", "android": "https://dc.lft.to/lastmile_qr_scan"}, "lon": -76.99811266666667, "bike_id": "c421133d820ac19d5ccffbd5951f2dbc", "type": "electric_scooter", "name": "c421133d820ac19d5ccffbd5951f2dbc"}, {"is_disabled": 0, "is_reserved": 0, "fusion_lat": 0.0, "lat": 38.923106, "fusion_lon": 0.0, "rental_uris": {"ios": "https://dc.lft.to/lastmile_qr_scan", "android": "https://dc.lft.to/lastmile_qr_scan"}, "lon": -77.02915083333333, "bike_id": "9c79a82ccf8ae5dc69965e4840269eb6", "type": "electric_scooter", "name": "9c79a82ccf8ae5dc69965e4840269eb6"}, {"is_disabled": 0, "is_reserved": 0, "fusion_lat": 0.0, "lat": 38.95218533333333, "fusion_lon": 0.0, "rental_uris": {"ios": "https://dc.lft.to/lastmile_qr_scan", "android": "https://dc.lft.to/lastmile_qr_scan"}, "lon": -77.088657, "bike_id": "8493b568a7c4b915915f40338391d833", "type": "electric_scooter", "name": "8493b568a7c4b915915f40338391d833"}, {"is_disabled": 0, "is_reserved": 0, "fusion_lat": 0.0, "lat": 38.92569, "fusion_lon": 0.0, "rental_uris": {"ios": "https://dc.lft.to/lastmile_qr_scan", "android": "https://dc.lft.to/lastmile_qr_scan"}, "lon": -77.03133716666666, "bike_id": "c101791e0bd39e0ff62b072afe17c530", "type": "electric_scooter", "name": "c101791e0bd39e0ff62b072afe17c530"}, {"is_disabled": 0, "is_reserved": 0, "fusion_lat": 0.0, "lat": 38.943304499999996, "fusion_lon": 0.0, "rental_uris": {"ios": "https://dc.lft.to/lastmile_qr_scan", "android": "https://dc.lft.to/lastmile_qr_scan"}, "lon": -77.01552683333334, "bike_id": "c72fa7f6939c8a67f6105b94acb30cee", "type": "electric_scooter", "name": "c72fa7f6939c8a67f6105b94acb30cee"}, {"is_disabled": 0, "is_reserved": 0, "fusion_lat": 0.0, "lat": 38.892321333333335, "fusion_lon": 0.0, "rental_uris": {"ios": "https://dc.lft.to/lastmile_qr_scan", "android": "https://dc.lft.to/lastmile_qr_scan"}, "lon": -77.03240066666666, "bike_id": "2fefdea0a86e4a1b284fffd4317da776", "type": "electric_scooter", "name": "2fefdea0a86e4a1b284fffd4317da776"}, {"is_disabled": 0, "is_reserved": 0, "fusion_lat": 0.0, "lat": 38.883007, "fusion_lon": 0.0, "rental_uris": {"ios": "https://dc.lft.to/lastmile_qr_scan", "android": "https://dc.lft.to/lastmile_qr_scan"}, "lon": -76.93487616666667, "bike_id": "337c7634f8c88e8fe9961f3f03652d5c", "type": "electric_scooter", "name": "337c7634f8c88e8fe9961f3f03652d5c"}, {"is_disabled": 0, "is_reserved": 0, "fusion_lat": 0.0, "lat": 38.842757166666665, "fusion_lon": 0.0, "rental_uris": {"ios": "https://dc.lft.to/lastmile_qr_scan", "android": "https://dc.lft.to/lastmile_qr_scan"}, "lon": -76.988455, "bike_id": "e73066b5d5219d4024dfc7050a21da2e", "type": "electric_scooter", "name": "e73066b5d5219d4024dfc7050a21da2e"}, {"is_disabled": 0, "is_reserved": 0, "fusion_lat": 0.0, "lat": 38.91994666666667, "fusion_lon": 0.0, "rental_uris": {"ios": "https://dc.lft.to/lastmile_qr_scan", "android": "https://dc.lft.to/lastmile_qr_scan"}, "lon": -77.03218316666667, "bike_id": "8cf00a2e50a5bbc655800b882eea4598", "type": "electric_scooter", "name": "8cf00a2e50a5bbc655800b882eea4598"}, {"is_disabled": 0, "is_reserved": 0, "fusion_lat": 0.0, "lat": 38.9068285, "fusion_lon": 0.0, "rental_uris": {"ios": "https://dc.lft.to/lastmile_qr_scan", "android": "https://dc.lft.to/lastmile_qr_scan"}, "lon": -77.06292983333333, "bike_id": "a57593bfec5300b087db02eb8b97c900", "type": "electric_scooter", "name": "a57593bfec5300b087db02eb8b97c900"}, {"is_disabled": 0, "is_reserved": 0, "fusion_lat": 0.0, "lat": 38.896742, "fusion_lon": 0.0, "rental_uris": {"ios": "https://dc.lft.to/lastmile_qr_scan", "android": "https://dc.lft.to/lastmile_qr_scan"}, "lon": -77.048758, "bike_id": "797d23aa3cf823eaefe880fb64d5433e", "type": "electric_scooter", "name": "797d23aa3cf823eaefe880fb64d5433e"}, {"is_disabled": 0, "is_reserved": 0, "fusion_lat": 0.0, "lat": 39.006510666666664, "fusion_lon": 0.0, "rental_uris": {"ios": "https://dc.lft.to/lastmile_qr_scan", "android": "https://dc.lft.to/lastmile_qr_scan"}, "lon": -76.90024466666667, "bike_id": "d9dd7591d095431fbf43363178ceaae4", "type": "electric_bike", "name": "d9dd7591d095431fbf43363178ceaae4"}, {"is_disabled": 0, "is_reserved": 0, "fusion_lat": 0.0, "lat": 38.9063555, "fusion_lon": 0.0, "rental_uris": {"ios": "https://dc.lft.to/lastmile_qr_scan", "android": "https://dc.lft.to/lastmile_qr_scan"}, "lon": -77.04553833333334, "bike_id": "f33d863b167b1d42107dc7155a2eb4a1", "type": "electric_scooter", "name": "f33d863b167b1d42107dc7155a2eb4a1"}, {"is_disabled": 0, "is_reserved": 0, "fusion_lat": 0.0, "lat": 38.9015195, "fusion_lon": 0.0, "rental_uris": {"ios": "https://dc.lft.to/lastmile_qr_scan", "android": "https://dc.lft.to/lastmile_qr_scan"}, "lon": -76.929865, "bike_id": "ac69cf61d281bb98099080d040b59671", "type": "electric_scooter", "name": "ac69cf61d281bb98099080d040b59671"}, {"is_disabled": 0, "is_reserved": 0, "fusion_lat": 0.0, "lat": 38.927754166666666, "fusion_lon": 0.0, "rental_uris": {"ios": "https://dc.lft.to/lastmile_qr_scan", "android": "https://dc.lft.to/lastmile_qr_scan"}, "lon": -77.05261, "bike_id": "d1c1ef32bbe606ebe289e39c1b0caeb1", "type": "electric_scooter", "name": "d1c1ef32bbe606ebe289e39c1b0caeb1"}, {"is_disabled": 0, "is_reserved": 0, "fusion_lat": 0.0, "lat": 38.934707833333334, "fusion_lon": 0.0, "rental_uris": {"ios": "https://dc.lft.to/lastmile_qr_scan", "android": "https://dc.lft.to/lastmile_qr_scan"}, "lon": -77.02408783333334, "bike_id": "7c0812ed574adaf0a06d0dd81877962d", "type": "electric_scooter", "name": "7c0812ed574adaf0a06d0dd81877962d"}, {"is_disabled": 0, "is_reserved": 0, "fusion_lat": 0.0, "lat": 38.94165483333333, "fusion_lon": 0.0, "rental_uris": {"ios": "https://dc.lft.to/lastmile_qr_scan", "android": "https://dc.lft.to/lastmile_qr_scan"}, "lon": -76.9940955, "bike_id": "d712a83a682b8de277a95be5d372bc7b", "type": "electric_bike", "name": "d712a83a682b8de277a95be5d372bc7b"}, {"is_disabled": 0, "is_reserved": 0, "fusion_lat": 0.0, "lat": 38.92611333333333, "fusion_lon": 0.0, "rental_uris": {"ios": "https://dc.lft.to/lastmile_qr_scan", "android": "https://dc.lft.to/lastmile_qr_scan"}, "lon": -77.0065025, "bike_id": "6cccbdb4d7644789e355e3e11a19af96", "type": "electric_scooter", "name": "6cccbdb4d7644789e355e3e11a19af96"}, {"is_disabled": 0, "is_reserved": 0, "fusion_lat": 0.0, "lat": 38.9398025, "fusion_lon": 0.0, "rental_uris": {"ios": "https://dc.lft.to/lastmile_qr_scan", "android": "https://dc.lft.to/lastmile_qr_scan"}, "lon": -77.01909916666666, "bike_id": "6e8c4ab466bb6046b885eadd2d48d396", "type": "electric_scooter", "name": "6e8c4ab466bb6046b885eadd2d48d396"}, {"is_disabled": 0, "is_reserved": 0, "fusion_lat": 0.0, "lat": 38.9510635, "fusion_lon": 0.0, "rental_uris": {"ios": "https://dc.lft.to/lastmile_qr_scan", "android": "https://dc.lft.to/lastmile_qr_scan"}, "lon": -77.0188575, "bike_id": "2f12545021592095380ca79484c8af1c", "type": "electric_scooter", "name": "2f12545021592095380ca79484c8af1c"}, {"is_disabled": 0, "is_reserved": 0, "fusion_lat": 0.0, "lat": 38.982086333333335, "fusion_lon": 0.0, "rental_uris": {"ios": "https://dc.lft.to/lastmile_qr_scan", "android": "https://dc.lft.to/lastmile_qr_scan"}, "lon": -76.97815516666667, "bike_id": "db443331c1c4a9e63c54abd7931ceaff", "type": "electric_bike", "name": "db443331c1c4a9e63c54abd7931ceaff"}, {"is_disabled": 0, "is_reserved": 0, "fusion_lat": 0.0, "lat": 38.9214515, "fusion_lon": 0.0, "rental_uris": {"ios": "https://dc.lft.to/lastmile_qr_scan", "android": "https://dc.lft.to/lastmile_qr_scan"}, "lon": -77.03642633333334, "bike_id": "712d6949fef9d96a1a65b0cf293743a6", "type": "electric_scooter", "name": "712d6949fef9d96a1a65b0cf293743a6"}, {"is_disabled": 0, "is_reserved": 0, "fusion_lat": 0.0, "lat": 38.893628, "fusion_lon": 0.0, "rental_uris": {"ios": "https://dc.lft.to/lastmile_qr_scan", "android": "https://dc.lft.to/lastmile_qr_scan"}, "lon": -77.04474683333333, "bike_id": "161908593011e33694a8c0b0cfce3cb8", "type": "electric_scooter", "name": "161908593011e33694a8c0b0cfce3cb8"}, {"is_disabled": 0, "is_reserved": 0, "fusion_lat": 0.0, "lat": 38.93607033333333, "fusion_lon": 0.0, "rental_uris": {"ios": "https://dc.lft.to/lastmile_qr_scan", "android": "https://dc.lft.to/lastmile_qr_scan"}, "lon": -77.05594816666667, "bike_id": "29d6ddf61849100b216cacd32433f6fe", "type": "electric_scooter", "name": "29d6ddf61849100b216cacd32433f6fe"}, {"is_disabled": 0, "is_reserved": 0, "fusion_lat": 0.0, "lat": 38.8783885, "fusion_lon": 0.0, "rental_uris": {"ios": "https://dc.lft.to/lastmile_qr_scan", "android": "https://dc.lft.to/lastmile_qr_scan"}, "lon": -76.98607916666667, "bike_id": "476f60cfc7f8a20dcbeb87384af5dba9", "type": "electric_scooter", "name": "476f60cfc7f8a20dcbeb87384af5dba9"}, {"is_disabled": 0, "is_reserved": 0, "fusion_lat": 0.0, "lat": 38.9181805, "fusion_lon": 0.0, "rental_uris": {"ios": "https://dc.lft.to/lastmile_qr_scan", "android": "https://dc.lft.to/lastmile_qr_scan"}, "lon": -77.02725483333333, "bike_id": "50a4d6e671755b1224293ca64fc0e003", "type": "electric_scooter", "name": "50a4d6e671755b1224293ca64fc0e003"}, {"is_disabled": 0, "is_reserved": 0, "fusion_lat": 0.0, "lat": 38.87660983333333, "fusion_lon": 0.0, "rental_uris": {"ios": "https://dc.lft.to/lastmile_qr_scan", "android": "https://dc.lft.to/lastmile_qr_scan"}, "lon": -77.0088225, "bike_id": "4866f6c7a004964b4044be00d93c138f", "type": "electric_scooter", "name": "4866f6c7a004964b4044be00d93c138f"}, {"is_disabled": 0, "is_reserved": 0, "fusion_lat": 0.0, "lat": 38.9744285, "fusion_lon": 0.0, "rental_uris": {"ios": "https://dc.lft.to/lastmile_qr_scan", "android": "https://dc.lft.to/lastmile_qr_scan"}, "lon": -77.09617516666667, "bike_id": "9ad21c3501ccaf3d33a6658c1a9d96fe", "type": "electric_bike", "name": "9ad21c3501ccaf3d33a6658c1a9d96fe"}, {"is_disabled": 0, "is_reserved": 0, "fusion_lat": 0.0, "lat": 38.89460233333333, "fusion_lon": 0.0, "rental_uris": {"ios": "https://dc.lft.to/lastmile_qr_scan", "android": "https://dc.lft.to/lastmile_qr_scan"}, "lon": -76.9368055, "bike_id": "076280e5f4a8c7851958fa2fd2761530", "type": "electric_bike", "name": "076280e5f4a8c7851958fa2fd2761530"}, {"is_disabled": 0, "is_reserved": 0, "fusion_lat": 0.0, "lat": 38.923050333333336, "fusion_lon": 0.0, "rental_uris": {"ios": "https://dc.lft.to/lastmile_qr_scan", "android": "https://dc.lft.to/lastmile_qr_scan"}, "lon": -77.033995, "bike_id": "da9ed85306f54e156bc9b8531e3ff196", "type": "electric_scooter", "name": "da9ed85306f54e156bc9b8531e3ff196"}, {"is_disabled": 0, "is_reserved": 0, "fusion_lat": 0.0, "lat": 38.8984565, "fusion_lon": 0.0, "rental_uris": {"ios": "https://dc.lft.to/lastmile_qr_scan", "android": "https://dc.lft.to/lastmile_qr_scan"}, "lon": -77.00202716666666, "bike_id": "68faca7510c1b6ab9f7360e1a577644d", "type": "electric_scooter", "name": "68faca7510c1b6ab9f7360e1a577644d"}, {"is_disabled": 0, "is_reserved": 0, "fusion_lat": 0.0, "lat": 38.90649416666667, "fusion_lon": 0.0, "rental_uris": {"ios": "https://dc.lft.to/lastmile_qr_scan", "android": "https://dc.lft.to/lastmile_qr_scan"}, "lon": -77.04878233333334, "bike_id": "d017882d2518ee282d245c36ad66a40d", "type": "electric_scooter", "name": "d017882d2518ee282d245c36ad66a40d"}, {"is_disabled": 0, "is_reserved": 0, "fusion_lat": 0.0, "lat": 38.87906266666667, "fusion_lon": 0.0, "rental_uris": {"ios": "https://dc.lft.to/lastmile_qr_scan", "android": "https://dc.lft.to/lastmile_qr_scan"}, "lon": -77.00782566666666, "bike_id": "8ddd682edc038bb8ce9e26f0ce818802", "type": "electric_scooter", "name": "8ddd682edc038bb8ce9e26f0ce818802"}, {"is_disabled": 0, "is_reserved": 0, "fusion_lat": 0.0, "lat": 38.86623916666667, "fusion_lon": 0.0, "rental_uris": {"ios": "https://dc.lft.to/lastmile_qr_scan", "android": "https://dc.lft.to/lastmile_qr_scan"}, "lon": -76.99002016666667, "bike_id": "16fc9281138753ff4365187148b52e17", "type": "electric_bike", "name": "16fc9281138753ff4365187148b52e17"}, {"is_disabled": 0, "is_reserved": 0, "fusion_lat": 0.0, "lat": 38.92427716666667, "fusion_lon": 0.0, "rental_uris": {"ios": "https://dc.lft.to/lastmile_qr_scan", "android": "https://dc.lft.to/lastmile_qr_scan"}, "lon": -77.0424795, "bike_id": "f140eb5ad297182a1fbff3bc64d8a894", "type": "electric_scooter", "name": "f140eb5ad297182a1fbff3bc64d8a894"}, {"is_disabled": 0, "is_reserved": 0, "fusion_lat": 0.0, "lat": 38.89544816666667, "fusion_lon": 0.0, "rental_uris": {"ios": "https://dc.lft.to/lastmile_qr_scan", "android": "https://dc.lft.to/lastmile_qr_scan"}, "lon": -77.02178833333333, "bike_id": "27aabdc810aff074c55acd09eac185cc", "type": "electric_scooter", "name": "27aabdc810aff074c55acd09eac185cc"}, {"is_disabled": 0, "is_reserved": 0, "fusion_lat": 0.0, "lat": 38.91661033333333, "fusion_lon": 0.0, "rental_uris": {"ios": "https://dc.lft.to/lastmile_qr_scan", "android": "https://dc.lft.to/lastmile_qr_scan"}, "lon": -77.00956583333334, "bike_id": "accc72644134edf8207e6ff573a84e20", "type": "electric_scooter", "name": "accc72644134edf8207e6ff573a84e20"}, {"is_disabled": 0, "is_reserved": 0, "fusion_lat": 0.0, "lat": 38.95010116666667, "fusion_lon": 0.0, "rental_uris": {"ios": "https://dc.lft.to/lastmile_qr_scan", "android": "https://dc.lft.to/lastmile_qr_scan"}, "lon": -77.08048283333333, "bike_id": "a5486fe129df8dd94892331c728f1217", "type": "electric_scooter", "name": "a5486fe129df8dd94892331c728f1217"}, {"is_disabled": 0, "is_reserved": 0, "fusion_lat": 0.0, "lat": 38.901026333333334, "fusion_lon": 0.0, "rental_uris": {"ios": "https://dc.lft.to/lastmile_qr_scan", "android": "https://dc.lft.to/lastmile_qr_scan"}, "lon": -77.03359216666666, "bike_id": "6eca415eb76c84be2659b428ad00a21d", "type": "electric_scooter", "name": "6eca415eb76c84be2659b428ad00a21d"}, {"is_disabled": 0, "is_reserved": 0, "fusion_lat": 0.0, "lat": 38.990956, "fusion_lon": 0.0, "rental_uris": {"ios": "https://dc.lft.to/lastmile_qr_scan", "android": "https://dc.lft.to/lastmile_qr_scan"}, "lon": -76.9937745, "bike_id": "58ef14219430d915331fda7e37f5bcaf", "type": "electric_bike", "name": "58ef14219430d915331fda7e37f5bcaf"}, {"is_disabled": 0, "is_reserved": 0, "fusion_lat": 0.0, "lat": 38.89744566666667, "fusion_lon": 0.0, "rental_uris": {"ios": "https://dc.lft.to/lastmile_qr_scan", "android": "https://dc.lft.to/lastmile_qr_scan"}, "lon": -77.04640316666666, "bike_id": "f40f336dda310964981a5907b8396b1e", "type": "electric_scooter", "name": "f40f336dda310964981a5907b8396b1e"}, {"is_disabled": 0, "is_reserved": 0, "fusion_lat": 0.0, "lat": 38.8787975, "fusion_lon": 0.0, "rental_uris": {"ios": "https://dc.lft.to/lastmile_qr_scan", "android": "https://dc.lft.to/lastmile_qr_scan"}, "lon": -77.02317016666667, "bike_id": "8f2bd6d0347f6a6ec5f633f2577d998b", "type": "electric_scooter", "name": "8f2bd6d0347f6a6ec5f633f2577d998b"}, {"is_disabled": 0, "is_reserved": 0, "fusion_lat": 0.0, "lat": 38.87840966666667, "fusion_lon": 0.0, "rental_uris": {"ios": "https://dc.lft.to/lastmile_qr_scan", "android": "https://dc.lft.to/lastmile_qr_scan"}, "lon": -77.00719883333333, "bike_id": "cab2dcb9b1f9afc3c4766dcf285b3487", "type": "electric_scooter", "name": "cab2dcb9b1f9afc3c4766dcf285b3487"}, {"is_disabled": 0, "is_reserved": 0, "fusion_lat": 0.0, "lat": 38.848609333333336, "fusion_lon": 0.0, "rental_uris": {"ios": "https://dc.lft.to/lastmile_qr_scan", "android": "https://dc.lft.to/lastmile_qr_scan"}, "lon": -77.06829233333333, "bike_id": "d96174e8eae87ffa54eac364b27abbf2", "type": "electric_bike", "name": "d96174e8eae87ffa54eac364b27abbf2"}, {"is_disabled": 0, "is_reserved": 0, "fusion_lat": 0.0, "lat": 38.908432833333336, "fusion_lon": 0.0, "rental_uris": {"ios": "https://dc.lft.to/lastmile_qr_scan", "android": "https://dc.lft.to/lastmile_qr_scan"}, "lon": -77.05807283333333, "bike_id": "0e472bfc9f2539b12fd1805b5c062aaa", "type": "electric_scooter", "name": "0e472bfc9f2539b12fd1805b5c062aaa"}, {"is_disabled": 0, "is_reserved": 0, "fusion_lat": 0.0, "lat": 38.902392, "fusion_lon": 0.0, "rental_uris": {"ios": "https://dc.lft.to/lastmile_qr_scan", "android": "https://dc.lft.to/lastmile_qr_scan"}, "lon": -77.0150935, "bike_id": "bde77b1d1940c9750b560320fdacf2d7", "type": "electric_scooter", "name": "bde77b1d1940c9750b560320fdacf2d7"}, {"is_disabled": 0, "is_reserved": 0, "fusion_lat": 0.0, "lat": 38.89220566666667, "fusion_lon": 0.0, "rental_uris": {"ios": "https://dc.lft.to/lastmile_qr_scan", "android": "https://dc.lft.to/lastmile_qr_scan"}, "lon": -77.033411, "bike_id": "c71870e88b2bbad90e3ced1a9767d6a3", "type": "electric_scooter", "name": "c71870e88b2bbad90e3ced1a9767d6a3"}, {"is_disabled": 0, "is_reserved": 0, "fusion_lat": 0.0, "lat": 38.827622833333336, "fusion_lon": 0.0, "rental_uris": {"ios": "https://dc.lft.to/lastmile_qr_scan", "android": "https://dc.lft.to/lastmile_qr_scan"}, "lon": -77.05029483333334, "bike_id": "27f7693fe8622019c9e6285011a82a47", "type": "electric_bike", "name": "27f7693fe8622019c9e6285011a82a47"}, {"is_disabled": 0, "is_reserved": 0, "fusion_lat": 0.0, "lat": 38.91490483333333, "fusion_lon": 0.0, "rental_uris": {"ios": "https://dc.lft.to/lastmile_qr_scan", "android": "https://dc.lft.to/lastmile_qr_scan"}, "lon": -77.04287533333333, "bike_id": "3353913c5e110ca3f1f4d47c4e923fd2", "type": "electric_scooter", "name": "3353913c5e110ca3f1f4d47c4e923fd2"}, {"is_disabled": 0, "is_reserved": 0, "fusion_lat": 0.0, "lat": 38.919924, "fusion_lon": 0.0, "rental_uris": {"ios": "https://dc.lft.to/lastmile_qr_scan", "android": "https://dc.lft.to/lastmile_qr_scan"}, "lon": -77.03217466666666, "bike_id": "393d531b99b4848152d51ce7fc738531", "type": "electric_scooter", "name": "393d531b99b4848152d51ce7fc738531"}, {"is_disabled": 0, "is_reserved": 0, "fusion_lat": 0.0, "lat": 38.942774, "fusion_lon": 0.0, "rental_uris": {"ios": "https://dc.lft.to/lastmile_qr_scan", "android": "https://dc.lft.to/lastmile_qr_scan"}, "lon": -77.02923483333333, "bike_id": "c9ff62734f7a25b5884b8616155bb2e7", "type": "electric_scooter", "name": "c9ff62734f7a25b5884b8616155bb2e7"}, {"is_disabled": 0, "is_reserved": 0, "fusion_lat": 0.0, "lat": 38.9084515, "fusion_lon": 0.0, "rental_uris": {"ios": "https://dc.lft.to/lastmile_qr_scan", "android": "https://dc.lft.to/lastmile_qr_scan"}, "lon": -77.02059016666666, "bike_id": "cfdf96bf221e41b5b6699d461f268d6f", "type": "electric_scooter", "name": "cfdf96bf221e41b5b6699d461f268d6f"}, {"is_disabled": 0, "is_reserved": 0, "fusion_lat": 0.0, "lat": 38.92118, "fusion_lon": 0.0, "rental_uris": {"ios": "https://dc.lft.to/lastmile_qr_scan", "android": "https://dc.lft.to/lastmile_qr_scan"}, "lon": -77.036377, "bike_id": "15c64f2498b8be1f23d02c0de84422e8", "type": "electric_scooter", "name": "15c64f2498b8be1f23d02c0de84422e8"}, {"is_disabled": 0, "is_reserved": 0, "fusion_lat": 0.0, "lat": 38.953070333333336, "fusion_lon": 0.0, "rental_uris": {"ios": "https://dc.lft.to/lastmile_qr_scan", "android": "https://dc.lft.to/lastmile_qr_scan"}, "lon": -77.02017383333333, "bike_id": "b6ad59bcc3913fd66fbe578da83f1ed5", "type": "electric_scooter", "name": "b6ad59bcc3913fd66fbe578da83f1ed5"}, {"is_disabled": 0, "is_reserved": 0, "fusion_lat": 0.0, "lat": 38.93697383333333, "fusion_lon": 0.0, "rental_uris": {"ios": "https://dc.lft.to/lastmile_qr_scan", "android": "https://dc.lft.to/lastmile_qr_scan"}, "lon": -77.05597233333333, "bike_id": "32c594cacd25118a80c1217b48d74167", "type": "electric_scooter", "name": "32c594cacd25118a80c1217b48d74167"}, {"is_disabled": 0, "is_reserved": 0, "fusion_lat": 0.0, "lat": 38.90406883333333, "fusion_lon": 0.0, "rental_uris": {"ios": "https://dc.lft.to/lastmile_qr_scan", "android": "https://dc.lft.to/lastmile_qr_scan"}, "lon": -77.01868583333334, "bike_id": "788e9c315364e0af9051b54771c73973", "type": "electric_scooter", "name": "788e9c315364e0af9051b54771c73973"}, {"is_disabled": 0, "is_reserved": 0, "fusion_lat": 0.0, "lat": 38.9536805, "fusion_lon": 0.0, "rental_uris": {"ios": "https://dc.lft.to/lastmile_qr_scan", "android": "https://dc.lft.to/lastmile_qr_scan"}, "lon": -76.9983385, "bike_id": "799e134a60eb3a27ece4e05e8c1490f1", "type": "electric_scooter", "name": "799e134a60eb3a27ece4e05e8c1490f1"}, {"is_disabled": 0, "is_reserved": 0, "fusion_lat": 0.0, "lat": 38.8858125, "fusion_lon": 0.0, "rental_uris": {"ios": "https://dc.lft.to/lastmile_qr_scan", "android": "https://dc.lft.to/lastmile_qr_scan"}, "lon": -77.01224816666667, "bike_id": "6a730b306e63d260ac067d16f0c18d6c", "type": "electric_scooter", "name": "6a730b306e63d260ac067d16f0c18d6c"}, {"is_disabled": 0, "is_reserved": 0, "fusion_lat": 0.0, "lat": 38.934724333333335, "fusion_lon": 0.0, "rental_uris": {"ios": "https://dc.lft.to/lastmile_qr_scan", "android": "https://dc.lft.to/lastmile_qr_scan"}, "lon": -77.0241025, "bike_id": "196bc4ba0c5b87adbf053fcccc7e80eb", "type": "electric_scooter", "name": "196bc4ba0c5b87adbf053fcccc7e80eb"}, {"is_disabled": 0, "is_reserved": 0, "fusion_lat": 0.0, "lat": 38.920789, "fusion_lon": 0.0, "rental_uris": {"ios": "https://dc.lft.to/lastmile_qr_scan", "android": "https://dc.lft.to/lastmile_qr_scan"}, "lon": -77.0045575, "bike_id": "f3cc616e731ec3c3a25cc9b45ec0f383", "type": "electric_scooter", "name": "f3cc616e731ec3c3a25cc9b45ec0f383"}, {"is_disabled": 0, "is_reserved": 0, "fusion_lat": 0.0, "lat": 38.9318985, "fusion_lon": 0.0, "rental_uris": {"ios": "https://dc.lft.to/lastmile_qr_scan", "android": "https://dc.lft.to/lastmile_qr_scan"}, "lon": -77.02449866666667, "bike_id": "754ffed21a09368fa75f1df3dda837d8", "type": "electric_scooter", "name": "754ffed21a09368fa75f1df3dda837d8"}, {"is_disabled": 0, "is_reserved": 0, "fusion_lat": 0.0, "lat": 38.94603033333333, "fusion_lon": 0.0, "rental_uris": {"ios": "https://dc.lft.to/lastmile_qr_scan", "android": "https://dc.lft.to/lastmile_qr_scan"}, "lon": -77.0173855, "bike_id": "63c33c692ab02819473fa0087d0a94e1", "type": "electric_bike", "name": "63c33c692ab02819473fa0087d0a94e1"}, {"is_disabled": 0, "is_reserved": 0, "fusion_lat": 0.0, "lat": 38.9264995, "fusion_lon": 0.0, "rental_uris": {"ios": "https://dc.lft.to/lastmile_qr_scan", "android": "https://dc.lft.to/lastmile_qr_scan"}, "lon": -77.0902075, "bike_id": "38b91037020233fa03cfd4c7cc0631b2", "type": "electric_bike", "name": "38b91037020233fa03cfd4c7cc0631b2"}, {"is_disabled": 0, "is_reserved": 0, "fusion_lat": 0.0, "lat": 38.90572616666667, "fusion_lon": 0.0, "rental_uris": {"ios": "https://dc.lft.to/lastmile_qr_scan", "android": "https://dc.lft.to/lastmile_qr_scan"}, "lon": -77.00869466666667, "bike_id": "c72f5d1f0dd0e4c0ad4c51e4a4689414", "type": "electric_scooter", "name": "c72f5d1f0dd0e4c0ad4c51e4a4689414"}, {"is_disabled": 0, "is_reserved": 0, "fusion_lat": 0.0, "lat": 38.971548166666665, "fusion_lon": 0.0, "rental_uris": {"ios": "https://dc.lft.to/lastmile_qr_scan", "android": "https://dc.lft.to/lastmile_qr_scan"}, "lon": -76.98364166666667, "bike_id": "e53531928758cde6f1e11351ee82190d", "type": "electric_bike", "name": "e53531928758cde6f1e11351ee82190d"}, {"is_disabled": 0, "is_reserved": 0, "fusion_lat": 0.0, "lat": 38.894896333333335, "fusion_lon": 0.0, "rental_uris": {"ios": "https://dc.lft.to/lastmile_qr_scan", "android": "https://dc.lft.to/lastmile_qr_scan"}, "lon": -77.0098365, "bike_id": "ce115fa6e2af28206459e16426135425", "type": "electric_scooter", "name": "ce115fa6e2af28206459e16426135425"}, {"is_disabled": 0, "is_reserved": 0, "fusion_lat": 0.0, "lat": 38.903468333333336, "fusion_lon": 0.0, "rental_uris": {"ios": "https://dc.lft.to/lastmile_qr_scan", "android": "https://dc.lft.to/lastmile_qr_scan"}, "lon": -76.97488433333334, "bike_id": "6573e68f82021a657953b64c56cad790", "type": "electric_scooter", "name": "6573e68f82021a657953b64c56cad790"}, {"is_disabled": 0, "is_reserved": 0, "fusion_lat": 0.0, "lat": 38.90311, "fusion_lon": 0.0, "rental_uris": {"ios": "https://dc.lft.to/lastmile_qr_scan", "android": "https://dc.lft.to/lastmile_qr_scan"}, "lon": -77.02156166666667, "bike_id": "b77e236588b298dd2b8d94e042d4a52b", "type": "electric_scooter", "name": "b77e236588b298dd2b8d94e042d4a52b"}, {"is_disabled": 0, "is_reserved": 0, "fusion_lat": 0.0, "lat": 38.916907, "fusion_lon": 0.0, "rental_uris": {"ios": "https://dc.lft.to/lastmile_qr_scan", "android": "https://dc.lft.to/lastmile_qr_scan"}, "lon": -77.0257165, "bike_id": "2edf6ceff5ee1ddea278bfa273686292", "type": "electric_scooter", "name": "2edf6ceff5ee1ddea278bfa273686292"}, {"is_disabled": 0, "is_reserved": 0, "fusion_lat": 0.0, "lat": 38.939311833333335, "fusion_lon": 0.0, "rental_uris": {"ios": "https://dc.lft.to/lastmile_qr_scan", "android": "https://dc.lft.to/lastmile_qr_scan"}, "lon": -77.025856, "bike_id": "8f438c2004df36806cea3fadb2693297", "type": "electric_scooter", "name": "8f438c2004df36806cea3fadb2693297"}, {"is_disabled": 0, "is_reserved": 0, "fusion_lat": 0.0, "lat": 38.83299783333333, "fusion_lon": 0.0, "rental_uris": {"ios": "https://dc.lft.to/lastmile_qr_scan", "android": "https://dc.lft.to/lastmile_qr_scan"}, "lon": -77.08411883333333, "bike_id": "ea97abceac690e2c24cd9e0d3d1e91ea", "type": "electric_bike", "name": "ea97abceac690e2c24cd9e0d3d1e91ea"}, {"is_disabled": 0, "is_reserved": 0, "fusion_lat": 0.0, "lat": 38.93636683333333, "fusion_lon": 0.0, "rental_uris": {"ios": "https://dc.lft.to/lastmile_qr_scan", "android": "https://dc.lft.to/lastmile_qr_scan"}, "lon": -77.03687883333333, "bike_id": "bcb058b6bfb78f3375f453558b1743c4", "type": "electric_scooter", "name": "bcb058b6bfb78f3375f453558b1743c4"}, {"is_disabled": 0, "is_reserved": 0, "fusion_lat": 0.0, "lat": 38.94228833333333, "fusion_lon": 0.0, "rental_uris": {"ios": "https://dc.lft.to/lastmile_qr_scan", "android": "https://dc.lft.to/lastmile_qr_scan"}, "lon": -77.01439133333334, "bike_id": "35e51114202300c454a87834b94bacf0", "type": "electric_scooter", "name": "35e51114202300c454a87834b94bacf0"}, {"is_disabled": 0, "is_reserved": 0, "fusion_lat": 0.0, "lat": 38.898485, "fusion_lon": 0.0, "rental_uris": {"ios": "https://dc.lft.to/lastmile_qr_scan", "android": "https://dc.lft.to/lastmile_qr_scan"}, "lon": -76.9275165, "bike_id": "a54895c1fccbd6db53ff8149d27a9680", "type": "electric_scooter", "name": "a54895c1fccbd6db53ff8149d27a9680"}, {"is_disabled": 0, "is_reserved": 0, "fusion_lat": 0.0, "lat": 38.8905585, "fusion_lon": 0.0, "rental_uris": {"ios": "https://dc.lft.to/lastmile_qr_scan", "android": "https://dc.lft.to/lastmile_qr_scan"}, "lon": -77.02665216666666, "bike_id": "c2642aaea56107ccdadd1cb16aa2647c", "type": "electric_bike", "name": "c2642aaea56107ccdadd1cb16aa2647c"}, {"is_disabled": 0, "is_reserved": 0, "fusion_lat": 0.0, "lat": 38.9311115, "fusion_lon": 0.0, "rental_uris": {"ios": "https://dc.lft.to/lastmile_qr_scan", "android": "https://dc.lft.to/lastmile_qr_scan"}, "lon": -77.02135133333333, "bike_id": "17597fa6e291b462ca5705cf122b14ed", "type": "electric_scooter", "name": "17597fa6e291b462ca5705cf122b14ed"}, {"is_disabled": 0, "is_reserved": 0, "fusion_lat": 0.0, "lat": 38.9188185, "fusion_lon": 0.0, "rental_uris": {"ios": "https://dc.lft.to/lastmile_qr_scan", "android": "https://dc.lft.to/lastmile_qr_scan"}, "lon": -77.03666533333333, "bike_id": "ed057bb601630304fc70289434d2ac47", "type": "electric_scooter", "name": "ed057bb601630304fc70289434d2ac47"}, {"is_disabled": 0, "is_reserved": 0, "fusion_lat": 0.0, "lat": 38.907195, "fusion_lon": 0.0, "rental_uris": {"ios": "https://dc.lft.to/lastmile_qr_scan", "android": "https://dc.lft.to/lastmile_qr_scan"}, "lon": -77.046419, "bike_id": "cb2bb78f12ac7fc8f365597ef434c3ce", "type": "electric_scooter", "name": "cb2bb78f12ac7fc8f365597ef434c3ce"}, {"is_disabled": 0, "is_reserved": 0, "fusion_lat": 0.0, "lat": 38.90430683333334, "fusion_lon": 0.0, "rental_uris": {"ios": "https://dc.lft.to/lastmile_qr_scan", "android": "https://dc.lft.to/lastmile_qr_scan"}, "lon": -76.9722305, "bike_id": "61cfa8412ce1ea342db32066f2751435", "type": "electric_bike", "name": "61cfa8412ce1ea342db32066f2751435"}, {"is_disabled": 0, "is_reserved": 0, "fusion_lat": 0.0, "lat": 38.904341333333335, "fusion_lon": 0.0, "rental_uris": {"ios": "https://dc.lft.to/lastmile_qr_scan", "android": "https://dc.lft.to/lastmile_qr_scan"}, "lon": -77.02848266666666, "bike_id": "9e9e5df73af363d16b2aef60ecbc93b9", "type": "electric_scooter", "name": "9e9e5df73af363d16b2aef60ecbc93b9"}, {"is_disabled": 0, "is_reserved": 0, "fusion_lat": 0.0, "lat": 38.897571166666665, "fusion_lon": 0.0, "rental_uris": {"ios": "https://dc.lft.to/lastmile_qr_scan", "android": "https://dc.lft.to/lastmile_qr_scan"}, "lon": -77.04819533333334, "bike_id": "f5349194f51d2d858e3d0742a634b142", "type": "electric_scooter", "name": "f5349194f51d2d858e3d0742a634b142"}, {"is_disabled": 0, "is_reserved": 0, "fusion_lat": 0.0, "lat": 38.93064833333333, "fusion_lon": 0.0, "rental_uris": {"ios": "https://dc.lft.to/lastmile_qr_scan", "android": "https://dc.lft.to/lastmile_qr_scan"}, "lon": -77.04218816666666, "bike_id": "a8a420f134caadf2652396edcc9f3e5d", "type": "electric_scooter", "name": "a8a420f134caadf2652396edcc9f3e5d"}, {"is_disabled": 0, "is_reserved": 0, "fusion_lat": 0.0, "lat": 38.919187666666666, "fusion_lon": 0.0, "rental_uris": {"ios": "https://dc.lft.to/lastmile_qr_scan", "android": "https://dc.lft.to/lastmile_qr_scan"}, "lon": -77.00976, "bike_id": "7d87241381a857633561aa2821d182bb", "type": "electric_scooter", "name": "7d87241381a857633561aa2821d182bb"}, {"is_disabled": 0, "is_reserved": 0, "fusion_lat": 0.0, "lat": 38.924817166666664, "fusion_lon": 0.0, "rental_uris": {"ios": "https://dc.lft.to/lastmile_qr_scan", "android": "https://dc.lft.to/lastmile_qr_scan"}, "lon": -77.02839383333334, "bike_id": "aa1b8bc59a2686df6339015dd6002f83", "type": "electric_scooter", "name": "aa1b8bc59a2686df6339015dd6002f83"}, {"is_disabled": 0, "is_reserved": 0, "fusion_lat": 0.0, "lat": 38.93242883333333, "fusion_lon": 0.0, "rental_uris": {"ios": "https://dc.lft.to/lastmile_qr_scan", "android": "https://dc.lft.to/lastmile_qr_scan"}, "lon": -77.03412916666667, "bike_id": "b01bbc997688bf005294adc27c5aa922", "type": "electric_scooter", "name": "b01bbc997688bf005294adc27c5aa922"}, {"is_disabled": 0, "is_reserved": 0, "fusion_lat": 0.0, "lat": 38.95098733333333, "fusion_lon": 0.0, "rental_uris": {"ios": "https://dc.lft.to/lastmile_qr_scan", "android": "https://dc.lft.to/lastmile_qr_scan"}, "lon": -77.01910266666667, "bike_id": "b299504c5b5e8c4b87933232b74edac1", "type": "electric_scooter", "name": "b299504c5b5e8c4b87933232b74edac1"}, {"is_disabled": 0, "is_reserved": 0, "fusion_lat": 0.0, "lat": 38.9177295, "fusion_lon": 0.0, "rental_uris": {"ios": "https://dc.lft.to/lastmile_qr_scan", "android": "https://dc.lft.to/lastmile_qr_scan"}, "lon": -77.0358465, "bike_id": "c43a098164d658d4cee5da389f01500c", "type": "electric_scooter", "name": "c43a098164d658d4cee5da389f01500c"}, {"is_disabled": 0, "is_reserved": 0, "fusion_lat": 0.0, "lat": 38.905393833333335, "fusion_lon": 0.0, "rental_uris": {"ios": "https://dc.lft.to/lastmile_qr_scan", "android": "https://dc.lft.to/lastmile_qr_scan"}, "lon": -77.05697916666666, "bike_id": "76d639579f0f91d1f9ad7717176d0292", "type": "electric_scooter", "name": "76d639579f0f91d1f9ad7717176d0292"}, {"is_disabled": 0, "is_reserved": 0, "fusion_lat": 0.0, "lat": 38.91350166666667, "fusion_lon": 0.0, "rental_uris": {"ios": "https://dc.lft.to/lastmile_qr_scan", "android": "https://dc.lft.to/lastmile_qr_scan"}, "lon": -77.04421283333333, "bike_id": "71b7026d41475fd1cc8434969e08be68", "type": "electric_scooter", "name": "71b7026d41475fd1cc8434969e08be68"}, {"is_disabled": 0, "is_reserved": 0, "fusion_lat": 0.0, "lat": 38.9403525, "fusion_lon": 0.0, "rental_uris": {"ios": "https://dc.lft.to/lastmile_qr_scan", "android": "https://dc.lft.to/lastmile_qr_scan"}, "lon": -77.02514016666667, "bike_id": "74a7ecf5bf307eba71983e2e0abad800", "type": "electric_scooter", "name": "74a7ecf5bf307eba71983e2e0abad800"}, {"is_disabled": 0, "is_reserved": 0, "fusion_lat": 0.0, "lat": 38.92381, "fusion_lon": 0.0, "rental_uris": {"ios": "https://dc.lft.to/lastmile_qr_scan", "android": "https://dc.lft.to/lastmile_qr_scan"}, "lon": -77.0203075, "bike_id": "5cced9ea22958340712df929fe486331", "type": "electric_scooter", "name": "5cced9ea22958340712df929fe486331"}, {"is_disabled": 0, "is_reserved": 0, "fusion_lat": 0.0, "lat": 38.90721516666667, "fusion_lon": 0.0, "rental_uris": {"ios": "https://dc.lft.to/lastmile_qr_scan", "android": "https://dc.lft.to/lastmile_qr_scan"}, "lon": -77.0480805, "bike_id": "f1fd1783052a78690989160216fd7964", "type": "electric_scooter", "name": "f1fd1783052a78690989160216fd7964"}, {"is_disabled": 0, "is_reserved": 0, "fusion_lat": 0.0, "lat": 38.906573, "fusion_lon": 0.0, "rental_uris": {"ios": "https://dc.lft.to/lastmile_qr_scan", "android": "https://dc.lft.to/lastmile_qr_scan"}, "lon": -76.98604366666666, "bike_id": "d2979c7ccd183a772b40561ea5b3b434", "type": "electric_scooter", "name": "d2979c7ccd183a772b40561ea5b3b434"}, {"is_disabled": 0, "is_reserved": 0, "fusion_lat": 0.0, "lat": 38.880359, "fusion_lon": 0.0, "rental_uris": {"ios": "https://dc.lft.to/lastmile_qr_scan", "android": "https://dc.lft.to/lastmile_qr_scan"}, "lon": -76.92720183333333, "bike_id": "c58963b2c8e867b3b746bb5f5395055c", "type": "electric_scooter", "name": "c58963b2c8e867b3b746bb5f5395055c"}, {"is_disabled": 0, "is_reserved": 0, "fusion_lat": 0.0, "lat": 38.82922, "fusion_lon": 0.0, "rental_uris": {"ios": "https://dc.lft.to/lastmile_qr_scan", "android": "https://dc.lft.to/lastmile_qr_scan"}, "lon": -77.06877366666667, "bike_id": "1f8df0df576faa98bcccf77812e7cf17", "type": "electric_bike", "name": "1f8df0df576faa98bcccf77812e7cf17"}, {"is_disabled": 0, "is_reserved": 0, "fusion_lat": 0.0, "lat": 38.89917066666667, "fusion_lon": 0.0, "rental_uris": {"ios": "https://dc.lft.to/lastmile_qr_scan", "android": "https://dc.lft.to/lastmile_qr_scan"}, "lon": -76.93369433333334, "bike_id": "6352eaa4203f66fe7c1271aee3e7d8db", "type": "electric_scooter", "name": "6352eaa4203f66fe7c1271aee3e7d8db"}, {"is_disabled": 0, "is_reserved": 0, "fusion_lat": 0.0, "lat": 38.896069, "fusion_lon": 0.0, "rental_uris": {"ios": "https://dc.lft.to/lastmile_qr_scan", "android": "https://dc.lft.to/lastmile_qr_scan"}, "lon": -77.003352, "bike_id": "19b40ca6a3994a3c0d755301f6c03f0f", "type": "electric_scooter", "name": "19b40ca6a3994a3c0d755301f6c03f0f"}, {"is_disabled": 0, "is_reserved": 0, "fusion_lat": 0.0, "lat": 38.92872366666667, "fusion_lon": 0.0, "rental_uris": {"ios": "https://dc.lft.to/lastmile_qr_scan", "android": "https://dc.lft.to/lastmile_qr_scan"}, "lon": -77.056556, "bike_id": "1bdb94390123020233830a913f11c1f7", "type": "electric_scooter", "name": "1bdb94390123020233830a913f11c1f7"}, {"is_disabled": 0, "is_reserved": 0, "fusion_lat": 0.0, "lat": 38.922607, "fusion_lon": 0.0, "rental_uris": {"ios": "https://dc.lft.to/lastmile_qr_scan", "android": "https://dc.lft.to/lastmile_qr_scan"}, "lon": -77.07275016666667, "bike_id": "0be64a6fb2f3c605385e9a15a96f96eb", "type": "electric_scooter", "name": "0be64a6fb2f3c605385e9a15a96f96eb"}, {"is_disabled": 0, "is_reserved": 0, "fusion_lat": 0.0, "lat": 38.91263883333333, "fusion_lon": 0.0, "rental_uris": {"ios": "https://dc.lft.to/lastmile_qr_scan", "android": "https://dc.lft.to/lastmile_qr_scan"}, "lon": -77.0160905, "bike_id": "82472241612fb90b0f436374a47b221b", "type": "electric_scooter", "name": "82472241612fb90b0f436374a47b221b"}, {"is_disabled": 0, "is_reserved": 0, "fusion_lat": 0.0, "lat": 38.92762333333334, "fusion_lon": 0.0, "rental_uris": {"ios": "https://dc.lft.to/lastmile_qr_scan", "android": "https://dc.lft.to/lastmile_qr_scan"}, "lon": -77.02951933333334, "bike_id": "73801a5fb828766a4339888f5442b22e", "type": "electric_scooter", "name": "73801a5fb828766a4339888f5442b22e"}, {"is_disabled": 0, "is_reserved": 0, "fusion_lat": 0.0, "lat": 38.881263, "fusion_lon": 0.0, "rental_uris": {"ios": "https://dc.lft.to/lastmile_qr_scan", "android": "https://dc.lft.to/lastmile_qr_scan"}, "lon": -76.99287233333334, "bike_id": "d263f1750222be66d09731c6fce3f254", "type": "electric_scooter", "name": "d263f1750222be66d09731c6fce3f254"}, {"is_disabled": 0, "is_reserved": 0, "fusion_lat": 0.0, "lat": 38.944907666666666, "fusion_lon": 0.0, "rental_uris": {"ios": "https://dc.lft.to/lastmile_qr_scan", "android": "https://dc.lft.to/lastmile_qr_scan"}, "lon": -77.00735333333333, "bike_id": "6bfe651211f28845a8846ee0e94dd491", "type": "electric_bike", "name": "6bfe651211f28845a8846ee0e94dd491"}, {"is_disabled": 0, "is_reserved": 0, "fusion_lat": 0.0, "lat": 38.87829683333333, "fusion_lon": 0.0, "rental_uris": {"ios": "https://dc.lft.to/lastmile_qr_scan", "android": "https://dc.lft.to/lastmile_qr_scan"}, "lon": -77.0054285, "bike_id": "68d5cbdad4fe54cd6b674e7eebcc9ee1", "type": "electric_scooter", "name": "68d5cbdad4fe54cd6b674e7eebcc9ee1"}, {"is_disabled": 0, "is_reserved": 0, "fusion_lat": 0.0, "lat": 38.9150405, "fusion_lon": 0.0, "rental_uris": {"ios": "https://dc.lft.to/lastmile_qr_scan", "android": "https://dc.lft.to/lastmile_qr_scan"}, "lon": -77.00921916666667, "bike_id": "ebf7f701201bcb71d8823aa72677b478", "type": "electric_scooter", "name": "ebf7f701201bcb71d8823aa72677b478"}, {"is_disabled": 0, "is_reserved": 0, "fusion_lat": 0.0, "lat": 38.903305333333336, "fusion_lon": 0.0, "rental_uris": {"ios": "https://dc.lft.to/lastmile_qr_scan", "android": "https://dc.lft.to/lastmile_qr_scan"}, "lon": -77.01964116666667, "bike_id": "dcb1c7075eda30be312f432f4ff83504", "type": "electric_scooter", "name": "dcb1c7075eda30be312f432f4ff83504"}, {"is_disabled": 0, "is_reserved": 0, "fusion_lat": 0.0, "lat": 38.80520966666667, "fusion_lon": 0.0, "rental_uris": {"ios": "https://dc.lft.to/lastmile_qr_scan", "android": "https://dc.lft.to/lastmile_qr_scan"}, "lon": -77.043374, "bike_id": "84b397970e3eddd1d3f4c632e94ff47f", "type": "electric_bike", "name": "84b397970e3eddd1d3f4c632e94ff47f"}, {"is_disabled": 0, "is_reserved": 0, "fusion_lat": 0.0, "lat": 38.96797766666667, "fusion_lon": 0.0, "rental_uris": {"ios": "https://dc.lft.to/lastmile_qr_scan", "android": "https://dc.lft.to/lastmile_qr_scan"}, "lon": -77.024321, "bike_id": "f708698ec10b74b896d3e0a1a5cd3fec", "type": "electric_scooter", "name": "f708698ec10b74b896d3e0a1a5cd3fec"}, {"is_disabled": 0, "is_reserved": 0, "fusion_lat": 0.0, "lat": 38.908554, "fusion_lon": 0.0, "rental_uris": {"ios": "https://dc.lft.to/lastmile_qr_scan", "android": "https://dc.lft.to/lastmile_qr_scan"}, "lon": -77.00415533333333, "bike_id": "2aa736a9981c6bcd77220a0e64c2bc82", "type": "electric_scooter", "name": "2aa736a9981c6bcd77220a0e64c2bc82"}, {"is_disabled": 0, "is_reserved": 0, "fusion_lat": 0.0, "lat": 38.90846766666667, "fusion_lon": 0.0, "rental_uris": {"ios": "https://dc.lft.to/lastmile_qr_scan", "android": "https://dc.lft.to/lastmile_qr_scan"}, "lon": -76.9344705, "bike_id": "d57e806d62c9869c73d90532ddf6e31e", "type": "electric_scooter", "name": "d57e806d62c9869c73d90532ddf6e31e"}, {"is_disabled": 0, "is_reserved": 0, "fusion_lat": 0.0, "lat": 38.96553016666667, "fusion_lon": 0.0, "rental_uris": {"ios": "https://dc.lft.to/lastmile_qr_scan", "android": "https://dc.lft.to/lastmile_qr_scan"}, "lon": -77.01627883333333, "bike_id": "219ee9aa533463d44d85d646d51de675", "type": "electric_bike", "name": "219ee9aa533463d44d85d646d51de675"}, {"is_disabled": 0, "is_reserved": 0, "fusion_lat": 0.0, "lat": 38.90759833333333, "fusion_lon": 0.0, "rental_uris": {"ios": "https://dc.lft.to/lastmile_qr_scan", "android": "https://dc.lft.to/lastmile_qr_scan"}, "lon": -77.00040766666666, "bike_id": "cc43c77dc48f45aece86648ede112487", "type": "electric_scooter", "name": "cc43c77dc48f45aece86648ede112487"}, {"is_disabled": 0, "is_reserved": 0, "fusion_lat": 0.0, "lat": 38.90892216666667, "fusion_lon": 0.0, "rental_uris": {"ios": "https://dc.lft.to/lastmile_qr_scan", "android": "https://dc.lft.to/lastmile_qr_scan"}, "lon": -77.0467125, "bike_id": "eca8394b1ffb1156c24ee3a956dbac45", "type": "electric_scooter", "name": "eca8394b1ffb1156c24ee3a956dbac45"}, {"is_disabled": 0, "is_reserved": 0, "fusion_lat": 0.0, "lat": 39.0423855, "fusion_lon": 0.0, "rental_uris": {"ios": "https://dc.lft.to/lastmile_qr_scan", "android": "https://dc.lft.to/lastmile_qr_scan"}, "lon": -76.99733533333334, "bike_id": "aa61b9be39b85eed930330969814f936", "type": "electric_bike", "name": "aa61b9be39b85eed930330969814f936"}, {"is_disabled": 0, "is_reserved": 0, "fusion_lat": 0.0, "lat": 38.91277316666667, "fusion_lon": 0.0, "rental_uris": {"ios": "https://dc.lft.to/lastmile_qr_scan", "android": "https://dc.lft.to/lastmile_qr_scan"}, "lon": -77.04666366666666, "bike_id": "3b9d0f33c19aa9234d85aacab3d59aaa", "type": "electric_scooter", "name": "3b9d0f33c19aa9234d85aacab3d59aaa"}, {"is_disabled": 0, "is_reserved": 0, "fusion_lat": 0.0, "lat": 38.998507000000004, "fusion_lon": 0.0, "rental_uris": {"ios": "https://dc.lft.to/lastmile_qr_scan", "android": "https://dc.lft.to/lastmile_qr_scan"}, "lon": -77.0024985, "bike_id": "6d3e8da700db8b7b6c8411754bfed6f9", "type": "electric_bike", "name": "6d3e8da700db8b7b6c8411754bfed6f9"}, {"is_disabled": 0, "is_reserved": 0, "fusion_lat": 0.0, "lat": 38.89477466666666, "fusion_lon": 0.0, "rental_uris": {"ios": "https://dc.lft.to/lastmile_qr_scan", "android": "https://dc.lft.to/lastmile_qr_scan"}, "lon": -77.00269733333333, "bike_id": "a581dfe501fd2f730dc1e45bf906007a", "type": "electric_scooter", "name": "a581dfe501fd2f730dc1e45bf906007a"}, {"is_disabled": 0, "is_reserved": 0, "fusion_lat": 0.0, "lat": 38.8756355, "fusion_lon": 0.0, "rental_uris": {"ios": "https://dc.lft.to/lastmile_qr_scan", "android": "https://dc.lft.to/lastmile_qr_scan"}, "lon": -77.04705666666666, "bike_id": "2c4e823a5bc75f6940c8ad3ea0777631", "type": "electric_bike", "name": "2c4e823a5bc75f6940c8ad3ea0777631"}, {"is_disabled": 0, "is_reserved": 0, "fusion_lat": 0.0, "lat": 38.9133215, "fusion_lon": 0.0, "rental_uris": {"ios": "https://dc.lft.to/lastmile_qr_scan", "android": "https://dc.lft.to/lastmile_qr_scan"}, "lon": -77.0165755, "bike_id": "93956bfaaf25180b27ce98b0ba0e11f3", "type": "electric_scooter", "name": "93956bfaaf25180b27ce98b0ba0e11f3"}, {"is_disabled": 0, "is_reserved": 0, "fusion_lat": 0.0, "lat": 38.91631616666667, "fusion_lon": 0.0, "rental_uris": {"ios": "https://dc.lft.to/lastmile_qr_scan", "android": "https://dc.lft.to/lastmile_qr_scan"}, "lon": -77.00852583333334, "bike_id": "1fa6a5a973d2e1b9579fa22232dbeb89", "type": "electric_scooter", "name": "1fa6a5a973d2e1b9579fa22232dbeb89"}, {"is_disabled": 0, "is_reserved": 0, "fusion_lat": 0.0, "lat": 38.90653366666667, "fusion_lon": 0.0, "rental_uris": {"ios": "https://dc.lft.to/lastmile_qr_scan", "android": "https://dc.lft.to/lastmile_qr_scan"}, "lon": -77.01120366666666, "bike_id": "cd1608022cc46de34f424a60b9f13a76", "type": "electric_scooter", "name": "cd1608022cc46de34f424a60b9f13a76"}, {"is_disabled": 0, "is_reserved": 0, "fusion_lat": 0.0, "lat": 38.93658933333333, "fusion_lon": 0.0, "rental_uris": {"ios": "https://dc.lft.to/lastmile_qr_scan", "android": "https://dc.lft.to/lastmile_qr_scan"}, "lon": -77.066072, "bike_id": "79e1074ed8de4a62365b8fbba7035a57", "type": "electric_scooter", "name": "79e1074ed8de4a62365b8fbba7035a57"}, {"is_disabled": 0, "is_reserved": 0, "fusion_lat": 0.0, "lat": 38.92549133333333, "fusion_lon": 0.0, "rental_uris": {"ios": "https://dc.lft.to/lastmile_qr_scan", "android": "https://dc.lft.to/lastmile_qr_scan"}, "lon": -77.00324116666667, "bike_id": "1bf181906be4efd42656cf70d373e6b5", "type": "electric_scooter", "name": "1bf181906be4efd42656cf70d373e6b5"}, {"is_disabled": 0, "is_reserved": 0, "fusion_lat": 0.0, "lat": 38.93065133333333, "fusion_lon": 0.0, "rental_uris": {"ios": "https://dc.lft.to/lastmile_qr_scan", "android": "https://dc.lft.to/lastmile_qr_scan"}, "lon": -77.04029333333334, "bike_id": "3d2b2edf2c6fa3be1167030117bb22bf", "type": "electric_scooter", "name": "3d2b2edf2c6fa3be1167030117bb22bf"}, {"is_disabled": 0, "is_reserved": 0, "fusion_lat": 0.0, "lat": 38.8976145, "fusion_lon": 0.0, "rental_uris": {"ios": "https://dc.lft.to/lastmile_qr_scan", "android": "https://dc.lft.to/lastmile_qr_scan"}, "lon": -77.0270115, "bike_id": "eb1c690d43449e09b6cc7a070a29e1cf", "type": "electric_scooter", "name": "eb1c690d43449e09b6cc7a070a29e1cf"}, {"is_disabled": 0, "is_reserved": 0, "fusion_lat": 0.0, "lat": 38.8777795, "fusion_lon": 0.0, "rental_uris": {"ios": "https://dc.lft.to/lastmile_qr_scan", "android": "https://dc.lft.to/lastmile_qr_scan"}, "lon": -77.00126866666666, "bike_id": "e0ee67a85be020590932fcdb858e1c87", "type": "electric_scooter", "name": "e0ee67a85be020590932fcdb858e1c87"}, {"is_disabled": 0, "is_reserved": 0, "fusion_lat": 0.0, "lat": 38.931235, "fusion_lon": 0.0, "rental_uris": {"ios": "https://dc.lft.to/lastmile_qr_scan", "android": "https://dc.lft.to/lastmile_qr_scan"}, "lon": -77.0207015, "bike_id": "b5cb095fa75180f0f6ca19a5f50954cf", "type": "electric_scooter", "name": "b5cb095fa75180f0f6ca19a5f50954cf"}, {"is_disabled": 0, "is_reserved": 0, "fusion_lat": 0.0, "lat": 38.91932166666667, "fusion_lon": 0.0, "rental_uris": {"ios": "https://dc.lft.to/lastmile_qr_scan", "android": "https://dc.lft.to/lastmile_qr_scan"}, "lon": -77.04472366666667, "bike_id": "fb9af30d4c3e8ffa95ec6b5c19c6cfb3", "type": "electric_scooter", "name": "fb9af30d4c3e8ffa95ec6b5c19c6cfb3"}, {"is_disabled": 0, "is_reserved": 0, "fusion_lat": 0.0, "lat": 38.91554133333333, "fusion_lon": 0.0, "rental_uris": {"ios": "https://dc.lft.to/lastmile_qr_scan", "android": "https://dc.lft.to/lastmile_qr_scan"}, "lon": -77.05103783333334, "bike_id": "84c7d1de9b7d1683dc693cd7f406b075", "type": "electric_scooter", "name": "84c7d1de9b7d1683dc693cd7f406b075"}, {"is_disabled": 0, "is_reserved": 0, "fusion_lat": 0.0, "lat": 38.846735, "fusion_lon": 0.0, "rental_uris": {"ios": "https://dc.lft.to/lastmile_qr_scan", "android": "https://dc.lft.to/lastmile_qr_scan"}, "lon": -77.13936116666666, "bike_id": "298b57e7f2532eb19c3a13158f2b38c1", "type": "electric_bike", "name": "298b57e7f2532eb19c3a13158f2b38c1"}, {"is_disabled": 0, "is_reserved": 0, "fusion_lat": 0.0, "lat": 38.9160005, "fusion_lon": 0.0, "rental_uris": {"ios": "https://dc.lft.to/lastmile_qr_scan", "android": "https://dc.lft.to/lastmile_qr_scan"}, "lon": -77.04350033333333, "bike_id": "a2d22043c1e7986034443838f0cde8f8", "type": "electric_scooter", "name": "a2d22043c1e7986034443838f0cde8f8"}, {"is_disabled": 0, "is_reserved": 0, "fusion_lat": 0.0, "lat": 38.92092316666667, "fusion_lon": 0.0, "rental_uris": {"ios": "https://dc.lft.to/lastmile_qr_scan", "android": "https://dc.lft.to/lastmile_qr_scan"}, "lon": -77.04115416666667, "bike_id": "7d413ecaa1d647eb9c022cb931d0285f", "type": "electric_scooter", "name": "7d413ecaa1d647eb9c022cb931d0285f"}, {"is_disabled": 0, "is_reserved": 0, "fusion_lat": 0.0, "lat": 38.917088666666665, "fusion_lon": 0.0, "rental_uris": {"ios": "https://dc.lft.to/lastmile_qr_scan", "android": "https://dc.lft.to/lastmile_qr_scan"}, "lon": -77.038664, "bike_id": "7eb5c712630a012e5209abe3e9b6bb71", "type": "electric_scooter", "name": "7eb5c712630a012e5209abe3e9b6bb71"}, {"is_disabled": 0, "is_reserved": 0, "fusion_lat": 0.0, "lat": 38.879306166666666, "fusion_lon": 0.0, "rental_uris": {"ios": "https://dc.lft.to/lastmile_qr_scan", "android": "https://dc.lft.to/lastmile_qr_scan"}, "lon": -77.00519366666667, "bike_id": "f4bed3257c85c33c2632629805c2adc8", "type": "electric_scooter", "name": "f4bed3257c85c33c2632629805c2adc8"}, {"is_disabled": 0, "is_reserved": 0, "fusion_lat": 0.0, "lat": 38.9058495, "fusion_lon": 0.0, "rental_uris": {"ios": "https://dc.lft.to/lastmile_qr_scan", "android": "https://dc.lft.to/lastmile_qr_scan"}, "lon": -77.0160735, "bike_id": "59d8d3a7c0f7c76cad637ed2f2d8ec45", "type": "electric_scooter", "name": "59d8d3a7c0f7c76cad637ed2f2d8ec45"}, {"is_disabled": 0, "is_reserved": 0, "fusion_lat": 0.0, "lat": 38.902182833333335, "fusion_lon": 0.0, "rental_uris": {"ios": "https://dc.lft.to/lastmile_qr_scan", "android": "https://dc.lft.to/lastmile_qr_scan"}, "lon": -76.94729516666666, "bike_id": "398b5728a24e028cf76a4ec4d8b65186", "type": "electric_scooter", "name": "398b5728a24e028cf76a4ec4d8b65186"}, {"is_disabled": 0, "is_reserved": 0, "fusion_lat": 0.0, "lat": 38.921414, "fusion_lon": 0.0, "rental_uris": {"ios": "https://dc.lft.to/lastmile_qr_scan", "android": "https://dc.lft.to/lastmile_qr_scan"}, "lon": -77.04564733333333, "bike_id": "4f84a2daed315c3c6c83cb65294f451e", "type": "electric_scooter", "name": "4f84a2daed315c3c6c83cb65294f451e"}, {"is_disabled": 0, "is_reserved": 0, "fusion_lat": 0.0, "lat": 38.91756566666667, "fusion_lon": 0.0, "rental_uris": {"ios": "https://dc.lft.to/lastmile_qr_scan", "android": "https://dc.lft.to/lastmile_qr_scan"}, "lon": -77.0476395, "bike_id": "842114e7dce1e50de2ed25f8eea939f6", "type": "electric_scooter", "name": "842114e7dce1e50de2ed25f8eea939f6"}, {"is_disabled": 0, "is_reserved": 0, "fusion_lat": 0.0, "lat": 38.90454616666667, "fusion_lon": 0.0, "rental_uris": {"ios": "https://dc.lft.to/lastmile_qr_scan", "android": "https://dc.lft.to/lastmile_qr_scan"}, "lon": -77.031344, "bike_id": "97066b541a3470b690b9275286d5b98f", "type": "electric_scooter", "name": "97066b541a3470b690b9275286d5b98f"}, {"is_disabled": 0, "is_reserved": 0, "fusion_lat": 0.0, "lat": 38.884468, "fusion_lon": 0.0, "rental_uris": {"ios": "https://dc.lft.to/lastmile_qr_scan", "android": "https://dc.lft.to/lastmile_qr_scan"}, "lon": -77.02515683333333, "bike_id": "aa61a4804d6bc3281fefead09ed7910c", "type": "electric_scooter", "name": "aa61a4804d6bc3281fefead09ed7910c"}, {"is_disabled": 0, "is_reserved": 0, "fusion_lat": 0.0, "lat": 38.9058205, "fusion_lon": 0.0, "rental_uris": {"ios": "https://dc.lft.to/lastmile_qr_scan", "android": "https://dc.lft.to/lastmile_qr_scan"}, "lon": -77.00715633333333, "bike_id": "49837e51b6b68b93c5de87ab2ce9198a", "type": "electric_scooter", "name": "49837e51b6b68b93c5de87ab2ce9198a"}, {"is_disabled": 0, "is_reserved": 0, "fusion_lat": 0.0, "lat": 38.967974166666664, "fusion_lon": 0.0, "rental_uris": {"ios": "https://dc.lft.to/lastmile_qr_scan", "android": "https://dc.lft.to/lastmile_qr_scan"}, "lon": -77.02558466666666, "bike_id": "75e55c116dbb4d4e640592a5f516d96e", "type": "electric_scooter", "name": "75e55c116dbb4d4e640592a5f516d96e"}, {"is_disabled": 0, "is_reserved": 0, "fusion_lat": 0.0, "lat": 38.92215183333333, "fusion_lon": 0.0, "rental_uris": {"ios": "https://dc.lft.to/lastmile_qr_scan", "android": "https://dc.lft.to/lastmile_qr_scan"}, "lon": -77.07438516666667, "bike_id": "2cebcdc552b3a512ff0bd702b3523020", "type": "electric_scooter", "name": "2cebcdc552b3a512ff0bd702b3523020"}, {"is_disabled": 0, "is_reserved": 0, "fusion_lat": 0.0, "lat": 38.883633, "fusion_lon": 0.0, "rental_uris": {"ios": "https://dc.lft.to/lastmile_qr_scan", "android": "https://dc.lft.to/lastmile_qr_scan"}, "lon": -76.9279035, "bike_id": "68edd27e26618318ba2671a2bdd6ee94", "type": "electric_scooter", "name": "68edd27e26618318ba2671a2bdd6ee94"}, {"is_disabled": 0, "is_reserved": 0, "fusion_lat": 0.0, "lat": 38.901825, "fusion_lon": 0.0, "rental_uris": {"ios": "https://dc.lft.to/lastmile_qr_scan", "android": "https://dc.lft.to/lastmile_qr_scan"}, "lon": -77.02511, "bike_id": "4ea5ce1bba65b44ce1edd338d89f18fa", "type": "electric_scooter", "name": "4ea5ce1bba65b44ce1edd338d89f18fa"}, {"is_disabled": 0, "is_reserved": 0, "fusion_lat": 0.0, "lat": 38.902612500000004, "fusion_lon": 0.0, "rental_uris": {"ios": "https://dc.lft.to/lastmile_qr_scan", "android": "https://dc.lft.to/lastmile_qr_scan"}, "lon": -76.92848483333333, "bike_id": "97e00947c9b6cbc89ddff39fe907936d", "type": "electric_scooter", "name": "97e00947c9b6cbc89ddff39fe907936d"}, {"is_disabled": 0, "is_reserved": 0, "fusion_lat": 0.0, "lat": 38.928654333333334, "fusion_lon": 0.0, "rental_uris": {"ios": "https://dc.lft.to/lastmile_qr_scan", "android": "https://dc.lft.to/lastmile_qr_scan"}, "lon": -77.07893183333333, "bike_id": "e7b3bf6b3df2cab7cb92086ea5b96b89", "type": "electric_scooter", "name": "e7b3bf6b3df2cab7cb92086ea5b96b89"}, {"is_disabled": 0, "is_reserved": 0, "fusion_lat": 0.0, "lat": 38.863637833333335, "fusion_lon": 0.0, "rental_uris": {"ios": "https://dc.lft.to/lastmile_qr_scan", "android": "https://dc.lft.to/lastmile_qr_scan"}, "lon": -76.97007066666667, "bike_id": "824ba2d5aae228348c7e352c2bab4391", "type": "electric_bike", "name": "824ba2d5aae228348c7e352c2bab4391"}, {"is_disabled": 0, "is_reserved": 0, "fusion_lat": 0.0, "lat": 38.876576, "fusion_lon": 0.0, "rental_uris": {"ios": "https://dc.lft.to/lastmile_qr_scan", "android": "https://dc.lft.to/lastmile_qr_scan"}, "lon": -77.00891566666667, "bike_id": "eb13dac70cc144c92b769847e19ce996", "type": "electric_scooter", "name": "eb13dac70cc144c92b769847e19ce996"}, {"is_disabled": 0, "is_reserved": 0, "fusion_lat": 0.0, "lat": 38.906148, "fusion_lon": 0.0, "rental_uris": {"ios": "https://dc.lft.to/lastmile_qr_scan", "android": "https://dc.lft.to/lastmile_qr_scan"}, "lon": -77.0295745, "bike_id": "01a647528e6c7d6682cbf8222d3df966", "type": "electric_scooter", "name": "01a647528e6c7d6682cbf8222d3df966"}, {"is_disabled": 0, "is_reserved": 0, "fusion_lat": 0.0, "lat": 38.89248533333333, "fusion_lon": 0.0, "rental_uris": {"ios": "https://dc.lft.to/lastmile_qr_scan", "android": "https://dc.lft.to/lastmile_qr_scan"}, "lon": -77.03957816666667, "bike_id": "2ed9bb3c2a8b629012c9061f124bec8c", "type": "electric_scooter", "name": "2ed9bb3c2a8b629012c9061f124bec8c"}, {"is_disabled": 0, "is_reserved": 0, "fusion_lat": 0.0, "lat": 38.93384316666667, "fusion_lon": 0.0, "rental_uris": {"ios": "https://dc.lft.to/lastmile_qr_scan", "android": "https://dc.lft.to/lastmile_qr_scan"}, "lon": -77.02728683333333, "bike_id": "b6ce04184ea4710951c4bf0b88faa1af", "type": "electric_scooter", "name": "b6ce04184ea4710951c4bf0b88faa1af"}, {"is_disabled": 0, "is_reserved": 0, "fusion_lat": 0.0, "lat": 38.906075333333334, "fusion_lon": 0.0, "rental_uris": {"ios": "https://dc.lft.to/lastmile_qr_scan", "android": "https://dc.lft.to/lastmile_qr_scan"}, "lon": -77.05648083333334, "bike_id": "21633d028af5f134c36a4c267ae91784", "type": "electric_scooter", "name": "21633d028af5f134c36a4c267ae91784"}, {"is_disabled": 0, "is_reserved": 0, "fusion_lat": 0.0, "lat": 38.934433, "fusion_lon": 0.0, "rental_uris": {"ios": "https://dc.lft.to/lastmile_qr_scan", "android": "https://dc.lft.to/lastmile_qr_scan"}, "lon": -77.02982716666666, "bike_id": "9afc7123c3b5f68c4c18b7f75e824431", "type": "electric_scooter", "name": "9afc7123c3b5f68c4c18b7f75e824431"}, {"is_disabled": 0, "is_reserved": 0, "fusion_lat": 0.0, "lat": 38.940853, "fusion_lon": 0.0, "rental_uris": {"ios": "https://dc.lft.to/lastmile_qr_scan", "android": "https://dc.lft.to/lastmile_qr_scan"}, "lon": -77.00154466666666, "bike_id": "0d6fbd24df25e431fe66ef3bc2d12968", "type": "electric_bike", "name": "0d6fbd24df25e431fe66ef3bc2d12968"}, {"is_disabled": 0, "is_reserved": 0, "fusion_lat": 0.0, "lat": 38.90600666666667, "fusion_lon": 0.0, "rental_uris": {"ios": "https://dc.lft.to/lastmile_qr_scan", "android": "https://dc.lft.to/lastmile_qr_scan"}, "lon": -77.12885983333334, "bike_id": "6bf50f3580b624d973423df411518d15", "type": "electric_bike", "name": "6bf50f3580b624d973423df411518d15"}, {"is_disabled": 0, "is_reserved": 0, "fusion_lat": 0.0, "lat": 38.90035916666667, "fusion_lon": 0.0, "rental_uris": {"ios": "https://dc.lft.to/lastmile_qr_scan", "android": "https://dc.lft.to/lastmile_qr_scan"}, "lon": -77.00375866666667, "bike_id": "c0aebe2e1602e98220b168f7feea6eec", "type": "electric_scooter", "name": "c0aebe2e1602e98220b168f7feea6eec"}, {"is_disabled": 0, "is_reserved": 0, "fusion_lat": 0.0, "lat": 38.90268066666667, "fusion_lon": 0.0, "rental_uris": {"ios": "https://dc.lft.to/lastmile_qr_scan", "android": "https://dc.lft.to/lastmile_qr_scan"}, "lon": -77.01164833333333, "bike_id": "02c26188b78840ea3a8578eebf9b9706", "type": "electric_scooter", "name": "02c26188b78840ea3a8578eebf9b9706"}, {"is_disabled": 0, "is_reserved": 0, "fusion_lat": 0.0, "lat": 38.933627666666666, "fusion_lon": 0.0, "rental_uris": {"ios": "https://dc.lft.to/lastmile_qr_scan", "android": "https://dc.lft.to/lastmile_qr_scan"}, "lon": -77.0264695, "bike_id": "f725c3cf1cf00dc7bd31bc0ffdfe6214", "type": "electric_scooter", "name": "f725c3cf1cf00dc7bd31bc0ffdfe6214"}, {"is_disabled": 0, "is_reserved": 0, "fusion_lat": 0.0, "lat": 38.9196885, "fusion_lon": 0.0, "rental_uris": {"ios": "https://dc.lft.to/lastmile_qr_scan", "android": "https://dc.lft.to/lastmile_qr_scan"}, "lon": -77.00213733333334, "bike_id": "41f439480dec33a95ce8845ff7e7e79d", "type": "electric_scooter", "name": "41f439480dec33a95ce8845ff7e7e79d"}, {"is_disabled": 0, "is_reserved": 0, "fusion_lat": 0.0, "lat": 38.921074, "fusion_lon": 0.0, "rental_uris": {"ios": "https://dc.lft.to/lastmile_qr_scan", "android": "https://dc.lft.to/lastmile_qr_scan"}, "lon": -77.04696433333334, "bike_id": "0ef947fb2fd0717ef9d92261324fc807", "type": "electric_scooter", "name": "0ef947fb2fd0717ef9d92261324fc807"}, {"is_disabled": 0, "is_reserved": 0, "fusion_lat": 0.0, "lat": 38.9092355, "fusion_lon": 0.0, "rental_uris": {"ios": "https://dc.lft.to/lastmile_qr_scan", "android": "https://dc.lft.to/lastmile_qr_scan"}, "lon": -77.04571683333333, "bike_id": "cea8a53e110c245582b1733ea8d8bd69", "type": "electric_scooter", "name": "cea8a53e110c245582b1733ea8d8bd69"}, {"is_disabled": 0, "is_reserved": 0, "fusion_lat": 0.0, "lat": 38.892088, "fusion_lon": 0.0, "rental_uris": {"ios": "https://dc.lft.to/lastmile_qr_scan", "android": "https://dc.lft.to/lastmile_qr_scan"}, "lon": -76.929214, "bike_id": "15d6bf4baa8fab0b88a7696114a1ca46", "type": "electric_scooter", "name": "15d6bf4baa8fab0b88a7696114a1ca46"}, {"is_disabled": 0, "is_reserved": 0, "fusion_lat": 0.0, "lat": 38.893988666666665, "fusion_lon": 0.0, "rental_uris": {"ios": "https://dc.lft.to/lastmile_qr_scan", "android": "https://dc.lft.to/lastmile_qr_scan"}, "lon": -77.0237565, "bike_id": "868687bda6d464b26e35844ab36b3229", "type": "electric_scooter", "name": "868687bda6d464b26e35844ab36b3229"}, {"is_disabled": 0, "is_reserved": 0, "fusion_lat": 0.0, "lat": 38.8993295, "fusion_lon": 0.0, "rental_uris": {"ios": "https://dc.lft.to/lastmile_qr_scan", "android": "https://dc.lft.to/lastmile_qr_scan"}, "lon": -77.001616, "bike_id": "0a6ed82ed43bf641dbb7dae7b5ed8f08", "type": "electric_bike", "name": "0a6ed82ed43bf641dbb7dae7b5ed8f08"}, {"is_disabled": 0, "is_reserved": 0, "fusion_lat": 0.0, "lat": 38.916642333333336, "fusion_lon": 0.0, "rental_uris": {"ios": "https://dc.lft.to/lastmile_qr_scan", "android": "https://dc.lft.to/lastmile_qr_scan"}, "lon": -77.00048766666667, "bike_id": "ca4603e1dc465431f2dcaafc422e07c8", "type": "electric_scooter", "name": "ca4603e1dc465431f2dcaafc422e07c8"}, {"is_disabled": 0, "is_reserved": 0, "fusion_lat": 0.0, "lat": 38.92235616666667, "fusion_lon": 0.0, "rental_uris": {"ios": "https://dc.lft.to/lastmile_qr_scan", "android": "https://dc.lft.to/lastmile_qr_scan"}, "lon": -77.02296583333333, "bike_id": "6d135d8a14c4ff5aaf7838d6cae49078", "type": "electric_scooter", "name": "6d135d8a14c4ff5aaf7838d6cae49078"}, {"is_disabled": 0, "is_reserved": 0, "fusion_lat": 0.0, "lat": 38.876086, "fusion_lon": 0.0, "rental_uris": {"ios": "https://dc.lft.to/lastmile_qr_scan", "android": "https://dc.lft.to/lastmile_qr_scan"}, "lon": -77.00604216666666, "bike_id": "40c1f741ab0df5564a6d43f6dd354c54", "type": "electric_scooter", "name": "40c1f741ab0df5564a6d43f6dd354c54"}, {"is_disabled": 0, "is_reserved": 0, "fusion_lat": 0.0, "lat": 38.865624333333336, "fusion_lon": 0.0, "rental_uris": {"ios": "https://dc.lft.to/lastmile_qr_scan", "android": "https://dc.lft.to/lastmile_qr_scan"}, "lon": -76.97474633333333, "bike_id": "96c29c9251cdf65da5f8b8a15ed63594", "type": "electric_bike", "name": "96c29c9251cdf65da5f8b8a15ed63594"}, {"is_disabled": 0, "is_reserved": 0, "fusion_lat": 0.0, "lat": 38.82429066666667, "fusion_lon": 0.0, "rental_uris": {"ios": "https://dc.lft.to/lastmile_qr_scan", "android": "https://dc.lft.to/lastmile_qr_scan"}, "lon": -77.1204405, "bike_id": "75ad8a08c58fa08fda6fee1dc0a8ea61", "type": "electric_bike", "name": "75ad8a08c58fa08fda6fee1dc0a8ea61"}, {"is_disabled": 0, "is_reserved": 0, "fusion_lat": 0.0, "lat": 38.85640583333333, "fusion_lon": 0.0, "rental_uris": {"ios": "https://dc.lft.to/lastmile_qr_scan", "android": "https://dc.lft.to/lastmile_qr_scan"}, "lon": -77.06835783333334, "bike_id": "6546d601a936dfb03821c830d9b8567a", "type": "electric_bike", "name": "6546d601a936dfb03821c830d9b8567a"}, {"is_disabled": 0, "is_reserved": 0, "fusion_lat": 0.0, "lat": 38.92944983333334, "fusion_lon": 0.0, "rental_uris": {"ios": "https://dc.lft.to/lastmile_qr_scan", "android": "https://dc.lft.to/lastmile_qr_scan"}, "lon": -77.05489166666666, "bike_id": "7ac8a9d464a158c087cd7a9c09668f07", "type": "electric_scooter", "name": "7ac8a9d464a158c087cd7a9c09668f07"}, {"is_disabled": 0, "is_reserved": 0, "fusion_lat": 0.0, "lat": 38.882214166666664, "fusion_lon": 0.0, "rental_uris": {"ios": "https://dc.lft.to/lastmile_qr_scan", "android": "https://dc.lft.to/lastmile_qr_scan"}, "lon": -76.997378, "bike_id": "2a37376426cac81ff796e2f9f49655ba", "type": "electric_scooter", "name": "2a37376426cac81ff796e2f9f49655ba"}, {"is_disabled": 0, "is_reserved": 0, "fusion_lat": 0.0, "lat": 38.898951, "fusion_lon": 0.0, "rental_uris": {"ios": "https://dc.lft.to/lastmile_qr_scan", "android": "https://dc.lft.to/lastmile_qr_scan"}, "lon": -77.021708, "bike_id": "c2c15945b18137df71276395accecb29", "type": "electric_scooter", "name": "c2c15945b18137df71276395accecb29"}, {"is_disabled": 0, "is_reserved": 0, "fusion_lat": 0.0, "lat": 38.9459855, "fusion_lon": 0.0, "rental_uris": {"ios": "https://dc.lft.to/lastmile_qr_scan", "android": "https://dc.lft.to/lastmile_qr_scan"}, "lon": -77.02666983333333, "bike_id": "829e2da4cc3fee821a0730ffa29594ac", "type": "electric_scooter", "name": "829e2da4cc3fee821a0730ffa29594ac"}, {"is_disabled": 0, "is_reserved": 0, "fusion_lat": 0.0, "lat": 38.90039566666667, "fusion_lon": 0.0, "rental_uris": {"ios": "https://dc.lft.to/lastmile_qr_scan", "android": "https://dc.lft.to/lastmile_qr_scan"}, "lon": -77.00366783333334, "bike_id": "ffd3175616c4eb8c229ac0ea46aec871", "type": "electric_scooter", "name": "ffd3175616c4eb8c229ac0ea46aec871"}, {"is_disabled": 0, "is_reserved": 0, "fusion_lat": 0.0, "lat": 38.87285383333333, "fusion_lon": 0.0, "rental_uris": {"ios": "https://dc.lft.to/lastmile_qr_scan", "android": "https://dc.lft.to/lastmile_qr_scan"}, "lon": -77.009884, "bike_id": "36d1ea5f8bd0a457b9a67ab5731525d6", "type": "electric_scooter", "name": "36d1ea5f8bd0a457b9a67ab5731525d6"}, {"is_disabled": 0, "is_reserved": 0, "fusion_lat": 0.0, "lat": 38.9267125, "fusion_lon": 0.0, "rental_uris": {"ios": "https://dc.lft.to/lastmile_qr_scan", "android": "https://dc.lft.to/lastmile_qr_scan"}, "lon": -77.03027216666666, "bike_id": "0b45a244222837eebcdd483e8fe56880", "type": "electric_scooter", "name": "0b45a244222837eebcdd483e8fe56880"}, {"is_disabled": 0, "is_reserved": 0, "fusion_lat": 0.0, "lat": 38.9352465, "fusion_lon": 0.0, "rental_uris": {"ios": "https://dc.lft.to/lastmile_qr_scan", "android": "https://dc.lft.to/lastmile_qr_scan"}, "lon": -77.02840883333333, "bike_id": "c2b7fa0c84ec22d0001c84500ba98378", "type": "electric_scooter", "name": "c2b7fa0c84ec22d0001c84500ba98378"}, {"is_disabled": 0, "is_reserved": 0, "fusion_lat": 0.0, "lat": 38.91951916666667, "fusion_lon": 0.0, "rental_uris": {"ios": "https://dc.lft.to/lastmile_qr_scan", "android": "https://dc.lft.to/lastmile_qr_scan"}, "lon": -77.0233125, "bike_id": "bbca7d40b774f3bc0d7011bc98991c09", "type": "electric_scooter", "name": "bbca7d40b774f3bc0d7011bc98991c09"}, {"is_disabled": 0, "is_reserved": 0, "fusion_lat": 0.0, "lat": 38.892471, "fusion_lon": 0.0, "rental_uris": {"ios": "https://dc.lft.to/lastmile_qr_scan", "android": "https://dc.lft.to/lastmile_qr_scan"}, "lon": -77.03957733333333, "bike_id": "cd6dc8b19688fa968157fadd1d5232cb", "type": "electric_scooter", "name": "cd6dc8b19688fa968157fadd1d5232cb"}, {"is_disabled": 0, "is_reserved": 0, "fusion_lat": 0.0, "lat": 38.915401833333334, "fusion_lon": 0.0, "rental_uris": {"ios": "https://dc.lft.to/lastmile_qr_scan", "android": "https://dc.lft.to/lastmile_qr_scan"}, "lon": -77.00917116666666, "bike_id": "0a2aa2b5b6213653733986dfc1e11f14", "type": "electric_scooter", "name": "0a2aa2b5b6213653733986dfc1e11f14"}, {"is_disabled": 0, "is_reserved": 0, "fusion_lat": 0.0, "lat": 38.91473966666667, "fusion_lon": 0.0, "rental_uris": {"ios": "https://dc.lft.to/lastmile_qr_scan", "android": "https://dc.lft.to/lastmile_qr_scan"}, "lon": -77.0019765, "bike_id": "ba46b29c8a7ef44594c556c733700a11", "type": "electric_scooter", "name": "ba46b29c8a7ef44594c556c733700a11"}, {"is_disabled": 0, "is_reserved": 0, "fusion_lat": 0.0, "lat": 38.92825783333333, "fusion_lon": 0.0, "rental_uris": {"ios": "https://dc.lft.to/lastmile_qr_scan", "android": "https://dc.lft.to/lastmile_qr_scan"}, "lon": -77.0138495, "bike_id": "79878cfa83e03b1b8bd73a5830c2c5da", "type": "electric_scooter", "name": "79878cfa83e03b1b8bd73a5830c2c5da"}, {"is_disabled": 0, "is_reserved": 0, "fusion_lat": 0.0, "lat": 38.897170833333334, "fusion_lon": 0.0, "rental_uris": {"ios": "https://dc.lft.to/lastmile_qr_scan", "android": "https://dc.lft.to/lastmile_qr_scan"}, "lon": -77.00793866666666, "bike_id": "42e3002bb54e7ad788363b518ced2d15", "type": "electric_scooter", "name": "42e3002bb54e7ad788363b518ced2d15"}, {"is_disabled": 0, "is_reserved": 0, "fusion_lat": 0.0, "lat": 38.8961035, "fusion_lon": 0.0, "rental_uris": {"ios": "https://dc.lft.to/lastmile_qr_scan", "android": "https://dc.lft.to/lastmile_qr_scan"}, "lon": -76.9980395, "bike_id": "2ef4f2cb33caa6b8aeee59ca758da087", "type": "electric_scooter", "name": "2ef4f2cb33caa6b8aeee59ca758da087"}, {"is_disabled": 0, "is_reserved": 0, "fusion_lat": 0.0, "lat": 38.9111075, "fusion_lon": 0.0, "rental_uris": {"ios": "https://dc.lft.to/lastmile_qr_scan", "android": "https://dc.lft.to/lastmile_qr_scan"}, "lon": -77.01162416666666, "bike_id": "fa80ff40b3c1a13701e81423d9f3b74a", "type": "electric_scooter", "name": "fa80ff40b3c1a13701e81423d9f3b74a"}, {"is_disabled": 0, "is_reserved": 0, "fusion_lat": 0.0, "lat": 38.92892666666667, "fusion_lon": 0.0, "rental_uris": {"ios": "https://dc.lft.to/lastmile_qr_scan", "android": "https://dc.lft.to/lastmile_qr_scan"}, "lon": -77.02292033333333, "bike_id": "81db2977b562ba15914f57c5e4ae9b6b", "type": "electric_scooter", "name": "81db2977b562ba15914f57c5e4ae9b6b"}, {"is_disabled": 0, "is_reserved": 0, "fusion_lat": 0.0, "lat": 38.9140475, "fusion_lon": 0.0, "rental_uris": {"ios": "https://dc.lft.to/lastmile_qr_scan", "android": "https://dc.lft.to/lastmile_qr_scan"}, "lon": -77.04387266666667, "bike_id": "8c248ea5f82e02bfaf0ec96bec3e315a", "type": "electric_scooter", "name": "8c248ea5f82e02bfaf0ec96bec3e315a"}, {"is_disabled": 0, "is_reserved": 0, "fusion_lat": 0.0, "lat": 38.92659316666666, "fusion_lon": 0.0, "rental_uris": {"ios": "https://dc.lft.to/lastmile_qr_scan", "android": "https://dc.lft.to/lastmile_qr_scan"}, "lon": -77.02451266666667, "bike_id": "67a45d27a488085ef3ea924366129a01", "type": "electric_scooter", "name": "67a45d27a488085ef3ea924366129a01"}, {"is_disabled": 0, "is_reserved": 0, "fusion_lat": 0.0, "lat": 38.931202166666665, "fusion_lon": 0.0, "rental_uris": {"ios": "https://dc.lft.to/lastmile_qr_scan", "android": "https://dc.lft.to/lastmile_qr_scan"}, "lon": -77.02070666666667, "bike_id": "e7aa2eb2774d0847bccd9342dfab88cf", "type": "electric_scooter", "name": "e7aa2eb2774d0847bccd9342dfab88cf"}, {"is_disabled": 0, "is_reserved": 0, "fusion_lat": 0.0, "lat": 38.911213000000004, "fusion_lon": 0.0, "rental_uris": {"ios": "https://dc.lft.to/lastmile_qr_scan", "android": "https://dc.lft.to/lastmile_qr_scan"}, "lon": -77.00374066666667, "bike_id": "c852d2b55039907d31b70e60c4e03eb3", "type": "electric_scooter", "name": "c852d2b55039907d31b70e60c4e03eb3"}, {"is_disabled": 0, "is_reserved": 0, "fusion_lat": 0.0, "lat": 38.926554833333334, "fusion_lon": 0.0, "rental_uris": {"ios": "https://dc.lft.to/lastmile_qr_scan", "android": "https://dc.lft.to/lastmile_qr_scan"}, "lon": -77.0242535, "bike_id": "95ee760357acf42d2be16fc73ebfba75", "type": "electric_scooter", "name": "95ee760357acf42d2be16fc73ebfba75"}, {"is_disabled": 0, "is_reserved": 0, "fusion_lat": 0.0, "lat": 38.92347516666667, "fusion_lon": 0.0, "rental_uris": {"ios": "https://dc.lft.to/lastmile_qr_scan", "android": "https://dc.lft.to/lastmile_qr_scan"}, "lon": -77.07311116666666, "bike_id": "358a7faaf6d654fbda682212dae1d56c", "type": "electric_scooter", "name": "358a7faaf6d654fbda682212dae1d56c"}, {"is_disabled": 0, "is_reserved": 0, "fusion_lat": 0.0, "lat": 38.93600166666667, "fusion_lon": 0.0, "rental_uris": {"ios": "https://dc.lft.to/lastmile_qr_scan", "android": "https://dc.lft.to/lastmile_qr_scan"}, "lon": -77.05597116666667, "bike_id": "aa7a658558dffc975eb847bc139e92fc", "type": "electric_scooter", "name": "aa7a658558dffc975eb847bc139e92fc"}, {"is_disabled": 0, "is_reserved": 0, "fusion_lat": 0.0, "lat": 38.93703883333333, "fusion_lon": 0.0, "rental_uris": {"ios": "https://dc.lft.to/lastmile_qr_scan", "android": "https://dc.lft.to/lastmile_qr_scan"}, "lon": -77.05601833333333, "bike_id": "1b6db37a59d651bf82c76b89f2a3b3d8", "type": "electric_scooter", "name": "1b6db37a59d651bf82c76b89f2a3b3d8"}, {"is_disabled": 0, "is_reserved": 0, "fusion_lat": 0.0, "lat": 38.9069475, "fusion_lon": 0.0, "rental_uris": {"ios": "https://dc.lft.to/lastmile_qr_scan", "android": "https://dc.lft.to/lastmile_qr_scan"}, "lon": -76.95252183333334, "bike_id": "f193d720c3eccb1553a563c1677504a3", "type": "electric_bike", "name": "f193d720c3eccb1553a563c1677504a3"}, {"is_disabled": 0, "is_reserved": 0, "fusion_lat": 0.0, "lat": 38.947165, "fusion_lon": 0.0, "rental_uris": {"ios": "https://dc.lft.to/lastmile_qr_scan", "android": "https://dc.lft.to/lastmile_qr_scan"}, "lon": -77.06799566666666, "bike_id": "01eb75e47846053ee6868f12561a2f49", "type": "electric_scooter", "name": "01eb75e47846053ee6868f12561a2f49"}, {"is_disabled": 0, "is_reserved": 0, "fusion_lat": 0.0, "lat": 38.89232033333333, "fusion_lon": 0.0, "rental_uris": {"ios": "https://dc.lft.to/lastmile_qr_scan", "android": "https://dc.lft.to/lastmile_qr_scan"}, "lon": -77.05005183333333, "bike_id": "e5ad5ad68d542c989457eec8002b675f", "type": "electric_scooter", "name": "e5ad5ad68d542c989457eec8002b675f"}, {"is_disabled": 0, "is_reserved": 0, "fusion_lat": 0.0, "lat": 38.942617166666665, "fusion_lon": 0.0, "rental_uris": {"ios": "https://dc.lft.to/lastmile_qr_scan", "android": "https://dc.lft.to/lastmile_qr_scan"}, "lon": -76.98454483333333, "bike_id": "49c7e37bc7fbaa998e2fc76474faaabe", "type": "electric_scooter", "name": "49c7e37bc7fbaa998e2fc76474faaabe"}, {"is_disabled": 0, "is_reserved": 0, "fusion_lat": 0.0, "lat": 38.883555333333334, "fusion_lon": 0.0, "rental_uris": {"ios": "https://dc.lft.to/lastmile_qr_scan", "android": "https://dc.lft.to/lastmile_qr_scan"}, "lon": -76.95770016666667, "bike_id": "8bb0d458d5888c898aa3119392c9a620", "type": "electric_scooter", "name": "8bb0d458d5888c898aa3119392c9a620"}, {"is_disabled": 0, "is_reserved": 0, "fusion_lat": 0.0, "lat": 38.8966715, "fusion_lon": 0.0, "rental_uris": {"ios": "https://dc.lft.to/lastmile_qr_scan", "android": "https://dc.lft.to/lastmile_qr_scan"}, "lon": -77.05129766666667, "bike_id": "f7fe26d7e31ee5e8f15bf89c0bc22395", "type": "electric_scooter", "name": "f7fe26d7e31ee5e8f15bf89c0bc22395"}, {"is_disabled": 0, "is_reserved": 0, "fusion_lat": 0.0, "lat": 38.886213166666664, "fusion_lon": 0.0, "rental_uris": {"ios": "https://dc.lft.to/lastmile_qr_scan", "android": "https://dc.lft.to/lastmile_qr_scan"}, "lon": -76.99023466666667, "bike_id": "8a1565e137416b35bb2ac2668dc54640", "type": "electric_bike", "name": "8a1565e137416b35bb2ac2668dc54640"}, {"is_disabled": 0, "is_reserved": 0, "fusion_lat": 0.0, "lat": 38.89684916666667, "fusion_lon": 0.0, "rental_uris": {"ios": "https://dc.lft.to/lastmile_qr_scan", "android": "https://dc.lft.to/lastmile_qr_scan"}, "lon": -77.0433025, "bike_id": "2e47730da34a7aad4b20343529c23a3c", "type": "electric_scooter", "name": "2e47730da34a7aad4b20343529c23a3c"}, {"is_disabled": 0, "is_reserved": 0, "fusion_lat": 0.0, "lat": 38.906283, "fusion_lon": 0.0, "rental_uris": {"ios": "https://dc.lft.to/lastmile_qr_scan", "android": "https://dc.lft.to/lastmile_qr_scan"}, "lon": -77.06874816666667, "bike_id": "71e3bea72f2860ae0ebf7c7001a3f85b", "type": "electric_scooter", "name": "71e3bea72f2860ae0ebf7c7001a3f85b"}, {"is_disabled": 0, "is_reserved": 0, "fusion_lat": 0.0, "lat": 38.957882833333336, "fusion_lon": 0.0, "rental_uris": {"ios": "https://dc.lft.to/lastmile_qr_scan", "android": "https://dc.lft.to/lastmile_qr_scan"}, "lon": -77.024601, "bike_id": "e721e05c002d4e3e0f9231d35c5dff56", "type": "electric_scooter", "name": "e721e05c002d4e3e0f9231d35c5dff56"}, {"is_disabled": 0, "is_reserved": 0, "fusion_lat": 0.0, "lat": 38.911169666666666, "fusion_lon": 0.0, "rental_uris": {"ios": "https://dc.lft.to/lastmile_qr_scan", "android": "https://dc.lft.to/lastmile_qr_scan"}, "lon": -77.01108983333333, "bike_id": "a33d00706da7a19d6683ce6f44f8d211", "type": "electric_scooter", "name": "a33d00706da7a19d6683ce6f44f8d211"}, {"is_disabled": 0, "is_reserved": 0, "fusion_lat": 0.0, "lat": 38.92317966666667, "fusion_lon": 0.0, "rental_uris": {"ios": "https://dc.lft.to/lastmile_qr_scan", "android": "https://dc.lft.to/lastmile_qr_scan"}, "lon": -77.045106, "bike_id": "7b1f6a4648c8c199278acbe498010d26", "type": "electric_scooter", "name": "7b1f6a4648c8c199278acbe498010d26"}, {"is_disabled": 0, "is_reserved": 0, "fusion_lat": 0.0, "lat": 38.8942305, "fusion_lon": 0.0, "rental_uris": {"ios": "https://dc.lft.to/lastmile_qr_scan", "android": "https://dc.lft.to/lastmile_qr_scan"}, "lon": -77.0559525, "bike_id": "df53cfd79d133db8038b855700f1a0c4", "type": "electric_scooter", "name": "df53cfd79d133db8038b855700f1a0c4"}, {"is_disabled": 0, "is_reserved": 0, "fusion_lat": 0.0, "lat": 38.91711133333333, "fusion_lon": 0.0, "rental_uris": {"ios": "https://dc.lft.to/lastmile_qr_scan", "android": "https://dc.lft.to/lastmile_qr_scan"}, "lon": -77.00517966666666, "bike_id": "ddaff8783d6b1aedbd5ff80de81e1c67", "type": "electric_scooter", "name": "ddaff8783d6b1aedbd5ff80de81e1c67"}, {"is_disabled": 0, "is_reserved": 0, "fusion_lat": 0.0, "lat": 38.907281, "fusion_lon": 0.0, "rental_uris": {"ios": "https://dc.lft.to/lastmile_qr_scan", "android": "https://dc.lft.to/lastmile_qr_scan"}, "lon": -77.02981283333334, "bike_id": "07f6c1145e3fb25844c60882afa25284", "type": "electric_scooter", "name": "07f6c1145e3fb25844c60882afa25284"}, {"is_disabled": 0, "is_reserved": 0, "fusion_lat": 0.0, "lat": 38.952404, "fusion_lon": 0.0, "rental_uris": {"ios": "https://dc.lft.to/lastmile_qr_scan", "android": "https://dc.lft.to/lastmile_qr_scan"}, "lon": -76.97956033333334, "bike_id": "eb8c79c35854234d0fb8e38d03dae294", "type": "electric_bike", "name": "eb8c79c35854234d0fb8e38d03dae294"}, {"is_disabled": 0, "is_reserved": 0, "fusion_lat": 0.0, "lat": 38.9253635, "fusion_lon": 0.0, "rental_uris": {"ios": "https://dc.lft.to/lastmile_qr_scan", "android": "https://dc.lft.to/lastmile_qr_scan"}, "lon": -77.03238016666667, "bike_id": "a8d066c54895f1466ac5210c2110656a", "type": "electric_scooter", "name": "a8d066c54895f1466ac5210c2110656a"}, {"is_disabled": 0, "is_reserved": 0, "fusion_lat": 0.0, "lat": 38.89967166666667, "fusion_lon": 0.0, "rental_uris": {"ios": "https://dc.lft.to/lastmile_qr_scan", "android": "https://dc.lft.to/lastmile_qr_scan"}, "lon": -76.9376315, "bike_id": "94faf03c8dd13c1a2fc6ae96fa939f4d", "type": "electric_scooter", "name": "94faf03c8dd13c1a2fc6ae96fa939f4d"}, {"is_disabled": 0, "is_reserved": 0, "fusion_lat": 0.0, "lat": 38.9142365, "fusion_lon": 0.0, "rental_uris": {"ios": "https://dc.lft.to/lastmile_qr_scan", "android": "https://dc.lft.to/lastmile_qr_scan"}, "lon": -77.03803866666667, "bike_id": "cc3cbe76e2d17969aab3e64182a5ae9d", "type": "electric_scooter", "name": "cc3cbe76e2d17969aab3e64182a5ae9d"}, {"is_disabled": 0, "is_reserved": 0, "fusion_lat": 0.0, "lat": 38.909032333333336, "fusion_lon": 0.0, "rental_uris": {"ios": "https://dc.lft.to/lastmile_qr_scan", "android": "https://dc.lft.to/lastmile_qr_scan"}, "lon": -77.03397733333334, "bike_id": "0148182e32ff1c25c876ffe1cb228fba", "type": "electric_scooter", "name": "0148182e32ff1c25c876ffe1cb228fba"}, {"is_disabled": 0, "is_reserved": 0, "fusion_lat": 0.0, "lat": 38.92377966666667, "fusion_lon": 0.0, "rental_uris": {"ios": "https://dc.lft.to/lastmile_qr_scan", "android": "https://dc.lft.to/lastmile_qr_scan"}, "lon": -77.01914616666667, "bike_id": "edf8a138f69fbc29430279dbc056b790", "type": "electric_scooter", "name": "edf8a138f69fbc29430279dbc056b790"}, {"is_disabled": 0, "is_reserved": 0, "fusion_lat": 0.0, "lat": 38.907845, "fusion_lon": 0.0, "rental_uris": {"ios": "https://dc.lft.to/lastmile_qr_scan", "android": "https://dc.lft.to/lastmile_qr_scan"}, "lon": -77.04479933333333, "bike_id": "aa363dfe91f8e75bb30b2a3553b1424f", "type": "electric_scooter", "name": "aa363dfe91f8e75bb30b2a3553b1424f"}, {"is_disabled": 0, "is_reserved": 0, "fusion_lat": 0.0, "lat": 38.88437666666667, "fusion_lon": 0.0, "rental_uris": {"ios": "https://dc.lft.to/lastmile_qr_scan", "android": "https://dc.lft.to/lastmile_qr_scan"}, "lon": -76.93548833333334, "bike_id": "60b09cba7acb283e61ea07e490d50264", "type": "electric_scooter", "name": "60b09cba7acb283e61ea07e490d50264"}, {"is_disabled": 0, "is_reserved": 0, "fusion_lat": 0.0, "lat": 38.9237665, "fusion_lon": 0.0, "rental_uris": {"ios": "https://dc.lft.to/lastmile_qr_scan", "android": "https://dc.lft.to/lastmile_qr_scan"}, "lon": -77.03123833333333, "bike_id": "1b5cfcc5cda6caa6f1659b084cd399a2", "type": "electric_scooter", "name": "1b5cfcc5cda6caa6f1659b084cd399a2"}, {"is_disabled": 0, "is_reserved": 0, "fusion_lat": 0.0, "lat": 38.8829555, "fusion_lon": 0.0, "rental_uris": {"ios": "https://dc.lft.to/lastmile_qr_scan", "android": "https://dc.lft.to/lastmile_qr_scan"}, "lon": -76.93199083333333, "bike_id": "e846f55e5acc480131695524396f672f", "type": "electric_scooter", "name": "e846f55e5acc480131695524396f672f"}, {"is_disabled": 0, "is_reserved": 0, "fusion_lat": 0.0, "lat": 38.830485833333334, "fusion_lon": 0.0, "rental_uris": {"ios": "https://dc.lft.to/lastmile_qr_scan", "android": "https://dc.lft.to/lastmile_qr_scan"}, "lon": -77.00817916666666, "bike_id": "ed711bce1c6096cdbc86e934be6b873e", "type": "electric_bike", "name": "ed711bce1c6096cdbc86e934be6b873e"}, {"is_disabled": 0, "is_reserved": 0, "fusion_lat": 0.0, "lat": 38.900312666666665, "fusion_lon": 0.0, "rental_uris": {"ios": "https://dc.lft.to/lastmile_qr_scan", "android": "https://dc.lft.to/lastmile_qr_scan"}, "lon": -77.00098716666666, "bike_id": "3a4c11f6f54e2d1d063fc9ad3ba4b7b6", "type": "electric_scooter", "name": "3a4c11f6f54e2d1d063fc9ad3ba4b7b6"}, {"is_disabled": 0, "is_reserved": 0, "fusion_lat": 0.0, "lat": 38.903423333333336, "fusion_lon": 0.0, "rental_uris": {"ios": "https://dc.lft.to/lastmile_qr_scan", "android": "https://dc.lft.to/lastmile_qr_scan"}, "lon": -76.98282483333334, "bike_id": "a3439ba935ce22071056b7f9b34dc7ec", "type": "electric_scooter", "name": "a3439ba935ce22071056b7f9b34dc7ec"}, {"is_disabled": 0, "is_reserved": 0, "fusion_lat": 0.0, "lat": 38.876814333333336, "fusion_lon": 0.0, "rental_uris": {"ios": "https://dc.lft.to/lastmile_qr_scan", "android": "https://dc.lft.to/lastmile_qr_scan"}, "lon": -77.00070733333334, "bike_id": "c5922e54ac3143ec759c046ce0c9c01b", "type": "electric_scooter", "name": "c5922e54ac3143ec759c046ce0c9c01b"}, {"is_disabled": 0, "is_reserved": 0, "fusion_lat": 0.0, "lat": 38.8457865, "fusion_lon": 0.0, "rental_uris": {"ios": "https://dc.lft.to/lastmile_qr_scan", "android": "https://dc.lft.to/lastmile_qr_scan"}, "lon": -77.0746395, "bike_id": "88d0524019e141084d7af3cceaa260e4", "type": "electric_bike", "name": "88d0524019e141084d7af3cceaa260e4"}, {"is_disabled": 0, "is_reserved": 0, "fusion_lat": 0.0, "lat": 38.904833833333335, "fusion_lon": 0.0, "rental_uris": {"ios": "https://dc.lft.to/lastmile_qr_scan", "android": "https://dc.lft.to/lastmile_qr_scan"}, "lon": -77.008798, "bike_id": "a859642f0f621e39a498b9678576bf80", "type": "electric_scooter", "name": "a859642f0f621e39a498b9678576bf80"}, {"is_disabled": 0, "is_reserved": 0, "fusion_lat": 0.0, "lat": 38.923554, "fusion_lon": 0.0, "rental_uris": {"ios": "https://dc.lft.to/lastmile_qr_scan", "android": "https://dc.lft.to/lastmile_qr_scan"}, "lon": -77.03373383333333, "bike_id": "237a6318f79ab55f3fb50cd4069d69d9", "type": "electric_scooter", "name": "237a6318f79ab55f3fb50cd4069d69d9"}, {"is_disabled": 0, "is_reserved": 0, "fusion_lat": 0.0, "lat": 38.923734333333336, "fusion_lon": 0.0, "rental_uris": {"ios": "https://dc.lft.to/lastmile_qr_scan", "android": "https://dc.lft.to/lastmile_qr_scan"}, "lon": -77.04024466666667, "bike_id": "d28670c0cf082413cddbb8b5afa2a6d9", "type": "electric_scooter", "name": "d28670c0cf082413cddbb8b5afa2a6d9"}, {"is_disabled": 0, "is_reserved": 0, "fusion_lat": 0.0, "lat": 38.91043716666667, "fusion_lon": 0.0, "rental_uris": {"ios": "https://dc.lft.to/lastmile_qr_scan", "android": "https://dc.lft.to/lastmile_qr_scan"}, "lon": -77.01512416666667, "bike_id": "8522c10c0ac0d0639f9881470120e825", "type": "electric_scooter", "name": "8522c10c0ac0d0639f9881470120e825"}, {"is_disabled": 0, "is_reserved": 0, "fusion_lat": 0.0, "lat": 38.934315833333336, "fusion_lon": 0.0, "rental_uris": {"ios": "https://dc.lft.to/lastmile_qr_scan", "android": "https://dc.lft.to/lastmile_qr_scan"}, "lon": -77.04315966666667, "bike_id": "98990860df879d97e4cb88a37f40e61d", "type": "electric_scooter", "name": "98990860df879d97e4cb88a37f40e61d"}, {"is_disabled": 0, "is_reserved": 0, "fusion_lat": 0.0, "lat": 38.909595333333336, "fusion_lon": 0.0, "rental_uris": {"ios": "https://dc.lft.to/lastmile_qr_scan", "android": "https://dc.lft.to/lastmile_qr_scan"}, "lon": -77.04567883333333, "bike_id": "7ea061ec49b5f020cb4a684082b1ecb8", "type": "electric_scooter", "name": "7ea061ec49b5f020cb4a684082b1ecb8"}, {"is_disabled": 0, "is_reserved": 0, "fusion_lat": 0.0, "lat": 38.9064085, "fusion_lon": 0.0, "rental_uris": {"ios": "https://dc.lft.to/lastmile_qr_scan", "android": "https://dc.lft.to/lastmile_qr_scan"}, "lon": -77.045476, "bike_id": "e316f2e9e88f99a352899d946adf193f", "type": "electric_scooter", "name": "e316f2e9e88f99a352899d946adf193f"}, {"is_disabled": 0, "is_reserved": 0, "fusion_lat": 0.0, "lat": 38.946275, "fusion_lon": 0.0, "rental_uris": {"ios": "https://dc.lft.to/lastmile_qr_scan", "android": "https://dc.lft.to/lastmile_qr_scan"}, "lon": -77.01837366666666, "bike_id": "288ee654dee5f422715305bd44fa8742", "type": "electric_scooter", "name": "288ee654dee5f422715305bd44fa8742"}, {"is_disabled": 0, "is_reserved": 0, "fusion_lat": 0.0, "lat": 38.902919833333335, "fusion_lon": 0.0, "rental_uris": {"ios": "https://dc.lft.to/lastmile_qr_scan", "android": "https://dc.lft.to/lastmile_qr_scan"}, "lon": -77.01215233333333, "bike_id": "01908a564404ef3cfc33e9dad8de44e7", "type": "electric_scooter", "name": "01908a564404ef3cfc33e9dad8de44e7"}, {"is_disabled": 0, "is_reserved": 0, "fusion_lat": 0.0, "lat": 38.842817333333336, "fusion_lon": 0.0, "rental_uris": {"ios": "https://dc.lft.to/lastmile_qr_scan", "android": "https://dc.lft.to/lastmile_qr_scan"}, "lon": -76.988425, "bike_id": "ed58916d61f76bc12c1dfeefce2d51cd", "type": "electric_bike", "name": "ed58916d61f76bc12c1dfeefce2d51cd"}, {"is_disabled": 0, "is_reserved": 0, "fusion_lat": 0.0, "lat": 38.8857235, "fusion_lon": 0.0, "rental_uris": {"ios": "https://dc.lft.to/lastmile_qr_scan", "android": "https://dc.lft.to/lastmile_qr_scan"}, "lon": -77.01990433333333, "bike_id": "baf691a97bf58e1e2e77643c25cfa783", "type": "electric_scooter", "name": "baf691a97bf58e1e2e77643c25cfa783"}, {"is_disabled": 0, "is_reserved": 0, "fusion_lat": 0.0, "lat": 38.945891333333336, "fusion_lon": 0.0, "rental_uris": {"ios": "https://dc.lft.to/lastmile_qr_scan", "android": "https://dc.lft.to/lastmile_qr_scan"}, "lon": -77.0203675, "bike_id": "fa0bc7918c8e932eb9eb4e8a4ae10f91", "type": "electric_scooter", "name": "fa0bc7918c8e932eb9eb4e8a4ae10f91"}, {"is_disabled": 0, "is_reserved": 0, "fusion_lat": 0.0, "lat": 38.8067885, "fusion_lon": 0.0, "rental_uris": {"ios": "https://dc.lft.to/lastmile_qr_scan", "android": "https://dc.lft.to/lastmile_qr_scan"}, "lon": -77.0692165, "bike_id": "edddc9f25699fb76f680c03f1101d312", "type": "electric_bike", "name": "edddc9f25699fb76f680c03f1101d312"}, {"is_disabled": 0, "is_reserved": 0, "fusion_lat": 0.0, "lat": 38.84272383333333, "fusion_lon": 0.0, "rental_uris": {"ios": "https://dc.lft.to/lastmile_qr_scan", "android": "https://dc.lft.to/lastmile_qr_scan"}, "lon": -76.98836766666666, "bike_id": "d697976528ca779814c0cff55da73ba6", "type": "electric_scooter", "name": "d697976528ca779814c0cff55da73ba6"}, {"is_disabled": 0, "is_reserved": 0, "fusion_lat": 0.0, "lat": 38.87752016666666, "fusion_lon": 0.0, "rental_uris": {"ios": "https://dc.lft.to/lastmile_qr_scan", "android": "https://dc.lft.to/lastmile_qr_scan"}, "lon": -77.00454733333333, "bike_id": "e63aee94c15402423c3849045852b9bf", "type": "electric_scooter", "name": "e63aee94c15402423c3849045852b9bf"}, {"is_disabled": 0, "is_reserved": 0, "fusion_lat": 0.0, "lat": 38.919931166666665, "fusion_lon": 0.0, "rental_uris": {"ios": "https://dc.lft.to/lastmile_qr_scan", "android": "https://dc.lft.to/lastmile_qr_scan"}, "lon": -77.032221, "bike_id": "5aee527b27ab320313cef59b1df2a309", "type": "electric_scooter", "name": "5aee527b27ab320313cef59b1df2a309"}, {"is_disabled": 0, "is_reserved": 0, "fusion_lat": 0.0, "lat": 38.9044525, "fusion_lon": 0.0, "rental_uris": {"ios": "https://dc.lft.to/lastmile_qr_scan", "android": "https://dc.lft.to/lastmile_qr_scan"}, "lon": -76.97306833333333, "bike_id": "a5e8cf1366c6d2f27e63dcddd9f932b3", "type": "electric_scooter", "name": "a5e8cf1366c6d2f27e63dcddd9f932b3"}, {"is_disabled": 0, "is_reserved": 0, "fusion_lat": 0.0, "lat": 38.963515, "fusion_lon": 0.0, "rental_uris": {"ios": "https://dc.lft.to/lastmile_qr_scan", "android": "https://dc.lft.to/lastmile_qr_scan"}, "lon": -77.034434, "bike_id": "984d80223506a8a60cb3f16bc912b644", "type": "electric_scooter", "name": "984d80223506a8a60cb3f16bc912b644"}, {"is_disabled": 0, "is_reserved": 0, "fusion_lat": 0.0, "lat": 38.876618, "fusion_lon": 0.0, "rental_uris": {"ios": "https://dc.lft.to/lastmile_qr_scan", "android": "https://dc.lft.to/lastmile_qr_scan"}, "lon": -77.00460716666667, "bike_id": "5f8249067457ef0c52e993adcf186d56", "type": "electric_scooter", "name": "5f8249067457ef0c52e993adcf186d56"}, {"is_disabled": 0, "is_reserved": 0, "fusion_lat": 0.0, "lat": 38.895584166666666, "fusion_lon": 0.0, "rental_uris": {"ios": "https://dc.lft.to/lastmile_qr_scan", "android": "https://dc.lft.to/lastmile_qr_scan"}, "lon": -77.04662333333333, "bike_id": "d03a2aa5d4cf761deca86975a3bf8456", "type": "electric_scooter", "name": "d03a2aa5d4cf761deca86975a3bf8456"}, {"is_disabled": 0, "is_reserved": 0, "fusion_lat": 0.0, "lat": 38.91822583333333, "fusion_lon": 0.0, "rental_uris": {"ios": "https://dc.lft.to/lastmile_qr_scan", "android": "https://dc.lft.to/lastmile_qr_scan"}, "lon": -77.012099, "bike_id": "f5b924a3ad4f5d42f2bee27b576107ed", "type": "electric_scooter", "name": "f5b924a3ad4f5d42f2bee27b576107ed"}, {"is_disabled": 0, "is_reserved": 0, "fusion_lat": 0.0, "lat": 38.88453283333333, "fusion_lon": 0.0, "rental_uris": {"ios": "https://dc.lft.to/lastmile_qr_scan", "android": "https://dc.lft.to/lastmile_qr_scan"}, "lon": -77.0298985, "bike_id": "57dbecca671898d01858af757f926f5a", "type": "electric_scooter", "name": "57dbecca671898d01858af757f926f5a"}, {"is_disabled": 0, "is_reserved": 0, "fusion_lat": 0.0, "lat": 38.929055, "fusion_lon": 0.0, "rental_uris": {"ios": "https://dc.lft.to/lastmile_qr_scan", "android": "https://dc.lft.to/lastmile_qr_scan"}, "lon": -77.059844, "bike_id": "e80c6ac2015fa320a03dcc882a8a272c", "type": "electric_scooter", "name": "e80c6ac2015fa320a03dcc882a8a272c"}, {"is_disabled": 0, "is_reserved": 0, "fusion_lat": 0.0, "lat": 38.90713316666667, "fusion_lon": 0.0, "rental_uris": {"ios": "https://dc.lft.to/lastmile_qr_scan", "android": "https://dc.lft.to/lastmile_qr_scan"}, "lon": -77.02563466666666, "bike_id": "1d3807885b5bd7aede8b9616e9182278", "type": "electric_scooter", "name": "1d3807885b5bd7aede8b9616e9182278"}, {"is_disabled": 0, "is_reserved": 0, "fusion_lat": 0.0, "lat": 38.922342, "fusion_lon": 0.0, "rental_uris": {"ios": "https://dc.lft.to/lastmile_qr_scan", "android": "https://dc.lft.to/lastmile_qr_scan"}, "lon": -77.03199616666667, "bike_id": "fdc9aec62cd1d704194a27255d777071", "type": "electric_scooter", "name": "fdc9aec62cd1d704194a27255d777071"}, {"is_disabled": 0, "is_reserved": 0, "fusion_lat": 0.0, "lat": 38.923481333333335, "fusion_lon": 0.0, "rental_uris": {"ios": "https://dc.lft.to/lastmile_qr_scan", "android": "https://dc.lft.to/lastmile_qr_scan"}, "lon": -77.0244035, "bike_id": "ab0ce1274c34d54dda06e2aabc03597d", "type": "electric_scooter", "name": "ab0ce1274c34d54dda06e2aabc03597d"}, {"is_disabled": 0, "is_reserved": 0, "fusion_lat": 0.0, "lat": 38.93099483333334, "fusion_lon": 0.0, "rental_uris": {"ios": "https://dc.lft.to/lastmile_qr_scan", "android": "https://dc.lft.to/lastmile_qr_scan"}, "lon": -77.02666016666667, "bike_id": "2a83df04abb4e6c3258cc1edb683feec", "type": "electric_scooter", "name": "2a83df04abb4e6c3258cc1edb683feec"}, {"is_disabled": 0, "is_reserved": 0, "fusion_lat": 0.0, "lat": 38.871781666666664, "fusion_lon": 0.0, "rental_uris": {"ios": "https://dc.lft.to/lastmile_qr_scan", "android": "https://dc.lft.to/lastmile_qr_scan"}, "lon": -77.23397683333333, "bike_id": "8f870b1325af7a64e89010e05d83b5b8", "type": "electric_bike", "name": "8f870b1325af7a64e89010e05d83b5b8"}, {"is_disabled": 0, "is_reserved": 0, "fusion_lat": 0.0, "lat": 38.8666915, "fusion_lon": 0.0, "rental_uris": {"ios": "https://dc.lft.to/lastmile_qr_scan", "android": "https://dc.lft.to/lastmile_qr_scan"}, "lon": -77.0102805, "bike_id": "7601ee419f57e3243a48a2c4075b5dfd", "type": "electric_scooter", "name": "7601ee419f57e3243a48a2c4075b5dfd"}, {"is_disabled": 0, "is_reserved": 0, "fusion_lat": 0.0, "lat": 38.88532633333333, "fusion_lon": 0.0, "rental_uris": {"ios": "https://dc.lft.to/lastmile_qr_scan", "android": "https://dc.lft.to/lastmile_qr_scan"}, "lon": -76.99798316666667, "bike_id": "f4d1b807470da9cdd16e278f91620bdd", "type": "electric_scooter", "name": "f4d1b807470da9cdd16e278f91620bdd"}, {"is_disabled": 0, "is_reserved": 0, "fusion_lat": 0.0, "lat": 38.89666533333333, "fusion_lon": 0.0, "rental_uris": {"ios": "https://dc.lft.to/lastmile_qr_scan", "android": "https://dc.lft.to/lastmile_qr_scan"},