{"data": {"bikes": [{"rental_uris": {"ios": "https://dc.lft.to/lastmile_qr_scan", "android": "https://dc.lft.to/lastmile_qr_scan"}, "lon": -76.99517933333334, "type": "electric_scooter", "fusion_lat": 0.0, "lat": 38.89483633333333, "name": "8e80970dcc5085c3b95f0116e57cfbdd", "fusion_lon": 0.0, "bike_id": "8e80970dcc5085c3b95f0116e57cfbdd", "is_disabled": 0, "is_reserved": 0}, {"rental_uris": {"ios": "https://dc.lft.to/lastmile_qr_scan", "android": "https://dc.lft.to/lastmile_qr_scan"}, "lon": -77.03656666666667, "type": "electric_scooter", "fusion_lat": 0.0, "lat": 38.907940333333336, "name": "ab37fdfc175a6158cd74ea2f4c6193b2", "fusion_lon": 0.0, "bike_id": "ab37fdfc175a6158cd74ea2f4c6193b2", "is_disabled": 0, "is_reserved": 0}, {"rental_uris": {"ios": "https://dc.lft.to/lastmile_qr_scan", "android": "https://dc.lft.to/lastmile_qr_scan"}, "lon": -76.94845666666667, "type": "electric_scooter", "fusion_lat": 0.0, "lat": 38.894828, "name": "6b05d2c958a8a8f1586337f4b083d8c2", "fusion_lon": 0.0, "bike_id": "6b05d2c958a8a8f1586337f4b083d8c2", "is_disabled": 0, "is_reserved": 0}, {"rental_uris": {"ios": "https://dc.lft.to/lastmile_qr_scan", "android": "https://dc.lft.to/lastmile_qr_scan"}, "lon": -76.9317485, "type": "electric_scooter", "fusion_lat": 0.0, "lat": 38.898836, "name": "4fc53658319267126273095cfd935920", "fusion_lon": 0.0, "bike_id": "4fc53658319267126273095cfd935920", "is_disabled": 0, "is_reserved": 0}, {"rental_uris": {"ios": "https://dc.lft.to/lastmile_qr_scan", "android": "https://dc.lft.to/lastmile_qr_scan"}, "lon": -76.948513, "type": "electric_scooter", "fusion_lat": 0.0, "lat": 38.883004166666666, "name": "dceebe0555ff00c6b4261e0e6b78bb64", "fusion_lon": 0.0, "bike_id": "dceebe0555ff00c6b4261e0e6b78bb64", "is_disabled": 0, "is_reserved": 0}, {"rental_uris": {"ios": "https://dc.lft.to/lastmile_qr_scan", "android": "https://dc.lft.to/lastmile_qr_scan"}, "lon": -77.04485, "type": "electric_scooter", "fusion_lat": 0.0, "lat": 38.905514, "name": "91220976f49cbb7180dbac5239c678f1", "fusion_lon": 0.0, "bike_id": "91220976f49cbb7180dbac5239c678f1", "is_disabled": 0, "is_reserved": 0}, {"rental_uris": {"ios": "https://dc.lft.to/lastmile_qr_scan", "android": "https://dc.lft.to/lastmile_qr_scan"}, "lon": -77.107145, "type": "electric_bike", "fusion_lat": 0.0, "lat": 38.85538316666667, "name": "538a50218eebcd83a79be92a9692c1c3", "fusion_lon": 0.0, "bike_id": "538a50218eebcd83a79be92a9692c1c3", "is_disabled": 0, "is_reserved": 0}, {"rental_uris": {"ios": "https://dc.lft.to/lastmile_qr_scan", "android": "https://dc.lft.to/lastmile_qr_scan"}, "lon": -77.033509, "type": "electric_scooter", "fusion_lat": 0.0, "lat": 38.8851035, "name": "3ea29917981d1e6184b2957ea991c817", "fusion_lon": 0.0, "bike_id": "3ea29917981d1e6184b2957ea991c817", "is_disabled": 0, "is_reserved": 0}, {"rental_uris": {"ios": "https://dc.lft.to/lastmile_qr_scan", "android": "https://dc.lft.to/lastmile_qr_scan"}, "lon": -76.99266933333334, "type": "electric_scooter", "fusion_lat": 0.0, "lat": 38.89687466666667, "name": "117ce15cf8508e41295ddf9b2ccaa148", "fusion_lon": 0.0, "bike_id": "117ce15cf8508e41295ddf9b2ccaa148", "is_disabled": 0, "is_reserved": 0}, {"rental_uris": {"ios": "https://dc.lft.to/lastmile_qr_scan", "android": "https://dc.lft.to/lastmile_qr_scan"}, "lon": -77.03201966666667, "type": "electric_scooter", "fusion_lat": 0.0, "lat": 38.911466833333336, "name": "c9390001af8b1adbaa5fc2fac917a34f", "fusion_lon": 0.0, "bike_id": "c9390001af8b1adbaa5fc2fac917a34f", "is_disabled": 0, "is_reserved": 0}, {"rental_uris": {"ios": "https://dc.lft.to/lastmile_qr_scan", "android": "https://dc.lft.to/lastmile_qr_scan"}, "lon": -77.02332166666666, "type": "electric_scooter", "fusion_lat": 0.0, "lat": 38.92890633333333, "name": "4ffe0334af9077bea989711c30f40a42", "fusion_lon": 0.0, "bike_id": "4ffe0334af9077bea989711c30f40a42", "is_disabled": 0, "is_reserved": 0}, {"rental_uris": {"ios": "https://dc.lft.to/lastmile_qr_scan", "android": "https://dc.lft.to/lastmile_qr_scan"}, "lon": -77.06530033333334, "type": "electric_scooter", "fusion_lat": 0.0, "lat": 38.911252, "name": "ae9b72c7306646d1126a41d77801f94a", "fusion_lon": 0.0, "bike_id": "ae9b72c7306646d1126a41d77801f94a", "is_disabled": 0, "is_reserved": 0}, {"rental_uris": {"ios": "https://dc.lft.to/lastmile_qr_scan", "android": "https://dc.lft.to/lastmile_qr_scan"}, "lon": -77.0370485, "type": "electric_bike", "fusion_lat": 0.0, "lat": 38.935588, "name": "1582eaca87d5b039b3c9ada85a7d6644", "fusion_lon": 0.0, "bike_id": "1582eaca87d5b039b3c9ada85a7d6644", "is_disabled": 0, "is_reserved": 0}, {"rental_uris": {"ios": "https://dc.lft.to/lastmile_qr_scan", "android": "https://dc.lft.to/lastmile_qr_scan"}, "lon": -77.01506033333334, "type": "electric_scooter", "fusion_lat": 0.0, "lat": 38.90720366666667, "name": "d841a676c837b9b1d475e2cf2407716c", "fusion_lon": 0.0, "bike_id": "d841a676c837b9b1d475e2cf2407716c", "is_disabled": 0, "is_reserved": 0}, {"rental_uris": {"ios": "https://dc.lft.to/lastmile_qr_scan", "android": "https://dc.lft.to/lastmile_qr_scan"}, "lon": -77.02833316666667, "type": "electric_scooter", "fusion_lat": 0.0, "lat": 38.9125025, "name": "a3732cf6f135d98ac2f875ec127f7f89", "fusion_lon": 0.0, "bike_id": "a3732cf6f135d98ac2f875ec127f7f89", "is_disabled": 0, "is_reserved": 0}, {"rental_uris": {"ios": "https://dc.lft.to/lastmile_qr_scan", "android": "https://dc.lft.to/lastmile_qr_scan"}, "lon": -77.03856766666667, "type": "electric_scooter", "fusion_lat": 0.0, "lat": 38.91203633333333, "name": "03d6dffb00213526fb13f9f3bb5b1d1c", "fusion_lon": 0.0, "bike_id": "03d6dffb00213526fb13f9f3bb5b1d1c", "is_disabled": 0, "is_reserved": 0}, {"rental_uris": {"ios": "https://dc.lft.to/lastmile_qr_scan", "android": "https://dc.lft.to/lastmile_qr_scan"}, "lon": -77.0366365, "type": "electric_scooter", "fusion_lat": 0.0, "lat": 38.91808616666667, "name": "2cb5d92b8a0e161c9d9926a9f51197f0", "fusion_lon": 0.0, "bike_id": "2cb5d92b8a0e161c9d9926a9f51197f0", "is_disabled": 0, "is_reserved": 0}, {"rental_uris": {"ios": "https://dc.lft.to/lastmile_qr_scan", "android": "https://dc.lft.to/lastmile_qr_scan"}, "lon": -76.98688866666667, "type": "electric_scooter", "fusion_lat": 0.0, "lat": 38.912846333333334, "name": "3b5b66fa800ff49beec6fe4dbeb16515", "fusion_lon": 0.0, "bike_id": "3b5b66fa800ff49beec6fe4dbeb16515", "is_disabled": 0, "is_reserved": 0}, {"rental_uris": {"ios": "https://dc.lft.to/lastmile_qr_scan", "android": "https://dc.lft.to/lastmile_qr_scan"}, "lon": -77.03255233333333, "type": "electric_scooter", "fusion_lat": 0.0, "lat": 38.921641666666666, "name": "cd2cc9d9a5bd9b664732cf8f7eacd6cd", "fusion_lon": 0.0, "bike_id": "cd2cc9d9a5bd9b664732cf8f7eacd6cd", "is_disabled": 0, "is_reserved": 0}, {"rental_uris": {"ios": "https://dc.lft.to/lastmile_qr_scan", "android": "https://dc.lft.to/lastmile_qr_scan"}, "lon": -77.0109025, "type": "electric_scooter", "fusion_lat": 0.0, "lat": 38.893981833333335, "name": "592dd684249dfd558d65edc2c0c1f277", "fusion_lon": 0.0, "bike_id": "592dd684249dfd558d65edc2c0c1f277", "is_disabled": 0, "is_reserved": 0}, {"rental_uris": {"ios": "https://dc.lft.to/lastmile_qr_scan", "android": "https://dc.lft.to/lastmile_qr_scan"}, "lon": -77.06878516666667, "type": "electric_scooter", "fusion_lat": 0.0, "lat": 38.9051325, "name": "6a44b2cb03c46ef96053f3b37d28c6fc", "fusion_lon": 0.0, "bike_id": "6a44b2cb03c46ef96053f3b37d28c6fc", "is_disabled": 0, "is_reserved": 0}, {"rental_uris": {"ios": "https://dc.lft.to/lastmile_qr_scan", "android": "https://dc.lft.to/lastmile_qr_scan"}, "lon": -77.04484983333333, "type": "electric_scooter", "fusion_lat": 0.0, "lat": 38.906595, "name": "d43ab5eb85700604db162391bdd3895d", "fusion_lon": 0.0, "bike_id": "d43ab5eb85700604db162391bdd3895d", "is_disabled": 0, "is_reserved": 0}, {"rental_uris": {"ios": "https://dc.lft.to/lastmile_qr_scan", "android": "https://dc.lft.to/lastmile_qr_scan"}, "lon": -76.988238, "type": "electric_scooter", "fusion_lat": 0.0, "lat": 38.88025733333333, "name": "46414e3b652302c2a47125800ada18a1", "fusion_lon": 0.0, "bike_id": "46414e3b652302c2a47125800ada18a1", "is_disabled": 0, "is_reserved": 0}, {"rental_uris": {"ios": "https://dc.lft.to/lastmile_qr_scan", "android": "https://dc.lft.to/lastmile_qr_scan"}, "lon": -77.03208016666666, "type": "electric_scooter", "fusion_lat": 0.0, "lat": 38.88701, "name": "726cd9ae030f71aa48b6b3b2bab2c70e", "fusion_lon": 0.0, "bike_id": "726cd9ae030f71aa48b6b3b2bab2c70e", "is_disabled": 0, "is_reserved": 0}, {"rental_uris": {"ios": "https://dc.lft.to/lastmile_qr_scan", "android": "https://dc.lft.to/lastmile_qr_scan"}, "lon": -77.11317183333334, "type": "electric_bike", "fusion_lat": 0.0, "lat": 38.85563, "name": "8a8bf41e0747f944748086bd9ad42741", "fusion_lon": 0.0, "bike_id": "8a8bf41e0747f944748086bd9ad42741", "is_disabled": 0, "is_reserved": 0}, {"rental_uris": {"ios": "https://dc.lft.to/lastmile_qr_scan", "android": "https://dc.lft.to/lastmile_qr_scan"}, "lon": -77.03360833333333, "type": "electric_scooter", "fusion_lat": 0.0, "lat": 38.8995015, "name": "7a15e26ea16816378ad4fc9fdae43dd1", "fusion_lon": 0.0, "bike_id": "7a15e26ea16816378ad4fc9fdae43dd1", "is_disabled": 0, "is_reserved": 0}, {"rental_uris": {"ios": "https://dc.lft.to/lastmile_qr_scan", "android": "https://dc.lft.to/lastmile_qr_scan"}, "lon": -77.02420316666667, "type": "electric_scooter", "fusion_lat": 0.0, "lat": 38.884705333333336, "name": "0dec1cf2e236ddc2e7cbea992a08f8e0", "fusion_lon": 0.0, "bike_id": "0dec1cf2e236ddc2e7cbea992a08f8e0", "is_disabled": 0, "is_reserved": 0}, {"rental_uris": {"ios": "https://dc.lft.to/lastmile_qr_scan", "android": "https://dc.lft.to/lastmile_qr_scan"}, "lon": -77.020831, "type": "electric_scooter", "fusion_lat": 0.0, "lat": 38.93113316666667, "name": "9f880b0e7ba52c74e43b1a0b03fe7d7c", "fusion_lon": 0.0, "bike_id": "9f880b0e7ba52c74e43b1a0b03fe7d7c", "is_disabled": 0, "is_reserved": 0}, {"rental_uris": {"ios": "https://dc.lft.to/lastmile_qr_scan", "android": "https://dc.lft.to/lastmile_qr_scan"}, "lon": -76.979252, "type": "electric_scooter", "fusion_lat": 0.0, "lat": 38.86603133333333, "name": "8b8168d6c897a56f7be4456d6e763f74", "fusion_lon": 0.0, "bike_id": "8b8168d6c897a56f7be4456d6e763f74", "is_disabled": 0, "is_reserved": 0}, {"rental_uris": {"ios": "https://dc.lft.to/lastmile_qr_scan", "android": "https://dc.lft.to/lastmile_qr_scan"}, "lon": -77.027798, "type": "electric_scooter", "fusion_lat": 0.0, "lat": 38.923740333333335, "name": "d9c3e5de4cc74b1c5187a354cdd802a0", "fusion_lon": 0.0, "bike_id": "d9c3e5de4cc74b1c5187a354cdd802a0", "is_disabled": 0, "is_reserved": 0}, {"rental_uris": {"ios": "https://dc.lft.to/lastmile_qr_scan", "android": "https://dc.lft.to/lastmile_qr_scan"}, "lon": -76.97940916666667, "type": "electric_scooter", "fusion_lat": 0.0, "lat": 38.90241966666667, "name": "de8458056eacb52a4fca4e13d914325f", "fusion_lon": 0.0, "bike_id": "de8458056eacb52a4fca4e13d914325f", "is_disabled": 0, "is_reserved": 0}, {"rental_uris": {"ios": "https://dc.lft.to/lastmile_qr_scan", "android": "https://dc.lft.to/lastmile_qr_scan"}, "lon": -77.01783966666666, "type": "electric_scooter", "fusion_lat": 0.0, "lat": 38.90550483333333, "name": "0a02e46f592fdf26627a1a084bbb7453", "fusion_lon": 0.0, "bike_id": "0a02e46f592fdf26627a1a084bbb7453", "is_disabled": 0, "is_reserved": 0}, {"rental_uris": {"ios": "https://dc.lft.to/lastmile_qr_scan", "android": "https://dc.lft.to/lastmile_qr_scan"}, "lon": -77.00338166666667, "type": "electric_scooter", "fusion_lat": 0.0, "lat": 38.89351933333333, "name": "45f8176d47dc3976298b81e61ed6498b", "fusion_lon": 0.0, "bike_id": "45f8176d47dc3976298b81e61ed6498b", "is_disabled": 0, "is_reserved": 0}, {"rental_uris": {"ios": "https://dc.lft.to/lastmile_qr_scan", "android": "https://dc.lft.to/lastmile_qr_scan"}, "lon": -76.98554616666667, "type": "electric_scooter", "fusion_lat": 0.0, "lat": 38.8995345, "name": "288d135d07f4eec745c1129c23757368", "fusion_lon": 0.0, "bike_id": "288d135d07f4eec745c1129c23757368", "is_disabled": 0, "is_reserved": 0}, {"rental_uris": {"ios": "https://dc.lft.to/lastmile_qr_scan", "android": "https://dc.lft.to/lastmile_qr_scan"}, "lon": -77.02077016666667, "type": "electric_scooter", "fusion_lat": 0.0, "lat": 38.89967266666667, "name": "cc91bc5583efa3a84a814cd7b4ffcc60", "fusion_lon": 0.0, "bike_id": "cc91bc5583efa3a84a814cd7b4ffcc60", "is_disabled": 0, "is_reserved": 0}, {"rental_uris": {"ios": "https://dc.lft.to/lastmile_qr_scan", "android": "https://dc.lft.to/lastmile_qr_scan"}, "lon": -77.0265685, "type": "electric_scooter", "fusion_lat": 0.0, "lat": 38.91060183333333, "name": "9d4f389e85c5efedb801b69adcb7c349", "fusion_lon": 0.0, "bike_id": "9d4f389e85c5efedb801b69adcb7c349", "is_disabled": 0, "is_reserved": 0}, {"rental_uris": {"ios": "https://dc.lft.to/lastmile_qr_scan", "android": "https://dc.lft.to/lastmile_qr_scan"}, "lon": -77.02813333333333, "type": "electric_scooter", "fusion_lat": 0.0, "lat": 38.91486316666666, "name": "75712f06ca7f5c4dd82a414e07a39d9d", "fusion_lon": 0.0, "bike_id": "75712f06ca7f5c4dd82a414e07a39d9d", "is_disabled": 0, "is_reserved": 0}, {"rental_uris": {"ios": "https://dc.lft.to/lastmile_qr_scan", "android": "https://dc.lft.to/lastmile_qr_scan"}, "lon": -77.0457485, "type": "electric_scooter", "fusion_lat": 0.0, "lat": 38.9211935, "name": "79128922295484e84bb3d775ddfb9b41", "fusion_lon": 0.0, "bike_id": "79128922295484e84bb3d775ddfb9b41", "is_disabled": 0, "is_reserved": 0}, {"rental_uris": {"ios": "https://dc.lft.to/lastmile_qr_scan", "android": "https://dc.lft.to/lastmile_qr_scan"}, "lon": -77.03529816666666, "type": "electric_scooter", "fusion_lat": 0.0, "lat": 38.924195166666664, "name": "c4263914cc805271da707b0b1cfc227f", "fusion_lon": 0.0, "bike_id": "c4263914cc805271da707b0b1cfc227f", "is_disabled": 0, "is_reserved": 0}, {"rental_uris": {"ios": "https://dc.lft.to/lastmile_qr_scan", "android": "https://dc.lft.to/lastmile_qr_scan"}, "lon": -77.02716933333333, "type": "electric_scooter", "fusion_lat": 0.0, "lat": 38.8922065, "name": "e3dd2598c58f50d41e614a109d750002", "fusion_lon": 0.0, "bike_id": "e3dd2598c58f50d41e614a109d750002", "is_disabled": 0, "is_reserved": 0}, {"rental_uris": {"ios": "https://dc.lft.to/lastmile_qr_scan", "android": "https://dc.lft.to/lastmile_qr_scan"}, "lon": -76.99485916666667, "type": "electric_scooter", "fusion_lat": 0.0, "lat": 38.9320355, "name": "c2460d1170bae9aa7115c99b6fdf405a", "fusion_lon": 0.0, "bike_id": "c2460d1170bae9aa7115c99b6fdf405a", "is_disabled": 0, "is_reserved": 0}, {"rental_uris": {"ios": "https://dc.lft.to/lastmile_qr_scan", "android": "https://dc.lft.to/lastmile_qr_scan"}, "lon": -77.02214733333334, "type": "electric_scooter", "fusion_lat": 0.0, "lat": 38.9057615, "name": "f000cea42b7e91678e49d6e73c52a334", "fusion_lon": 0.0, "bike_id": "f000cea42b7e91678e49d6e73c52a334", "is_disabled": 0, "is_reserved": 0}, {"rental_uris": {"ios": "https://dc.lft.to/lastmile_qr_scan", "android": "https://dc.lft.to/lastmile_qr_scan"}, "lon": -77.00114116666667, "type": "electric_scooter", "fusion_lat": 0.0, "lat": 38.894335, "name": "e577d09befd09f11f35aaf0d9c4fd024", "fusion_lon": 0.0, "bike_id": "e577d09befd09f11f35aaf0d9c4fd024", "is_disabled": 0, "is_reserved": 0}, {"rental_uris": {"ios": "https://dc.lft.to/lastmile_qr_scan", "android": "https://dc.lft.to/lastmile_qr_scan"}, "lon": -77.03256316666666, "type": "electric_scooter", "fusion_lat": 0.0, "lat": 38.935267833333334, "name": "557b0eba6dc47081fc6c9a608d232da4", "fusion_lon": 0.0, "bike_id": "557b0eba6dc47081fc6c9a608d232da4", "is_disabled": 0, "is_reserved": 0}, {"rental_uris": {"ios": "https://dc.lft.to/lastmile_qr_scan", "android": "https://dc.lft.to/lastmile_qr_scan"}, "lon": -77.031288, "type": "electric_scooter", "fusion_lat": 0.0, "lat": 38.9237215, "name": "b3559a29139df43a60d0f28bbf7f7c43", "fusion_lon": 0.0, "bike_id": "b3559a29139df43a60d0f28bbf7f7c43", "is_disabled": 0, "is_reserved": 0}, {"rental_uris": {"ios": "https://dc.lft.to/lastmile_qr_scan", "android": "https://dc.lft.to/lastmile_qr_scan"}, "lon": -77.05000716666666, "type": "electric_scooter", "fusion_lat": 0.0, "lat": 38.8922695, "name": "20d1738a9c8f70e5a095b79811f770ea", "fusion_lon": 0.0, "bike_id": "20d1738a9c8f70e5a095b79811f770ea", "is_disabled": 0, "is_reserved": 0}, {"rental_uris": {"ios": "https://dc.lft.to/lastmile_qr_scan", "android": "https://dc.lft.to/lastmile_qr_scan"}, "lon": -76.93829866666667, "type": "electric_scooter", "fusion_lat": 0.0, "lat": 38.897612333333335, "name": "b50d3fa763ed431733ae8276f7989d6f", "fusion_lon": 0.0, "bike_id": "b50d3fa763ed431733ae8276f7989d6f", "is_disabled": 0, "is_reserved": 0}, {"rental_uris": {"ios": "https://dc.lft.to/lastmile_qr_scan", "android": "https://dc.lft.to/lastmile_qr_scan"}, "lon": -77.04431433333333, "type": "electric_scooter", "fusion_lat": 0.0, "lat": 38.921246, "name": "8cb82eb15e4650af494610c6b66a6d00", "fusion_lon": 0.0, "bike_id": "8cb82eb15e4650af494610c6b66a6d00", "is_disabled": 0, "is_reserved": 0}, {"rental_uris": {"ios": "https://dc.lft.to/lastmile_qr_scan", "android": "https://dc.lft.to/lastmile_qr_scan"}, "lon": -77.0266355, "type": "electric_scooter", "fusion_lat": 0.0, "lat": 38.928822, "name": "ecb68cd6158b3a8034d09c979d1b41c9", "fusion_lon": 0.0, "bike_id": "ecb68cd6158b3a8034d09c979d1b41c9", "is_disabled": 0, "is_reserved": 0}, {"rental_uris": {"ios": "https://dc.lft.to/lastmile_qr_scan", "android": "https://dc.lft.to/lastmile_qr_scan"}, "lon": -77.00676166666666, "type": "electric_scooter", "fusion_lat": 0.0, "lat": 38.87642433333333, "name": "53fcdd206c52febdc8503eb0230cb39c", "fusion_lon": 0.0, "bike_id": "53fcdd206c52febdc8503eb0230cb39c", "is_disabled": 0, "is_reserved": 0}, {"rental_uris": {"ios": "https://dc.lft.to/lastmile_qr_scan", "android": "https://dc.lft.to/lastmile_qr_scan"}, "lon": -76.990663, "type": "electric_scooter", "fusion_lat": 0.0, "lat": 38.86354883333333, "name": "02c8e6ac08a2177367b892a233e8e358", "fusion_lon": 0.0, "bike_id": "02c8e6ac08a2177367b892a233e8e358", "is_disabled": 0, "is_reserved": 0}, {"rental_uris": {"ios": "https://dc.lft.to/lastmile_qr_scan", "android": "https://dc.lft.to/lastmile_qr_scan"}, "lon": -77.03648833333334, "type": "electric_scooter", "fusion_lat": 0.0, "lat": 38.912964833333334, "name": "c2a5993a239251d973fb2f277ba3bde3", "fusion_lon": 0.0, "bike_id": "c2a5993a239251d973fb2f277ba3bde3", "is_disabled": 0, "is_reserved": 0}, {"rental_uris": {"ios": "https://dc.lft.to/lastmile_qr_scan", "android": "https://dc.lft.to/lastmile_qr_scan"}, "lon": -77.0321195, "type": "electric_scooter", "fusion_lat": 0.0, "lat": 38.90032016666667, "name": "a66db2a730549b5378ce5f6f89570598", "fusion_lon": 0.0, "bike_id": "a66db2a730549b5378ce5f6f89570598", "is_disabled": 0, "is_reserved": 0}, {"rental_uris": {"ios": "https://dc.lft.to/lastmile_qr_scan", "android": "https://dc.lft.to/lastmile_qr_scan"}, "lon": -77.0330275, "type": "electric_scooter", "fusion_lat": 0.0, "lat": 38.909088, "name": "ae32251761316b116bfc128f1063c588", "fusion_lon": 0.0, "bike_id": "ae32251761316b116bfc128f1063c588", "is_disabled": 0, "is_reserved": 0}, {"rental_uris": {"ios": "https://dc.lft.to/lastmile_qr_scan", "android": "https://dc.lft.to/lastmile_qr_scan"}, "lon": -77.04536083333333, "type": "electric_scooter", "fusion_lat": 0.0, "lat": 38.8947675, "name": "dfe8d4c17408503cd961c480f206cef0", "fusion_lon": 0.0, "bike_id": "dfe8d4c17408503cd961c480f206cef0", "is_disabled": 0, "is_reserved": 0}, {"rental_uris": {"ios": "https://dc.lft.to/lastmile_qr_scan", "android": "https://dc.lft.to/lastmile_qr_scan"}, "lon": -77.026976, "type": "electric_scooter", "fusion_lat": 0.0, "lat": 38.90941816666667, "name": "6db3d9da4e455369c4486be186ba2a18", "fusion_lon": 0.0, "bike_id": "6db3d9da4e455369c4486be186ba2a18", "is_disabled": 0, "is_reserved": 0}, {"rental_uris": {"ios": "https://dc.lft.to/lastmile_qr_scan", "android": "https://dc.lft.to/lastmile_qr_scan"}, "lon": -76.9835425, "type": "electric_scooter", "fusion_lat": 0.0, "lat": 38.915322333333336, "name": "4c6ae61d601cc02a92ab95ce4dc331ed", "fusion_lon": 0.0, "bike_id": "4c6ae61d601cc02a92ab95ce4dc331ed", "is_disabled": 0, "is_reserved": 0}, {"rental_uris": {"ios": "https://dc.lft.to/lastmile_qr_scan", "android": "https://dc.lft.to/lastmile_qr_scan"}, "lon": -77.0270305, "type": "electric_scooter", "fusion_lat": 0.0, "lat": 38.906659, "name": "21b06a2482ad155a8924eea3dae37814", "fusion_lon": 0.0, "bike_id": "21b06a2482ad155a8924eea3dae37814", "is_disabled": 0, "is_reserved": 0}, {"rental_uris": {"ios": "https://dc.lft.to/lastmile_qr_scan", "android": "https://dc.lft.to/lastmile_qr_scan"}, "lon": -77.055056, "type": "electric_scooter", "fusion_lat": 0.0, "lat": 38.8998785, "name": "9f1aa553e1f0ec087296970d7203feef", "fusion_lon": 0.0, "bike_id": "9f1aa553e1f0ec087296970d7203feef", "is_disabled": 0, "is_reserved": 0}, {"rental_uris": {"ios": "https://dc.lft.to/lastmile_qr_scan", "android": "https://dc.lft.to/lastmile_qr_scan"}, "lon": -77.031766, "type": "electric_scooter", "fusion_lat": 0.0, "lat": 38.89816166666667, "name": "dab753d6291b0fc455f2bd1e69d32757", "fusion_lon": 0.0, "bike_id": "dab753d6291b0fc455f2bd1e69d32757", "is_disabled": 0, "is_reserved": 0}, {"rental_uris": {"ios": "https://dc.lft.to/lastmile_qr_scan", "android": "https://dc.lft.to/lastmile_qr_scan"}, "lon": -77.07307966666667, "type": "electric_scooter", "fusion_lat": 0.0, "lat": 38.9360855, "name": "bb9ad64f87418fb3d3b715c62467bd5a", "fusion_lon": 0.0, "bike_id": "bb9ad64f87418fb3d3b715c62467bd5a", "is_disabled": 0, "is_reserved": 0}, {"rental_uris": {"ios": "https://dc.lft.to/lastmile_qr_scan", "android": "https://dc.lft.to/lastmile_qr_scan"}, "lon": -76.95468866666667, "type": "electric_bike", "fusion_lat": 0.0, "lat": 38.88636733333333, "name": "24ad9e3fd30f123eed9c79b3e3b19b8e", "fusion_lon": 0.0, "bike_id": "24ad9e3fd30f123eed9c79b3e3b19b8e", "is_disabled": 0, "is_reserved": 0}, {"rental_uris": {"ios": "https://dc.lft.to/lastmile_qr_scan", "android": "https://dc.lft.to/lastmile_qr_scan"}, "lon": -77.026541, "type": "electric_scooter", "fusion_lat": 0.0, "lat": 38.88115716666667, "name": "a5b3f2d75dd55e0079b2038a6ed544c6", "fusion_lon": 0.0, "bike_id": "a5b3f2d75dd55e0079b2038a6ed544c6", "is_disabled": 0, "is_reserved": 0}, {"rental_uris": {"ios": "https://dc.lft.to/lastmile_qr_scan", "android": "https://dc.lft.to/lastmile_qr_scan"}, "lon": -77.000311, "type": "electric_scooter", "fusion_lat": 0.0, "lat": 38.8763905, "name": "ce131f5fe532eabd0f963b3d8573c7d4", "fusion_lon": 0.0, "bike_id": "ce131f5fe532eabd0f963b3d8573c7d4", "is_disabled": 0, "is_reserved": 0}, {"rental_uris": {"ios": "https://dc.lft.to/lastmile_qr_scan", "android": "https://dc.lft.to/lastmile_qr_scan"}, "lon": -77.03796916666667, "type": "electric_scooter", "fusion_lat": 0.0, "lat": 38.930259166666666, "name": "cbaf008af340980fc25616a90aa7b836", "fusion_lon": 0.0, "bike_id": "cbaf008af340980fc25616a90aa7b836", "is_disabled": 0, "is_reserved": 0}, {"rental_uris": {"ios": "https://dc.lft.to/lastmile_qr_scan", "android": "https://dc.lft.to/lastmile_qr_scan"}, "lon": -77.0160935, "type": "electric_scooter", "fusion_lat": 0.0, "lat": 38.9113095, "name": "9264e38328c780c0c4c79104090eccfd", "fusion_lon": 0.0, "bike_id": "9264e38328c780c0c4c79104090eccfd", "is_disabled": 0, "is_reserved": 0}, {"rental_uris": {"ios": "https://dc.lft.to/lastmile_qr_scan", "android": "https://dc.lft.to/lastmile_qr_scan"}, "lon": -76.931747, "type": "electric_scooter", "fusion_lat": 0.0, "lat": 38.89886116666667, "name": "8c432cb68872cb449e7cb1232acf9d1c", "fusion_lon": 0.0, "bike_id": "8c432cb68872cb449e7cb1232acf9d1c", "is_disabled": 0, "is_reserved": 0}, {"rental_uris": {"ios": "https://dc.lft.to/lastmile_qr_scan", "android": "https://dc.lft.to/lastmile_qr_scan"}, "lon": -77.0326265, "type": "electric_scooter", "fusion_lat": 0.0, "lat": 38.927382, "name": "3ee56c52070caaff01d86d3313f942b2", "fusion_lon": 0.0, "bike_id": "3ee56c52070caaff01d86d3313f942b2", "is_disabled": 0, "is_reserved": 0}, {"rental_uris": {"ios": "https://dc.lft.to/lastmile_qr_scan", "android": "https://dc.lft.to/lastmile_qr_scan"}, "lon": -77.0264535, "type": "electric_scooter", "fusion_lat": 0.0, "lat": 38.88125466666666, "name": "49ad9930b63c05fef1a8ff63fbb445f1", "fusion_lon": 0.0, "bike_id": "49ad9930b63c05fef1a8ff63fbb445f1", "is_disabled": 0, "is_reserved": 0}, {"rental_uris": {"ios": "https://dc.lft.to/lastmile_qr_scan", "android": "https://dc.lft.to/lastmile_qr_scan"}, "lon": -77.02099933333334, "type": "electric_scooter", "fusion_lat": 0.0, "lat": 38.93114383333333, "name": "1f57bc87982cac920664caa5ba961ee8", "fusion_lon": 0.0, "bike_id": "1f57bc87982cac920664caa5ba961ee8", "is_disabled": 0, "is_reserved": 0}, {"rental_uris": {"ios": "https://dc.lft.to/lastmile_qr_scan", "android": "https://dc.lft.to/lastmile_qr_scan"}, "lon": -77.0249885, "type": "electric_scooter", "fusion_lat": 0.0, "lat": 38.94288016666667, "name": "1c934b82da6796ba4ffe0cce3b06d71c", "fusion_lon": 0.0, "bike_id": "1c934b82da6796ba4ffe0cce3b06d71c", "is_disabled": 0, "is_reserved": 0}, {"rental_uris": {"ios": "https://dc.lft.to/lastmile_qr_scan", "android": "https://dc.lft.to/lastmile_qr_scan"}, "lon": -77.05024316666666, "type": "electric_scooter", "fusion_lat": 0.0, "lat": 38.92353933333333, "name": "87dd1a8eaa5fee0b749ac7c8a4f5a352", "fusion_lon": 0.0, "bike_id": "87dd1a8eaa5fee0b749ac7c8a4f5a352", "is_disabled": 0, "is_reserved": 0}, {"rental_uris": {"ios": "https://dc.lft.to/lastmile_qr_scan", "android": "https://dc.lft.to/lastmile_qr_scan"}, "lon": -77.00929416666666, "type": "electric_scooter", "fusion_lat": 0.0, "lat": 38.916936, "name": "637ce5cc32b0d1942537ea699797948f", "fusion_lon": 0.0, "bike_id": "637ce5cc32b0d1942537ea699797948f", "is_disabled": 0, "is_reserved": 0}, {"rental_uris": {"ios": "https://dc.lft.to/lastmile_qr_scan", "android": "https://dc.lft.to/lastmile_qr_scan"}, "lon": -77.0022225, "type": "electric_scooter", "fusion_lat": 0.0, "lat": 38.905073333333334, "name": "473ae4c6f769a8f0742b6166c8204590", "fusion_lon": 0.0, "bike_id": "473ae4c6f769a8f0742b6166c8204590", "is_disabled": 0, "is_reserved": 0}, {"rental_uris": {"ios": "https://dc.lft.to/lastmile_qr_scan", "android": "https://dc.lft.to/lastmile_qr_scan"}, "lon": -77.002532, "type": "electric_scooter", "fusion_lat": 0.0, "lat": 38.90125616666667, "name": "75454cb2dea4cb2c7b2dc9101182555c", "fusion_lon": 0.0, "bike_id": "75454cb2dea4cb2c7b2dc9101182555c", "is_disabled": 0, "is_reserved": 0}, {"rental_uris": {"ios": "https://dc.lft.to/lastmile_qr_scan", "android": "https://dc.lft.to/lastmile_qr_scan"}, "lon": -77.02691516666667, "type": "electric_scooter", "fusion_lat": 0.0, "lat": 38.90000833333333, "name": "af3db1a65c8273962a761e593b9ac524", "fusion_lon": 0.0, "bike_id": "af3db1a65c8273962a761e593b9ac524", "is_disabled": 0, "is_reserved": 0}, {"rental_uris": {"ios": "https://dc.lft.to/lastmile_qr_scan", "android": "https://dc.lft.to/lastmile_qr_scan"}, "lon": -77.03428516666666, "type": "electric_scooter", "fusion_lat": 0.0, "lat": 38.927384333333336, "name": "7d35c95cb476a626ec336d87c452dbe0", "fusion_lon": 0.0, "bike_id": "7d35c95cb476a626ec336d87c452dbe0", "is_disabled": 0, "is_reserved": 0}, {"rental_uris": {"ios": "https://dc.lft.to/lastmile_qr_scan", "android": "https://dc.lft.to/lastmile_qr_scan"}, "lon": -77.03381633333333, "type": "electric_scooter", "fusion_lat": 0.0, "lat": 38.92148516666666, "name": "39512a9bba79a09941842602a782f9ad", "fusion_lon": 0.0, "bike_id": "39512a9bba79a09941842602a782f9ad", "is_disabled": 0, "is_reserved": 0}, {"rental_uris": {"ios": "https://dc.lft.to/lastmile_qr_scan", "android": "https://dc.lft.to/lastmile_qr_scan"}, "lon": -77.020704, "type": "electric_scooter", "fusion_lat": 0.0, "lat": 38.90424083333333, "name": "18032575b4bcccfb4aaf38aab683f2f9", "fusion_lon": 0.0, "bike_id": "18032575b4bcccfb4aaf38aab683f2f9", "is_disabled": 0, "is_reserved": 0}, {"rental_uris": {"ios": "https://dc.lft.to/lastmile_qr_scan", "android": "https://dc.lft.to/lastmile_qr_scan"}, "lon": -76.9907305, "type": "electric_scooter", "fusion_lat": 0.0, "lat": 38.904203333333335, "name": "09b7e6baf8284f0c975a68b13a8e56bb", "fusion_lon": 0.0, "bike_id": "09b7e6baf8284f0c975a68b13a8e56bb", "is_disabled": 0, "is_reserved": 0}, {"rental_uris": {"ios": "https://dc.lft.to/lastmile_qr_scan", "android": "https://dc.lft.to/lastmile_qr_scan"}, "lon": -77.01508733333333, "type": "electric_scooter", "fusion_lat": 0.0, "lat": 38.910782166666664, "name": "b52157d09dbb5af19a2370d24126a571", "fusion_lon": 0.0, "bike_id": "b52157d09dbb5af19a2370d24126a571", "is_disabled": 0, "is_reserved": 0}, {"rental_uris": {"ios": "https://dc.lft.to/lastmile_qr_scan", "android": "https://dc.lft.to/lastmile_qr_scan"}, "lon": -77.00502366666667, "type": "electric_scooter", "fusion_lat": 0.0, "lat": 38.87533616666666, "name": "a5c9ab21e19a1f5f05c77306adb05a57", "fusion_lon": 0.0, "bike_id": "a5c9ab21e19a1f5f05c77306adb05a57", "is_disabled": 0, "is_reserved": 0}, {"rental_uris": {"ios": "https://dc.lft.to/lastmile_qr_scan", "android": "https://dc.lft.to/lastmile_qr_scan"}, "lon": -77.03488783333333, "type": "electric_scooter", "fusion_lat": 0.0, "lat": 38.919217833333335, "name": "71e7393f77efa46ab373006f539a8b17", "fusion_lon": 0.0, "bike_id": "71e7393f77efa46ab373006f539a8b17", "is_disabled": 0, "is_reserved": 0}, {"rental_uris": {"ios": "https://dc.lft.to/lastmile_qr_scan", "android": "https://dc.lft.to/lastmile_qr_scan"}, "lon": -77.06473566666666, "type": "electric_bike", "fusion_lat": 0.0, "lat": 38.973841, "name": "b3519197d8a27746639979db256f5b1c", "fusion_lon": 0.0, "bike_id": "b3519197d8a27746639979db256f5b1c", "is_disabled": 0, "is_reserved": 0}, {"rental_uris": {"ios": "https://dc.lft.to/lastmile_qr_scan", "android": "https://dc.lft.to/lastmile_qr_scan"}, "lon": -76.99171266666667, "type": "electric_scooter", "fusion_lat": 0.0, "lat": 38.879221333333334, "name": "a2aea24a2a488afecccf26116097fb7f", "fusion_lon": 0.0, "bike_id": "a2aea24a2a488afecccf26116097fb7f", "is_disabled": 0, "is_reserved": 0}, {"rental_uris": {"ios": "https://dc.lft.to/lastmile_qr_scan", "android": "https://dc.lft.to/lastmile_qr_scan"}, "lon": -77.02711266666667, "type": "electric_scooter", "fusion_lat": 0.0, "lat": 38.905074, "name": "717b2ce465b395563ca24ae3a91e7655", "fusion_lon": 0.0, "bike_id": "717b2ce465b395563ca24ae3a91e7655", "is_disabled": 0, "is_reserved": 0}, {"rental_uris": {"ios": "https://dc.lft.to/lastmile_qr_scan", "android": "https://dc.lft.to/lastmile_qr_scan"}, "lon": -76.977098, "type": "electric_scooter", "fusion_lat": 0.0, "lat": 38.8989875, "name": "4ffaf0a0f83c1f480631aa6c202d47e4", "fusion_lon": 0.0, "bike_id": "4ffaf0a0f83c1f480631aa6c202d47e4", "is_disabled": 0, "is_reserved": 0}, {"rental_uris": {"ios": "https://dc.lft.to/lastmile_qr_scan", "android": "https://dc.lft.to/lastmile_qr_scan"}, "lon": -76.972077, "type": "electric_bike", "fusion_lat": 0.0, "lat": 38.84474566666667, "name": "265840b4fbe8dae55fdb317be64a54ff", "fusion_lon": 0.0, "bike_id": "265840b4fbe8dae55fdb317be64a54ff", "is_disabled": 0, "is_reserved": 0}, {"rental_uris": {"ios": "https://dc.lft.to/lastmile_qr_scan", "android": "https://dc.lft.to/lastmile_qr_scan"}, "lon": -77.02148516666666, "type": "electric_scooter", "fusion_lat": 0.0, "lat": 38.930003166666665, "name": "025ee6f22a2918c9a78f0d248f3e57d8", "fusion_lon": 0.0, "bike_id": "025ee6f22a2918c9a78f0d248f3e57d8", "is_disabled": 0, "is_reserved": 0}, {"rental_uris": {"ios": "https://dc.lft.to/lastmile_qr_scan", "android": "https://dc.lft.to/lastmile_qr_scan"}, "lon": -77.00570633333334, "type": "electric_scooter", "fusion_lat": 0.0, "lat": 38.898175333333334, "name": "bf62e94a1bba3a93909ccc56b461a103", "fusion_lon": 0.0, "bike_id": "bf62e94a1bba3a93909ccc56b461a103", "is_disabled": 0, "is_reserved": 0}, {"rental_uris": {"ios": "https://dc.lft.to/lastmile_qr_scan", "android": "https://dc.lft.to/lastmile_qr_scan"}, "lon": -77.00132833333333, "type": "electric_scooter", "fusion_lat": 0.0, "lat": 38.907567, "name": "ad2d27e0e30d4cde09d9fa5348df33ba", "fusion_lon": 0.0, "bike_id": "ad2d27e0e30d4cde09d9fa5348df33ba", "is_disabled": 0, "is_reserved": 0}, {"rental_uris": {"ios": "https://dc.lft.to/lastmile_qr_scan", "android": "https://dc.lft.to/lastmile_qr_scan"}, "lon": -77.023083, "type": "electric_scooter", "fusion_lat": 0.0, "lat": 38.917859666666665, "name": "871c37a7c099eb2186ad4ab44bc128ec", "fusion_lon": 0.0, "bike_id": "871c37a7c099eb2186ad4ab44bc128ec", "is_disabled": 0, "is_reserved": 0}, {"rental_uris": {"ios": "https://dc.lft.to/lastmile_qr_scan", "android": "https://dc.lft.to/lastmile_qr_scan"}, "lon": -77.00730083333333, "type": "electric_scooter", "fusion_lat": 0.0, "lat": 38.95971983333333, "name": "65b58a9dd72302c69a3e896e27e1aafd", "fusion_lon": 0.0, "bike_id": "65b58a9dd72302c69a3e896e27e1aafd", "is_disabled": 0, "is_reserved": 0}, {"rental_uris": {"ios": "https://dc.lft.to/lastmile_qr_scan", "android": "https://dc.lft.to/lastmile_qr_scan"}, "lon": -76.95754566666666, "type": "electric_scooter", "fusion_lat": 0.0, "lat": 38.884257166666664, "name": "7c261bd149cf4944af649ab14bf148dc", "fusion_lon": 0.0, "bike_id": "7c261bd149cf4944af649ab14bf148dc", "is_disabled": 0, "is_reserved": 0}, {"rental_uris": {"ios": "https://dc.lft.to/lastmile_qr_scan", "android": "https://dc.lft.to/lastmile_qr_scan"}, "lon": -77.02994133333333, "type": "electric_scooter", "fusion_lat": 0.0, "lat": 38.9102155, "name": "cea48cfa85519fe55014ead57cc15cb6", "fusion_lon": 0.0, "bike_id": "cea48cfa85519fe55014ead57cc15cb6", "is_disabled": 0, "is_reserved": 0}, {"rental_uris": {"ios": "https://dc.lft.to/lastmile_qr_scan", "android": "https://dc.lft.to/lastmile_qr_scan"}, "lon": -77.01405866666667, "type": "electric_scooter", "fusion_lat": 0.0, "lat": 38.92839216666667, "name": "7bae10ad1047691c1608cf2fe708a101", "fusion_lon": 0.0, "bike_id": "7bae10ad1047691c1608cf2fe708a101", "is_disabled": 0, "is_reserved": 0}, {"rental_uris": {"ios": "https://dc.lft.to/lastmile_qr_scan", "android": "https://dc.lft.to/lastmile_qr_scan"}, "lon": -77.00258466666666, "type": "electric_scooter", "fusion_lat": 0.0, "lat": 38.877638833333336, "name": "6fdc957ff8bee51810c3774bc0468732", "fusion_lon": 0.0, "bike_id": "6fdc957ff8bee51810c3774bc0468732", "is_disabled": 0, "is_reserved": 0}, {"rental_uris": {"ios": "https://dc.lft.to/lastmile_qr_scan", "android": "https://dc.lft.to/lastmile_qr_scan"}, "lon": -76.98328566666666, "type": "electric_scooter", "fusion_lat": 0.0, "lat": 38.86172333333333, "name": "7b3a67978b644d5781b8cb8b27434224", "fusion_lon": 0.0, "bike_id": "7b3a67978b644d5781b8cb8b27434224", "is_disabled": 0, "is_reserved": 0}, {"rental_uris": {"ios": "https://dc.lft.to/lastmile_qr_scan", "android": "https://dc.lft.to/lastmile_qr_scan"}, "lon": -77.02527483333333, "type": "electric_scooter", "fusion_lat": 0.0, "lat": 38.9181555, "name": "612f68bd4874c15e5eee84e7b3da03e9", "fusion_lon": 0.0, "bike_id": "612f68bd4874c15e5eee84e7b3da03e9", "is_disabled": 0, "is_reserved": 0}, {"rental_uris": {"ios": "https://dc.lft.to/lastmile_qr_scan", "android": "https://dc.lft.to/lastmile_qr_scan"}, "lon": -77.04171333333333, "type": "electric_scooter", "fusion_lat": 0.0, "lat": 38.9192365, "name": "983b0e56ac8006b71bde83b2be849af3", "fusion_lon": 0.0, "bike_id": "983b0e56ac8006b71bde83b2be849af3", "is_disabled": 0, "is_reserved": 0}, {"rental_uris": {"ios": "https://dc.lft.to/lastmile_qr_scan", "android": "https://dc.lft.to/lastmile_qr_scan"}, "lon": -77.02968933333334, "type": "electric_scooter", "fusion_lat": 0.0, "lat": 38.9225875, "name": "ec06de39c70a5e4f9762c48dcf636d90", "fusion_lon": 0.0, "bike_id": "ec06de39c70a5e4f9762c48dcf636d90", "is_disabled": 0, "is_reserved": 0}, {"rental_uris": {"ios": "https://dc.lft.to/lastmile_qr_scan", "android": "https://dc.lft.to/lastmile_qr_scan"}, "lon": -77.02358783333334, "type": "electric_scooter", "fusion_lat": 0.0, "lat": 38.925082333333336, "name": "156a527ec17e595168a0533308365bb4", "fusion_lon": 0.0, "bike_id": "156a527ec17e595168a0533308365bb4", "is_disabled": 0, "is_reserved": 0}, {"rental_uris": {"ios": "https://dc.lft.to/lastmile_qr_scan", "android": "https://dc.lft.to/lastmile_qr_scan"}, "lon": -77.03658483333334, "type": "electric_scooter", "fusion_lat": 0.0, "lat": 38.9171135, "name": "20e8915d868499eb7526e2219fbb2e48", "fusion_lon": 0.0, "bike_id": "20e8915d868499eb7526e2219fbb2e48", "is_disabled": 0, "is_reserved": 0}, {"rental_uris": {"ios": "https://dc.lft.to/lastmile_qr_scan", "android": "https://dc.lft.to/lastmile_qr_scan"}, "lon": -77.04181483333333, "type": "electric_scooter", "fusion_lat": 0.0, "lat": 38.903382, "name": "77b1d25dcd8891358c6f0bf514a734c8", "fusion_lon": 0.0, "bike_id": "77b1d25dcd8891358c6f0bf514a734c8", "is_disabled": 0, "is_reserved": 0}, {"rental_uris": {"ios": "https://dc.lft.to/lastmile_qr_scan", "android": "https://dc.lft.to/lastmile_qr_scan"}, "lon": -77.152677, "type": "electric_bike", "fusion_lat": 0.0, "lat": 39.105640333333334, "name": "8410efba847691d096b92fa6163e958d", "fusion_lon": 0.0, "bike_id": "8410efba847691d096b92fa6163e958d", "is_disabled": 0, "is_reserved": 0}, {"rental_uris": {"ios": "https://dc.lft.to/lastmile_qr_scan", "android": "https://dc.lft.to/lastmile_qr_scan"}, "lon": -77.03960166666667, "type": "electric_scooter", "fusion_lat": 0.0, "lat": 38.91987866666667, "name": "23aa5603c6c0a80ed4b6dfd78972d685", "fusion_lon": 0.0, "bike_id": "23aa5603c6c0a80ed4b6dfd78972d685", "is_disabled": 0, "is_reserved": 0}, {"rental_uris": {"ios": "https://dc.lft.to/lastmile_qr_scan", "android": "https://dc.lft.to/lastmile_qr_scan"}, "lon": -77.0071365, "type": "electric_scooter", "fusion_lat": 0.0, "lat": 38.913364, "name": "ec469a77596e05f361e1448fe6bd8d5b", "fusion_lon": 0.0, "bike_id": "ec469a77596e05f361e1448fe6bd8d5b", "is_disabled": 0, "is_reserved": 0}, {"rental_uris": {"ios": "https://dc.lft.to/lastmile_qr_scan", "android": "https://dc.lft.to/lastmile_qr_scan"}, "lon": -77.05265533333333, "type": "electric_scooter", "fusion_lat": 0.0, "lat": 38.910094, "name": "8e023ee0772783d81d175aab1becfb13", "fusion_lon": 0.0, "bike_id": "8e023ee0772783d81d175aab1becfb13", "is_disabled": 0, "is_reserved": 0}, {"rental_uris": {"ios": "https://dc.lft.to/lastmile_qr_scan", "android": "https://dc.lft.to/lastmile_qr_scan"}, "lon": -77.02619716666666, "type": "electric_scooter", "fusion_lat": 0.0, "lat": 38.919138, "name": "d806c7f891e08a81744af37ddc02df39", "fusion_lon": 0.0, "bike_id": "d806c7f891e08a81744af37ddc02df39", "is_disabled": 0, "is_reserved": 0}, {"rental_uris": {"ios": "https://dc.lft.to/lastmile_qr_scan", "android": "https://dc.lft.to/lastmile_qr_scan"}, "lon": -77.00227483333333, "type": "electric_scooter", "fusion_lat": 0.0, "lat": 38.90839966666667, "name": "532b87e40032bc4fcbbcc1076e1930f6", "fusion_lon": 0.0, "bike_id": "532b87e40032bc4fcbbcc1076e1930f6", "is_disabled": 0, "is_reserved": 0}, {"rental_uris": {"ios": "https://dc.lft.to/lastmile_qr_scan", "android": "https://dc.lft.to/lastmile_qr_scan"}, "lon": -77.04920983333334, "type": "electric_scooter", "fusion_lat": 0.0, "lat": 38.90058916666667, "name": "053f6808f34e5abb0e095b01634d849c", "fusion_lon": 0.0, "bike_id": "053f6808f34e5abb0e095b01634d849c", "is_disabled": 0, "is_reserved": 0}, {"rental_uris": {"ios": "https://dc.lft.to/lastmile_qr_scan", "android": "https://dc.lft.to/lastmile_qr_scan"}, "lon": -76.92994916666666, "type": "electric_bike", "fusion_lat": 0.0, "lat": 38.88800883333333, "name": "27285b96436b6cdd4c97fc8ff516ba37", "fusion_lon": 0.0, "bike_id": "27285b96436b6cdd4c97fc8ff516ba37", "is_disabled": 0, "is_reserved": 0}, {"rental_uris": {"ios": "https://dc.lft.to/lastmile_qr_scan", "android": "https://dc.lft.to/lastmile_qr_scan"}, "lon": -77.01594616666667, "type": "electric_scooter", "fusion_lat": 0.0, "lat": 38.89620983333333, "name": "b1c357f34e6b53df754339184fd74d4b", "fusion_lon": 0.0, "bike_id": "b1c357f34e6b53df754339184fd74d4b", "is_disabled": 0, "is_reserved": 0}, {"rental_uris": {"ios": "https://dc.lft.to/lastmile_qr_scan", "android": "https://dc.lft.to/lastmile_qr_scan"}, "lon": -76.990219, "type": "electric_scooter", "fusion_lat": 0.0, "lat": 38.8640185, "name": "20247ac8f9b3fed23c1f93ed9a828ade", "fusion_lon": 0.0, "bike_id": "20247ac8f9b3fed23c1f93ed9a828ade", "is_disabled": 0, "is_reserved": 0}, {"rental_uris": {"ios": "https://dc.lft.to/lastmile_qr_scan", "android": "https://dc.lft.to/lastmile_qr_scan"}, "lon": -77.01365083333333, "type": "electric_scooter", "fusion_lat": 0.0, "lat": 38.87599566666667, "name": "4eaf90420996b5ad1f6a27fa4dcde040", "fusion_lon": 0.0, "bike_id": "4eaf90420996b5ad1f6a27fa4dcde040", "is_disabled": 0, "is_reserved": 0}, {"rental_uris": {"ios": "https://dc.lft.to/lastmile_qr_scan", "android": "https://dc.lft.to/lastmile_qr_scan"}, "lon": -77.0749655, "type": "electric_bike", "fusion_lat": 0.0, "lat": 38.892924, "name": "d0ed5bf72666758e5488836d6da6ba0a", "fusion_lon": 0.0, "bike_id": "d0ed5bf72666758e5488836d6da6ba0a", "is_disabled": 0, "is_reserved": 0}, {"rental_uris": {"ios": "https://dc.lft.to/lastmile_qr_scan", "android": "https://dc.lft.to/lastmile_qr_scan"}, "lon": -77.03076766666666, "type": "electric_scooter", "fusion_lat": 0.0, "lat": 38.89968433333333, "name": "5b83e9bb42bab6fd5f4fdf825923e6a8", "fusion_lon": 0.0, "bike_id": "5b83e9bb42bab6fd5f4fdf825923e6a8", "is_disabled": 0, "is_reserved": 0}, {"rental_uris": {"ios": "https://dc.lft.to/lastmile_qr_scan", "android": "https://dc.lft.to/lastmile_qr_scan"}, "lon": -77.079261, "type": "electric_scooter", "fusion_lat": 0.0, "lat": 38.948674833333335, "name": "8077043a3b7e62f8bbc020a70ff2ad6c", "fusion_lon": 0.0, "bike_id": "8077043a3b7e62f8bbc020a70ff2ad6c", "is_disabled": 0, "is_reserved": 0}, {"rental_uris": {"ios": "https://dc.lft.to/lastmile_qr_scan", "android": "https://dc.lft.to/lastmile_qr_scan"}, "lon": -77.02893466666667, "type": "electric_scooter", "fusion_lat": 0.0, "lat": 38.916894166666665, "name": "1f6171fc8bb6ed4b7546fbcc546d0230", "fusion_lon": 0.0, "bike_id": "1f6171fc8bb6ed4b7546fbcc546d0230", "is_disabled": 0, "is_reserved": 0}, {"rental_uris": {"ios": "https://dc.lft.to/lastmile_qr_scan", "android": "https://dc.lft.to/lastmile_qr_scan"}, "lon": -77.0190045, "type": "electric_scooter", "fusion_lat": 0.0, "lat": 38.9055495, "name": "2149e202eb6ecb218dc4d745064bbed4", "fusion_lon": 0.0, "bike_id": "2149e202eb6ecb218dc4d745064bbed4", "is_disabled": 0, "is_reserved": 0}, {"rental_uris": {"ios": "https://dc.lft.to/lastmile_qr_scan", "android": "https://dc.lft.to/lastmile_qr_scan"}, "lon": -76.986094, "type": "electric_bike", "fusion_lat": 0.0, "lat": 38.90625433333334, "name": "5bd659da15a5c1d57d5598ef87e55eef", "fusion_lon": 0.0, "bike_id": "5bd659da15a5c1d57d5598ef87e55eef", "is_disabled": 0, "is_reserved": 0}, {"rental_uris": {"ios": "https://dc.lft.to/lastmile_qr_scan", "android": "https://dc.lft.to/lastmile_qr_scan"}, "lon": -77.02418183333333, "type": "electric_scooter", "fusion_lat": 0.0, "lat": 38.918229, "name": "745ede2b94a776834d1529d94b878232", "fusion_lon": 0.0, "bike_id": "745ede2b94a776834d1529d94b878232", "is_disabled": 0, "is_reserved": 0}, {"rental_uris": {"ios": "https://dc.lft.to/lastmile_qr_scan", "android": "https://dc.lft.to/lastmile_qr_scan"}, "lon": -77.08826433333333, "type": "electric_bike", "fusion_lat": 0.0, "lat": 38.90976833333333, "name": "92d8cf17294ad3cfdb97df5264d510bb", "fusion_lon": 0.0, "bike_id": "92d8cf17294ad3cfdb97df5264d510bb", "is_disabled": 0, "is_reserved": 0}, {"rental_uris": {"ios": "https://dc.lft.to/lastmile_qr_scan", "android": "https://dc.lft.to/lastmile_qr_scan"}, "lon": -77.024311, "type": "electric_scooter", "fusion_lat": 0.0, "lat": 38.918499, "name": "512563b5b1ee437bc3519ec6386ea5cf", "fusion_lon": 0.0, "bike_id": "512563b5b1ee437bc3519ec6386ea5cf", "is_disabled": 0, "is_reserved": 0}, {"rental_uris": {"ios": "https://dc.lft.to/lastmile_qr_scan", "android": "https://dc.lft.to/lastmile_qr_scan"}, "lon": -77.0512105, "type": "electric_bike", "fusion_lat": 0.0, "lat": 38.999642, "name": "dfb82e3f510d66a57bff06f30dbecbfc", "fusion_lon": 0.0, "bike_id": "dfb82e3f510d66a57bff06f30dbecbfc", "is_disabled": 0, "is_reserved": 0}, {"rental_uris": {"ios": "https://dc.lft.to/lastmile_qr_scan", "android": "https://dc.lft.to/lastmile_qr_scan"}, "lon": -77.01623316666667, "type": "electric_scooter", "fusion_lat": 0.0, "lat": 38.90337783333333, "name": "b54ad8f13232d6db839c3fbc40acddf2", "fusion_lon": 0.0, "bike_id": "b54ad8f13232d6db839c3fbc40acddf2", "is_disabled": 0, "is_reserved": 0}, {"rental_uris": {"ios": "https://dc.lft.to/lastmile_qr_scan", "android": "https://dc.lft.to/lastmile_qr_scan"}, "lon": -77.03192733333333, "type": "electric_scooter", "fusion_lat": 0.0, "lat": 38.90850966666667, "name": "038bacb0295afa51847f0caef9fa6287", "fusion_lon": 0.0, "bike_id": "038bacb0295afa51847f0caef9fa6287", "is_disabled": 0, "is_reserved": 0}, {"rental_uris": {"ios": "https://dc.lft.to/lastmile_qr_scan", "android": "https://dc.lft.to/lastmile_qr_scan"}, "lon": -76.97635283333334, "type": "electric_scooter", "fusion_lat": 0.0, "lat": 38.9057185, "name": "dea611a28e9dcff4f17b2bde24b819c3", "fusion_lon": 0.0, "bike_id": "dea611a28e9dcff4f17b2bde24b819c3", "is_disabled": 0, "is_reserved": 0}, {"rental_uris": {"ios": "https://dc.lft.to/lastmile_qr_scan", "android": "https://dc.lft.to/lastmile_qr_scan"}, "lon": -76.96526933333334, "type": "electric_scooter", "fusion_lat": 0.0, "lat": 38.876247, "name": "5b323600ac3b35666d480d883ea0f43a", "fusion_lon": 0.0, "bike_id": "5b323600ac3b35666d480d883ea0f43a", "is_disabled": 0, "is_reserved": 0}, {"rental_uris": {"ios": "https://dc.lft.to/lastmile_qr_scan", "android": "https://dc.lft.to/lastmile_qr_scan"}, "lon": -77.055558, "type": "electric_scooter", "fusion_lat": 0.0, "lat": 38.8995745, "name": "78eca634033ebfa309868c240487f730", "fusion_lon": 0.0, "bike_id": "78eca634033ebfa309868c240487f730", "is_disabled": 0, "is_reserved": 0}, {"rental_uris": {"ios": "https://dc.lft.to/lastmile_qr_scan", "android": "https://dc.lft.to/lastmile_qr_scan"}, "lon": -77.0460005, "type": "electric_scooter", "fusion_lat": 0.0, "lat": 38.90273466666667, "name": "04073aaf258c027b5fd83a5ab7309fe1", "fusion_lon": 0.0, "bike_id": "04073aaf258c027b5fd83a5ab7309fe1", "is_disabled": 0, "is_reserved": 0}, {"rental_uris": {"ios": "https://dc.lft.to/lastmile_qr_scan", "android": "https://dc.lft.to/lastmile_qr_scan"}, "lon": -76.99333966666667, "type": "electric_bike", "fusion_lat": 0.0, "lat": 38.96195933333333, "name": "35c6f84effdf6142439ac955cc840aee", "fusion_lon": 0.0, "bike_id": "35c6f84effdf6142439ac955cc840aee", "is_disabled": 0, "is_reserved": 0}, {"rental_uris": {"ios": "https://dc.lft.to/lastmile_qr_scan", "android": "https://dc.lft.to/lastmile_qr_scan"}, "lon": -77.03139316666666, "type": "electric_scooter", "fusion_lat": 0.0, "lat": 38.92375883333333, "name": "e07e73ce89274f5a13fabe54bc5c4bd5", "fusion_lon": 0.0, "bike_id": "e07e73ce89274f5a13fabe54bc5c4bd5", "is_disabled": 0, "is_reserved": 0}, {"rental_uris": {"ios": "https://dc.lft.to/lastmile_qr_scan", "android": "https://dc.lft.to/lastmile_qr_scan"}, "lon": -77.02925666666667, "type": "electric_scooter", "fusion_lat": 0.0, "lat": 38.88216116666667, "name": "45539e5db5bcb11a4bf494f03c95f758", "fusion_lon": 0.0, "bike_id": "45539e5db5bcb11a4bf494f03c95f758", "is_disabled": 0, "is_reserved": 0}, {"rental_uris": {"ios": "https://dc.lft.to/lastmile_qr_scan", "android": "https://dc.lft.to/lastmile_qr_scan"}, "lon": -77.07360466666667, "type": "electric_scooter", "fusion_lat": 0.0, "lat": 38.93734033333333, "name": "6289f7923b6cffb55efa55668d302428", "fusion_lon": 0.0, "bike_id": "6289f7923b6cffb55efa55668d302428", "is_disabled": 0, "is_reserved": 0}, {"rental_uris": {"ios": "https://dc.lft.to/lastmile_qr_scan", "android": "https://dc.lft.to/lastmile_qr_scan"}, "lon": -77.01867083333333, "type": "electric_scooter", "fusion_lat": 0.0, "lat": 38.9489245, "name": "10b3c9e219e3c5f8340f6d1aee1b97bd", "fusion_lon": 0.0, "bike_id": "10b3c9e219e3c5f8340f6d1aee1b97bd", "is_disabled": 0, "is_reserved": 0}, {"rental_uris": {"ios": "https://dc.lft.to/lastmile_qr_scan", "android": "https://dc.lft.to/lastmile_qr_scan"}, "lon": -77.0298, "type": "electric_bike", "fusion_lat": 0.0, "lat": 38.936992833333335, "name": "ccf42cb180d6fbf8fa4fb29d2a904017", "fusion_lon": 0.0, "bike_id": "ccf42cb180d6fbf8fa4fb29d2a904017", "is_disabled": 0, "is_reserved": 0}, {"rental_uris": {"ios": "https://dc.lft.to/lastmile_qr_scan", "android": "https://dc.lft.to/lastmile_qr_scan"}, "lon": -77.066433, "type": "electric_scooter", "fusion_lat": 0.0, "lat": 38.91372666666667, "name": "c945b447050d14e077f3e4adf14f5d98", "fusion_lon": 0.0, "bike_id": "c945b447050d14e077f3e4adf14f5d98", "is_disabled": 0, "is_reserved": 0}, {"rental_uris": {"ios": "https://dc.lft.to/lastmile_qr_scan", "android": "https://dc.lft.to/lastmile_qr_scan"}, "lon": -77.04818066666667, "type": "electric_scooter", "fusion_lat": 0.0, "lat": 38.8972505, "name": "e65c7427ce052fdd4184e2309f8c70eb", "fusion_lon": 0.0, "bike_id": "e65c7427ce052fdd4184e2309f8c70eb", "is_disabled": 0, "is_reserved": 0}, {"rental_uris": {"ios": "https://dc.lft.to/lastmile_qr_scan", "android": "https://dc.lft.to/lastmile_qr_scan"}, "lon": -77.0023285, "type": "electric_bike", "fusion_lat": 0.0, "lat": 38.9116425, "name": "7db3a16ed0761378a53ff85baa529284", "fusion_lon": 0.0, "bike_id": "7db3a16ed0761378a53ff85baa529284", "is_disabled": 0, "is_reserved": 0}, {"rental_uris": {"ios": "https://dc.lft.to/lastmile_qr_scan", "android": "https://dc.lft.to/lastmile_qr_scan"}, "lon": -77.04390533333333, "type": "electric_scooter", "fusion_lat": 0.0, "lat": 38.92278483333333, "name": "8972cd7f3bcd76494e13e4192afefb47", "fusion_lon": 0.0, "bike_id": "8972cd7f3bcd76494e13e4192afefb47", "is_disabled": 0, "is_reserved": 0}, {"rental_uris": {"ios": "https://dc.lft.to/lastmile_qr_scan", "android": "https://dc.lft.to/lastmile_qr_scan"}, "lon": -76.9761, "type": "electric_bike", "fusion_lat": 0.0, "lat": 38.91304816666667, "name": "59c07a9259ca99b1e67b36eb7c5a1692", "fusion_lon": 0.0, "bike_id": "59c07a9259ca99b1e67b36eb7c5a1692", "is_disabled": 0, "is_reserved": 0}, {"rental_uris": {"ios": "https://dc.lft.to/lastmile_qr_scan", "android": "https://dc.lft.to/lastmile_qr_scan"}, "lon": -77.02003566666667, "type": "electric_scooter", "fusion_lat": 0.0, "lat": 38.8924625, "name": "9644ef9bcc95a1eb86bf393126a59f10", "fusion_lon": 0.0, "bike_id": "9644ef9bcc95a1eb86bf393126a59f10", "is_disabled": 0, "is_reserved": 0}, {"rental_uris": {"ios": "https://dc.lft.to/lastmile_qr_scan", "android": "https://dc.lft.to/lastmile_qr_scan"}, "lon": -76.99035533333333, "type": "electric_scooter", "fusion_lat": 0.0, "lat": 38.85863916666667, "name": "d507e2cb18e3f387ba90a91141fd181e", "fusion_lon": 0.0, "bike_id": "d507e2cb18e3f387ba90a91141fd181e", "is_disabled": 0, "is_reserved": 0}, {"rental_uris": {"ios": "https://dc.lft.to/lastmile_qr_scan", "android": "https://dc.lft.to/lastmile_qr_scan"}, "lon": -76.97189716666666, "type": "electric_scooter", "fusion_lat": 0.0, "lat": 38.912635333333334, "name": "ebcb60a3113d9ad6edb91ad41db370be", "fusion_lon": 0.0, "bike_id": "ebcb60a3113d9ad6edb91ad41db370be", "is_disabled": 0, "is_reserved": 0}, {"rental_uris": {"ios": "https://dc.lft.to/lastmile_qr_scan", "android": "https://dc.lft.to/lastmile_qr_scan"}, "lon": -77.01520216666667, "type": "electric_scooter", "fusion_lat": 0.0, "lat": 38.91872583333333, "name": "ac9bf8f36937fb7bd13181f3acd3979b", "fusion_lon": 0.0, "bike_id": "ac9bf8f36937fb7bd13181f3acd3979b", "is_disabled": 0, "is_reserved": 0}, {"rental_uris": {"ios": "https://dc.lft.to/lastmile_qr_scan", "android": "https://dc.lft.to/lastmile_qr_scan"}, "lon": -77.06811433333333, "type": "electric_bike", "fusion_lat": 0.0, "lat": 38.90771516666667, "name": "ed32868699cd213dc6dccdd906c6fc98", "fusion_lon": 0.0, "bike_id": "ed32868699cd213dc6dccdd906c6fc98", "is_disabled": 0, "is_reserved": 0}, {"rental_uris": {"ios": "https://dc.lft.to/lastmile_qr_scan", "android": "https://dc.lft.to/lastmile_qr_scan"}, "lon": -77.01817783333334, "type": "electric_scooter", "fusion_lat": 0.0, "lat": 38.90807516666667, "name": "eae072ae24b68f0c6e5c71df8eab4cf2", "fusion_lon": 0.0, "bike_id": "eae072ae24b68f0c6e5c71df8eab4cf2", "is_disabled": 0, "is_reserved": 0}, {"rental_uris": {"ios": "https://dc.lft.to/lastmile_qr_scan", "android": "https://dc.lft.to/lastmile_qr_scan"}, "lon": -77.02315216666666, "type": "electric_scooter", "fusion_lat": 0.0, "lat": 38.887356833333335, "name": "060e2fc95c94ed4fdce7219e52258047", "fusion_lon": 0.0, "bike_id": "060e2fc95c94ed4fdce7219e52258047", "is_disabled": 0, "is_reserved": 0}, {"rental_uris": {"ios": "https://dc.lft.to/lastmile_qr_scan", "android": "https://dc.lft.to/lastmile_qr_scan"}, "lon": -77.00480583333334, "type": "electric_scooter", "fusion_lat": 0.0, "lat": 38.87687916666667, "name": "1807c9974721d49a4942709239999573", "fusion_lon": 0.0, "bike_id": "1807c9974721d49a4942709239999573", "is_disabled": 0, "is_reserved": 0}, {"rental_uris": {"ios": "https://dc.lft.to/lastmile_qr_scan", "android": "https://dc.lft.to/lastmile_qr_scan"}, "lon": -77.13596316666667, "type": "electric_bike", "fusion_lat": 0.0, "lat": 39.0534635, "name": "2d0c30d7cbfebfa674b933b836224bf4", "fusion_lon": 0.0, "bike_id": "2d0c30d7cbfebfa674b933b836224bf4", "is_disabled": 0, "is_reserved": 0}, {"rental_uris": {"ios": "https://dc.lft.to/lastmile_qr_scan", "android": "https://dc.lft.to/lastmile_qr_scan"}, "lon": -77.04307883333334, "type": "electric_scooter", "fusion_lat": 0.0, "lat": 38.922598, "name": "1ef345d58f8db9aee27001beb95a9db1", "fusion_lon": 0.0, "bike_id": "1ef345d58f8db9aee27001beb95a9db1", "is_disabled": 0, "is_reserved": 0}, {"rental_uris": {"ios": "https://dc.lft.to/lastmile_qr_scan", "android": "https://dc.lft.to/lastmile_qr_scan"}, "lon": -77.03654583333334, "type": "electric_scooter", "fusion_lat": 0.0, "lat": 38.91294633333333, "name": "f20eb80f4d8e1b9c02fcca75fa5c6f1d", "fusion_lon": 0.0, "bike_id": "f20eb80f4d8e1b9c02fcca75fa5c6f1d", "is_disabled": 0, "is_reserved": 0}, {"rental_uris": {"ios": "https://dc.lft.to/lastmile_qr_scan", "android": "https://dc.lft.to/lastmile_qr_scan"}, "lon": -76.94891016666666, "type": "electric_scooter", "fusion_lat": 0.0, "lat": 38.89465766666667, "name": "800d5d9c84fa60f60e81686585c44605", "fusion_lon": 0.0, "bike_id": "800d5d9c84fa60f60e81686585c44605", "is_disabled": 0, "is_reserved": 0}, {"rental_uris": {"ios": "https://dc.lft.to/lastmile_qr_scan", "android": "https://dc.lft.to/lastmile_qr_scan"}, "lon": -76.9860805, "type": "electric_scooter", "fusion_lat": 0.0, "lat": 38.868163333333335, "name": "62cdeef3531d9d1749166f59c4d412a0", "fusion_lon": 0.0, "bike_id": "62cdeef3531d9d1749166f59c4d412a0", "is_disabled": 0, "is_reserved": 0}, {"rental_uris": {"ios": "https://dc.lft.to/lastmile_qr_scan", "android": "https://dc.lft.to/lastmile_qr_scan"}, "lon": -77.01143216666667, "type": "electric_scooter", "fusion_lat": 0.0, "lat": 38.897131333333334, "name": "a8a7166c5dd668ee394aff2b04d24264", "fusion_lon": 0.0, "bike_id": "a8a7166c5dd668ee394aff2b04d24264", "is_disabled": 0, "is_reserved": 0}, {"rental_uris": {"ios": "https://dc.lft.to/lastmile_qr_scan", "android": "https://dc.lft.to/lastmile_qr_scan"}, "lon": -77.0365785, "type": "electric_scooter", "fusion_lat": 0.0, "lat": 38.929183333333334, "name": "85d792d00b853b70ca7effff915a8e80", "fusion_lon": 0.0, "bike_id": "85d792d00b853b70ca7effff915a8e80", "is_disabled": 0, "is_reserved": 0}, {"rental_uris": {"ios": "https://dc.lft.to/lastmile_qr_scan", "android": "https://dc.lft.to/lastmile_qr_scan"}, "lon": -77.0447445, "type": "electric_scooter", "fusion_lat": 0.0, "lat": 38.90650133333333, "name": "921940606baaa36dbc81eddcb0c44104", "fusion_lon": 0.0, "bike_id": "921940606baaa36dbc81eddcb0c44104", "is_disabled": 0, "is_reserved": 0}, {"rental_uris": {"ios": "https://dc.lft.to/lastmile_qr_scan", "android": "https://dc.lft.to/lastmile_qr_scan"}, "lon": -77.01255616666667, "type": "electric_scooter", "fusion_lat": 0.0, "lat": 38.89963816666667, "name": "33313480ca55fa09c60ba62a58ff1901", "fusion_lon": 0.0, "bike_id": "33313480ca55fa09c60ba62a58ff1901", "is_disabled": 0, "is_reserved": 0}, {"rental_uris": {"ios": "https://dc.lft.to/lastmile_qr_scan", "android": "https://dc.lft.to/lastmile_qr_scan"}, "lon": -77.05255033333333, "type": "electric_scooter", "fusion_lat": 0.0, "lat": 38.92377233333333, "name": "e7b06de82dd8c91eba2c5544d6bed63c", "fusion_lon": 0.0, "bike_id": "e7b06de82dd8c91eba2c5544d6bed63c", "is_disabled": 0, "is_reserved": 0}, {"rental_uris": {"ios": "https://dc.lft.to/lastmile_qr_scan", "android": "https://dc.lft.to/lastmile_qr_scan"}, "lon": -77.0143945, "type": "electric_scooter", "fusion_lat": 0.0, "lat": 38.877689833333335, "name": "43abff72516ea508688cfa038013c66f", "fusion_lon": 0.0, "bike_id": "43abff72516ea508688cfa038013c66f", "is_disabled": 0, "is_reserved": 0}, {"rental_uris": {"ios": "https://dc.lft.to/lastmile_qr_scan", "android": "https://dc.lft.to/lastmile_qr_scan"}, "lon": -77.02323466666667, "type": "electric_scooter", "fusion_lat": 0.0, "lat": 38.92942033333333, "name": "c1bdc174643657c69336b4f77f8d1c2b", "fusion_lon": 0.0, "bike_id": "c1bdc174643657c69336b4f77f8d1c2b", "is_disabled": 0, "is_reserved": 0}, {"rental_uris": {"ios": "https://dc.lft.to/lastmile_qr_scan", "android": "https://dc.lft.to/lastmile_qr_scan"}, "lon": -77.017443, "type": "electric_scooter", "fusion_lat": 0.0, "lat": 38.91710466666667, "name": "cce1e42a6d5deb128c08a497c6f26c5d", "fusion_lon": 0.0, "bike_id": "cce1e42a6d5deb128c08a497c6f26c5d", "is_disabled": 0, "is_reserved": 0}, {"rental_uris": {"ios": "https://dc.lft.to/lastmile_qr_scan", "android": "https://dc.lft.to/lastmile_qr_scan"}, "lon": -77.03440033333334, "type": "electric_scooter", "fusion_lat": 0.0, "lat": 38.90343683333333, "name": "41df575bbeb7d2da6fcaa7eb8c16c4ad", "fusion_lon": 0.0, "bike_id": "41df575bbeb7d2da6fcaa7eb8c16c4ad", "is_disabled": 0, "is_reserved": 0}, {"rental_uris": {"ios": "https://dc.lft.to/lastmile_qr_scan", "android": "https://dc.lft.to/lastmile_qr_scan"}, "lon": -77.03071616666666, "type": "electric_scooter", "fusion_lat": 0.0, "lat": 38.90983833333333, "name": "028cac10be2131bdfc29dc842b19205b", "fusion_lon": 0.0, "bike_id": "028cac10be2131bdfc29dc842b19205b", "is_disabled": 0, "is_reserved": 0}, {"rental_uris": {"ios": "https://dc.lft.to/lastmile_qr_scan", "android": "https://dc.lft.to/lastmile_qr_scan"}, "lon": -77.01208283333334, "type": "electric_scooter", "fusion_lat": 0.0, "lat": 38.915227, "name": "16f891b4e5a9e7bc750dd73a24eff2f2", "fusion_lon": 0.0, "bike_id": "16f891b4e5a9e7bc750dd73a24eff2f2", "is_disabled": 0, "is_reserved": 0}, {"rental_uris": {"ios": "https://dc.lft.to/lastmile_qr_scan", "android": "https://dc.lft.to/lastmile_qr_scan"}, "lon": -76.90433916666667, "type": "electric_bike", "fusion_lat": 0.0, "lat": 38.8976705, "name": "7f6ffde097a9db8a02630325a749d86a", "fusion_lon": 0.0, "bike_id": "7f6ffde097a9db8a02630325a749d86a", "is_disabled": 0, "is_reserved": 0}, {"rental_uris": {"ios": "https://dc.lft.to/lastmile_qr_scan", "android": "https://dc.lft.to/lastmile_qr_scan"}, "lon": -77.03519066666667, "type": "electric_scooter", "fusion_lat": 0.0, "lat": 38.9183955, "name": "1de836a134aa609c57b4a26179dfea1c", "fusion_lon": 0.0, "bike_id": "1de836a134aa609c57b4a26179dfea1c", "is_disabled": 0, "is_reserved": 0}, {"rental_uris": {"ios": "https://dc.lft.to/lastmile_qr_scan", "android": "https://dc.lft.to/lastmile_qr_scan"}, "lon": -77.03342183333334, "type": "electric_scooter", "fusion_lat": 0.0, "lat": 38.923579333333336, "name": "212bd487d5a527623434f145e38a7c47", "fusion_lon": 0.0, "bike_id": "212bd487d5a527623434f145e38a7c47", "is_disabled": 0, "is_reserved": 0}, {"rental_uris": {"ios": "https://dc.lft.to/lastmile_qr_scan", "android": "https://dc.lft.to/lastmile_qr_scan"}, "lon": -77.03883816666666, "type": "electric_scooter", "fusion_lat": 0.0, "lat": 38.90255066666667, "name": "db5f8972aef7d16de1f8d3bf0445d067", "fusion_lon": 0.0, "bike_id": "db5f8972aef7d16de1f8d3bf0445d067", "is_disabled": 0, "is_reserved": 0}, {"rental_uris": {"ios": "https://dc.lft.to/lastmile_qr_scan", "android": "https://dc.lft.to/lastmile_qr_scan"}, "lon": -77.0486935, "type": "electric_scooter", "fusion_lat": 0.0, "lat": 38.912324166666664, "name": "2eadcca3f77be954bc818ae0990696e4", "fusion_lon": 0.0, "bike_id": "2eadcca3f77be954bc818ae0990696e4", "is_disabled": 0, "is_reserved": 0}, {"rental_uris": {"ios": "https://dc.lft.to/lastmile_qr_scan", "android": "https://dc.lft.to/lastmile_qr_scan"}, "lon": -77.01513333333334, "type": "electric_scooter", "fusion_lat": 0.0, "lat": 38.887309333333334, "name": "26f3d7708dda240b0f7c7e5f4b1bedcf", "fusion_lon": 0.0, "bike_id": "26f3d7708dda240b0f7c7e5f4b1bedcf", "is_disabled": 0, "is_reserved": 0}, {"rental_uris": {"ios": "https://dc.lft.to/lastmile_qr_scan", "android": "https://dc.lft.to/lastmile_qr_scan"}, "lon": -77.00722316666666, "type": "electric_scooter", "fusion_lat": 0.0, "lat": 38.884876166666665, "name": "1c5ecd933e6bff3e96195f6a993306fe", "fusion_lon": 0.0, "bike_id": "1c5ecd933e6bff3e96195f6a993306fe", "is_disabled": 0, "is_reserved": 0}, {"rental_uris": {"ios": "https://dc.lft.to/lastmile_qr_scan", "android": "https://dc.lft.to/lastmile_qr_scan"}, "lon": -77.02713433333334, "type": "electric_scooter", "fusion_lat": 0.0, "lat": 38.918139333333336, "name": "9045d6b7190cf40b2b309e6cf3ccfad6", "fusion_lon": 0.0, "bike_id": "9045d6b7190cf40b2b309e6cf3ccfad6", "is_disabled": 0, "is_reserved": 0}, {"rental_uris": {"ios": "https://dc.lft.to/lastmile_qr_scan", "android": "https://dc.lft.to/lastmile_qr_scan"}, "lon": -77.01992016666667, "type": "electric_scooter", "fusion_lat": 0.0, "lat": 38.90471, "name": "b574f9572718ac3a6f6334ad054ec1fb", "fusion_lon": 0.0, "bike_id": "b574f9572718ac3a6f6334ad054ec1fb", "is_disabled": 0, "is_reserved": 0}, {"rental_uris": {"ios": "https://dc.lft.to/lastmile_qr_scan", "android": "https://dc.lft.to/lastmile_qr_scan"}, "lon": -76.9835455, "type": "electric_scooter", "fusion_lat": 0.0, "lat": 38.91548516666667, "name": "41893e9708064f793dff56c95eb923a7", "fusion_lon": 0.0, "bike_id": "41893e9708064f793dff56c95eb923a7", "is_disabled": 0, "is_reserved": 0}, {"rental_uris": {"ios": "https://dc.lft.to/lastmile_qr_scan", "android": "https://dc.lft.to/lastmile_qr_scan"}, "lon": -76.96771916666667, "type": "electric_scooter", "fusion_lat": 0.0, "lat": 38.861436833333336, "name": "57e05397cdcdfd946f186682a69efb19", "fusion_lon": 0.0, "bike_id": "57e05397cdcdfd946f186682a69efb19", "is_disabled": 0, "is_reserved": 0}, {"rental_uris": {"ios": "https://dc.lft.to/lastmile_qr_scan", "android": "https://dc.lft.to/lastmile_qr_scan"}, "lon": -76.9836995, "type": "electric_scooter", "fusion_lat": 0.0, "lat": 38.864804, "name": "47095d47d0663c4b6de49f5725f68123", "fusion_lon": 0.0, "bike_id": "47095d47d0663c4b6de49f5725f68123", "is_disabled": 0, "is_reserved": 0}, {"rental_uris": {"ios": "https://dc.lft.to/lastmile_qr_scan", "android": "https://dc.lft.to/lastmile_qr_scan"}, "lon": -77.03886583333333, "type": "electric_scooter", "fusion_lat": 0.0, "lat": 38.921792333333336, "name": "4174fb07af7c0bdd83c24d9ab34bf36a", "fusion_lon": 0.0, "bike_id": "4174fb07af7c0bdd83c24d9ab34bf36a", "is_disabled": 0, "is_reserved": 0}, {"rental_uris": {"ios": "https://dc.lft.to/lastmile_qr_scan", "android": "https://dc.lft.to/lastmile_qr_scan"}, "lon": -77.04175916666667, "type": "electric_scooter", "fusion_lat": 0.0, "lat": 38.90726383333333, "name": "e7f581e212a215bcc6f5e844a3975426", "fusion_lon": 0.0, "bike_id": "e7f581e212a215bcc6f5e844a3975426", "is_disabled": 0, "is_reserved": 0}, {"rental_uris": {"ios": "https://dc.lft.to/lastmile_qr_scan", "android": "https://dc.lft.to/lastmile_qr_scan"}, "lon": -77.0322245, "type": "electric_scooter", "fusion_lat": 0.0, "lat": 38.89234166666667, "name": "6f2c0bed1c7576b555e7ab277c200d11", "fusion_lon": 0.0, "bike_id": "6f2c0bed1c7576b555e7ab277c200d11", "is_disabled": 0, "is_reserved": 0}, {"rental_uris": {"ios": "https://dc.lft.to/lastmile_qr_scan", "android": "https://dc.lft.to/lastmile_qr_scan"}, "lon": -76.98408933333333, "type": "electric_scooter", "fusion_lat": 0.0, "lat": 38.913855166666664, "name": "811b1498827a218d6cb15e396c10d1f2", "fusion_lon": 0.0, "bike_id": "811b1498827a218d6cb15e396c10d1f2", "is_disabled": 0, "is_reserved": 0}, {"rental_uris": {"ios": "https://dc.lft.to/lastmile_qr_scan", "android": "https://dc.lft.to/lastmile_qr_scan"}, "lon": -77.01752316666666, "type": "electric_scooter", "fusion_lat": 0.0, "lat": 38.87726083333333, "name": "f92ab96e7df6d1e32656fb993d6fe68d", "fusion_lon": 0.0, "bike_id": "f92ab96e7df6d1e32656fb993d6fe68d", "is_disabled": 0, "is_reserved": 0}, {"rental_uris": {"ios": "https://dc.lft.to/lastmile_qr_scan", "android": "https://dc.lft.to/lastmile_qr_scan"}, "lon": -77.0512045, "type": "electric_scooter", "fusion_lat": 0.0, "lat": 38.92355533333333, "name": "501284dfc12c8a0f2dd019b5df2ef48b", "fusion_lon": 0.0, "bike_id": "501284dfc12c8a0f2dd019b5df2ef48b", "is_disabled": 0, "is_reserved": 0}, {"rental_uris": {"ios": "https://dc.lft.to/lastmile_qr_scan", "android": "https://dc.lft.to/lastmile_qr_scan"}, "lon": -77.0781105, "type": "electric_scooter", "fusion_lat": 0.0, "lat": 38.92628166666667, "name": "d369741618f5768361493045ae4ada82", "fusion_lon": 0.0, "bike_id": "d369741618f5768361493045ae4ada82", "is_disabled": 0, "is_reserved": 0}, {"rental_uris": {"ios": "https://dc.lft.to/lastmile_qr_scan", "android": "https://dc.lft.to/lastmile_qr_scan"}, "lon": -77.0308325, "type": "electric_scooter", "fusion_lat": 0.0, "lat": 38.899842666666665, "name": "f4689514742c80b021dcdc1f8a464330", "fusion_lon": 0.0, "bike_id": "f4689514742c80b021dcdc1f8a464330", "is_disabled": 0, "is_reserved": 0}, {"rental_uris": {"ios": "https://dc.lft.to/lastmile_qr_scan", "android": "https://dc.lft.to/lastmile_qr_scan"}, "lon": -77.022111, "type": "electric_scooter", "fusion_lat": 0.0, "lat": 38.887657, "name": "8786d5440da1f4feec722702a3c40c37", "fusion_lon": 0.0, "bike_id": "8786d5440da1f4feec722702a3c40c37", "is_disabled": 0, "is_reserved": 0}, {"rental_uris": {"ios": "https://dc.lft.to/lastmile_qr_scan", "android": "https://dc.lft.to/lastmile_qr_scan"}, "lon": -77.0218665, "type": "electric_scooter", "fusion_lat": 0.0, "lat": 38.9083655, "name": "72c9538fb8f0b48151257e8c2bce7e91", "fusion_lon": 0.0, "bike_id": "72c9538fb8f0b48151257e8c2bce7e91", "is_disabled": 0, "is_reserved": 0}, {"rental_uris": {"ios": "https://dc.lft.to/lastmile_qr_scan", "android": "https://dc.lft.to/lastmile_qr_scan"}, "lon": -77.11427116666667, "type": "electric_bike", "fusion_lat": 0.0, "lat": 38.85246083333333, "name": "685c5a8515ee70513f577a4bfbd17eb0", "fusion_lon": 0.0, "bike_id": "685c5a8515ee70513f577a4bfbd17eb0", "is_disabled": 0, "is_reserved": 0}, {"rental_uris": {"ios": "https://dc.lft.to/lastmile_qr_scan", "android": "https://dc.lft.to/lastmile_qr_scan"}, "lon": -77.01952916666667, "type": "electric_scooter", "fusion_lat": 0.0, "lat": 38.90416616666667, "name": "e9029a9e5cfee7a36904fdeea8d0f653", "fusion_lon": 0.0, "bike_id": "e9029a9e5cfee7a36904fdeea8d0f653", "is_disabled": 0, "is_reserved": 0}, {"rental_uris": {"ios": "https://dc.lft.to/lastmile_qr_scan", "android": "https://dc.lft.to/lastmile_qr_scan"}, "lon": -77.0233805, "type": "electric_scooter", "fusion_lat": 0.0, "lat": 38.9293545, "name": "6ba74272dddb2d7d9378b93a1f3a5fe7", "fusion_lon": 0.0, "bike_id": "6ba74272dddb2d7d9378b93a1f3a5fe7", "is_disabled": 0, "is_reserved": 0}, {"rental_uris": {"ios": "https://dc.lft.to/lastmile_qr_scan", "android": "https://dc.lft.to/lastmile_qr_scan"}, "lon": -77.06630166666666, "type": "electric_scooter", "fusion_lat": 0.0, "lat": 38.927996, "name": "fcb5959cb34717fa9f9186c4677d4239", "fusion_lon": 0.0, "bike_id": "fcb5959cb34717fa9f9186c4677d4239", "is_disabled": 0, "is_reserved": 0}, {"rental_uris": {"ios": "https://dc.lft.to/lastmile_qr_scan", "android": "https://dc.lft.to/lastmile_qr_scan"}, "lon": -76.98902866666667, "type": "electric_scooter", "fusion_lat": 0.0, "lat": 38.866928333333334, "name": "0f0a4067f74472785f1dfc88f38d8b9b", "fusion_lon": 0.0, "bike_id": "0f0a4067f74472785f1dfc88f38d8b9b", "is_disabled": 0, "is_reserved": 0}, {"rental_uris": {"ios": "https://dc.lft.to/lastmile_qr_scan", "android": "https://dc.lft.to/lastmile_qr_scan"}, "lon": -76.92712066666667, "type": "electric_scooter", "fusion_lat": 0.0, "lat": 38.8876835, "name": "96ec2f44190af8dc51e715df1c3a3c34", "fusion_lon": 0.0, "bike_id": "96ec2f44190af8dc51e715df1c3a3c34", "is_disabled": 0, "is_reserved": 0}, {"rental_uris": {"ios": "https://dc.lft.to/lastmile_qr_scan", "android": "https://dc.lft.to/lastmile_qr_scan"}, "lon": -77.01751033333333, "type": "electric_scooter", "fusion_lat": 0.0, "lat": 38.88211833333333, "name": "c6793876b695b8bc8cb249982ba01ce1", "fusion_lon": 0.0, "bike_id": "c6793876b695b8bc8cb249982ba01ce1", "is_disabled": 0, "is_reserved": 0}, {"rental_uris": {"ios": "https://dc.lft.to/lastmile_qr_scan", "android": "https://dc.lft.to/lastmile_qr_scan"}, "lon": -77.05194366666667, "type": "electric_scooter", "fusion_lat": 0.0, "lat": 38.924176833333334, "name": "15f6173031a96d85aa887279f84010fc", "fusion_lon": 0.0, "bike_id": "15f6173031a96d85aa887279f84010fc", "is_disabled": 0, "is_reserved": 0}, {"rental_uris": {"ios": "https://dc.lft.to/lastmile_qr_scan", "android": "https://dc.lft.to/lastmile_qr_scan"}, "lon": -77.00568116666666, "type": "electric_scooter", "fusion_lat": 0.0, "lat": 38.88037166666667, "name": "6e9f8ff655127fa15a62ed24c75078a9", "fusion_lon": 0.0, "bike_id": "6e9f8ff655127fa15a62ed24c75078a9", "is_disabled": 0, "is_reserved": 0}, {"rental_uris": {"ios": "https://dc.lft.to/lastmile_qr_scan", "android": "https://dc.lft.to/lastmile_qr_scan"}, "lon": -77.1078045, "type": "electric_bike", "fusion_lat": 0.0, "lat": 38.8921545, "name": "af13acfc6281d61ef086d9944f807215", "fusion_lon": 0.0, "bike_id": "af13acfc6281d61ef086d9944f807215", "is_disabled": 0, "is_reserved": 0}, {"rental_uris": {"ios": "https://dc.lft.to/lastmile_qr_scan", "android": "https://dc.lft.to/lastmile_qr_scan"}, "lon": -77.02583233333333, "type": "electric_scooter", "fusion_lat": 0.0, "lat": 38.89247483333333, "name": "0f95212fa1ebae77605df01f15ccaa87", "fusion_lon": 0.0, "bike_id": "0f95212fa1ebae77605df01f15ccaa87", "is_disabled": 0, "is_reserved": 0}, {"rental_uris": {"ios": "https://dc.lft.to/lastmile_qr_scan", "android": "https://dc.lft.to/lastmile_qr_scan"}, "lon": -76.99556883333334, "type": "electric_scooter", "fusion_lat": 0.0, "lat": 38.92877266666667, "name": "05f364e3ac069d142c85c73bfb477524", "fusion_lon": 0.0, "bike_id": "05f364e3ac069d142c85c73bfb477524", "is_disabled": 0, "is_reserved": 0}, {"rental_uris": {"ios": "https://dc.lft.to/lastmile_qr_scan", "android": "https://dc.lft.to/lastmile_qr_scan"}, "lon": -77.03715566666666, "type": "electric_scooter", "fusion_lat": 0.0, "lat": 38.9110915, "name": "ef1424197cc75ea69311167b707258e9", "fusion_lon": 0.0, "bike_id": "ef1424197cc75ea69311167b707258e9", "is_disabled": 0, "is_reserved": 0}, {"rental_uris": {"ios": "https://dc.lft.to/lastmile_qr_scan", "android": "https://dc.lft.to/lastmile_qr_scan"}, "lon": -76.93881283333333, "type": "electric_scooter", "fusion_lat": 0.0, "lat": 38.900806333333335, "name": "768b09e7fadb641f043cf6b1c2c36128", "fusion_lon": 0.0, "bike_id": "768b09e7fadb641f043cf6b1c2c36128", "is_disabled": 0, "is_reserved": 0}, {"rental_uris": {"ios": "https://dc.lft.to/lastmile_qr_scan", "android": "https://dc.lft.to/lastmile_qr_scan"}, "lon": -77.006089, "type": "electric_scooter", "fusion_lat": 0.0, "lat": 38.90266283333333, "name": "c5bb43bc6806c2b95759107dfcf13511", "fusion_lon": 0.0, "bike_id": "c5bb43bc6806c2b95759107dfcf13511", "is_disabled": 0, "is_reserved": 0}, {"rental_uris": {"ios": "https://dc.lft.to/lastmile_qr_scan", "android": "https://dc.lft.to/lastmile_qr_scan"}, "lon": -76.93110883333334, "type": "electric_scooter", "fusion_lat": 0.0, "lat": 38.89831566666667, "name": "ee12d726d9b239ab7259e4dc13de0776", "fusion_lon": 0.0, "bike_id": "ee12d726d9b239ab7259e4dc13de0776", "is_disabled": 0, "is_reserved": 0}, {"rental_uris": {"ios": "https://dc.lft.to/lastmile_qr_scan", "android": "https://dc.lft.to/lastmile_qr_scan"}, "lon": -77.02678433333334, "type": "electric_scooter", "fusion_lat": 0.0, "lat": 38.89212783333333, "name": "2ec333cea453cfa52d8830b9e6d825e5", "fusion_lon": 0.0, "bike_id": "2ec333cea453cfa52d8830b9e6d825e5", "is_disabled": 0, "is_reserved": 0}, {"rental_uris": {"ios": "https://dc.lft.to/lastmile_qr_scan", "android": "https://dc.lft.to/lastmile_qr_scan"}, "lon": -77.00683983333333, "type": "electric_scooter", "fusion_lat": 0.0, "lat": 38.90569383333333, "name": "b8db24189831fcf474ad3df88d76f3bf", "fusion_lon": 0.0, "bike_id": "b8db24189831fcf474ad3df88d76f3bf", "is_disabled": 0, "is_reserved": 0}, {"rental_uris": {"ios": "https://dc.lft.to/lastmile_qr_scan", "android": "https://dc.lft.to/lastmile_qr_scan"}, "lon": -76.99668583333333, "type": "electric_scooter", "fusion_lat": 0.0, "lat": 38.910134666666664, "name": "8468ce5a1d5f874bb625e32f44f1e237", "fusion_lon": 0.0, "bike_id": "8468ce5a1d5f874bb625e32f44f1e237", "is_disabled": 0, "is_reserved": 0}, {"rental_uris": {"ios": "https://dc.lft.to/lastmile_qr_scan", "android": "https://dc.lft.to/lastmile_qr_scan"}, "lon": -77.038426, "type": "electric_scooter", "fusion_lat": 0.0, "lat": 38.90749983333333, "name": "52f581aa7a8c3615ea3e0a6b11263225", "fusion_lon": 0.0, "bike_id": "52f581aa7a8c3615ea3e0a6b11263225", "is_disabled": 0, "is_reserved": 0}, {"rental_uris": {"ios": "https://dc.lft.to/lastmile_qr_scan", "android": "https://dc.lft.to/lastmile_qr_scan"}, "lon": -77.0277575, "type": "electric_scooter", "fusion_lat": 0.0, "lat": 38.95380216666667, "name": "4ae13a2caee5a1b788ab080978149f3f", "fusion_lon": 0.0, "bike_id": "4ae13a2caee5a1b788ab080978149f3f", "is_disabled": 0, "is_reserved": 0}, {"rental_uris": {"ios": "https://dc.lft.to/lastmile_qr_scan", "android": "https://dc.lft.to/lastmile_qr_scan"}, "lon": -77.02540766666667, "type": "electric_scooter", "fusion_lat": 0.0, "lat": 38.92406316666667, "name": "8f300a36b044d872461f55b606afe7b0", "fusion_lon": 0.0, "bike_id": "8f300a36b044d872461f55b606afe7b0", "is_disabled": 0, "is_reserved": 0}, {"rental_uris": {"ios": "https://dc.lft.to/lastmile_qr_scan", "android": "https://dc.lft.to/lastmile_qr_scan"}, "lon": -77.07723666666666, "type": "electric_scooter", "fusion_lat": 0.0, "lat": 38.9470575, "name": "63f83b9e5da096c747a59e7ccb0d599f", "fusion_lon": 0.0, "bike_id": "63f83b9e5da096c747a59e7ccb0d599f", "is_disabled": 0, "is_reserved": 0}, {"rental_uris": {"ios": "https://dc.lft.to/lastmile_qr_scan", "android": "https://dc.lft.to/lastmile_qr_scan"}, "lon": -76.9730525, "type": "electric_scooter", "fusion_lat": 0.0, "lat": 38.919870833333334, "name": "75e2545ab455d46cca5a9002559f2391", "fusion_lon": 0.0, "bike_id": "75e2545ab455d46cca5a9002559f2391", "is_disabled": 0, "is_reserved": 0}, {"rental_uris": {"ios": "https://dc.lft.to/lastmile_qr_scan", "android": "https://dc.lft.to/lastmile_qr_scan"}, "lon": -77.07101116666666, "type": "electric_bike", "fusion_lat": 0.0, "lat": 38.914458333333336, "name": "d4d1e3974a78c13ef16ae29090378674", "fusion_lon": 0.0, "bike_id": "d4d1e3974a78c13ef16ae29090378674", "is_disabled": 0, "is_reserved": 0}, {"rental_uris": {"ios": "https://dc.lft.to/lastmile_qr_scan", "android": "https://dc.lft.to/lastmile_qr_scan"}, "lon": -77.03462033333334, "type": "electric_scooter", "fusion_lat": 0.0, "lat": 38.9234355, "name": "246807aa05ebc814875078472a78ebe9", "fusion_lon": 0.0, "bike_id": "246807aa05ebc814875078472a78ebe9", "is_disabled": 0, "is_reserved": 0}, {"rental_uris": {"ios": "https://dc.lft.to/lastmile_qr_scan", "android": "https://dc.lft.to/lastmile_qr_scan"}, "lon": -77.0219465, "type": "electric_scooter", "fusion_lat": 0.0, "lat": 38.880294666666664, "name": "c86f1deaf2a1040169f57e7cb08da28b", "fusion_lon": 0.0, "bike_id": "c86f1deaf2a1040169f57e7cb08da28b", "is_disabled": 0, "is_reserved": 0}, {"rental_uris": {"ios": "https://dc.lft.to/lastmile_qr_scan", "android": "https://dc.lft.to/lastmile_qr_scan"}, "lon": -76.98094333333333, "type": "electric_bike", "fusion_lat": 0.0, "lat": 38.88133716666667, "name": "513af067556db4bfe7842b85be7c4ef9", "fusion_lon": 0.0, "bike_id": "513af067556db4bfe7842b85be7c4ef9", "is_disabled": 0, "is_reserved": 0}, {"rental_uris": {"ios": "https://dc.lft.to/lastmile_qr_scan", "android": "https://dc.lft.to/lastmile_qr_scan"}, "lon": -77.04790483333333, "type": "electric_scooter", "fusion_lat": 0.0, "lat": 38.8994585, "name": "e7e9fa3a82828ad456fc2c73d975c972", "fusion_lon": 0.0, "bike_id": "e7e9fa3a82828ad456fc2c73d975c972", "is_disabled": 0, "is_reserved": 0}, {"rental_uris": {"ios": "https://dc.lft.to/lastmile_qr_scan", "android": "https://dc.lft.to/lastmile_qr_scan"}, "lon": -77.03355916666666, "type": "electric_scooter", "fusion_lat": 0.0, "lat": 38.932249166666665, "name": "d731a3b119741cfb20f9b54c4ec1e8d1", "fusion_lon": 0.0, "bike_id": "d731a3b119741cfb20f9b54c4ec1e8d1", "is_disabled": 0, "is_reserved": 0}, {"rental_uris": {"ios": "https://dc.lft.to/lastmile_qr_scan", "android": "https://dc.lft.to/lastmile_qr_scan"}, "lon": -77.0366165, "type": "electric_scooter", "fusion_lat": 0.0, "lat": 38.91809816666667, "name": "462d07595e134523e60d437aed0d2a24", "fusion_lon": 0.0, "bike_id": "462d07595e134523e60d437aed0d2a24", "is_disabled": 0, "is_reserved": 0}, {"rental_uris": {"ios": "https://dc.lft.to/lastmile_qr_scan", "android": "https://dc.lft.to/lastmile_qr_scan"}, "lon": -77.0060455, "type": "electric_scooter", "fusion_lat": 0.0, "lat": 38.88492516666667, "name": "d5b09724b8b63bf3d581e7fbd9a71c3a", "fusion_lon": 0.0, "bike_id": "d5b09724b8b63bf3d581e7fbd9a71c3a", "is_disabled": 0, "is_reserved": 0}, {"rental_uris": {"ios": "https://dc.lft.to/lastmile_qr_scan", "android": "https://dc.lft.to/lastmile_qr_scan"}, "lon": -77.037372, "type": "electric_scooter", "fusion_lat": 0.0, "lat": 38.9071195, "name": "1765cd457c8321f1da1b1e9429504e32", "fusion_lon": 0.0, "bike_id": "1765cd457c8321f1da1b1e9429504e32", "is_disabled": 0, "is_reserved": 0}, {"rental_uris": {"ios": "https://dc.lft.to/lastmile_qr_scan", "android": "https://dc.lft.to/lastmile_qr_scan"}, "lon": -77.0403935, "type": "electric_scooter", "fusion_lat": 0.0, "lat": 38.92563466666667, "name": "11920a7d405e00b1ab3ac4191204afdd", "fusion_lon": 0.0, "bike_id": "11920a7d405e00b1ab3ac4191204afdd", "is_disabled": 0, "is_reserved": 0}, {"rental_uris": {"ios": "https://dc.lft.to/lastmile_qr_scan", "android": "https://dc.lft.to/lastmile_qr_scan"}, "lon": -77.0326295, "type": "electric_scooter", "fusion_lat": 0.0, "lat": 38.914059333333334, "name": "27b81212d8efb24d64395a33ca2a210f", "fusion_lon": 0.0, "bike_id": "27b81212d8efb24d64395a33ca2a210f", "is_disabled": 0, "is_reserved": 0}, {"rental_uris": {"ios": "https://dc.lft.to/lastmile_qr_scan", "android": "https://dc.lft.to/lastmile_qr_scan"}, "lon": -77.1273895, "type": "electric_bike", "fusion_lat": 0.0, "lat": 38.888208166666665, "name": "f0c7d538ab0163f6093d5cc3fbdc2592", "fusion_lon": 0.0, "bike_id": "f0c7d538ab0163f6093d5cc3fbdc2592", "is_disabled": 0, "is_reserved": 0}, {"rental_uris": {"ios": "https://dc.lft.to/lastmile_qr_scan", "android": "https://dc.lft.to/lastmile_qr_scan"}, "lon": -77.03169833333334, "type": "electric_scooter", "fusion_lat": 0.0, "lat": 38.896071166666665, "name": "014f03aaf1c3e4ff206b5e99523cbb48", "fusion_lon": 0.0, "bike_id": "014f03aaf1c3e4ff206b5e99523cbb48", "is_disabled": 0, "is_reserved": 0}, {"rental_uris": {"ios": "https://dc.lft.to/lastmile_qr_scan", "android": "https://dc.lft.to/lastmile_qr_scan"}, "lon": -77.02394, "type": "electric_scooter", "fusion_lat": 0.0, "lat": 38.887344166666665, "name": "dc97b6a53c1453a85d879fa22990033a", "fusion_lon": 0.0, "bike_id": "dc97b6a53c1453a85d879fa22990033a", "is_disabled": 0, "is_reserved": 0}, {"rental_uris": {"ios": "https://dc.lft.to/lastmile_qr_scan", "android": "https://dc.lft.to/lastmile_qr_scan"}, "lon": -77.0616005, "type": "electric_scooter", "fusion_lat": 0.0, "lat": 38.942210333333335, "name": "f2085d5eb038385c744e23aee23289f1", "fusion_lon": 0.0, "bike_id": "f2085d5eb038385c744e23aee23289f1", "is_disabled": 0, "is_reserved": 0}, {"rental_uris": {"ios": "https://dc.lft.to/lastmile_qr_scan", "android": "https://dc.lft.to/lastmile_qr_scan"}, "lon": -77.0298065, "type": "electric_scooter", "fusion_lat": 0.0, "lat": 38.93108633333333, "name": "439755210df32b4206acb9a3f432fd90", "fusion_lon": 0.0, "bike_id": "439755210df32b4206acb9a3f432fd90", "is_disabled": 0, "is_reserved": 0}, {"rental_uris": {"ios": "https://dc.lft.to/lastmile_qr_scan", "android": "https://dc.lft.to/lastmile_qr_scan"}, "lon": -76.97888933333333, "type": "electric_scooter", "fusion_lat": 0.0, "lat": 38.91673, "name": "25cedcfd300c5242c02f2ebf268849ab", "fusion_lon": 0.0, "bike_id": "25cedcfd300c5242c02f2ebf268849ab", "is_disabled": 0, "is_reserved": 0}, {"rental_uris": {"ios": "https://dc.lft.to/lastmile_qr_scan", "android": "https://dc.lft.to/lastmile_qr_scan"}, "lon": -77.04934483333334, "type": "electric_scooter", "fusion_lat": 0.0, "lat": 38.8966635, "name": "3080c01b93d9ab053b85b18c0cf15fbb", "fusion_lon": 0.0, "bike_id": "3080c01b93d9ab053b85b18c0cf15fbb", "is_disabled": 0, "is_reserved": 0}, {"rental_uris": {"ios": "https://dc.lft.to/lastmile_qr_scan", "android": "https://dc.lft.to/lastmile_qr_scan"}, "lon": -77.046531, "type": "electric_scooter", "fusion_lat": 0.0, "lat": 38.9054855, "name": "5f32c041b5a14aaabee7f2e3a04a38f9", "fusion_lon": 0.0, "bike_id": "5f32c041b5a14aaabee7f2e3a04a38f9", "is_disabled": 0, "is_reserved": 0}, {"rental_uris": {"ios": "https://dc.lft.to/lastmile_qr_scan", "android": "https://dc.lft.to/lastmile_qr_scan"}, "lon": -76.9877315, "type": "electric_scooter", "fusion_lat": 0.0, "lat": 38.911719, "name": "7e44d3a730744bb09e205c4364960eae", "fusion_lon": 0.0, "bike_id": "7e44d3a730744bb09e205c4364960eae", "is_disabled": 0, "is_reserved": 0}, {"rental_uris": {"ios": "https://dc.lft.to/lastmile_qr_scan", "android": "https://dc.lft.to/lastmile_qr_scan"}, "lon": -76.93159916666667, "type": "electric_scooter", "fusion_lat": 0.0, "lat": 38.8987345, "name": "5a791d85c85d4321b2130cd1a47ac8f9", "fusion_lon": 0.0, "bike_id": "5a791d85c85d4321b2130cd1a47ac8f9", "is_disabled": 0, "is_reserved": 0}, {"rental_uris": {"ios": "https://dc.lft.to/lastmile_qr_scan", "android": "https://dc.lft.to/lastmile_qr_scan"}, "lon": -77.0297965, "type": "electric_scooter", "fusion_lat": 0.0, "lat": 38.90791333333333, "name": "27c5d0317615e290536ccc40f4e545cf", "fusion_lon": 0.0, "bike_id": "27c5d0317615e290536ccc40f4e545cf", "is_disabled": 0, "is_reserved": 0}, {"rental_uris": {"ios": "https://dc.lft.to/lastmile_qr_scan", "android": "https://dc.lft.to/lastmile_qr_scan"}, "lon": -76.93811333333333, "type": "electric_scooter", "fusion_lat": 0.0, "lat": 38.91306466666666, "name": "d802854572d088e93df4ba17b1c66a6d", "fusion_lon": 0.0, "bike_id": "d802854572d088e93df4ba17b1c66a6d", "is_disabled": 0, "is_reserved": 0}, {"rental_uris": {"ios": "https://dc.lft.to/lastmile_qr_scan", "android": "https://dc.lft.to/lastmile_qr_scan"}, "lon": -76.9352085, "type": "electric_scooter", "fusion_lat": 0.0, "lat": 38.908683833333335, "name": "503fc23741daea8393ca0d0336140e73", "fusion_lon": 0.0, "bike_id": "503fc23741daea8393ca0d0336140e73", "is_disabled": 0, "is_reserved": 0}, {"rental_uris": {"ios": "https://dc.lft.to/lastmile_qr_scan", "android": "https://dc.lft.to/lastmile_qr_scan"}, "lon": -77.03506016666667, "type": "electric_scooter", "fusion_lat": 0.0, "lat": 38.921479166666664, "name": "671c8e79e3c2fd6471d14e52ec168727", "fusion_lon": 0.0, "bike_id": "671c8e79e3c2fd6471d14e52ec168727", "is_disabled": 0, "is_reserved": 0}, {"rental_uris": {"ios": "https://dc.lft.to/lastmile_qr_scan", "android": "https://dc.lft.to/lastmile_qr_scan"}, "lon": -77.0283995, "type": "electric_scooter", "fusion_lat": 0.0, "lat": 38.8876875, "name": "853ad2a8ce3cb0a80034cc82f8ff9fea", "fusion_lon": 0.0, "bike_id": "853ad2a8ce3cb0a80034cc82f8ff9fea", "is_disabled": 0, "is_reserved": 0}, {"rental_uris": {"ios": "https://dc.lft.to/lastmile_qr_scan", "android": "https://dc.lft.to/lastmile_qr_scan"}, "lon": -76.94720983333333, "type": "electric_scooter", "fusion_lat": 0.0, "lat": 38.8966955, "name": "3d45f5bfb786ce65ac08847ec09c5d29", "fusion_lon": 0.0, "bike_id": "3d45f5bfb786ce65ac08847ec09c5d29", "is_disabled": 0, "is_reserved": 0}, {"rental_uris": {"ios": "https://dc.lft.to/lastmile_qr_scan", "android": "https://dc.lft.to/lastmile_qr_scan"}, "lon": -77.02475966666667, "type": "electric_scooter", "fusion_lat": 0.0, "lat": 38.897637333333336, "name": "52dbf26312171c83c7cc492b0dbe1df9", "fusion_lon": 0.0, "bike_id": "52dbf26312171c83c7cc492b0dbe1df9", "is_disabled": 0, "is_reserved": 0}, {"rental_uris": {"ios": "https://dc.lft.to/lastmile_qr_scan", "android": "https://dc.lft.to/lastmile_qr_scan"}, "lon": -76.99837016666666, "type": "electric_scooter", "fusion_lat": 0.0, "lat": 38.900386833333336, "name": "c22a32a22d19dfea6d3ce5babec1aea1", "fusion_lon": 0.0, "bike_id": "c22a32a22d19dfea6d3ce5babec1aea1", "is_disabled": 0, "is_reserved": 0}, {"rental_uris": {"ios": "https://dc.lft.to/lastmile_qr_scan", "android": "https://dc.lft.to/lastmile_qr_scan"}, "lon": -77.038589, "type": "electric_scooter", "fusion_lat": 0.0, "lat": 38.90366816666667, "name": "d4f2edc196759172a85649e50e07728f", "fusion_lon": 0.0, "bike_id": "d4f2edc196759172a85649e50e07728f", "is_disabled": 0, "is_reserved": 0}, {"rental_uris": {"ios": "https://dc.lft.to/lastmile_qr_scan", "android": "https://dc.lft.to/lastmile_qr_scan"}, "lon": -76.98852866666667, "type": "electric_scooter", "fusion_lat": 0.0, "lat": 38.90345083333333, "name": "88159ebe26f150b85acbdc828ba2ec19", "fusion_lon": 0.0, "bike_id": "88159ebe26f150b85acbdc828ba2ec19", "is_disabled": 0, "is_reserved": 0}, {"rental_uris": {"ios": "https://dc.lft.to/lastmile_qr_scan", "android": "https://dc.lft.to/lastmile_qr_scan"}, "lon": -77.03654816666666, "type": "electric_scooter", "fusion_lat": 0.0, "lat": 38.93082183333333, "name": "31b460cc5047e6e9de469c0cab03c0c7", "fusion_lon": 0.0, "bike_id": "31b460cc5047e6e9de469c0cab03c0c7", "is_disabled": 0, "is_reserved": 0}, {"rental_uris": {"ios": "https://dc.lft.to/lastmile_qr_scan", "android": "https://dc.lft.to/lastmile_qr_scan"}, "lon": -77.0247705, "type": "electric_scooter", "fusion_lat": 0.0, "lat": 38.904011833333335, "name": "63c24dc7ba88587102de38060e1844fe", "fusion_lon": 0.0, "bike_id": "63c24dc7ba88587102de38060e1844fe", "is_disabled": 0, "is_reserved": 0}, {"rental_uris": {"ios": "https://dc.lft.to/lastmile_qr_scan", "android": "https://dc.lft.to/lastmile_qr_scan"}, "lon": -77.02793, "type": "electric_scooter", "fusion_lat": 0.0, "lat": 38.923817, "name": "898b8174b253870601cd454073dd02d6", "fusion_lon": 0.0, "bike_id": "898b8174b253870601cd454073dd02d6", "is_disabled": 0, "is_reserved": 0}, {"rental_uris": {"ios": "https://dc.lft.to/lastmile_qr_scan", "android": "https://dc.lft.to/lastmile_qr_scan"}, "lon": -77.0418145, "type": "electric_scooter", "fusion_lat": 0.0, "lat": 38.903421333333334, "name": "41945ffca6ecd1bec0acfa94b3550a9c", "fusion_lon": 0.0, "bike_id": "41945ffca6ecd1bec0acfa94b3550a9c", "is_disabled": 0, "is_reserved": 0}, {"rental_uris": {"ios": "https://dc.lft.to/lastmile_qr_scan", "android": "https://dc.lft.to/lastmile_qr_scan"}, "lon": -77.04710966666667, "type": "electric_scooter", "fusion_lat": 0.0, "lat": 38.90976233333333, "name": "ccff4016c611d54ce8640605d75aa203", "fusion_lon": 0.0, "bike_id": "ccff4016c611d54ce8640605d75aa203", "is_disabled": 0, "is_reserved": 0}, {"rental_uris": {"ios": "https://dc.lft.to/lastmile_qr_scan", "android": "https://dc.lft.to/lastmile_qr_scan"}, "lon": -77.03311916666667, "type": "electric_scooter", "fusion_lat": 0.0, "lat": 38.901445, "name": "eb2399cd7c77a0e3fe1b3f4d85bcbbb2", "fusion_lon": 0.0, "bike_id": "eb2399cd7c77a0e3fe1b3f4d85bcbbb2", "is_disabled": 0, "is_reserved": 0}, {"rental_uris": {"ios": "https://dc.lft.to/lastmile_qr_scan", "android": "https://dc.lft.to/lastmile_qr_scan"}, "lon": -77.02805266666667, "type": "electric_scooter", "fusion_lat": 0.0, "lat": 38.9308315, "name": "03dfef02659f85f90c4e8f356ff554af", "fusion_lon": 0.0, "bike_id": "03dfef02659f85f90c4e8f356ff554af", "is_disabled": 0, "is_reserved": 0}, {"rental_uris": {"ios": "https://dc.lft.to/lastmile_qr_scan", "android": "https://dc.lft.to/lastmile_qr_scan"}, "lon": -77.02146883333333, "type": "electric_scooter", "fusion_lat": 0.0, "lat": 38.928218, "name": "6ff3f7db907584bdf5e99be79b1f0fb9", "fusion_lon": 0.0, "bike_id": "6ff3f7db907584bdf5e99be79b1f0fb9", "is_disabled": 0, "is_reserved": 0}, {"rental_uris": {"ios": "https://dc.lft.to/lastmile_qr_scan", "android": "https://dc.lft.to/lastmile_qr_scan"}, "lon": -77.06350983333333, "type": "electric_scooter", "fusion_lat": 0.0, "lat": 38.944381666666665, "name": "c80d0781a66ea0b189b1de66e06d6f88", "fusion_lon": 0.0, "bike_id": "c80d0781a66ea0b189b1de66e06d6f88", "is_disabled": 0, "is_reserved": 0}, {"rental_uris": {"ios": "https://dc.lft.to/lastmile_qr_scan", "android": "https://dc.lft.to/lastmile_qr_scan"}, "lon": -76.98993783333333, "type": "electric_bike", "fusion_lat": 0.0, "lat": 38.863851833333335, "name": "4e15685ab0c1cc30a6b26b284d286940", "fusion_lon": 0.0, "bike_id": "4e15685ab0c1cc30a6b26b284d286940", "is_disabled": 0, "is_reserved": 0}, {"rental_uris": {"ios": "https://dc.lft.to/lastmile_qr_scan", "android": "https://dc.lft.to/lastmile_qr_scan"}, "lon": -77.00588016666667, "type": "electric_scooter", "fusion_lat": 0.0, "lat": 38.90598983333334, "name": "19d7d0b958e0f8843fa642541cf9a761", "fusion_lon": 0.0, "bike_id": "19d7d0b958e0f8843fa642541cf9a761", "is_disabled": 0, "is_reserved": 0}, {"rental_uris": {"ios": "https://dc.lft.to/lastmile_qr_scan", "android": "https://dc.lft.to/lastmile_qr_scan"}, "lon": -76.992705, "type": "electric_scooter", "fusion_lat": 0.0, "lat": 38.897642, "name": "b3fd66afa8cb6c3af21175ef9cc025f9", "fusion_lon": 0.0, "bike_id": "b3fd66afa8cb6c3af21175ef9cc025f9", "is_disabled": 0, "is_reserved": 0}, {"rental_uris": {"ios": "https://dc.lft.to/lastmile_qr_scan", "android": "https://dc.lft.to/lastmile_qr_scan"}, "lon": -77.0345185, "type": "electric_scooter", "fusion_lat": 0.0, "lat": 38.91835483333333, "name": "3c6b2c5460c5ff3cd927d0f6d8c1cd8b", "fusion_lon": 0.0, "bike_id": "3c6b2c5460c5ff3cd927d0f6d8c1cd8b", "is_disabled": 0, "is_reserved": 0}, {"rental_uris": {"ios": "https://dc.lft.to/lastmile_qr_scan", "android": "https://dc.lft.to/lastmile_qr_scan"}, "lon": -77.01077366666667, "type": "electric_bike", "fusion_lat": 0.0, "lat": 38.95654666666667, "name": "2a1056860399a820710339ee13a8c7a2", "fusion_lon": 0.0, "bike_id": "2a1056860399a820710339ee13a8c7a2", "is_disabled": 0, "is_reserved": 0}, {"rental_uris": {"ios": "https://dc.lft.to/lastmile_qr_scan", "android": "https://dc.lft.to/lastmile_qr_scan"}, "lon": -77.03705066666667, "type": "electric_scooter", "fusion_lat": 0.0, "lat": 38.92631816666667, "name": "8907ed257508f2c38f6f722da5ed1b6e", "fusion_lon": 0.0, "bike_id": "8907ed257508f2c38f6f722da5ed1b6e", "is_disabled": 0, "is_reserved": 0}, {"rental_uris": {"ios": "https://dc.lft.to/lastmile_qr_scan", "android": "https://dc.lft.to/lastmile_qr_scan"}, "lon": -77.04464666666667, "type": "electric_scooter", "fusion_lat": 0.0, "lat": 38.903097, "name": "bfd774b69b1f3befc16490c133479a68", "fusion_lon": 0.0, "bike_id": "bfd774b69b1f3befc16490c133479a68", "is_disabled": 0, "is_reserved": 0}, {"rental_uris": {"ios": "https://dc.lft.to/lastmile_qr_scan", "android": "https://dc.lft.to/lastmile_qr_scan"}, "lon": -77.02072616666666, "type": "electric_scooter", "fusion_lat": 0.0, "lat": 38.93531133333333, "name": "69c3192ae73512083686bbfc17f1dcaa", "fusion_lon": 0.0, "bike_id": "69c3192ae73512083686bbfc17f1dcaa", "is_disabled": 0, "is_reserved": 0}, {"rental_uris": {"ios": "https://dc.lft.to/lastmile_qr_scan", "android": "https://dc.lft.to/lastmile_qr_scan"}, "lon": -77.02770016666666, "type": "electric_scooter", "fusion_lat": 0.0, "lat": 38.892056333333336, "name": "7072f1b620a41a84bcdcb085e431eb09", "fusion_lon": 0.0, "bike_id": "7072f1b620a41a84bcdcb085e431eb09", "is_disabled": 0, "is_reserved": 0}, {"rental_uris": {"ios": "https://dc.lft.to/lastmile_qr_scan", "android": "https://dc.lft.to/lastmile_qr_scan"}, "lon": -77.042527, "type": "electric_scooter", "fusion_lat": 0.0, "lat": 38.92062116666666, "name": "0acd68cccbcd7c0e73c1796e8c41fff0", "fusion_lon": 0.0, "bike_id": "0acd68cccbcd7c0e73c1796e8c41fff0", "is_disabled": 0, "is_reserved": 0}, {"rental_uris": {"ios": "https://dc.lft.to/lastmile_qr_scan", "android": "https://dc.lft.to/lastmile_qr_scan"}, "lon": -77.044874, "type": "electric_scooter", "fusion_lat": 0.0, "lat": 38.91315133333333, "name": "881dc0b61fa0c09d6d6b5ace66aa1f96", "fusion_lon": 0.0, "bike_id": "881dc0b61fa0c09d6d6b5ace66aa1f96", "is_disabled": 0, "is_reserved": 0}, {"rental_uris": {"ios": "https://dc.lft.to/lastmile_qr_scan", "android": "https://dc.lft.to/lastmile_qr_scan"}, "lon": -77.02834466666667, "type": "electric_scooter", "fusion_lat": 0.0, "lat": 38.92471066666667, "name": "92b4e28144ea697ed6c878976b24179d", "fusion_lon": 0.0, "bike_id": "92b4e28144ea697ed6c878976b24179d", "is_disabled": 0, "is_reserved": 0}, {"rental_uris": {"ios": "https://dc.lft.to/lastmile_qr_scan", "android": "https://dc.lft.to/lastmile_qr_scan"}, "lon": -77.00711666666666, "type": "electric_scooter", "fusion_lat": 0.0, "lat": 38.88488816666667, "name": "08098482fade4e614f55d82bc793fae5", "fusion_lon": 0.0, "bike_id": "08098482fade4e614f55d82bc793fae5", "is_disabled": 0, "is_reserved": 0}, {"rental_uris": {"ios": "https://dc.lft.to/lastmile_qr_scan", "android": "https://dc.lft.to/lastmile_qr_scan"}, "lon": -77.0067715, "type": "electric_bike", "fusion_lat": 0.0, "lat": 38.945094833333336, "name": "9f2d5c3d2b3a70e9b78df94fffecfe35", "fusion_lon": 0.0, "bike_id": "9f2d5c3d2b3a70e9b78df94fffecfe35", "is_disabled": 0, "is_reserved": 0}, {"rental_uris": {"ios": "https://dc.lft.to/lastmile_qr_scan", "android": "https://dc.lft.to/lastmile_qr_scan"}, "lon": -77.0356755, "type": "electric_scooter", "fusion_lat": 0.0, "lat": 38.91813166666667, "name": "fb5a9adcea13db138fc759dc95a369b6", "fusion_lon": 0.0, "bike_id": "fb5a9adcea13db138fc759dc95a369b6", "is_disabled": 0, "is_reserved": 0}, {"rental_uris": {"ios": "https://dc.lft.to/lastmile_qr_scan", "android": "https://dc.lft.to/lastmile_qr_scan"}, "lon": -77.0588045, "type": "electric_scooter", "fusion_lat": 0.0, "lat": 38.936369666666664, "name": "86628554d4e8b7473fef17e21122725d", "fusion_lon": 0.0, "bike_id": "86628554d4e8b7473fef17e21122725d", "is_disabled": 0, "is_reserved": 0}, {"rental_uris": {"ios": "https://dc.lft.to/lastmile_qr_scan", "android": "https://dc.lft.to/lastmile_qr_scan"}, "lon": -77.04739066666667, "type": "electric_scooter", "fusion_lat": 0.0, "lat": 38.911153, "name": "2da94da423293a87eec72b3c280a2dfc", "fusion_lon": 0.0, "bike_id": "2da94da423293a87eec72b3c280a2dfc", "is_disabled": 0, "is_reserved": 0}, {"rental_uris": {"ios": "https://dc.lft.to/lastmile_qr_scan", "android": "https://dc.lft.to/lastmile_qr_scan"}, "lon": -77.0296115, "type": "electric_scooter", "fusion_lat": 0.0, "lat": 38.954231, "name": "abadc5c4006ec3077bcb05b8d8817513", "fusion_lon": 0.0, "bike_id": "abadc5c4006ec3077bcb05b8d8817513", "is_disabled": 0, "is_reserved": 0}, {"rental_uris": {"ios": "https://dc.lft.to/lastmile_qr_scan", "android": "https://dc.lft.to/lastmile_qr_scan"}, "lon": -77.02760083333334, "type": "electric_scooter", "fusion_lat": 0.0, "lat": 38.95614616666667, "name": "6be50eda733bf0514d9b34ed8e90adc6", "fusion_lon": 0.0, "bike_id": "6be50eda733bf0514d9b34ed8e90adc6", "is_disabled": 0, "is_reserved": 0}, {"rental_uris": {"ios": "https://dc.lft.to/lastmile_qr_scan", "android": "https://dc.lft.to/lastmile_qr_scan"}, "lon": -77.069451, "type": "electric_bike", "fusion_lat": 0.0, "lat": 38.9903945, "name": "915f1f05bb6aa05531d83a5c197f7048", "fusion_lon": 0.0, "bike_id": "915f1f05bb6aa05531d83a5c197f7048", "is_disabled": 0, "is_reserved": 0}, {"rental_uris": {"ios": "https://dc.lft.to/lastmile_qr_scan", "android": "https://dc.lft.to/lastmile_qr_scan"}, "lon": -76.987304, "type": "electric_scooter", "fusion_lat": 0.0, "lat": 38.8671165, "name": "7a741b53a6fe25023e0cf0afef1cc6f4", "fusion_lon": 0.0, "bike_id": "7a741b53a6fe25023e0cf0afef1cc6f4", "is_disabled": 0, "is_reserved": 0}, {"rental_uris": {"ios": "https://dc.lft.to/lastmile_qr_scan", "android": "https://dc.lft.to/lastmile_qr_scan"}, "lon": -77.08082616666667, "type": "electric_bike", "fusion_lat": 0.0, "lat": 38.906957166666665, "name": "dc7b54429ae68349357f0b3c434fbf40", "fusion_lon": 0.0, "bike_id": "dc7b54429ae68349357f0b3c434fbf40", "is_disabled": 0, "is_reserved": 0}, {"rental_uris": {"ios": "https://dc.lft.to/lastmile_qr_scan", "android": "https://dc.lft.to/lastmile_qr_scan"}, "lon": -77.03970466666667, "type": "electric_scooter", "fusion_lat": 0.0, "lat": 38.90132233333333, "name": "3cd5bf67137c5e87135c544fb1898e45", "fusion_lon": 0.0, "bike_id": "3cd5bf67137c5e87135c544fb1898e45", "is_disabled": 0, "is_reserved": 0}, {"rental_uris": {"ios": "https://dc.lft.to/lastmile_qr_scan", "android": "https://dc.lft.to/lastmile_qr_scan"}, "lon": -76.9474295, "type": "electric_scooter", "fusion_lat": 0.0, "lat": 38.8967385, "name": "36d585da045f4272613df5125551b823", "fusion_lon": 0.0, "bike_id": "36d585da045f4272613df5125551b823", "is_disabled": 0, "is_reserved": 0}, {"rental_uris": {"ios": "https://dc.lft.to/lastmile_qr_scan", "android": "https://dc.lft.to/lastmile_qr_scan"}, "lon": -77.03675966666667, "type": "electric_scooter", "fusion_lat": 0.0, "lat": 38.906834833333335, "name": "651a3539c25c4c1cd5ac0f354bb46d27", "fusion_lon": 0.0, "bike_id": "651a3539c25c4c1cd5ac0f354bb46d27", "is_disabled": 0, "is_reserved": 0}, {"rental_uris": {"ios": "https://dc.lft.to/lastmile_qr_scan", "android": "https://dc.lft.to/lastmile_qr_scan"}, "lon": -77.02462216666666, "type": "electric_scooter", "fusion_lat": 0.0, "lat": 38.919152833333335, "name": "c39eefc5e75f33be64e87f794e825b13", "fusion_lon": 0.0, "bike_id": "c39eefc5e75f33be64e87f794e825b13", "is_disabled": 0, "is_reserved": 0}, {"rental_uris": {"ios": "https://dc.lft.to/lastmile_qr_scan", "android": "https://dc.lft.to/lastmile_qr_scan"}, "lon": -77.0882945, "type": "electric_bike", "fusion_lat": 0.0, "lat": 38.9097555, "name": "26bdc2f228c9ec6ff7f6cf84ee775d49", "fusion_lon": 0.0, "bike_id": "26bdc2f228c9ec6ff7f6cf84ee775d49", "is_disabled": 0, "is_reserved": 0}, {"rental_uris": {"ios": "https://dc.lft.to/lastmile_qr_scan", "android": "https://dc.lft.to/lastmile_qr_scan"}, "lon": -77.0150685, "type": "electric_scooter", "fusion_lat": 0.0, "lat": 38.910516, "name": "e8ccdcd6dc1a5661a8e6074c9519115f", "fusion_lon": 0.0, "bike_id": "e8ccdcd6dc1a5661a8e6074c9519115f", "is_disabled": 0, "is_reserved": 0}, {"rental_uris": {"ios": "https://dc.lft.to/lastmile_qr_scan", "android": "https://dc.lft.to/lastmile_qr_scan"}, "lon": -77.0289355, "type": "electric_scooter", "fusion_lat": 0.0, "lat": 38.958400833333336, "name": "85b26fcd8d7d777c5efddaed3b56fd0b", "fusion_lon": 0.0, "bike_id": "85b26fcd8d7d777c5efddaed3b56fd0b", "is_disabled": 0, "is_reserved": 0}, {"rental_uris": {"ios": "https://dc.lft.to/lastmile_qr_scan", "android": "https://dc.lft.to/lastmile_qr_scan"}, "lon": -77.09959933333333, "type": "electric_bike", "fusion_lat": 0.0, "lat": 38.85785466666667, "name": "29470eebf577a64b1ab53f08dbdd563a", "fusion_lon": 0.0, "bike_id": "29470eebf577a64b1ab53f08dbdd563a", "is_disabled": 0, "is_reserved": 0}, {"rental_uris": {"ios": "https://dc.lft.to/lastmile_qr_scan", "android": "https://dc.lft.to/lastmile_qr_scan"},