{"data": {"bikes": [{"fusion_lon": 0.0, "bike_id": "6f274a8f2fcda30f95076b2ee4158847", "name": "6f274a8f2fcda30f95076b2ee4158847", "type": "electric_scooter", "lon": -77.02935666666667, "rental_uris": {"android": "https://dc.lft.to/lastmile_qr_scan", "ios": "https://dc.lft.to/lastmile_qr_scan"}, "lat": 38.91415966666667, "is_reserved": 0, "is_disabled": 0, "fusion_lat": 0.0}, {"fusion_lon": 0.0, "bike_id": "24787f7bf011f88159e6b0b87bd4a0de", "name": "24787f7bf011f88159e6b0b87bd4a0de", "type": "electric_scooter", "lon": -77.05914783333333, "rental_uris": {"android": "https://dc.lft.to/lastmile_qr_scan", "ios": "https://dc.lft.to/lastmile_qr_scan"}, "lat": 38.9100115, "is_reserved": 0, "is_disabled": 0, "fusion_lat": 0.0}, {"fusion_lon": 0.0, "bike_id": "a821387593541222d31d75964c9e18e1", "name": "a821387593541222d31d75964c9e18e1", "type": "electric_scooter", "lon": -77.0304755, "rental_uris": {"android": "https://dc.lft.to/lastmile_qr_scan", "ios": "https://dc.lft.to/lastmile_qr_scan"}, "lat": 38.884073, "is_reserved": 0, "is_disabled": 0, "fusion_lat": 0.0}, {"fusion_lon": 0.0, "bike_id": "b764a2a2e57cc1c98ea119eab3aaafa6", "name": "b764a2a2e57cc1c98ea119eab3aaafa6", "type": "electric_scooter", "lon": -77.0248805, "rental_uris": {"android": "https://dc.lft.to/lastmile_qr_scan", "ios": "https://dc.lft.to/lastmile_qr_scan"}, "lat": 38.904123, "is_reserved": 0, "is_disabled": 0, "fusion_lat": 0.0}, {"fusion_lon": 0.0, "bike_id": "6fca762ebc63b90e692cca5be0784104", "name": "6fca762ebc63b90e692cca5be0784104", "type": "electric_scooter", "lon": -77.02795666666667, "rental_uris": {"android": "https://dc.lft.to/lastmile_qr_scan", "ios": "https://dc.lft.to/lastmile_qr_scan"}, "lat": 38.950901, "is_reserved": 0, "is_disabled": 0, "fusion_lat": 0.0}, {"fusion_lon": 0.0, "bike_id": "99634821d34d149425babb2e83ad739d", "name": "99634821d34d149425babb2e83ad739d", "type": "electric_scooter", "lon": -77.01763533333333, "rental_uris": {"android": "https://dc.lft.to/lastmile_qr_scan", "ios": "https://dc.lft.to/lastmile_qr_scan"}, "lat": 38.8770345, "is_reserved": 0, "is_disabled": 0, "fusion_lat": 0.0}, {"fusion_lon": 0.0, "bike_id": "e66102434a5e5d9ca5373a64e50586fc", "name": "e66102434a5e5d9ca5373a64e50586fc", "type": "electric_bike", "lon": -76.87493516666666, "rental_uris": {"android": "https://dc.lft.to/lastmile_qr_scan", "ios": "https://dc.lft.to/lastmile_qr_scan"}, "lat": 38.99087866666667, "is_reserved": 0, "is_disabled": 0, "fusion_lat": 0.0}, {"fusion_lon": 0.0, "bike_id": "1eb78639c2cf7ab744f9a15577903d93", "name": "1eb78639c2cf7ab744f9a15577903d93", "type": "electric_bike", "lon": -77.10026216666667, "rental_uris": {"android": "https://dc.lft.to/lastmile_qr_scan", "ios": "https://dc.lft.to/lastmile_qr_scan"}, "lat": 38.99062466666667, "is_reserved": 0, "is_disabled": 0, "fusion_lat": 0.0}, {"fusion_lon": 0.0, "bike_id": "284244465e4f69755fe84b9fae6b5f70", "name": "284244465e4f69755fe84b9fae6b5f70", "type": "electric_scooter", "lon": -77.02194683333333, "rental_uris": {"android": "https://dc.lft.to/lastmile_qr_scan", "ios": "https://dc.lft.to/lastmile_qr_scan"}, "lat": 38.911226, "is_reserved": 0, "is_disabled": 0, "fusion_lat": 0.0}, {"fusion_lon": 0.0, "bike_id": "dc6efc5358861b91122c94ea6a3cc07b", "name": "dc6efc5358861b91122c94ea6a3cc07b", "type": "electric_scooter", "lon": -77.02219166666667, "rental_uris": {"android": "https://dc.lft.to/lastmile_qr_scan", "ios": "https://dc.lft.to/lastmile_qr_scan"}, "lat": 38.912661, "is_reserved": 0, "is_disabled": 0, "fusion_lat": 0.0}, {"fusion_lon": 0.0, "bike_id": "a7e4eb5ff3c896aa898bebe8b2bf0392", "name": "a7e4eb5ff3c896aa898bebe8b2bf0392", "type": "electric_scooter", "lon": -77.04019316666667, "rental_uris": {"android": "https://dc.lft.to/lastmile_qr_scan", "ios": "https://dc.lft.to/lastmile_qr_scan"}, "lat": 38.912948666666665, "is_reserved": 0, "is_disabled": 0, "fusion_lat": 0.0}, {"fusion_lon": 0.0, "bike_id": "3e7c4fc1422fc696e08e12f2a25733b2", "name": "3e7c4fc1422fc696e08e12f2a25733b2", "type": "electric_scooter", "lon": -77.00193016666667, "rental_uris": {"android": "https://dc.lft.to/lastmile_qr_scan", "ios": "https://dc.lft.to/lastmile_qr_scan"}, "lat": 38.902287, "is_reserved": 0, "is_disabled": 0, "fusion_lat": 0.0}, {"fusion_lon": 0.0, "bike_id": "5a2174c4197365840a339309d7bfef2d", "name": "5a2174c4197365840a339309d7bfef2d", "type": "electric_scooter", "lon": -77.0295835, "rental_uris": {"android": "https://dc.lft.to/lastmile_qr_scan", "ios": "https://dc.lft.to/lastmile_qr_scan"}, "lat": 38.91181816666667, "is_reserved": 0, "is_disabled": 0, "fusion_lat": 0.0}, {"fusion_lon": 0.0, "bike_id": "e79526af240dbbca7258fd557c58b8a3", "name": "e79526af240dbbca7258fd557c58b8a3", "type": "electric_bike", "lon": -77.04903483333334, "rental_uris": {"android": "https://dc.lft.to/lastmile_qr_scan", "ios": "https://dc.lft.to/lastmile_qr_scan"}, "lat": 38.8749265, "is_reserved": 0, "is_disabled": 0, "fusion_lat": 0.0}, {"fusion_lon": 0.0, "bike_id": "5635fa85631023249193783493040a7b", "name": "5635fa85631023249193783493040a7b", "type": "electric_scooter", "lon": -77.0315265, "rental_uris": {"android": "https://dc.lft.to/lastmile_qr_scan", "ios": "https://dc.lft.to/lastmile_qr_scan"}, "lat": 38.927929666666664, "is_reserved": 0, "is_disabled": 0, "fusion_lat": 0.0}, {"fusion_lon": 0.0, "bike_id": "dcd6ce966b7ae7dced71da472ce0e14f", "name": "dcd6ce966b7ae7dced71da472ce0e14f", "type": "electric_scooter", "lon": -77.00304533333333, "rental_uris": {"android": "https://dc.lft.to/lastmile_qr_scan", "ios": "https://dc.lft.to/lastmile_qr_scan"}, "lat": 38.906956666666666, "is_reserved": 0, "is_disabled": 0, "fusion_lat": 0.0}, {"fusion_lon": 0.0, "bike_id": "c72e576a1e7535e5618139e840405a1b", "name": "c72e576a1e7535e5618139e840405a1b", "type": "electric_scooter", "lon": -77.03735366666666, "rental_uris": {"android": "https://dc.lft.to/lastmile_qr_scan", "ios": "https://dc.lft.to/lastmile_qr_scan"}, "lat": 38.935729333333335, "is_reserved": 0, "is_disabled": 0, "fusion_lat": 0.0}, {"fusion_lon": 0.0, "bike_id": "8cd7f002c573dc5b3be53b9c89181f9f", "name": "8cd7f002c573dc5b3be53b9c89181f9f", "type": "electric_scooter", "lon": -77.01786883333334, "rental_uris": {"android": "https://dc.lft.to/lastmile_qr_scan", "ios": "https://dc.lft.to/lastmile_qr_scan"}, "lat": 38.941112, "is_reserved": 0, "is_disabled": 0, "fusion_lat": 0.0}, {"fusion_lon": 0.0, "bike_id": "7ea0dc8d48eb8cdd85ec50e5516ba235", "name": "7ea0dc8d48eb8cdd85ec50e5516ba235", "type": "electric_bike", "lon": -77.01228633333334, "rental_uris": {"android": "https://dc.lft.to/lastmile_qr_scan", "ios": "https://dc.lft.to/lastmile_qr_scan"}, "lat": 38.8931675, "is_reserved": 0, "is_disabled": 0, "fusion_lat": 0.0}, {"fusion_lon": 0.0, "bike_id": "fabb930bf21c8e10cac552b38d4949d1", "name": "fabb930bf21c8e10cac552b38d4949d1", "type": "electric_scooter", "lon": -77.02287983333333, "rental_uris": {"android": "https://dc.lft.to/lastmile_qr_scan", "ios": "https://dc.lft.to/lastmile_qr_scan"}, "lat": 38.937585, "is_reserved": 0, "is_disabled": 0, "fusion_lat": 0.0}, {"fusion_lon": 0.0, "bike_id": "8c173cf6e6b59383785905c0d818b488", "name": "8c173cf6e6b59383785905c0d818b488", "type": "electric_scooter", "lon": -77.02382183333333, "rental_uris": {"android": "https://dc.lft.to/lastmile_qr_scan", "ios": "https://dc.lft.to/lastmile_qr_scan"}, "lat": 38.90746733333334, "is_reserved": 0, "is_disabled": 0, "fusion_lat": 0.0}, {"fusion_lon": 0.0, "bike_id": "27c8e321a94eb6d001d75fb50cea9e6b", "name": "27c8e321a94eb6d001d75fb50cea9e6b", "type": "electric_scooter", "lon": -76.94773866666667, "rental_uris": {"android": "https://dc.lft.to/lastmile_qr_scan", "ios": "https://dc.lft.to/lastmile_qr_scan"}, "lat": 38.8962905, "is_reserved": 0, "is_disabled": 0, "fusion_lat": 0.0}, {"fusion_lon": 0.0, "bike_id": "49840c4d40c9031ad28d466d49ce6e4c", "name": "49840c4d40c9031ad28d466d49ce6e4c", "type": "electric_scooter", "lon": -77.00449266666666, "rental_uris": {"android": "https://dc.lft.to/lastmile_qr_scan", "ios": "https://dc.lft.to/lastmile_qr_scan"}, "lat": 38.9075705, "is_reserved": 0, "is_disabled": 0, "fusion_lat": 0.0}, {"fusion_lon": 0.0, "bike_id": "187fa138df28f56533f40c36779a2de3", "name": "187fa138df28f56533f40c36779a2de3", "type": "electric_scooter", "lon": -76.94942283333333, "rental_uris": {"android": "https://dc.lft.to/lastmile_qr_scan", "ios": "https://dc.lft.to/lastmile_qr_scan"}, "lat": 38.88318483333333, "is_reserved": 0, "is_disabled": 0, "fusion_lat": 0.0}, {"fusion_lon": 0.0, "bike_id": "15111083da48157aacb186da36205c49", "name": "15111083da48157aacb186da36205c49", "type": "electric_scooter", "lon": -77.0229575, "rental_uris": {"android": "https://dc.lft.to/lastmile_qr_scan", "ios": "https://dc.lft.to/lastmile_qr_scan"}, "lat": 38.91564066666667, "is_reserved": 0, "is_disabled": 0, "fusion_lat": 0.0}, {"fusion_lon": 0.0, "bike_id": "857958ac68d826797895cbbb3ef75f97", "name": "857958ac68d826797895cbbb3ef75f97", "type": "electric_scooter", "lon": -77.055828, "rental_uris": {"android": "https://dc.lft.to/lastmile_qr_scan", "ios": "https://dc.lft.to/lastmile_qr_scan"}, "lat": 38.93614383333333, "is_reserved": 0, "is_disabled": 0, "fusion_lat": 0.0}, {"fusion_lon": 0.0, "bike_id": "07ce0b72161c31330eb61c68c7198997", "name": "07ce0b72161c31330eb61c68c7198997", "type": "electric_bike", "lon": -76.98839266666667, "rental_uris": {"android": "https://dc.lft.to/lastmile_qr_scan", "ios": "https://dc.lft.to/lastmile_qr_scan"}, "lat": 38.8426675, "is_reserved": 0, "is_disabled": 0, "fusion_lat": 0.0}, {"fusion_lon": 0.0, "bike_id": "9af3eb643ab9b785ba1f2eec737285a2", "name": "9af3eb643ab9b785ba1f2eec737285a2", "type": "electric_scooter", "lon": -77.03641483333334, "rental_uris": {"android": "https://dc.lft.to/lastmile_qr_scan", "ios": "https://dc.lft.to/lastmile_qr_scan"}, "lat": 38.917623666666664, "is_reserved": 0, "is_disabled": 0, "fusion_lat": 0.0}, {"fusion_lon": 0.0, "bike_id": "d17c08896e0c717d000798fc6ff4ef66", "name": "d17c08896e0c717d000798fc6ff4ef66", "type": "electric_scooter", "lon": -77.05513733333333, "rental_uris": {"android": "https://dc.lft.to/lastmile_qr_scan", "ios": "https://dc.lft.to/lastmile_qr_scan"}, "lat": 38.94411683333333, "is_reserved": 0, "is_disabled": 0, "fusion_lat": 0.0}, {"fusion_lon": 0.0, "bike_id": "b29a86f21b832a9fea6d34d3f5ead13e", "name": "b29a86f21b832a9fea6d34d3f5ead13e", "type": "electric_scooter", "lon": -77.03183333333334, "rental_uris": {"android": "https://dc.lft.to/lastmile_qr_scan", "ios": "https://dc.lft.to/lastmile_qr_scan"}, "lat": 38.905197333333334, "is_reserved": 0, "is_disabled": 0, "fusion_lat": 0.0}, {"fusion_lon": 0.0, "bike_id": "e30bba086f0538acf88c6b73d831e13e", "name": "e30bba086f0538acf88c6b73d831e13e", "type": "electric_scooter", "lon": -77.01193533333333, "rental_uris": {"android": "https://dc.lft.to/lastmile_qr_scan", "ios": "https://dc.lft.to/lastmile_qr_scan"}, "lat": 38.887692666666666, "is_reserved": 0, "is_disabled": 0, "fusion_lat": 0.0}, {"fusion_lon": 0.0, "bike_id": "16e537779be3dd8cf40050d28992e644", "name": "16e537779be3dd8cf40050d28992e644", "type": "electric_scooter", "lon": -77.02953083333334, "rental_uris": {"android": "https://dc.lft.to/lastmile_qr_scan", "ios": "https://dc.lft.to/lastmile_qr_scan"}, "lat": 38.905089833333335, "is_reserved": 0, "is_disabled": 0, "fusion_lat": 0.0}, {"fusion_lon": 0.0, "bike_id": "bb484598d53d81475c97b1e191bf45de", "name": "bb484598d53d81475c97b1e191bf45de", "type": "electric_scooter", "lon": -76.98914583333334, "rental_uris": {"android": "https://dc.lft.to/lastmile_qr_scan", "ios": "https://dc.lft.to/lastmile_qr_scan"}, "lat": 38.90227016666667, "is_reserved": 0, "is_disabled": 0, "fusion_lat": 0.0}, {"fusion_lon": 0.0, "bike_id": "ec6117a3824605f3563a2cbcb73ed33d", "name": "ec6117a3824605f3563a2cbcb73ed33d", "type": "electric_scooter", "lon": -77.00189616666667, "rental_uris": {"android": "https://dc.lft.to/lastmile_qr_scan", "ios": "https://dc.lft.to/lastmile_qr_scan"}, "lat": 38.899979333333334, "is_reserved": 0, "is_disabled": 0, "fusion_lat": 0.0}, {"fusion_lon": 0.0, "bike_id": "48de01bb494a1c21b1af857978695e59", "name": "48de01bb494a1c21b1af857978695e59", "type": "electric_scooter", "lon": -76.94997633333334, "rental_uris": {"android": "https://dc.lft.to/lastmile_qr_scan", "ios": "https://dc.lft.to/lastmile_qr_scan"}, "lat": 38.893909, "is_reserved": 0, "is_disabled": 0, "fusion_lat": 0.0}, {"fusion_lon": 0.0, "bike_id": "99e06429da121d0978a3f7fb49ff5bb1", "name": "99e06429da121d0978a3f7fb49ff5bb1", "type": "electric_scooter", "lon": -77.0314435, "rental_uris": {"android": "https://dc.lft.to/lastmile_qr_scan", "ios": "https://dc.lft.to/lastmile_qr_scan"}, "lat": 38.887502, "is_reserved": 0, "is_disabled": 0, "fusion_lat": 0.0}, {"fusion_lon": 0.0, "bike_id": "ca32159d6c3f89c1449249a96eebebda", "name": "ca32159d6c3f89c1449249a96eebebda", "type": "electric_scooter", "lon": -77.03829616666667, "rental_uris": {"android": "https://dc.lft.to/lastmile_qr_scan", "ios": "https://dc.lft.to/lastmile_qr_scan"}, "lat": 38.91560033333333, "is_reserved": 0, "is_disabled": 0, "fusion_lat": 0.0}, {"fusion_lon": 0.0, "bike_id": "29bf87ff5983ea1273461b8d116bf170", "name": "29bf87ff5983ea1273461b8d116bf170", "type": "electric_scooter", "lon": -77.02449233333333, "rental_uris": {"android": "https://dc.lft.to/lastmile_qr_scan", "ios": "https://dc.lft.to/lastmile_qr_scan"}, "lat": 38.92891, "is_reserved": 0, "is_disabled": 0, "fusion_lat": 0.0}, {"fusion_lon": 0.0, "bike_id": "d286b3509cf8ef806fbc152a58bda2cb", "name": "d286b3509cf8ef806fbc152a58bda2cb", "type": "electric_scooter", "lon": -77.04153733333334, "rental_uris": {"android": "https://dc.lft.to/lastmile_qr_scan", "ios": "https://dc.lft.to/lastmile_qr_scan"}, "lat": 38.90515, "is_reserved": 0, "is_disabled": 0, "fusion_lat": 0.0}, {"fusion_lon": 0.0, "bike_id": "d621cf96fd8decf820d26c4986cd3e43", "name": "d621cf96fd8decf820d26c4986cd3e43", "type": "electric_scooter", "lon": -77.04223683333333, "rental_uris": {"android": "https://dc.lft.to/lastmile_qr_scan", "ios": "https://dc.lft.to/lastmile_qr_scan"}, "lat": 38.916927666666666, "is_reserved": 0, "is_disabled": 0, "fusion_lat": 0.0}, {"fusion_lon": 0.0, "bike_id": "3d81dbdc3f0936107e400b66bcef9a49", "name": "3d81dbdc3f0936107e400b66bcef9a49", "type": "electric_bike", "lon": -76.98383283333334, "rental_uris": {"android": "https://dc.lft.to/lastmile_qr_scan", "ios": "https://dc.lft.to/lastmile_qr_scan"}, "lat": 38.914721, "is_reserved": 0, "is_disabled": 0, "fusion_lat": 0.0}, {"fusion_lon": 0.0, "bike_id": "ce6758b3f0e3339e3fdfac3be75aa3d1", "name": "ce6758b3f0e3339e3fdfac3be75aa3d1", "type": "electric_scooter", "lon": -77.03260466666667, "rental_uris": {"android": "https://dc.lft.to/lastmile_qr_scan", "ios": "https://dc.lft.to/lastmile_qr_scan"}, "lat": 38.937433166666665, "is_reserved": 0, "is_disabled": 0, "fusion_lat": 0.0}, {"fusion_lon": 0.0, "bike_id": "a2a8d17057be999c5aa9799e5e8d3f89", "name": "a2a8d17057be999c5aa9799e5e8d3f89", "type": "electric_scooter", "lon": -77.00746566666666, "rental_uris": {"android": "https://dc.lft.to/lastmile_qr_scan", "ios": "https://dc.lft.to/lastmile_qr_scan"}, "lat": 38.903851833333334, "is_reserved": 0, "is_disabled": 0, "fusion_lat": 0.0}, {"fusion_lon": 0.0, "bike_id": "4bf552ebbebfb087ae5ff8749c1f829b", "name": "4bf552ebbebfb087ae5ff8749c1f829b", "type": "electric_scooter", "lon": -77.04184783333334, "rental_uris": {"android": "https://dc.lft.to/lastmile_qr_scan", "ios": "https://dc.lft.to/lastmile_qr_scan"}, "lat": 38.92333166666667, "is_reserved": 0, "is_disabled": 0, "fusion_lat": 0.0}, {"fusion_lon": 0.0, "bike_id": "e937467bd90eaf2ec1bb05c20a4c7db0", "name": "e937467bd90eaf2ec1bb05c20a4c7db0", "type": "electric_scooter", "lon": -76.94116816666667, "rental_uris": {"android": "https://dc.lft.to/lastmile_qr_scan", "ios": "https://dc.lft.to/lastmile_qr_scan"}, "lat": 38.90791733333333, "is_reserved": 0, "is_disabled": 0, "fusion_lat": 0.0}, {"fusion_lon": 0.0, "bike_id": "85dc86984da22d7500fca245f18c7aec", "name": "85dc86984da22d7500fca245f18c7aec", "type": "electric_scooter", "lon": -77.00478916666667, "rental_uris": {"android": "https://dc.lft.to/lastmile_qr_scan", "ios": "https://dc.lft.to/lastmile_qr_scan"}, "lat": 38.92589733333333, "is_reserved": 0, "is_disabled": 0, "fusion_lat": 0.0}, {"fusion_lon": 0.0, "bike_id": "816c8dcef88af9f27aa715abe84f506e", "name": "816c8dcef88af9f27aa715abe84f506e", "type": "electric_bike", "lon": -77.127474, "rental_uris": {"android": "https://dc.lft.to/lastmile_qr_scan", "ios": "https://dc.lft.to/lastmile_qr_scan"}, "lat": 38.88821883333333, "is_reserved": 0, "is_disabled": 0, "fusion_lat": 0.0}, {"fusion_lon": 0.0, "bike_id": "9630f13b44de63d4c9a0559a25a938e4", "name": "9630f13b44de63d4c9a0559a25a938e4", "type": "electric_scooter", "lon": -77.0386485, "rental_uris": {"android": "https://dc.lft.to/lastmile_qr_scan", "ios": "https://dc.lft.to/lastmile_qr_scan"}, "lat": 38.91559133333333, "is_reserved": 0, "is_disabled": 0, "fusion_lat": 0.0}, {"fusion_lon": 0.0, "bike_id": "6558a7ff2e75857b5b28d6da80e93fa0", "name": "6558a7ff2e75857b5b28d6da80e93fa0", "type": "electric_scooter", "lon": -77.0228725, "rental_uris": {"android": "https://dc.lft.to/lastmile_qr_scan", "ios": "https://dc.lft.to/lastmile_qr_scan"}, "lat": 38.9081625, "is_reserved": 0, "is_disabled": 0, "fusion_lat": 0.0}, {"fusion_lon": 0.0, "bike_id": "c394726957d69b3613e466b1eb47e6dc", "name": "c394726957d69b3613e466b1eb47e6dc", "type": "electric_scooter", "lon": -77.06354116666667, "rental_uris": {"android": "https://dc.lft.to/lastmile_qr_scan", "ios": "https://dc.lft.to/lastmile_qr_scan"}, "lat": 38.94452833333333, "is_reserved": 0, "is_disabled": 0, "fusion_lat": 0.0}, {"fusion_lon": 0.0, "bike_id": "07baea5b2cbd6108bc507d7fba4dde8b", "name": "07baea5b2cbd6108bc507d7fba4dde8b", "type": "electric_scooter", "lon": -77.021111, "rental_uris": {"android": "https://dc.lft.to/lastmile_qr_scan", "ios": "https://dc.lft.to/lastmile_qr_scan"}, "lat": 38.89750016666667, "is_reserved": 0, "is_disabled": 0, "fusion_lat": 0.0}, {"fusion_lon": 0.0, "bike_id": "d4f9587b8cc25efc2d44e04162e54aa8", "name": "d4f9587b8cc25efc2d44e04162e54aa8", "type": "electric_scooter", "lon": -77.02468033333334, "rental_uris": {"android": "https://dc.lft.to/lastmile_qr_scan", "ios": "https://dc.lft.to/lastmile_qr_scan"}, "lat": 38.9376825, "is_reserved": 0, "is_disabled": 0, "fusion_lat": 0.0}, {"fusion_lon": 0.0, "bike_id": "3a8a9267720d85d4bc8ea225ee0c0370", "name": "3a8a9267720d85d4bc8ea225ee0c0370", "type": "electric_scooter", "lon": -76.98681283333333, "rental_uris": {"android": "https://dc.lft.to/lastmile_qr_scan", "ios": "https://dc.lft.to/lastmile_qr_scan"}, "lat": 38.85565283333333, "is_reserved": 0, "is_disabled": 0, "fusion_lat": 0.0}, {"fusion_lon": 0.0, "bike_id": "e596849644977b5ee8f56b6d926b5acb", "name": "e596849644977b5ee8f56b6d926b5acb", "type": "electric_scooter", "lon": -77.01254416666667, "rental_uris": {"android": "https://dc.lft.to/lastmile_qr_scan", "ios": "https://dc.lft.to/lastmile_qr_scan"}, "lat": 38.87485916666667, "is_reserved": 0, "is_disabled": 0, "fusion_lat": 0.0}, {"fusion_lon": 0.0, "bike_id": "4feba1139ad165d15e17e7734b5cc6af", "name": "4feba1139ad165d15e17e7734b5cc6af", "type": "electric_scooter", "lon": -77.01501933333333, "rental_uris": {"android": "https://dc.lft.to/lastmile_qr_scan", "ios": "https://dc.lft.to/lastmile_qr_scan"}, "lat": 38.884826833333335, "is_reserved": 0, "is_disabled": 0, "fusion_lat": 0.0}, {"fusion_lon": 0.0, "bike_id": "314a3889428ac672a2c8f6a662d18e7e", "name": "314a3889428ac672a2c8f6a662d18e7e", "type": "electric_scooter", "lon": -77.00755333333333, "rental_uris": {"android": "https://dc.lft.to/lastmile_qr_scan", "ios": "https://dc.lft.to/lastmile_qr_scan"}, "lat": 38.900663333333334, "is_reserved": 0, "is_disabled": 0, "fusion_lat": 0.0}, {"fusion_lon": 0.0, "bike_id": "74efb049935e6f6be03c50b2b6a81ac4", "name": "74efb049935e6f6be03c50b2b6a81ac4", "type": "electric_scooter", "lon": -76.98771566666667, "rental_uris": {"android": "https://dc.lft.to/lastmile_qr_scan", "ios": "https://dc.lft.to/lastmile_qr_scan"}, "lat": 38.912030666666666, "is_reserved": 0, "is_disabled": 0, "fusion_lat": 0.0}, {"fusion_lon": 0.0, "bike_id": "e9fd1d50a799ecafefa6a4bcf03c023d", "name": "e9fd1d50a799ecafefa6a4bcf03c023d", "type": "electric_scooter", "lon": -77.027194, "rental_uris": {"android": "https://dc.lft.to/lastmile_qr_scan", "ios": "https://dc.lft.to/lastmile_qr_scan"}, "lat": 38.924797, "is_reserved": 0, "is_disabled": 0, "fusion_lat": 0.0}, {"fusion_lon": 0.0, "bike_id": "4f7b6435ff57fea8e986379f652303e0", "name": "4f7b6435ff57fea8e986379f652303e0", "type": "electric_scooter", "lon": -77.02452216666667, "rental_uris": {"android": "https://dc.lft.to/lastmile_qr_scan", "ios": "https://dc.lft.to/lastmile_qr_scan"}, "lat": 38.903185666666666, "is_reserved": 0, "is_disabled": 0, "fusion_lat": 0.0}, {"fusion_lon": 0.0, "bike_id": "aaf14c028819513d36e3075baeefe427", "name": "aaf14c028819513d36e3075baeefe427", "type": "electric_bike", "lon": -77.02130916666667, "rental_uris": {"android": "https://dc.lft.to/lastmile_qr_scan", "ios": "https://dc.lft.to/lastmile_qr_scan"}, "lat": 38.95741133333333, "is_reserved": 0, "is_disabled": 0, "fusion_lat": 0.0}, {"fusion_lon": 0.0, "bike_id": "a08b080fa82ea075e2dc05a0d0ac6492", "name": "a08b080fa82ea075e2dc05a0d0ac6492", "type": "electric_bike", "lon": -76.91602133333333, "rental_uris": {"android": "https://dc.lft.to/lastmile_qr_scan", "ios": "https://dc.lft.to/lastmile_qr_scan"}, "lat": 38.87972116666667, "is_reserved": 0, "is_disabled": 0, "fusion_lat": 0.0}, {"fusion_lon": 0.0, "bike_id": "b0350fc92b3c564823d0197439fd54a9", "name": "b0350fc92b3c564823d0197439fd54a9", "type": "electric_scooter", "lon": -76.983254, "rental_uris": {"android": "https://dc.lft.to/lastmile_qr_scan", "ios": "https://dc.lft.to/lastmile_qr_scan"}, "lat": 38.86169866666667, "is_reserved": 0, "is_disabled": 0, "fusion_lat": 0.0}, {"fusion_lon": 0.0, "bike_id": "1c253860408c383c3d0c16a3806075a5", "name": "1c253860408c383c3d0c16a3806075a5", "type": "electric_scooter", "lon": -77.03449583333334, "rental_uris": {"android": "https://dc.lft.to/lastmile_qr_scan", "ios": "https://dc.lft.to/lastmile_qr_scan"}, "lat": 38.964263, "is_reserved": 0, "is_disabled": 0, "fusion_lat": 0.0}, {"fusion_lon": 0.0, "bike_id": "590d266e45305796de48abffe124a97d", "name": "590d266e45305796de48abffe124a97d", "type": "electric_scooter", "lon": -77.04719216666666, "rental_uris": {"android": "https://dc.lft.to/lastmile_qr_scan", "ios": "https://dc.lft.to/lastmile_qr_scan"}, "lat": 38.89953033333333, "is_reserved": 0, "is_disabled": 0, "fusion_lat": 0.0}, {"fusion_lon": 0.0, "bike_id": "21bd7f863c1a9f80b62d63824cebe08e", "name": "21bd7f863c1a9f80b62d63824cebe08e", "type": "electric_scooter", "lon": -76.96504316666666, "rental_uris": {"android": "https://dc.lft.to/lastmile_qr_scan", "ios": "https://dc.lft.to/lastmile_qr_scan"}, "lat": 38.876464666666664, "is_reserved": 0, "is_disabled": 0, "fusion_lat": 0.0}, {"fusion_lon": 0.0, "bike_id": "c9c1c1686a96a52dd276354595299d68", "name": "c9c1c1686a96a52dd276354595299d68", "type": "electric_bike", "lon": -76.968367, "rental_uris": {"android": "https://dc.lft.to/lastmile_qr_scan", "ios": "https://dc.lft.to/lastmile_qr_scan"}, "lat": 38.92444966666667, "is_reserved": 0, "is_disabled": 0, "fusion_lat": 0.0}, {"fusion_lon": 0.0, "bike_id": "e58e5b5a9fd6e03ec149990e89ede1a4", "name": "e58e5b5a9fd6e03ec149990e89ede1a4", "type": "electric_scooter", "lon": -77.04663366666666, "rental_uris": {"android": "https://dc.lft.to/lastmile_qr_scan", "ios": "https://dc.lft.to/lastmile_qr_scan"}, "lat": 38.920531, "is_reserved": 0, "is_disabled": 0, "fusion_lat": 0.0}, {"fusion_lon": 0.0, "bike_id": "649e377f710af4094f71e3ea9c54a96a", "name": "649e377f710af4094f71e3ea9c54a96a", "type": "electric_scooter", "lon": -77.01965066666666, "rental_uris": {"android": "https://dc.lft.to/lastmile_qr_scan", "ios": "https://dc.lft.to/lastmile_qr_scan"}, "lat": 38.878418833333335, "is_reserved": 0, "is_disabled": 0, "fusion_lat": 0.0}, {"fusion_lon": 0.0, "bike_id": "aea5d70a76fcd59afb9ded6f2a54cc25", "name": "aea5d70a76fcd59afb9ded6f2a54cc25", "type": "electric_scooter", "lon": -77.00821016666667, "rental_uris": {"android": "https://dc.lft.to/lastmile_qr_scan", "ios": "https://dc.lft.to/lastmile_qr_scan"}, "lat": 38.876113, "is_reserved": 0, "is_disabled": 0, "fusion_lat": 0.0}, {"fusion_lon": 0.0, "bike_id": "e4b5b6232602a5481f481ac6e502db17", "name": "e4b5b6232602a5481f481ac6e502db17", "type": "electric_bike", "lon": -77.15267116666666, "rental_uris": {"android": "https://dc.lft.to/lastmile_qr_scan", "ios": "https://dc.lft.to/lastmile_qr_scan"}, "lat": 39.105644833333336, "is_reserved": 0, "is_disabled": 0, "fusion_lat": 0.0}, {"fusion_lon": 0.0, "bike_id": "ac00ce12e9e8667029202bd42c030cf7", "name": "ac00ce12e9e8667029202bd42c030cf7", "type": "electric_scooter", "lon": -77.041837, "rental_uris": {"android": "https://dc.lft.to/lastmile_qr_scan", "ios": "https://dc.lft.to/lastmile_qr_scan"}, "lat": 38.91267833333333, "is_reserved": 0, "is_disabled": 0, "fusion_lat": 0.0}, {"fusion_lon": 0.0, "bike_id": "5662a06139480aaebfa6d0b33906cd90", "name": "5662a06139480aaebfa6d0b33906cd90", "type": "electric_scooter", "lon": -76.964823, "rental_uris": {"android": "https://dc.lft.to/lastmile_qr_scan", "ios": "https://dc.lft.to/lastmile_qr_scan"}, "lat": 38.875456, "is_reserved": 0, "is_disabled": 0, "fusion_lat": 0.0}, {"fusion_lon": 0.0, "bike_id": "f2e143608768741fc87a9515ac6566a8", "name": "f2e143608768741fc87a9515ac6566a8", "type": "electric_scooter", "lon": -77.04389233333333, "rental_uris": {"android": "https://dc.lft.to/lastmile_qr_scan", "ios": "https://dc.lft.to/lastmile_qr_scan"}, "lat": 38.874298833333334, "is_reserved": 0, "is_disabled": 0, "fusion_lat": 0.0}, {"fusion_lon": 0.0, "bike_id": "930ac42de28cfa52afb1678619b47b7c", "name": "930ac42de28cfa52afb1678619b47b7c", "type": "electric_scooter", "lon": -76.99701283333333, "rental_uris": {"android": "https://dc.lft.to/lastmile_qr_scan", "ios": "https://dc.lft.to/lastmile_qr_scan"}, "lat": 38.838683833333334, "is_reserved": 0, "is_disabled": 0, "fusion_lat": 0.0}, {"fusion_lon": 0.0, "bike_id": "ff42472bed33c13fd4889cfff2273437", "name": "ff42472bed33c13fd4889cfff2273437", "type": "electric_scooter", "lon": -77.04652116666666, "rental_uris": {"android": "https://dc.lft.to/lastmile_qr_scan", "ios": "https://dc.lft.to/lastmile_qr_scan"}, "lat": 38.892939, "is_reserved": 0, "is_disabled": 0, "fusion_lat": 0.0}, {"fusion_lon": 0.0, "bike_id": "d4617bf853c431760f988c8fc3e6c556", "name": "d4617bf853c431760f988c8fc3e6c556", "type": "electric_scooter", "lon": -76.972286, "rental_uris": {"android": "https://dc.lft.to/lastmile_qr_scan", "ios": "https://dc.lft.to/lastmile_qr_scan"}, "lat": 38.854593666666666, "is_reserved": 0, "is_disabled": 0, "fusion_lat": 0.0}, {"fusion_lon": 0.0, "bike_id": "81c967e31e7142795c585965d7857bc1", "name": "81c967e31e7142795c585965d7857bc1", "type": "electric_scooter", "lon": -77.048642, "rental_uris": {"android": "https://dc.lft.to/lastmile_qr_scan", "ios": "https://dc.lft.to/lastmile_qr_scan"}, "lat": 38.905819666666666, "is_reserved": 0, "is_disabled": 0, "fusion_lat": 0.0}, {"fusion_lon": 0.0, "bike_id": "1df6e9164c3c043128ed20e7dbcc7ccb", "name": "1df6e9164c3c043128ed20e7dbcc7ccb", "type": "electric_scooter", "lon": -77.04649633333334, "rental_uris": {"android": "https://dc.lft.to/lastmile_qr_scan", "ios": "https://dc.lft.to/lastmile_qr_scan"}, "lat": 38.914809, "is_reserved": 0, "is_disabled": 0, "fusion_lat": 0.0}, {"fusion_lon": 0.0, "bike_id": "5472ee7cf09eba65aa0960432568e448", "name": "5472ee7cf09eba65aa0960432568e448", "type": "electric_scooter", "lon": -77.02391466666667, "rental_uris": {"android": "https://dc.lft.to/lastmile_qr_scan", "ios": "https://dc.lft.to/lastmile_qr_scan"}, "lat": 38.91957383333333, "is_reserved": 0, "is_disabled": 0, "fusion_lat": 0.0}, {"fusion_lon": 0.0, "bike_id": "47e7aa1ce12a0e276f17fa6eeaf6cedd", "name": "47e7aa1ce12a0e276f17fa6eeaf6cedd", "type": "electric_scooter", "lon": -77.03727016666667, "rental_uris": {"android": "https://dc.lft.to/lastmile_qr_scan", "ios": "https://dc.lft.to/lastmile_qr_scan"}, "lat": 38.9181445, "is_reserved": 0, "is_disabled": 0, "fusion_lat": 0.0}, {"fusion_lon": 0.0, "bike_id": "6f8d40dfa60f7bc9123a0e59cf704da2", "name": "6f8d40dfa60f7bc9123a0e59cf704da2", "type": "electric_bike", "lon": -77.09157933333333, "rental_uris": {"android": "https://dc.lft.to/lastmile_qr_scan", "ios": "https://dc.lft.to/lastmile_qr_scan"}, "lat": 38.967597166666664, "is_reserved": 0, "is_disabled": 0, "fusion_lat": 0.0}, {"fusion_lon": 0.0, "bike_id": "d09baa17ab7cc1cba72cf5221fa8cf23", "name": "d09baa17ab7cc1cba72cf5221fa8cf23", "type": "electric_scooter", "lon": -77.03652533333333, "rental_uris": {"android": "https://dc.lft.to/lastmile_qr_scan", "ios": "https://dc.lft.to/lastmile_qr_scan"}, "lat": 38.941768, "is_reserved": 0, "is_disabled": 0, "fusion_lat": 0.0}, {"fusion_lon": 0.0, "bike_id": "05a6200dfc3401e7fe473bbbba8440d6", "name": "05a6200dfc3401e7fe473bbbba8440d6", "type": "electric_scooter", "lon": -77.00515033333333, "rental_uris": {"android": "https://dc.lft.to/lastmile_qr_scan", "ios": "https://dc.lft.to/lastmile_qr_scan"}, "lat": 38.87468916666667, "is_reserved": 0, "is_disabled": 0, "fusion_lat": 0.0}, {"fusion_lon": 0.0, "bike_id": "12cca95fdb32e695049ff0a45aa70b6f", "name": "12cca95fdb32e695049ff0a45aa70b6f", "type": "electric_scooter", "lon": -77.02069633333333, "rental_uris": {"android": "https://dc.lft.to/lastmile_qr_scan", "ios": "https://dc.lft.to/lastmile_qr_scan"}, "lat": 38.948955833333336, "is_reserved": 0, "is_disabled": 0, "fusion_lat": 0.0}, {"fusion_lon": 0.0, "bike_id": "cbb4d1abfc57808292677b01496a4359", "name": "cbb4d1abfc57808292677b01496a4359", "type": "electric_scooter", "lon": -77.03179616666667, "rental_uris": {"android": "https://dc.lft.to/lastmile_qr_scan", "ios": "https://dc.lft.to/lastmile_qr_scan"}, "lat": 38.8917355, "is_reserved": 0, "is_disabled": 0, "fusion_lat": 0.0}, {"fusion_lon": 0.0, "bike_id": "4644c9a74956834761025875547b7a6c", "name": "4644c9a74956834761025875547b7a6c", "type": "electric_scooter", "lon": -77.03832266666667, "rental_uris": {"android": "https://dc.lft.to/lastmile_qr_scan", "ios": "https://dc.lft.to/lastmile_qr_scan"}, "lat": 38.91563583333333, "is_reserved": 0, "is_disabled": 0, "fusion_lat": 0.0}, {"fusion_lon": 0.0, "bike_id": "15dfa34916361ba4d90bd9de8520e5c7", "name": "15dfa34916361ba4d90bd9de8520e5c7", "type": "electric_scooter", "lon": -77.02493633333333, "rental_uris": {"android": "https://dc.lft.to/lastmile_qr_scan", "ios": "https://dc.lft.to/lastmile_qr_scan"}, "lat": 38.920639666666666, "is_reserved": 0, "is_disabled": 0, "fusion_lat": 0.0}, {"fusion_lon": 0.0, "bike_id": "b2b6caf5ff731bfbe07e8a5fe4ac58fb", "name": "b2b6caf5ff731bfbe07e8a5fe4ac58fb", "type": "electric_scooter", "lon": -77.04998416666666, "rental_uris": {"android": "https://dc.lft.to/lastmile_qr_scan", "ios": "https://dc.lft.to/lastmile_qr_scan"}, "lat": 38.90147566666667, "is_reserved": 0, "is_disabled": 0, "fusion_lat": 0.0}, {"fusion_lon": 0.0, "bike_id": "f717ed03d4d15956783dad0f2025e798", "name": "f717ed03d4d15956783dad0f2025e798", "type": "electric_scooter", "lon": -77.00445833333333, "rental_uris": {"android": "https://dc.lft.to/lastmile_qr_scan", "ios": "https://dc.lft.to/lastmile_qr_scan"}, "lat": 38.913472666666664, "is_reserved": 0, "is_disabled": 0, "fusion_lat": 0.0}, {"fusion_lon": 0.0, "bike_id": "734aee4726fe5839483874fb3e81f8e6", "name": "734aee4726fe5839483874fb3e81f8e6", "type": "electric_scooter", "lon": -77.044001, "rental_uris": {"android": "https://dc.lft.to/lastmile_qr_scan", "ios": "https://dc.lft.to/lastmile_qr_scan"}, "lat": 38.920178, "is_reserved": 0, "is_disabled": 0, "fusion_lat": 0.0}, {"fusion_lon": 0.0, "bike_id": "2e6411d82d73d7531e322609b31a6c71", "name": "2e6411d82d73d7531e322609b31a6c71", "type": "electric_scooter", "lon": -77.03426266666666, "rental_uris": {"android": "https://dc.lft.to/lastmile_qr_scan", "ios": "https://dc.lft.to/lastmile_qr_scan"}, "lat": 38.90728583333333, "is_reserved": 0, "is_disabled": 0, "fusion_lat": 0.0}, {"fusion_lon": 0.0, "bike_id": "f24eb39ba4d2d17988bdcdd146b91e6a", "name": "f24eb39ba4d2d17988bdcdd146b91e6a", "type": "electric_scooter", "lon": -77.03458166666667, "rental_uris": {"android": "https://dc.lft.to/lastmile_qr_scan", "ios": "https://dc.lft.to/lastmile_qr_scan"}, "lat": 38.92150433333333, "is_reserved": 0, "is_disabled": 0, "fusion_lat": 0.0}, {"fusion_lon": 0.0, "bike_id": "06424b78984190f4f852ff41097397f2", "name": "06424b78984190f4f852ff41097397f2", "type": "electric_scooter", "lon": -77.0278415, "rental_uris": {"android": "https://dc.lft.to/lastmile_qr_scan", "ios": "https://dc.lft.to/lastmile_qr_scan"}, "lat": 38.926827333333335, "is_reserved": 0, "is_disabled": 0, "fusion_lat": 0.0}, {"fusion_lon": 0.0, "bike_id": "1c63a4a73639d1c6c4caaed03c615828", "name": "1c63a4a73639d1c6c4caaed03c615828", "type": "electric_scooter", "lon": -77.041801, "rental_uris": {"android": "https://dc.lft.to/lastmile_qr_scan", "ios": "https://dc.lft.to/lastmile_qr_scan"}, "lat": 38.91261766666667, "is_reserved": 0, "is_disabled": 0, "fusion_lat": 0.0}, {"fusion_lon": 0.0, "bike_id": "b04f4b7982feadc360bc604005f21cbb", "name": "b04f4b7982feadc360bc604005f21cbb", "type": "electric_scooter", "lon": -77.02378933333334, "rental_uris": {"android": "https://dc.lft.to/lastmile_qr_scan", "ios": "https://dc.lft.to/lastmile_qr_scan"}, "lat": 38.892298833333335, "is_reserved": 0, "is_disabled": 0, "fusion_lat": 0.0}, {"fusion_lon": 0.0, "bike_id": "f54e17456d224b09504eeb59f42e291a", "name": "f54e17456d224b09504eeb59f42e291a", "type": "electric_scooter", "lon": -77.00877266666667, "rental_uris": {"android": "https://dc.lft.to/lastmile_qr_scan", "ios": "https://dc.lft.to/lastmile_qr_scan"}, "lat": 38.9056815, "is_reserved": 0, "is_disabled": 0, "fusion_lat": 0.0}, {"fusion_lon": 0.0, "bike_id": "05f82731c3441d62c4c9cf5a03245b80", "name": "05f82731c3441d62c4c9cf5a03245b80", "type": "electric_bike", "lon": -77.03391783333333, "rental_uris": {"android": "https://dc.lft.to/lastmile_qr_scan", "ios": "https://dc.lft.to/lastmile_qr_scan"}, "lat": 38.928747, "is_reserved": 0, "is_disabled": 0, "fusion_lat": 0.0}, {"fusion_lon": 0.0, "bike_id": "e9cb0cb252c2d48cdddc3d53a9a412c9", "name": "e9cb0cb252c2d48cdddc3d53a9a412c9", "type": "electric_scooter", "lon": -77.00774933333334, "rental_uris": {"android": "https://dc.lft.to/lastmile_qr_scan", "ios": "https://dc.lft.to/lastmile_qr_scan"}, "lat": 38.90565216666667, "is_reserved": 0, "is_disabled": 0, "fusion_lat": 0.0}, {"fusion_lon": 0.0, "bike_id": "09b251e9236a9aa93fb52439d996d8b9", "name": "09b251e9236a9aa93fb52439d996d8b9", "type": "electric_scooter", "lon": -77.01057066666667, "rental_uris": {"android": "https://dc.lft.to/lastmile_qr_scan", "ios": "https://dc.lft.to/lastmile_qr_scan"}, "lat": 38.87248116666667, "is_reserved": 0, "is_disabled": 0, "fusion_lat": 0.0}, {"fusion_lon": 0.0, "bike_id": "4c08bfbce807f5f29b5855c790421358", "name": "4c08bfbce807f5f29b5855c790421358", "type": "electric_scooter", "lon": -77.02461266666667, "rental_uris": {"android": "https://dc.lft.to/lastmile_qr_scan", "ios": "https://dc.lft.to/lastmile_qr_scan"}, "lat": 38.8972905, "is_reserved": 0, "is_disabled": 0, "fusion_lat": 0.0}, {"fusion_lon": 0.0, "bike_id": "7e5f3e56995f712a82779939054b5a8b", "name": "7e5f3e56995f712a82779939054b5a8b", "type": "electric_scooter", "lon": -76.989204, "rental_uris": {"android": "https://dc.lft.to/lastmile_qr_scan", "ios": "https://dc.lft.to/lastmile_qr_scan"}, "lat": 38.88210433333333, "is_reserved": 0, "is_disabled": 0, "fusion_lat": 0.0}, {"fusion_lon": 0.0, "bike_id": "0276bbb7201e9370956b7ad45c3ba794", "name": "0276bbb7201e9370956b7ad45c3ba794", "type": "electric_scooter", "lon": -77.046703, "rental_uris": {"android": "https://dc.lft.to/lastmile_qr_scan", "ios": "https://dc.lft.to/lastmile_qr_scan"}, "lat": 38.89692333333333, "is_reserved": 0, "is_disabled": 0, "fusion_lat": 0.0}, {"fusion_lon": 0.0, "bike_id": "64e25fe58f651ac2a8a18b1a6dbb604e", "name": "64e25fe58f651ac2a8a18b1a6dbb604e", "type": "electric_scooter", "lon": -77.020296, "rental_uris": {"android": "https://dc.lft.to/lastmile_qr_scan", "ios": "https://dc.lft.to/lastmile_qr_scan"}, "lat": 38.913078, "is_reserved": 0, "is_disabled": 0, "fusion_lat": 0.0}, {"fusion_lon": 0.0, "bike_id": "5c5b759d74291c8d8f8a8a4810bfaa29", "name": "5c5b759d74291c8d8f8a8a4810bfaa29", "type": "electric_scooter", "lon": -77.01780266666667, "rental_uris": {"android": "https://dc.lft.to/lastmile_qr_scan", "ios": "https://dc.lft.to/lastmile_qr_scan"}, "lat": 38.92126316666667, "is_reserved": 0, "is_disabled": 0, "fusion_lat": 0.0}, {"fusion_lon": 0.0, "bike_id": "2aadf6d23feb7d9476f0b340760d3d6b", "name": "2aadf6d23feb7d9476f0b340760d3d6b", "type": "electric_scooter", "lon": -77.02709283333333, "rental_uris": {"android": "https://dc.lft.to/lastmile_qr_scan", "ios": "https://dc.lft.to/lastmile_qr_scan"}, "lat": 38.91963, "is_reserved": 0, "is_disabled": 0, "fusion_lat": 0.0}, {"fusion_lon": 0.0, "bike_id": "de2900a4033fd95f7efb85e5aa32299f", "name": "de2900a4033fd95f7efb85e5aa32299f", "type": "electric_bike", "lon": -77.1273585, "rental_uris": {"android": "https://dc.lft.to/lastmile_qr_scan", "ios": "https://dc.lft.to/lastmile_qr_scan"}, "lat": 38.895623666666665, "is_reserved": 0, "is_disabled": 0, "fusion_lat": 0.0}, {"fusion_lon": 0.0, "bike_id": "2f61971c2727c13076a6c5010ba15984", "name": "2f61971c2727c13076a6c5010ba15984", "type": "electric_bike", "lon": -76.9486395, "rental_uris": {"android": "https://dc.lft.to/lastmile_qr_scan", "ios": "https://dc.lft.to/lastmile_qr_scan"}, "lat": 38.8896585, "is_reserved": 0, "is_disabled": 0, "fusion_lat": 0.0}, {"fusion_lon": 0.0, "bike_id": "280fe911c40e7d74632eaeb1965ef948", "name": "280fe911c40e7d74632eaeb1965ef948", "type": "electric_scooter", "lon": -77.0411635, "rental_uris": {"android": "https://dc.lft.to/lastmile_qr_scan", "ios": "https://dc.lft.to/lastmile_qr_scan"}, "lat": 38.901445, "is_reserved": 0, "is_disabled": 0, "fusion_lat": 0.0}, {"fusion_lon": 0.0, "bike_id": "fcb50706723931c2e4aca97fccb13120", "name": "fcb50706723931c2e4aca97fccb13120", "type": "electric_scooter", "lon": -76.99528466666666, "rental_uris": {"android": "https://dc.lft.to/lastmile_qr_scan", "ios": "https://dc.lft.to/lastmile_qr_scan"}, "lat": 38.900282833333335, "is_reserved": 0, "is_disabled": 0, "fusion_lat": 0.0}, {"fusion_lon": 0.0, "bike_id": "e06eb8ea49617ade1d287ca9b95110cb", "name": "e06eb8ea49617ade1d287ca9b95110cb", "type": "electric_bike", "lon": -76.984762, "rental_uris": {"android": "https://dc.lft.to/lastmile_qr_scan", "ios": "https://dc.lft.to/lastmile_qr_scan"}, "lat": 38.89143, "is_reserved": 0, "is_disabled": 0, "fusion_lat": 0.0}, {"fusion_lon": 0.0, "bike_id": "943407c4f735735828527d5b1f12e89d", "name": "943407c4f735735828527d5b1f12e89d", "type": "electric_bike", "lon": -76.98520616666667, "rental_uris": {"android": "https://dc.lft.to/lastmile_qr_scan", "ios": "https://dc.lft.to/lastmile_qr_scan"}, "lat": 38.91991466666666, "is_reserved": 0, "is_disabled": 0, "fusion_lat": 0.0}, {"fusion_lon": 0.0, "bike_id": "7ea6ac8050241303d5a9ccb437605880", "name": "7ea6ac8050241303d5a9ccb437605880", "type": "electric_scooter", "lon": -77.03463816666667, "rental_uris": {"android": "https://dc.lft.to/lastmile_qr_scan", "ios": "https://dc.lft.to/lastmile_qr_scan"}, "lat": 38.91811416666667, "is_reserved": 0, "is_disabled": 0, "fusion_lat": 0.0}, {"fusion_lon": 0.0, "bike_id": "d7b7c7d8ad4d7fe9dea4b58d97ec0bca", "name": "d7b7c7d8ad4d7fe9dea4b58d97ec0bca", "type": "electric_scooter", "lon": -77.02223966666666, "rental_uris": {"android": "https://dc.lft.to/lastmile_qr_scan", "ios": "https://dc.lft.to/lastmile_qr_scan"}, "lat": 38.9126795, "is_reserved": 0, "is_disabled": 0, "fusion_lat": 0.0}, {"fusion_lon": 0.0, "bike_id": "0995e1e07a30d334911ad48df6003e48", "name": "0995e1e07a30d334911ad48df6003e48", "type": "electric_scooter", "lon": -77.01762333333333, "rental_uris": {"android": "https://dc.lft.to/lastmile_qr_scan", "ios": "https://dc.lft.to/lastmile_qr_scan"}, "lat": 38.90261516666666, "is_reserved": 0, "is_disabled": 0, "fusion_lat": 0.0}, {"fusion_lon": 0.0, "bike_id": "d1b0094a912cac6ad35c65a25e5e7abd", "name": "d1b0094a912cac6ad35c65a25e5e7abd", "type": "electric_scooter", "lon": -77.024173, "rental_uris": {"android": "https://dc.lft.to/lastmile_qr_scan", "ios": "https://dc.lft.to/lastmile_qr_scan"}, "lat": 38.91824233333333, "is_reserved": 0, "is_disabled": 0, "fusion_lat": 0.0}, {"fusion_lon": 0.0, "bike_id": "f503574187b890aec82d116176b9d685", "name": "f503574187b890aec82d116176b9d685", "type": "electric_scooter", "lon": -77.036391, "rental_uris": {"android": "https://dc.lft.to/lastmile_qr_scan", "ios": "https://dc.lft.to/lastmile_qr_scan"}, "lat": 38.9122475, "is_reserved": 0, "is_disabled": 0, "fusion_lat": 0.0}, {"fusion_lon": 0.0, "bike_id": "e633badbd87af9fbfac73a0bb52d29eb", "name": "e633badbd87af9fbfac73a0bb52d29eb", "type": "electric_scooter", "lon": -76.97819916666667, "rental_uris": {"android": "https://dc.lft.to/lastmile_qr_scan", "ios": "https://dc.lft.to/lastmile_qr_scan"}, "lat": 38.84610933333333, "is_reserved": 0, "is_disabled": 0, "fusion_lat": 0.0}, {"fusion_lon": 0.0, "bike_id": "923512564f71035bd81e79cef56fef26", "name": "923512564f71035bd81e79cef56fef26", "type": "electric_scooter", "lon": -77.0143695, "rental_uris": {"android": "https://dc.lft.to/lastmile_qr_scan", "ios": "https://dc.lft.to/lastmile_qr_scan"}, "lat": 38.919625833333335, "is_reserved": 0, "is_disabled": 0, "fusion_lat": 0.0}, {"fusion_lon": 0.0, "bike_id": "ad5de3180b27d607667ca6386e8acabd", "name": "ad5de3180b27d607667ca6386e8acabd", "type": "electric_bike", "lon": -76.87782416666667, "rental_uris": {"android": "https://dc.lft.to/lastmile_qr_scan", "ios": "https://dc.lft.to/lastmile_qr_scan"}, "lat": 38.9922605, "is_reserved": 0, "is_disabled": 0, "fusion_lat": 0.0}, {"fusion_lon": 0.0, "bike_id": "0366be70547bbf4ab4c64e6a8bab1833", "name": "0366be70547bbf4ab4c64e6a8bab1833", "type": "electric_bike", "lon": -76.96386566666666, "rental_uris": {"android": "https://dc.lft.to/lastmile_qr_scan", "ios": "https://dc.lft.to/lastmile_qr_scan"}, "lat": 38.9757715, "is_reserved": 0, "is_disabled": 0, "fusion_lat": 0.0}, {"fusion_lon": 0.0, "bike_id": "d8ed8689856241592ca94cecbac5e408", "name": "d8ed8689856241592ca94cecbac5e408", "type": "electric_scooter", "lon": -77.041823, "rental_uris": {"android": "https://dc.lft.to/lastmile_qr_scan", "ios": "https://dc.lft.to/lastmile_qr_scan"}, "lat": 38.92331633333333, "is_reserved": 0, "is_disabled": 0, "fusion_lat": 0.0}, {"fusion_lon": 0.0, "bike_id": "0526ef0a7ede44f5453d515613b0ac74", "name": "0526ef0a7ede44f5453d515613b0ac74", "type": "electric_scooter", "lon": -77.03824316666666, "rental_uris": {"android": "https://dc.lft.to/lastmile_qr_scan", "ios": "https://dc.lft.to/lastmile_qr_scan"}, "lat": 38.931310333333336, "is_reserved": 0, "is_disabled": 0, "fusion_lat": 0.0}, {"fusion_lon": 0.0, "bike_id": "4f9a7a8836120ec62099b45a810aba84", "name": "4f9a7a8836120ec62099b45a810aba84", "type": "electric_scooter", "lon": -77.07119666666667, "rental_uris": {"android": "https://dc.lft.to/lastmile_qr_scan", "ios": "https://dc.lft.to/lastmile_qr_scan"}, "lat": 38.91979033333333, "is_reserved": 0, "is_disabled": 0, "fusion_lat": 0.0}, {"fusion_lon": 0.0, "bike_id": "30258cc71496fa01a888432f6b1dfb1e", "name": "30258cc71496fa01a888432f6b1dfb1e", "type": "electric_bike", "lon": -77.02302366666666, "rental_uris": {"android": "https://dc.lft.to/lastmile_qr_scan", "ios": "https://dc.lft.to/lastmile_qr_scan"}, "lat": 38.96559166666667, "is_reserved": 0, "is_disabled": 0, "fusion_lat": 0.0}, {"fusion_lon": 0.0, "bike_id": "97f762a8e0a4bb91a2672be81b61bcde", "name": "97f762a8e0a4bb91a2672be81b61bcde", "type": "electric_scooter", "lon": -77.04876433333334, "rental_uris": {"android": "https://dc.lft.to/lastmile_qr_scan", "ios": "https://dc.lft.to/lastmile_qr_scan"}, "lat": 38.90360533333333, "is_reserved": 0, "is_disabled": 0, "fusion_lat": 0.0}, {"fusion_lon": 0.0, "bike_id": "7d5fcac7c20f6ce76c3cec00d83fa081", "name": "7d5fcac7c20f6ce76c3cec00d83fa081", "type": "electric_scooter", "lon": -76.94996283333333, "rental_uris": {"android": "https://dc.lft.to/lastmile_qr_scan", "ios": "https://dc.lft.to/lastmile_qr_scan"}, "lat": 38.89391466666667, "is_reserved": 0, "is_disabled": 0, "fusion_lat": 0.0}, {"fusion_lon": 0.0, "bike_id": "457965daf980f4cd5529d9c67b8d2aac", "name": "457965daf980f4cd5529d9c67b8d2aac", "type": "electric_bike", "lon": -77.12268383333334, "rental_uris": {"android": "https://dc.lft.to/lastmile_qr_scan", "ios": "https://dc.lft.to/lastmile_qr_scan"}, "lat": 38.897328333333334, "is_reserved": 0, "is_disabled": 0, "fusion_lat": 0.0}, {"fusion_lon": 0.0, "bike_id": "be48cac07b3556a7ecbc2e80e37b28fb", "name": "be48cac07b3556a7ecbc2e80e37b28fb", "type": "electric_scooter", "lon": -76.94246366666667, "rental_uris": {"android": "https://dc.lft.to/lastmile_qr_scan", "ios": "https://dc.lft.to/lastmile_qr_scan"}, "lat": 38.896785333333334, "is_reserved": 0, "is_disabled": 0, "fusion_lat": 0.0}, {"fusion_lon": 0.0, "bike_id": "ce18ca03179d58b56c98d55b7ccffa74", "name": "ce18ca03179d58b56c98d55b7ccffa74", "type": "electric_bike", "lon": -76.9165435, "rental_uris": {"android": "https://dc.lft.to/lastmile_qr_scan", "ios": "https://dc.lft.to/lastmile_qr_scan"}, "lat": 38.86856683333333, "is_reserved": 0, "is_disabled": 0, "fusion_lat": 0.0}, {"fusion_lon": 0.0, "bike_id": "17800d0ffbbb41e70efbf2b441816f94", "name": "17800d0ffbbb41e70efbf2b441816f94", "type": "electric_scooter", "lon": -77.002149, "rental_uris": {"android": "https://dc.lft.to/lastmile_qr_scan", "ios": "https://dc.lft.to/lastmile_qr_scan"}, "lat": 38.890874333333336, "is_reserved": 0, "is_disabled": 0, "fusion_lat": 0.0}, {"fusion_lon": 0.0, "bike_id": "ad126b3fb422a0b20468c97614e0c9a4", "name": "ad126b3fb422a0b20468c97614e0c9a4", "type": "electric_scooter", "lon": -77.02389233333334, "rental_uris": {"android": "https://dc.lft.to/lastmile_qr_scan", "ios": "https://dc.lft.to/lastmile_qr_scan"}, "lat": 38.915114833333334, "is_reserved": 0, "is_disabled": 0, "fusion_lat": 0.0}, {"fusion_lon": 0.0, "bike_id": "49cee5b036c8da25bbff1ed1233db040", "name": "49cee5b036c8da25bbff1ed1233db040", "type": "electric_scooter", "lon": -77.03993466666667, "rental_uris": {"android": "https://dc.lft.to/lastmile_qr_scan", "ios": "https://dc.lft.to/lastmile_qr_scan"}, "lat": 38.913285, "is_reserved": 0, "is_disabled": 0, "fusion_lat": 0.0}, {"fusion_lon": 0.0, "bike_id": "21866f789a8cd96fe6ff93683433b9ec", "name": "21866f789a8cd96fe6ff93683433b9ec", "type": "electric_scooter", "lon": -77.02561766666666, "rental_uris": {"android": "https://dc.lft.to/lastmile_qr_scan", "ios": "https://dc.lft.to/lastmile_qr_scan"}, "lat": 38.895189333333335, "is_reserved": 0, "is_disabled": 0, "fusion_lat": 0.0}, {"fusion_lon": 0.0, "bike_id": "406fd1f873ef4a310ce20eadc194eda4", "name": "406fd1f873ef4a310ce20eadc194eda4", "type": "electric_scooter", "lon": -77.02203783333333, "rental_uris": {"android": "https://dc.lft.to/lastmile_qr_scan", "ios": "https://dc.lft.to/lastmile_qr_scan"}, "lat": 38.90570983333333, "is_reserved": 0, "is_disabled": 0, "fusion_lat": 0.0}, {"fusion_lon": 0.0, "bike_id": "4f5c9de7560bdc1b83875cf40d423076", "name": "4f5c9de7560bdc1b83875cf40d423076", "type": "electric_scooter", "lon": -77.03249816666667, "rental_uris": {"android": "https://dc.lft.to/lastmile_qr_scan", "ios": "https://dc.lft.to/lastmile_qr_scan"}, "lat": 38.91565266666667, "is_reserved": 0, "is_disabled": 0, "fusion_lat": 0.0}, {"fusion_lon": 0.0, "bike_id": "8988da73e48a17b11951bfd66ca4817a", "name": "8988da73e48a17b11951bfd66ca4817a", "type": "electric_scooter", "lon": -77.0365615, "rental_uris": {"android": "https://dc.lft.to/lastmile_qr_scan", "ios": "https://dc.lft.to/lastmile_qr_scan"}, "lat": 38.92079366666667, "is_reserved": 0, "is_disabled": 0, "fusion_lat": 0.0}, {"fusion_lon": 0.0, "bike_id": "cdac6ca99a811efd1d9e565f63d1043c", "name": "cdac6ca99a811efd1d9e565f63d1043c", "type": "electric_bike", "lon": -77.12401766666666, "rental_uris": {"android": "https://dc.lft.to/lastmile_qr_scan", "ios": "https://dc.lft.to/lastmile_qr_scan"}, "lat": 38.893324, "is_reserved": 0, "is_disabled": 0, "fusion_lat": 0.0}, {"fusion_lon": 0.0, "bike_id": "e799f756628502a16f377d14ef7003b4", "name": "e799f756628502a16f377d14ef7003b4", "type": "electric_scooter", "lon": -77.02106883333333, "rental_uris": {"android": "https://dc.lft.to/lastmile_qr_scan", "ios": "https://dc.lft.to/lastmile_qr_scan"}, "lat": 38.940981, "is_reserved": 0, "is_disabled": 0, "fusion_lat": 0.0}, {"fusion_lon": 0.0, "bike_id": "9d037f79f57d1840695248d6beda93ba", "name": "9d037f79f57d1840695248d6beda93ba", "type": "electric_scooter", "lon": -76.96504816666666, "rental_uris": {"android": "https://dc.lft.to/lastmile_qr_scan", "ios": "https://dc.lft.to/lastmile_qr_scan"}, "lat": 38.8764695, "is_reserved": 0, "is_disabled": 0, "fusion_lat": 0.0}, {"fusion_lon": 0.0, "bike_id": "66a50e55216cf7e4ea89daa2f9fd44a2", "name": "66a50e55216cf7e4ea89daa2f9fd44a2", "type": "electric_scooter", "lon": -77.02141233333333, "rental_uris": {"android": "https://dc.lft.to/lastmile_qr_scan", "ios": "https://dc.lft.to/lastmile_qr_scan"}, "lat": 38.92919466666667, "is_reserved": 0, "is_disabled": 0, "fusion_lat": 0.0}, {"fusion_lon": 0.0, "bike_id": "c2e89f9930b71da68dca2731751bdb24", "name": "c2e89f9930b71da68dca2731751bdb24", "type": "electric_scooter", "lon": -77.03176166666667, "rental_uris": {"android": "https://dc.lft.to/lastmile_qr_scan", "ios": "https://dc.lft.to/lastmile_qr_scan"}, "lat": 38.907289166666665, "is_reserved": 0, "is_disabled": 0, "fusion_lat": 0.0}, {"fusion_lon": 0.0, "bike_id": "756834a6aa4369ebc7ceb8a5a225a12f", "name": "756834a6aa4369ebc7ceb8a5a225a12f", "type": "electric_scooter", "lon": -77.03996933333333, "rental_uris": {"android": "https://dc.lft.to/lastmile_qr_scan", "ios": "https://dc.lft.to/lastmile_qr_scan"}, "lat": 38.932548, "is_reserved": 0, "is_disabled": 0, "fusion_lat": 0.0}, {"fusion_lon": 0.0, "bike_id": "ce160fdf619c169caf57eed9990c7372", "name": "ce160fdf619c169caf57eed9990c7372", "type": "electric_scooter", "lon": -77.03283033333334, "rental_uris": {"android": "https://dc.lft.to/lastmile_qr_scan", "ios": "https://dc.lft.to/lastmile_qr_scan"}, "lat": 38.91708166666667, "is_reserved": 0, "is_disabled": 0, "fusion_lat": 0.0}, {"fusion_lon": 0.0, "bike_id": "c0f23ebb98eca3d3d65a1a1d54c0bf57", "name": "c0f23ebb98eca3d3d65a1a1d54c0bf57", "type": "electric_scooter", "lon": -76.9962915, "rental_uris": {"android": "https://dc.lft.to/lastmile_qr_scan", "ios": "https://dc.lft.to/lastmile_qr_scan"}, "lat": 38.84618483333333, "is_reserved": 0, "is_disabled": 0, "fusion_lat": 0.0}, {"fusion_lon": 0.0, "bike_id": "9d45f0f2486ce35dc7097c2c796da1b6", "name": "9d45f0f2486ce35dc7097c2c796da1b6", "type": "electric_scooter", "lon": -77.02853716666667, "rental_uris": {"android": "https://dc.lft.to/lastmile_qr_scan", "ios": "https://dc.lft.to/lastmile_qr_scan"}, "lat": 38.935840166666665, "is_reserved": 0, "is_disabled": 0, "fusion_lat": 0.0}, {"fusion_lon": 0.0, "bike_id": "562541da72c36159ba0bcf50d2e6f85c", "name": "562541da72c36159ba0bcf50d2e6f85c", "type": "electric_scooter", "lon": -77.00576, "rental_uris": {"android": "https://dc.lft.to/lastmile_qr_scan", "ios": "https://dc.lft.to/lastmile_qr_scan"}, "lat": 38.90536016666667, "is_reserved": 0, "is_disabled": 0, "fusion_lat": 0.0}, {"fusion_lon": 0.0, "bike_id": "618f2a10834a581ac4e489225e0d24e1", "name": "618f2a10834a581ac4e489225e0d24e1", "type": "electric_scooter", "lon": -77.05013816666667, "rental_uris": {"android": "https://dc.lft.to/lastmile_qr_scan", "ios": "https://dc.lft.to/lastmile_qr_scan"}, "lat": 38.895440666666666, "is_reserved": 0, "is_disabled": 0, "fusion_lat": 0.0}, {"fusion_lon": 0.0, "bike_id": "3f1b347b47bd07455e26e672227db53c", "name": "3f1b347b47bd07455e26e672227db53c", "type": "electric_scooter", "lon": -76.93742766666666, "rental_uris": {"android": "https://dc.lft.to/lastmile_qr_scan", "ios": "https://dc.lft.to/lastmile_qr_scan"}, "lat": 38.89003983333333, "is_reserved": 0, "is_disabled": 0, "fusion_lat": 0.0}, {"fusion_lon": 0.0, "bike_id": "a96e802cacfd6771bddabdc3b59926a5", "name": "a96e802cacfd6771bddabdc3b59926a5", "type": "electric_scooter", "lon": -77.01773733333333, "rental_uris": {"android": "https://dc.lft.to/lastmile_qr_scan", "ios": "https://dc.lft.to/lastmile_qr_scan"}, "lat": 38.9212605, "is_reserved": 0, "is_disabled": 0, "fusion_lat": 0.0}, {"fusion_lon": 0.0, "bike_id": "ed3eeb1ec8597281ee14aed86f3be551", "name": "ed3eeb1ec8597281ee14aed86f3be551", "type": "electric_scooter", "lon": -77.040707, "rental_uris": {"android": "https://dc.lft.to/lastmile_qr_scan", "ios": "https://dc.lft.to/lastmile_qr_scan"}, "lat": 38.896216, "is_reserved": 0, "is_disabled": 0, "fusion_lat": 0.0}, {"fusion_lon": 0.0, "bike_id": "4d070ea54f71a0c6901979f788251d59", "name": "4d070ea54f71a0c6901979f788251d59", "type": "electric_scooter", "lon": -77.03652116666666, "rental_uris": {"android": "https://dc.lft.to/lastmile_qr_scan", "ios": "https://dc.lft.to/lastmile_qr_scan"}, "lat": 38.921352, "is_reserved": 0, "is_disabled": 0, "fusion_lat": 0.0}, {"fusion_lon": 0.0, "bike_id": "26dda6fd5e1c33f37569858c32b2c5e5", "name": "26dda6fd5e1c33f37569858c32b2c5e5", "type": "electric_scooter", "lon": -76.94894333333333, "rental_uris": {"android": "https://dc.lft.to/lastmile_qr_scan", "ios": "https://dc.lft.to/lastmile_qr_scan"}, "lat": 38.895250833333336, "is_reserved": 0, "is_disabled": 0, "fusion_lat": 0.0}, {"fusion_lon": 0.0, "bike_id": "b96d104ab4a325efb48438bc0cf4bf28", "name": "b96d104ab4a325efb48438bc0cf4bf28", "type": "electric_scooter", "lon": -76.94781833333333, "rental_uris": {"android": "https://dc.lft.to/lastmile_qr_scan", "ios": "https://dc.lft.to/lastmile_qr_scan"}, "lat": 38.884630666666666, "is_reserved": 0, "is_disabled": 0, "fusion_lat": 0.0}, {"fusion_lon": 0.0, "bike_id": "a3b8ee739eb0b5461f9cc3093770f0e4", "name": "a3b8ee739eb0b5461f9cc3093770f0e4", "type": "electric_scooter", "lon": -77.06489216666667, "rental_uris": {"android": "https://dc.lft.to/lastmile_qr_scan", "ios": "https://dc.lft.to/lastmile_qr_scan"}, "lat": 38.964965666666664, "is_reserved": 0, "is_disabled": 0, "fusion_lat": 0.0}, {"fusion_lon": 0.0, "bike_id": "dc4483d999a018200dc4df680baae840", "name": "dc4483d999a018200dc4df680baae840", "type": "electric_scooter", "lon": -76.97382816666666, "rental_uris": {"android": "https://dc.lft.to/lastmile_qr_scan", "ios": "https://dc.lft.to/lastmile_qr_scan"}, "lat": 38.8838205, "is_reserved": 0, "is_disabled": 0, "fusion_lat": 0.0}, {"fusion_lon": 0.0, "bike_id": "fdec085b2f404932337e732aa07a6fcf", "name": "fdec085b2f404932337e732aa07a6fcf", "type": "electric_scooter", "lon": -77.00316083333334, "rental_uris": {"android": "https://dc.lft.to/lastmile_qr_scan", "ios": "https://dc.lft.to/lastmile_qr_scan"}, "lat": 38.840292833333336, "is_reserved": 0, "is_disabled": 0, "fusion_lat": 0.0}, {"fusion_lon": 0.0, "bike_id": "538f1f2054476dd50e29ddb65b0573ce", "name": "538f1f2054476dd50e29ddb65b0573ce", "type": "electric_scooter", "lon": -77.01027866666666, "rental_uris": {"android": "https://dc.lft.to/lastmile_qr_scan", "ios": "https://dc.lft.to/lastmile_qr_scan"}, "lat": 38.87141283333333, "is_reserved": 0, "is_disabled": 0, "fusion_lat": 0.0}, {"fusion_lon": 0.0, "bike_id": "f876dd449c33014758d45f942b33536f", "name": "f876dd449c33014758d45f942b33536f", "type": "electric_scooter", "lon": -77.005896, "rental_uris": {"android": "https://dc.lft.to/lastmile_qr_scan", "ios": "https://dc.lft.to/lastmile_qr_scan"}, "lat": 38.90566, "is_reserved": 0, "is_disabled": 0, "fusion_lat": 0.0}, {"fusion_lon": 0.0, "bike_id": "a72015a867271779410064a9705c3881", "name": "a72015a867271779410064a9705c3881", "type": "electric_scooter", "lon": -76.996083, "rental_uris": {"android": "https://dc.lft.to/lastmile_qr_scan", "ios": "https://dc.lft.to/lastmile_qr_scan"}, "lat": 38.9261715, "is_reserved": 0, "is_disabled": 0, "fusion_lat": 0.0}, {"fusion_lon": 0.0, "bike_id": "4da75001e63946aad9bd4dfbdc87a528", "name": "4da75001e63946aad9bd4dfbdc87a528", "type": "electric_scooter", "lon": -77.0246445, "rental_uris": {"android": "https://dc.lft.to/lastmile_qr_scan", "ios": "https://dc.lft.to/lastmile_qr_scan"}, "lat": 38.90846533333333, "is_reserved": 0, "is_disabled": 0, "fusion_lat": 0.0}, {"fusion_lon": 0.0, "bike_id": "888fa5a3c2bdd4df2e4f512c481251b8", "name": "888fa5a3c2bdd4df2e4f512c481251b8", "type": "electric_scooter", "lon": -76.98560183333333, "rental_uris": {"android": "https://dc.lft.to/lastmile_qr_scan", "ios": "https://dc.lft.to/lastmile_qr_scan"}, "lat": 38.89883866666667, "is_reserved": 0, "is_disabled": 0, "fusion_lat": 0.0}, {"fusion_lon": 0.0, "bike_id": "dea5a1de1aea02152c6f4729a6b5ace3", "name": "dea5a1de1aea02152c6f4729a6b5ace3", "type": "electric_bike", "lon": -77.06471233333333, "rental_uris": {"android": "https://dc.lft.to/lastmile_qr_scan", "ios": "https://dc.lft.to/lastmile_qr_scan"}, "lat": 38.9738175, "is_reserved": 0, "is_disabled": 0, "fusion_lat": 0.0}, {"fusion_lon": 0.0, "bike_id": "1e69cbfd53ab7426f585463cb253242d", "name": "1e69cbfd53ab7426f585463cb253242d", "type": "electric_scooter", "lon": -77.01052516666667, "rental_uris": {"android": "https://dc.lft.to/lastmile_qr_scan", "ios": "https://dc.lft.to/lastmile_qr_scan"}, "lat": 38.929896666666664, "is_reserved": 0, "is_disabled": 0, "fusion_lat": 0.0}, {"fusion_lon": 0.0, "bike_id": "fcbfd75850dd3987f35ac5edffecd502", "name": "fcbfd75850dd3987f35ac5edffecd502", "type": "electric_scooter", "lon": -77.03640566666667, "rental_uris": {"android": "https://dc.lft.to/lastmile_qr_scan", "ios": "https://dc.lft.to/lastmile_qr_scan"}, "lat": 38.9127145, "is_reserved": 0, "is_disabled": 0, "fusion_lat": 0.0}, {"fusion_lon": 0.0, "bike_id": "4b9e2bdf194ef36634bd979bd17a9de2", "name": "4b9e2bdf194ef36634bd979bd17a9de2", "type": "electric_bike", "lon": -77.00627916666667, "rental_uris": {"android": "https://dc.lft.to/lastmile_qr_scan", "ios": "https://dc.lft.to/lastmile_qr_scan"}, "lat": 38.98363583333333, "is_reserved": 0, "is_disabled": 0, "fusion_lat": 0.0}, {"fusion_lon": 0.0, "bike_id": "f5919ecb19824277485f018a1d5d2bdb", "name": "f5919ecb19824277485f018a1d5d2bdb", "type": "electric_scooter", "lon": -77.04125366666666, "rental_uris": {"android": "https://dc.lft.to/lastmile_qr_scan", "ios": "https://dc.lft.to/lastmile_qr_scan"}, "lat": 38.915605, "is_reserved": 0, "is_disabled": 0, "fusion_lat": 0.0}, {"fusion_lon": 0.0, "bike_id": "3c58a012e9cf9b28e2b56a3435afc79c", "name": "3c58a012e9cf9b28e2b56a3435afc79c", "type": "electric_scooter", "lon": -77.01653366666666, "rental_uris": {"android": "https://dc.lft.to/lastmile_qr_scan", "ios": "https://dc.lft.to/lastmile_qr_scan"}, "lat": 38.88744033333333, "is_reserved": 0, "is_disabled": 0, "fusion_lat": 0.0}, {"fusion_lon": 0.0, "bike_id": "323aa2a2ef95e13fcacb03b859aeb6ad", "name": "323aa2a2ef95e13fcacb03b859aeb6ad", "type": "electric_scooter", "lon": -77.0390265, "rental_uris": {"android": "https://dc.lft.to/lastmile_qr_scan", "ios": "https://dc.lft.to/lastmile_qr_scan"}, "lat": 38.914193166666664, "is_reserved": 0, "is_disabled": 0, "fusion_lat": 0.0}, {"fusion_lon": 0.0, "bike_id": "253d30385c98bf86229ad09ce597d27f", "name": "253d30385c98bf86229ad09ce597d27f", "type": "electric_scooter", "lon": -76.99055933333334, "rental_uris": {"android": "https://dc.lft.to/lastmile_qr_scan", "ios": "https://dc.lft.to/lastmile_qr_scan"}, "lat": 38.863644, "is_reserved": 0, "is_disabled": 0, "fusion_lat": 0.0}, {"fusion_lon": 0.0, "bike_id": "f585a3d862972da7181d9888dcc3c700", "name": "f585a3d862972da7181d9888dcc3c700", "type": "electric_scooter", "lon": -77.02960816666666, "rental_uris": {"android": "https://dc.lft.to/lastmile_qr_scan", "ios": "https://dc.lft.to/lastmile_qr_scan"}, "lat": 38.92144116666667, "is_reserved": 0, "is_disabled": 0, "fusion_lat": 0.0}, {"fusion_lon": 0.0, "bike_id": "7294bbce84002ef628818bc2b7e042a4", "name": "7294bbce84002ef628818bc2b7e042a4", "type": "electric_scooter", "lon": -77.04151866666666, "rental_uris": {"android": "https://dc.lft.to/lastmile_qr_scan", "ios": "https://dc.lft.to/lastmile_qr_scan"}, "lat": 38.91971766666666, "is_reserved": 0, "is_disabled": 0, "fusion_lat": 0.0}, {"fusion_lon": 0.0, "bike_id": "d8dc421a62706b1f85dbf4b807b3a0ec", "name": "d8dc421a62706b1f85dbf4b807b3a0ec", "type": "electric_scooter", "lon": -76.98563266666666, "rental_uris": {"android": "https://dc.lft.to/lastmile_qr_scan", "ios": "https://dc.lft.to/lastmile_qr_scan"}, "lat": 38.860586833333336, "is_reserved": 0, "is_disabled": 0, "fusion_lat": 0.0}, {"fusion_lon": 0.0, "bike_id": "1bf618a993892dafc70b984b47d3c195", "name": "1bf618a993892dafc70b984b47d3c195", "type": "electric_scooter", "lon": -77.03481083333334, "rental_uris": {"android": "https://dc.lft.to/lastmile_qr_scan", "ios": "https://dc.lft.to/lastmile_qr_scan"}, "lat": 38.911166333333334, "is_reserved": 0, "is_disabled": 0, "fusion_lat": 0.0}, {"fusion_lon": 0.0, "bike_id": "7285b844f4496855415ed2bcfa70fab1", "name": "7285b844f4496855415ed2bcfa70fab1", "type": "electric_scooter", "lon": -77.043351, "rental_uris": {"android": "https://dc.lft.to/lastmile_qr_scan", "ios": "https://dc.lft.to/lastmile_qr_scan"}, "lat": 38.91454233333333, "is_reserved": 0, "is_disabled": 0, "fusion_lat": 0.0}, {"fusion_lon": 0.0, "bike_id": "a6c05c634c1767bf181abe8fef5b1309", "name": "a6c05c634c1767bf181abe8fef5b1309", "type": "electric_scooter", "lon": -77.04822016666667, "rental_uris": {"android": "https://dc.lft.to/lastmile_qr_scan", "ios": "https://dc.lft.to/lastmile_qr_scan"}, "lat": 38.914893166666666, "is_reserved": 0, "is_disabled": 0, "fusion_lat": 0.0}, {"fusion_lon": 0.0, "bike_id": "72a034ace13286aa7b73a5b5cc799ac6", "name": "72a034ace13286aa7b73a5b5cc799ac6", "type": "electric_bike", "lon": -76.99084916666666, "rental_uris": {"android": "https://dc.lft.to/lastmile_qr_scan", "ios": "https://dc.lft.to/lastmile_qr_scan"}, "lat": 38.89802566666667, "is_reserved": 0, "is_disabled": 0, "fusion_lat": 0.0}, {"fusion_lon": 0.0, "bike_id": "64167ab15d274045d576d86ca42412ec", "name": "64167ab15d274045d576d86ca42412ec", "type": "electric_scooter", "lon": -77.02653433333333, "rental_uris": {"android": "https://dc.lft.to/lastmile_qr_scan", "ios": "https://dc.lft.to/lastmile_qr_scan"}, "lat": 38.90259916666667, "is_reserved": 0, "is_disabled": 0, "fusion_lat": 0.0}, {"fusion_lon": 0.0, "bike_id": "3412ebd82800e3900ba66ac1269a1b52", "name": "3412ebd82800e3900ba66ac1269a1b52", "type": "electric_scooter", "lon": -77.025956, "rental_uris": {"android": "https://dc.lft.to/lastmile_qr_scan", "ios": "https://dc.lft.to/lastmile_qr_scan"}, "lat": 38.900087666666664, "is_reserved": 0, "is_disabled": 0, "fusion_lat": 0.0}, {"fusion_lon": 0.0, "bike_id": "70ed8a098e46db99b40f32fb10658d0b", "name": "70ed8a098e46db99b40f32fb10658d0b", "type": "electric_scooter", "lon": -77.0308945, "rental_uris": {"android": "https://dc.lft.to/lastmile_qr_scan", "ios": "https://dc.lft.to/lastmile_qr_scan"}, "lat": 38.94679283333333, "is_reserved": 0, "is_disabled": 0, "fusion_lat": 0.0}, {"fusion_lon": 0.0, "bike_id": "e45002fc7915594db874ab757f248f05", "name": "e45002fc7915594db874ab757f248f05", "type": "electric_scooter", "lon": -77.00428116666667, "rental_uris": {"android": "https://dc.lft.to/lastmile_qr_scan", "ios": "https://dc.lft.to/lastmile_qr_scan"}, "lat": 38.91128166666667, "is_reserved": 0, "is_disabled": 0, "fusion_lat": 0.0}, {"fusion_lon": 0.0, "bike_id": "705fdf97aa770fb3d9d1074ef7a4f9bd", "name": "705fdf97aa770fb3d9d1074ef7a4f9bd", "type": "electric_scooter", "lon": -77.03520416666667, "rental_uris": {"android": "https://dc.lft.to/lastmile_qr_scan", "ios": "https://dc.lft.to/lastmile_qr_scan"}, "lat": 38.92732683333333, "is_reserved": 0, "is_disabled": 0, "fusion_lat": 0.0}, {"fusion_lon": 0.0, "bike_id": "b519f159f1c94383050d5e61a57f2030", "name": "b519f159f1c94383050d5e61a57f2030", "type": "electric_scooter", "lon": -77.01371283333333, "rental_uris": {"android": "https://dc.lft.to/lastmile_qr_scan", "ios": "https://dc.lft.to/lastmile_qr_scan"}, "lat": 38.88638383333333, "is_reserved": 0, "is_disabled": 0, "fusion_lat": 0.0}, {"fusion_lon": 0.0, "bike_id": "f3d65be043151317329880620677ac64", "name": "f3d65be043151317329880620677ac64", "type": "electric_scooter", "lon": -77.03411833333334, "rental_uris": {"android": "https://dc.lft.to/lastmile_qr_scan", "ios": "https://dc.lft.to/lastmile_qr_scan"}, "lat": 38.919235, "is_reserved": 0, "is_disabled": 0, "fusion_lat": 0.0}, {"fusion_lon": 0.0, "bike_id": "bda34d7b3d1f7db59fee2ccbe954e0d5", "name": "bda34d7b3d1f7db59fee2ccbe954e0d5", "type": "electric_bike", "lon": -77.14322983333334, "rental_uris": {"android": "https://dc.lft.to/lastmile_qr_scan", "ios": "https://dc.lft.to/lastmile_qr_scan"}, "lat": 39.054565, "is_reserved": 0, "is_disabled": 0, "fusion_lat": 0.0}, {"fusion_lon": 0.0, "bike_id": "3051fcd43bacf73edd62f846a16d4cf1", "name": "3051fcd43bacf73edd62f846a16d4cf1", "type": "electric_bike", "lon": -77.34409983333333, "rental_uris": {"android": "https://dc.lft.to/lastmile_qr_scan", "ios": "https://dc.lft.to/lastmile_qr_scan"}, "lat": 38.945896, "is_reserved": 0, "is_disabled": 0, "fusion_lat": 0.0}, {"fusion_lon": 0.0, "bike_id": "d272d9d0f7b4fecd197aec4230c3c771", "name": "d272d9d0f7b4fecd197aec4230c3c771", "type": "electric_scooter", "lon": -77.0284705, "rental_uris": {"android": "https://dc.lft.to/lastmile_qr_scan", "ios": "https://dc.lft.to/lastmile_qr_scan"}, "lat": 38.92380583333333, "is_reserved": 0, "is_disabled": 0, "fusion_lat": 0.0}, {"fusion_lon": 0.0, "bike_id": "97e5734a7e7f3613f13df91cee0bbb4c", "name": "97e5734a7e7f3613f13df91cee0bbb4c", "type": "electric_scooter", "lon": -77.00602866666667, "rental_uris": {"android": "https://dc.lft.to/lastmile_qr_scan", "ios": "https://dc.lft.to/lastmile_qr_scan"}, "lat": 38.911165833333335, "is_reserved": 0, "is_disabled": 0, "fusion_lat": 0.0}, {"fusion_lon": 0.0, "bike_id": "d02c2239f10d7d73cc0bdd0b0e61c46d", "name": "d02c2239f10d7d73cc0bdd0b0e61c46d", "type": "electric_scooter", "lon": -77.03777016666666, "rental_uris": {"android": "https://dc.lft.to/lastmile_qr_scan", "ios": "https://dc.lft.to/lastmile_qr_scan"}, "lat": 38.9359595, "is_reserved": 0, "is_disabled": 0, "fusion_lat": 0.0}, {"fusion_lon": 0.0, "bike_id": "877efe5822f94bf620693285e8fcf854", "name": "877efe5822f94bf620693285e8fcf854", "type": "electric_scooter", "lon": -77.00186883333333, "rental_uris": {"android": "https://dc.lft.to/lastmile_qr_scan", "ios": "https://dc.lft.to/lastmile_qr_scan"}, "lat": 38.90040233333333, "is_reserved": 0, "is_disabled": 0, "fusion_lat": 0.0}, {"fusion_lon": 0.0, "bike_id": "4f3021470253d8e55031b509b4ff9b2f", "name": "4f3021470253d8e55031b509b4ff9b2f", "type": "electric_scooter", "lon": -76.98882716666667, "rental_uris": {"android": "https://dc.lft.to/lastmile_qr_scan", "ios": "https://dc.lft.to/lastmile_qr_scan"}, "lat": 38.8667295, "is_reserved": 0, "is_disabled": 0, "fusion_lat": 0.0}, {"fusion_lon": 0.0, "bike_id": "ce3b75a9f023791e37038c284ac640b2", "name": "ce3b75a9f023791e37038c284ac640b2", "type": "electric_scooter", "lon": -76.94852983333334, "rental_uris": {"android": "https://dc.lft.to/lastmile_qr_scan", "ios": "https://dc.lft.to/lastmile_qr_scan"}, "lat": 38.8829995, "is_reserved": 0, "is_disabled": 0, "fusion_lat": 0.0}, {"fusion_lon": 0.0, "bike_id": "29ea05fb47d636b41eaa28613dd5c8b0", "name": "29ea05fb47d636b41eaa28613dd5c8b0", "type": "electric_scooter", "lon": -76.99028983333334, "rental_uris": {"android": "https://dc.lft.to/lastmile_qr_scan", "ios": "https://dc.lft.to/lastmile_qr_scan"}, "lat": 38.86071316666666, "is_reserved": 0, "is_disabled": 0, "fusion_lat": 0.0}, {"fusion_lon": 0.0, "bike_id": "e8758a6ff524310c902ba0ec471d2bcd", "name": "e8758a6ff524310c902ba0ec471d2bcd", "type": "electric_scooter", "lon": -77.017677, "rental_uris": {"android": "https://dc.lft.to/lastmile_qr_scan", "ios": "https://dc.lft.to/lastmile_qr_scan"}, "lat": 38.90256566666667, "is_reserved": 0, "is_disabled": 0, "fusion_lat": 0.0}, {"fusion_lon": 0.0, "bike_id": "9ead6c19b0d854d84bc5c7cbf428a24d", "name": "9ead6c19b0d854d84bc5c7cbf428a24d", "type": "electric_scooter", "lon": -77.06188683333333, "rental_uris": {"android": "https://dc.lft.to/lastmile_qr_scan", "ios": "https://dc.lft.to/lastmile_qr_scan"}, "lat": 38.930171333333334, "is_reserved": 0, "is_disabled": 0, "fusion_lat": 0.0}, {"fusion_lon": 0.0, "bike_id": "af045b848549815a894f084aead5ffd3", "name": "af045b848549815a894f084aead5ffd3", "type": "electric_bike", "lon": -77.01561733333334, "rental_uris": {"android": "https://dc.lft.to/lastmile_qr_scan", "ios": "https://dc.lft.to/lastmile_qr_scan"}, "lat": 38.95014, "is_reserved": 0, "is_disabled": 0, "fusion_lat": 0.0}, {"fusion_lon": 0.0, "bike_id": "c55773650a024b4039862344b2a5c654", "name": "c55773650a024b4039862344b2a5c654", "type": "electric_scooter", "lon": -77.05752150000001, "rental_uris": {"android": "https://dc.lft.to/lastmile_qr_scan", "ios": "https://dc.lft.to/lastmile_qr_scan"}, "lat": 38.92505516666667, "is_reserved": 0, "is_disabled": 0, "fusion_lat": 0.0}, {"fusion_lon": 0.0, "bike_id": "cae753cf8e256cf883bd0a857b8eb520", "name": "cae753cf8e256cf883bd0a857b8eb520", "type": "electric_scooter", "lon": -77.06924733333334, "rental_uris": {"android": "https://dc.lft.to/lastmile_qr_scan", "ios": "https://dc.lft.to/lastmile_qr_scan"}, "lat": 38.91333366666667, "is_reserved": 0, "is_disabled": 0, "fusion_lat": 0.0}, {"fusion_lon": 0.0, "bike_id": "495c3da59ffee84126c6346a1bd0bc3d", "name": "495c3da59ffee84126c6346a1bd0bc3d", "type": "electric_scooter", "lon": -77.0137305, "rental_uris": {"android": "https://dc.lft.to/lastmile_qr_scan", "ios": "https://dc.lft.to/lastmile_qr_scan"}, "lat": 38.8922065, "is_reserved": 0, "is_disabled": 0, "fusion_lat": 0.0}, {"fusion_lon": 0.0, "bike_id": "fcda23835dcc385062a7f8df365165d9", "name": "fcda23835dcc385062a7f8df365165d9", "type": "electric_scooter", "lon": -77.0487025, "rental_uris": {"android": "https://dc.lft.to/lastmile_qr_scan", "ios": "https://dc.lft.to/lastmile_qr_scan"}, "lat": 38.9090645, "is_reserved": 0, "is_disabled": 0, "fusion_lat": 0.0}, {"fusion_lon": 0.0, "bike_id": "ff5ea8fe56d77991ed6dbc5c0c2b095f", "name": "ff5ea8fe56d77991ed6dbc5c0c2b095f", "type": "electric_scooter", "lon": -77.0024715, "rental_uris": {"android": "https://dc.lft.to/lastmile_qr_scan", "ios": "https://dc.lft.to/lastmile_qr_scan"}, "lat": 38.911182833333335, "is_reserved": 0, "is_disabled": 0, "fusion_lat": 0.0}, {"fusion_lon": 0.0, "bike_id": "d572f5d4aec1dca11343c5c44048b2b9", "name": "d572f5d4aec1dca11343c5c44048b2b9", "type": "electric_scooter", "lon": -77.03460316666667, "rental_uris": {"android": "https://dc.lft.to/lastmile_qr_scan", "ios": "https://dc.lft.to/lastmile_qr_scan"}, "lat": 38.91814516666667, "is_reserved": 0, "is_disabled": 0, "fusion_lat": 0.0}, {"fusion_lon": 0.0, "bike_id": "088c2346f07d0f3e9ddfcd93a8bb49b9", "name": "088c2346f07d0f3e9ddfcd93a8bb49b9", "type": "electric_scooter", "lon": -77.018849, "rental_uris": {"android": "https://dc.lft.to/lastmile_qr_scan", "ios": "https://dc.lft.to/lastmile_qr_scan"}, "lat": 38.90039983333333, "is_reserved": 0, "is_disabled": 0, "fusion_lat": 0.0}, {"fusion_lon": 0.0, "bike_id": "4a56c933056ef6fcdb6bb71bd78d0431", "name": "4a56c933056ef6fcdb6bb71bd78d0431", "type": "electric_scooter", "lon": -77.01364633333333, "rental_uris": {"android": "https://dc.lft.to/lastmile_qr_scan", "ios": "https://dc.lft.to/lastmile_qr_scan"}, "lat": 38.88636916666667, "is_reserved": 0, "is_disabled": 0, "fusion_lat": 0.0}, {"fusion_lon": 0.0, "bike_id": "b176d6160ed61d78e34c8492a2aa00e3", "name": "b176d6160ed61d78e34c8492a2aa00e3", "type": "electric_scooter", "lon": -77.03839983333333, "rental_uris": {"android": "https://dc.lft.to/lastmile_qr_scan", "ios": "https://dc.lft.to/lastmile_qr_scan"}, "lat": 38.912117, "is_reserved": 0, "is_disabled": 0, "fusion_lat": 0.0}, {"fusion_lon": 0.0, "bike_id": "89990c4a01bad10793c78bb5a08a4456", "name": "89990c4a01bad10793c78bb5a08a4456", "type": "electric_scooter", "lon": -77.03834516666667, "rental_uris": {"android": "https://dc.lft.to/lastmile_qr_scan", "ios": "https://dc.lft.to/lastmile_qr_scan"}, "lat": 38.90974033333333, "is_reserved": 0, "is_disabled": 0, "fusion_lat": 0.0}, {"fusion_lon": 0.0, "bike_id": "b9fb8e879c2c69e198e79d91b6e0df18", "name": "b9fb8e879c2c69e198e79d91b6e0df18", "type": "electric_bike", "lon": -76.90533466666666, "rental_uris": {"android": "https://dc.lft.to/lastmile_qr_scan", "ios": "https://dc.lft.to/lastmile_qr_scan"}, "lat": 38.89735016666667, "is_reserved": 0, "is_disabled": 0, "fusion_lat": 0.0}, {"fusion_lon": 0.0, "bike_id": "b65c1c86e6b7510e435affa99ba9b055", "name": "b65c1c86e6b7510e435affa99ba9b055", "type": "electric_scooter", "lon": -77.03182, "rental_uris": {"android": "https://dc.lft.to/lastmile_qr_scan", "ios": "https://dc.lft.to/lastmile_qr_scan"}, "lat": 38.913514, "is_reserved": 0, "is_disabled": 0, "fusion_lat": 0.0}, {"fusion_lon": 0.0, "bike_id": "5befa2ff0bbe56a68286ee33bf52f0da", "name": "5befa2ff0bbe56a68286ee33bf52f0da", "type": "electric_scooter", "lon": -77.01659633333334, "rental_uris": {"android": "https://dc.lft.to/lastmile_qr_scan", "ios": "https://dc.lft.to/lastmile_qr_scan"}, "lat": 38.90146266666667, "is_reserved": 0, "is_disabled": 0, "fusion_lat": 0.0}, {"fusion_lon": 0.0, "bike_id": "4d34dc8ef886b131d965f6186abfae57", "name": "4d34dc8ef886b131d965f6186abfae57", "type": "electric_scooter", "lon": -77.01365933333334, "rental_uris": {"android": "https://dc.lft.to/lastmile_qr_scan", "ios": "https://dc.lft.to/lastmile_qr_scan"}, "lat": 38.9288355, "is_reserved": 0, "is_disabled": 0, "fusion_lat": 0.0}, {"fusion_lon": 0.0, "bike_id": "eaf79c4c891628c164b1c9d2148976d1", "name": "eaf79c4c891628c164b1c9d2148976d1", "type": "electric_scooter", "lon": -77.02839083333333, "rental_uris": {"android": "https://dc.lft.to/lastmile_qr_scan", "ios": "https://dc.lft.to/lastmile_qr_scan"}, "lat": 38.932536, "is_reserved": 0, "is_disabled": 0, "fusion_lat": 0.0}, {"fusion_lon": 0.0, "bike_id": "88aa7dff8fe4a2161f2277aa2f5f4807", "name": "88aa7dff8fe4a2161f2277aa2f5f4807", "type": "electric_bike", "lon": -77.08043116666667, "rental_uris": {"android": "https://dc.lft.to/lastmile_qr_scan", "ios": "https://dc.lft.to/lastmile_qr_scan"}, "lat": 38.848424, "is_reserved": 0, "is_disabled": 0, "fusion_lat": 0.0}, {"fusion_lon": 0.0, "bike_id": "6f71d02981f489a573149d664a1641c3", "name": "6f71d02981f489a573149d664a1641c3", "type": "electric_scooter", "lon": -77.03656983333333, "rental_uris": {"android": "https://dc.lft.to/lastmile_qr_scan", "ios": "https://dc.lft.to/lastmile_qr_scan"}, "lat": 38.922853333333336, "is_reserved": 0, "is_disabled": 0, "fusion_lat": 0.0}, {"fusion_lon": 0.0, "bike_id": "171c195ff9e82048e61a5002b7bafd4f", "name": "171c195ff9e82048e61a5002b7bafd4f", "type": "electric_scooter", "lon": -77.02214866666667, "rental_uris": {"android": "https://dc.lft.to/lastmile_qr_scan", "ios": "https://dc.lft.to/lastmile_qr_scan"}, "lat": 38.914136, "is_reserved": 0, "is_disabled": 0, "fusion_lat": 0.0}, {"fusion_lon": 0.0, "bike_id": "af21c48d63e4a0b3efd0535c961642fb", "name": "af21c48d63e4a0b3efd0535c961642fb", "type": "electric_scooter", "lon": -76.98880316666667, "rental_uris": {"android": "https://dc.lft.to/lastmile_qr_scan", "ios": "https://dc.lft.to/lastmile_qr_scan"}, "lat": 38.906285833333335, "is_reserved": 0, "is_disabled": 0, "fusion_lat": 0.0}, {"fusion_lon": 0.0, "bike_id": "4dcc6c1b85d4ac164dd0ec688dda5ff1", "name": "4dcc6c1b85d4ac164dd0ec688dda5ff1", "type": "electric_scooter", "lon": -77.01202683333334, "rental_uris": {"android": "https://dc.lft.to/lastmile_qr_scan", "ios": "https://dc.lft.to/lastmile_qr_scan"}, "lat": 38.919755333333335, "is_reserved": 0, "is_disabled": 0, "fusion_lat": 0.0}, {"fusion_lon": 0.0, "bike_id": "5894a0effbaf71b171c1e18310922d22", "name": "5894a0effbaf71b171c1e18310922d22", "type": "electric_scooter", "lon": -77.04665, "rental_uris": {"android": "https://dc.lft.to/lastmile_qr_scan", "ios": "https://dc.lft.to/lastmile_qr_scan"}, "lat": 38.913193166666666, "is_reserved": 0, "is_disabled": 0, "fusion_lat": 0.0}, {"fusion_lon": 0.0, "bike_id": "1b2b0605350c2caf07326eb0c15cbebd", "name": "1b2b0605350c2caf07326eb0c15cbebd", "type": "electric_scooter", "lon": -77.0465075, "rental_uris": {"android": "https://dc.lft.to/lastmile_qr_scan", "ios": "https://dc.lft.to/lastmile_qr_scan"}, "lat": 38.893405333333334, "is_reserved": 0, "is_disabled": 0, "fusion_lat": 0.0}, {"fusion_lon": 0.0, "bike_id": "cff624fdf18e796d5f250a5291b7d0a9", "name": "cff624fdf18e796d5f250a5291b7d0a9", "type": "electric_scooter", "lon": -77.04376366666666, "rental_uris": {"android": "https://dc.lft.to/lastmile_qr_scan", "ios": "https://dc.lft.to/lastmile_qr_scan"}, "lat": 38.9257295, "is_reserved": 0, "is_disabled": 0, "fusion_lat": 0.0}, {"fusion_lon": 0.0, "bike_id": "9fcf78eac3eccafef0fd4649467931fd", "name": "9fcf78eac3eccafef0fd4649467931fd", "type": "electric_bike", "lon": -76.98089966666667, "rental_uris": {"android": "https://dc.lft.to/lastmile_qr_scan", "ios": "https://dc.lft.to/lastmile_qr_scan"}, "lat": 38.953588, "is_reserved": 0, "is_disabled": 0, "fusion_lat": 0.0}, {"fusion_lon": 0.0, "bike_id": "bf688a2e30d85e5aa4e9bc91cbc8da22", "name": "bf688a2e30d85e5aa4e9bc91cbc8da22", "type": "electric_scooter", "lon": -76.9575795, "rental_uris": {"android": "https://dc.lft.to/lastmile_qr_scan", "ios": "https://dc.lft.to/lastmile_qr_scan"}, "lat": 38.88431716666667, "is_reserved": 0, "is_disabled": 0, "fusion_lat": 0.0}, {"fusion_lon": 0.0, "bike_id": "22981582a77a326053f6df82695ff18a", "name": "22981582a77a326053f6df82695ff18a", "type": "electric_scooter", "lon": -77.01161166666667, "rental_uris": {"android": "https://dc.lft.to/lastmile_qr_scan", "ios": "https://dc.lft.to/lastmile_qr_scan"}, "lat": 38.87195633333333, "is_reserved": 0, "is_disabled": 0, "fusion_lat": 0.0}, {"fusion_lon": 0.0, "bike_id": "faa475332b5b5a6cf87efd8e48622f8f", "name": "faa475332b5b5a6cf87efd8e48622f8f", "type": "electric_bike", "lon": -77.0120345, "rental_uris": {"android": "https://dc.lft.to/lastmile_qr_scan", "ios": "https://dc.lft.to/lastmile_qr_scan"}, "lat": 38.870950666666666, "is_reserved": 0, "is_disabled": 0, "fusion_lat": 0.0}, {"fusion_lon": 0.0, "bike_id": "85b22e7cf20962e3f815729ff30b6479", "name": "85b22e7cf20962e3f815729ff30b6479", "type": "electric_scooter", "lon": -77.04518716666666, "rental_uris": {"android": "https://dc.lft.to/lastmile_qr_scan", "ios": "https://dc.lft.to/lastmile_qr_scan"}, "lat": 38.918228666666664, "is_reserved": 0, "is_disabled": 0, "fusion_lat": 0.0}, {"fusion_lon": 0.0, "bike_id": "0ae22d59ce5fa7cc63f4a2b72028ceac", "name": "0ae22d59ce5fa7cc63f4a2b72028ceac", "type": "electric_scooter", "lon": -77.02035783333334, "rental_uris": {"android": "https://dc.lft.to/lastmile_qr_scan", "ios": "https://dc.lft.to/lastmile_qr_scan"}, "lat": 38.911069166666664, "is_reserved": 0, "is_disabled": 0, "fusion_lat": 0.0}, {"fusion_lon": 0.0, "bike_id": "812a480388e65d27efb14e42ce95fa6b", "name": "812a480388e65d27efb14e42ce95fa6b", "type": "electric_scooter", "lon": -76.986986, "rental_uris": {"android": "https://dc.lft.to/lastmile_qr_scan", "ios": "https://dc.lft.to/lastmile_qr_scan"}, "lat": 38.901262, "is_reserved": 0, "is_disabled": 0, "fusion_lat": 0.0}, {"fusion_lon": 0.0, "bike_id": "429bde3ce0ff7dda4fef18a6a9122ff3", "name": "429bde3ce0ff7dda4fef18a6a9122ff3", "type": "electric_scooter", "lon": -77.03638316666667, "rental_uris": {"android": "https://dc.lft.to/lastmile_qr_scan", "ios": "https://dc.lft.to/lastmile_qr_scan"}, "lat": 38.9241125, "is_reserved": 0, "is_disabled": 0, "fusion_lat": 0.0}, {"fusion_lon": 0.0, "bike_id": "00691149abb2a185b344954c3a59a55d", "name": "00691149abb2a185b344954c3a59a55d", "type": "electric_bike", "lon": -76.96681583333333, "rental_uris": {"android": "https://dc.lft.to/lastmile_qr_scan", "ios": "https://dc.lft.to/lastmile_qr_scan"}, "lat": 38.95888516666667, "is_reserved": 0, "is_disabled": 0, "fusion_lat": 0.0}, {"fusion_lon": 0.0, "bike_id": "348adf5f990f2cd49ecdd54d4a842f7a", "name": "348adf5f990f2cd49ecdd54d4a842f7a", "type": "electric_scooter", "lon": -77.05186083333334, "rental_uris": {"android": "https://dc.lft.to/lastmile_qr_scan", "ios": "https://dc.lft.to/lastmile_qr_scan"}, "lat": 38.92544633333333, "is_reserved": 0, "is_disabled": 0, "fusion_lat": 0.0}, {"fusion_lon": 0.0, "bike_id": "f3e3bf9eee07a59a80bde5d902c9a0a9", "name": "f3e3bf9eee07a59a80bde5d902c9a0a9", "type": "electric_scooter", "lon": -76.9981745, "rental_uris": {"android": "https://dc.lft.to/lastmile_qr_scan", "ios": "https://dc.lft.to/lastmile_qr_scan"}, "lat": 38.844334833333335, "is_reserved": 0, "is_disabled": 0, "fusion_lat": 0.0}, {"fusion_lon": 0.0, "bike_id": "8d9d845aba171ba6ebb034a4f087ad59", "name": "8d9d845aba171ba6ebb034a4f087ad59", "type": "electric_scooter", "lon": -76.98777033333333, "rental_uris": {"android": "https://dc.lft.to/lastmile_qr_scan", "ios": "https://dc.lft.to/lastmile_qr_scan"}, "lat": 38.898232666666665, "is_reserved": 0, "is_disabled": 0, "fusion_lat": 0.0}, {"fusion_lon": 0.0, "bike_id": "ee06e4718b2e85c5271c3743bc516902", "name": "ee06e4718b2e85c5271c3743bc516902", "type": "electric_bike", "lon": -76.95202266666666, "rental_uris": {"android": "https://dc.lft.to/lastmile_qr_scan", "ios": "https://dc.lft.to/lastmile_qr_scan"}, "lat": 38.93664233333333, "is_reserved": 0, "is_disabled": 0, "fusion_lat": 0.0}, {"fusion_lon": 0.0, "bike_id": "0c6e78684c5432ddbdb96184b06048ac", "name": "0c6e78684c5432ddbdb96184b06048ac", "type": "electric_bike", "lon": -77.01447933333333, "rental_uris": {"android": "https://dc.lft.to/lastmile_qr_scan", "ios": "https://dc.lft.to/lastmile_qr_scan"}, "lat": 38.876761, "is_reserved": 0, "is_disabled": 0, "fusion_lat": 0.0}, {"fusion_lon": 0.0, "bike_id": "de9f396dc41b420e700dd902d2d31f9c", "name": "de9f396dc41b420e700dd902d2d31f9c", "type": "electric_scooter", "lon": -77.02346816666666, "rental_uris": {"android": "https://dc.lft.to/lastmile_qr_scan", "ios": "https://dc.lft.to/lastmile_qr_scan"}, "lat": 38.92262766666666, "is_reserved": 0, "is_disabled": 0, "fusion_lat": 0.0}, {"fusion_lon": 0.0, "bike_id": "a9d7ea38f75c6bb95e8f640a878db830", "name": "a9d7ea38f75c6bb95e8f640a878db830", "type": "electric_scooter", "lon": -77.0318975, "rental_uris": {"android": "https://dc.lft.to/lastmile_qr_scan", "ios": "https://dc.lft.to/lastmile_qr_scan"}, "lat": 38.92060016666667, "is_reserved": 0, "is_disabled": 0, "fusion_lat": 0.0}, {"fusion_lon": 0.0, "bike_id": "c8ea2f8585379f69f15994a23f47a637", "name": "c8ea2f8585379f69f15994a23f47a637", "type": "electric_scooter", "lon": -77.02503316666666, "rental_uris": {"android": "https://dc.lft.to/lastmile_qr_scan", "ios": "https://dc.lft.to/lastmile_qr_scan"}, "lat": 38.9205855, "is_reserved": 0, "is_disabled": 0, "fusion_lat": 0.0}, {"fusion_lon": 0.0, "bike_id": "fd3ddcb867c3e430bc2c39d6fc869c5c", "name": "fd3ddcb867c3e430bc2c39d6fc869c5c", "type": "electric_scooter", "lon": -77.02960683333333, "rental_uris": {"android": "https://dc.lft.to/lastmile_qr_scan", "ios": "https://dc.lft.to/lastmile_qr_scan"}, "lat": 38.92842316666667, "is_reserved": 0, "is_disabled": 0, "fusion_lat": 0.0}, {"fusion_lon": 0.0, "bike_id": "caefbe2174c2d66866da00251d292384", "name": "caefbe2174c2d66866da00251d292384", "type": "electric_scooter", "lon": -77.04350783333334, "rental_uris": {"android": "https://dc.lft.to/lastmile_qr_scan", "ios": "https://dc.lft.to/lastmile_qr_scan"}, "lat": 38.89832066666666, "is_reserved": 0, "is_disabled": 0, "fusion_lat": 0.0}, {"fusion_lon": 0.0, "bike_id": "c31c136e92b41e5dfc88325c35d1b60d", "name": "c31c136e92b41e5dfc88325c35d1b60d", "type": "electric_scooter", "lon": -77.01019483333333, "rental_uris": {"android": "https://dc.lft.to/lastmile_qr_scan", "ios": "https://dc.lft.to/lastmile_qr_scan"}, "lat": 38.90628566666667, "is_reserved": 0, "is_disabled": 0, "fusion_lat": 0.0}, {"fusion_lon": 0.0, "bike_id": "33e700ac88ea314a31169dad54eec1b6", "name": "33e700ac88ea314a31169dad54eec1b6", "type": "electric_scooter", "lon": -77.02458666666666, "rental_uris": {"android": "https://dc.lft.to/lastmile_qr_scan", "ios": "https://dc.lft.to/lastmile_qr_scan"}, "lat": 38.938352, "is_reserved": 0, "is_disabled": 0, "fusion_lat": 0.0}, {"fusion_lon": 0.0, "bike_id": "4f59b4ddf5c519545eb0d3eec69e93fb", "name": "4f59b4ddf5c519545eb0d3eec69e93fb", "type": "electric_scooter", "lon": -77.0448675, "rental_uris": {"android": "https://dc.lft.to/lastmile_qr_scan", "ios": "https://dc.lft.to/lastmile_qr_scan"}, "lat": 38.91872716666666, "is_reserved": 0, "is_disabled": 0, "fusion_lat": 0.0}, {"fusion_lon": 0.0, "bike_id": "25762ac1f47b29cf1ee025d639d5a3ca", "name": "25762ac1f47b29cf1ee025d639d5a3ca", "type": "electric_scooter", "lon": -77.04648166666666, "rental_uris": {"android": "https://dc.lft.to/lastmile_qr_scan", "ios": "https://dc.lft.to/lastmile_qr_scan"}, "lat": 38.90319066666667, "is_reserved": 0, "is_disabled": 0, "fusion_lat": 0.0}, {"fusion_lon": 0.0, "bike_id": "3bdb1d8672664542f2f12a038ea1afc9", "name": "3bdb1d8672664542f2f12a038ea1afc9", "type": "electric_bike", "lon": -77.08804266666667, "rental_uris": {"android": "https://dc.lft.to/lastmile_qr_scan", "ios": "https://dc.lft.to/lastmile_qr_scan"}, "lat": 38.831715, "is_reserved": 0, "is_disabled": 0, "fusion_lat": 0.0}, {"fusion_lon": 0.0, "bike_id": "e3afcc95bbcbf9376f4ad92f4e10165b", "name": "e3afcc95bbcbf9376f4ad92f4e10165b", "type": "electric_scooter", "lon": -76.98726283333333, "rental_uris": {"android": "https://dc.lft.to/lastmile_qr_scan", "ios": "https://dc.lft.to/lastmile_qr_scan"}, "lat": 38.86708983333333, "is_reserved": 0, "is_disabled": 0, "fusion_lat": 0.0}, {"fusion_lon": 0.0, "bike_id": "d40f39e3f7fce9a5ab5b7201865ca217", "name": "d40f39e3f7fce9a5ab5b7201865ca217", "type": "electric_scooter", "lon": -77.04625416666667, "rental_uris": {"android": "https://dc.lft.to/lastmile_qr_scan", "ios": "https://dc.lft.to/lastmile_qr_scan"}, "lat": 38.9180635, "is_reserved": 0, "is_disabled": 0, "fusion_lat": 0.0}, {"fusion_lon": 0.0, "bike_id": "26a2e906797deddd6e8310f2f0472011", "name": "26a2e906797deddd6e8310f2f0472011", "type": "electric_scooter", "lon": -77.02404433333334, "rental_uris": {"android": "https://dc.lft.to/lastmile_qr_scan", "ios": "https://dc.lft.to/lastmile_qr_scan"}, "lat": 38.934932, "is_reserved": 0, "is_disabled": 0, "fusion_lat": 0.0}, {"fusion_lon": 0.0, "bike_id": "1f9cbfbdbbe7aee32720f29aba760853", "name": "1f9cbfbdbbe7aee32720f29aba760853", "type": "electric_scooter", "lon": -77.02756316666667, "rental_uris": {"android": "https://dc.lft.to/lastmile_qr_scan", "ios": "https://dc.lft.to/lastmile_qr_scan"}, "lat": 38.954141, "is_reserved": 0, "is_disabled": 0, "fusion_lat": 0.0}, {"fusion_lon": 0.0, "bike_id": "44d6bbcbc6664d9164fe9fafda6c2d9e", "name": "44d6bbcbc6664d9164fe9fafda6c2d9e", "type": "electric_scooter", "lon": -77.03182683333333, "rental_uris": {"android": "https://dc.lft.to/lastmile_qr_scan", "ios": "https://dc.lft.to/lastmile_qr_scan"}, "lat": 38.89227566666667, "is_reserved": 0, "is_disabled": 0, "fusion_lat": 0.0}, {"fusion_lon": 0.0, "bike_id": "4bf9c89a4d40994ef8a9e5c4c37b19c7", "name": "4bf9c89a4d40994ef8a9e5c4c37b19c7", "type": "electric_scooter", "lon": -77.04652433333334, "rental_uris": {"android": "https://dc.lft.to/lastmile_qr_scan", "ios": "https://dc.lft.to/lastmile_qr_scan"}, "lat": 38.903714, "is_reserved": 0, "is_disabled": 0, "fusion_lat": 0.0}, {"fusion_lon": 0.0, "bike_id": "264ad3e4e8505444e2824fb7a6a233b3", "name": "264ad3e4e8505444e2824fb7a6a233b3", "type": "electric_scooter", "lon": -77.025033, "rental_uris": {"android": "https://dc.lft.to/lastmile_qr_scan", "ios": "https://dc.lft.to/lastmile_qr_scan"}, "lat": 38.92091383333333, "is_reserved": 0, "is_disabled": 0, "fusion_lat": 0.0}, {"fusion_lon": 0.0, "bike_id": "7b699ce4bc89a35efe4d71da8d7673fb", "name": "7b699ce4bc89a35efe4d71da8d7673fb", "type": "electric_scooter", "lon": -77.038553, "rental_uris": {"android": "https://dc.lft.to/lastmile_qr_scan", "ios": "https://dc.lft.to/lastmile_qr_scan"}, "lat": 38.91835783333333, "is_reserved": 0, "is_disabled": 0, "fusion_lat": 0.0}, {"fusion_lon": 0.0, "bike_id": "49c7d411ac2feaf4b4c589416e581532", "name": "49c7d411ac2feaf4b4c589416e581532", "type": "electric_scooter", "lon": -77.02820583333333, "rental_uris": {"android": "https://dc.lft.to/lastmile_qr_scan", "ios": "https://dc.lft.to/lastmile_qr_scan"}, "lat": 38.94830116666667, "is_reserved": 0, "is_disabled": 0, "fusion_lat": 0.0}, {"fusion_lon": 0.0, "bike_id": "154a4b8e78c4c098b3cf6b306ca926e5", "name": "154a4b8e78c4c098b3cf6b306ca926e5", "type": "electric_scooter", "lon": -77.05920633333334, "rental_uris": {"android": "https://dc.lft.to/lastmile_qr_scan", "ios": "https://dc.lft.to/lastmile_qr_scan"}, "lat": 38.936521666666664, "is_reserved": 0, "is_disabled": 0, "fusion_lat": 0.0}, {"fusion_lon": 0.0, "bike_id": "cf39f8d467cb631e42de4ea81ae11dcb", "name": "cf39f8d467cb631e42de4ea81ae11dcb", "type": "electric_scooter", "lon": -77.04171983333333, "rental_uris": {"android": "https://dc.lft.to/lastmile_qr_scan", "ios": "https://dc.lft.to/lastmile_qr_scan"}, "lat": 38.91622516666666, "is_reserved": 0, "is_disabled": 0, "fusion_lat": 0.0}, {"fusion_lon": 0.0, "bike_id": "75ff638dfa556493d95e8de9f4db897c", "name": "75ff638dfa556493d95e8de9f4db897c", "type": "electric_scooter", "lon": -77.0573765, "rental_uris": {"android": "https://dc.lft.to/lastmile_qr_scan", "ios": "https://dc.lft.to/lastmile_qr_scan"}, "lat": 38.924319833333335, "is_reserved": 0, "is_disabled": 0, "fusion_lat": 0.0}, {"fusion_lon": 0.0, "bike_id": "5d7e62adfa60d83fc532c42b6c0e3996", "name": "5d7e62adfa60d83fc532c42b6c0e3996", "type": "electric_scooter", "lon": -76.9947975, "rental_uris": {"android": "https://dc.lft.to/lastmile_qr_scan", "ios": "https://dc.lft.to/lastmile_qr_scan"}, "lat": 38.862161666666665, "is_reserved": 0, "is_disabled": 0, "fusion_lat": 0.0}, {"fusion_lon": 0.0, "bike_id": "d0e8a1bdb7fea4fe6a992d97094da6d6", "name": "d0e8a1bdb7fea4fe6a992d97094da6d6", "type": "electric_scooter", "lon": -76.93835833333333, "rental_uris": {"android": "https://dc.lft.to/lastmile_qr_scan", "ios": "https://dc.lft.to/lastmile_qr_scan"}, "lat": 38.890096166666666, "is_reserved": 0, "is_disabled": 0, "fusion_lat": 0.0}, {"fusion_lon": 0.0, "bike_id": "16f4a96ec11eab83123855daf768e6e6", "name": "16f4a96ec11eab83123855daf768e6e6", "type": "electric_scooter", "lon": -77.03939333333334, "rental_uris": {"android": "https://dc.lft.to/lastmile_qr_scan", "ios": "https://dc.lft.to/lastmile_qr_scan"}, "lat": 38.9181225, "is_reserved": 0, "is_disabled": 0, "fusion_lat": 0.0}, {"fusion_lon": 0.0, "bike_id": "b62c95caa9ff2cc7ff9bd96333bd39b4", "name": "b62c95caa9ff2cc7ff9bd96333bd39b4", "type": "electric_scooter", "lon": -77.03547266666666, "rental_uris": {"android": "https://dc.lft.to/lastmile_qr_scan", "ios": "https://dc.lft.to/lastmile_qr_scan"}, "lat": 38.92404833333333, "is_reserved": 0, "is_disabled": 0, "fusion_lat": 0.0}, {"fusion_lon": 0.0, "bike_id": "07240645cca3ee144b236f2697669889", "name": "07240645cca3ee144b236f2697669889", "type": "electric_scooter", "lon": -77.04639833333333, "rental_uris": {"android": "https://dc.lft.to/lastmile_qr_scan", "ios": "https://dc.lft.to/lastmile_qr_scan"}, "lat": 38.90335283333334, "is_reserved": 0, "is_disabled": 0, "fusion_lat": 0.0}, {"fusion_lon": 0.0, "bike_id": "30e530234eeb6bb5a4c2a733d118a8c7", "name": "30e530234eeb6bb5a4c2a733d118a8c7", "type": "electric_bike", "lon": -77.12505283333333, "rental_uris": {"android": "https://dc.lft.to/lastmile_qr_scan", "ios": "https://dc.lft.to/lastmile_qr_scan"}, "lat": 39.024277166666664, "is_reserved": 0, "is_disabled": 0, "fusion_lat": 0.0}, {"fusion_lon": 0.0, "bike_id": "40eca9680e29e535a8c082e36bc62e59", "name": "40eca9680e29e535a8c082e36bc62e59", "type": "electric_bike", "lon": -77.02491733333333, "rental_uris": {"android": "https://dc.lft.to/lastmile_qr_scan", "ios": "https://dc.lft.to/lastmile_qr_scan"}, "lat": 38.97407416666667, "is_reserved": 0, "is_disabled": 0, "fusion_lat": 0.0}, {"fusion_lon": 0.0, "bike_id": "cddb2ac8347a5feac8704cf96bc47bec", "name": "cddb2ac8347a5feac8704cf96bc47bec", "type": "electric_scooter", "lon": -77.02311966666667, "rental_uris": {"android": "https://dc.lft.to/lastmile_qr_scan", "ios": "https://dc.lft.to/lastmile_qr_scan"}, "lat": 38.920681333333334, "is_reserved": 0, "is_disabled": 0, "fusion_lat": 0.0}, {"fusion_lon": 0.0, "bike_id": "e10b3a58a605b335924e60df697299c1", "name": "e10b3a58a605b335924e60df697299c1", "type": "electric_scooter", "lon": -77.02168083333333, "rental_uris": {"android": "https://dc.lft.to/lastmile_qr_scan", "ios": "https://dc.lft.to/lastmile_qr_scan"}, "lat": 38.942921, "is_reserved": 0, "is_disabled": 0, "fusion_lat": 0.0}, {"fusion_lon": 0.0, "bike_id": "c3313762719e6923602da03d7da56066", "name": "c3313762719e6923602da03d7da56066", "type": "electric_bike", "lon": -77.00082733333333, "rental_uris": {"android": "https://dc.lft.to/lastmile_qr_scan", "ios": "https://dc.lft.to/lastmile_qr_scan"}, "lat": 38.88599716666667, "is_reserved": 0, "is_disabled": 0, "fusion_lat": 0.0}, {"fusion_lon": 0.0, "bike_id": "b8c3eba8d85103057de7cc44646739d6", "name": "b8c3eba8d85103057de7cc44646739d6", "type": "electric_scooter", "lon": -76.990704, "rental_uris": {"android": "https://dc.lft.to/lastmile_qr_scan", "ios": "https://dc.lft.to/lastmile_qr_scan"}, "lat": 38.90426266666667, "is_reserved": 0, "is_disabled": 0, "fusion_lat": 0.0}, {"fusion_lon": 0.0, "bike_id": "5e7126662f9ed119ec437ce1c69d517c", "name": "5e7126662f9ed119ec437ce1c69d517c", "type": "electric_scooter", "lon": -77.05435166666666, "rental_uris": {"android": "https://dc.lft.to/lastmile_qr_scan", "ios": "https://dc.lft.to/lastmile_qr_scan"}, "lat": 38.896043166666665, "is_reserved": 0, "is_disabled": 0, "fusion_lat": 0.0}, {"fusion_lon": 0.0, "bike_id": "70701acc4340abdaa6b4a4fe2d2a2192", "name": "70701acc4340abdaa6b4a4fe2d2a2192", "type": "electric_scooter", "lon": -77.01736783333334, "rental_uris": {"android": "https://dc.lft.to/lastmile_qr_scan", "ios": "https://dc.lft.to/lastmile_qr_scan"}, "lat": 38.874704333333334, "is_reserved": 0, "is_disabled": 0, "fusion_lat": 0.0}, {"fusion_lon": 0.0, "bike_id": "422bbb3b128409e9406869b04e361c45", "name": "422bbb3b128409e9406869b04e361c45", "type": "electric_scooter", "lon": -77.00861266666666, "rental_uris": {"android": "https://dc.lft.to/lastmile_qr_scan", "ios": "https://dc.lft.to/lastmile_qr_scan"}, "lat": 38.90559433333333, "is_reserved": 0, "is_disabled": 0, "fusion_lat": 0.0}, {"fusion_lon": 0.0, "bike_id": "09bb097f2e16e72a821324fd0226aa47", "name": "09bb097f2e16e72a821324fd0226aa47", "type": "electric_scooter", "lon": -77.00748166666666, "rental_uris": {"android": "https://dc.lft.to/lastmile_qr_scan", "ios": "https://dc.lft.to/lastmile_qr_scan"}, "lat": 38.87650983333333, "is_reserved": 0, "is_disabled": 0, "fusion_lat": 0.0}, {"fusion_lon": 0.0, "bike_id": "4a00a28b08fed35e8070542479fc179f", "name": "4a00a28b08fed35e8070542479fc179f", "type": "electric_scooter", "lon": -77.0335985, "rental_uris": {"android": "https://dc.lft.to/lastmile_qr_scan", "ios": "https://dc.lft.to/lastmile_qr_scan"}, "lat": 38.91198633333333, "is_reserved": 0, "is_disabled": 0, "fusion_lat": 0.0}, {"fusion_lon": 0.0, "bike_id": "05ed04bda0b6af034bf3d0365633da49", "name": "05ed04bda0b6af034bf3d0365633da49", "type": "electric_scooter", "lon": -76.98072283333333, "rental_uris": {"android": "https://dc.lft.to/lastmile_qr_scan", "ios": "https://dc.lft.to/lastmile_qr_scan"}, "lat": 38.916709, "is_reserved": 0, "is_disabled": 0, "fusion_lat": 0.0}, {"fusion_lon": 0.0, "bike_id": "8283b67a352b22b726bc1cba6904f73e", "name": "8283b67a352b22b726bc1cba6904f73e", "type": "electric_scooter", "lon": -77.03176716666667, "rental_uris": {"android": "https://dc.lft.to/lastmile_qr_scan", "ios": "https://dc.lft.to/lastmile_qr_scan"}, "lat": 38.887344666666664, "is_reserved": 0, "is_disabled": 0, "fusion_lat": 0.0}, {"fusion_lon": 0.0, "bike_id": "15c182865034f419a960a2333917e311", "name": "15c182865034f419a960a2333917e311", "type": "electric_scooter", "lon": -77.011084, "rental_uris": {"android": "https://dc.lft.to/lastmile_qr_scan", "ios": "https://dc.lft.to/lastmile_qr_scan"}, "lat": 38.90349883333333, "is_reserved": 0, "is_disabled": 0, "fusion_lat": 0.0}, {"fusion_lon": 0.0, "bike_id": "a7a1d38027fdc19240eb65a2b43434de", "name": "a7a1d38027fdc19240eb65a2b43434de", "type": "electric_scooter", "lon": -77.03383383333333, "rental_uris": {"android": "https://dc.lft.to/lastmile_qr_scan", "ios": "https://dc.lft.to/lastmile_qr_scan"}, "lat": 38.92157916666667, "is_reserved": 0, "is_disabled": 0, "fusion_lat": 0.0}, {"fusion_lon": 0.0, "bike_id": "db903dd031edf472ccfdec072066a458", "name": "db903dd031edf472ccfdec072066a458", "type": "electric_scooter", "lon": -77.000711, "rental_uris": {"android": "https://dc.lft.to/lastmile_qr_scan", "ios": "https://dc.lft.to/lastmile_qr_scan"}, "lat": 38.9013845, "is_reserved": 0, "is_disabled": 0, "fusion_lat": 0.0}, {"fusion_lon": 0.0, "bike_id": "b24b06c9d6f2b79b4dcd72f77fe81c6b", "name": "b24b06c9d6f2b79b4dcd72f77fe81c6b", "type": "electric_bike", "lon": -77.08526633333334, "rental_uris": {"android": "https://dc.lft.to/lastmile_qr_scan", "ios": "https://dc.lft.to/lastmile_qr_scan"}, "lat": 38.856498, "is_reserved": 0, "is_disabled": 0, "fusion_lat": 0.0}, {"fusion_lon": 0.0, "bike_id": "ca0797adde57c1daae8bae6f823b69d1", "name": "ca0797adde57c1daae8bae6f823b69d1", "type": "electric_bike", "lon": -77.02622983333333, "rental_uris": {"android": "https://dc.lft.to/lastmile_qr_scan", "ios": "https://dc.lft.to/lastmile_qr_scan"}, "lat": 38.962218166666666, "is_reserved": 0, "is_disabled": 0, "fusion_lat": 0.0}, {"fusion_lon": 0.0, "bike_id": "49e439a29bd3eeb1f8793ba10f1893d1", "name": "49e439a29bd3eeb1f8793ba10f1893d1", "type": "electric_scooter", "lon": -77.031843, "rental_uris": {"android": "https://dc.lft.to/lastmile_qr_scan", "ios": "https://dc.lft.to/lastmile_qr_scan"}, "lat": 38.911929666666666, "is_reserved": 0, "is_disabled": 0, "fusion_lat": 0.0}, {"fusion_lon": 0.0, "bike_id": "7e8a5c7f99acae2f161918566c6ea973", "name": "7e8a5c7f99acae2f161918566c6ea973", "type": "electric_scooter", "lon": -77.01630666666667, "rental_uris": {"android": "https://dc.lft.to/lastmile_qr_scan", "ios": "https://dc.lft.to/lastmile_qr_scan"}, "lat": 38.8763915, "is_reserved": 0, "is_disabled": 0, "fusion_lat": 0.0}, {"fusion_lon": 0.0, "bike_id": "e0d7367509429413b182411c3eb3d347", "name": "e0d7367509429413b182411c3eb3d347", "type": "electric_scooter", "lon": -77.04090616666667, "rental_uris": {"android": "https://dc.lft.to/lastmile_qr_scan", "ios": "https://dc.lft.to/lastmile_qr_scan"}, "lat": 38.9078065, "is_reserved": 0, "is_disabled": 0, "fusion_lat": 0.0}, {"fusion_lon": 0.0, "bike_id": "cfb39f1c237ba6431be9db581d4799c2", "name": "cfb39f1c237ba6431be9db581d4799c2", "type": "electric_scooter", "lon": -77.033498, "rental_uris": {"android": "https://dc.lft.to/lastmile_qr_scan", "ios": "https://dc.lft.to/lastmile_qr_scan"}, "lat": 38.9002705, "is_reserved": 0, "is_disabled": 0, "fusion_lat": 0.0}, {"fusion_lon": 0.0, "bike_id": "bcd5b14e40a25e44bf32441febc66cdd", "name": "bcd5b14e40a25e44bf32441febc66cdd", "type": "electric_bike", "lon": -76.965592, "rental_uris": {"android": "https://dc.lft.to/lastmile_qr_scan", "ios": "https://dc.lft.to/lastmile_qr_scan"}, "lat": 38.950854166666666, "is_reserved": 0, "is_disabled": 0, "fusion_lat": 0.0},