{"data": {"bikes": [{"name": "6119865e0d57e7bc3bdef383dc0c4e52", "is_reserved": 0, "fusion_lon": 0.0, "bike_id": "6119865e0d57e7bc3bdef383dc0c4e52", "lat": 38.91532866666667, "is_disabled": 0, "lon": -77.01221, "fusion_lat": 0.0, "rental_uris": {"ios": "https://dc.lft.to/lastmile_qr_scan", "android": "https://dc.lft.to/lastmile_qr_scan"}, "type": "electric_scooter"}, {"name": "9346ab2071d5df41b3b34c7cb19b2056", "is_reserved": 0, "fusion_lon": 0.0, "bike_id": "9346ab2071d5df41b3b34c7cb19b2056", "lat": 38.88025783333333, "is_disabled": 0, "lon": -76.91718066666667, "fusion_lat": 0.0, "rental_uris": {"ios": "https://dc.lft.to/lastmile_qr_scan", "android": "https://dc.lft.to/lastmile_qr_scan"}, "type": "electric_bike"}, {"name": "7fcbeb39b463ef04ddacecb6e517631d", "is_reserved": 0, "fusion_lon": 0.0, "bike_id": "7fcbeb39b463ef04ddacecb6e517631d", "lat": 38.90479716666667, "is_disabled": 0, "lon": -77.029576, "fusion_lat": 0.0, "rental_uris": {"ios": "https://dc.lft.to/lastmile_qr_scan", "android": "https://dc.lft.to/lastmile_qr_scan"}, "type": "electric_scooter"}, {"name": "62ae17c75cd152be393324966f257714", "is_reserved": 0, "fusion_lon": 0.0, "bike_id": "62ae17c75cd152be393324966f257714", "lat": 38.9072595, "is_disabled": 0, "lon": -77.04184966666666, "fusion_lat": 0.0, "rental_uris": {"ios": "https://dc.lft.to/lastmile_qr_scan", "android": "https://dc.lft.to/lastmile_qr_scan"}, "type": "electric_scooter"}, {"name": "a37b311eac3d807aaefb27978fb2e74d", "is_reserved": 0, "fusion_lon": 0.0, "bike_id": "a37b311eac3d807aaefb27978fb2e74d", "lat": 38.9095835, "is_disabled": 0, "lon": -77.035686, "fusion_lat": 0.0, "rental_uris": {"ios": "https://dc.lft.to/lastmile_qr_scan", "android": "https://dc.lft.to/lastmile_qr_scan"}, "type": "electric_scooter"}, {"name": "0d1c76580b8b653c3b208f4efc41b5dd", "is_reserved": 0, "fusion_lon": 0.0, "bike_id": "0d1c76580b8b653c3b208f4efc41b5dd", "lat": 38.931911, "is_disabled": 0, "lon": -77.01874916666667, "fusion_lat": 0.0, "rental_uris": {"ios": "https://dc.lft.to/lastmile_qr_scan", "android": "https://dc.lft.to/lastmile_qr_scan"}, "type": "electric_scooter"}, {"name": "1efcea33a14f5ecf6c1eff7e67d6059b", "is_reserved": 0, "fusion_lon": 0.0, "bike_id": "1efcea33a14f5ecf6c1eff7e67d6059b", "lat": 38.922117666666665, "is_disabled": 0, "lon": -77.0424035, "fusion_lat": 0.0, "rental_uris": {"ios": "https://dc.lft.to/lastmile_qr_scan", "android": "https://dc.lft.to/lastmile_qr_scan"}, "type": "electric_scooter"}, {"name": "ecf70d7a11374b09e3cca79a7e5ebad4", "is_reserved": 0, "fusion_lon": 0.0, "bike_id": "ecf70d7a11374b09e3cca79a7e5ebad4", "lat": 38.899266833333336, "is_disabled": 0, "lon": -77.02616966666666, "fusion_lat": 0.0, "rental_uris": {"ios": "https://dc.lft.to/lastmile_qr_scan", "android": "https://dc.lft.to/lastmile_qr_scan"}, "type": "electric_scooter"}, {"name": "ba094f115a15ffa30e24fa8573aff3f6", "is_reserved": 0, "fusion_lon": 0.0, "bike_id": "ba094f115a15ffa30e24fa8573aff3f6", "lat": 38.89026916666667, "is_disabled": 0, "lon": -76.94462483333334, "fusion_lat": 0.0, "rental_uris": {"ios": "https://dc.lft.to/lastmile_qr_scan", "android": "https://dc.lft.to/lastmile_qr_scan"}, "type": "electric_scooter"}, {"name": "03704a1e55aa848033a57acff9e09fcd", "is_reserved": 0, "fusion_lon": 0.0, "bike_id": "03704a1e55aa848033a57acff9e09fcd", "lat": 38.81938816666667, "is_disabled": 0, "lon": -77.00201916666667, "fusion_lat": 0.0, "rental_uris": {"ios": "https://dc.lft.to/lastmile_qr_scan", "android": "https://dc.lft.to/lastmile_qr_scan"}, "type": "electric_bike"}, {"name": "1e686894f04886990ffd02f87654a232", "is_reserved": 0, "fusion_lon": 0.0, "bike_id": "1e686894f04886990ffd02f87654a232", "lat": 38.92610083333334, "is_disabled": 0, "lon": -77.02159616666667, "fusion_lat": 0.0, "rental_uris": {"ios": "https://dc.lft.to/lastmile_qr_scan", "android": "https://dc.lft.to/lastmile_qr_scan"}, "type": "electric_scooter"}, {"name": "4dfbad883fff561fa4c33f21ded1adeb", "is_reserved": 0, "fusion_lon": 0.0, "bike_id": "4dfbad883fff561fa4c33f21ded1adeb", "lat": 38.89481283333333, "is_disabled": 0, "lon": -77.01990583333334, "fusion_lat": 0.0, "rental_uris": {"ios": "https://dc.lft.to/lastmile_qr_scan", "android": "https://dc.lft.to/lastmile_qr_scan"}, "type": "electric_scooter"}, {"name": "9d95eea018678cfb4bbd263ef017fa68", "is_reserved": 0, "fusion_lon": 0.0, "bike_id": "9d95eea018678cfb4bbd263ef017fa68", "lat": 38.91686333333333, "is_disabled": 0, "lon": -77.0270695, "fusion_lat": 0.0, "rental_uris": {"ios": "https://dc.lft.to/lastmile_qr_scan", "android": "https://dc.lft.to/lastmile_qr_scan"}, "type": "electric_scooter"}, {"name": "1cfc08f7b5e002501773f7522210548b", "is_reserved": 0, "fusion_lon": 0.0, "bike_id": "1cfc08f7b5e002501773f7522210548b", "lat": 38.902019333333335, "is_disabled": 0, "lon": -77.04810766666667, "fusion_lat": 0.0, "rental_uris": {"ios": "https://dc.lft.to/lastmile_qr_scan", "android": "https://dc.lft.to/lastmile_qr_scan"}, "type": "electric_scooter"}, {"name": "929d3f6161d680f74d03046b83d4d70a", "is_reserved": 0, "fusion_lon": 0.0, "bike_id": "929d3f6161d680f74d03046b83d4d70a", "lat": 38.8922355, "is_disabled": 0, "lon": -77.03219716666666, "fusion_lat": 0.0, "rental_uris": {"ios": "https://dc.lft.to/lastmile_qr_scan", "android": "https://dc.lft.to/lastmile_qr_scan"}, "type": "electric_scooter"}, {"name": "473ee383436fc1ed97e4fcaf5001c461", "is_reserved": 0, "fusion_lon": 0.0, "bike_id": "473ee383436fc1ed97e4fcaf5001c461", "lat": 38.9104715, "is_disabled": 0, "lon": -77.064505, "fusion_lat": 0.0, "rental_uris": {"ios": "https://dc.lft.to/lastmile_qr_scan", "android": "https://dc.lft.to/lastmile_qr_scan"}, "type": "electric_bike"}, {"name": "15de8f3d45e66631bae4c0b1300cd3b7", "is_reserved": 0, "fusion_lon": 0.0, "bike_id": "15de8f3d45e66631bae4c0b1300cd3b7", "lat": 38.90862333333333, "is_disabled": 0, "lon": -76.93936366666667, "fusion_lat": 0.0, "rental_uris": {"ios": "https://dc.lft.to/lastmile_qr_scan", "android": "https://dc.lft.to/lastmile_qr_scan"}, "type": "electric_scooter"}, {"name": "a154fec629db4fa886fec07b44e71e90", "is_reserved": 0, "fusion_lon": 0.0, "bike_id": "a154fec629db4fa886fec07b44e71e90", "lat": 38.92242616666667, "is_disabled": 0, "lon": -77.018308, "fusion_lat": 0.0, "rental_uris": {"ios": "https://dc.lft.to/lastmile_qr_scan", "android": "https://dc.lft.to/lastmile_qr_scan"}, "type": "electric_scooter"}, {"name": "c16ed6ac3ede429184f16fa620c419ff", "is_reserved": 0, "fusion_lon": 0.0, "bike_id": "c16ed6ac3ede429184f16fa620c419ff", "lat": 38.92654366666667, "is_disabled": 0, "lon": -77.02300633333333, "fusion_lat": 0.0, "rental_uris": {"ios": "https://dc.lft.to/lastmile_qr_scan", "android": "https://dc.lft.to/lastmile_qr_scan"}, "type": "electric_scooter"}, {"name": "e885741190bc8b3e9dfdc6c5753fd52a", "is_reserved": 0, "fusion_lon": 0.0, "bike_id": "e885741190bc8b3e9dfdc6c5753fd52a", "lat": 38.9195155, "is_disabled": 0, "lon": -77.01895533333334, "fusion_lat": 0.0, "rental_uris": {"ios": "https://dc.lft.to/lastmile_qr_scan", "android": "https://dc.lft.to/lastmile_qr_scan"}, "type": "electric_scooter"}, {"name": "b63b83cb6591d5e8356c3f05744aeb07", "is_reserved": 0, "fusion_lon": 0.0, "bike_id": "b63b83cb6591d5e8356c3f05744aeb07", "lat": 38.96929033333333, "is_disabled": 0, "lon": -77.026754, "fusion_lat": 0.0, "rental_uris": {"ios": "https://dc.lft.to/lastmile_qr_scan", "android": "https://dc.lft.to/lastmile_qr_scan"}, "type": "electric_bike"}, {"name": "0e9b4b8f845f64b048cdf9991f023454", "is_reserved": 0, "fusion_lon": 0.0, "bike_id": "0e9b4b8f845f64b048cdf9991f023454", "lat": 38.89079016666667, "is_disabled": 0, "lon": -76.988206, "fusion_lat": 0.0, "rental_uris": {"ios": "https://dc.lft.to/lastmile_qr_scan", "android": "https://dc.lft.to/lastmile_qr_scan"}, "type": "electric_scooter"}, {"name": "977a14fd245ca67a533e5a6ab4258434", "is_reserved": 0, "fusion_lon": 0.0, "bike_id": "977a14fd245ca67a533e5a6ab4258434", "lat": 38.871856666666666, "is_disabled": 0, "lon": -77.00594816666667, "fusion_lat": 0.0, "rental_uris": {"ios": "https://dc.lft.to/lastmile_qr_scan", "android": "https://dc.lft.to/lastmile_qr_scan"}, "type": "electric_scooter"}, {"name": "3c816f297765d5b98ad8635dd0638ea6", "is_reserved": 0, "fusion_lon": 0.0, "bike_id": "3c816f297765d5b98ad8635dd0638ea6", "lat": 38.908519166666665, "is_disabled": 0, "lon": -77.0301025, "fusion_lat": 0.0, "rental_uris": {"ios": "https://dc.lft.to/lastmile_qr_scan", "android": "https://dc.lft.to/lastmile_qr_scan"}, "type": "electric_scooter"}, {"name": "99f15d1685f049439d405c31b29755d2", "is_reserved": 0, "fusion_lon": 0.0, "bike_id": "99f15d1685f049439d405c31b29755d2", "lat": 38.924004333333336, "is_disabled": 0, "lon": -77.02035533333333, "fusion_lat": 0.0, "rental_uris": {"ios": "https://dc.lft.to/lastmile_qr_scan", "android": "https://dc.lft.to/lastmile_qr_scan"}, "type": "electric_scooter"}, {"name": "ae53fd0e1310d41d7678647d29e393ff", "is_reserved": 0, "fusion_lon": 0.0, "bike_id": "ae53fd0e1310d41d7678647d29e393ff", "lat": 38.9540905, "is_disabled": 0, "lon": -77.02497416666667, "fusion_lat": 0.0, "rental_uris": {"ios": "https://dc.lft.to/lastmile_qr_scan", "android": "https://dc.lft.to/lastmile_qr_scan"}, "type": "electric_scooter"}, {"name": "4a5e9c9b98e713b98e1f8acebcb0fdb0", "is_reserved": 0, "fusion_lon": 0.0, "bike_id": "4a5e9c9b98e713b98e1f8acebcb0fdb0", "lat": 38.92157433333333, "is_disabled": 0, "lon": -77.03379066666666, "fusion_lat": 0.0, "rental_uris": {"ios": "https://dc.lft.to/lastmile_qr_scan", "android": "https://dc.lft.to/lastmile_qr_scan"}, "type": "electric_scooter"}, {"name": "8e489a2ee2b3fae1ea96620e0c859b8b", "is_reserved": 0, "fusion_lon": 0.0, "bike_id": "8e489a2ee2b3fae1ea96620e0c859b8b", "lat": 38.89216783333333, "is_disabled": 0, "lon": -77.04864033333334, "fusion_lat": 0.0, "rental_uris": {"ios": "https://dc.lft.to/lastmile_qr_scan", "android": "https://dc.lft.to/lastmile_qr_scan"}, "type": "electric_scooter"}, {"name": "7ab5217c520dd0e6ef74490ebaee9361", "is_reserved": 0, "fusion_lon": 0.0, "bike_id": "7ab5217c520dd0e6ef74490ebaee9361", "lat": 38.9199885, "is_disabled": 0, "lon": -77.03201633333333, "fusion_lat": 0.0, "rental_uris": {"ios": "https://dc.lft.to/lastmile_qr_scan", "android": "https://dc.lft.to/lastmile_qr_scan"}, "type": "electric_scooter"}, {"name": "09a4a24aa91f852d604d38ba07537f30", "is_reserved": 0, "fusion_lon": 0.0, "bike_id": "09a4a24aa91f852d604d38ba07537f30", "lat": 38.92472383333333, "is_disabled": 0, "lon": -77.02209183333333, "fusion_lat": 0.0, "rental_uris": {"ios": "https://dc.lft.to/lastmile_qr_scan", "android": "https://dc.lft.to/lastmile_qr_scan"}, "type": "electric_scooter"}, {"name": "48f2f5446ad6e01adad41a5d8eda2fe5", "is_reserved": 0, "fusion_lon": 0.0, "bike_id": "48f2f5446ad6e01adad41a5d8eda2fe5", "lat": 38.92023116666667, "is_disabled": 0, "lon": -77.02601783333333, "fusion_lat": 0.0, "rental_uris": {"ios": "https://dc.lft.to/lastmile_qr_scan", "android": "https://dc.lft.to/lastmile_qr_scan"}, "type": "electric_scooter"}, {"name": "8baaed68bc639b2c7e3514db1b4092f5", "is_reserved": 0, "fusion_lon": 0.0, "bike_id": "8baaed68bc639b2c7e3514db1b4092f5", "lat": 38.90566966666667, "is_disabled": 0, "lon": -77.06291266666666, "fusion_lat": 0.0, "rental_uris": {"ios": "https://dc.lft.to/lastmile_qr_scan", "android": "https://dc.lft.to/lastmile_qr_scan"}, "type": "electric_scooter"}, {"name": "3ef94c6e05400ff7b03d453e577234ac", "is_reserved": 0, "fusion_lon": 0.0, "bike_id": "3ef94c6e05400ff7b03d453e577234ac", "lat": 38.9527125, "is_disabled": 0, "lon": -77.023773, "fusion_lat": 0.0, "rental_uris": {"ios": "https://dc.lft.to/lastmile_qr_scan", "android": "https://dc.lft.to/lastmile_qr_scan"}, "type": "electric_scooter"}, {"name": "0521babad2bb413ad0b7991ea4afad76", "is_reserved": 0, "fusion_lon": 0.0, "bike_id": "0521babad2bb413ad0b7991ea4afad76", "lat": 38.923118833333334, "is_disabled": 0, "lon": -77.0391035, "fusion_lat": 0.0, "rental_uris": {"ios": "https://dc.lft.to/lastmile_qr_scan", "android": "https://dc.lft.to/lastmile_qr_scan"}, "type": "electric_scooter"}, {"name": "e11c3bfa24f11b5c837546c4e1b2d9c5", "is_reserved": 0, "fusion_lon": 0.0, "bike_id": "e11c3bfa24f11b5c837546c4e1b2d9c5", "lat": 39.01077183333334, "is_disabled": 0, "lon": -76.91062266666667, "fusion_lat": 0.0, "rental_uris": {"ios": "https://dc.lft.to/lastmile_qr_scan", "android": "https://dc.lft.to/lastmile_qr_scan"}, "type": "electric_bike"}, {"name": "5b42f8bca7c155d77ca5652d246532cd", "is_reserved": 0, "fusion_lon": 0.0, "bike_id": "5b42f8bca7c155d77ca5652d246532cd", "lat": 38.92635766666667, "is_disabled": 0, "lon": -77.02165933333333, "fusion_lat": 0.0, "rental_uris": {"ios": "https://dc.lft.to/lastmile_qr_scan", "android": "https://dc.lft.to/lastmile_qr_scan"}, "type": "electric_scooter"}, {"name": "2d830b03f47bf73b304a586cb0a4e5bd", "is_reserved": 0, "fusion_lon": 0.0, "bike_id": "2d830b03f47bf73b304a586cb0a4e5bd", "lat": 38.93079, "is_disabled": 0, "lon": -77.02354216666667, "fusion_lat": 0.0, "rental_uris": {"ios": "https://dc.lft.to/lastmile_qr_scan", "android": "https://dc.lft.to/lastmile_qr_scan"}, "type": "electric_scooter"}, {"name": "52f621bfd74f7b4354dd2a8aa1091719", "is_reserved": 0, "fusion_lon": 0.0, "bike_id": "52f621bfd74f7b4354dd2a8aa1091719", "lat": 38.929777666666666, "is_disabled": 0, "lon": -76.9860145, "fusion_lat": 0.0, "rental_uris": {"ios": "https://dc.lft.to/lastmile_qr_scan", "android": "https://dc.lft.to/lastmile_qr_scan"}, "type": "electric_bike"}, {"name": "24a1fae811874aaf73e86e1df772b85b", "is_reserved": 0, "fusion_lon": 0.0, "bike_id": "24a1fae811874aaf73e86e1df772b85b", "lat": 38.9135205, "is_disabled": 0, "lon": -77.04657866666666, "fusion_lat": 0.0, "rental_uris": {"ios": "https://dc.lft.to/lastmile_qr_scan", "android": "https://dc.lft.to/lastmile_qr_scan"}, "type": "electric_scooter"}, {"name": "718225294af6c61b97246e9c2dde5449", "is_reserved": 0, "fusion_lon": 0.0, "bike_id": "718225294af6c61b97246e9c2dde5449", "lat": 38.8925045, "is_disabled": 0, "lon": -77.04652066666667, "fusion_lat": 0.0, "rental_uris": {"ios": "https://dc.lft.to/lastmile_qr_scan", "android": "https://dc.lft.to/lastmile_qr_scan"}, "type": "electric_scooter"}, {"name": "07d8183859d49cbf418b4f0c4e39130b", "is_reserved": 0, "fusion_lon": 0.0, "bike_id": "07d8183859d49cbf418b4f0c4e39130b", "lat": 38.910350333333334, "is_disabled": 0, "lon": -76.99344866666667, "fusion_lat": 0.0, "rental_uris": {"ios": "https://dc.lft.to/lastmile_qr_scan", "android": "https://dc.lft.to/lastmile_qr_scan"}, "type": "electric_scooter"}, {"name": "60f74682879157e956c34f01a26640ce", "is_reserved": 0, "fusion_lon": 0.0, "bike_id": "60f74682879157e956c34f01a26640ce", "lat": 38.899504666666665, "is_disabled": 0, "lon": -77.04721866666667, "fusion_lat": 0.0, "rental_uris": {"ios": "https://dc.lft.to/lastmile_qr_scan", "android": "https://dc.lft.to/lastmile_qr_scan"}, "type": "electric_scooter"}, {"name": "a1763a14ca40e12b700cbaac58a52ab4", "is_reserved": 0, "fusion_lon": 0.0, "bike_id": "a1763a14ca40e12b700cbaac58a52ab4", "lat": 38.92367633333333, "is_disabled": 0, "lon": -77.01943783333333, "fusion_lat": 0.0, "rental_uris": {"ios": "https://dc.lft.to/lastmile_qr_scan", "android": "https://dc.lft.to/lastmile_qr_scan"}, "type": "electric_scooter"}, {"name": "87e89e4ddd09291aebfd1dd97532994d", "is_reserved": 0, "fusion_lon": 0.0, "bike_id": "87e89e4ddd09291aebfd1dd97532994d", "lat": 38.878390333333336, "is_disabled": 0, "lon": -76.9313795, "fusion_lat": 0.0, "rental_uris": {"ios": "https://dc.lft.to/lastmile_qr_scan", "android": "https://dc.lft.to/lastmile_qr_scan"}, "type": "electric_scooter"}, {"name": "8a4315ad9e7afa187906c745eaae89c0", "is_reserved": 0, "fusion_lon": 0.0, "bike_id": "8a4315ad9e7afa187906c745eaae89c0", "lat": 38.910134666666664, "is_disabled": 0, "lon": -77.04448583333334, "fusion_lat": 0.0, "rental_uris": {"ios": "https://dc.lft.to/lastmile_qr_scan", "android": "https://dc.lft.to/lastmile_qr_scan"}, "type": "electric_scooter"}, {"name": "a0a270c239270508701be5ac96a2e74c", "is_reserved": 0, "fusion_lon": 0.0, "bike_id": "a0a270c239270508701be5ac96a2e74c", "lat": 38.8994465, "is_disabled": 0, "lon": -77.025788, "fusion_lat": 0.0, "rental_uris": {"ios": "https://dc.lft.to/lastmile_qr_scan", "android": "https://dc.lft.to/lastmile_qr_scan"}, "type": "electric_scooter"}, {"name": "0ce89ea045534a76e181bc0d234074e7", "is_reserved": 0, "fusion_lon": 0.0, "bike_id": "0ce89ea045534a76e181bc0d234074e7", "lat": 38.89613166666667, "is_disabled": 0, "lon": -76.9856495, "fusion_lat": 0.0, "rental_uris": {"ios": "https://dc.lft.to/lastmile_qr_scan", "android": "https://dc.lft.to/lastmile_qr_scan"}, "type": "electric_scooter"}, {"name": "4b67e9b37a8c79d4051d2e7c47360319", "is_reserved": 0, "fusion_lon": 0.0, "bike_id": "4b67e9b37a8c79d4051d2e7c47360319", "lat": 38.89154533333333, "is_disabled": 0, "lon": -76.98359933333333, "fusion_lat": 0.0, "rental_uris": {"ios": "https://dc.lft.to/lastmile_qr_scan", "android": "https://dc.lft.to/lastmile_qr_scan"}, "type": "electric_scooter"}, {"name": "fcc1ccf58e5bfdd29ada3e6d98b005aa", "is_reserved": 0, "fusion_lon": 0.0, "bike_id": "fcc1ccf58e5bfdd29ada3e6d98b005aa", "lat": 38.908984, "is_disabled": 0, "lon": -77.04148183333334, "fusion_lat": 0.0, "rental_uris": {"ios": "https://dc.lft.to/lastmile_qr_scan", "android": "https://dc.lft.to/lastmile_qr_scan"}, "type": "electric_scooter"}, {"name": "43fcb90ba62f1a039d877d5196f4ed76", "is_reserved": 0, "fusion_lon": 0.0, "bike_id": "43fcb90ba62f1a039d877d5196f4ed76", "lat": 38.905233, "is_disabled": 0, "lon": -77.040824, "fusion_lat": 0.0, "rental_uris": {"ios": "https://dc.lft.to/lastmile_qr_scan", "android": "https://dc.lft.to/lastmile_qr_scan"}, "type": "electric_scooter"}, {"name": "594e57e0262d08aef87d05a685891bd9", "is_reserved": 0, "fusion_lon": 0.0, "bike_id": "594e57e0262d08aef87d05a685891bd9", "lat": 38.8848665, "is_disabled": 0, "lon": -77.0070855, "fusion_lat": 0.0, "rental_uris": {"ios": "https://dc.lft.to/lastmile_qr_scan", "android": "https://dc.lft.to/lastmile_qr_scan"}, "type": "electric_scooter"}, {"name": "996289544f161356e336827486979769", "is_reserved": 0, "fusion_lon": 0.0, "bike_id": "996289544f161356e336827486979769", "lat": 38.949214833333336, "is_disabled": 0, "lon": -77.0185295, "fusion_lat": 0.0, "rental_uris": {"ios": "https://dc.lft.to/lastmile_qr_scan", "android": "https://dc.lft.to/lastmile_qr_scan"}, "type": "electric_scooter"}, {"name": "7a78aaa1643f241639cac7f9a2fda62c", "is_reserved": 0, "fusion_lon": 0.0, "bike_id": "7a78aaa1643f241639cac7f9a2fda62c", "lat": 38.90056116666667, "is_disabled": 0, "lon": -77.04591016666667, "fusion_lat": 0.0, "rental_uris": {"ios": "https://dc.lft.to/lastmile_qr_scan", "android": "https://dc.lft.to/lastmile_qr_scan"}, "type": "electric_scooter"}, {"name": "c9c6c883c300a6c79814e515909b5260", "is_reserved": 0, "fusion_lon": 0.0, "bike_id": "c9c6c883c300a6c79814e515909b5260", "lat": 38.88435966666667, "is_disabled": 0, "lon": -76.99914033333333, "fusion_lat": 0.0, "rental_uris": {"ios": "https://dc.lft.to/lastmile_qr_scan", "android": "https://dc.lft.to/lastmile_qr_scan"}, "type": "electric_scooter"}, {"name": "a23547378764586cb72a433e4b16b3b7", "is_reserved": 0, "fusion_lon": 0.0, "bike_id": "a23547378764586cb72a433e4b16b3b7", "lat": 38.892356666666664, "is_disabled": 0, "lon": -77.03182366666667, "fusion_lat": 0.0, "rental_uris": {"ios": "https://dc.lft.to/lastmile_qr_scan", "android": "https://dc.lft.to/lastmile_qr_scan"}, "type": "electric_scooter"}, {"name": "5c93b0733ba15f4e9916384eb741fc31", "is_reserved": 0, "fusion_lon": 0.0, "bike_id": "5c93b0733ba15f4e9916384eb741fc31", "lat": 38.89160483333333, "is_disabled": 0, "lon": -76.99150983333334, "fusion_lat": 0.0, "rental_uris": {"ios": "https://dc.lft.to/lastmile_qr_scan", "android": "https://dc.lft.to/lastmile_qr_scan"}, "type": "electric_scooter"}, {"name": "7f2497cb41bc9f45490758ff60e749ae", "is_reserved": 0, "fusion_lon": 0.0, "bike_id": "7f2497cb41bc9f45490758ff60e749ae", "lat": 38.90017533333334, "is_disabled": 0, "lon": -76.99863316666666, "fusion_lat": 0.0, "rental_uris": {"ios": "https://dc.lft.to/lastmile_qr_scan", "android": "https://dc.lft.to/lastmile_qr_scan"}, "type": "electric_scooter"}, {"name": "62f2904cc1f60be5d557ebcf169d55fc", "is_reserved": 0, "fusion_lon": 0.0, "bike_id": "62f2904cc1f60be5d557ebcf169d55fc", "lat": 38.9169635, "is_disabled": 0, "lon": -77.092228, "fusion_lat": 0.0, "rental_uris": {"ios": "https://dc.lft.to/lastmile_qr_scan", "android": "https://dc.lft.to/lastmile_qr_scan"}, "type": "electric_scooter"}, {"name": "e15eb31405da5bf3064669cf040fe5bc", "is_reserved": 0, "fusion_lon": 0.0, "bike_id": "e15eb31405da5bf3064669cf040fe5bc", "lat": 38.8983205, "is_disabled": 0, "lon": -77.04336116666667, "fusion_lat": 0.0, "rental_uris": {"ios": "https://dc.lft.to/lastmile_qr_scan", "android": "https://dc.lft.to/lastmile_qr_scan"}, "type": "electric_bike"}, {"name": "1745104fe1086636d37b33264e24b027", "is_reserved": 0, "fusion_lon": 0.0, "bike_id": "1745104fe1086636d37b33264e24b027", "lat": 38.886798666666664, "is_disabled": 0, "lon": -77.00207216666666, "fusion_lat": 0.0, "rental_uris": {"ios": "https://dc.lft.to/lastmile_qr_scan", "android": "https://dc.lft.to/lastmile_qr_scan"}, "type": "electric_bike"}, {"name": "831a1af44fb975d405f83a6234cd8c89", "is_reserved": 0, "fusion_lon": 0.0, "bike_id": "831a1af44fb975d405f83a6234cd8c89", "lat": 38.89504516666667, "is_disabled": 0, "lon": -77.04676083333334, "fusion_lat": 0.0, "rental_uris": {"ios": "https://dc.lft.to/lastmile_qr_scan", "android": "https://dc.lft.to/lastmile_qr_scan"}, "type": "electric_scooter"}, {"name": "d057838edbad156f8badd13c7427b69c", "is_reserved": 0, "fusion_lon": 0.0, "bike_id": "d057838edbad156f8badd13c7427b69c", "lat": 38.898523833333336, "is_disabled": 0, "lon": -77.03934583333333, "fusion_lat": 0.0, "rental_uris": {"ios": "https://dc.lft.to/lastmile_qr_scan", "android": "https://dc.lft.to/lastmile_qr_scan"}, "type": "electric_scooter"}, {"name": "86c78e270a3a9999babc9cc364362325", "is_reserved": 0, "fusion_lon": 0.0, "bike_id": "86c78e270a3a9999babc9cc364362325", "lat": 38.902871, "is_disabled": 0, "lon": -77.04681966666666, "fusion_lat": 0.0, "rental_uris": {"ios": "https://dc.lft.to/lastmile_qr_scan", "android": "https://dc.lft.to/lastmile_qr_scan"}, "type": "electric_scooter"}, {"name": "9a7f61628162a27deac5ec7a2fc52dad", "is_reserved": 0, "fusion_lon": 0.0, "bike_id": "9a7f61628162a27deac5ec7a2fc52dad", "lat": 38.90863933333333, "is_disabled": 0, "lon": -77.018354, "fusion_lat": 0.0, "rental_uris": {"ios": "https://dc.lft.to/lastmile_qr_scan", "android": "https://dc.lft.to/lastmile_qr_scan"}, "type": "electric_scooter"}, {"name": "d64804ec6d529e60343178f5f354967a", "is_reserved": 0, "fusion_lon": 0.0, "bike_id": "d64804ec6d529e60343178f5f354967a", "lat": 38.922463, "is_disabled": 0, "lon": -77.00830083333334, "fusion_lat": 0.0, "rental_uris": {"ios": "https://dc.lft.to/lastmile_qr_scan", "android": "https://dc.lft.to/lastmile_qr_scan"}, "type": "electric_scooter"}, {"name": "d7ea21c697ad427f38ced94375ec576d", "is_reserved": 0, "fusion_lon": 0.0, "bike_id": "d7ea21c697ad427f38ced94375ec576d", "lat": 38.953506833333336, "is_disabled": 0, "lon": -76.98090883333333, "fusion_lat": 0.0, "rental_uris": {"ios": "https://dc.lft.to/lastmile_qr_scan", "android": "https://dc.lft.to/lastmile_qr_scan"}, "type": "electric_bike"}, {"name": "cd2e2ee296d3ddc2dd60ed2503db00ee", "is_reserved": 0, "fusion_lon": 0.0, "bike_id": "cd2e2ee296d3ddc2dd60ed2503db00ee", "lat": 38.872098333333334, "is_disabled": 0, "lon": -77.00585266666667, "fusion_lat": 0.0, "rental_uris": {"ios": "https://dc.lft.to/lastmile_qr_scan", "android": "https://dc.lft.to/lastmile_qr_scan"}, "type": "electric_scooter"}, {"name": "479fcbded83707d9b2291a435bbca598", "is_reserved": 0, "fusion_lon": 0.0, "bike_id": "479fcbded83707d9b2291a435bbca598", "lat": 38.9048145, "is_disabled": 0, "lon": -77.03552833333333, "fusion_lat": 0.0, "rental_uris": {"ios": "https://dc.lft.to/lastmile_qr_scan", "android": "https://dc.lft.to/lastmile_qr_scan"}, "type": "electric_scooter"}, {"name": "25c9d7b7d14c16b5fe273da7ecf23268", "is_reserved": 0, "fusion_lon": 0.0, "bike_id": "25c9d7b7d14c16b5fe273da7ecf23268", "lat": 38.876441666666665, "is_disabled": 0, "lon": -77.00338366666666, "fusion_lat": 0.0, "rental_uris": {"ios": "https://dc.lft.to/lastmile_qr_scan", "android": "https://dc.lft.to/lastmile_qr_scan"}, "type": "electric_scooter"}, {"name": "6f0941ade4ff09f31b0aae57d198373a", "is_reserved": 0, "fusion_lon": 0.0, "bike_id": "6f0941ade4ff09f31b0aae57d198373a", "lat": 38.89916733333333, "is_disabled": 0, "lon": -77.00866366666666, "fusion_lat": 0.0, "rental_uris": {"ios": "https://dc.lft.to/lastmile_qr_scan", "android": "https://dc.lft.to/lastmile_qr_scan"}, "type": "electric_scooter"}, {"name": "229bca656af45cafd17f87fa05c58ce8", "is_reserved": 0, "fusion_lon": 0.0, "bike_id": "229bca656af45cafd17f87fa05c58ce8", "lat": 38.90270966666667, "is_disabled": 0, "lon": -77.03037566666667, "fusion_lat": 0.0, "rental_uris": {"ios": "https://dc.lft.to/lastmile_qr_scan", "android": "https://dc.lft.to/lastmile_qr_scan"}, "type": "electric_scooter"}, {"name": "3ce5962c40a58db55414a8f05da4f8d9", "is_reserved": 0, "fusion_lon": 0.0, "bike_id": "3ce5962c40a58db55414a8f05da4f8d9", "lat": 38.935527, "is_disabled": 0, "lon": -77.07465933333333, "fusion_lat": 0.0, "rental_uris": {"ios": "https://dc.lft.to/lastmile_qr_scan", "android": "https://dc.lft.to/lastmile_qr_scan"}, "type": "electric_scooter"}, {"name": "ccabb2cb86d28eaf495ed076c2484d87", "is_reserved": 0, "fusion_lon": 0.0, "bike_id": "ccabb2cb86d28eaf495ed076c2484d87", "lat": 38.892285333333334, "is_disabled": 0, "lon": -77.0499575, "fusion_lat": 0.0, "rental_uris": {"ios": "https://dc.lft.to/lastmile_qr_scan", "android": "https://dc.lft.to/lastmile_qr_scan"}, "type": "electric_scooter"}, {"name": "6c1a656c670ece39d289e0c05969f4d3", "is_reserved": 0, "fusion_lon": 0.0, "bike_id": "6c1a656c670ece39d289e0c05969f4d3", "lat": 38.91994833333333, "is_disabled": 0, "lon": -77.02061766666667, "fusion_lat": 0.0, "rental_uris": {"ios": "https://dc.lft.to/lastmile_qr_scan", "android": "https://dc.lft.to/lastmile_qr_scan"}, "type": "electric_scooter"}, {"name": "789e22f427cb7120530a5d6229f033a0", "is_reserved": 0, "fusion_lon": 0.0, "bike_id": "789e22f427cb7120530a5d6229f033a0", "lat": 38.86620083333333, "is_disabled": 0, "lon": -76.945691, "fusion_lat": 0.0, "rental_uris": {"ios": "https://dc.lft.to/lastmile_qr_scan", "android": "https://dc.lft.to/lastmile_qr_scan"}, "type": "electric_bike"}, {"name": "740643f08f48f590f9c7e7b0ee2c99d8", "is_reserved": 0, "fusion_lon": 0.0, "bike_id": "740643f08f48f590f9c7e7b0ee2c99d8", "lat": 38.952439166666665, "is_disabled": 0, "lon": -77.0962115, "fusion_lat": 0.0, "rental_uris": {"ios": "https://dc.lft.to/lastmile_qr_scan", "android": "https://dc.lft.to/lastmile_qr_scan"}, "type": "electric_bike"}, {"name": "6ab3b8e5811650c35ddf262138ac6705", "is_reserved": 0, "fusion_lon": 0.0, "bike_id": "6ab3b8e5811650c35ddf262138ac6705", "lat": 38.891972833333334, "is_disabled": 0, "lon": -77.0339095, "fusion_lat": 0.0, "rental_uris": {"ios": "https://dc.lft.to/lastmile_qr_scan", "android": "https://dc.lft.to/lastmile_qr_scan"}, "type": "electric_bike"}, {"name": "9b9910e17d334ff7c8e99e744718f9a3", "is_reserved": 0, "fusion_lon": 0.0, "bike_id": "9b9910e17d334ff7c8e99e744718f9a3", "lat": 38.96132266666667, "is_disabled": 0, "lon": -77.03261233333333, "fusion_lat": 0.0, "rental_uris": {"ios": "https://dc.lft.to/lastmile_qr_scan", "android": "https://dc.lft.to/lastmile_qr_scan"}, "type": "electric_bike"}, {"name": "bdfa6ce84c8c961435e91eb617357870", "is_reserved": 0, "fusion_lon": 0.0, "bike_id": "bdfa6ce84c8c961435e91eb617357870", "lat": 38.90247, "is_disabled": 0, "lon": -77.03971916666667, "fusion_lat": 0.0, "rental_uris": {"ios": "https://dc.lft.to/lastmile_qr_scan", "android": "https://dc.lft.to/lastmile_qr_scan"}, "type": "electric_scooter"}, {"name": "4572c8c2a991ff485bc8b9668be7e466", "is_reserved": 0, "fusion_lon": 0.0, "bike_id": "4572c8c2a991ff485bc8b9668be7e466", "lat": 38.90267716666666, "is_disabled": 0, "lon": -77.027453, "fusion_lat": 0.0, "rental_uris": {"ios": "https://dc.lft.to/lastmile_qr_scan", "android": "https://dc.lft.to/lastmile_qr_scan"}, "type": "electric_scooter"}, {"name": "1a3bac93b68ee7325a9947a6d805ab01", "is_reserved": 0, "fusion_lon": 0.0, "bike_id": "1a3bac93b68ee7325a9947a6d805ab01", "lat": 38.96465233333333, "is_disabled": 0, "lon": -77.03570316666666, "fusion_lat": 0.0, "rental_uris": {"ios": "https://dc.lft.to/lastmile_qr_scan", "android": "https://dc.lft.to/lastmile_qr_scan"}, "type": "electric_bike"}, {"name": "2206a52aaec39fb0ea393a2451e99ae3", "is_reserved": 0, "fusion_lon": 0.0, "bike_id": "2206a52aaec39fb0ea393a2451e99ae3", "lat": 38.936055, "is_disabled": 0, "lon": -77.00218483333333, "fusion_lat": 0.0, "rental_uris": {"ios": "https://dc.lft.to/lastmile_qr_scan", "android": "https://dc.lft.to/lastmile_qr_scan"}, "type": "electric_bike"}, {"name": "cac4ef7439cdcf591dcac1c6ea7fa96e", "is_reserved": 0, "fusion_lon": 0.0, "bike_id": "cac4ef7439cdcf591dcac1c6ea7fa96e", "lat": 38.9223885, "is_disabled": 0, "lon": -77.03660316666667, "fusion_lat": 0.0, "rental_uris": {"ios": "https://dc.lft.to/lastmile_qr_scan", "android": "https://dc.lft.to/lastmile_qr_scan"}, "type": "electric_scooter"}, {"name": "2a7e0b4fb71699b150cdf29c472f4f18", "is_reserved": 0, "fusion_lon": 0.0, "bike_id": "2a7e0b4fb71699b150cdf29c472f4f18", "lat": 38.89226, "is_disabled": 0, "lon": -77.03219333333334, "fusion_lat": 0.0, "rental_uris": {"ios": "https://dc.lft.to/lastmile_qr_scan", "android": "https://dc.lft.to/lastmile_qr_scan"}, "type": "electric_scooter"}, {"name": "b429945d4bc5a033530d5176caf4e157", "is_reserved": 0, "fusion_lon": 0.0, "bike_id": "b429945d4bc5a033530d5176caf4e157", "lat": 38.91920983333333, "is_disabled": 0, "lon": -77.02506183333334, "fusion_lat": 0.0, "rental_uris": {"ios": "https://dc.lft.to/lastmile_qr_scan", "android": "https://dc.lft.to/lastmile_qr_scan"}, "type": "electric_scooter"}, {"name": "b9e7fade310ee9af14e2606cee79b467", "is_reserved": 0, "fusion_lon": 0.0, "bike_id": "b9e7fade310ee9af14e2606cee79b467", "lat": 38.907292166666664, "is_disabled": 0, "lon": -77.02819216666667, "fusion_lat": 0.0, "rental_uris": {"ios": "https://dc.lft.to/lastmile_qr_scan", "android": "https://dc.lft.to/lastmile_qr_scan"}, "type": "electric_scooter"}, {"name": "109212bc103f28ec60b496b86087141f", "is_reserved": 0, "fusion_lon": 0.0, "bike_id": "109212bc103f28ec60b496b86087141f", "lat": 38.94749266666667, "is_disabled": 0, "lon": -77.03278533333334, "fusion_lat": 0.0, "rental_uris": {"ios": "https://dc.lft.to/lastmile_qr_scan", "android": "https://dc.lft.to/lastmile_qr_scan"}, "type": "electric_scooter"}, {"name": "55ac2b570baa0574ea9c1544b9e688f2", "is_reserved": 0, "fusion_lon": 0.0, "bike_id": "55ac2b570baa0574ea9c1544b9e688f2", "lat": 38.920138333333334, "is_disabled": 0, "lon": -77.071364, "fusion_lat": 0.0, "rental_uris": {"ios": "https://dc.lft.to/lastmile_qr_scan", "android": "https://dc.lft.to/lastmile_qr_scan"}, "type": "electric_scooter"}, {"name": "dae284f720bbc571e201c78f5acc2be1", "is_reserved": 0, "fusion_lon": 0.0, "bike_id": "dae284f720bbc571e201c78f5acc2be1", "lat": 38.99176716666667, "is_disabled": 0, "lon": -77.0958075, "fusion_lat": 0.0, "rental_uris": {"ios": "https://dc.lft.to/lastmile_qr_scan", "android": "https://dc.lft.to/lastmile_qr_scan"}, "type": "electric_bike"}, {"name": "9d178a9d3870556ab30b890ecb954ac6", "is_reserved": 0, "fusion_lon": 0.0, "bike_id": "9d178a9d3870556ab30b890ecb954ac6", "lat": 38.909052833333334, "is_disabled": 0, "lon": -77.08997233333334, "fusion_lat": 0.0, "rental_uris": {"ios": "https://dc.lft.to/lastmile_qr_scan", "android": "https://dc.lft.to/lastmile_qr_scan"}, "type": "electric_bike"}, {"name": "2ff1e55123e468ef41b2a3a4c2f0be0c", "is_reserved": 0, "fusion_lon": 0.0, "bike_id": "2ff1e55123e468ef41b2a3a4c2f0be0c", "lat": 38.9370335, "is_disabled": 0, "lon": -77.05943516666666, "fusion_lat": 0.0, "rental_uris": {"ios": "https://dc.lft.to/lastmile_qr_scan", "android": "https://dc.lft.to/lastmile_qr_scan"}, "type": "electric_scooter"}, {"name": "f483623471b72e1c674a70235d68f7f5", "is_reserved": 0, "fusion_lon": 0.0, "bike_id": "f483623471b72e1c674a70235d68f7f5", "lat": 38.91074733333333, "is_disabled": 0, "lon": -77.01625933333334, "fusion_lat": 0.0, "rental_uris": {"ios": "https://dc.lft.to/lastmile_qr_scan", "android": "https://dc.lft.to/lastmile_qr_scan"}, "type": "electric_scooter"}, {"name": "6d754a69dee5b363f955d352a6ee27ee", "is_reserved": 0, "fusion_lon": 0.0, "bike_id": "6d754a69dee5b363f955d352a6ee27ee", "lat": 38.90778616666667, "is_disabled": 0, "lon": -77.0816925, "fusion_lat": 0.0, "rental_uris": {"ios": "https://dc.lft.to/lastmile_qr_scan", "android": "https://dc.lft.to/lastmile_qr_scan"}, "type": "electric_bike"}, {"name": "a042cbe9372fa13930fe3e1e1c7662fa", "is_reserved": 0, "fusion_lon": 0.0, "bike_id": "a042cbe9372fa13930fe3e1e1c7662fa", "lat": 38.92701366666667, "is_disabled": 0, "lon": -77.02383433333334, "fusion_lat": 0.0, "rental_uris": {"ios": "https://dc.lft.to/lastmile_qr_scan", "android": "https://dc.lft.to/lastmile_qr_scan"}, "type": "electric_scooter"}, {"name": "f1bbc4640aa54535f8abee5a38f5cc12", "is_reserved": 0, "fusion_lon": 0.0, "bike_id": "f1bbc4640aa54535f8abee5a38f5cc12", "lat": 38.88433833333333, "is_disabled": 0, "lon": -76.99595666666667, "fusion_lat": 0.0, "rental_uris": {"ios": "https://dc.lft.to/lastmile_qr_scan", "android": "https://dc.lft.to/lastmile_qr_scan"}, "type": "electric_scooter"}, {"name": "c0c74db9cdd80f2861ae99004f9ad846", "is_reserved": 0, "fusion_lon": 0.0, "bike_id": "c0c74db9cdd80f2861ae99004f9ad846", "lat": 38.916320166666665, "is_disabled": 0, "lon": -77.03212216666667, "fusion_lat": 0.0, "rental_uris": {"ios": "https://dc.lft.to/lastmile_qr_scan", "android": "https://dc.lft.to/lastmile_qr_scan"}, "type": "electric_scooter"}, {"name": "e7bd4509b5e429f33850ea0d7f918917", "is_reserved": 0, "fusion_lon": 0.0, "bike_id": "e7bd4509b5e429f33850ea0d7f918917", "lat": 38.897505333333335, "is_disabled": 0, "lon": -77.0449875, "fusion_lat": 0.0, "rental_uris": {"ios": "https://dc.lft.to/lastmile_qr_scan", "android": "https://dc.lft.to/lastmile_qr_scan"}, "type": "electric_scooter"}, {"name": "09cd7a463252cf8b25aa13c3fdca9eb2", "is_reserved": 0, "fusion_lon": 0.0, "bike_id": "09cd7a463252cf8b25aa13c3fdca9eb2", "lat": 38.9002845, "is_disabled": 0, "lon": -76.98831333333334, "fusion_lat": 0.0, "rental_uris": {"ios": "https://dc.lft.to/lastmile_qr_scan", "android": "https://dc.lft.to/lastmile_qr_scan"}, "type": "electric_scooter"}, {"name": "591e240321e7ef76853fa7dda8488dc8", "is_reserved": 0, "fusion_lon": 0.0, "bike_id": "591e240321e7ef76853fa7dda8488dc8", "lat": 38.904112, "is_disabled": 0, "lon": -76.97330066666666, "fusion_lat": 0.0, "rental_uris": {"ios": "https://dc.lft.to/lastmile_qr_scan", "android": "https://dc.lft.to/lastmile_qr_scan"}, "type": "electric_scooter"}, {"name": "efbd306f72b7652fa78a67e0c9d55702", "is_reserved": 0, "fusion_lon": 0.0, "bike_id": "efbd306f72b7652fa78a67e0c9d55702", "lat": 38.9177545, "is_disabled": 0, "lon": -77.032023, "fusion_lat": 0.0, "rental_uris": {"ios": "https://dc.lft.to/lastmile_qr_scan", "android": "https://dc.lft.to/lastmile_qr_scan"}, "type": "electric_scooter"}, {"name": "9333ca997ef6538593caf8e067d5b93b", "is_reserved": 0, "fusion_lon": 0.0, "bike_id": "9333ca997ef6538593caf8e067d5b93b", "lat": 38.86031233333333, "is_disabled": 0, "lon": -76.98372916666666, "fusion_lat": 0.0, "rental_uris": {"ios": "https://dc.lft.to/lastmile_qr_scan", "android": "https://dc.lft.to/lastmile_qr_scan"}, "type": "electric_scooter"}, {"name": "f88517325eda24fcd6aa0388a664afcd", "is_reserved": 0, "fusion_lon": 0.0, "bike_id": "f88517325eda24fcd6aa0388a664afcd", "lat": 38.901171833333336, "is_disabled": 0, "lon": -76.9816895, "fusion_lat": 0.0, "rental_uris": {"ios": "https://dc.lft.to/lastmile_qr_scan", "android": "https://dc.lft.to/lastmile_qr_scan"}, "type": "electric_scooter"}, {"name": "5874cca9eb275bc8e7612a9c021e0a64", "is_reserved": 0, "fusion_lon": 0.0, "bike_id": "5874cca9eb275bc8e7612a9c021e0a64", "lat": 38.93779466666667, "is_disabled": 0, "lon": -77.01991233333334, "fusion_lat": 0.0, "rental_uris": {"ios": "https://dc.lft.to/lastmile_qr_scan", "android": "https://dc.lft.to/lastmile_qr_scan"}, "type": "electric_scooter"}, {"name": "a0b36ccd44ca98f3135a96b1ae9d5458", "is_reserved": 0, "fusion_lon": 0.0, "bike_id": "a0b36ccd44ca98f3135a96b1ae9d5458", "lat": 38.875453666666665, "is_disabled": 0, "lon": -77.00533733333333, "fusion_lat": 0.0, "rental_uris": {"ios": "https://dc.lft.to/lastmile_qr_scan", "android": "https://dc.lft.to/lastmile_qr_scan"}, "type": "electric_scooter"}, {"name": "184c3f21aaeecc460d46506bf72b1565", "is_reserved": 0, "fusion_lon": 0.0, "bike_id": "184c3f21aaeecc460d46506bf72b1565", "lat": 38.90137416666666, "is_disabled": 0, "lon": -77.04394633333334, "fusion_lat": 0.0, "rental_uris": {"ios": "https://dc.lft.to/lastmile_qr_scan", "android": "https://dc.lft.to/lastmile_qr_scan"}, "type": "electric_scooter"}, {"name": "2c79760fb5777cd941cc88bb62e7f27c", "is_reserved": 0, "fusion_lon": 0.0, "bike_id": "2c79760fb5777cd941cc88bb62e7f27c", "lat": 38.92366283333333, "is_disabled": 0, "lon": -77.021236, "fusion_lat": 0.0, "rental_uris": {"ios": "https://dc.lft.to/lastmile_qr_scan", "android": "https://dc.lft.to/lastmile_qr_scan"}, "type": "electric_scooter"}, {"name": "738f69eb84db76d813dc8676b00d1ad6", "is_reserved": 0, "fusion_lon": 0.0, "bike_id": "738f69eb84db76d813dc8676b00d1ad6", "lat": 38.916, "is_disabled": 0, "lon": -77.04902683333333, "fusion_lat": 0.0, "rental_uris": {"ios": "https://dc.lft.to/lastmile_qr_scan", "android": "https://dc.lft.to/lastmile_qr_scan"}, "type": "electric_scooter"}, {"name": "05857e3294b5545aaf8c0d0219bd43ce", "is_reserved": 0, "fusion_lon": 0.0, "bike_id": "05857e3294b5545aaf8c0d0219bd43ce", "lat": 38.92443866666667, "is_disabled": 0, "lon": -77.02150166666667, "fusion_lat": 0.0, "rental_uris": {"ios": "https://dc.lft.to/lastmile_qr_scan", "android": "https://dc.lft.to/lastmile_qr_scan"}, "type": "electric_scooter"}, {"name": "87b0e955d8d6b7ced8e5f97c3159819d", "is_reserved": 0, "fusion_lon": 0.0, "bike_id": "87b0e955d8d6b7ced8e5f97c3159819d", "lat": 38.873758333333335, "is_disabled": 0, "lon": -77.0018625, "fusion_lat": 0.0, "rental_uris": {"ios": "https://dc.lft.to/lastmile_qr_scan", "android": "https://dc.lft.to/lastmile_qr_scan"}, "type": "electric_scooter"}, {"name": "ebf62180edc1f9d75532646f3e9cf897", "is_reserved": 0, "fusion_lon": 0.0, "bike_id": "ebf62180edc1f9d75532646f3e9cf897", "lat": 38.91931983333333, "is_disabled": 0, "lon": -77.0249725, "fusion_lat": 0.0, "rental_uris": {"ios": "https://dc.lft.to/lastmile_qr_scan", "android": "https://dc.lft.to/lastmile_qr_scan"}, "type": "electric_scooter"}, {"name": "44676a0390affaa2c654e6af83e15a69", "is_reserved": 0, "fusion_lon": 0.0, "bike_id": "44676a0390affaa2c654e6af83e15a69", "lat": 38.895734166666664, "is_disabled": 0, "lon": -77.02528516666666, "fusion_lat": 0.0, "rental_uris": {"ios": "https://dc.lft.to/lastmile_qr_scan", "android": "https://dc.lft.to/lastmile_qr_scan"}, "type": "electric_scooter"}, {"name": "3ce3c0756335c53892bdcf7dc82e59a6", "is_reserved": 0, "fusion_lon": 0.0, "bike_id": "3ce3c0756335c53892bdcf7dc82e59a6", "lat": 38.91483916666667, "is_disabled": 0, "lon": -76.98359066666667, "fusion_lat": 0.0, "rental_uris": {"ios": "https://dc.lft.to/lastmile_qr_scan", "android": "https://dc.lft.to/lastmile_qr_scan"}, "type": "electric_scooter"}, {"name": "e62320189001d64f5526ea0fe5f5a5e2", "is_reserved": 0, "fusion_lon": 0.0, "bike_id": "e62320189001d64f5526ea0fe5f5a5e2", "lat": 38.9346645, "is_disabled": 0, "lon": -77.05306683333333, "fusion_lat": 0.0, "rental_uris": {"ios": "https://dc.lft.to/lastmile_qr_scan", "android": "https://dc.lft.to/lastmile_qr_scan"}, "type": "electric_scooter"}, {"name": "713cc17817f20efa9e1ad468c89252f2", "is_reserved": 0, "fusion_lon": 0.0, "bike_id": "713cc17817f20efa9e1ad468c89252f2", "lat": 38.927176, "is_disabled": 0, "lon": -77.03246766666666, "fusion_lat": 0.0, "rental_uris": {"ios": "https://dc.lft.to/lastmile_qr_scan", "android": "https://dc.lft.to/lastmile_qr_scan"}, "type": "electric_scooter"}, {"name": "dcae2fa6d2851c5812d0623604de05a7", "is_reserved": 0, "fusion_lon": 0.0, "bike_id": "dcae2fa6d2851c5812d0623604de05a7", "lat": 38.897822, "is_disabled": 0, "lon": -77.01205516666667, "fusion_lat": 0.0, "rental_uris": {"ios": "https://dc.lft.to/lastmile_qr_scan", "android": "https://dc.lft.to/lastmile_qr_scan"}, "type": "electric_scooter"}, {"name": "51e1899ac10405accaaf2d0be4fdd77b", "is_reserved": 0, "fusion_lon": 0.0, "bike_id": "51e1899ac10405accaaf2d0be4fdd77b", "lat": 38.907288666666666, "is_disabled": 0, "lon": -77.018375, "fusion_lat": 0.0, "rental_uris": {"ios": "https://dc.lft.to/lastmile_qr_scan", "android": "https://dc.lft.to/lastmile_qr_scan"}, "type": "electric_scooter"}, {"name": "c76abe26952400968eb447a479efac81", "is_reserved": 0, "fusion_lon": 0.0, "bike_id": "c76abe26952400968eb447a479efac81", "lat": 38.893595833333336, "is_disabled": 0, "lon": -77.04478483333334, "fusion_lat": 0.0, "rental_uris": {"ios": "https://dc.lft.to/lastmile_qr_scan", "android": "https://dc.lft.to/lastmile_qr_scan"}, "type": "electric_scooter"}, {"name": "97174bafdd53e6a008610849e0581c1f", "is_reserved": 0, "fusion_lon": 0.0, "bike_id": "97174bafdd53e6a008610849e0581c1f", "lat": 38.898851666666665, "is_disabled": 0, "lon": -77.03923966666666, "fusion_lat": 0.0, "rental_uris": {"ios": "https://dc.lft.to/lastmile_qr_scan", "android": "https://dc.lft.to/lastmile_qr_scan"}, "type": "electric_scooter"}, {"name": "65bbfca6bf212bcd39e5bfde1cf131e1", "is_reserved": 0, "fusion_lon": 0.0, "bike_id": "65bbfca6bf212bcd39e5bfde1cf131e1", "lat": 38.9190625, "is_disabled": 0, "lon": -77.02050466666667, "fusion_lat": 0.0, "rental_uris": {"ios": "https://dc.lft.to/lastmile_qr_scan", "android": "https://dc.lft.to/lastmile_qr_scan"}, "type": "electric_scooter"}, {"name": "b88a121164242dc2e79d2dbbb974062e", "is_reserved": 0, "fusion_lon": 0.0, "bike_id": "b88a121164242dc2e79d2dbbb974062e", "lat": 38.91832733333333, "is_disabled": 0, "lon": -77.031996, "fusion_lat": 0.0, "rental_uris": {"ios": "https://dc.lft.to/lastmile_qr_scan", "android": "https://dc.lft.to/lastmile_qr_scan"}, "type": "electric_scooter"}, {"name": "8e64d3fd51484f8f9fd57853f7106fdd", "is_reserved": 0, "fusion_lon": 0.0, "bike_id": "8e64d3fd51484f8f9fd57853f7106fdd", "lat": 38.8560055, "is_disabled": 0, "lon": -76.9726645, "fusion_lat": 0.0, "rental_uris": {"ios": "https://dc.lft.to/lastmile_qr_scan", "android": "https://dc.lft.to/lastmile_qr_scan"}, "type": "electric_bike"}, {"name": "250ecd7024a89dae8bc69c805da27bb0", "is_reserved": 0, "fusion_lon": 0.0, "bike_id": "250ecd7024a89dae8bc69c805da27bb0", "lat": 38.9191255, "is_disabled": 0, "lon": -77.03195666666667, "fusion_lat": 0.0, "rental_uris": {"ios": "https://dc.lft.to/lastmile_qr_scan", "android": "https://dc.lft.to/lastmile_qr_scan"}, "type": "electric_scooter"}, {"name": "e978b928a73748aed2167916a4a1224f", "is_reserved": 0, "fusion_lon": 0.0, "bike_id": "e978b928a73748aed2167916a4a1224f", "lat": 38.881219, "is_disabled": 0, "lon": -77.01868366666666, "fusion_lat": 0.0, "rental_uris": {"ios": "https://dc.lft.to/lastmile_qr_scan", "android": "https://dc.lft.to/lastmile_qr_scan"}, "type": "electric_scooter"}, {"name": "ce4b4b3cd7cbc3eea24f39ee00799f52", "is_reserved": 0, "fusion_lon": 0.0, "bike_id": "ce4b4b3cd7cbc3eea24f39ee00799f52", "lat": 38.897402166666666, "is_disabled": 0, "lon": -77.04949533333334, "fusion_lat": 0.0, "rental_uris": {"ios": "https://dc.lft.to/lastmile_qr_scan", "android": "https://dc.lft.to/lastmile_qr_scan"}, "type": "electric_scooter"}, {"name": "0b8431c8302ff26407d42ae3ebe6dfeb", "is_reserved": 0, "fusion_lon": 0.0, "bike_id": "0b8431c8302ff26407d42ae3ebe6dfeb", "lat": 38.901001, "is_disabled": 0, "lon": -76.929298, "fusion_lat": 0.0, "rental_uris": {"ios": "https://dc.lft.to/lastmile_qr_scan", "android": "https://dc.lft.to/lastmile_qr_scan"}, "type": "electric_scooter"}, {"name": "3cbe965dc006d4838e0fb6b105cfee5a", "is_reserved": 0, "fusion_lon": 0.0, "bike_id": "3cbe965dc006d4838e0fb6b105cfee5a", "lat": 38.90977683333333, "is_disabled": 0, "lon": -77.01839883333334, "fusion_lat": 0.0, "rental_uris": {"ios": "https://dc.lft.to/lastmile_qr_scan", "android": "https://dc.lft.to/lastmile_qr_scan"}, "type": "electric_scooter"}, {"name": "01ef004a617a069458dd7d944137ec34", "is_reserved": 0, "fusion_lon": 0.0, "bike_id": "01ef004a617a069458dd7d944137ec34", "lat": 38.8861215, "is_disabled": 0, "lon": -77.003207, "fusion_lat": 0.0, "rental_uris": {"ios": "https://dc.lft.to/lastmile_qr_scan", "android": "https://dc.lft.to/lastmile_qr_scan"}, "type": "electric_scooter"}, {"name": "a9f6ca05bc5d900edcb653670d5dcc35", "is_reserved": 0, "fusion_lon": 0.0, "bike_id": "a9f6ca05bc5d900edcb653670d5dcc35", "lat": 38.9188485, "is_disabled": 0, "lon": -77.02970316666666, "fusion_lat": 0.0, "rental_uris": {"ios": "https://dc.lft.to/lastmile_qr_scan", "android": "https://dc.lft.to/lastmile_qr_scan"}, "type": "electric_scooter"}, {"name": "4d7912ab66740bc9ad6103dafbf3ed4a", "is_reserved": 0, "fusion_lon": 0.0, "bike_id": "4d7912ab66740bc9ad6103dafbf3ed4a", "lat": 38.923303833333335, "is_disabled": 0, "lon": -77.00892183333333, "fusion_lat": 0.0, "rental_uris": {"ios": "https://dc.lft.to/lastmile_qr_scan", "android": "https://dc.lft.to/lastmile_qr_scan"}, "type": "electric_scooter"}, {"name": "33beb90809656555a1b9bb89119baa2d", "is_reserved": 0, "fusion_lon": 0.0, "bike_id": "33beb90809656555a1b9bb89119baa2d", "lat": 38.893581833333336, "is_disabled": 0, "lon": -77.00335016666666, "fusion_lat": 0.0, "rental_uris": {"ios": "https://dc.lft.to/lastmile_qr_scan", "android": "https://dc.lft.to/lastmile_qr_scan"}, "type": "electric_scooter"}, {"name": "10a29b58c1e17ac3519001b5963aedb5", "is_reserved": 0, "fusion_lon": 0.0, "bike_id": "10a29b58c1e17ac3519001b5963aedb5", "lat": 38.90216983333333, "is_disabled": 0, "lon": -77.02145033333333, "fusion_lat": 0.0, "rental_uris": {"ios": "https://dc.lft.to/lastmile_qr_scan", "android": "https://dc.lft.to/lastmile_qr_scan"}, "type": "electric_scooter"}, {"name": "5c0889dc778071cd21a18c140354cd44", "is_reserved": 0, "fusion_lon": 0.0, "bike_id": "5c0889dc778071cd21a18c140354cd44", "lat": 38.899444, "is_disabled": 0, "lon": -77.04493266666667, "fusion_lat": 0.0, "rental_uris": {"ios": "https://dc.lft.to/lastmile_qr_scan", "android": "https://dc.lft.to/lastmile_qr_scan"}, "type": "electric_scooter"}, {"name": "1782e3c1da0e3d4436c5c99d71f03349", "is_reserved": 0, "fusion_lon": 0.0, "bike_id": "1782e3c1da0e3d4436c5c99d71f03349", "lat": 38.900228, "is_disabled": 0, "lon": -77.01113166666667, "fusion_lat": 0.0, "rental_uris": {"ios": "https://dc.lft.to/lastmile_qr_scan", "android": "https://dc.lft.to/lastmile_qr_scan"}, "type": "electric_scooter"}, {"name": "b8e28be36bb61a65084a08d4e60506a8", "is_reserved": 0, "fusion_lon": 0.0, "bike_id": "b8e28be36bb61a65084a08d4e60506a8", "lat": 38.92342, "is_disabled": 0, "lon": -77.05428216666667, "fusion_lat": 0.0, "rental_uris": {"ios": "https://dc.lft.to/lastmile_qr_scan", "android": "https://dc.lft.to/lastmile_qr_scan"}, "type": "electric_scooter"}, {"name": "7b885b1aa5262a5c2079ce08456d998c", "is_reserved": 0, "fusion_lon": 0.0, "bike_id": "7b885b1aa5262a5c2079ce08456d998c", "lat": 38.88500033333333, "is_disabled": 0, "lon": -77.02503483333334, "fusion_lat": 0.0, "rental_uris": {"ios": "https://dc.lft.to/lastmile_qr_scan", "android": "https://dc.lft.to/lastmile_qr_scan"}, "type": "electric_scooter"}, {"name": "38cf8ea81a302525607ebad663e889f5", "is_reserved": 0, "fusion_lon": 0.0, "bike_id": "38cf8ea81a302525607ebad663e889f5", "lat": 38.884291833333336, "is_disabled": 0, "lon": -76.9959355, "fusion_lat": 0.0, "rental_uris": {"ios": "https://dc.lft.to/lastmile_qr_scan", "android": "https://dc.lft.to/lastmile_qr_scan"}, "type": "electric_scooter"}, {"name": "6302b38631ad6f1d0945cb99b0abf610", "is_reserved": 0, "fusion_lon": 0.0, "bike_id": "6302b38631ad6f1d0945cb99b0abf610", "lat": 38.923534833333335, "is_disabled": 0, "lon": -77.02228983333333, "fusion_lat": 0.0, "rental_uris": {"ios": "https://dc.lft.to/lastmile_qr_scan", "android": "https://dc.lft.to/lastmile_qr_scan"}, "type": "electric_scooter"}, {"name": "37e68a556fa5c1a8e02f47489b1afd18", "is_reserved": 0, "fusion_lon": 0.0, "bike_id": "37e68a556fa5c1a8e02f47489b1afd18", "lat": 38.91611733333333, "is_disabled": 0, "lon": -77.046216, "fusion_lat": 0.0, "rental_uris": {"ios": "https://dc.lft.to/lastmile_qr_scan", "android": "https://dc.lft.to/lastmile_qr_scan"}, "type": "electric_scooter"}, {"name": "1c17c9c4699ac1e033e2e9217220deae", "is_reserved": 0, "fusion_lon": 0.0, "bike_id": "1c17c9c4699ac1e033e2e9217220deae", "lat": 38.921193, "is_disabled": 0, "lon": -77.04109816666667, "fusion_lat": 0.0, "rental_uris": {"ios": "https://dc.lft.to/lastmile_qr_scan", "android": "https://dc.lft.to/lastmile_qr_scan"}, "type": "electric_scooter"}, {"name": "74a17643b862ff09fd681e8e4ecbf675", "is_reserved": 0, "fusion_lon": 0.0, "bike_id": "74a17643b862ff09fd681e8e4ecbf675", "lat": 38.896322, "is_disabled": 0, "lon": -77.03964516666667, "fusion_lat": 0.0, "rental_uris": {"ios": "https://dc.lft.to/lastmile_qr_scan", "android": "https://dc.lft.to/lastmile_qr_scan"}, "type": "electric_scooter"}, {"name": "944a503300aa8e0129081ee9c3bc645d", "is_reserved": 0, "fusion_lon": 0.0, "bike_id": "944a503300aa8e0129081ee9c3bc645d", "lat": 38.92800833333333, "is_disabled": 0, "lon": -77.015544, "fusion_lat": 0.0, "rental_uris": {"ios": "https://dc.lft.to/lastmile_qr_scan", "android": "https://dc.lft.to/lastmile_qr_scan"}, "type": "electric_scooter"}, {"name": "f951e1a4be9da4e3a6ec6a41b7762ff4", "is_reserved": 0, "fusion_lon": 0.0, "bike_id": "f951e1a4be9da4e3a6ec6a41b7762ff4", "lat": 38.92479816666667, "is_disabled": 0, "lon": -77.022279, "fusion_lat": 0.0, "rental_uris": {"ios": "https://dc.lft.to/lastmile_qr_scan", "android": "https://dc.lft.to/lastmile_qr_scan"}, "type": "electric_scooter"}, {"name": "2582f2756cfb3ef1354bfe104b3c1620", "is_reserved": 0, "fusion_lon": 0.0, "bike_id": "2582f2756cfb3ef1354bfe104b3c1620", "lat": 38.865478833333334, "is_disabled": 0, "lon": -76.94149366666667, "fusion_lat": 0.0, "rental_uris": {"ios": "https://dc.lft.to/lastmile_qr_scan", "android": "https://dc.lft.to/lastmile_qr_scan"}, "type": "electric_bike"}, {"name": "df6fd708424655d6030bcc627221519c", "is_reserved": 0, "fusion_lon": 0.0, "bike_id": "df6fd708424655d6030bcc627221519c", "lat": 38.90482683333333, "is_disabled": 0, "lon": -77.02952483333334, "fusion_lat": 0.0, "rental_uris": {"ios": "https://dc.lft.to/lastmile_qr_scan", "android": "https://dc.lft.to/lastmile_qr_scan"}, "type": "electric_scooter"}, {"name": "1ca082664d0a225ae66a298010cae494", "is_reserved": 0, "fusion_lon": 0.0, "bike_id": "1ca082664d0a225ae66a298010cae494", "lat": 38.92169916666667, "is_disabled": 0, "lon": -77.02047366666666, "fusion_lat": 0.0, "rental_uris": {"ios": "https://dc.lft.to/lastmile_qr_scan", "android": "https://dc.lft.to/lastmile_qr_scan"}, "type": "electric_scooter"}, {"name": "cab69665ea41ad2e0fa4a481ddf19180", "is_reserved": 0, "fusion_lon": 0.0, "bike_id": "cab69665ea41ad2e0fa4a481ddf19180", "lat": 38.91888183333333, "is_disabled": 0, "lon": -77.04123933333334, "fusion_lat": 0.0, "rental_uris": {"ios": "https://dc.lft.to/lastmile_qr_scan", "android": "https://dc.lft.to/lastmile_qr_scan"}, "type": "electric_scooter"}, {"name": "f6112d1473502aa9d69e522eb9914277", "is_reserved": 0, "fusion_lon": 0.0, "bike_id": "f6112d1473502aa9d69e522eb9914277", "lat": 38.91138333333333, "is_disabled": 0, "lon": -77.027988, "fusion_lat": 0.0, "rental_uris": {"ios": "https://dc.lft.to/lastmile_qr_scan", "android": "https://dc.lft.to/lastmile_qr_scan"}, "type": "electric_scooter"}, {"name": "fba1a3fec7f862d9011e5e59b80e2d19", "is_reserved": 0, "fusion_lon": 0.0, "bike_id": "fba1a3fec7f862d9011e5e59b80e2d19", "lat": 38.9083495, "is_disabled": 0, "lon": -77.00094333333334, "fusion_lat": 0.0, "rental_uris": {"ios": "https://dc.lft.to/lastmile_qr_scan", "android": "https://dc.lft.to/lastmile_qr_scan"}, "type": "electric_scooter"}, {"name": "77b985af381bc5f2d93bf3222143e692", "is_reserved": 0, "fusion_lon": 0.0, "bike_id": "77b985af381bc5f2d93bf3222143e692", "lat": 38.923725833333336, "is_disabled": 0, "lon": -77.01951283333334, "fusion_lat": 0.0, "rental_uris": {"ios": "https://dc.lft.to/lastmile_qr_scan", "android": "https://dc.lft.to/lastmile_qr_scan"}, "type": "electric_scooter"}, {"name": "1a3fca5ce5d515245a31b3ae25c8e3f4", "is_reserved": 0, "fusion_lon": 0.0, "bike_id": "1a3fca5ce5d515245a31b3ae25c8e3f4", "lat": 38.903189833333336, "is_disabled": 0, "lon": -77.0501575, "fusion_lat": 0.0, "rental_uris": {"ios": "https://dc.lft.to/lastmile_qr_scan", "android": "https://dc.lft.to/lastmile_qr_scan"}, "type": "electric_scooter"}, {"name": "7b622425e26ca5d81bceadc7f152c59a", "is_reserved": 0, "fusion_lon": 0.0, "bike_id": "7b622425e26ca5d81bceadc7f152c59a", "lat": 38.899346333333334, "is_disabled": 0, "lon": -77.02975716666667, "fusion_lat": 0.0, "rental_uris": {"ios": "https://dc.lft.to/lastmile_qr_scan", "android": "https://dc.lft.to/lastmile_qr_scan"}, "type": "electric_scooter"}, {"name": "d1e53d0892196fcfa8c08fee794d11aa", "is_reserved": 0, "fusion_lon": 0.0, "bike_id": "d1e53d0892196fcfa8c08fee794d11aa", "lat": 38.926119666666665, "is_disabled": 0, "lon": -77.02158066666667, "fusion_lat": 0.0, "rental_uris": {"ios": "https://dc.lft.to/lastmile_qr_scan", "android": "https://dc.lft.to/lastmile_qr_scan"}, "type": "electric_scooter"}, {"name": "0d36bf7b7fa10b56601a6f56e0b485ce", "is_reserved": 0, "fusion_lon": 0.0, "bike_id": "0d36bf7b7fa10b56601a6f56e0b485ce", "lat": 38.820447, "is_disabled": 0, "lon": -77.05362216666667, "fusion_lat": 0.0, "rental_uris": {"ios": "https://dc.lft.to/lastmile_qr_scan", "android": "https://dc.lft.to/lastmile_qr_scan"}, "type": "electric_bike"}, {"name": "3a9d754b75e664d256ef2d3f9630f41e", "is_reserved": 0, "fusion_lon": 0.0, "bike_id": "3a9d754b75e664d256ef2d3f9630f41e", "lat": 38.91067433333333, "is_disabled": 0, "lon": -77.016086, "fusion_lat": 0.0, "rental_uris": {"ios": "https://dc.lft.to/lastmile_qr_scan", "android": "https://dc.lft.to/lastmile_qr_scan"}, "type": "electric_scooter"}, {"name": "8687182a1f720aae6b52c144d50de294", "is_reserved": 0, "fusion_lon": 0.0, "bike_id": "8687182a1f720aae6b52c144d50de294", "lat": 38.903958833333334, "is_disabled": 0, "lon": -77.0405725, "fusion_lat": 0.0, "rental_uris": {"ios": "https://dc.lft.to/lastmile_qr_scan", "android": "https://dc.lft.to/lastmile_qr_scan"}, "type": "electric_scooter"}, {"name": "ca03055a421bd9aedcfa82546829b294", "is_reserved": 0, "fusion_lon": 0.0, "bike_id": "ca03055a421bd9aedcfa82546829b294", "lat": 38.921638, "is_disabled": 0, "lon": -77.02663133333333, "fusion_lat": 0.0, "rental_uris": {"ios": "https://dc.lft.to/lastmile_qr_scan", "android": "https://dc.lft.to/lastmile_qr_scan"}, "type": "electric_scooter"}, {"name": "64456b9ad4abde3692bea6f26da46006", "is_reserved": 0, "fusion_lon": 0.0, "bike_id": "64456b9ad4abde3692bea6f26da46006", "lat": 38.92499733333333, "is_disabled": 0, "lon": -77.04330083333333, "fusion_lat": 0.0, "rental_uris": {"ios": "https://dc.lft.to/lastmile_qr_scan", "android": "https://dc.lft.to/lastmile_qr_scan"}, "type": "electric_scooter"}, {"name": "511d1a012613a7eb8b83fe5cfece3844", "is_reserved": 0, "fusion_lon": 0.0, "bike_id": "511d1a012613a7eb8b83fe5cfece3844", "lat": 38.894613, "is_disabled": 0, "lon": -77.04658916666666, "fusion_lat": 0.0, "rental_uris": {"ios": "https://dc.lft.to/lastmile_qr_scan", "android": "https://dc.lft.to/lastmile_qr_scan"}, "type": "electric_scooter"}, {"name": "bcfef3c594a25997383ead9f49dc8c87", "is_reserved": 0, "fusion_lon": 0.0, "bike_id": "bcfef3c594a25997383ead9f49dc8c87", "lat": 38.906288, "is_disabled": 0, "lon": -77.03137266666667, "fusion_lat": 0.0, "rental_uris": {"ios": "https://dc.lft.to/lastmile_qr_scan", "android": "https://dc.lft.to/lastmile_qr_scan"}, "type": "electric_scooter"}, {"name": "1253eb3320ae25d32a33edc06a6527ca", "is_reserved": 0, "fusion_lon": 0.0, "bike_id": "1253eb3320ae25d32a33edc06a6527ca", "lat": 38.9236495, "is_disabled": 0, "lon": -77.01957533333334, "fusion_lat": 0.0, "rental_uris": {"ios": "https://dc.lft.to/lastmile_qr_scan", "android": "https://dc.lft.to/lastmile_qr_scan"}, "type": "electric_scooter"}, {"name": "5d00dfbca05549dcd1b6f59c7894f2b4", "is_reserved": 0, "fusion_lon": 0.0, "bike_id": "5d00dfbca05549dcd1b6f59c7894f2b4", "lat": 38.90103766666667, "is_disabled": 0, "lon": -77.04984116666667, "fusion_lat": 0.0, "rental_uris": {"ios": "https://dc.lft.to/lastmile_qr_scan", "android": "https://dc.lft.to/lastmile_qr_scan"}, "type": "electric_scooter"}, {"name": "985f6282879dbb723dcf19b6b944f4a9", "is_reserved": 0, "fusion_lon": 0.0, "bike_id": "985f6282879dbb723dcf19b6b944f4a9", "lat": 38.90029716666667, "is_disabled": 0, "lon": -77.00198816666666, "fusion_lat": 0.0, "rental_uris": {"ios": "https://dc.lft.to/lastmile_qr_scan", "android": "https://dc.lft.to/lastmile_qr_scan"}, "type": "electric_scooter"}, {"name": "ed1f0f5efe7d326d6a93ce1e56913f1f", "is_reserved": 0, "fusion_lon": 0.0, "bike_id": "ed1f0f5efe7d326d6a93ce1e56913f1f", "lat": 38.91914633333333, "is_disabled": 0, "lon": -77.031094, "fusion_lat": 0.0, "rental_uris": {"ios": "https://dc.lft.to/lastmile_qr_scan", "android": "https://dc.lft.to/lastmile_qr_scan"}, "type": "electric_scooter"}, {"name": "94272e0d56cd5ce03ae6fc626dda9194", "is_reserved": 0, "fusion_lon": 0.0, "bike_id": "94272e0d56cd5ce03ae6fc626dda9194", "lat": 38.892253, "is_disabled": 0, "lon": -77.0253695, "fusion_lat": 0.0, "rental_uris": {"ios": "https://dc.lft.to/lastmile_qr_scan", "android": "https://dc.lft.to/lastmile_qr_scan"}, "type": "electric_scooter"}, {"name": "a1798753a707467f60eabc88a5796526", "is_reserved": 0, "fusion_lon": 0.0, "bike_id": "a1798753a707467f60eabc88a5796526", "lat": 38.89500783333333, "is_disabled": 0, "lon": -77.009474, "fusion_lat": 0.0, "rental_uris": {"ios": "https://dc.lft.to/lastmile_qr_scan", "android": "https://dc.lft.to/lastmile_qr_scan"}, "type": "electric_scooter"}, {"name": "10a147fd990b910ee1196fbd951d5516", "is_reserved": 0, "fusion_lon": 0.0, "bike_id": "10a147fd990b910ee1196fbd951d5516", "lat": 38.92501433333334, "is_disabled": 0, "lon": -77.025725, "fusion_lat": 0.0, "rental_uris": {"ios": "https://dc.lft.to/lastmile_qr_scan", "android": "https://dc.lft.to/lastmile_qr_scan"}, "type": "electric_scooter"}, {"name": "66985b0ac10d10496aa4fff3e0d89a4b", "is_reserved": 0, "fusion_lon": 0.0, "bike_id": "66985b0ac10d10496aa4fff3e0d89a4b", "lat": 38.921286, "is_disabled": 0, "lon": -77.01872133333333, "fusion_lat": 0.0, "rental_uris": {"ios": "https://dc.lft.to/lastmile_qr_scan", "android": "https://dc.lft.to/lastmile_qr_scan"}, "type": "electric_scooter"}, {"name": "db9035fe5a0ee485555ad537f2cfefad", "is_reserved": 0, "fusion_lon": 0.0, "bike_id": "db9035fe5a0ee485555ad537f2cfefad", "lat": 38.89859233333333, "is_disabled": 0, "lon": -77.046596, "fusion_lat": 0.0, "rental_uris": {"ios": "https://dc.lft.to/lastmile_qr_scan", "android": "https://dc.lft.to/lastmile_qr_scan"}, "type": "electric_scooter"}, {"name": "ea246af8cb516f07fcd14c4c5d70a853", "is_reserved": 0, "fusion_lon": 0.0, "bike_id": "ea246af8cb516f07fcd14c4c5d70a853", "lat": 38.9265, "is_disabled": 0, "lon": -77.0901955, "fusion_lat": 0.0, "rental_uris": {"ios": "https://dc.lft.to/lastmile_qr_scan", "android": "https://dc.lft.to/lastmile_qr_scan"}, "type": "electric_bike"}, {"name": "be7319f1d2f8a768ea8a91cde958fc6d", "is_reserved": 0, "fusion_lon": 0.0, "bike_id": "be7319f1d2f8a768ea8a91cde958fc6d", "lat": 38.907812166666666, "is_disabled": 0, "lon": -77.06297983333333, "fusion_lat": 0.0, "rental_uris": {"ios": "https://dc.lft.to/lastmile_qr_scan", "android": "https://dc.lft.to/lastmile_qr_scan"}, "type": "electric_scooter"}, {"name": "54f35e70d1fe438f7cf168a7397c3dcc", "is_reserved": 0, "fusion_lon": 0.0, "bike_id": "54f35e70d1fe438f7cf168a7397c3dcc", "lat": 38.90722316666667, "is_disabled": 0, "lon": -76.99834433333334, "fusion_lat": 0.0, "rental_uris": {"ios": "https://dc.lft.to/lastmile_qr_scan", "android": "https://dc.lft.to/lastmile_qr_scan"}, "type": "electric_scooter"}, {"name": "217a513fb9cdb4ddd45a3b7e28061397", "is_reserved": 0, "fusion_lon": 0.0, "bike_id": "217a513fb9cdb4ddd45a3b7e28061397", "lat": 38.92275583333333, "is_disabled": 0, "lon": -77.02127, "fusion_lat": 0.0, "rental_uris": {"ios": "https://dc.lft.to/lastmile_qr_scan", "android": "https://dc.lft.to/lastmile_qr_scan"}, "type": "electric_scooter"}, {"name": "f2ec882c8fe936dc38d733af7e3aaf6b", "is_reserved": 0, "fusion_lon": 0.0, "bike_id": "f2ec882c8fe936dc38d733af7e3aaf6b", "lat": 38.94305833333333, "is_disabled": 0, "lon": -77.029505, "fusion_lat": 0.0, "rental_uris": {"ios": "https://dc.lft.to/lastmile_qr_scan", "android": "https://dc.lft.to/lastmile_qr_scan"}, "type": "electric_scooter"}, {"name": "30201f457cc60761dfa563dae0e974d7", "is_reserved": 0, "fusion_lon": 0.0, "bike_id": "30201f457cc60761dfa563dae0e974d7", "lat": 38.919864833333335, "is_disabled": 0, "lon": -77.04169716666667, "fusion_lat": 0.0, "rental_uris": {"ios": "https://dc.lft.to/lastmile_qr_scan", "android": "https://dc.lft.to/lastmile_qr_scan"}, "type": "electric_scooter"}, {"name": "f1242dd1a2a1c0c5a98b22c1d01a1961", "is_reserved": 0, "fusion_lon": 0.0, "bike_id": "f1242dd1a2a1c0c5a98b22c1d01a1961", "lat": 38.90970816666667, "is_disabled": 0, "lon": -77.0346495, "fusion_lat": 0.0, "rental_uris": {"ios": "https://dc.lft.to/lastmile_qr_scan", "android": "https://dc.lft.to/lastmile_qr_scan"}, "type": "electric_scooter"}, {"name": "38d399806950eb535a08a395be6d310d", "is_reserved": 0, "fusion_lon": 0.0, "bike_id": "38d399806950eb535a08a395be6d310d", "lat": 38.920421, "is_disabled": 0, "lon": -77.01667633333334, "fusion_lat": 0.0, "rental_uris": {"ios": "https://dc.lft.to/lastmile_qr_scan", "android": "https://dc.lft.to/lastmile_qr_scan"}, "type": "electric_scooter"}, {"name": "8882825497dec0972a0529a6c96dd5c0", "is_reserved": 0, "fusion_lon": 0.0, "bike_id": "8882825497dec0972a0529a6c96dd5c0", "lat": 38.924755833333336, "is_disabled": 0, "lon": -77.0219845, "fusion_lat": 0.0, "rental_uris": {"ios": "https://dc.lft.to/lastmile_qr_scan", "android": "https://dc.lft.to/lastmile_qr_scan"}, "type": "electric_scooter"}, {"name": "ac114369cd2bb2a099e2db950d38d21f", "is_reserved": 0, "fusion_lon": 0.0, "bike_id": "ac114369cd2bb2a099e2db950d38d21f", "lat": 38.90274483333334, "is_disabled": 0, "lon": -77.03645933333334, "fusion_lat": 0.0, "rental_uris": {"ios": "https://dc.lft.to/lastmile_qr_scan", "android": "https://dc.lft.to/lastmile_qr_scan"}, "type": "electric_scooter"}, {"name": "2d198047ecd8776338e1b26b2c9f26cd", "is_reserved": 0, "fusion_lon": 0.0, "bike_id": "2d198047ecd8776338e1b26b2c9f26cd", "lat": 38.919310333333335, "is_disabled": 0, "lon": -77.0417195, "fusion_lat": 0.0, "rental_uris": {"ios": "https://dc.lft.to/lastmile_qr_scan", "android": "https://dc.lft.to/lastmile_qr_scan"}, "type": "electric_scooter"}, {"name": "418b67332349715f1101cf60eea7f984", "is_reserved": 0, "fusion_lon": 0.0, "bike_id": "418b67332349715f1101cf60eea7f984", "lat": 38.916234833333334, "is_disabled": 0, "lon": -77.00495016666666, "fusion_lat": 0.0, "rental_uris": {"ios": "https://dc.lft.to/lastmile_qr_scan", "android": "https://dc.lft.to/lastmile_qr_scan"}, "type": "electric_scooter"}, {"name": "62b9acdbd45bea1973899fac8714faaa", "is_reserved": 0, "fusion_lon": 0.0, "bike_id": "62b9acdbd45bea1973899fac8714faaa", "lat": 38.900108833333334, "is_disabled": 0, "lon": -76.98929316666667, "fusion_lat": 0.0, "rental_uris": {"ios": "https://dc.lft.to/lastmile_qr_scan", "android": "https://dc.lft.to/lastmile_qr_scan"}, "type": "electric_scooter"}, {"name": "e26b86a2fe17fc5ae21452971cca597f", "is_reserved": 0, "fusion_lon": 0.0, "bike_id": "e26b86a2fe17fc5ae21452971cca597f", "lat": 38.8792035, "is_disabled": 0, "lon": -77.01548766666667, "fusion_lat": 0.0, "rental_uris": {"ios": "https://dc.lft.to/lastmile_qr_scan", "android": "https://dc.lft.to/lastmile_qr_scan"}, "type": "electric_scooter"}, {"name": "5b6540f1731c13a0d5241b5d424c56b3", "is_reserved": 0, "fusion_lon": 0.0, "bike_id": "5b6540f1731c13a0d5241b5d424c56b3", "lat": 38.917147, "is_disabled": 0, "lon": -77.033462, "fusion_lat": 0.0, "rental_uris": {"ios": "https://dc.lft.to/lastmile_qr_scan", "android": "https://dc.lft.to/lastmile_qr_scan"}, "type": "electric_scooter"}, {"name": "d49431997533aa470f3a28a72b2a98d3", "is_reserved": 0, "fusion_lon": 0.0, "bike_id": "d49431997533aa470f3a28a72b2a98d3", "lat": 38.8973075, "is_disabled": 0, "lon": -77.0464985, "fusion_lat": 0.0, "rental_uris": {"ios": "https://dc.lft.to/lastmile_qr_scan", "android": "https://dc.lft.to/lastmile_qr_scan"}, "type": "electric_scooter"}, {"name": "3d7740871e43bcd1c6a4a6ea33d2aa80", "is_reserved": 0, "fusion_lon": 0.0, "bike_id": "3d7740871e43bcd1c6a4a6ea33d2aa80", "lat": 38.903848333333336, "is_disabled": 0, "lon": -77.03420316666667, "fusion_lat": 0.0, "rental_uris": {"ios": "https://dc.lft.to/lastmile_qr_scan", "android": "https://dc.lft.to/lastmile_qr_scan"}, "type": "electric_scooter"}, {"name": "ddf1b36ddfdad0afcf25cc36cbc6b185", "is_reserved": 0, "fusion_lon": 0.0, "bike_id": "ddf1b36ddfdad0afcf25cc36cbc6b185", "lat": 38.9948915, "is_disabled": 0, "lon": -77.001309, "fusion_lat": 0.0, "rental_uris": {"ios": "https://dc.lft.to/lastmile_qr_scan", "android": "https://dc.lft.to/lastmile_qr_scan"}, "type": "electric_bike"}, {"name": "ee4eec733e77edfe9546ff27ac5124b5", "is_reserved": 0, "fusion_lon": 0.0, "bike_id": "ee4eec733e77edfe9546ff27ac5124b5", "lat": 38.92205, "is_disabled": 0, "lon": -77.01842983333333, "fusion_lat": 0.0, "rental_uris": {"ios": "https://dc.lft.to/lastmile_qr_scan", "android": "https://dc.lft.to/lastmile_qr_scan"}, "type": "electric_scooter"}, {"name": "e9b71db1d235444d304c2de79d2e86ea", "is_reserved": 0, "fusion_lon": 0.0, "bike_id": "e9b71db1d235444d304c2de79d2e86ea", "lat": 38.875449833333334, "is_disabled": 0, "lon": -77.00532216666667, "fusion_lat": 0.0, "rental_uris": {"ios": "https://dc.lft.to/lastmile_qr_scan", "android": "https://dc.lft.to/lastmile_qr_scan"}, "type": "electric_scooter"}, {"name": "2d6119f9d2480b3fb9dff4215aa72289", "is_reserved": 0, "fusion_lon": 0.0, "bike_id": "2d6119f9d2480b3fb9dff4215aa72289", "lat": 38.9069255, "is_disabled": 0, "lon": -76.95250833333333, "fusion_lat": 0.0, "rental_uris": {"ios": "https://dc.lft.to/lastmile_qr_scan", "android": "https://dc.lft.to/lastmile_qr_scan"}, "type": "electric_bike"}, {"name": "ebe08837ba5591cb5c8922b82ba7fd96", "is_reserved": 0, "fusion_lon": 0.0, "bike_id": "ebe08837ba5591cb5c8922b82ba7fd96", "lat": 38.90366933333333, "is_disabled": 0, "lon": -77.02935716666667, "fusion_lat": 0.0, "rental_uris": {"ios": "https://dc.lft.to/lastmile_qr_scan", "android": "https://dc.lft.to/lastmile_qr_scan"}, "type": "electric_scooter"}, {"name": "195786b68db1efa365c9200566d3fd17", "is_reserved": 0, "fusion_lon": 0.0, "bike_id": "195786b68db1efa365c9200566d3fd17", "lat": 38.90524883333333, "is_disabled": 0, "lon": -77.053289, "fusion_lat": 0.0, "rental_uris": {"ios": "https://dc.lft.to/lastmile_qr_scan", "android": "https://dc.lft.to/lastmile_qr_scan"}, "type": "electric_scooter"}, {"name": "2d1e8316804eb628d3ca41bae4472227", "is_reserved": 0, "fusion_lon": 0.0, "bike_id": "2d1e8316804eb628d3ca41bae4472227", "lat": 38.892323, "is_disabled": 0, "lon": -77.049959, "fusion_lat": 0.0, "rental_uris": {"ios": "https://dc.lft.to/lastmile_qr_scan", "android": "https://dc.lft.to/lastmile_qr_scan"}, "type": "electric_scooter"}, {"name": "9bd9b34a98ed9e909be257ff017fcc26", "is_reserved": 0, "fusion_lon": 0.0, "bike_id": "9bd9b34a98ed9e909be257ff017fcc26", "lat": 38.9192955, "is_disabled": 0, "lon": -77.03391266666667, "fusion_lat": 0.0, "rental_uris": {"ios": "https://dc.lft.to/lastmile_qr_scan", "android": "https://dc.lft.to/lastmile_qr_scan"}, "type": "electric_scooter"}, {"name": "b899d27cc22256a4eddfa014dab1e9ee", "is_reserved": 0, "fusion_lon": 0.0, "bike_id": "b899d27cc22256a4eddfa014dab1e9ee", "lat": 38.87468783333333, "is_disabled": 0, "lon": -77.0159, "fusion_lat": 0.0, "rental_uris": {"ios": "https://dc.lft.to/lastmile_qr_scan", "android": "https://dc.lft.to/lastmile_qr_scan"}, "type": "electric_scooter"}, {"name": "31554f7204ee48c5771d417dba45224d", "is_reserved": 0, "fusion_lon": 0.0, "bike_id": "31554f7204ee48c5771d417dba45224d", "lat": 38.942622, "is_disabled": 0, "lon": -77.02976933333333, "fusion_lat": 0.0, "rental_uris": {"ios": "https://dc.lft.to/lastmile_qr_scan", "android": "https://dc.lft.to/lastmile_qr_scan"}, "type": "electric_scooter"}, {"name": "2607712aebc3593d08ed47b526ba069f", "is_reserved": 0, "fusion_lon": 0.0, "bike_id": "2607712aebc3593d08ed47b526ba069f", "lat": 38.92977366666667, "is_disabled": 0, "lon": -77.08328683333333, "fusion_lat": 0.0, "rental_uris": {"ios": "https://dc.lft.to/lastmile_qr_scan", "android": "https://dc.lft.to/lastmile_qr_scan"}, "type": "electric_scooter"}, {"name": "3d1ba1deaee3fcb4b6bf5d58ce1a4f09", "is_reserved": 0, "fusion_lon": 0.0, "bike_id": "3d1ba1deaee3fcb4b6bf5d58ce1a4f09", "lat": 38.927135, "is_disabled": 0, "lon": -77.0209235, "fusion_lat": 0.0, "rental_uris": {"ios": "https://dc.lft.to/lastmile_qr_scan", "android": "https://dc.lft.to/lastmile_qr_scan"}, "type": "electric_scooter"}, {"name": "2bc330f5651d2ce8c4cd7201f3d191dd", "is_reserved": 0, "fusion_lon": 0.0, "bike_id": "2bc330f5651d2ce8c4cd7201f3d191dd", "lat": 38.92156466666667, "is_disabled": 0, "lon": -77.02022516666666, "fusion_lat": 0.0, "rental_uris": {"ios": "https://dc.lft.to/lastmile_qr_scan", "android": "https://dc.lft.to/lastmile_qr_scan"}, "type": "electric_scooter"}, {"name": "3d661111c35ff311e2bd2c87fba7bc0b", "is_reserved": 0, "fusion_lon": 0.0, "bike_id": "3d661111c35ff311e2bd2c87fba7bc0b", "lat": 38.9850315, "is_disabled": 0, "lon": -76.95562016666666, "fusion_lat": 0.0, "rental_uris": {"ios": "https://dc.lft.to/lastmile_qr_scan", "android": "https://dc.lft.to/lastmile_qr_scan"}, "type": "electric_bike"}, {"name": "41b7211ff4ba1e951639cb69f3eb58a7", "is_reserved": 0, "fusion_lon": 0.0, "bike_id": "41b7211ff4ba1e951639cb69f3eb58a7", "lat": 38.8996005, "is_disabled": 0, "lon": -77.01503466666666, "fusion_lat": 0.0, "rental_uris": {"ios": "https://dc.lft.to/lastmile_qr_scan", "android": "https://dc.lft.to/lastmile_qr_scan"}, "type": "electric_scooter"}, {"name": "f54fd5f1adb22900ae49d0510c95545a", "is_reserved": 0, "fusion_lon": 0.0, "bike_id": "f54fd5f1adb22900ae49d0510c95545a", "lat": 38.89953966666667, "is_disabled": 0, "lon": -77.047154, "fusion_lat": 0.0, "rental_uris": {"ios": "https://dc.lft.to/lastmile_qr_scan", "android": "https://dc.lft.to/lastmile_qr_scan"}, "type": "electric_scooter"}, {"name": "728e091af2a7bbf63576e3b60aca208e", "is_reserved": 0, "fusion_lon": 0.0, "bike_id": "728e091af2a7bbf63576e3b60aca208e", "lat": 38.905077166666665, "is_disabled": 0, "lon": -77.030005, "fusion_lat": 0.0, "rental_uris": {"ios": "https://dc.lft.to/lastmile_qr_scan", "android": "https://dc.lft.to/lastmile_qr_scan"}, "type": "electric_scooter"}, {"name": "02dc7cf9c0421a87c6c5f4b17a638ce2", "is_reserved": 0, "fusion_lon": 0.0, "bike_id": "02dc7cf9c0421a87c6c5f4b17a638ce2", "lat": 38.910494, "is_disabled": 0, "lon": -77.015094, "fusion_lat": 0.0, "rental_uris": {"ios": "https://dc.lft.to/lastmile_qr_scan", "android": "https://dc.lft.to/lastmile_qr_scan"}, "type": "electric_scooter"}, {"name": "934b8473fcffc38b73e90405f42976d8", "is_reserved": 0, "fusion_lon": 0.0, "bike_id": "934b8473fcffc38b73e90405f42976d8", "lat": 38.920353166666665, "is_disabled": 0, "lon": -76.97953533333333, "fusion_lat": 0.0, "rental_uris": {"ios": "https://dc.lft.to/lastmile_qr_scan", "android": "https://dc.lft.to/lastmile_qr_scan"}, "type": "electric_bike"}, {"name": "523c046f4b4752e8229e19c0464ac65f", "is_reserved": 0, "fusion_lon": 0.0, "bike_id": "523c046f4b4752e8229e19c0464ac65f", "lat": 38.83606, "is_disabled": 0, "lon": -77.0037485, "fusion_lat": 0.0, "rental_uris": {"ios": "https://dc.lft.to/lastmile_qr_scan", "android": "https://dc.lft.to/lastmile_qr_scan"}, "type": "electric_bike"}, {"name": "906f95160f029ecb00a6e1dbdd9d976b", "is_reserved": 0, "fusion_lon": 0.0, "bike_id": "906f95160f029ecb00a6e1dbdd9d976b", "lat": 38.83380066666667, "is_disabled": 0, "lon": -77.00297183333333, "fusion_lat": 0.0, "rental_uris": {"ios": "https://dc.lft.to/lastmile_qr_scan", "android": "https://dc.lft.to/lastmile_qr_scan"}, "type": "electric_scooter"}, {"name": "0a7b1aa358ec2fb88f4194fb06095bd9", "is_reserved": 0, "fusion_lon": 0.0, "bike_id": "0a7b1aa358ec2fb88f4194fb06095bd9", "lat": 38.913406333333334, "is_disabled": 0, "lon": -77.04730216666667, "fusion_lat": 0.0, "rental_uris": {"ios": "https://dc.lft.to/lastmile_qr_scan", "android": "https://dc.lft.to/lastmile_qr_scan"}, "type": "electric_scooter"}, {"name": "2e5fa182ca40c301c42fe9de4d4b6f70", "is_reserved": 0, "fusion_lon": 0.0, "bike_id": "2e5fa182ca40c301c42fe9de4d4b6f70", "lat": 38.96649516666667, "is_disabled": 0, "lon": -77.02745666666667, "fusion_lat": 0.0, "rental_uris": {"ios": "https://dc.lft.to/lastmile_qr_scan", "android": "https://dc.lft.to/lastmile_qr_scan"}, "type": "electric_scooter"}, {"name": "a8a71e8854c35d94ae6ed6e7cd7df029", "is_reserved": 0, "fusion_lon": 0.0, "bike_id": "a8a71e8854c35d94ae6ed6e7cd7df029", "lat": 38.917236333333335, "is_disabled": 0, "lon": -77.03202183333333, "fusion_lat": 0.0, "rental_uris": {"ios": "https://dc.lft.to/lastmile_qr_scan", "android": "https://dc.lft.to/lastmile_qr_scan"}, "type": "electric_scooter"}, {"name": "6365ed59f82eb1afe45621a746ead4f5", "is_reserved": 0, "fusion_lon": 0.0, "bike_id": "6365ed59f82eb1afe45621a746ead4f5", "lat": 38.9256695, "is_disabled": 0, "lon": -77.0269055, "fusion_lat": 0.0, "rental_uris": {"ios": "https://dc.lft.to/lastmile_qr_scan", "android": "https://dc.lft.to/lastmile_qr_scan"}, "type": "electric_scooter"}, {"name": "d9166af0643ec4f152dc77f9a68874ea", "is_reserved": 0, "fusion_lon": 0.0, "bike_id": "d9166af0643ec4f152dc77f9a68874ea", "lat": 38.903863333333334, "is_disabled": 0, "lon": -76.99004716666667, "fusion_lat": 0.0, "rental_uris": {"ios": "https://dc.lft.to/lastmile_qr_scan", "android": "https://dc.lft.to/lastmile_qr_scan"}, "type": "electric_scooter"}, {"name": "2b003c8cc51ce21361e2717e49eb3033", "is_reserved": 0, "fusion_lon": 0.0, "bike_id": "2b003c8cc51ce21361e2717e49eb3033", "lat": 38.899982666666666, "is_disabled": 0, "lon": -76.99559033333334, "fusion_lat": 0.0, "rental_uris": {"ios": "https://dc.lft.to/lastmile_qr_scan", "android": "https://dc.lft.to/lastmile_qr_scan"}, "type": "electric_scooter"}, {"name": "92ea7527388826a0ce1dbac5e21990b0", "is_reserved": 0, "fusion_lon": 0.0, "bike_id": "92ea7527388826a0ce1dbac5e21990b0", "lat": 38.9132255, "is_disabled": 0, "lon": -77.01507133333334, "fusion_lat": 0.0, "rental_uris": {"ios": "https://dc.lft.to/lastmile_qr_scan", "android": "https://dc.lft.to/lastmile_qr_scan"}, "type": "electric_scooter"}, {"name": "41a848235d3a708d571895ce08365c16", "is_reserved": 0, "fusion_lon": 0.0, "bike_id": "41a848235d3a708d571895ce08365c16", "lat": 38.894739666666666, "is_disabled": 0, "lon": -76.98595433333334, "fusion_lat": 0.0, "rental_uris": {"ios": "https://dc.lft.to/lastmile_qr_scan", "android": "https://dc.lft.to/lastmile_qr_scan"}, "type": "electric_scooter"}, {"name": "690139cc0f9638ca07e45edbd1801d63", "is_reserved": 0, "fusion_lon": 0.0, "bike_id": "690139cc0f9638ca07e45edbd1801d63", "lat": 38.899569166666666, "is_disabled": 0, "lon": -77.048254, "fusion_lat": 0.0, "rental_uris": {"ios": "https://dc.lft.to/lastmile_qr_scan", "android": "https://dc.lft.to/lastmile_qr_scan"}, "type": "electric_scooter"}, {"name": "e2e02d1d2713ec147778afd6fb9c0573", "is_reserved": 0, "fusion_lon": 0.0, "bike_id": "e2e02d1d2713ec147778afd6fb9c0573", "lat": 38.92189366666667, "is_disabled": 0, "lon": -77.099432, "fusion_lat": 0.0, "rental_uris": {"ios": "https://dc.lft.to/lastmile_qr_scan", "android": "https://dc.lft.to/lastmile_qr_scan"}, "type": "electric_scooter"}, {"name": "4f45fc0793dc7b807e1f43aabb3e070a", "is_reserved": 0, "fusion_lon": 0.0, "bike_id": "4f45fc0793dc7b807e1f43aabb3e070a", "lat": 38.896223166666665, "is_disabled": 0, "lon": -77.02401683333333, "fusion_lat": 0.0, "rental_uris": {"ios": "https://dc.lft.to/lastmile_qr_scan", "android": "https://dc.lft.to/lastmile_qr_scan"}, "type": "electric_scooter"}, {"name": "0260a875f2015ab34cd8a80898a5d8f3", "is_reserved": 0, "fusion_lon": 0.0, "bike_id": "0260a875f2015ab34cd8a80898a5d8f3", "lat": 38.876552, "is_disabled": 0, "lon": -77.000666, "fusion_lat": 0.0, "rental_uris": {"ios": "https://dc.lft.to/lastmile_qr_scan", "android": "https://dc.lft.to/lastmile_qr_scan"}, "type": "electric_scooter"}, {"name": "4873e8a2c9a8e0b9fb6d346a3a336b9a", "is_reserved": 0, "fusion_lon": 0.0, "bike_id": "4873e8a2c9a8e0b9fb6d346a3a336b9a", "lat": 38.8753005, "is_disabled": 0, "lon": -77.005046, "fusion_lat": 0.0, "rental_uris": {"ios": "https://dc.lft.to/lastmile_qr_scan", "android": "https://dc.lft.to/lastmile_qr_scan"}, "type": "electric_scooter"}, {"name": "5e036a82744257719a4eaef9ae2837c8", "is_reserved": 0, "fusion_lon": 0.0, "bike_id": "5e036a82744257719a4eaef9ae2837c8", "lat": 38.922362, "is_disabled": 0, "lon": -77.0285055, "fusion_lat": 0.0, "rental_uris": {"ios": "https://dc.lft.to/lastmile_qr_scan", "android": "https://dc.lft.to/lastmile_qr_scan"}, "type": "electric_scooter"}, {"name": "2e816569c380431b727c9c087e6247ed", "is_reserved": 0, "fusion_lon": 0.0, "bike_id": "2e816569c380431b727c9c087e6247ed", "lat": 38.90410133333334, "is_disabled": 0, "lon": -76.97327883333334, "fusion_lat": 0.0, "rental_uris": {"ios": "https://dc.lft.to/lastmile_qr_scan", "android": "https://dc.lft.to/lastmile_qr_scan"}, "type": "electric_scooter"}, {"name": "ba91664db8aea7cb83d7b16f88a3161c", "is_reserved": 0, "fusion_lon": 0.0, "bike_id": "ba91664db8aea7cb83d7b16f88a3161c", "lat": 38.89007616666667, "is_disabled": 0, "lon": -77.0732855, "fusion_lat": 0.0, "rental_uris": {"ios": "https://dc.lft.to/lastmile_qr_scan", "android": "https://dc.lft.to/lastmile_qr_scan"}, "type": "electric_bike"}, {"name": "f2dd2a231484c74bbf947cab810e031d", "is_reserved": 0, "fusion_lon": 0.0, "bike_id": "f2dd2a231484c74bbf947cab810e031d", "lat": 38.9215395, "is_disabled": 0, "lon": -77.04236883333333, "fusion_lat": 0.0, "rental_uris": {"ios": "https://dc.lft.to/lastmile_qr_scan", "android": "https://dc.lft.to/lastmile_qr_scan"}, "type": "electric_scooter"}, {"name": "15513f478fd297dfa8b67e24d93ae3cc", "is_reserved": 0, "fusion_lon": 0.0, "bike_id": "15513f478fd297dfa8b67e24d93ae3cc", "lat": 38.91536583333333, "is_disabled": 0, "lon": -77.031989, "fusion_lat": 0.0, "rental_uris": {"ios": "https://dc.lft.to/lastmile_qr_scan", "android": "https://dc.lft.to/lastmile_qr_scan"}, "type": "electric_scooter"}, {"name": "7c21996767da3d122cf9bd99510fd74a", "is_reserved": 0, "fusion_lon": 0.0, "bike_id": "7c21996767da3d122cf9bd99510fd74a", "lat": 38.89915883333333, "is_disabled": 0, "lon": -77.04163133333333, "fusion_lat": 0.0, "rental_uris": {"ios": "https://dc.lft.to/lastmile_qr_scan", "android": "https://dc.lft.to/lastmile_qr_scan"}, "type": "electric_scooter"}, {"name": "fb50974a0b7da3347e2127019dcc92f5", "is_reserved": 0, "fusion_lon": 0.0, "bike_id": "fb50974a0b7da3347e2127019dcc92f5", "lat": 38.832957, "is_disabled": 0, "lon": -77.0840645, "fusion_lat": 0.0, "rental_uris": {"ios": "https://dc.lft.to/lastmile_qr_scan", "android": "https://dc.lft.to/lastmile_qr_scan"}, "type": "electric_bike"}, {"name": "f54061c27a36ed292847f36bc5f220b2", "is_reserved": 0, "fusion_lon": 0.0, "bike_id": "f54061c27a36ed292847f36bc5f220b2", "lat": 38.898469, "is_disabled": 0, "lon": -76.92748916666666, "fusion_lat": 0.0, "rental_uris": {"ios": "https://dc.lft.to/lastmile_qr_scan", "android": "https://dc.lft.to/lastmile_qr_scan"}, "type": "electric_scooter"}, {"name": "9d026647462f22e9cd18871f44208ddb", "is_reserved": 0, "fusion_lon": 0.0, "bike_id": "9d026647462f22e9cd18871f44208ddb", "lat": 38.896066, "is_disabled": 0, "lon": -77.02215583333333, "fusion_lat": 0.0, "rental_uris": {"ios": "https://dc.lft.to/lastmile_qr_scan", "android": "https://dc.lft.to/lastmile_qr_scan"}, "type": "electric_scooter"}, {"name": "7c96d91f62be0e25b3b99887791b29e0", "is_reserved": 0, "fusion_lon": 0.0, "bike_id": "7c96d91f62be0e25b3b99887791b29e0", "lat": 38.912777, "is_disabled": 0, "lon": -77.02244533333334, "fusion_lat": 0.0, "rental_uris": {"ios": "https://dc.lft.to/lastmile_qr_scan", "android": "https://dc.lft.to/lastmile_qr_scan"}, "type": "electric_scooter"}, {"name": "a38780139fe40aa74219fe11b4191535", "is_reserved": 0, "fusion_lon": 0.0, "bike_id": "a38780139fe40aa74219fe11b4191535", "lat": 38.89682766666667, "is_disabled": 0, "lon": -77.04330266666666, "fusion_lat": 0.0, "rental_uris": {"ios": "https://dc.lft.to/lastmile_qr_scan", "android": "https://dc.lft.to/lastmile_qr_scan"}, "type": "electric_scooter"}, {"name": "f2478fd05d54927339a1669a603a7981", "is_reserved": 0, "fusion_lon": 0.0, "bike_id": "f2478fd05d54927339a1669a603a7981", "lat": 38.90724, "is_disabled": 0, "lon": -77.04340733333333, "fusion_lat": 0.0, "rental_uris": {"ios": "https://dc.lft.to/lastmile_qr_scan", "android": "https://dc.lft.to/lastmile_qr_scan"}, "type": "electric_scooter"}, {"name": "033a3a3a7f8a8471ac4c3993653a0621", "is_reserved": 0, "fusion_lon": 0.0, "bike_id": "033a3a3a7f8a8471ac4c3993653a0621", "lat": 38.92379416666667, "is_disabled": 0, "lon": -77.02655566666667, "fusion_lat": 0.0, "rental_uris": {"ios": "https://dc.lft.to/lastmile_qr_scan", "android": "https://dc.lft.to/lastmile_qr_scan"}, "type": "electric_scooter"}, {"name": "8f0e3becab06a3a3fea926027f6e485b", "is_reserved": 0, "fusion_lon": 0.0, "bike_id": "8f0e3becab06a3a3fea926027f6e485b", "lat": 38.94986766666667, "is_disabled": 0, "lon": -77.080277, "fusion_lat": 0.0, "rental_uris": {"ios": "https://dc.lft.to/lastmile_qr_scan", "android": "https://dc.lft.to/lastmile_qr_scan"}, "type": "electric_scooter"}, {"name": "bf68ce13f49fdc61d5d33df021c75648", "is_reserved": 0, "fusion_lon": 0.0, "bike_id": "bf68ce13f49fdc61d5d33df021c75648", "lat": 38.937669, "is_disabled": 0, "lon": -76.99303733333333, "fusion_lat": 0.0, "rental_uris": {"ios": "https://dc.lft.to/lastmile_qr_scan", "android": "https://dc.lft.to/lastmile_qr_scan"}, "type": "electric_scooter"}, {"name": "d5a022c750dcbb249a99e9dd7668133a", "is_reserved": 0, "fusion_lon": 0.0, "bike_id": "d5a022c750dcbb249a99e9dd7668133a", "lat": 38.937316833333334, "is_disabled": 0, "lon": -77.03281083333333, "fusion_lat": 0.0, "rental_uris": {"ios": "https://dc.lft.to/lastmile_qr_scan", "android": "https://dc.lft.to/lastmile_qr_scan"}, "type": "electric_scooter"}, {"name": "09663a652379414904d6ff106273452a", "is_reserved": 0, "fusion_lon": 0.0, "bike_id": "09663a652379414904d6ff106273452a", "lat": 38.92361283333334, "is_disabled": 0, "lon": -77.02121666666666, "fusion_lat": 0.0, "rental_uris": {"ios": "https://dc.lft.to/lastmile_qr_scan", "android": "https://dc.lft.to/lastmile_qr_scan"}, "type": "electric_scooter"}, {"name": "fdac47cd6c388ee6bfa0742093506288", "is_reserved": 0, "fusion_lon": 0.0, "bike_id": "fdac47cd6c388ee6bfa0742093506288", "lat": 38.900075333333334, "is_disabled": 0, "lon": -76.977412, "fusion_lat": 0.0, "rental_uris": {"ios": "https://dc.lft.to/lastmile_qr_scan", "android": "https://dc.lft.to/lastmile_qr_scan"}, "type": "electric_scooter"}, {"name": "679d5e2f18d742e3d0dfb6e20318ce1a", "is_reserved": 0, "fusion_lon": 0.0, "bike_id": "679d5e2f18d742e3d0dfb6e20318ce1a", "lat": 38.9237195, "is_disabled": 0, "lon": -77.02553966666666, "fusion_lat": 0.0, "rental_uris": {"ios": "https://dc.lft.to/lastmile_qr_scan", "android": "https://dc.lft.to/lastmile_qr_scan"}, "type": "electric_scooter"}, {"name": "5a69068f20e0b75c1fb5040ed0b5103c", "is_reserved": 0, "fusion_lon": 0.0, "bike_id": "5a69068f20e0b75c1fb5040ed0b5103c", "lat": 38.91672666666667, "is_disabled": 0, "lon": -77.0570115, "fusion_lat": 0.0, "rental_uris": {"ios": "https://dc.lft.to/lastmile_qr_scan", "android": "https://dc.lft.to/lastmile_qr_scan"}, "type": "electric_scooter"}, {"name": "666741ba38836758072579435172bff1", "is_reserved": 0, "fusion_lon": 0.0, "bike_id": "666741ba38836758072579435172bff1", "lat": 38.886036833333335, "is_disabled": 0, "lon": -76.9250085, "fusion_lat": 0.0, "rental_uris": {"ios": "https://dc.lft.to/lastmile_qr_scan", "android": "https://dc.lft.to/lastmile_qr_scan"}, "type": "electric_scooter"}, {"name": "28991190933c2b3e1dcc851ba0604cca", "is_reserved": 0, "fusion_lon": 0.0, "bike_id": "28991190933c2b3e1dcc851ba0604cca", "lat": 38.90050566666667, "is_disabled": 0, "lon": -76.99339333333333, "fusion_lat": 0.0, "rental_uris": {"ios": "https://dc.lft.to/lastmile_qr_scan", "android": "https://dc.lft.to/lastmile_qr_scan"}, "type": "electric_scooter"}, {"name": "76c2b50564cfeda814642a42fa3e141c", "is_reserved": 0, "fusion_lon": 0.0, "bike_id": "76c2b50564cfeda814642a42fa3e141c", "lat": 38.893926666666665, "is_disabled": 0, "lon": -77.05474916666667, "fusion_lat": 0.0, "rental_uris": {"ios": "https://dc.lft.to/lastmile_qr_scan", "android": "https://dc.lft.to/lastmile_qr_scan"}, "type": "electric_scooter"}, {"name": "93a424b1f5f82a471d32c67082a5cc1e", "is_reserved": 0, "fusion_lon": 0.0, "bike_id": "93a424b1f5f82a471d32c67082a5cc1e", "lat": 38.892193666666664, "is_disabled": 0, "lon": -77.0155505, "fusion_lat": 0.0, "rental_uris": {"ios": "https://dc.lft.to/lastmile_qr_scan", "android": "https://dc.lft.to/lastmile_qr_scan"}, "type": "electric_scooter"}, {"name": "0d7dd3a147469e959121d0a9c891c355", "is_reserved": 0, "fusion_lon": 0.0, "bike_id": "0d7dd3a147469e959121d0a9c891c355", "lat": 38.96385983333333, "is_disabled": 0, "lon": -77.02767266666666, "fusion_lat": 0.0, "rental_uris": {"ios": "https://dc.lft.to/lastmile_qr_scan", "android": "https://dc.lft.to/lastmile_qr_scan"}, "type": "electric_scooter"}, {"name": "6cbd87b9fe9a146cac2f348dc381d221", "is_reserved": 0, "fusion_lon": 0.0, "bike_id": "6cbd87b9fe9a146cac2f348dc381d221", "lat": 38.902354833333334, "is_disabled": 0, "lon": -77.03331516666667, "fusion_lat": 0.0, "rental_uris": {"ios": "https://dc.lft.to/lastmile_qr_scan", "android": "https://dc.lft.to/lastmile_qr_scan"}, "type": "electric_scooter"}, {"name": "034d2f6fa346d87c2bdd787966f0ef53", "is_reserved": 0, "fusion_lon": 0.0, "bike_id": "034d2f6fa346d87c2bdd787966f0ef53", "lat": 38.92375083333334, "is_disabled": 0, "lon": -77.03034216666667, "fusion_lat": 0.0, "rental_uris": {"ios": "https://dc.lft.to/lastmile_qr_scan", "android": "https://dc.lft.to/lastmile_qr_scan"}, "type": "electric_scooter"}, {"name": "38115c9dab19d3388dbfe5bd59bec201", "is_reserved": 0, "fusion_lon": 0.0, "bike_id": "38115c9dab19d3388dbfe5bd59bec201", "lat": 38.93055533333333, "is_disabled": 0, "lon": -77.02328116666666, "fusion_lat": 0.0, "rental_uris": {"ios": "https://dc.lft.to/lastmile_qr_scan", "android": "https://dc.lft.to/lastmile_qr_scan"}, "type": "electric_scooter"}, {"name": "f0a6683cdde39bed487f161e4991c527", "is_reserved": 0, "fusion_lon": 0.0, "bike_id": "f0a6683cdde39bed487f161e4991c527", "lat": 38.90031466666667, "is_disabled": 0, "lon": -76.98856333333333, "fusion_lat": 0.0, "rental_uris": {"ios": "https://dc.lft.to/lastmile_qr_scan", "android": "https://dc.lft.to/lastmile_qr_scan"}, "type": "electric_scooter"}, {"name": "62c7969d32c83409cb84546d5309a8fe", "is_reserved": 0, "fusion_lon": 0.0, "bike_id": "62c7969d32c83409cb84546d5309a8fe", "lat": 38.92457133333333, "is_disabled": 0, "lon": -77.02153016666666, "fusion_lat": 0.0, "rental_uris": {"ios": "https://dc.lft.to/lastmile_qr_scan", "android": "https://dc.lft.to/lastmile_qr_scan"}, "type": "electric_scooter"}, {"name": "9fa33236314462d46726bd25e48fe0db", "is_reserved": 0, "fusion_lon": 0.0, "bike_id": "9fa33236314462d46726bd25e48fe0db", "lat": 38.863278, "is_disabled": 0, "lon": -76.991121, "fusion_lat": 0.0, "rental_uris": {"ios": "https://dc.lft.to/lastmile_qr_scan", "android": "https://dc.lft.to/lastmile_qr_scan"}, "type": "electric_scooter"}, {"name": "35b2f99e6e68c7d766b57c06947bb9b2", "is_reserved": 0, "fusion_lon": 0.0, "bike_id": "35b2f99e6e68c7d766b57c06947bb9b2", "lat": 38.967319333333336, "is_disabled": 0, "lon": -77.08909333333334, "fusion_lat": 0.0, "rental_uris": {"ios": "https://dc.lft.to/lastmile_qr_scan", "android": "https://dc.lft.to/lastmile_qr_scan"}, "type": "electric_bike"}, {"name": "6d75c204cc0d0478a925e34fe69abb2f", "is_reserved": 0, "fusion_lon": 0.0, "bike_id": "6d75c204cc0d0478a925e34fe69abb2f", "lat": 38.921538, "is_disabled": 0, "lon": -77.029753, "fusion_lat": 0.0, "rental_uris": {"ios": "https://dc.lft.to/lastmile_qr_scan", "android": "https://dc.lft.to/lastmile_qr_scan"}, "type": "electric_scooter"}, {"name": "c22430ece90ccfd60f3d1e9e580ed2c3", "is_reserved": 0, "fusion_lon": 0.0, "bike_id": "c22430ece90ccfd60f3d1e9e580ed2c3", "lat": 38.92246633333333, "is_disabled": 0, "lon": -77.03657, "fusion_lat": 0.0, "rental_uris": {"ios": "https://dc.lft.to/lastmile_qr_scan", "android": "https://dc.lft.to/lastmile_qr_scan"}, "type": "electric_scooter"}, {"name": "becfe7ff95715f4c7018abd0f463ae79", "is_reserved": 0, "fusion_lon": 0.0, "bike_id": "becfe7ff95715f4c7018abd0f463ae79", "lat": 38.892255, "is_disabled": 0, "lon": -77.04085733333334, "fusion_lat": 0.0, "rental_uris": {"ios": "https://dc.lft.to/lastmile_qr_scan", "android": "https://dc.lft.to/lastmile_qr_scan"}, "type": "electric_scooter"}, {"name": "02e8961c9b32043f830cc27aef6d4850", "is_reserved": 0, "fusion_lon": 0.0, "bike_id": "02e8961c9b32043f830cc27aef6d4850", "lat": 38.899505833333336, "is_disabled": 0, "lon": -76.98684866666666, "fusion_lat": 0.0, "rental_uris": {"ios": "https://dc.lft.to/lastmile_qr_scan", "android": "https://dc.lft.to/lastmile_qr_scan"}, "type": "electric_scooter"}, {"name": "aa56732c08ec96d6d4a369a980d0049d", "is_reserved": 0, "fusion_lon": 0.0, "bike_id": "aa56732c08ec96d6d4a369a980d0049d", "lat": 38.92616016666667, "is_disabled": 0, "lon": -77.0419325, "fusion_lat": 0.0, "rental_uris": {"ios": "https://dc.lft.to/lastmile_qr_scan", "android": "https://dc.lft.to/lastmile_qr_scan"}, "type": "electric_scooter"}, {"name": "9f658f7cef72a35ba6bae7f816d85e9f", "is_reserved": 0, "fusion_lon": 0.0, "bike_id": "9f658f7cef72a35ba6bae7f816d85e9f", "lat": 38.900601333333334, "is_disabled": 0, "lon": -77.04574, "fusion_lat": 0.0, "rental_uris": {"ios": "https://dc.lft.to/lastmile_qr_scan", "android": "https://dc.lft.to/lastmile_qr_scan"}, "type": "electric_scooter"}, {"name": "7d5599ed5db0364fe548eb9919a1fd8a", "is_reserved": 0, "fusion_lon": 0.0, "bike_id": "7d5599ed5db0364fe548eb9919a1fd8a", "lat": 38.92248283333333, "is_disabled": 0, "lon": -77.0194935, "fusion_lat": 0.0, "rental_uris": {"ios": "https://dc.lft.to/lastmile_qr_scan", "android": "https://dc.lft.to/lastmile_qr_scan"}, "type": "electric_scooter"}, {"name": "b752cd9970bf77b9b4c728fc3d72af16", "is_reserved": 0, "fusion_lon": 0.0, "bike_id": "b752cd9970bf77b9b4c728fc3d72af16", "lat": 38.897974833333336, "is_disabled": 0, "lon": -77.00609766666666, "fusion_lat": 0.0, "rental_uris": {"ios": "https://dc.lft.to/lastmile_qr_scan", "android": "https://dc.lft.to/lastmile_qr_scan"}, "type": "electric_bike"}, {"name": "27633e80db41dc0e23d739e3a0126ea2", "is_reserved": 0, "fusion_lon": 0.0, "bike_id": "27633e80db41dc0e23d739e3a0126ea2", "lat": 38.936841333333334, "is_disabled": 0, "lon": -77.066195, "fusion_lat": 0.0, "rental_uris": {"ios": "https://dc.lft.to/lastmile_qr_scan", "android": "https://dc.lft.to/lastmile_qr_scan"}, "type": "electric_scooter"}, {"name": "91806a1fa8999ad52efc6693ce262150", "is_reserved": 0, "fusion_lon": 0.0, "bike_id": "91806a1fa8999ad52efc6693ce262150", "lat": 38.926145, "is_disabled": 0, "lon": -77.02159116666667, "fusion_lat": 0.0, "rental_uris": {"ios": "https://dc.lft.to/lastmile_qr_scan", "android": "https://dc.lft.to/lastmile_qr_scan"}, "type": "electric_scooter"}, {"name": "1e0964ca2f93cac16e77f74286feb1e1", "is_reserved": 0, "fusion_lon": 0.0, "bike_id": "1e0964ca2f93cac16e77f74286feb1e1", "lat": 38.887595166666664, "is_disabled": 0, "lon": -77.00041933333334, "fusion_lat": 0.0, "rental_uris": {"ios": "https://dc.lft.to/lastmile_qr_scan", "android": "https://dc.lft.to/lastmile_qr_scan"}, "type": "electric_scooter"}, {"name": "df450f14ce95c796f6a77f6936167991", "is_reserved": 0, "fusion_lon": 0.0, "bike_id": "df450f14ce95c796f6a77f6936167991", "lat": 38.844488, "is_disabled": 0, "lon": -76.98761, "fusion_lat": 0.0, "rental_uris": {"ios": "https://dc.lft.to/lastmile_qr_scan", "android": "https://dc.lft.to/lastmile_qr_scan"}, "type": "electric_bike"}, {"name": "5879a32757ba008913ee38e723fbd3b2", "is_reserved": 0, "fusion_lon": 0.0, "bike_id": "5879a32757ba008913ee38e723fbd3b2", "lat": 38.918709, "is_disabled": 0, "lon": -76.9643505, "fusion_lat": 0.0, "rental_uris": {"ios": "https://dc.lft.to/lastmile_qr_scan", "android": "https://dc.lft.to/lastmile_qr_scan"}, "type": "electric_bike"}, {"name": "57e32afb69644e82d31c2ed142c753eb", "is_reserved": 0, "fusion_lon": 0.0, "bike_id": "57e32afb69644e82d31c2ed142c753eb", "lat": 38.92039283333333, "is_disabled": 0, "lon": -77.01722816666667, "fusion_lat": 0.0, "rental_uris": {"ios": "https://dc.lft.to/lastmile_qr_scan", "android": "https://dc.lft.to/lastmile_qr_scan"}, "type": "electric_scooter"}, {"name": "f1037b3e7c4c766f57182985ab895540", "is_reserved": 0, "fusion_lon": 0.0, "bike_id": "f1037b3e7c4c766f57182985ab895540", "lat": 38.90255833333333, "is_disabled": 0, "lon": -77.04601483333333, "fusion_lat": 0.0, "rental_uris": {"ios": "https://dc.lft.to/lastmile_qr_scan", "android": "https://dc.lft.to/lastmile_qr_scan"}, "type": "electric_scooter"}, {"name": "fc749c133644677535893294f56970cf", "is_reserved": 0, "fusion_lon": 0.0, "bike_id": "fc749c133644677535893294f56970cf", "lat": 38.94028483333334, "is_disabled": 0, "lon": -77.02657383333333, "fusion_lat": 0.0, "rental_uris": {"ios": "https://dc.lft.to/lastmile_qr_scan", "android": "https://dc.lft.to/lastmile_qr_scan"}, "type": "electric_scooter"}, {"name": "2a13d57fe468c9e1716fb0656db956b9", "is_reserved": 0, "fusion_lon": 0.0, "bike_id": "2a13d57fe468c9e1716fb0656db956b9", "lat": 38.9071265, "is_disabled": 0, "lon": -77.00365183333334, "fusion_lat": 0.0, "rental_uris": {"ios": "https://dc.lft.to/lastmile_qr_scan", "android": "https://dc.lft.to/lastmile_qr_scan"}, "type": "electric_scooter"}, {"name": "d8deddd2ef534190c6437c4958dd2bdf", "is_reserved": 0, "fusion_lon": 0.0, "bike_id": "d8deddd2ef534190c6437c4958dd2bdf", "lat": 38.90012816666667, "is_disabled": 0, "lon": -77.0399525, "fusion_lat": 0.0, "rental_uris": {"ios": "https://dc.lft.to/lastmile_qr_scan", "android": "https://dc.lft.to/lastmile_qr_scan"}, "type": "electric_bike"}, {"name": "3101aabe13f7d49c49b3b0cfcc43a6ad", "is_reserved": 0, "fusion_lon": 0.0, "bike_id": "3101aabe13f7d49c49b3b0cfcc43a6ad", "lat": 38.9234065, "is_disabled": 0, "lon": -77.0091425, "fusion_lat": 0.0, "rental_uris": {"ios": "https://dc.lft.to/lastmile_qr_scan", "android": "https://dc.lft.to/lastmile_qr_scan"}, "type": "electric_scooter"}, {"name": "4e2727a0219615346dcd6916a7057038", "is_reserved": 0, "fusion_lon": 0.0, "bike_id": "4e2727a0219615346dcd6916a7057038", "lat": 38.95597083333333, "is_disabled": 0, "lon": -77.08061383333333, "fusion_lat": 0.0, "rental_uris": {"ios": "https://dc.lft.to/lastmile_qr_scan", "android": "https://dc.lft.to/lastmile_qr_scan"}, "type": "electric_scooter"}, {"name": "fa0fdeaf6a775c56cb410ad4d02cec9f", "is_reserved": 0, "fusion_lon": 0.0, "bike_id": "fa0fdeaf6a775c56cb410ad4d02cec9f", "lat": 38.839117333333334, "is_disabled": 0, "lon": -76.9983705, "fusion_lat": 0.0, "rental_uris": {"ios": "https://dc.lft.to/lastmile_qr_scan", "android": "https://dc.lft.to/lastmile_qr_scan"}, "type": "electric_bike"}, {"name": "8b032611f6273d6cadfec05c07bfc97b", "is_reserved": 0, "fusion_lon": 0.0, "bike_id": "8b032611f6273d6cadfec05c07bfc97b", "lat": 38.897065, "is_disabled": 0, "lon": -77.0219085, "fusion_lat": 0.0, "rental_uris": {"ios": "https://dc.lft.to/lastmile_qr_scan", "android": "https://dc.lft.to/lastmile_qr_scan"}, "type": "electric_scooter"}, {"name": "cc40089b31fa8ba5167f69803708b8e2", "is_reserved": 0, "fusion_lon": 0.0, "bike_id": "cc40089b31fa8ba5167f69803708b8e2", "lat": 38.923105, "is_disabled": 0, "lon": -77.01903616666667, "fusion_lat": 0.0, "rental_uris": {"ios": "https://dc.lft.to/lastmile_qr_scan", "android": "https://dc.lft.to/lastmile_qr_scan"}, "type": "electric_scooter"}, {"name": "0ba7da2f663a87e51bb60506d909abe5", "is_reserved": 0, "fusion_lon": 0.0, "bike_id": "0ba7da2f663a87e51bb60506d909abe5", "lat": 38.90813816666667, "is_disabled": 0, "lon": -77.03948983333333, "fusion_lat": 0.0, "rental_uris": {"ios": "https://dc.lft.to/lastmile_qr_scan", "android": "https://dc.lft.to/lastmile_qr_scan"}, "type": "electric_scooter"}, {"name": "5ab6e17ab734d5fc69e3c6c2343290c5", "is_reserved": 0, "fusion_lon": 0.0, "bike_id": "5ab6e17ab734d5fc69e3c6c2343290c5", "lat": 38.928758333333334, "is_disabled": 0, "lon": -77.0192875, "fusion_lat": 0.0, "rental_uris": {"ios": "https://dc.lft.to/lastmile_qr_scan", "android": "https://dc.lft.to/lastmile_qr_scan"}, "type": "electric_scooter"}, {"name": "c19d027d177200e150642e5855d76b43", "is_reserved": 0, "fusion_lon": 0.0, "bike_id": "c19d027d177200e150642e5855d76b43", "lat": 38.8983125, "is_disabled": 0, "lon": -77.0427115, "fusion_lat": 0.0, "rental_uris": {"ios": "https://dc.lft.to/lastmile_qr_scan", "android": "https://dc.lft.to/lastmile_qr_scan"}, "type": "electric_scooter"}, {"name": "c861bde139d7d9e5a4a3b18b0e85ecb4", "is_reserved": 0, "fusion_lon": 0.0, "bike_id": "c861bde139d7d9e5a4a3b18b0e85ecb4", "lat": 38.919665, "is_disabled": 0, "lon": -77.04503983333333, "fusion_lat": 0.0, "rental_uris": {"ios": "https://dc.lft.to/lastmile_qr_scan", "android": "https://dc.lft.to/lastmile_qr_scan"}, "type": "electric_scooter"}, {"name": "84b5d2b28abc409b2ba512d71fdebf7a", "is_reserved": 0, "fusion_lon": 0.0, "bike_id": "84b5d2b28abc409b2ba512d71fdebf7a", "lat": 38.918109333333334, "is_disabled": 0, "lon": -77.036879, "fusion_lat": 0.0, "rental_uris": {"ios": "https://dc.lft.to/lastmile_qr_scan", "android": "https://dc.lft.to/lastmile_qr_scan"}, "type": "electric_scooter"}, {"name": "1f75cfebce956ff683cbd339c8a6c599", "is_reserved": 0, "fusion_lon": 0.0, "bike_id": "1f75cfebce956ff683cbd339c8a6c599", "lat": 38.9181925, "is_disabled": 0, "lon": -77.03691166666667, "fusion_lat": 0.0, "rental_uris": {"ios": "https://dc.lft.to/lastmile_qr_scan", "android": "https://dc.lft.to/lastmile_qr_scan"}, "type": "electric_scooter"}, {"name": "8ba0329bca4897fbb2831082ae93a77e", "is_reserved": 0, "fusion_lon": 0.0, "bike_id": "8ba0329bca4897fbb2831082ae93a77e", "lat": 38.892331166666665, "is_disabled": 0, "lon": -77.03161733333333, "fusion_lat": 0.0, "rental_uris": {"ios": "https://dc.lft.to/lastmile_qr_scan", "android": "https://dc.lft.to/lastmile_qr_scan"}, "type": "electric_scooter"}, {"name": "e31638482aeff6ca42586bb7fd64cf74", "is_reserved": 0, "fusion_lon": 0.0, "bike_id": "e31638482aeff6ca42586bb7fd64cf74", "lat": 38.933931666666666, "is_disabled": 0, "lon": -77.0574545, "fusion_lat": 0.0, "rental_uris": {"ios": "https://dc.lft.to/lastmile_qr_scan", "android": "https://dc.lft.to/lastmile_qr_scan"}, "type": "electric_scooter"},