{"data": {"bikes": [{"bike_id": "52ebe0f8fd4ce71d2261378b4f10df30", "type": "electric_scooter", "is_disabled": 0, "lat": 38.924833666666665, "rental_uris": {"ios": "https://dc.lft.to/lastmile_qr_scan", "android": "https://dc.lft.to/lastmile_qr_scan"}, "is_reserved": 0, "fusion_lon": 0.0, "fusion_lat": 0.0, "lon": -77.02715066666667, "name": "52ebe0f8fd4ce71d2261378b4f10df30"}, {"bike_id": "f72ee906d267ad2d10aa688def42c5b9", "type": "electric_scooter", "is_disabled": 0, "lat": 38.92875983333333, "rental_uris": {"ios": "https://dc.lft.to/lastmile_qr_scan", "android": "https://dc.lft.to/lastmile_qr_scan"}, "is_reserved": 0, "fusion_lon": 0.0, "fusion_lat": 0.0, "lon": -77.02178216666667, "name": "f72ee906d267ad2d10aa688def42c5b9"}, {"bike_id": "0b21beab00e79dcc73c6952b193e4a36", "type": "electric_scooter", "is_disabled": 0, "lat": 38.876704, "rental_uris": {"ios": "https://dc.lft.to/lastmile_qr_scan", "android": "https://dc.lft.to/lastmile_qr_scan"}, "is_reserved": 0, "fusion_lon": 0.0, "fusion_lat": 0.0, "lon": -77.0202115, "name": "0b21beab00e79dcc73c6952b193e4a36"}, {"bike_id": "d3df90e5e1801b4477027c12e876336d", "type": "electric_bike", "is_disabled": 0, "lat": 38.85437483333333, "rental_uris": {"ios": "https://dc.lft.to/lastmile_qr_scan", "android": "https://dc.lft.to/lastmile_qr_scan"}, "is_reserved": 0, "fusion_lon": 0.0, "fusion_lat": 0.0, "lon": -77.08307816666667, "name": "d3df90e5e1801b4477027c12e876336d"}, {"bike_id": "df465a207373806b2cc56f92ec025b94", "type": "electric_scooter", "is_disabled": 0, "lat": 38.923240666666665, "rental_uris": {"ios": "https://dc.lft.to/lastmile_qr_scan", "android": "https://dc.lft.to/lastmile_qr_scan"}, "is_reserved": 0, "fusion_lon": 0.0, "fusion_lat": 0.0, "lon": -77.00889283333333, "name": "df465a207373806b2cc56f92ec025b94"}, {"bike_id": "cb0f87930dd812d64822e838ff5f1abd", "type": "electric_scooter", "is_disabled": 0, "lat": 38.905037166666666, "rental_uris": {"ios": "https://dc.lft.to/lastmile_qr_scan", "android": "https://dc.lft.to/lastmile_qr_scan"}, "is_reserved": 0, "fusion_lon": 0.0, "fusion_lat": 0.0, "lon": -77.06016766666667, "name": "cb0f87930dd812d64822e838ff5f1abd"}, {"bike_id": "6164e19f8833404f1018de82fd910c2d", "type": "electric_scooter", "is_disabled": 0, "lat": 38.9019205, "rental_uris": {"ios": "https://dc.lft.to/lastmile_qr_scan", "android": "https://dc.lft.to/lastmile_qr_scan"}, "is_reserved": 0, "fusion_lon": 0.0, "fusion_lat": 0.0, "lon": -77.03949066666667, "name": "6164e19f8833404f1018de82fd910c2d"}, {"bike_id": "3849535d3ada5fb57cf2af1d42b19eda", "type": "electric_scooter", "is_disabled": 0, "lat": 38.95295816666667, "rental_uris": {"ios": "https://dc.lft.to/lastmile_qr_scan", "android": "https://dc.lft.to/lastmile_qr_scan"}, "is_reserved": 0, "fusion_lon": 0.0, "fusion_lat": 0.0, "lon": -77.06861, "name": "3849535d3ada5fb57cf2af1d42b19eda"}, {"bike_id": "865cd7f923a03ddba0d0d15c6b5932ad", "type": "electric_scooter", "is_disabled": 0, "lat": 38.936409833333336, "rental_uris": {"ios": "https://dc.lft.to/lastmile_qr_scan", "android": "https://dc.lft.to/lastmile_qr_scan"}, "is_reserved": 0, "fusion_lon": 0.0, "fusion_lat": 0.0, "lon": -77.03656416666666, "name": "865cd7f923a03ddba0d0d15c6b5932ad"}, {"bike_id": "4fda062491489848e42912584b8802e0", "type": "electric_scooter", "is_disabled": 0, "lat": 38.923483, "rental_uris": {"ios": "https://dc.lft.to/lastmile_qr_scan", "android": "https://dc.lft.to/lastmile_qr_scan"}, "is_reserved": 0, "fusion_lon": 0.0, "fusion_lat": 0.0, "lon": -77.05046716666666, "name": "4fda062491489848e42912584b8802e0"}, {"bike_id": "7ebafa0e23009c5c9eda535ba1c6fbfd", "type": "electric_bike", "is_disabled": 0, "lat": 38.9355715, "rental_uris": {"ios": "https://dc.lft.to/lastmile_qr_scan", "android": "https://dc.lft.to/lastmile_qr_scan"}, "is_reserved": 0, "fusion_lon": 0.0, "fusion_lat": 0.0, "lon": -77.0369975, "name": "7ebafa0e23009c5c9eda535ba1c6fbfd"}, {"bike_id": "51a9795db4b94c7a7f8d41fab8285095", "type": "electric_scooter", "is_disabled": 0, "lat": 38.868928833333335, "rental_uris": {"ios": "https://dc.lft.to/lastmile_qr_scan", "android": "https://dc.lft.to/lastmile_qr_scan"}, "is_reserved": 0, "fusion_lon": 0.0, "fusion_lat": 0.0, "lon": -76.98443466666667, "name": "51a9795db4b94c7a7f8d41fab8285095"}, {"bike_id": "d5703091f2f726298d0e9ae6a9572911", "type": "electric_scooter", "is_disabled": 0, "lat": 38.8781305, "rental_uris": {"ios": "https://dc.lft.to/lastmile_qr_scan", "android": "https://dc.lft.to/lastmile_qr_scan"}, "is_reserved": 0, "fusion_lon": 0.0, "fusion_lat": 0.0, "lon": -77.00757233333333, "name": "d5703091f2f726298d0e9ae6a9572911"}, {"bike_id": "97b10d71e0129da60e78444f17da8b18", "type": "electric_bike", "is_disabled": 0, "lat": 38.838101, "rental_uris": {"ios": "https://dc.lft.to/lastmile_qr_scan", "android": "https://dc.lft.to/lastmile_qr_scan"}, "is_reserved": 0, "fusion_lon": 0.0, "fusion_lat": 0.0, "lon": -77.0952475, "name": "97b10d71e0129da60e78444f17da8b18"}, {"bike_id": "b49a818c24d2a311fc8d52093710d3cf", "type": "electric_scooter", "is_disabled": 0, "lat": 38.92241166666667, "rental_uris": {"ios": "https://dc.lft.to/lastmile_qr_scan", "android": "https://dc.lft.to/lastmile_qr_scan"}, "is_reserved": 0, "fusion_lon": 0.0, "fusion_lat": 0.0, "lon": -77.03876016666666, "name": "b49a818c24d2a311fc8d52093710d3cf"}, {"bike_id": "4b12fd66403950d0f4b69c88b50554e8", "type": "electric_scooter", "is_disabled": 0, "lat": 38.9553235, "rental_uris": {"ios": "https://dc.lft.to/lastmile_qr_scan", "android": "https://dc.lft.to/lastmile_qr_scan"}, "is_reserved": 0, "fusion_lon": 0.0, "fusion_lat": 0.0, "lon": -77.02773983333333, "name": "4b12fd66403950d0f4b69c88b50554e8"}, {"bike_id": "c9a3b86102f8c0bd7e6ffda3a3eda5ca", "type": "electric_scooter", "is_disabled": 0, "lat": 38.964080333333335, "rental_uris": {"ios": "https://dc.lft.to/lastmile_qr_scan", "android": "https://dc.lft.to/lastmile_qr_scan"}, "is_reserved": 0, "fusion_lon": 0.0, "fusion_lat": 0.0, "lon": -77.02766466666667, "name": "c9a3b86102f8c0bd7e6ffda3a3eda5ca"}, {"bike_id": "e73576fb6d7e43291cb6764ffc4f44b4", "type": "electric_scooter", "is_disabled": 0, "lat": 38.90687366666667, "rental_uris": {"ios": "https://dc.lft.to/lastmile_qr_scan", "android": "https://dc.lft.to/lastmile_qr_scan"}, "is_reserved": 0, "fusion_lon": 0.0, "fusion_lat": 0.0, "lon": -77.065175, "name": "e73576fb6d7e43291cb6764ffc4f44b4"}, {"bike_id": "659a2edead54c61dcc4fca775722c312", "type": "electric_scooter", "is_disabled": 0, "lat": 38.90970016666667, "rental_uris": {"ios": "https://dc.lft.to/lastmile_qr_scan", "android": "https://dc.lft.to/lastmile_qr_scan"}, "is_reserved": 0, "fusion_lon": 0.0, "fusion_lat": 0.0, "lon": -77.03813283333334, "name": "659a2edead54c61dcc4fca775722c312"}, {"bike_id": "2735bff24570aa8822c1e3bdeef06b81", "type": "electric_scooter", "is_disabled": 0, "lat": 38.9353395, "rental_uris": {"ios": "https://dc.lft.to/lastmile_qr_scan", "android": "https://dc.lft.to/lastmile_qr_scan"}, "is_reserved": 0, "fusion_lon": 0.0, "fusion_lat": 0.0, "lon": -77.0234395, "name": "2735bff24570aa8822c1e3bdeef06b81"}, {"bike_id": "cbbfed4da2ee61a4bd1a3a8f05011115", "type": "electric_bike", "is_disabled": 0, "lat": 38.897368, "rental_uris": {"ios": "https://dc.lft.to/lastmile_qr_scan", "android": "https://dc.lft.to/lastmile_qr_scan"}, "is_reserved": 0, "fusion_lon": 0.0, "fusion_lat": 0.0, "lon": -76.94254733333334, "name": "cbbfed4da2ee61a4bd1a3a8f05011115"}, {"bike_id": "529200dccab44c8ddf838ec9098cc099", "type": "electric_scooter", "is_disabled": 0, "lat": 38.90363116666666, "rental_uris": {"ios": "https://dc.lft.to/lastmile_qr_scan", "android": "https://dc.lft.to/lastmile_qr_scan"}, "is_reserved": 0, "fusion_lon": 0.0, "fusion_lat": 0.0, "lon": -76.9938285, "name": "529200dccab44c8ddf838ec9098cc099"}, {"bike_id": "8b75e6ce4cea057fed6ea56612dfced6", "type": "electric_scooter", "is_disabled": 0, "lat": 38.93446183333333, "rental_uris": {"ios": "https://dc.lft.to/lastmile_qr_scan", "android": "https://dc.lft.to/lastmile_qr_scan"}, "is_reserved": 0, "fusion_lon": 0.0, "fusion_lat": 0.0, "lon": -77.02981166666666, "name": "8b75e6ce4cea057fed6ea56612dfced6"}, {"bike_id": "43bd888907a07ad1d5e06b505c1a5743", "type": "electric_scooter", "is_disabled": 0, "lat": 38.9219315, "rental_uris": {"ios": "https://dc.lft.to/lastmile_qr_scan", "android": "https://dc.lft.to/lastmile_qr_scan"}, "is_reserved": 0, "fusion_lon": 0.0, "fusion_lat": 0.0, "lon": -76.993618, "name": "43bd888907a07ad1d5e06b505c1a5743"}, {"bike_id": "4bacf8914525d7267e98ee53dfdeaea4", "type": "electric_scooter", "is_disabled": 0, "lat": 38.9127475, "rental_uris": {"ios": "https://dc.lft.to/lastmile_qr_scan", "android": "https://dc.lft.to/lastmile_qr_scan"}, "is_reserved": 0, "fusion_lon": 0.0, "fusion_lat": 0.0, "lon": -77.0473025, "name": "4bacf8914525d7267e98ee53dfdeaea4"}, {"bike_id": "cc7a733a956580533dacadb3786895b4", "type": "electric_bike", "is_disabled": 0, "lat": 39.05794783333333, "rental_uris": {"ios": "https://dc.lft.to/lastmile_qr_scan", "android": "https://dc.lft.to/lastmile_qr_scan"}, "is_reserved": 0, "fusion_lon": 0.0, "fusion_lat": 0.0, "lon": -77.15017483333334, "name": "cc7a733a956580533dacadb3786895b4"}, {"bike_id": "da20670b59b54dcf5578ad31f920bfe6", "type": "electric_scooter", "is_disabled": 0, "lat": 38.930088833333336, "rental_uris": {"ios": "https://dc.lft.to/lastmile_qr_scan", "android": "https://dc.lft.to/lastmile_qr_scan"}, "is_reserved": 0, "fusion_lon": 0.0, "fusion_lat": 0.0, "lon": -77.01434383333333, "name": "da20670b59b54dcf5578ad31f920bfe6"}, {"bike_id": "a9936981ff2e3d7f7d7232e35bb09905", "type": "electric_scooter", "is_disabled": 0, "lat": 38.857037, "rental_uris": {"ios": "https://dc.lft.to/lastmile_qr_scan", "android": "https://dc.lft.to/lastmile_qr_scan"}, "is_reserved": 0, "fusion_lon": 0.0, "fusion_lat": 0.0, "lon": -76.98967366666666, "name": "a9936981ff2e3d7f7d7232e35bb09905"}, {"bike_id": "581ff405b9fb47f38bd0c4cfd938c965", "type": "electric_bike", "is_disabled": 0, "lat": 38.853191, "rental_uris": {"ios": "https://dc.lft.to/lastmile_qr_scan", "android": "https://dc.lft.to/lastmile_qr_scan"}, "is_reserved": 0, "fusion_lon": 0.0, "fusion_lat": 0.0, "lon": -76.98008616666667, "name": "581ff405b9fb47f38bd0c4cfd938c965"}, {"bike_id": "4149253aafb00901ed3cd7225b4103a0", "type": "electric_scooter", "is_disabled": 0, "lat": 38.900588666666664, "rental_uris": {"ios": "https://dc.lft.to/lastmile_qr_scan", "android": "https://dc.lft.to/lastmile_qr_scan"}, "is_reserved": 0, "fusion_lon": 0.0, "fusion_lat": 0.0, "lon": -76.9347545, "name": "4149253aafb00901ed3cd7225b4103a0"}, {"bike_id": "90c05f9033414da333e8101414a12705", "type": "electric_scooter", "is_disabled": 0, "lat": 38.8520665, "rental_uris": {"ios": "https://dc.lft.to/lastmile_qr_scan", "android": "https://dc.lft.to/lastmile_qr_scan"}, "is_reserved": 0, "fusion_lon": 0.0, "fusion_lat": 0.0, "lon": -76.98554366666667, "name": "90c05f9033414da333e8101414a12705"}, {"bike_id": "4b6f3e719df091e83d731dd72c48cf2f", "type": "electric_scooter", "is_disabled": 0, "lat": 38.91577933333333, "rental_uris": {"ios": "https://dc.lft.to/lastmile_qr_scan", "android": "https://dc.lft.to/lastmile_qr_scan"}, "is_reserved": 0, "fusion_lon": 0.0, "fusion_lat": 0.0, "lon": -77.0346455, "name": "4b6f3e719df091e83d731dd72c48cf2f"}, {"bike_id": "bdb60a2634ad45423589078a8eac9b1c", "type": "electric_scooter", "is_disabled": 0, "lat": 38.901224666666664, "rental_uris": {"ios": "https://dc.lft.to/lastmile_qr_scan", "android": "https://dc.lft.to/lastmile_qr_scan"}, "is_reserved": 0, "fusion_lon": 0.0, "fusion_lat": 0.0, "lon": -77.04994366666666, "name": "bdb60a2634ad45423589078a8eac9b1c"}, {"bike_id": "e0a2318a27c8517453beb72d992b9855", "type": "electric_scooter", "is_disabled": 0, "lat": 38.88037766666667, "rental_uris": {"ios": "https://dc.lft.to/lastmile_qr_scan", "android": "https://dc.lft.to/lastmile_qr_scan"}, "is_reserved": 0, "fusion_lon": 0.0, "fusion_lat": 0.0, "lon": -77.02504483333334, "name": "e0a2318a27c8517453beb72d992b9855"}, {"bike_id": "c3f87cc2bc83340226911ea5475c537b", "type": "electric_bike", "is_disabled": 0, "lat": 38.799823833333335, "rental_uris": {"ios": "https://dc.lft.to/lastmile_qr_scan", "android": "https://dc.lft.to/lastmile_qr_scan"}, "is_reserved": 0, "fusion_lon": 0.0, "fusion_lat": 0.0, "lon": -77.129792, "name": "c3f87cc2bc83340226911ea5475c537b"}, {"bike_id": "2a889ab276aef2d6288ce5b20e053087", "type": "electric_scooter", "is_disabled": 0, "lat": 38.86237666666667, "rental_uris": {"ios": "https://dc.lft.to/lastmile_qr_scan", "android": "https://dc.lft.to/lastmile_qr_scan"}, "is_reserved": 0, "fusion_lon": 0.0, "fusion_lat": 0.0, "lon": -76.99519516666666, "name": "2a889ab276aef2d6288ce5b20e053087"}, {"bike_id": "85ea18798bcc6d479b64d2541cca8ff4", "type": "electric_scooter", "is_disabled": 0, "lat": 38.90476266666667, "rental_uris": {"ios": "https://dc.lft.to/lastmile_qr_scan", "android": "https://dc.lft.to/lastmile_qr_scan"}, "is_reserved": 0, "fusion_lon": 0.0, "fusion_lat": 0.0, "lon": -77.03561216666667, "name": "85ea18798bcc6d479b64d2541cca8ff4"}, {"bike_id": "2f57a504d470363c7f47a08805937ede", "type": "electric_scooter", "is_disabled": 0, "lat": 38.89330366666667, "rental_uris": {"ios": "https://dc.lft.to/lastmile_qr_scan", "android": "https://dc.lft.to/lastmile_qr_scan"}, "is_reserved": 0, "fusion_lon": 0.0, "fusion_lat": 0.0, "lon": -77.04876916666667, "name": "2f57a504d470363c7f47a08805937ede"}, {"bike_id": "4c6127598cb9bdb349b56959425ea1ce", "type": "electric_scooter", "is_disabled": 0, "lat": 38.918145, "rental_uris": {"ios": "https://dc.lft.to/lastmile_qr_scan", "android": "https://dc.lft.to/lastmile_qr_scan"}, "is_reserved": 0, "fusion_lon": 0.0, "fusion_lat": 0.0, "lon": -77.0101, "name": "4c6127598cb9bdb349b56959425ea1ce"}, {"bike_id": "bbe53826e4330898fbbcd9aee088114f", "type": "electric_scooter", "is_disabled": 0, "lat": 38.907893333333334, "rental_uris": {"ios": "https://dc.lft.to/lastmile_qr_scan", "android": "https://dc.lft.to/lastmile_qr_scan"}, "is_reserved": 0, "fusion_lon": 0.0, "fusion_lat": 0.0, "lon": -77.048908, "name": "bbe53826e4330898fbbcd9aee088114f"}, {"bike_id": "878fce49e64146b17fba9cc03185fa4c", "type": "electric_scooter", "is_disabled": 0, "lat": 38.906868, "rental_uris": {"ios": "https://dc.lft.to/lastmile_qr_scan", "android": "https://dc.lft.to/lastmile_qr_scan"}, "is_reserved": 0, "fusion_lon": 0.0, "fusion_lat": 0.0, "lon": -77.02692983333333, "name": "878fce49e64146b17fba9cc03185fa4c"}, {"bike_id": "e0cff6b54eb2cd8d625584b853561826", "type": "electric_scooter", "is_disabled": 0, "lat": 38.9056745, "rental_uris": {"ios": "https://dc.lft.to/lastmile_qr_scan", "android": "https://dc.lft.to/lastmile_qr_scan"}, "is_reserved": 0, "fusion_lon": 0.0, "fusion_lat": 0.0, "lon": -77.00578733333333, "name": "e0cff6b54eb2cd8d625584b853561826"}, {"bike_id": "fa05beef1656bed307507af48f1a011e", "type": "electric_scooter", "is_disabled": 0, "lat": 38.92455116666667, "rental_uris": {"ios": "https://dc.lft.to/lastmile_qr_scan", "android": "https://dc.lft.to/lastmile_qr_scan"}, "is_reserved": 0, "fusion_lon": 0.0, "fusion_lat": 0.0, "lon": -77.0411285, "name": "fa05beef1656bed307507af48f1a011e"}, {"bike_id": "eb3bc36e170d62fe6a547da3d171c226", "type": "electric_scooter", "is_disabled": 0, "lat": 38.92745816666667, "rental_uris": {"ios": "https://dc.lft.to/lastmile_qr_scan", "android": "https://dc.lft.to/lastmile_qr_scan"}, "is_reserved": 0, "fusion_lon": 0.0, "fusion_lat": 0.0, "lon": -77.03583316666666, "name": "eb3bc36e170d62fe6a547da3d171c226"}, {"bike_id": "6e034c376614c9511e23fd749ac6f303", "type": "electric_scooter", "is_disabled": 0, "lat": 38.923286166666664, "rental_uris": {"ios": "https://dc.lft.to/lastmile_qr_scan", "android": "https://dc.lft.to/lastmile_qr_scan"}, "is_reserved": 0, "fusion_lon": 0.0, "fusion_lat": 0.0, "lon": -77.00049033333333, "name": "6e034c376614c9511e23fd749ac6f303"}, {"bike_id": "4cacf01b12315f3cadb39c9b9103ce98", "type": "electric_scooter", "is_disabled": 0, "lat": 38.895418166666666, "rental_uris": {"ios": "https://dc.lft.to/lastmile_qr_scan", "android": "https://dc.lft.to/lastmile_qr_scan"}, "is_reserved": 0, "fusion_lon": 0.0, "fusion_lat": 0.0, "lon": -76.9492495, "name": "4cacf01b12315f3cadb39c9b9103ce98"}, {"bike_id": "9a3af9cb2acd7f9a134cf6ec72fd62a3", "type": "electric_scooter", "is_disabled": 0, "lat": 38.89795933333333, "rental_uris": {"ios": "https://dc.lft.to/lastmile_qr_scan", "android": "https://dc.lft.to/lastmile_qr_scan"}, "is_reserved": 0, "fusion_lon": 0.0, "fusion_lat": 0.0, "lon": -77.01193166666667, "name": "9a3af9cb2acd7f9a134cf6ec72fd62a3"}, {"bike_id": "a14c52c8c365db9bb0f3815813db3fce", "type": "electric_scooter", "is_disabled": 0, "lat": 38.90001483333333, "rental_uris": {"ios": "https://dc.lft.to/lastmile_qr_scan", "android": "https://dc.lft.to/lastmile_qr_scan"}, "is_reserved": 0, "fusion_lon": 0.0, "fusion_lat": 0.0, "lon": -77.006666, "name": "a14c52c8c365db9bb0f3815813db3fce"}, {"bike_id": "91f065041ed226bce8242ce4596bfff3", "type": "electric_scooter", "is_disabled": 0, "lat": 38.919434833333334, "rental_uris": {"ios": "https://dc.lft.to/lastmile_qr_scan", "android": "https://dc.lft.to/lastmile_qr_scan"}, "is_reserved": 0, "fusion_lon": 0.0, "fusion_lat": 0.0, "lon": -77.0448335, "name": "91f065041ed226bce8242ce4596bfff3"}, {"bike_id": "2e06fd4a4c1b5f18edcf9971b991f461", "type": "electric_scooter", "is_disabled": 0, "lat": 38.926182, "rental_uris": {"ios": "https://dc.lft.to/lastmile_qr_scan", "android": "https://dc.lft.to/lastmile_qr_scan"}, "is_reserved": 0, "fusion_lon": 0.0, "fusion_lat": 0.0, "lon": -77.04322233333333, "name": "2e06fd4a4c1b5f18edcf9971b991f461"}, {"bike_id": "d7c6b7d12ce0a71df9c66f6b60726bf7", "type": "electric_scooter", "is_disabled": 0, "lat": 38.913323, "rental_uris": {"ios": "https://dc.lft.to/lastmile_qr_scan", "android": "https://dc.lft.to/lastmile_qr_scan"}, "is_reserved": 0, "fusion_lon": 0.0, "fusion_lat": 0.0, "lon": -77.01979716666666, "name": "d7c6b7d12ce0a71df9c66f6b60726bf7"}, {"bike_id": "cdcce7f1c55e7d04bbef31bbb1eb03dd", "type": "electric_scooter", "is_disabled": 0, "lat": 38.935376833333336, "rental_uris": {"ios": "https://dc.lft.to/lastmile_qr_scan", "android": "https://dc.lft.to/lastmile_qr_scan"}, "is_reserved": 0, "fusion_lon": 0.0, "fusion_lat": 0.0, "lon": -77.0388435, "name": "cdcce7f1c55e7d04bbef31bbb1eb03dd"}, {"bike_id": "c74a20293f82941abde1102b461ca069", "type": "electric_scooter", "is_disabled": 0, "lat": 38.91012683333334, "rental_uris": {"ios": "https://dc.lft.to/lastmile_qr_scan", "android": "https://dc.lft.to/lastmile_qr_scan"}, "is_reserved": 0, "fusion_lon": 0.0, "fusion_lat": 0.0, "lon": -77.01623033333334, "name": "c74a20293f82941abde1102b461ca069"}, {"bike_id": "0fa93548af9fff911762799f6035e458", "type": "electric_scooter", "is_disabled": 0, "lat": 38.90805366666667, "rental_uris": {"ios": "https://dc.lft.to/lastmile_qr_scan", "android": "https://dc.lft.to/lastmile_qr_scan"}, "is_reserved": 0, "fusion_lon": 0.0, "fusion_lat": 0.0, "lon": -77.03128816666667, "name": "0fa93548af9fff911762799f6035e458"}, {"bike_id": "ab0dcff39ae2ed8aa3158b3172b1ff4b", "type": "electric_scooter", "is_disabled": 0, "lat": 38.914171, "rental_uris": {"ios": "https://dc.lft.to/lastmile_qr_scan", "android": "https://dc.lft.to/lastmile_qr_scan"}, "is_reserved": 0, "fusion_lon": 0.0, "fusion_lat": 0.0, "lon": -77.022826, "name": "ab0dcff39ae2ed8aa3158b3172b1ff4b"}, {"bike_id": "05cc6c56fc783f8841ea1446cce78d0b", "type": "electric_scooter", "is_disabled": 0, "lat": 38.911434666666665, "rental_uris": {"ios": "https://dc.lft.to/lastmile_qr_scan", "android": "https://dc.lft.to/lastmile_qr_scan"}, "is_reserved": 0, "fusion_lon": 0.0, "fusion_lat": 0.0, "lon": -77.02804183333333, "name": "05cc6c56fc783f8841ea1446cce78d0b"}, {"bike_id": "62117751595349899e85b0622fc9163d", "type": "electric_scooter", "is_disabled": 0, "lat": 38.91813, "rental_uris": {"ios": "https://dc.lft.to/lastmile_qr_scan", "android": "https://dc.lft.to/lastmile_qr_scan"}, "is_reserved": 0, "fusion_lon": 0.0, "fusion_lat": 0.0, "lon": -77.0325385, "name": "62117751595349899e85b0622fc9163d"}, {"bike_id": "93037dfa71cadc8f4c2a2c5d88b215ec", "type": "electric_scooter", "is_disabled": 0, "lat": 38.93173683333333, "rental_uris": {"ios": "https://dc.lft.to/lastmile_qr_scan", "android": "https://dc.lft.to/lastmile_qr_scan"}, "is_reserved": 0, "fusion_lon": 0.0, "fusion_lat": 0.0, "lon": -77.028124, "name": "93037dfa71cadc8f4c2a2c5d88b215ec"}, {"bike_id": "ea13b596eb992b639b721e18658d2edc", "type": "electric_scooter", "is_disabled": 0, "lat": 38.899901666666665, "rental_uris": {"ios": "https://dc.lft.to/lastmile_qr_scan", "android": "https://dc.lft.to/lastmile_qr_scan"}, "is_reserved": 0, "fusion_lon": 0.0, "fusion_lat": 0.0, "lon": -76.95000766666666, "name": "ea13b596eb992b639b721e18658d2edc"}, {"bike_id": "e92edc07242fc2caf635f9ecb92f2def", "type": "electric_scooter", "is_disabled": 0, "lat": 38.93881533333333, "rental_uris": {"ios": "https://dc.lft.to/lastmile_qr_scan", "android": "https://dc.lft.to/lastmile_qr_scan"}, "is_reserved": 0, "fusion_lon": 0.0, "fusion_lat": 0.0, "lon": -77.02483016666666, "name": "e92edc07242fc2caf635f9ecb92f2def"}, {"bike_id": "acfad7b230eab2b6625ec1cc601f29d2", "type": "electric_scooter", "is_disabled": 0, "lat": 38.89346833333333, "rental_uris": {"ios": "https://dc.lft.to/lastmile_qr_scan", "android": "https://dc.lft.to/lastmile_qr_scan"}, "is_reserved": 0, "fusion_lon": 0.0, "fusion_lat": 0.0, "lon": -76.99385033333333, "name": "acfad7b230eab2b6625ec1cc601f29d2"}, {"bike_id": "54dfcd4bce1e72c3d6b1e6072a0aab8c", "type": "electric_scooter", "is_disabled": 0, "lat": 38.921568, "rental_uris": {"ios": "https://dc.lft.to/lastmile_qr_scan", "android": "https://dc.lft.to/lastmile_qr_scan"}, "is_reserved": 0, "fusion_lon": 0.0, "fusion_lat": 0.0, "lon": -77.03387566666666, "name": "54dfcd4bce1e72c3d6b1e6072a0aab8c"}, {"bike_id": "b68d982de7179c0b9b7ff4ecb76abd7c", "type": "electric_bike", "is_disabled": 0, "lat": 38.86335316666667, "rental_uris": {"ios": "https://dc.lft.to/lastmile_qr_scan", "android": "https://dc.lft.to/lastmile_qr_scan"}, "is_reserved": 0, "fusion_lon": 0.0, "fusion_lat": 0.0, "lon": -76.987218, "name": "b68d982de7179c0b9b7ff4ecb76abd7c"}, {"bike_id": "c7a4ef83bf9c60879dce5c57c45d1482", "type": "electric_scooter", "is_disabled": 0, "lat": 38.91635633333333, "rental_uris": {"ios": "https://dc.lft.to/lastmile_qr_scan", "android": "https://dc.lft.to/lastmile_qr_scan"}, "is_reserved": 0, "fusion_lon": 0.0, "fusion_lat": 0.0, "lon": -77.02950733333333, "name": "c7a4ef83bf9c60879dce5c57c45d1482"}, {"bike_id": "5fa8026bf9caf331be1068a8aebb2e88", "type": "electric_scooter", "is_disabled": 0, "lat": 38.92937883333333, "rental_uris": {"ios": "https://dc.lft.to/lastmile_qr_scan", "android": "https://dc.lft.to/lastmile_qr_scan"}, "is_reserved": 0, "fusion_lon": 0.0, "fusion_lat": 0.0, "lon": -77.01995033333333, "name": "5fa8026bf9caf331be1068a8aebb2e88"}, {"bike_id": "2e21af0c5047428e17b8eb51b00f070b", "type": "electric_scooter", "is_disabled": 0, "lat": 38.91628516666667, "rental_uris": {"ios": "https://dc.lft.to/lastmile_qr_scan", "android": "https://dc.lft.to/lastmile_qr_scan"}, "is_reserved": 0, "fusion_lon": 0.0, "fusion_lat": 0.0, "lon": -77.03974566666666, "name": "2e21af0c5047428e17b8eb51b00f070b"}, {"bike_id": "4251a95587348b86bccdea93d73b7b12", "type": "electric_scooter", "is_disabled": 0, "lat": 38.85891133333333, "rental_uris": {"ios": "https://dc.lft.to/lastmile_qr_scan", "android": "https://dc.lft.to/lastmile_qr_scan"}, "is_reserved": 0, "fusion_lon": 0.0, "fusion_lat": 0.0, "lon": -76.99721283333334, "name": "4251a95587348b86bccdea93d73b7b12"}, {"bike_id": "61cf9ed0d93af7aedefb5fd6fc55ea9b", "type": "electric_scooter", "is_disabled": 0, "lat": 38.902942333333336, "rental_uris": {"ios": "https://dc.lft.to/lastmile_qr_scan", "android": "https://dc.lft.to/lastmile_qr_scan"}, "is_reserved": 0, "fusion_lon": 0.0, "fusion_lat": 0.0, "lon": -77.00350383333334, "name": "61cf9ed0d93af7aedefb5fd6fc55ea9b"}, {"bike_id": "488d426b703020445085bd01ea77c72e", "type": "electric_scooter", "is_disabled": 0, "lat": 38.918471333333336, "rental_uris": {"ios": "https://dc.lft.to/lastmile_qr_scan", "android": "https://dc.lft.to/lastmile_qr_scan"}, "is_reserved": 0, "fusion_lon": 0.0, "fusion_lat": 0.0, "lon": -77.038797, "name": "488d426b703020445085bd01ea77c72e"}, {"bike_id": "5d545dc1a238475ddb98da2949ad65ec", "type": "electric_scooter", "is_disabled": 0, "lat": 38.88971933333333, "rental_uris": {"ios": "https://dc.lft.to/lastmile_qr_scan", "android": "https://dc.lft.to/lastmile_qr_scan"}, "is_reserved": 0, "fusion_lon": 0.0, "fusion_lat": 0.0, "lon": -76.98238283333333, "name": "5d545dc1a238475ddb98da2949ad65ec"}, {"bike_id": "bc9ec39eff3f7b91a139cfa238c1e5b2", "type": "electric_scooter", "is_disabled": 0, "lat": 38.91205766666667, "rental_uris": {"ios": "https://dc.lft.to/lastmile_qr_scan", "android": "https://dc.lft.to/lastmile_qr_scan"}, "is_reserved": 0, "fusion_lon": 0.0, "fusion_lat": 0.0, "lon": -77.003721, "name": "bc9ec39eff3f7b91a139cfa238c1e5b2"}, {"bike_id": "850a9ea8f8559e6ea2aec0bb33da8e01", "type": "electric_scooter", "is_disabled": 0, "lat": 38.902764166666664, "rental_uris": {"ios": "https://dc.lft.to/lastmile_qr_scan", "android": "https://dc.lft.to/lastmile_qr_scan"}, "is_reserved": 0, "fusion_lon": 0.0, "fusion_lat": 0.0, "lon": -77.01896933333333, "name": "850a9ea8f8559e6ea2aec0bb33da8e01"}, {"bike_id": "e6f5f99e857f44dce16f60c8cd3989cc", "type": "electric_scooter", "is_disabled": 0, "lat": 38.91283816666667, "rental_uris": {"ios": "https://dc.lft.to/lastmile_qr_scan", "android": "https://dc.lft.to/lastmile_qr_scan"}, "is_reserved": 0, "fusion_lon": 0.0, "fusion_lat": 0.0, "lon": -77.027122, "name": "e6f5f99e857f44dce16f60c8cd3989cc"}, {"bike_id": "8bbf210f848b6ed671b13d7f4aa2780f", "type": "electric_scooter", "is_disabled": 0, "lat": 38.924734666666666, "rental_uris": {"ios": "https://dc.lft.to/lastmile_qr_scan", "android": "https://dc.lft.to/lastmile_qr_scan"}, "is_reserved": 0, "fusion_lon": 0.0, "fusion_lat": 0.0, "lon": -77.02838133333333, "name": "8bbf210f848b6ed671b13d7f4aa2780f"}, {"bike_id": "5e329861589a3218fafc07167d88f766", "type": "electric_scooter", "is_disabled": 0, "lat": 38.92614, "rental_uris": {"ios": "https://dc.lft.to/lastmile_qr_scan", "android": "https://dc.lft.to/lastmile_qr_scan"}, "is_reserved": 0, "fusion_lon": 0.0, "fusion_lat": 0.0, "lon": -77.02159216666666, "name": "5e329861589a3218fafc07167d88f766"}, {"bike_id": "09f6b9b42c7b749a7a68ca61daecb24f", "type": "electric_scooter", "is_disabled": 0, "lat": 38.90008266666667, "rental_uris": {"ios": "https://dc.lft.to/lastmile_qr_scan", "android": "https://dc.lft.to/lastmile_qr_scan"}, "is_reserved": 0, "fusion_lon": 0.0, "fusion_lat": 0.0, "lon": -77.04666133333333, "name": "09f6b9b42c7b749a7a68ca61daecb24f"}, {"bike_id": "cff1cf185396e3476617873284185e4a", "type": "electric_scooter", "is_disabled": 0, "lat": 38.93541833333333, "rental_uris": {"ios": "https://dc.lft.to/lastmile_qr_scan", "android": "https://dc.lft.to/lastmile_qr_scan"}, "is_reserved": 0, "fusion_lon": 0.0, "fusion_lat": 0.0, "lon": -77.05860116666666, "name": "cff1cf185396e3476617873284185e4a"}, {"bike_id": "ecc91376b0325c7bc9111ef7df844489", "type": "electric_scooter", "is_disabled": 0, "lat": 38.9231975, "rental_uris": {"ios": "https://dc.lft.to/lastmile_qr_scan", "android": "https://dc.lft.to/lastmile_qr_scan"}, "is_reserved": 0, "fusion_lon": 0.0, "fusion_lat": 0.0, "lon": -77.02800833333333, "name": "ecc91376b0325c7bc9111ef7df844489"}, {"bike_id": "47161d14d5d7a145e4660609b6a9c15c", "type": "electric_scooter", "is_disabled": 0, "lat": 38.92599, "rental_uris": {"ios": "https://dc.lft.to/lastmile_qr_scan", "android": "https://dc.lft.to/lastmile_qr_scan"}, "is_reserved": 0, "fusion_lon": 0.0, "fusion_lat": 0.0, "lon": -77.04397966666667, "name": "47161d14d5d7a145e4660609b6a9c15c"}, {"bike_id": "862ae2864a4e3f932d127c2769f6f95c", "type": "electric_scooter", "is_disabled": 0, "lat": 38.88300616666667, "rental_uris": {"ios": "https://dc.lft.to/lastmile_qr_scan", "android": "https://dc.lft.to/lastmile_qr_scan"}, "is_reserved": 0, "fusion_lon": 0.0, "fusion_lat": 0.0, "lon": -76.94852766666666, "name": "862ae2864a4e3f932d127c2769f6f95c"}, {"bike_id": "4a39a4a0db2c4c19639592ed679d85f9", "type": "electric_scooter", "is_disabled": 0, "lat": 38.8647425, "rental_uris": {"ios": "https://dc.lft.to/lastmile_qr_scan", "android": "https://dc.lft.to/lastmile_qr_scan"}, "is_reserved": 0, "fusion_lon": 0.0, "fusion_lat": 0.0, "lon": -76.9773555, "name": "4a39a4a0db2c4c19639592ed679d85f9"}, {"bike_id": "20f3183829dda95c3a5d330af33b1cf7", "type": "electric_scooter", "is_disabled": 0, "lat": 38.900647666666664, "rental_uris": {"ios": "https://dc.lft.to/lastmile_qr_scan", "android": "https://dc.lft.to/lastmile_qr_scan"}, "is_reserved": 0, "fusion_lon": 0.0, "fusion_lat": 0.0, "lon": -77.0466655, "name": "20f3183829dda95c3a5d330af33b1cf7"}, {"bike_id": "518007babac7af3aa49ec5e6e7bab4ad", "type": "electric_bike", "is_disabled": 0, "lat": 38.96958633333333, "rental_uris": {"ios": "https://dc.lft.to/lastmile_qr_scan", "android": "https://dc.lft.to/lastmile_qr_scan"}, "is_reserved": 0, "fusion_lon": 0.0, "fusion_lat": 0.0, "lon": -76.95751316666667, "name": "518007babac7af3aa49ec5e6e7bab4ad"}, {"bike_id": "08b4cd3e30edfdc193102cfacf6a8b32", "type": "electric_scooter", "is_disabled": 0, "lat": 38.91567833333333, "rental_uris": {"ios": "https://dc.lft.to/lastmile_qr_scan", "android": "https://dc.lft.to/lastmile_qr_scan"}, "is_reserved": 0, "fusion_lon": 0.0, "fusion_lat": 0.0, "lon": -77.04499116666666, "name": "08b4cd3e30edfdc193102cfacf6a8b32"}, {"bike_id": "897f502ee9e41755236e834a26d5d1f9", "type": "electric_scooter", "is_disabled": 0, "lat": 38.9192275, "rental_uris": {"ios": "https://dc.lft.to/lastmile_qr_scan", "android": "https://dc.lft.to/lastmile_qr_scan"}, "is_reserved": 0, "fusion_lon": 0.0, "fusion_lat": 0.0, "lon": -77.0424865, "name": "897f502ee9e41755236e834a26d5d1f9"}, {"bike_id": "6424fb798942d34effc9825b4c35367b", "type": "electric_scooter", "is_disabled": 0, "lat": 38.920190833333336, "rental_uris": {"ios": "https://dc.lft.to/lastmile_qr_scan", "android": "https://dc.lft.to/lastmile_qr_scan"}, "is_reserved": 0, "fusion_lon": 0.0, "fusion_lat": 0.0, "lon": -77.031238, "name": "6424fb798942d34effc9825b4c35367b"}, {"bike_id": "5a9865b19909198ff291c3dff53e6e4f", "type": "electric_scooter", "is_disabled": 0, "lat": 38.902548333333336, "rental_uris": {"ios": "https://dc.lft.to/lastmile_qr_scan", "android": "https://dc.lft.to/lastmile_qr_scan"}, "is_reserved": 0, "fusion_lon": 0.0, "fusion_lat": 0.0, "lon": -77.03969133333334, "name": "5a9865b19909198ff291c3dff53e6e4f"}, {"bike_id": "3d8e81ab996b715943cd20c0da12dbe5", "type": "electric_scooter", "is_disabled": 0, "lat": 38.90006283333334, "rental_uris": {"ios": "https://dc.lft.to/lastmile_qr_scan", "android": "https://dc.lft.to/lastmile_qr_scan"}, "is_reserved": 0, "fusion_lon": 0.0, "fusion_lat": 0.0, "lon": -77.00685666666666, "name": "3d8e81ab996b715943cd20c0da12dbe5"}, {"bike_id": "0db916c50ce27f124240d99ce8a1c696", "type": "electric_scooter", "is_disabled": 0, "lat": 38.905831666666664, "rental_uris": {"ios": "https://dc.lft.to/lastmile_qr_scan", "android": "https://dc.lft.to/lastmile_qr_scan"}, "is_reserved": 0, "fusion_lon": 0.0, "fusion_lat": 0.0, "lon": -77.01999883333333, "name": "0db916c50ce27f124240d99ce8a1c696"}, {"bike_id": "a3fdcaa43667dc34a8b63d37a8f5c299", "type": "electric_scooter", "is_disabled": 0, "lat": 38.86416633333333, "rental_uris": {"ios": "https://dc.lft.to/lastmile_qr_scan", "android": "https://dc.lft.to/lastmile_qr_scan"}, "is_reserved": 0, "fusion_lon": 0.0, "fusion_lat": 0.0, "lon": -76.98041583333334, "name": "a3fdcaa43667dc34a8b63d37a8f5c299"}, {"bike_id": "a62c4d7baca061e3811599d67e29b174", "type": "electric_scooter", "is_disabled": 0, "lat": 38.863764333333336, "rental_uris": {"ios": "https://dc.lft.to/lastmile_qr_scan", "android": "https://dc.lft.to/lastmile_qr_scan"}, "is_reserved": 0, "fusion_lon": 0.0, "fusion_lat": 0.0, "lon": -76.9906275, "name": "a62c4d7baca061e3811599d67e29b174"}, {"bike_id": "2269919e23ef9d749c9c0f64c1922538", "type": "electric_scooter", "is_disabled": 0, "lat": 38.908463833333336, "rental_uris": {"ios": "https://dc.lft.to/lastmile_qr_scan", "android": "https://dc.lft.to/lastmile_qr_scan"}, "is_reserved": 0, "fusion_lon": 0.0, "fusion_lat": 0.0, "lon": -76.99796616666667, "name": "2269919e23ef9d749c9c0f64c1922538"}, {"bike_id": "a9375c7545d296037b0df46946bc002f", "type": "electric_scooter", "is_disabled": 0, "lat": 38.88369766666667, "rental_uris": {"ios": "https://dc.lft.to/lastmile_qr_scan", "android": "https://dc.lft.to/lastmile_qr_scan"}, "is_reserved": 0, "fusion_lon": 0.0, "fusion_lat": 0.0, "lon": -77.02615133333333, "name": "a9375c7545d296037b0df46946bc002f"}, {"bike_id": "d503310c60b6ccc14ab8fca546d8000a", "type": "electric_scooter", "is_disabled": 0, "lat": 38.866825166666665, "rental_uris": {"ios": "https://dc.lft.to/lastmile_qr_scan", "android": "https://dc.lft.to/lastmile_qr_scan"}, "is_reserved": 0, "fusion_lon": 0.0, "fusion_lat": 0.0, "lon": -76.98560466666666, "name": "d503310c60b6ccc14ab8fca546d8000a"}, {"bike_id": "ad48b53a2128698375d92265d623c0e2", "type": "electric_scooter", "is_disabled": 0, "lat": 38.870812666666666, "rental_uris": {"ios": "https://dc.lft.to/lastmile_qr_scan", "android": "https://dc.lft.to/lastmile_qr_scan"}, "is_reserved": 0, "fusion_lon": 0.0, "fusion_lat": 0.0, "lon": -77.01188316666666, "name": "ad48b53a2128698375d92265d623c0e2"}, {"bike_id": "6167b228509f52569cd6dbd05aa8dce8", "type": "electric_scooter", "is_disabled": 0, "lat": 38.9589545, "rental_uris": {"ios": "https://dc.lft.to/lastmile_qr_scan", "android": "https://dc.lft.to/lastmile_qr_scan"}, "is_reserved": 0, "fusion_lon": 0.0, "fusion_lat": 0.0, "lon": -77.085993, "name": "6167b228509f52569cd6dbd05aa8dce8"}, {"bike_id": "be80607adfbbbeddf4d0999699c839e1", "type": "electric_scooter", "is_disabled": 0, "lat": 38.93196066666667, "rental_uris": {"ios": "https://dc.lft.to/lastmile_qr_scan", "android": "https://dc.lft.to/lastmile_qr_scan"}, "is_reserved": 0, "fusion_lon": 0.0, "fusion_lat": 0.0, "lon": -77.0196565, "name": "be80607adfbbbeddf4d0999699c839e1"}, {"bike_id": "ee7e08ac8262bc9106a0cec800edcafc", "type": "electric_scooter", "is_disabled": 0, "lat": 38.87121583333333, "rental_uris": {"ios": "https://dc.lft.to/lastmile_qr_scan", "android": "https://dc.lft.to/lastmile_qr_scan"}, "is_reserved": 0, "fusion_lon": 0.0, "fusion_lat": 0.0, "lon": -77.0075165, "name": "ee7e08ac8262bc9106a0cec800edcafc"}, {"bike_id": "e8d19d6506bb8d37113bc3654f40fef4", "type": "electric_scooter", "is_disabled": 0, "lat": 38.916405833333336, "rental_uris": {"ios": "https://dc.lft.to/lastmile_qr_scan", "android": "https://dc.lft.to/lastmile_qr_scan"}, "is_reserved": 0, "fusion_lon": 0.0, "fusion_lat": 0.0, "lon": -77.00046783333333, "name": "e8d19d6506bb8d37113bc3654f40fef4"}, {"bike_id": "74e8e0bb8b9e626c735c134569ce986b", "type": "electric_scooter", "is_disabled": 0, "lat": 38.91484166666667, "rental_uris": {"ios": "https://dc.lft.to/lastmile_qr_scan", "android": "https://dc.lft.to/lastmile_qr_scan"}, "is_reserved": 0, "fusion_lon": 0.0, "fusion_lat": 0.0, "lon": -77.0218735, "name": "74e8e0bb8b9e626c735c134569ce986b"}, {"bike_id": "07ff08f0b1d0d73791e8aa8a6f2a450f", "type": "electric_scooter", "is_disabled": 0, "lat": 38.90949783333333, "rental_uris": {"ios": "https://dc.lft.to/lastmile_qr_scan", "android": "https://dc.lft.to/lastmile_qr_scan"}, "is_reserved": 0, "fusion_lon": 0.0, "fusion_lat": 0.0, "lon": -77.02695533333333, "name": "07ff08f0b1d0d73791e8aa8a6f2a450f"}, {"bike_id": "a61a09a88b8d5c102bcdaaaff31eece7", "type": "electric_scooter", "is_disabled": 0, "lat": 38.923425, "rental_uris": {"ios": "https://dc.lft.to/lastmile_qr_scan", "android": "https://dc.lft.to/lastmile_qr_scan"}, "is_reserved": 0, "fusion_lon": 0.0, "fusion_lat": 0.0, "lon": -77.05045416666667, "name": "a61a09a88b8d5c102bcdaaaff31eece7"}, {"bike_id": "df53814a304312794c0655ace70ee9f5", "type": "electric_scooter", "is_disabled": 0, "lat": 38.93965033333333, "rental_uris": {"ios": "https://dc.lft.to/lastmile_qr_scan", "android": "https://dc.lft.to/lastmile_qr_scan"}, "is_reserved": 0, "fusion_lon": 0.0, "fusion_lat": 0.0, "lon": -77.02496966666666, "name": "df53814a304312794c0655ace70ee9f5"}, {"bike_id": "01618f3cc56b0914bd8024b59d91d5e1", "type": "electric_scooter", "is_disabled": 0, "lat": 38.9089655, "rental_uris": {"ios": "https://dc.lft.to/lastmile_qr_scan", "android": "https://dc.lft.to/lastmile_qr_scan"}, "is_reserved": 0, "fusion_lon": 0.0, "fusion_lat": 0.0, "lon": -77.08621966666666, "name": "01618f3cc56b0914bd8024b59d91d5e1"}, {"bike_id": "cb89b6e550178fac239335c6c5ae990e", "type": "electric_scooter", "is_disabled": 0, "lat": 38.91618783333333, "rental_uris": {"ios": "https://dc.lft.to/lastmile_qr_scan", "android": "https://dc.lft.to/lastmile_qr_scan"}, "is_reserved": 0, "fusion_lon": 0.0, "fusion_lat": 0.0, "lon": -77.03642366666666, "name": "cb89b6e550178fac239335c6c5ae990e"}, {"bike_id": "a4cd1eb2b75a35467a99b771fa8420e5", "type": "electric_scooter", "is_disabled": 0, "lat": 38.9254595, "rental_uris": {"ios": "https://dc.lft.to/lastmile_qr_scan", "android": "https://dc.lft.to/lastmile_qr_scan"}, "is_reserved": 0, "fusion_lon": 0.0, "fusion_lat": 0.0, "lon": -77.02280916666666, "name": "a4cd1eb2b75a35467a99b771fa8420e5"}, {"bike_id": "3f4a0e21baefb9c9959215844e3ae5ac", "type": "electric_scooter", "is_disabled": 0, "lat": 38.944949333333334, "rental_uris": {"ios": "https://dc.lft.to/lastmile_qr_scan", "android": "https://dc.lft.to/lastmile_qr_scan"}, "is_reserved": 0, "fusion_lon": 0.0, "fusion_lat": 0.0, "lon": -77.02619233333333, "name": "3f4a0e21baefb9c9959215844e3ae5ac"}, {"bike_id": "3ad2fbb573fa4f19a70e975534c158d0", "type": "electric_scooter", "is_disabled": 0, "lat": 38.9049985, "rental_uris": {"ios": "https://dc.lft.to/lastmile_qr_scan", "android": "https://dc.lft.to/lastmile_qr_scan"}, "is_reserved": 0, "fusion_lon": 0.0, "fusion_lat": 0.0, "lon": -77.06123233333334, "name": "3ad2fbb573fa4f19a70e975534c158d0"}, {"bike_id": "6616e2899160ed4e6698dfee994b1d72", "type": "electric_scooter", "is_disabled": 0, "lat": 38.9163425, "rental_uris": {"ios": "https://dc.lft.to/lastmile_qr_scan", "android": "https://dc.lft.to/lastmile_qr_scan"}, "is_reserved": 0, "fusion_lon": 0.0, "fusion_lat": 0.0, "lon": -77.037296, "name": "6616e2899160ed4e6698dfee994b1d72"}, {"bike_id": "e6260b4df0daaff6d0d426281030bb9f", "type": "electric_scooter", "is_disabled": 0, "lat": 38.91472016666667, "rental_uris": {"ios": "https://dc.lft.to/lastmile_qr_scan", "android": "https://dc.lft.to/lastmile_qr_scan"}, "is_reserved": 0, "fusion_lon": 0.0, "fusion_lat": 0.0, "lon": -77.00924983333333, "name": "e6260b4df0daaff6d0d426281030bb9f"}, {"bike_id": "d83b424fd19c111b7619fb4169080e28", "type": "electric_scooter", "is_disabled": 0, "lat": 38.89719316666667, "rental_uris": {"ios": "https://dc.lft.to/lastmile_qr_scan", "android": "https://dc.lft.to/lastmile_qr_scan"}, "is_reserved": 0, "fusion_lon": 0.0, "fusion_lat": 0.0, "lon": -77.0260035, "name": "d83b424fd19c111b7619fb4169080e28"}, {"bike_id": "7e0e17a41a1cb31cc4d17fe289d92cca", "type": "electric_scooter", "is_disabled": 0, "lat": 38.92383866666667, "rental_uris": {"ios": "https://dc.lft.to/lastmile_qr_scan", "android": "https://dc.lft.to/lastmile_qr_scan"}, "is_reserved": 0, "fusion_lon": 0.0, "fusion_lat": 0.0, "lon": -77.02691083333333, "name": "7e0e17a41a1cb31cc4d17fe289d92cca"}, {"bike_id": "f373a8dcbdba3eaf62130b4bf74d258e", "type": "electric_scooter", "is_disabled": 0, "lat": 38.92485383333333, "rental_uris": {"ios": "https://dc.lft.to/lastmile_qr_scan", "android": "https://dc.lft.to/lastmile_qr_scan"}, "is_reserved": 0, "fusion_lon": 0.0, "fusion_lat": 0.0, "lon": -77.02192633333334, "name": "f373a8dcbdba3eaf62130b4bf74d258e"}, {"bike_id": "47b009c030632fd70647cd4ff6278166", "type": "electric_bike", "is_disabled": 0, "lat": 38.978800666666665, "rental_uris": {"ios": "https://dc.lft.to/lastmile_qr_scan", "android": "https://dc.lft.to/lastmile_qr_scan"}, "is_reserved": 0, "fusion_lon": 0.0, "fusion_lat": 0.0, "lon": -77.06026183333333, "name": "47b009c030632fd70647cd4ff6278166"}, {"bike_id": "2cb11ad3a2fcaf8c1d2cd31d69ae544f", "type": "electric_scooter", "is_disabled": 0, "lat": 38.9353505, "rental_uris": {"ios": "https://dc.lft.to/lastmile_qr_scan", "android": "https://dc.lft.to/lastmile_qr_scan"}, "is_reserved": 0, "fusion_lon": 0.0, "fusion_lat": 0.0, "lon": -77.023517, "name": "2cb11ad3a2fcaf8c1d2cd31d69ae544f"}, {"bike_id": "78651a6fc702b3635fd58d3bacac40a5", "type": "electric_scooter", "is_disabled": 0, "lat": 38.902641833333334, "rental_uris": {"ios": "https://dc.lft.to/lastmile_qr_scan", "android": "https://dc.lft.to/lastmile_qr_scan"}, "is_reserved": 0, "fusion_lon": 0.0, "fusion_lat": 0.0, "lon": -77.00324266666667, "name": "78651a6fc702b3635fd58d3bacac40a5"}, {"bike_id": "7345857a364a5458ebfcc5791b8754c9", "type": "electric_scooter", "is_disabled": 0, "lat": 38.91611533333333, "rental_uris": {"ios": "https://dc.lft.to/lastmile_qr_scan", "android": "https://dc.lft.to/lastmile_qr_scan"}, "is_reserved": 0, "fusion_lon": 0.0, "fusion_lat": 0.0, "lon": -77.044847, "name": "7345857a364a5458ebfcc5791b8754c9"}, {"bike_id": "b110c704044e7ab08e2b8488668616bb", "type": "electric_bike", "is_disabled": 0, "lat": 38.87286533333334, "rental_uris": {"ios": "https://dc.lft.to/lastmile_qr_scan", "android": "https://dc.lft.to/lastmile_qr_scan"}, "is_reserved": 0, "fusion_lon": 0.0, "fusion_lat": 0.0, "lon": -77.13919383333334, "name": "b110c704044e7ab08e2b8488668616bb"}, {"bike_id": "2c87b3aa4c3468323bdfb0012f1ebaaa", "type": "electric_scooter", "is_disabled": 0, "lat": 38.9031345, "rental_uris": {"ios": "https://dc.lft.to/lastmile_qr_scan", "android": "https://dc.lft.to/lastmile_qr_scan"}, "is_reserved": 0, "fusion_lon": 0.0, "fusion_lat": 0.0, "lon": -76.9835485, "name": "2c87b3aa4c3468323bdfb0012f1ebaaa"}, {"bike_id": "e2456a770c901f35ffa2c081033bf572", "type": "electric_scooter", "is_disabled": 0, "lat": 38.92579033333333, "rental_uris": {"ios": "https://dc.lft.to/lastmile_qr_scan", "android": "https://dc.lft.to/lastmile_qr_scan"}, "is_reserved": 0, "fusion_lon": 0.0, "fusion_lat": 0.0, "lon": -77.03922983333334, "name": "e2456a770c901f35ffa2c081033bf572"}, {"bike_id": "8dbc441b9e5bc61bb18e364bbbb544dc", "type": "electric_scooter", "is_disabled": 0, "lat": 38.91800116666667, "rental_uris": {"ios": "https://dc.lft.to/lastmile_qr_scan", "android": "https://dc.lft.to/lastmile_qr_scan"}, "is_reserved": 0, "fusion_lon": 0.0, "fusion_lat": 0.0, "lon": -77.004717, "name": "8dbc441b9e5bc61bb18e364bbbb544dc"}, {"bike_id": "60aad866b5267ec6e7324af4bf488409", "type": "electric_scooter", "is_disabled": 0, "lat": 38.907686, "rental_uris": {"ios": "https://dc.lft.to/lastmile_qr_scan", "android": "https://dc.lft.to/lastmile_qr_scan"}, "is_reserved": 0, "fusion_lon": 0.0, "fusion_lat": 0.0, "lon": -77.0120965, "name": "60aad866b5267ec6e7324af4bf488409"}, {"bike_id": "e94bf81fcfce32cca204301d73a39b8d", "type": "electric_scooter", "is_disabled": 0, "lat": 38.9169635, "rental_uris": {"ios": "https://dc.lft.to/lastmile_qr_scan", "android": "https://dc.lft.to/lastmile_qr_scan"}, "is_reserved": 0, "fusion_lon": 0.0, "fusion_lat": 0.0, "lon": -77.03218883333334, "name": "e94bf81fcfce32cca204301d73a39b8d"}, {"bike_id": "a2682e03d241c7ef3192475428975a4a", "type": "electric_scooter", "is_disabled": 0, "lat": 38.95209933333334, "rental_uris": {"ios": "https://dc.lft.to/lastmile_qr_scan", "android": "https://dc.lft.to/lastmile_qr_scan"}, "is_reserved": 0, "fusion_lon": 0.0, "fusion_lat": 0.0, "lon": -77.06782566666666, "name": "a2682e03d241c7ef3192475428975a4a"}, {"bike_id": "e31acb99ac11c76960a6e7877dc506ba", "type": "electric_scooter", "is_disabled": 0, "lat": 38.9360105, "rental_uris": {"ios": "https://dc.lft.to/lastmile_qr_scan", "android": "https://dc.lft.to/lastmile_qr_scan"}, "is_reserved": 0, "fusion_lon": 0.0, "fusion_lat": 0.0, "lon": -77.037983, "name": "e31acb99ac11c76960a6e7877dc506ba"}, {"bike_id": "b6bb6ceb53e93e3cb39b13884b39f830", "type": "electric_scooter", "is_disabled": 0, "lat": 38.941983666666665, "rental_uris": {"ios": "https://dc.lft.to/lastmile_qr_scan", "android": "https://dc.lft.to/lastmile_qr_scan"}, "is_reserved": 0, "fusion_lon": 0.0, "fusion_lat": 0.0, "lon": -77.02349283333334, "name": "b6bb6ceb53e93e3cb39b13884b39f830"}, {"bike_id": "a88ad61619688a426410100c85a4af00", "type": "electric_scooter", "is_disabled": 0, "lat": 38.93619066666667, "rental_uris": {"ios": "https://dc.lft.to/lastmile_qr_scan", "android": "https://dc.lft.to/lastmile_qr_scan"}, "is_reserved": 0, "fusion_lon": 0.0, "fusion_lat": 0.0, "lon": -77.0675455, "name": "a88ad61619688a426410100c85a4af00"}, {"bike_id": "8d43e428929689272a1064bf94fcf2e3", "type": "electric_scooter", "is_disabled": 0, "lat": 38.9055025, "rental_uris": {"ios": "https://dc.lft.to/lastmile_qr_scan", "android": "https://dc.lft.to/lastmile_qr_scan"}, "is_reserved": 0, "fusion_lon": 0.0, "fusion_lat": 0.0, "lon": -77.0056955, "name": "8d43e428929689272a1064bf94fcf2e3"}, {"bike_id": "8ba814d058d01ac52e460960ae1d3e15", "type": "electric_bike", "is_disabled": 0, "lat": 38.86485866666666, "rental_uris": {"ios": "https://dc.lft.to/lastmile_qr_scan", "android": "https://dc.lft.to/lastmile_qr_scan"}, "is_reserved": 0, "fusion_lon": 0.0, "fusion_lat": 0.0, "lon": -76.97750283333333, "name": "8ba814d058d01ac52e460960ae1d3e15"}, {"bike_id": "50f4b5f174444b52f1b49d0ce541dad6", "type": "electric_scooter", "is_disabled": 0, "lat": 38.870706166666665, "rental_uris": {"ios": "https://dc.lft.to/lastmile_qr_scan", "android": "https://dc.lft.to/lastmile_qr_scan"}, "is_reserved": 0, "fusion_lon": 0.0, "fusion_lat": 0.0, "lon": -76.98128883333334, "name": "50f4b5f174444b52f1b49d0ce541dad6"}, {"bike_id": "ffd0c9bd84211d0dd6e1186c81609ff2", "type": "electric_scooter", "is_disabled": 0, "lat": 38.91808783333333, "rental_uris": {"ios": "https://dc.lft.to/lastmile_qr_scan", "android": "https://dc.lft.to/lastmile_qr_scan"}, "is_reserved": 0, "fusion_lon": 0.0, "fusion_lat": 0.0, "lon": -77.03167366666666, "name": "ffd0c9bd84211d0dd6e1186c81609ff2"}, {"bike_id": "f90fea10b34ce95a8479546f5fbec068", "type": "electric_scooter", "is_disabled": 0, "lat": 38.92873766666666, "rental_uris": {"ios": "https://dc.lft.to/lastmile_qr_scan", "android": "https://dc.lft.to/lastmile_qr_scan"}, "is_reserved": 0, "fusion_lon": 0.0, "fusion_lat": 0.0, "lon": -77.01420116666667, "name": "f90fea10b34ce95a8479546f5fbec068"}, {"bike_id": "4e8313b7b1fcd2f0e46d49d19e09ba41", "type": "electric_scooter", "is_disabled": 0, "lat": 38.9262695, "rental_uris": {"ios": "https://dc.lft.to/lastmile_qr_scan", "android": "https://dc.lft.to/lastmile_qr_scan"}, "is_reserved": 0, "fusion_lon": 0.0, "fusion_lat": 0.0, "lon": -77.041932, "name": "4e8313b7b1fcd2f0e46d49d19e09ba41"}, {"bike_id": "f9bbc83e821b6ce11c91a8b76be4ed83", "type": "electric_bike", "is_disabled": 0, "lat": 38.80394233333333, "rental_uris": {"ios": "https://dc.lft.to/lastmile_qr_scan", "android": "https://dc.lft.to/lastmile_qr_scan"}, "is_reserved": 0, "fusion_lon": 0.0, "fusion_lat": 0.0, "lon": -77.05558433333333, "name": "f9bbc83e821b6ce11c91a8b76be4ed83"}, {"bike_id": "15b0adc3fa5edfea83cbf9fd50dde0b6", "type": "electric_scooter", "is_disabled": 0, "lat": 38.85811866666667, "rental_uris": {"ios": "https://dc.lft.to/lastmile_qr_scan", "android": "https://dc.lft.to/lastmile_qr_scan"}, "is_reserved": 0, "fusion_lon": 0.0, "fusion_lat": 0.0, "lon": -76.9892505, "name": "15b0adc3fa5edfea83cbf9fd50dde0b6"}, {"bike_id": "86c4ca1d9a4f86191c39dad1d62fec10", "type": "electric_scooter", "is_disabled": 0, "lat": 38.93251933333333, "rental_uris": {"ios": "https://dc.lft.to/lastmile_qr_scan", "android": "https://dc.lft.to/lastmile_qr_scan"}, "is_reserved": 0, "fusion_lon": 0.0, "fusion_lat": 0.0, "lon": -77.03277416666667, "name": "86c4ca1d9a4f86191c39dad1d62fec10"}, {"bike_id": "9fac1602f2136f9117b2de8a6f7185b5", "type": "electric_scooter", "is_disabled": 0, "lat": 38.880187, "rental_uris": {"ios": "https://dc.lft.to/lastmile_qr_scan", "android": "https://dc.lft.to/lastmile_qr_scan"}, "is_reserved": 0, "fusion_lon": 0.0, "fusion_lat": 0.0, "lon": -77.02482, "name": "9fac1602f2136f9117b2de8a6f7185b5"}, {"bike_id": "05132d9c07e204ed5e4ccc3d861e5a4e", "type": "electric_scooter", "is_disabled": 0, "lat": 38.895248, "rental_uris": {"ios": "https://dc.lft.to/lastmile_qr_scan", "android": "https://dc.lft.to/lastmile_qr_scan"}, "is_reserved": 0, "fusion_lon": 0.0, "fusion_lat": 0.0, "lon": -77.01105716666666, "name": "05132d9c07e204ed5e4ccc3d861e5a4e"}, {"bike_id": "dd1ff54ce0d536b2dc17b47f83655b42", "type": "electric_scooter", "is_disabled": 0, "lat": 38.903251166666664, "rental_uris": {"ios": "https://dc.lft.to/lastmile_qr_scan", "android": "https://dc.lft.to/lastmile_qr_scan"}, "is_reserved": 0, "fusion_lon": 0.0, "fusion_lat": 0.0, "lon": -76.97549333333333, "name": "dd1ff54ce0d536b2dc17b47f83655b42"}, {"bike_id": "64856b77e4d9f08c13a312bffb932812", "type": "electric_scooter", "is_disabled": 0, "lat": 38.900142333333335, "rental_uris": {"ios": "https://dc.lft.to/lastmile_qr_scan", "android": "https://dc.lft.to/lastmile_qr_scan"}, "is_reserved": 0, "fusion_lon": 0.0, "fusion_lat": 0.0, "lon": -76.99427416666667, "name": "64856b77e4d9f08c13a312bffb932812"}, {"bike_id": "4b4e45a2fc29f363cab2af31a1395bdd", "type": "electric_scooter", "is_disabled": 0, "lat": 38.929761666666664, "rental_uris": {"ios": "https://dc.lft.to/lastmile_qr_scan", "android": "https://dc.lft.to/lastmile_qr_scan"}, "is_reserved": 0, "fusion_lon": 0.0, "fusion_lat": 0.0, "lon": -77.02825783333333, "name": "4b4e45a2fc29f363cab2af31a1395bdd"}, {"bike_id": "2b4885930383123d785def91a85ff0db", "type": "electric_scooter", "is_disabled": 0, "lat": 38.88749983333334, "rental_uris": {"ios": "https://dc.lft.to/lastmile_qr_scan", "android": "https://dc.lft.to/lastmile_qr_scan"}, "is_reserved": 0, "fusion_lon": 0.0, "fusion_lat": 0.0, "lon": -77.02730033333333, "name": "2b4885930383123d785def91a85ff0db"}, {"bike_id": "27ff37f8a422c82bcc8b12fae292be6b", "type": "electric_scooter", "is_disabled": 0, "lat": 38.900312166666666, "rental_uris": {"ios": "https://dc.lft.to/lastmile_qr_scan", "android": "https://dc.lft.to/lastmile_qr_scan"}, "is_reserved": 0, "fusion_lon": 0.0, "fusion_lat": 0.0, "lon": -76.99860433333333, "name": "27ff37f8a422c82bcc8b12fae292be6b"}, {"bike_id": "b1047836fa014399041868175cea602d", "type": "electric_scooter", "is_disabled": 0, "lat": 38.93430933333333, "rental_uris": {"ios": "https://dc.lft.to/lastmile_qr_scan", "android": "https://dc.lft.to/lastmile_qr_scan"}, "is_reserved": 0, "fusion_lon": 0.0, "fusion_lat": 0.0, "lon": -77.04002933333334, "name": "b1047836fa014399041868175cea602d"}, {"bike_id": "6b9591cb8235bb9601d23d76101eebcb", "type": "electric_bike", "is_disabled": 0, "lat": 38.8089755, "rental_uris": {"ios": "https://dc.lft.to/lastmile_qr_scan", "android": "https://dc.lft.to/lastmile_qr_scan"}, "is_reserved": 0, "fusion_lon": 0.0, "fusion_lat": 0.0, "lon": -77.086439, "name": "6b9591cb8235bb9601d23d76101eebcb"}, {"bike_id": "5145a777a69ca07c8c95f1270bca2d45", "type": "electric_scooter", "is_disabled": 0, "lat": 38.941827333333336, "rental_uris": {"ios": "https://dc.lft.to/lastmile_qr_scan", "android": "https://dc.lft.to/lastmile_qr_scan"}, "is_reserved": 0, "fusion_lon": 0.0, "fusion_lat": 0.0, "lon": -77.02485466666667, "name": "5145a777a69ca07c8c95f1270bca2d45"}, {"bike_id": "40d05027d4ae07a387c604da9e17271a", "type": "electric_scooter", "is_disabled": 0, "lat": 38.93898316666667, "rental_uris": {"ios": "https://dc.lft.to/lastmile_qr_scan", "android": "https://dc.lft.to/lastmile_qr_scan"}, "is_reserved": 0, "fusion_lon": 0.0, "fusion_lat": 0.0, "lon": -77.03319966666666, "name": "40d05027d4ae07a387c604da9e17271a"}, {"bike_id": "e79ec0d0cb8e0c07928da71a64d8321d", "type": "electric_scooter", "is_disabled": 0, "lat": 38.8994355, "rental_uris": {"ios": "https://dc.lft.to/lastmile_qr_scan", "android": "https://dc.lft.to/lastmile_qr_scan"}, "is_reserved": 0, "fusion_lon": 0.0, "fusion_lat": 0.0, "lon": -77.04783233333333, "name": "e79ec0d0cb8e0c07928da71a64d8321d"}, {"bike_id": "d0f460123189325ebba05144928b3e4e", "type": "electric_scooter", "is_disabled": 0, "lat": 38.922252, "rental_uris": {"ios": "https://dc.lft.to/lastmile_qr_scan", "android": "https://dc.lft.to/lastmile_qr_scan"}, "is_reserved": 0, "fusion_lon": 0.0, "fusion_lat": 0.0, "lon": -77.03456183333333, "name": "d0f460123189325ebba05144928b3e4e"}, {"bike_id": "c01584c73f9ab49377d1ac29aa3de9f5", "type": "electric_scooter", "is_disabled": 0, "lat": 38.8992545, "rental_uris": {"ios": "https://dc.lft.to/lastmile_qr_scan", "android": "https://dc.lft.to/lastmile_qr_scan"}, "is_reserved": 0, "fusion_lon": 0.0, "fusion_lat": 0.0, "lon": -77.05366516666666, "name": "c01584c73f9ab49377d1ac29aa3de9f5"}, {"bike_id": "e9458d8d61cdaf4e927e12af99c19684", "type": "electric_scooter", "is_disabled": 0, "lat": 38.905295, "rental_uris": {"ios": "https://dc.lft.to/lastmile_qr_scan", "android": "https://dc.lft.to/lastmile_qr_scan"}, "is_reserved": 0, "fusion_lon": 0.0, "fusion_lat": 0.0, "lon": -77.06135016666667, "name": "e9458d8d61cdaf4e927e12af99c19684"}, {"bike_id": "db043ac0c24c53416f0a162325f35996", "type": "electric_bike", "is_disabled": 0, "lat": 38.96323233333333, "rental_uris": {"ios": "https://dc.lft.to/lastmile_qr_scan", "android": "https://dc.lft.to/lastmile_qr_scan"}, "is_reserved": 0, "fusion_lon": 0.0, "fusion_lat": 0.0, "lon": -76.97360516666667, "name": "db043ac0c24c53416f0a162325f35996"}, {"bike_id": "09cc7774534b0d4312eca210a33a1f35", "type": "electric_scooter", "is_disabled": 0, "lat": 38.901095833333336, "rental_uris": {"ios": "https://dc.lft.to/lastmile_qr_scan", "android": "https://dc.lft.to/lastmile_qr_scan"}, "is_reserved": 0, "fusion_lon": 0.0, "fusion_lat": 0.0, "lon": -77.01822166666666, "name": "09cc7774534b0d4312eca210a33a1f35"}, {"bike_id": "1dc22e6d101955f6172c03f32177fb26", "type": "electric_scooter", "is_disabled": 0, "lat": 38.90502433333333, "rental_uris": {"ios": "https://dc.lft.to/lastmile_qr_scan", "android": "https://dc.lft.to/lastmile_qr_scan"}, "is_reserved": 0, "fusion_lon": 0.0, "fusion_lat": 0.0, "lon": -77.0600945, "name": "1dc22e6d101955f6172c03f32177fb26"}, {"bike_id": "f33fc550f404c0615cbc08a2d59a3f25", "type": "electric_scooter", "is_disabled": 0, "lat": 38.86677483333333, "rental_uris": {"ios": "https://dc.lft.to/lastmile_qr_scan", "android": "https://dc.lft.to/lastmile_qr_scan"}, "is_reserved": 0, "fusion_lon": 0.0, "fusion_lat": 0.0, "lon": -76.9853535, "name": "f33fc550f404c0615cbc08a2d59a3f25"}, {"bike_id": "055eb5dd0bf6c30cd1782a816ee7ea68", "type": "electric_scooter", "is_disabled": 0, "lat": 38.92078633333333, "rental_uris": {"ios": "https://dc.lft.to/lastmile_qr_scan", "android": "https://dc.lft.to/lastmile_qr_scan"}, "is_reserved": 0, "fusion_lon": 0.0, "fusion_lat": 0.0, "lon": -77.02515283333334, "name": "055eb5dd0bf6c30cd1782a816ee7ea68"}, {"bike_id": "bd75eda7e717e803a904bd06fcc6c290", "type": "electric_bike", "is_disabled": 0, "lat": 38.96308966666667, "rental_uris": {"ios": "https://dc.lft.to/lastmile_qr_scan", "android": "https://dc.lft.to/lastmile_qr_scan"}, "is_reserved": 0, "fusion_lon": 0.0, "fusion_lat": 0.0, "lon": -77.011039, "name": "bd75eda7e717e803a904bd06fcc6c290"}, {"bike_id": "c2cdd710f7ec140c2c9be307d739cd7f", "type": "electric_scooter", "is_disabled": 0, "lat": 38.9234655, "rental_uris": {"ios": "https://dc.lft.to/lastmile_qr_scan", "android": "https://dc.lft.to/lastmile_qr_scan"}, "is_reserved": 0, "fusion_lon": 0.0, "fusion_lat": 0.0, "lon": -77.04179933333333, "name": "c2cdd710f7ec140c2c9be307d739cd7f"}, {"bike_id": "f37a78f247c7abbe64d0d8d28eb59c72", "type": "electric_scooter", "is_disabled": 0, "lat": 38.89714883333333, "rental_uris": {"ios": "https://dc.lft.to/lastmile_qr_scan", "android": "https://dc.lft.to/lastmile_qr_scan"}, "is_reserved": 0, "fusion_lon": 0.0, "fusion_lat": 0.0, "lon": -77.00857433333333, "name": "f37a78f247c7abbe64d0d8d28eb59c72"}, {"bike_id": "0eafb43d7ea4a0a5d4851d3a07247d3a", "type": "electric_scooter", "is_disabled": 0, "lat": 38.900368, "rental_uris": {"ios": "https://dc.lft.to/lastmile_qr_scan", "android": "https://dc.lft.to/lastmile_qr_scan"}, "is_reserved": 0, "fusion_lon": 0.0, "fusion_lat": 0.0, "lon": -77.0352145, "name": "0eafb43d7ea4a0a5d4851d3a07247d3a"}, {"bike_id": "d082a454c68f67f2023e39e16a0ecac5", "type": "electric_bike", "is_disabled": 0, "lat": 38.94121533333333, "rental_uris": {"ios": "https://dc.lft.to/lastmile_qr_scan", "android": "https://dc.lft.to/lastmile_qr_scan"}, "is_reserved": 0, "fusion_lon": 0.0, "fusion_lat": 0.0, "lon": -77.06202483333334, "name": "d082a454c68f67f2023e39e16a0ecac5"}, {"bike_id": "fb698fe19ede1127c91ebcbd5c0b40aa", "type": "electric_scooter", "is_disabled": 0, "lat": 38.92971633333333, "rental_uris": {"ios": "https://dc.lft.to/lastmile_qr_scan", "android": "https://dc.lft.to/lastmile_qr_scan"}, "is_reserved": 0, "fusion_lon": 0.0, "fusion_lat": 0.0, "lon": -77.0168765, "name": "fb698fe19ede1127c91ebcbd5c0b40aa"}, {"bike_id": "fc28cd18c58606572ac1759a873dcf0a", "type": "electric_scooter", "is_disabled": 0, "lat": 38.90573333333333, "rental_uris": {"ios": "https://dc.lft.to/lastmile_qr_scan", "android": "https://dc.lft.to/lastmile_qr_scan"}, "is_reserved": 0, "fusion_lon": 0.0, "fusion_lat": 0.0, "lon": -77.03029283333333, "name": "fc28cd18c58606572ac1759a873dcf0a"}, {"bike_id": "54fb17280efedcde343e812a03569b2d", "type": "electric_scooter", "is_disabled": 0, "lat": 38.92333133333333, "rental_uris": {"ios": "https://dc.lft.to/lastmile_qr_scan", "android": "https://dc.lft.to/lastmile_qr_scan"}, "is_reserved": 0, "fusion_lon": 0.0, "fusion_lat": 0.0, "lon": -77.0358035, "name": "54fb17280efedcde343e812a03569b2d"}, {"bike_id": "3e84bdf69744e8fa15417cff2ad05890", "type": "electric_scooter", "is_disabled": 0, "lat": 38.90279266666667, "rental_uris": {"ios": "https://dc.lft.to/lastmile_qr_scan", "android": "https://dc.lft.to/lastmile_qr_scan"}, "is_reserved": 0, "fusion_lon": 0.0, "fusion_lat": 0.0, "lon": -77.0384115, "name": "3e84bdf69744e8fa15417cff2ad05890"}, {"bike_id": "5078189abc47ca523e14125ff9ff02b3", "type": "electric_scooter", "is_disabled": 0, "lat": 38.90602066666667, "rental_uris": {"ios": "https://dc.lft.to/lastmile_qr_scan", "android": "https://dc.lft.to/lastmile_qr_scan"}, "is_reserved": 0, "fusion_lon": 0.0, "fusion_lat": 0.0, "lon": -77.0411995, "name": "5078189abc47ca523e14125ff9ff02b3"}, {"bike_id": "e6efc1fca57864127f01e9f0ec34cd35", "type": "electric_scooter", "is_disabled": 0, "lat": 38.926076333333334, "rental_uris": {"ios": "https://dc.lft.to/lastmile_qr_scan", "android": "https://dc.lft.to/lastmile_qr_scan"}, "is_reserved": 0, "fusion_lon": 0.0, "fusion_lat": 0.0, "lon": -77.10237216666667, "name": "e6efc1fca57864127f01e9f0ec34cd35"}, {"bike_id": "f44c39ef84fa7bafd39b8453a15a697d", "type": "electric_scooter", "is_disabled": 0, "lat": 38.9617145, "rental_uris": {"ios": "https://dc.lft.to/lastmile_qr_scan", "android": "https://dc.lft.to/lastmile_qr_scan"}, "is_reserved": 0, "fusion_lon": 0.0, "fusion_lat": 0.0, "lon": -77.028064, "name": "f44c39ef84fa7bafd39b8453a15a697d"}, {"bike_id": "ddcf31c919192f1a0f02b8d6572d79d7", "type": "electric_scooter", "is_disabled": 0, "lat": 38.92242616666667, "rental_uris": {"ios": "https://dc.lft.to/lastmile_qr_scan", "android": "https://dc.lft.to/lastmile_qr_scan"}, "is_reserved": 0, "fusion_lon": 0.0, "fusion_lat": 0.0, "lon": -77.04367433333333, "name": "ddcf31c919192f1a0f02b8d6572d79d7"}, {"bike_id": "299a3de0de463a4491c4598276c9b3aa", "type": "electric_scooter", "is_disabled": 0, "lat": 38.93702583333334, "rental_uris": {"ios": "https://dc.lft.to/lastmile_qr_scan", "android": "https://dc.lft.to/lastmile_qr_scan"}, "is_reserved": 0, "fusion_lon": 0.0, "fusion_lat": 0.0, "lon": -77.03275966666666, "name": "299a3de0de463a4491c4598276c9b3aa"}, {"bike_id": "58129277459848f2cad9992ed88428c6", "type": "electric_scooter", "is_disabled": 0, "lat": 38.8824615, "rental_uris": {"ios": "https://dc.lft.to/lastmile_qr_scan", "android": "https://dc.lft.to/lastmile_qr_scan"}, "is_reserved": 0, "fusion_lon": 0.0, "fusion_lat": 0.0, "lon": -76.99119583333334, "name": "58129277459848f2cad9992ed88428c6"}, {"bike_id": "1fde66e1cd828d863e60564ab2f934bb", "type": "electric_scooter", "is_disabled": 0, "lat": 38.90135316666667, "rental_uris": {"ios": "https://dc.lft.to/lastmile_qr_scan", "android": "https://dc.lft.to/lastmile_qr_scan"}, "is_reserved": 0, "fusion_lon": 0.0, "fusion_lat": 0.0, "lon": -77.05120616666666, "name": "1fde66e1cd828d863e60564ab2f934bb"}, {"bike_id": "9fd224068862f23f10adbe66d4f86ecb", "type": "electric_scooter", "is_disabled": 0, "lat": 38.90380716666667, "rental_uris": {"ios": "https://dc.lft.to/lastmile_qr_scan", "android": "https://dc.lft.to/lastmile_qr_scan"}, "is_reserved": 0, "fusion_lon": 0.0, "fusion_lat": 0.0, "lon": -77.04827866666666, "name": "9fd224068862f23f10adbe66d4f86ecb"}, {"bike_id": "4850e44c269fb27c7b8b68576225206c", "type": "electric_scooter", "is_disabled": 0, "lat": 38.935357833333335, "rental_uris": {"ios": "https://dc.lft.to/lastmile_qr_scan", "android": "https://dc.lft.to/lastmile_qr_scan"}, "is_reserved": 0, "fusion_lon": 0.0, "fusion_lat": 0.0, "lon": -77.0234845, "name": "4850e44c269fb27c7b8b68576225206c"}, {"bike_id": "23622e6a104d8143a92444ee3e5253c8", "type": "electric_scooter", "is_disabled": 0, "lat": 38.89733116666667, "rental_uris": {"ios": "https://dc.lft.to/lastmile_qr_scan", "android": "https://dc.lft.to/lastmile_qr_scan"}, "is_reserved": 0, "fusion_lon": 0.0, "fusion_lat": 0.0, "lon": -77.0547035, "name": "23622e6a104d8143a92444ee3e5253c8"}, {"bike_id": "7b5685ea7366ae8200c361cae69f4e86", "type": "electric_bike", "is_disabled": 0, "lat": 38.92434933333333, "rental_uris": {"ios": "https://dc.lft.to/lastmile_qr_scan", "android": "https://dc.lft.to/lastmile_qr_scan"}, "is_reserved": 0, "fusion_lon": 0.0, "fusion_lat": 0.0, "lon": -76.99653833333333, "name": "7b5685ea7366ae8200c361cae69f4e86"}, {"bike_id": "a81088b17ad9d59203063322beb2ec1d", "type": "electric_scooter", "is_disabled": 0, "lat": 38.90258133333333, "rental_uris": {"ios": "https://dc.lft.to/lastmile_qr_scan", "android": "https://dc.lft.to/lastmile_qr_scan"}, "is_reserved": 0, "fusion_lon": 0.0, "fusion_lat": 0.0, "lon": -76.975502, "name": "a81088b17ad9d59203063322beb2ec1d"}, {"bike_id": "8adf61613b47dbb4d1d22667d986a699", "type": "electric_scooter", "is_disabled": 0, "lat": 38.922199166666665, "rental_uris": {"ios": "https://dc.lft.to/lastmile_qr_scan", "android": "https://dc.lft.to/lastmile_qr_scan"}, "is_reserved": 0, "fusion_lon": 0.0, "fusion_lat": 0.0, "lon": -77.03455566666666, "name": "8adf61613b47dbb4d1d22667d986a699"}, {"bike_id": "4d3caed408c0e3627d7603c89c567a4b", "type": "electric_scooter", "is_disabled": 0, "lat": 38.90645983333334, "rental_uris": {"ios": "https://dc.lft.to/lastmile_qr_scan", "android": "https://dc.lft.to/lastmile_qr_scan"}, "is_reserved": 0, "fusion_lon": 0.0, "fusion_lat": 0.0, "lon": -76.98588033333333, "name": "4d3caed408c0e3627d7603c89c567a4b"}, {"bike_id": "764e61bc4f3f947cb697b595f93b226a", "type": "electric_scooter", "is_disabled": 0, "lat": 38.88528766666667, "rental_uris": {"ios": "https://dc.lft.to/lastmile_qr_scan", "android": "https://dc.lft.to/lastmile_qr_scan"}, "is_reserved": 0, "fusion_lon": 0.0, "fusion_lat": 0.0, "lon": -77.01138216666666, "name": "764e61bc4f3f947cb697b595f93b226a"}, {"bike_id": "0d743bd5567cf60d2804f4742d1ef137", "type": "electric_scooter", "is_disabled": 0, "lat": 38.96139266666667, "rental_uris": {"ios": "https://dc.lft.to/lastmile_qr_scan", "android": "https://dc.lft.to/lastmile_qr_scan"}, "is_reserved": 0, "fusion_lon": 0.0, "fusion_lat": 0.0, "lon": -77.02992966666666, "name": "0d743bd5567cf60d2804f4742d1ef137"}, {"bike_id": "2aba72090432b618d5a19fc02d1aee6d", "type": "electric_bike", "is_disabled": 0, "lat": 39.039893166666666, "rental_uris": {"ios": "https://dc.lft.to/lastmile_qr_scan", "android": "https://dc.lft.to/lastmile_qr_scan"}, "is_reserved": 0, "fusion_lon": 0.0, "fusion_lat": 0.0, "lon": -76.99930083333334, "name": "2aba72090432b618d5a19fc02d1aee6d"}, {"bike_id": "a9c6e1eb2e74cab349b8e1c560b97e15", "type": "electric_scooter", "is_disabled": 0, "lat": 38.90453733333333, "rental_uris": {"ios": "https://dc.lft.to/lastmile_qr_scan", "android": "https://dc.lft.to/lastmile_qr_scan"}, "is_reserved": 0, "fusion_lon": 0.0, "fusion_lat": 0.0, "lon": -77.02705883333333, "name": "a9c6e1eb2e74cab349b8e1c560b97e15"}, {"bike_id": "6c533e7861031b718f677d2d099ce70d", "type": "electric_scooter", "is_disabled": 0, "lat": 38.936994, "rental_uris": {"ios": "https://dc.lft.to/lastmile_qr_scan", "android": "https://dc.lft.to/lastmile_qr_scan"}, "is_reserved": 0, "fusion_lon": 0.0, "fusion_lat": 0.0, "lon": -77.03281566666666, "name": "6c533e7861031b718f677d2d099ce70d"}, {"bike_id": "c3eaacef274b95799f6bbc8a11f44830", "type": "electric_scooter", "is_disabled": 0, "lat": 38.90341883333333, "rental_uris": {"ios": "https://dc.lft.to/lastmile_qr_scan", "android": "https://dc.lft.to/lastmile_qr_scan"}, "is_reserved": 0, "fusion_lon": 0.0, "fusion_lat": 0.0, "lon": -76.985078, "name": "c3eaacef274b95799f6bbc8a11f44830"}, {"bike_id": "049912583f02536bb5415d187b14a5af", "type": "electric_scooter", "is_disabled": 0, "lat": 38.95934183333333, "rental_uris": {"ios": "https://dc.lft.to/lastmile_qr_scan", "android": "https://dc.lft.to/lastmile_qr_scan"}, "is_reserved": 0, "fusion_lon": 0.0, "fusion_lat": 0.0, "lon": -77.03120483333333, "name": "049912583f02536bb5415d187b14a5af"}, {"bike_id": "4ee4625116e383c43f25cb6e097ace91", "type": "electric_scooter", "is_disabled": 0, "lat": 38.94198816666667, "rental_uris": {"ios": "https://dc.lft.to/lastmile_qr_scan", "android": "https://dc.lft.to/lastmile_qr_scan"}, "is_reserved": 0, "fusion_lon": 0.0, "fusion_lat": 0.0, "lon": -77.023491, "name": "4ee4625116e383c43f25cb6e097ace91"}, {"bike_id": "12fa77e6ccb9664e77e8b30e6fe146e7", "type": "electric_bike", "is_disabled": 0, "lat": 39.036997666666664, "rental_uris": {"ios": "https://dc.lft.to/lastmile_qr_scan", "android": "https://dc.lft.to/lastmile_qr_scan"}, "is_reserved": 0, "fusion_lon": 0.0, "fusion_lat": 0.0, "lon": -77.02856983333334, "name": "12fa77e6ccb9664e77e8b30e6fe146e7"}, {"bike_id": "765437465d4123cbf721634d90c0aa0a", "type": "electric_scooter", "is_disabled": 0, "lat": 38.95832633333333, "rental_uris": {"ios": "https://dc.lft.to/lastmile_qr_scan", "android": "https://dc.lft.to/lastmile_qr_scan"}, "is_reserved": 0, "fusion_lon": 0.0, "fusion_lat": 0.0, "lon": -77.0150975, "name": "765437465d4123cbf721634d90c0aa0a"}, {"bike_id": "500397626d3c05ec1d892883c32592b2", "type": "electric_scooter", "is_disabled": 0, "lat": 38.8764785, "rental_uris": {"ios": "https://dc.lft.to/lastmile_qr_scan", "android": "https://dc.lft.to/lastmile_qr_scan"}, "is_reserved": 0, "fusion_lon": 0.0, "fusion_lat": 0.0, "lon": -76.9650725, "name": "500397626d3c05ec1d892883c32592b2"}, {"bike_id": "0fa4a4784cb1f967229cdd79f82f4342", "type": "electric_scooter", "is_disabled": 0, "lat": 38.901278166666664, "rental_uris": {"ios": "https://dc.lft.to/lastmile_qr_scan", "android": "https://dc.lft.to/lastmile_qr_scan"}, "is_reserved": 0, "fusion_lon": 0.0, "fusion_lat": 0.0, "lon": -77.01628616666666, "name": "0fa4a4784cb1f967229cdd79f82f4342"}, {"bike_id": "f4ce3e648bcaf90af273a4bc6cbe59aa", "type": "electric_scooter", "is_disabled": 0, "lat": 38.892085, "rental_uris": {"ios": "https://dc.lft.to/lastmile_qr_scan", "android": "https://dc.lft.to/lastmile_qr_scan"}, "is_reserved": 0, "fusion_lon": 0.0, "fusion_lat": 0.0, "lon": -76.99927966666667, "name": "f4ce3e648bcaf90af273a4bc6cbe59aa"}, {"bike_id": "d86d29b76f466d07a6ff73ae671f7c61", "type": "electric_bike", "is_disabled": 0, "lat": 38.9550585, "rental_uris": {"ios": "https://dc.lft.to/lastmile_qr_scan", "android": "https://dc.lft.to/lastmile_qr_scan"}, "is_reserved": 0, "fusion_lon": 0.0, "fusion_lat": 0.0, "lon": -76.9935515, "name": "d86d29b76f466d07a6ff73ae671f7c61"}, {"bike_id": "a0e97249a6481a2931fd726824f1ec6f", "type": "electric_scooter", "is_disabled": 0, "lat": 38.91431716666666, "rental_uris": {"ios": "https://dc.lft.to/lastmile_qr_scan", "android": "https://dc.lft.to/lastmile_qr_scan"}, "is_reserved": 0, "fusion_lon": 0.0, "fusion_lat": 0.0, "lon": -77.02187766666667, "name": "a0e97249a6481a2931fd726824f1ec6f"}, {"bike_id": "2ed1054e5b3ba1b0c659ccbb9adfbb07", "type": "electric_scooter", "is_disabled": 0, "lat": 38.905765833333334, "rental_uris": {"ios": "https://dc.lft.to/lastmile_qr_scan", "android": "https://dc.lft.to/lastmile_qr_scan"}, "is_reserved": 0, "fusion_lon": 0.0, "fusion_lat": 0.0, "lon": -77.00572183333334, "name": "2ed1054e5b3ba1b0c659ccbb9adfbb07"}, {"bike_id": "924fc8edd23d8d525fdd86d4515673b8", "type": "electric_scooter", "is_disabled": 0, "lat": 38.91278466666667, "rental_uris": {"ios": "https://dc.lft.to/lastmile_qr_scan", "android": "https://dc.lft.to/lastmile_qr_scan"}, "is_reserved": 0, "fusion_lon": 0.0, "fusion_lat": 0.0, "lon": -77.02711816666667, "name": "924fc8edd23d8d525fdd86d4515673b8"}, {"bike_id": "b29f30d5503c28ba0f97d980b8cf1e00", "type": "electric_scooter", "is_disabled": 0, "lat": 38.9115405, "rental_uris": {"ios": "https://dc.lft.to/lastmile_qr_scan", "android": "https://dc.lft.to/lastmile_qr_scan"}, "is_reserved": 0, "fusion_lon": 0.0, "fusion_lat": 0.0, "lon": -77.0443335, "name": "b29f30d5503c28ba0f97d980b8cf1e00"}, {"bike_id": "afcb651669cd8ad2803ae07bf33e2031", "type": "electric_scooter", "is_disabled": 0, "lat": 38.9321645, "rental_uris": {"ios": "https://dc.lft.to/lastmile_qr_scan", "android": "https://dc.lft.to/lastmile_qr_scan"}, "is_reserved": 0, "fusion_lon": 0.0, "fusion_lat": 0.0, "lon": -77.035134, "name": "afcb651669cd8ad2803ae07bf33e2031"}, {"bike_id": "176e2eb10b7d3bad89e504ac50183dd2", "type": "electric_bike", "is_disabled": 0, "lat": 38.84530783333334, "rental_uris": {"ios": "https://dc.lft.to/lastmile_qr_scan", "android": "https://dc.lft.to/lastmile_qr_scan"}, "is_reserved": 0, "fusion_lon": 0.0, "fusion_lat": 0.0, "lon": -76.97395233333333, "name": "176e2eb10b7d3bad89e504ac50183dd2"}, {"bike_id": "2d0fd5b317e9ce6df92534986e35ad6f", "type": "electric_scooter", "is_disabled": 0, "lat": 38.92320566666667, "rental_uris": {"ios": "https://dc.lft.to/lastmile_qr_scan", "android": "https://dc.lft.to/lastmile_qr_scan"}, "is_reserved": 0, "fusion_lon": 0.0, "fusion_lat": 0.0, "lon": -77.02143766666667, "name": "2d0fd5b317e9ce6df92534986e35ad6f"}, {"bike_id": "27cb2fa88b1c5ebb6104f0ff90f2fd12", "type": "electric_scooter", "is_disabled": 0, "lat": 38.90080233333333, "rental_uris": {"ios": "https://dc.lft.to/lastmile_qr_scan", "android": "https://dc.lft.to/lastmile_qr_scan"}, "is_reserved": 0, "fusion_lon": 0.0, "fusion_lat": 0.0, "lon": -77.04684733333333, "name": "27cb2fa88b1c5ebb6104f0ff90f2fd12"}, {"bike_id": "28a4912ce8273d2152942b47454ef021", "type": "electric_scooter", "is_disabled": 0, "lat": 38.95001033333333, "rental_uris": {"ios": "https://dc.lft.to/lastmile_qr_scan", "android": "https://dc.lft.to/lastmile_qr_scan"}, "is_reserved": 0, "fusion_lon": 0.0, "fusion_lat": 0.0, "lon": -77.00874233333333, "name": "28a4912ce8273d2152942b47454ef021"}, {"bike_id": "8b3fd5ef01f54324593edda653416258", "type": "electric_scooter", "is_disabled": 0, "lat": 38.932460166666665, "rental_uris": {"ios": "https://dc.lft.to/lastmile_qr_scan", "android": "https://dc.lft.to/lastmile_qr_scan"}, "is_reserved": 0, "fusion_lon": 0.0, "fusion_lat": 0.0, "lon": -77.03636533333334, "name": "8b3fd5ef01f54324593edda653416258"}, {"bike_id": "74f39b3b057fea4f7cf44446c2f527d1", "type": "electric_scooter", "is_disabled": 0, "lat": 38.88765466666667, "rental_uris": {"ios": "https://dc.lft.to/lastmile_qr_scan", "android": "https://dc.lft.to/lastmile_qr_scan"}, "is_reserved": 0, "fusion_lon": 0.0, "fusion_lat": 0.0, "lon": -76.95599066666666, "name": "74f39b3b057fea4f7cf44446c2f527d1"}, {"bike_id": "7aeb2c753b5a73442b09e11fa047c423", "type": "electric_scooter", "is_disabled": 0, "lat": 38.864721, "rental_uris": {"ios": "https://dc.lft.to/lastmile_qr_scan", "android": "https://dc.lft.to/lastmile_qr_scan"}, "is_reserved": 0, "fusion_lon": 0.0, "fusion_lat": 0.0, "lon": -76.98233033333334, "name": "7aeb2c753b5a73442b09e11fa047c423"}, {"bike_id": "783d8bce5e71c529c521431ead1a6541", "type": "electric_bike", "is_disabled": 0, "lat": 38.92742616666666, "rental_uris": {"ios": "https://dc.lft.to/lastmile_qr_scan", "android": "https://dc.lft.to/lastmile_qr_scan"}, "is_reserved": 0, "fusion_lon": 0.0, "fusion_lat": 0.0, "lon": -76.99362666666667, "name": "783d8bce5e71c529c521431ead1a6541"}, {"bike_id": "97e7459e37dab3ecfd8e8ea71901f430", "type": "electric_scooter", "is_disabled": 0, "lat": 38.9367395, "rental_uris": {"ios": "https://dc.lft.to/lastmile_qr_scan", "android": "https://dc.lft.to/lastmile_qr_scan"}, "is_reserved": 0, "fusion_lon": 0.0, "fusion_lat": 0.0, "lon": -77.03565166666667, "name": "97e7459e37dab3ecfd8e8ea71901f430"}, {"bike_id": "1464973435860bbab35561f961876a60", "type": "electric_bike", "is_disabled": 0, "lat": 38.983648, "rental_uris": {"ios": "https://dc.lft.to/lastmile_qr_scan", "android": "https://dc.lft.to/lastmile_qr_scan"}, "is_reserved": 0, "fusion_lon": 0.0, "fusion_lat": 0.0, "lon": -76.97214866666667, "name": "1464973435860bbab35561f961876a60"}, {"bike_id": "72a8404e3d30a346563d9df0860fb9b8", "type": "electric_bike", "is_disabled": 0, "lat": 38.897346, "rental_uris": {"ios": "https://dc.lft.to/lastmile_qr_scan", "android": "https://dc.lft.to/lastmile_qr_scan"}, "is_reserved": 0, "fusion_lon": 0.0, "fusion_lat": 0.0, "lon": -77.022252, "name": "72a8404e3d30a346563d9df0860fb9b8"}, {"bike_id": "7dc4842a315bff950d9af7943943c2d4", "type": "electric_scooter", "is_disabled": 0, "lat": 38.862499, "rental_uris": {"ios": "https://dc.lft.to/lastmile_qr_scan", "android": "https://dc.lft.to/lastmile_qr_scan"}, "is_reserved": 0, "fusion_lon": 0.0, "fusion_lat": 0.0, "lon": -76.99500333333333, "name": "7dc4842a315bff950d9af7943943c2d4"}, {"bike_id": "5c90d1803a088b595ffd6fa6f86c0f17", "type": "electric_scooter", "is_disabled": 0, "lat": 38.962036166666664, "rental_uris": {"ios": "https://dc.lft.to/lastmile_qr_scan", "android": "https://dc.lft.to/lastmile_qr_scan"}, "is_reserved": 0, "fusion_lon": 0.0, "fusion_lat": 0.0, "lon": -77.022341, "name": "5c90d1803a088b595ffd6fa6f86c0f17"}, {"bike_id": "c83426b4caae440f7c0d1ea1862897bf", "type": "electric_scooter", "is_disabled": 0, "lat": 38.89304533333333, "rental_uris": {"ios": "https://dc.lft.to/lastmile_qr_scan", "android": "https://dc.lft.to/lastmile_qr_scan"}, "is_reserved": 0, "fusion_lon": 0.0, "fusion_lat": 0.0, "lon": -77.01236483333334, "name": "c83426b4caae440f7c0d1ea1862897bf"}, {"bike_id": "c7b7ce9d3a3f955bc334d30c8cbbd810", "type": "electric_scooter", "is_disabled": 0, "lat": 38.908670666666666, "rental_uris": {"ios": "https://dc.lft.to/lastmile_qr_scan", "android": "https://dc.lft.to/lastmile_qr_scan"}, "is_reserved": 0, "fusion_lon": 0.0, "fusion_lat": 0.0, "lon": -77.08594983333333, "name": "c7b7ce9d3a3f955bc334d30c8cbbd810"}, {"bike_id": "e070fd1beb3eb3bc299d5c39487c2367", "type": "electric_scooter", "is_disabled": 0, "lat": 38.92595016666667, "rental_uris": {"ios": "https://dc.lft.to/lastmile_qr_scan", "android": "https://dc.lft.to/lastmile_qr_scan"}, "is_reserved": 0, "fusion_lon": 0.0, "fusion_lat": 0.0, "lon": -77.02499533333334, "name": "e070fd1beb3eb3bc299d5c39487c2367"}, {"bike_id": "f36a80a829493a31ced11dc3eb582815", "type": "electric_scooter", "is_disabled": 0, "lat": 38.929668, "rental_uris": {"ios": "https://dc.lft.to/lastmile_qr_scan", "android": "https://dc.lft.to/lastmile_qr_scan"}, "is_reserved": 0, "fusion_lon": 0.0, "fusion_lat": 0.0, "lon": -77.03131016666667, "name": "f36a80a829493a31ced11dc3eb582815"}, {"bike_id": "a3fce5af3fe2d6b5b5084234ab435d4f", "type": "electric_bike", "is_disabled": 0, "lat": 38.9934655, "rental_uris": {"ios": "https://dc.lft.to/lastmile_qr_scan", "android": "https://dc.lft.to/lastmile_qr_scan"}, "is_reserved": 0, "fusion_lon": 0.0, "fusion_lat": 0.0, "lon": -77.11579916666666, "name": "a3fce5af3fe2d6b5b5084234ab435d4f"}, {"bike_id": "7d6307478b4b510b585e90c12493ffd5", "type": "electric_scooter", "is_disabled": 0, "lat": 38.865065666666666, "rental_uris": {"ios": "https://dc.lft.to/lastmile_qr_scan", "android": "https://dc.lft.to/lastmile_qr_scan"}, "is_reserved": 0, "fusion_lon": 0.0, "fusion_lat": 0.0, "lon": -76.99000733333334, "name": "7d6307478b4b510b585e90c12493ffd5"}, {"bike_id": "a81f82b5280359415840418afde440f2", "type": "electric_scooter", "is_disabled": 0, "lat": 38.91951533333334, "rental_uris": {"ios": "https://dc.lft.to/lastmile_qr_scan", "android": "https://dc.lft.to/lastmile_qr_scan"}, "is_reserved": 0, "fusion_lon": 0.0, "fusion_lat": 0.0, "lon": -77.03476866666666, "name": "a81f82b5280359415840418afde440f2"}, {"bike_id": "2f217a431a252ef18b9eb85b580990f3", "type": "electric_bike", "is_disabled": 0, "lat": 38.807596833333335, "rental_uris": {"ios": "https://dc.lft.to/lastmile_qr_scan", "android": "https://dc.lft.to/lastmile_qr_scan"}, "is_reserved": 0, "fusion_lon": 0.0, "fusion_lat": 0.0, "lon": -77.0946905, "name": "2f217a431a252ef18b9eb85b580990f3"}, {"bike_id": "1018e54f517cc26a5a6ff6f67f1cd1d9", "type": "electric_scooter", "is_disabled": 0, "lat": 38.93578466666666, "rental_uris": {"ios": "https://dc.lft.to/lastmile_qr_scan", "android": "https://dc.lft.to/lastmile_qr_scan"}, "is_reserved": 0, "fusion_lon": 0.0, "fusion_lat": 0.0, "lon": -77.0336465, "name": "1018e54f517cc26a5a6ff6f67f1cd1d9"}, {"bike_id": "9f0d29a77f3c2fd18adad05aa9a9f962", "type": "electric_scooter", "is_disabled": 0, "lat": 38.90333566666666, "rental_uris": {"ios": "https://dc.lft.to/lastmile_qr_scan", "android": "https://dc.lft.to/lastmile_qr_scan"}, "is_reserved": 0, "fusion_lon": 0.0, "fusion_lat": 0.0, "lon": -76.982765, "name": "9f0d29a77f3c2fd18adad05aa9a9f962"}, {"bike_id": "b4e732c2f44424fca1b4bd9e15185f7c", "type": "electric_scooter", "is_disabled": 0, "lat": 38.914007833333336, "rental_uris": {"ios": "https://dc.lft.to/lastmile_qr_scan", "android": "https://dc.lft.to/lastmile_qr_scan"}, "is_reserved": 0, "fusion_lon": 0.0, "fusion_lat": 0.0, "lon": -77.0344615, "name": "b4e732c2f44424fca1b4bd9e15185f7c"}, {"bike_id": "938ea17a0124180354ba2db1927f387f", "type": "electric_scooter", "is_disabled": 0, "lat": 38.91607916666667, "rental_uris": {"ios": "https://dc.lft.to/lastmile_qr_scan", "android": "https://dc.lft.to/lastmile_qr_scan"}, "is_reserved": 0, "fusion_lon": 0.0, "fusion_lat": 0.0, "lon": -77.0339085, "name": "938ea17a0124180354ba2db1927f387f"}, {"bike_id": "e775a9c9c58248901d902a16c10df47b", "type": "electric_scooter", "is_disabled": 0, "lat": 38.923173166666665, "rental_uris": {"ios": "https://dc.lft.to/lastmile_qr_scan", "android": "https://dc.lft.to/lastmile_qr_scan"}, "is_reserved": 0, "fusion_lon": 0.0, "fusion_lat": 0.0, "lon": -77.04027716666667, "name": "e775a9c9c58248901d902a16c10df47b"}, {"bike_id": "f734326bddafb29db50df050c44f09b8", "type": "electric_scooter", "is_disabled": 0, "lat": 38.87799233333333, "rental_uris": {"ios": "https://dc.lft.to/lastmile_qr_scan", "android": "https://dc.lft.to/lastmile_qr_scan"}, "is_reserved": 0, "fusion_lon": 0.0, "fusion_lat": 0.0, "lon": -77.01750166666666, "name": "f734326bddafb29db50df050c44f09b8"}, {"bike_id": "90c8bcf0a23dfa5a7d109aa4b9c4249c", "type": "electric_scooter", "is_disabled": 0, "lat": 38.92047866666667, "rental_uris": {"ios": "https://dc.lft.to/lastmile_qr_scan", "android": "https://dc.lft.to/lastmile_qr_scan"}, "is_reserved": 0, "fusion_lon": 0.0, "fusion_lat": 0.0, "lon": -77.04408833333333, "name": "90c8bcf0a23dfa5a7d109aa4b9c4249c"}, {"bike_id": "441563113316bebb6b069e26c374d12b", "type": "electric_scooter", "is_disabled": 0, "lat": 38.86378833333333, "rental_uris": {"ios": "https://dc.lft.to/lastmile_qr_scan", "android": "https://dc.lft.to/lastmile_qr_scan"}, "is_reserved": 0, "fusion_lon": 0.0, "fusion_lat": 0.0, "lon": -76.9905935, "name": "441563113316bebb6b069e26c374d12b"}, {"bike_id": "3c97e2ec8178609e40010edbf522146e", "type": "electric_scooter", "is_disabled": 0, "lat": 38.9177215, "rental_uris": {"ios": "https://dc.lft.to/lastmile_qr_scan", "android": "https://dc.lft.to/lastmile_qr_scan"}, "is_reserved": 0, "fusion_lon": 0.0, "fusion_lat": 0.0, "lon": -77.04760783333333, "name": "3c97e2ec8178609e40010edbf522146e"}, {"bike_id": "a4b1f95eff4716ecc2210cc5f0a240be", "type": "electric_scooter", "is_disabled": 0, "lat": 38.98434183333333, "rental_uris": {"ios": "https://dc.lft.to/lastmile_qr_scan", "android": "https://dc.lft.to/lastmile_qr_scan"}, "is_reserved": 0, "fusion_lon": 0.0, "fusion_lat": 0.0, "lon": -77.02670483333333, "name": "a4b1f95eff4716ecc2210cc5f0a240be"}, {"bike_id": "ef363a3ba5328596482a7d8b7ac41eca", "type": "electric_scooter", "is_disabled": 0, "lat": 38.87235283333333, "rental_uris": {"ios": "https://dc.lft.to/lastmile_qr_scan", "android": "https://dc.lft.to/lastmile_qr_scan"}, "is_reserved": 0, "fusion_lon": 0.0, "fusion_lat": 0.0, "lon": -77.01163616666666, "name": "ef363a3ba5328596482a7d8b7ac41eca"}, {"bike_id": "7c9576a8eec62e6c86cd62b4b48cf6e3", "type": "electric_scooter", "is_disabled": 0, "lat": 38.9354795, "rental_uris": {"ios": "https://dc.lft.to/lastmile_qr_scan", "android": "https://dc.lft.to/lastmile_qr_scan"}, "is_reserved": 0, "fusion_lon": 0.0, "fusion_lat": 0.0, "lon": -77.0250845, "name": "7c9576a8eec62e6c86cd62b4b48cf6e3"}, {"bike_id": "979345abb084f933703a09f43cc968a1", "type": "electric_scooter", "is_disabled": 0, "lat": 38.928240333333335, "rental_uris": {"ios": "https://dc.lft.to/lastmile_qr_scan", "android": "https://dc.lft.to/lastmile_qr_scan"}, "is_reserved": 0, "fusion_lon": 0.0, "fusion_lat": 0.0, "lon": -77.02256283333334, "name": "979345abb084f933703a09f43cc968a1"}, {"bike_id": "848c2d87cfac1cb6c3dac39d48493e2c", "type": "electric_bike", "is_disabled": 0, "lat": 38.9401975, "rental_uris": {"ios": "https://dc.lft.to/lastmile_qr_scan", "android": "https://dc.lft.to/lastmile_qr_scan"}, "is_reserved": 0, "fusion_lon": 0.0, "fusion_lat": 0.0, "lon": -76.97610133333333, "name": "848c2d87cfac1cb6c3dac39d48493e2c"}, {"bike_id": "1baafb61fb93d79bbefe112643b833d0", "type": "electric_bike", "is_disabled": 0, "lat": 38.956257666666666, "rental_uris": {"ios": "https://dc.lft.to/lastmile_qr_scan", "android": "https://dc.lft.to/lastmile_qr_scan"}, "is_reserved": 0, "fusion_lon": 0.0, "fusion_lat": 0.0, "lon": -76.9387605, "name": "1baafb61fb93d79bbefe112643b833d0"}, {"bike_id": "82471816b2585a3e58a33ec4e2c54134", "type": "electric_scooter", "is_disabled": 0, "lat": 38.92425716666666, "rental_uris": {"ios": "https://dc.lft.to/lastmile_qr_scan", "android": "https://dc.lft.to/lastmile_qr_scan"}, "is_reserved": 0, "fusion_lon": 0.0, "fusion_lat": 0.0, "lon": -77.02269133333333, "name": "82471816b2585a3e58a33ec4e2c54134"}, {"bike_id": "b577a6ae34008ed6d028c3da58f64dd5", "type": "electric_scooter", "is_disabled": 0, "lat": 38.88415783333333, "rental_uris": {"ios": "https://dc.lft.to/lastmile_qr_scan", "android": "https://dc.lft.to/lastmile_qr_scan"}, "is_reserved": 0, "fusion_lon": 0.0, "fusion_lat": 0.0, "lon": -77.00734883333334, "name": "b577a6ae34008ed6d028c3da58f64dd5"}, {"bike_id": "c7ca95c3705d0b40b9d6106c9a3897d8", "type": "electric_scooter", "is_disabled": 0, "lat": 38.901492, "rental_uris": {"ios": "https://dc.lft.to/lastmile_qr_scan", "android": "https://dc.lft.to/lastmile_qr_scan"}, "is_reserved": 0, "fusion_lon": 0.0, "fusion_lat": 0.0, "lon": -76.93060883333334, "name": "c7ca95c3705d0b40b9d6106c9a3897d8"}, {"bike_id": "8ae79908f3d8d6e3310e89c49abd8a29", "type": "electric_scooter", "is_disabled": 0, "lat": 38.876921833333334, "rental_uris": {"ios": "https://dc.lft.to/lastmile_qr_scan", "android": "https://dc.lft.to/lastmile_qr_scan"}, "is_reserved": 0, "fusion_lon": 0.0, "fusion_lat": 0.0, "lon": -77.00580716666667, "name": "8ae79908f3d8d6e3310e89c49abd8a29"}, {"bike_id": "7a35bbeaa46a3d9f937508b979f1c39c", "type": "electric_scooter", "is_disabled": 0, "lat": 38.9112, "rental_uris": {"ios": "https://dc.lft.to/lastmile_qr_scan", "android": "https://dc.lft.to/lastmile_qr_scan"}, "is_reserved": 0, "fusion_lon": 0.0, "fusion_lat": 0.0, "lon": -77.04236066666667, "name": "7a35bbeaa46a3d9f937508b979f1c39c"}, {"bike_id": "c11e019df8c2bd906e4e545dcb6e8c9f", "type": "electric_scooter", "is_disabled": 0, "lat": 38.8922185, "rental_uris": {"ios": "https://dc.lft.to/lastmile_qr_scan", "android": "https://dc.lft.to/lastmile_qr_scan"}, "is_reserved": 0, "fusion_lon": 0.0, "fusion_lat": 0.0, "lon": -77.025796, "name": "c11e019df8c2bd906e4e545dcb6e8c9f"}, {"bike_id": "c65402428e153142ef684db8c7a85aa2", "type": "electric_scooter", "is_disabled": 0, "lat": 38.938816833333334, "rental_uris": {"ios": "https://dc.lft.to/lastmile_qr_scan", "android": "https://dc.lft.to/lastmile_qr_scan"}, "is_reserved": 0, "fusion_lon": 0.0, "fusion_lat": 0.0, "lon": -77.024793, "name": "c65402428e153142ef684db8c7a85aa2"}, {"bike_id": "4f7df394ff6d29217ab3bf5efe7d447d", "type": "electric_scooter", "is_disabled": 0, "lat": 38.913649, "rental_uris": {"ios": "https://dc.lft.to/lastmile_qr_scan", "android": "https://dc.lft.to/lastmile_qr_scan"}, "is_reserved": 0, "fusion_lon": 0.0, "fusion_lat": 0.0, "lon": -77.0448895, "name": "4f7df394ff6d29217ab3bf5efe7d447d"}, {"bike_id": "c6df9ee8d456eeeb14f5e77c82377ce0", "type": "electric_bike", "is_disabled": 0, "lat": 39.062972333333335, "rental_uris": {"ios": "https://dc.lft.to/lastmile_qr_scan", "android": "https://dc.lft.to/lastmile_qr_scan"}, "is_reserved": 0, "fusion_lon": 0.0, "fusion_lat": 0.0, "lon": -77.04979683333333, "name": "c6df9ee8d456eeeb14f5e77c82377ce0"}, {"bike_id": "0f8021765393ca7b96891077dc19069a", "type": "electric_scooter", "is_disabled": 0, "lat": 38.9027895, "rental_uris": {"ios": "https://dc.lft.to/lastmile_qr_scan", "android": "https://dc.lft.to/lastmile_qr_scan"}, "is_reserved": 0, "fusion_lon": 0.0, "fusion_lat": 0.0, "lon": -77.03838266666666, "name": "0f8021765393ca7b96891077dc19069a"}, {"bike_id": "412f86e3a568033a86a397559efa69a2", "type": "electric_scooter", "is_disabled": 0, "lat": 38.907296, "rental_uris": {"ios": "https://dc.lft.to/lastmile_qr_scan", "android": "https://dc.lft.to/lastmile_qr_scan"}, "is_reserved": 0, "fusion_lon": 0.0, "fusion_lat": 0.0, "lon": -77.01133666666666, "name": "412f86e3a568033a86a397559efa69a2"}, {"bike_id": "a6804da067bf2bac825a829381583a64", "type": "electric_bike", "is_disabled": 0, "lat": 38.8755595, "rental_uris": {"ios": "https://dc.lft.to/lastmile_qr_scan", "android": "https://dc.lft.to/lastmile_qr_scan"}, "is_reserved": 0, "fusion_lon": 0.0, "fusion_lat": 0.0, "lon": -76.9650395, "name": "a6804da067bf2bac825a829381583a64"}, {"bike_id": "7a6a22cc7f2dd5f5b6f5824b3aa8b5e7", "type": "electric_scooter", "is_disabled": 0, "lat": 38.972382833333334, "rental_uris": {"ios": "https://dc.lft.to/lastmile_qr_scan", "android": "https://dc.lft.to/lastmile_qr_scan"}, "is_reserved": 0, "fusion_lon": 0.0, "fusion_lat": 0.0, "lon": -77.0271185, "name": "7a6a22cc7f2dd5f5b6f5824b3aa8b5e7"}, {"bike_id": "25f48935c09adcd5524d521d5322211e", "type": "electric_scooter", "is_disabled": 0, "lat": 38.87935566666667, "rental_uris": {"ios": "https://dc.lft.to/lastmile_qr_scan", "android": "https://dc.lft.to/lastmile_qr_scan"}, "is_reserved": 0, "fusion_lon": 0.0, "fusion_lat": 0.0, "lon": -77.00432283333333, "name": "25f48935c09adcd5524d521d5322211e"}, {"bike_id": "0f9e30959c32aed197ef77a489f5f459", "type": "electric_scooter", "is_disabled": 0, "lat": 38.90597566666667, "rental_uris": {"ios": "https://dc.lft.to/lastmile_qr_scan", "android": "https://dc.lft.to/lastmile_qr_scan"}, "is_reserved": 0, "fusion_lon": 0.0, "fusion_lat": 0.0, "lon": -77.0036245, "name": "0f9e30959c32aed197ef77a489f5f459"}, {"bike_id": "7ea6ee9e0aa418ae628f7c355aa416ec", "type": "electric_scooter", "is_disabled": 0, "lat": 38.91775466666667, "rental_uris": {"ios": "https://dc.lft.to/lastmile_qr_scan", "android": "https://dc.lft.to/lastmile_qr_scan"}, "is_reserved": 0, "fusion_lon": 0.0, "fusion_lat": 0.0, "lon": -77.0344535, "name": "7ea6ee9e0aa418ae628f7c355aa416ec"}, {"bike_id": "49185432c642f975ea78774a62bb08fa", "type": "electric_scooter", "is_disabled": 0, "lat": 38.925330333333335, "rental_uris": {"ios": "https://dc.lft.to/lastmile_qr_scan", "android": "https://dc.lft.to/lastmile_qr_scan"}, "is_reserved": 0, "fusion_lon": 0.0, "fusion_lat": 0.0, "lon": -77.0225835, "name": "49185432c642f975ea78774a62bb08fa"}, {"bike_id": "61c7a3bf4e6b1bfdc9738464c59383a5", "type": "electric_scooter", "is_disabled": 0, "lat": 38.89732383333333, "rental_uris": {"ios": "https://dc.lft.to/lastmile_qr_scan", "android": "https://dc.lft.to/lastmile_qr_scan"}, "is_reserved": 0, "fusion_lon": 0.0, "fusion_lat": 0.0, "lon": -77.021151, "name": "61c7a3bf4e6b1bfdc9738464c59383a5"}, {"bike_id": "8074e1a5ee2f848e181ce0d0dac1644a", "type": "electric_scooter", "is_disabled": 0, "lat": 38.919392, "rental_uris": {"ios": "https://dc.lft.to/lastmile_qr_scan", "android": "https://dc.lft.to/lastmile_qr_scan"}, "is_reserved": 0, "fusion_lon": 0.0, "fusion_lat": 0.0, "lon": -77.04557783333334, "name": "8074e1a5ee2f848e181ce0d0dac1644a"}, {"bike_id": "a8eb88d6b13d54d093621c69af0aefd1", "type": "electric_scooter", "is_disabled": 0, "lat": 38.94440066666667, "rental_uris": {"ios": "https://dc.lft.to/lastmile_qr_scan", "android": "https://dc.lft.to/lastmile_qr_scan"}, "is_reserved": 0, "fusion_lon": 0.0, "fusion_lat": 0.0, "lon": -77.06351366666667, "name": "a8eb88d6b13d54d093621c69af0aefd1"}, {"bike_id": "b08599c34d41206ccf91d09f0bcb3f2c", "type": "electric_scooter", "is_disabled": 0, "lat": 38.921285833333336, "rental_uris": {"ios": "https://dc.lft.to/lastmile_qr_scan", "android": "https://dc.lft.to/lastmile_qr_scan"}, "is_reserved": 0, "fusion_lon": 0.0, "fusion_lat": 0.0, "lon": -76.99245616666667, "name": "b08599c34d41206ccf91d09f0bcb3f2c"}, {"bike_id": "9d77a9106956ea612f9c32db217ff88c", "type": "electric_scooter", "is_disabled": 0, "lat": 38.90645766666667, "rental_uris": {"ios": "https://dc.lft.to/lastmile_qr_scan", "android": "https://dc.lft.to/lastmile_qr_scan"}, "is_reserved": 0, "fusion_lon": 0.0, "fusion_lat": 0.0, "lon": -77.05329216666667, "name": "9d77a9106956ea612f9c32db217ff88c"}, {"bike_id": "2f442923e29d1c989b07679bb94990f0", "type": "electric_scooter", "is_disabled": 0, "lat": 38.92780616666667, "rental_uris": {"ios": "https://dc.lft.to/lastmile_qr_scan", "android": "https://dc.lft.to/lastmile_qr_scan"}, "is_reserved": 0, "fusion_lon": 0.0, "fusion_lat": 0.0, "lon": -77.02314616666666, "name": "2f442923e29d1c989b07679bb94990f0"}, {"bike_id": "7a10a21ba6bfded3d50850b1e94af13d", "type": "electric_scooter", "is_disabled": 0, "lat": 38.93210833333333, "rental_uris": {"ios": "https://dc.lft.to/lastmile_qr_scan", "android": "https://dc.lft.to/lastmile_qr_scan"}, "is_reserved": 0, "fusion_lon": 0.0, "fusion_lat": 0.0, "lon": -77.03358783333333, "name": "7a10a21ba6bfded3d50850b1e94af13d"}, {"bike_id": "66123d24dcd9214ec5898b0632c6fae4", "type": "electric_scooter", "is_disabled": 0, "lat": 38.878016, "rental_uris": {"ios": "https://dc.lft.to/lastmile_qr_scan", "android": "https://dc.lft.to/lastmile_qr_scan"}, "is_reserved": 0, "fusion_lon": 0.0, "fusion_lat": 0.0, "lon": -76.93084916666666, "name": "66123d24dcd9214ec5898b0632c6fae4"}, {"bike_id": "d28266c3ea020934a08d5d593df0bd7a", "type": "electric_scooter", "is_disabled": 0, "lat": 38.925309666666664, "rental_uris": {"ios": "https://dc.lft.to/lastmile_qr_scan", "android": "https://dc.lft.to/lastmile_qr_scan"}, "is_reserved": 0, "fusion_lon": 0.0, "fusion_lat": 0.0, "lon": -77.04285083333333, "name": "d28266c3ea020934a08d5d593df0bd7a"}, {"bike_id": "8e91f14cf79ddf9357c1707c06455847", "type": "electric_scooter", "is_disabled": 0, "lat": 38.924552166666665, "rental_uris": {"ios": "https://dc.lft.to/lastmile_qr_scan", "android": "https://dc.lft.to/lastmile_qr_scan"}, "is_reserved": 0, "fusion_lon": 0.0, "fusion_lat": 0.0, "lon": -77.024046, "name": "8e91f14cf79ddf9357c1707c06455847"}, {"bike_id": "f17897b08d63b1e845acce6aa92d084f", "type": "electric_scooter", "is_disabled": 0, "lat": 38.8733585, "rental_uris": {"ios": "https://dc.lft.to/lastmile_qr_scan", "android": "https://dc.lft.to/lastmile_qr_scan"}, "is_reserved": 0, "fusion_lon": 0.0, "fusion_lat": 0.0, "lon": -76.96784033333333, "name": "f17897b08d63b1e845acce6aa92d084f"}, {"bike_id": "046a94308fc101653f2c43970cd25660", "type": "electric_scooter", "is_disabled": 0, "lat": 38.92368116666667, "rental_uris": {"ios": "https://dc.lft.to/lastmile_qr_scan", "android": "https://dc.lft.to/lastmile_qr_scan"}, "is_reserved": 0, "fusion_lon": 0.0, "fusion_lat": 0.0, "lon": -77.01915616666666, "name": "046a94308fc101653f2c43970cd25660"}, {"bike_id": "0d8d2ffccc9754f675908b82e07cf438", "type": "electric_bike", "is_disabled": 0, "lat": 38.973992, "rental_uris": {"ios": "https://dc.lft.to/lastmile_qr_scan", "android": "https://dc.lft.to/lastmile_qr_scan"}, "is_reserved": 0, "fusion_lon": 0.0, "fusion_lat": 0.0, "lon": -77.06448033333334, "name": "0d8d2ffccc9754f675908b82e07cf438"}, {"bike_id": "e8c93095d61c87103ab03cedd1446e19", "type": "electric_scooter", "is_disabled": 0, "lat": 38.877154833333336, "rental_uris": {"ios": "https://dc.lft.to/lastmile_qr_scan", "android": "https://dc.lft.to/lastmile_qr_scan"}, "is_reserved": 0, "fusion_lon": 0.0, "fusion_lat": 0.0, "lon": -77.02017766666667, "name": "e8c93095d61c87103ab03cedd1446e19"}, {"bike_id": "9fa51bafd27e01d8612832223baced23", "type": "electric_bike", "is_disabled": 0, "lat": 38.9356965, "rental_uris": {"ios": "https://dc.lft.to/lastmile_qr_scan", "android": "https://dc.lft.to/lastmile_qr_scan"}, "is_reserved": 0, "fusion_lon": 0.0, "fusion_lat": 0.0, "lon": -77.02144466666667, "name": "9fa51bafd27e01d8612832223baced23"}, {"bike_id": "2e5546710c988ec17b40e7ed3c06f910", "type": "electric_scooter", "is_disabled": 0, "lat": 38.92902383333333, "rental_uris": {"ios": "https://dc.lft.to/lastmile_qr_scan", "android": "https://dc.lft.to/lastmile_qr_scan"}, "is_reserved": 0, "fusion_lon": 0.0, "fusion_lat": 0.0, "lon": -77.054558, "name": "2e5546710c988ec17b40e7ed3c06f910"}, {"bike_id": "d8cf2614c6eb78f1268e862273386bd0", "type": "electric_scooter", "is_disabled": 0, "lat": 38.87915433333333, "rental_uris": {"ios": "https://dc.lft.to/lastmile_qr_scan", "android": "https://dc.lft.to/lastmile_qr_scan"}, "is_reserved": 0, "fusion_lon": 0.0, "fusion_lat": 0.0, "lon": -77.008817, "name": "d8cf2614c6eb78f1268e862273386bd0"}, {"bike_id": "bc131882968fee6d44be3cf134521624", "type": "electric_bike", "is_disabled": 0, "lat": 38.93965933333333, "rental_uris": {"ios": "https://dc.lft.to/lastmile_qr_scan", "android": "https://dc.lft.to/lastmile_qr_scan"}, "is_reserved": 0, "fusion_lon": 0.0, "fusion_lat": 0.0, "lon": -76.99378866666666, "name": "bc131882968fee6d44be3cf134521624"}, {"bike_id": "1a1fa0576f9b7825c4a015f630c2a3f6", "type": "electric_scooter", "is_disabled": 0, "lat": 38.9012095, "rental_uris": {"ios": "https://dc.lft.to/lastmile_qr_scan", "android": "https://dc.lft.to/lastmile_qr_scan"}, "is_reserved": 0, "fusion_lon": 0.0, "fusion_lat": 0.0, "lon": -76.92952033333333, "name": "1a1fa0576f9b7825c4a015f630c2a3f6"}, {"bike_id": "3d9b4d71b7ff322617acfba8eff9cc11", "type": "electric_scooter", "is_disabled": 0, "lat": 38.931330333333335, "rental_uris": {"ios": "https://dc.lft.to/lastmile_qr_scan", "android": "https://dc.lft.to/lastmile_qr_scan"}, "is_reserved": 0, "fusion_lon": 0.0, "fusion_lat": 0.0, "lon": -77.02801983333333, "name": "3d9b4d71b7ff322617acfba8eff9cc11"}, {"bike_id": "1d69fe761b4b84ee176b265c0e1e7fae", "type": "electric_scooter", "is_disabled": 0, "lat": 38.90285183333334, "rental_uris": {"ios": "https://dc.lft.to/lastmile_qr_scan", "android": "https://dc.lft.to/lastmile_qr_scan"}, "is_reserved": 0, "fusion_lon": 0.0, "fusion_lat": 0.0, "lon": -77.00341933333333, "name": "1d69fe761b4b84ee176b265c0e1e7fae"}, {"bike_id": "cb4512cee8971b7611fc3cabad11d3e9", "type": "electric_scooter", "is_disabled": 0, "lat": 38.93758783333333, "rental_uris": {"ios": "https://dc.lft.to/lastmile_qr_scan", "android": "https://dc.lft.to/lastmile_qr_scan"}, "is_reserved": 0, "fusion_lon": 0.0, "fusion_lat": 0.0, "lon": -77.02475866666667, "name": "cb4512cee8971b7611fc3cabad11d3e9"}, {"bike_id": "c36313fde3c1b29563bb0a28c6385652", "type": "electric_scooter", "is_disabled": 0, "lat": 38.91682, "rental_uris": {"ios": "https://dc.lft.to/lastmile_qr_scan", "android": "https://dc.lft.to/lastmile_qr_scan"}, "is_reserved": 0, "fusion_lon": 0.0, "fusion_lat": 0.0, "lon": -77.041397, "name": "c36313fde3c1b29563bb0a28c6385652"}, {"bike_id": "b4ce507321fc26df5f83bfe817c72b11", "type": "electric_scooter", "is_disabled": 0, "lat": 38.89327516666667, "rental_uris": {"ios": "https://dc.lft.to/lastmile_qr_scan", "android": "https://dc.lft.to/lastmile_qr_scan"}, "is_reserved": 0, "fusion_lon": 0.0, "fusion_lat": 0.0, "lon": -77.04875233333334, "name": "b4ce507321fc26df5f83bfe817c72b11"}, {"bike_id": "913874630980d88cac95279512613d3e", "type": "electric_scooter", "is_disabled": 0, "lat": 38.89903183333333, "rental_uris": {"ios": "https://dc.lft.to/lastmile_qr_scan", "android": "https://dc.lft.to/lastmile_qr_scan"}, "is_reserved": 0, "fusion_lon": 0.0, "fusion_lat": 0.0, "lon": -77.01517733333333, "name": "913874630980d88cac95279512613d3e"}, {"bike_id": "d3ac35ea6e72dc32f245d6fe378df0be", "type": "electric_scooter", "is_disabled": 0, "lat": 38.9515565, "rental_uris": {"ios": "https://dc.lft.to/lastmile_qr_scan", "android": "https://dc.lft.to/lastmile_qr_scan"}, "is_reserved": 0, "fusion_lon": 0.0, "fusion_lat": 0.0, "lon": -77.01864433333333, "name": "d3ac35ea6e72dc32f245d6fe378df0be"}, {"bike_id": "2f0a282be9f966f858d45ab6fe5a5e96", "type": "electric_scooter", "is_disabled": 0, "lat": 38.91632516666667, "rental_uris": {"ios": "https://dc.lft.to/lastmile_qr_scan", "android": "https://dc.lft.to/lastmile_qr_scan"}, "is_reserved": 0, "fusion_lon": 0.0, "fusion_lat": 0.0, "lon": -77.04232883333333, "name": "2f0a282be9f966f858d45ab6fe5a5e96"}, {"bike_id": "5546050645f3144182b9432a7835d10e", "type": "electric_scooter", "is_disabled": 0, "lat": 38.87416783333333, "rental_uris": {"ios": "https://dc.lft.to/lastmile_qr_scan", "android": "https://dc.lft.to/lastmile_qr_scan"}, "is_reserved": 0, "fusion_lon": 0.0, "fusion_lat": 0.0, "lon": -76.9711275, "name": "5546050645f3144182b9432a7835d10e"}, {"bike_id": "e6d5b1ad865d204603cdc87461c72861", "type": "electric_bike", "is_disabled": 0, "lat": 38.898087, "rental_uris": {"ios": "https://dc.lft.to/lastmile_qr_scan", "android": "https://dc.lft.to/lastmile_qr_scan"}, "is_reserved": 0, "fusion_lon": 0.0, "fusion_lat": 0.0, "lon": -76.99055316666667, "name": "e6d5b1ad865d204603cdc87461c72861"}, {"bike_id": "4341cec6910505a1d2f75f7c763d51bf", "type": "electric_scooter", "is_disabled": 0, "lat": 38.92081566666667, "rental_uris": {"ios": "https://dc.lft.to/lastmile_qr_scan", "android": "https://dc.lft.to/lastmile_qr_scan"}, "is_reserved": 0, "fusion_lon": 0.0, "fusion_lat": 0.0, "lon": -77.00454133333334, "name": "4341cec6910505a1d2f75f7c763d51bf"}, {"bike_id": "2dd0a4c82ab24a097508842d0a8bf0ed", "type": "electric_scooter", "is_disabled": 0, "lat": 38.905877, "rental_uris": {"ios": "https://dc.lft.to/lastmile_qr_scan", "android": "https://dc.lft.to/lastmile_qr_scan"}, "is_reserved": 0, "fusion_lon": 0.0, "fusion_lat": 0.0, "lon": -77.0680585, "name": "2dd0a4c82ab24a097508842d0a8bf0ed"},