{"data": {"bikes": [{"name": "52e07f156557ec523e28e6d40a530c69", "is_reserved": 0, "type": "electric_scooter", "rental_uris": {"ios": "https://dc.lft.to/lastmile_qr_scan", "android": "https://dc.lft.to/lastmile_qr_scan"}, "lat": 38.886411833333334, "lon": -77.02205033333334, "bike_id": "52e07f156557ec523e28e6d40a530c69", "fusion_lat": 0.0, "is_disabled": 0, "fusion_lon": 0.0}, {"name": "bcb5685554711ce70651da5eb59ed337", "is_reserved": 0, "type": "electric_bike", "rental_uris": {"ios": "https://dc.lft.to/lastmile_qr_scan", "android": "https://dc.lft.to/lastmile_qr_scan"}, "lat": 38.844403666666665, "lon": -77.08588166666667, "bike_id": "bcb5685554711ce70651da5eb59ed337", "fusion_lat": 0.0, "is_disabled": 0, "fusion_lon": 0.0}, {"name": "091cf5915ef1113e7a32c74dfd178867", "is_reserved": 0, "type": "electric_bike", "rental_uris": {"ios": "https://dc.lft.to/lastmile_qr_scan", "android": "https://dc.lft.to/lastmile_qr_scan"}, "lat": 38.949044, "lon": -76.97236783333334, "bike_id": "091cf5915ef1113e7a32c74dfd178867", "fusion_lat": 0.0, "is_disabled": 0, "fusion_lon": 0.0}, {"name": "6ee337e5f01ecc98cae05b0703ee7186", "is_reserved": 0, "type": "electric_scooter", "rental_uris": {"ios": "https://dc.lft.to/lastmile_qr_scan", "android": "https://dc.lft.to/lastmile_qr_scan"}, "lat": 38.902611, "lon": -77.03859616666666, "bike_id": "6ee337e5f01ecc98cae05b0703ee7186", "fusion_lat": 0.0, "is_disabled": 0, "fusion_lon": 0.0}, {"name": "b90b4e818fad45bc64ff64d72a5ad453", "is_reserved": 0, "type": "electric_scooter", "rental_uris": {"ios": "https://dc.lft.to/lastmile_qr_scan", "android": "https://dc.lft.to/lastmile_qr_scan"}, "lat": 38.9001055, "lon": -77.006731, "bike_id": "b90b4e818fad45bc64ff64d72a5ad453", "fusion_lat": 0.0, "is_disabled": 0, "fusion_lon": 0.0}, {"name": "6e4b082337109e9171fd67b66db813ab", "is_reserved": 0, "type": "electric_scooter", "rental_uris": {"ios": "https://dc.lft.to/lastmile_qr_scan", "android": "https://dc.lft.to/lastmile_qr_scan"}, "lat": 38.90305816666667, "lon": -77.04314566666666, "bike_id": "6e4b082337109e9171fd67b66db813ab", "fusion_lat": 0.0, "is_disabled": 0, "fusion_lon": 0.0}, {"name": "6ab25f6b5306da5ffa7d265bbd4c9d68", "is_reserved": 0, "type": "electric_bike", "rental_uris": {"ios": "https://dc.lft.to/lastmile_qr_scan", "android": "https://dc.lft.to/lastmile_qr_scan"}, "lat": 38.90364266666667, "lon": -77.0074555, "bike_id": "6ab25f6b5306da5ffa7d265bbd4c9d68", "fusion_lat": 0.0, "is_disabled": 0, "fusion_lon": 0.0}, {"name": "e52f7dd35d8a7e043f6d5f25557725d6", "is_reserved": 0, "type": "electric_scooter", "rental_uris": {"ios": "https://dc.lft.to/lastmile_qr_scan", "android": "https://dc.lft.to/lastmile_qr_scan"}, "lat": 38.915235333333335, "lon": -76.98481566666666, "bike_id": "e52f7dd35d8a7e043f6d5f25557725d6", "fusion_lat": 0.0, "is_disabled": 0, "fusion_lon": 0.0}, {"name": "746349a02ff715d7783e975d65db4f28", "is_reserved": 0, "type": "electric_scooter", "rental_uris": {"ios": "https://dc.lft.to/lastmile_qr_scan", "android": "https://dc.lft.to/lastmile_qr_scan"}, "lat": 38.92342683333333, "lon": -77.05118516666667, "bike_id": "746349a02ff715d7783e975d65db4f28", "fusion_lat": 0.0, "is_disabled": 0, "fusion_lon": 0.0}, {"name": "0098abb6702451bf488944cdc6165c77", "is_reserved": 0, "type": "electric_scooter", "rental_uris": {"ios": "https://dc.lft.to/lastmile_qr_scan", "android": "https://dc.lft.to/lastmile_qr_scan"}, "lat": 38.90900766666667, "lon": -77.03210516666667, "bike_id": "0098abb6702451bf488944cdc6165c77", "fusion_lat": 0.0, "is_disabled": 0, "fusion_lon": 0.0}, {"name": "14c962ccf37fb215dfc3452bf83de864", "is_reserved": 0, "type": "electric_scooter", "rental_uris": {"ios": "https://dc.lft.to/lastmile_qr_scan", "android": "https://dc.lft.to/lastmile_qr_scan"}, "lat": 38.89734283333333, "lon": -77.0245635, "bike_id": "14c962ccf37fb215dfc3452bf83de864", "fusion_lat": 0.0, "is_disabled": 0, "fusion_lon": 0.0}, {"name": "8e568fbd76da1a498f3963a6c338ffe5", "is_reserved": 0, "type": "electric_scooter", "rental_uris": {"ios": "https://dc.lft.to/lastmile_qr_scan", "android": "https://dc.lft.to/lastmile_qr_scan"}, "lat": 38.89892533333333, "lon": -76.9327095, "bike_id": "8e568fbd76da1a498f3963a6c338ffe5", "fusion_lat": 0.0, "is_disabled": 0, "fusion_lon": 0.0}, {"name": "b4aeabfbb3202d7ed8ddc340b1758e93", "is_reserved": 0, "type": "electric_scooter", "rental_uris": {"ios": "https://dc.lft.to/lastmile_qr_scan", "android": "https://dc.lft.to/lastmile_qr_scan"}, "lat": 38.926936166666664, "lon": -77.020896, "bike_id": "b4aeabfbb3202d7ed8ddc340b1758e93", "fusion_lat": 0.0, "is_disabled": 0, "fusion_lon": 0.0}, {"name": "601efd4f588a898bc1895f7f12386b9e", "is_reserved": 0, "type": "electric_scooter", "rental_uris": {"ios": "https://dc.lft.to/lastmile_qr_scan", "android": "https://dc.lft.to/lastmile_qr_scan"}, "lat": 38.935256833333334, "lon": -77.07261383333334, "bike_id": "601efd4f588a898bc1895f7f12386b9e", "fusion_lat": 0.0, "is_disabled": 0, "fusion_lon": 0.0}, {"name": "c9490024523c0511274bc8d73960f40b", "is_reserved": 0, "type": "electric_scooter", "rental_uris": {"ios": "https://dc.lft.to/lastmile_qr_scan", "android": "https://dc.lft.to/lastmile_qr_scan"}, "lat": 38.898914833333336, "lon": -77.03162316666666, "bike_id": "c9490024523c0511274bc8d73960f40b", "fusion_lat": 0.0, "is_disabled": 0, "fusion_lon": 0.0}, {"name": "8a0461e7d46933867e952585dcbcb127", "is_reserved": 0, "type": "electric_scooter", "rental_uris": {"ios": "https://dc.lft.to/lastmile_qr_scan", "android": "https://dc.lft.to/lastmile_qr_scan"}, "lat": 38.863576333333334, "lon": -76.99063366666667, "bike_id": "8a0461e7d46933867e952585dcbcb127", "fusion_lat": 0.0, "is_disabled": 0, "fusion_lon": 0.0}, {"name": "e72bd62238336379f2885391bb1bbc50", "is_reserved": 0, "type": "electric_bike", "rental_uris": {"ios": "https://dc.lft.to/lastmile_qr_scan", "android": "https://dc.lft.to/lastmile_qr_scan"}, "lat": 38.8541595, "lon": -77.12083433333333, "bike_id": "e72bd62238336379f2885391bb1bbc50", "fusion_lat": 0.0, "is_disabled": 0, "fusion_lon": 0.0}, {"name": "a0bf33bc894c2060f35c11c8f54cb669", "is_reserved": 0, "type": "electric_scooter", "rental_uris": {"ios": "https://dc.lft.to/lastmile_qr_scan", "android": "https://dc.lft.to/lastmile_qr_scan"}, "lat": 38.915593, "lon": -77.031757, "bike_id": "a0bf33bc894c2060f35c11c8f54cb669", "fusion_lat": 0.0, "is_disabled": 0, "fusion_lon": 0.0}, {"name": "90cef7a66789739462fae0f5c65d14da", "is_reserved": 0, "type": "electric_bike", "rental_uris": {"ios": "https://dc.lft.to/lastmile_qr_scan", "android": "https://dc.lft.to/lastmile_qr_scan"}, "lat": 38.844313166666666, "lon": -77.08578916666667, "bike_id": "90cef7a66789739462fae0f5c65d14da", "fusion_lat": 0.0, "is_disabled": 0, "fusion_lon": 0.0}, {"name": "e1061f6736861651a77e79859ace152c", "is_reserved": 0, "type": "electric_bike", "rental_uris": {"ios": "https://dc.lft.to/lastmile_qr_scan", "android": "https://dc.lft.to/lastmile_qr_scan"}, "lat": 38.89498733333333, "lon": -76.92199683333334, "bike_id": "e1061f6736861651a77e79859ace152c", "fusion_lat": 0.0, "is_disabled": 0, "fusion_lon": 0.0}, {"name": "70f434ab845cba446190d30f5fcf9eba", "is_reserved": 0, "type": "electric_scooter", "rental_uris": {"ios": "https://dc.lft.to/lastmile_qr_scan", "android": "https://dc.lft.to/lastmile_qr_scan"}, "lat": 38.90286066666667, "lon": -76.99036433333333, "bike_id": "70f434ab845cba446190d30f5fcf9eba", "fusion_lat": 0.0, "is_disabled": 0, "fusion_lon": 0.0}, {"name": "24f83398112b5c343f397a86cd584193", "is_reserved": 0, "type": "electric_scooter", "rental_uris": {"ios": "https://dc.lft.to/lastmile_qr_scan", "android": "https://dc.lft.to/lastmile_qr_scan"}, "lat": 38.944243, "lon": -77.06331466666667, "bike_id": "24f83398112b5c343f397a86cd584193", "fusion_lat": 0.0, "is_disabled": 0, "fusion_lon": 0.0}, {"name": "23a6aee319806c7583965e62997ff688", "is_reserved": 0, "type": "electric_scooter", "rental_uris": {"ios": "https://dc.lft.to/lastmile_qr_scan", "android": "https://dc.lft.to/lastmile_qr_scan"}, "lat": 38.91789216666667, "lon": -77.0321125, "bike_id": "23a6aee319806c7583965e62997ff688", "fusion_lat": 0.0, "is_disabled": 0, "fusion_lon": 0.0}, {"name": "c047d8e9d811243cee42777701bb614e", "is_reserved": 0, "type": "electric_scooter", "rental_uris": {"ios": "https://dc.lft.to/lastmile_qr_scan", "android": "https://dc.lft.to/lastmile_qr_scan"}, "lat": 38.89227733333333, "lon": -77.04333316666667, "bike_id": "c047d8e9d811243cee42777701bb614e", "fusion_lat": 0.0, "is_disabled": 0, "fusion_lon": 0.0}, {"name": "b8709c1bb3840183ec7e6f64ee7fc889", "is_reserved": 0, "type": "electric_scooter", "rental_uris": {"ios": "https://dc.lft.to/lastmile_qr_scan", "android": "https://dc.lft.to/lastmile_qr_scan"}, "lat": 38.8999205, "lon": -77.0005765, "bike_id": "b8709c1bb3840183ec7e6f64ee7fc889", "fusion_lat": 0.0, "is_disabled": 0, "fusion_lon": 0.0}, {"name": "499909b418f4db1625442a39c4897924", "is_reserved": 0, "type": "electric_scooter", "rental_uris": {"ios": "https://dc.lft.to/lastmile_qr_scan", "android": "https://dc.lft.to/lastmile_qr_scan"}, "lat": 38.91713033333333, "lon": -77.03612866666667, "bike_id": "499909b418f4db1625442a39c4897924", "fusion_lat": 0.0, "is_disabled": 0, "fusion_lon": 0.0}, {"name": "1435a65058d5304b94b72673250d2dbb", "is_reserved": 0, "type": "electric_scooter", "rental_uris": {"ios": "https://dc.lft.to/lastmile_qr_scan", "android": "https://dc.lft.to/lastmile_qr_scan"}, "lat": 38.922745166666665, "lon": -77.01983516666667, "bike_id": "1435a65058d5304b94b72673250d2dbb", "fusion_lat": 0.0, "is_disabled": 0, "fusion_lon": 0.0}, {"name": "a4c88c3c4e03edaf7f0f089dc1391d54", "is_reserved": 0, "type": "electric_scooter", "rental_uris": {"ios": "https://dc.lft.to/lastmile_qr_scan", "android": "https://dc.lft.to/lastmile_qr_scan"}, "lat": 38.90384983333333, "lon": -77.016339, "bike_id": "a4c88c3c4e03edaf7f0f089dc1391d54", "fusion_lat": 0.0, "is_disabled": 0, "fusion_lon": 0.0}, {"name": "50c3d8335697e9fcb2a18fd6aefae888", "is_reserved": 0, "type": "electric_scooter", "rental_uris": {"ios": "https://dc.lft.to/lastmile_qr_scan", "android": "https://dc.lft.to/lastmile_qr_scan"}, "lat": 38.866556333333335, "lon": -76.985368, "bike_id": "50c3d8335697e9fcb2a18fd6aefae888", "fusion_lat": 0.0, "is_disabled": 0, "fusion_lon": 0.0}, {"name": "841be7180a01d086fa26fa38db1af418", "is_reserved": 0, "type": "electric_bike", "rental_uris": {"ios": "https://dc.lft.to/lastmile_qr_scan", "android": "https://dc.lft.to/lastmile_qr_scan"}, "lat": 38.90996716666667, "lon": -77.04620766666666, "bike_id": "841be7180a01d086fa26fa38db1af418", "fusion_lat": 0.0, "is_disabled": 0, "fusion_lon": 0.0}, {"name": "f04568a7b99ce70df48817b24353c233", "is_reserved": 0, "type": "electric_scooter", "rental_uris": {"ios": "https://dc.lft.to/lastmile_qr_scan", "android": "https://dc.lft.to/lastmile_qr_scan"}, "lat": 38.90391833333334, "lon": -76.98099783333333, "bike_id": "f04568a7b99ce70df48817b24353c233", "fusion_lat": 0.0, "is_disabled": 0, "fusion_lon": 0.0}, {"name": "0a9316e05e8f67413e86b02387ecb08a", "is_reserved": 0, "type": "electric_scooter", "rental_uris": {"ios": "https://dc.lft.to/lastmile_qr_scan", "android": "https://dc.lft.to/lastmile_qr_scan"}, "lat": 38.89860766666666, "lon": -77.02688933333333, "bike_id": "0a9316e05e8f67413e86b02387ecb08a", "fusion_lat": 0.0, "is_disabled": 0, "fusion_lon": 0.0}, {"name": "4656f622f3f0a7e59dff5668726081a9", "is_reserved": 0, "type": "electric_bike", "rental_uris": {"ios": "https://dc.lft.to/lastmile_qr_scan", "android": "https://dc.lft.to/lastmile_qr_scan"}, "lat": 38.8794525, "lon": -77.01041033333334, "bike_id": "4656f622f3f0a7e59dff5668726081a9", "fusion_lat": 0.0, "is_disabled": 0, "fusion_lon": 0.0}, {"name": "cabf1f48559111181ea507322b2d162c", "is_reserved": 0, "type": "electric_scooter", "rental_uris": {"ios": "https://dc.lft.to/lastmile_qr_scan", "android": "https://dc.lft.to/lastmile_qr_scan"}, "lat": 38.90491566666667, "lon": -77.0392125, "bike_id": "cabf1f48559111181ea507322b2d162c", "fusion_lat": 0.0, "is_disabled": 0, "fusion_lon": 0.0}, {"name": "a0912f3601567bbcd7f8bfa69cd8f6e2", "is_reserved": 0, "type": "electric_scooter", "rental_uris": {"ios": "https://dc.lft.to/lastmile_qr_scan", "android": "https://dc.lft.to/lastmile_qr_scan"}, "lat": 38.9223645, "lon": -77.04343833333333, "bike_id": "a0912f3601567bbcd7f8bfa69cd8f6e2", "fusion_lat": 0.0, "is_disabled": 0, "fusion_lon": 0.0}, {"name": "67411a2cd469b81d392d8ad6e752b788", "is_reserved": 0, "type": "electric_scooter", "rental_uris": {"ios": "https://dc.lft.to/lastmile_qr_scan", "android": "https://dc.lft.to/lastmile_qr_scan"}, "lat": 38.92374683333333, "lon": -77.05257266666666, "bike_id": "67411a2cd469b81d392d8ad6e752b788", "fusion_lat": 0.0, "is_disabled": 0, "fusion_lon": 0.0}, {"name": "b23700e59aff58a9fee3eb9f02a95c0a", "is_reserved": 0, "type": "electric_scooter", "rental_uris": {"ios": "https://dc.lft.to/lastmile_qr_scan", "android": "https://dc.lft.to/lastmile_qr_scan"}, "lat": 38.8983015, "lon": -77.00749833333333, "bike_id": "b23700e59aff58a9fee3eb9f02a95c0a", "fusion_lat": 0.0, "is_disabled": 0, "fusion_lon": 0.0}, {"name": "a74da14de183d88c2b42f341aa94840b", "is_reserved": 0, "type": "electric_scooter", "rental_uris": {"ios": "https://dc.lft.to/lastmile_qr_scan", "android": "https://dc.lft.to/lastmile_qr_scan"}, "lat": 38.90978533333333, "lon": -76.99504966666666, "bike_id": "a74da14de183d88c2b42f341aa94840b", "fusion_lat": 0.0, "is_disabled": 0, "fusion_lon": 0.0}, {"name": "789bafdc48507c459738fb5a462749a2", "is_reserved": 0, "type": "electric_scooter", "rental_uris": {"ios": "https://dc.lft.to/lastmile_qr_scan", "android": "https://dc.lft.to/lastmile_qr_scan"}, "lat": 38.89095416666667, "lon": -76.99789233333334, "bike_id": "789bafdc48507c459738fb5a462749a2", "fusion_lat": 0.0, "is_disabled": 0, "fusion_lon": 0.0}, {"name": "679ad8ae487a456ed521eb7f9a72aa74", "is_reserved": 0, "type": "electric_scooter", "rental_uris": {"ios": "https://dc.lft.to/lastmile_qr_scan", "android": "https://dc.lft.to/lastmile_qr_scan"}, "lat": 38.90969616666667, "lon": -77.04676033333334, "bike_id": "679ad8ae487a456ed521eb7f9a72aa74", "fusion_lat": 0.0, "is_disabled": 0, "fusion_lon": 0.0}, {"name": "d9b0ca736adfb90b303dafd0eac283fd", "is_reserved": 0, "type": "electric_scooter", "rental_uris": {"ios": "https://dc.lft.to/lastmile_qr_scan", "android": "https://dc.lft.to/lastmile_qr_scan"}, "lat": 38.927745333333334, "lon": -77.037105, "bike_id": "d9b0ca736adfb90b303dafd0eac283fd", "fusion_lat": 0.0, "is_disabled": 0, "fusion_lon": 0.0}, {"name": "4c7691922d2629df5c94a3c14c6aca5a", "is_reserved": 0, "type": "electric_scooter", "rental_uris": {"ios": "https://dc.lft.to/lastmile_qr_scan", "android": "https://dc.lft.to/lastmile_qr_scan"}, "lat": 38.900714, "lon": -77.02780216666666, "bike_id": "4c7691922d2629df5c94a3c14c6aca5a", "fusion_lat": 0.0, "is_disabled": 0, "fusion_lon": 0.0}, {"name": "8c512f0a36f5451a52e09905cefad590", "is_reserved": 0, "type": "electric_scooter", "rental_uris": {"ios": "https://dc.lft.to/lastmile_qr_scan", "android": "https://dc.lft.to/lastmile_qr_scan"}, "lat": 38.904381666666666, "lon": -77.03082233333333, "bike_id": "8c512f0a36f5451a52e09905cefad590", "fusion_lat": 0.0, "is_disabled": 0, "fusion_lon": 0.0}, {"name": "a5c3e6c3d5e7eaa365d94341654bd116", "is_reserved": 0, "type": "electric_scooter", "rental_uris": {"ios": "https://dc.lft.to/lastmile_qr_scan", "android": "https://dc.lft.to/lastmile_qr_scan"}, "lat": 38.901119, "lon": -77.03169866666667, "bike_id": "a5c3e6c3d5e7eaa365d94341654bd116", "fusion_lat": 0.0, "is_disabled": 0, "fusion_lon": 0.0}, {"name": "301651ec7e4ae822620b6eccc444eb49", "is_reserved": 0, "type": "electric_scooter", "rental_uris": {"ios": "https://dc.lft.to/lastmile_qr_scan", "android": "https://dc.lft.to/lastmile_qr_scan"}, "lat": 38.908572, "lon": -76.98602216666667, "bike_id": "301651ec7e4ae822620b6eccc444eb49", "fusion_lat": 0.0, "is_disabled": 0, "fusion_lon": 0.0}, {"name": "9917a351fd949d1a92597177db5ccbf5", "is_reserved": 0, "type": "electric_scooter", "rental_uris": {"ios": "https://dc.lft.to/lastmile_qr_scan", "android": "https://dc.lft.to/lastmile_qr_scan"}, "lat": 38.922492166666665, "lon": -77.02117833333334, "bike_id": "9917a351fd949d1a92597177db5ccbf5", "fusion_lat": 0.0, "is_disabled": 0, "fusion_lon": 0.0}, {"name": "de279ecb88476ac536f4e99f523e05ff", "is_reserved": 0, "type": "electric_scooter", "rental_uris": {"ios": "https://dc.lft.to/lastmile_qr_scan", "android": "https://dc.lft.to/lastmile_qr_scan"}, "lat": 38.90016216666667, "lon": -77.01218383333334, "bike_id": "de279ecb88476ac536f4e99f523e05ff", "fusion_lat": 0.0, "is_disabled": 0, "fusion_lon": 0.0}, {"name": "bf86851eb9a0fc814cacf457c5e38049", "is_reserved": 0, "type": "electric_scooter", "rental_uris": {"ios": "https://dc.lft.to/lastmile_qr_scan", "android": "https://dc.lft.to/lastmile_qr_scan"}, "lat": 38.8916025, "lon": -77.0005805, "bike_id": "bf86851eb9a0fc814cacf457c5e38049", "fusion_lat": 0.0, "is_disabled": 0, "fusion_lon": 0.0}, {"name": "c00f1558c48796135edd2d5095d88cfe", "is_reserved": 0, "type": "electric_scooter", "rental_uris": {"ios": "https://dc.lft.to/lastmile_qr_scan", "android": "https://dc.lft.to/lastmile_qr_scan"}, "lat": 38.94941266666667, "lon": -77.0159415, "bike_id": "c00f1558c48796135edd2d5095d88cfe", "fusion_lat": 0.0, "is_disabled": 0, "fusion_lon": 0.0}, {"name": "90ae7fedb01c1ed909c1c01164759d65", "is_reserved": 0, "type": "electric_scooter", "rental_uris": {"ios": "https://dc.lft.to/lastmile_qr_scan", "android": "https://dc.lft.to/lastmile_qr_scan"}, "lat": 38.9103195, "lon": -76.985518, "bike_id": "90ae7fedb01c1ed909c1c01164759d65", "fusion_lat": 0.0, "is_disabled": 0, "fusion_lon": 0.0}, {"name": "1860ca0c9a29455b2d723edf7702fecf", "is_reserved": 0, "type": "electric_scooter", "rental_uris": {"ios": "https://dc.lft.to/lastmile_qr_scan", "android": "https://dc.lft.to/lastmile_qr_scan"}, "lat": 38.91922233333333, "lon": -77.031189, "bike_id": "1860ca0c9a29455b2d723edf7702fecf", "fusion_lat": 0.0, "is_disabled": 0, "fusion_lon": 0.0}, {"name": "e0dc62d51ca5b49a9401e687ef6dcc77", "is_reserved": 0, "type": "electric_scooter", "rental_uris": {"ios": "https://dc.lft.to/lastmile_qr_scan", "android": "https://dc.lft.to/lastmile_qr_scan"}, "lat": 38.91483983333333, "lon": -76.99347866666666, "bike_id": "e0dc62d51ca5b49a9401e687ef6dcc77", "fusion_lat": 0.0, "is_disabled": 0, "fusion_lon": 0.0}, {"name": "de701808acf63d3c79d497eefb3d6f58", "is_reserved": 0, "type": "electric_scooter", "rental_uris": {"ios": "https://dc.lft.to/lastmile_qr_scan", "android": "https://dc.lft.to/lastmile_qr_scan"}, "lat": 38.9228095, "lon": -77.04201733333333, "bike_id": "de701808acf63d3c79d497eefb3d6f58", "fusion_lat": 0.0, "is_disabled": 0, "fusion_lon": 0.0}, {"name": "c02f87ba287b473bf6f1b67e832adad8", "is_reserved": 0, "type": "electric_scooter", "rental_uris": {"ios": "https://dc.lft.to/lastmile_qr_scan", "android": "https://dc.lft.to/lastmile_qr_scan"}, "lat": 38.926219333333336, "lon": -77.022211, "bike_id": "c02f87ba287b473bf6f1b67e832adad8", "fusion_lat": 0.0, "is_disabled": 0, "fusion_lon": 0.0}, {"name": "4b1bc12eb80ddc48d1effbd22def7bc4", "is_reserved": 0, "type": "electric_scooter", "rental_uris": {"ios": "https://dc.lft.to/lastmile_qr_scan", "android": "https://dc.lft.to/lastmile_qr_scan"}, "lat": 38.89691883333333, "lon": -77.00494133333333, "bike_id": "4b1bc12eb80ddc48d1effbd22def7bc4", "fusion_lat": 0.0, "is_disabled": 0, "fusion_lon": 0.0}, {"name": "3ecc36607a3763cd92f1ee4f9400227e", "is_reserved": 0, "type": "electric_scooter", "rental_uris": {"ios": "https://dc.lft.to/lastmile_qr_scan", "android": "https://dc.lft.to/lastmile_qr_scan"}, "lat": 38.9168175, "lon": -77.03666083333333, "bike_id": "3ecc36607a3763cd92f1ee4f9400227e", "fusion_lat": 0.0, "is_disabled": 0, "fusion_lon": 0.0}, {"name": "8b20289fb36d73d3115052db14a7f6ea", "is_reserved": 0, "type": "electric_scooter", "rental_uris": {"ios": "https://dc.lft.to/lastmile_qr_scan", "android": "https://dc.lft.to/lastmile_qr_scan"}, "lat": 38.923483833333336, "lon": -77.032031, "bike_id": "8b20289fb36d73d3115052db14a7f6ea", "fusion_lat": 0.0, "is_disabled": 0, "fusion_lon": 0.0}, {"name": "8cb58c55f28d4c4cb0ea8b52eca4178f", "is_reserved": 0, "type": "electric_scooter", "rental_uris": {"ios": "https://dc.lft.to/lastmile_qr_scan", "android": "https://dc.lft.to/lastmile_qr_scan"}, "lat": 38.91803216666667, "lon": -77.03442566666666, "bike_id": "8cb58c55f28d4c4cb0ea8b52eca4178f", "fusion_lat": 0.0, "is_disabled": 0, "fusion_lon": 0.0}, {"name": "f862c96ebe6e8f7706d72245071b8d27", "is_reserved": 0, "type": "electric_scooter", "rental_uris": {"ios": "https://dc.lft.to/lastmile_qr_scan", "android": "https://dc.lft.to/lastmile_qr_scan"}, "lat": 38.904022833333336, "lon": -77.020076, "bike_id": "f862c96ebe6e8f7706d72245071b8d27", "fusion_lat": 0.0, "is_disabled": 0, "fusion_lon": 0.0}, {"name": "7cd7531796752a29cbefa13323107be7", "is_reserved": 0, "type": "electric_scooter", "rental_uris": {"ios": "https://dc.lft.to/lastmile_qr_scan", "android": "https://dc.lft.to/lastmile_qr_scan"}, "lat": 38.844316, "lon": -76.99816633333333, "bike_id": "7cd7531796752a29cbefa13323107be7", "fusion_lat": 0.0, "is_disabled": 0, "fusion_lon": 0.0}, {"name": "7203163398820c5ea26cd1e26d301c81", "is_reserved": 0, "type": "electric_scooter", "rental_uris": {"ios": "https://dc.lft.to/lastmile_qr_scan", "android": "https://dc.lft.to/lastmile_qr_scan"}, "lat": 38.89856016666667, "lon": -76.99032566666666, "bike_id": "7203163398820c5ea26cd1e26d301c81", "fusion_lat": 0.0, "is_disabled": 0, "fusion_lon": 0.0}, {"name": "c9926368750978208f03552ed20305a9", "is_reserved": 0, "type": "electric_scooter", "rental_uris": {"ios": "https://dc.lft.to/lastmile_qr_scan", "android": "https://dc.lft.to/lastmile_qr_scan"}, "lat": 38.927930833333335, "lon": -77.05413366666667, "bike_id": "c9926368750978208f03552ed20305a9", "fusion_lat": 0.0, "is_disabled": 0, "fusion_lon": 0.0}, {"name": "092d42066e6f42c15a233bd103c687bc", "is_reserved": 0, "type": "electric_bike", "rental_uris": {"ios": "https://dc.lft.to/lastmile_qr_scan", "android": "https://dc.lft.to/lastmile_qr_scan"}, "lat": 38.895978666666664, "lon": -76.907085, "bike_id": "092d42066e6f42c15a233bd103c687bc", "fusion_lat": 0.0, "is_disabled": 0, "fusion_lon": 0.0}, {"name": "34abdf060a587ccecd8ef102bd96ddec", "is_reserved": 0, "type": "electric_bike", "rental_uris": {"ios": "https://dc.lft.to/lastmile_qr_scan", "android": "https://dc.lft.to/lastmile_qr_scan"}, "lat": 38.922723166666664, "lon": -77.019843, "bike_id": "34abdf060a587ccecd8ef102bd96ddec", "fusion_lat": 0.0, "is_disabled": 0, "fusion_lon": 0.0}, {"name": "890d83e5a8993d1f458c59b8e105bc30", "is_reserved": 0, "type": "electric_scooter", "rental_uris": {"ios": "https://dc.lft.to/lastmile_qr_scan", "android": "https://dc.lft.to/lastmile_qr_scan"}, "lat": 38.9069215, "lon": -77.00996433333333, "bike_id": "890d83e5a8993d1f458c59b8e105bc30", "fusion_lat": 0.0, "is_disabled": 0, "fusion_lon": 0.0}, {"name": "d0c95016464630f60e2ace943e6eadf3", "is_reserved": 0, "type": "electric_scooter", "rental_uris": {"ios": "https://dc.lft.to/lastmile_qr_scan", "android": "https://dc.lft.to/lastmile_qr_scan"}, "lat": 38.95427183333334, "lon": -77.027658, "bike_id": "d0c95016464630f60e2ace943e6eadf3", "fusion_lat": 0.0, "is_disabled": 0, "fusion_lon": 0.0}, {"name": "c395cd68e1e0e0ef36ca7b52f62e5c30", "is_reserved": 0, "type": "electric_scooter", "rental_uris": {"ios": "https://dc.lft.to/lastmile_qr_scan", "android": "https://dc.lft.to/lastmile_qr_scan"}, "lat": 38.91689433333333, "lon": -77.02955183333333, "bike_id": "c395cd68e1e0e0ef36ca7b52f62e5c30", "fusion_lat": 0.0, "is_disabled": 0, "fusion_lon": 0.0}, {"name": "d57ac964afd5c7861c85ffd6f478653b", "is_reserved": 0, "type": "electric_scooter", "rental_uris": {"ios": "https://dc.lft.to/lastmile_qr_scan", "android": "https://dc.lft.to/lastmile_qr_scan"}, "lat": 38.90282166666667, "lon": -76.98193433333333, "bike_id": "d57ac964afd5c7861c85ffd6f478653b", "fusion_lat": 0.0, "is_disabled": 0, "fusion_lon": 0.0}, {"name": "4f8e02d30b83b81f57fe0bb5f065d09c", "is_reserved": 0, "type": "electric_scooter", "rental_uris": {"ios": "https://dc.lft.to/lastmile_qr_scan", "android": "https://dc.lft.to/lastmile_qr_scan"}, "lat": 38.86269083333333, "lon": -76.98692616666666, "bike_id": "4f8e02d30b83b81f57fe0bb5f065d09c", "fusion_lat": 0.0, "is_disabled": 0, "fusion_lon": 0.0}, {"name": "1bfd98d88bb457d14b857d01f4c01535", "is_reserved": 0, "type": "electric_scooter", "rental_uris": {"ios": "https://dc.lft.to/lastmile_qr_scan", "android": "https://dc.lft.to/lastmile_qr_scan"}, "lat": 38.921583, "lon": -77.03315366666666, "bike_id": "1bfd98d88bb457d14b857d01f4c01535", "fusion_lat": 0.0, "is_disabled": 0, "fusion_lon": 0.0}, {"name": "766627061aee117b0c75b7766bcea6d9", "is_reserved": 0, "type": "electric_scooter", "rental_uris": {"ios": "https://dc.lft.to/lastmile_qr_scan", "android": "https://dc.lft.to/lastmile_qr_scan"}, "lat": 38.9234355, "lon": -77.05347616666667, "bike_id": "766627061aee117b0c75b7766bcea6d9", "fusion_lat": 0.0, "is_disabled": 0, "fusion_lon": 0.0}, {"name": "1eacd840d4823177e2cfa2b550d0b31c", "is_reserved": 0, "type": "electric_scooter", "rental_uris": {"ios": "https://dc.lft.to/lastmile_qr_scan", "android": "https://dc.lft.to/lastmile_qr_scan"}, "lat": 38.90128133333333, "lon": -76.99731566666667, "bike_id": "1eacd840d4823177e2cfa2b550d0b31c", "fusion_lat": 0.0, "is_disabled": 0, "fusion_lon": 0.0}, {"name": "5c46a2b0b878530d13bbc307e0d36a0c", "is_reserved": 0, "type": "electric_bike", "rental_uris": {"ios": "https://dc.lft.to/lastmile_qr_scan", "android": "https://dc.lft.to/lastmile_qr_scan"}, "lat": 38.89920266666667, "lon": -77.008876, "bike_id": "5c46a2b0b878530d13bbc307e0d36a0c", "fusion_lat": 0.0, "is_disabled": 0, "fusion_lon": 0.0}, {"name": "a9c22769f1c7464471cb2111c28698db", "is_reserved": 0, "type": "electric_scooter", "rental_uris": {"ios": "https://dc.lft.to/lastmile_qr_scan", "android": "https://dc.lft.to/lastmile_qr_scan"}, "lat": 38.93678583333333, "lon": -77.03286466666667, "bike_id": "a9c22769f1c7464471cb2111c28698db", "fusion_lat": 0.0, "is_disabled": 0, "fusion_lon": 0.0}, {"name": "cded4a8e3ae2245c5e45c66a6df2bda9", "is_reserved": 0, "type": "electric_scooter", "rental_uris": {"ios": "https://dc.lft.to/lastmile_qr_scan", "android": "https://dc.lft.to/lastmile_qr_scan"}, "lat": 38.9002425, "lon": -77.0116525, "bike_id": "cded4a8e3ae2245c5e45c66a6df2bda9", "fusion_lat": 0.0, "is_disabled": 0, "fusion_lon": 0.0}, {"name": "32bc0f593b9a86d981a744488b575c97", "is_reserved": 0, "type": "electric_scooter", "rental_uris": {"ios": "https://dc.lft.to/lastmile_qr_scan", "android": "https://dc.lft.to/lastmile_qr_scan"}, "lat": 38.8872865, "lon": -77.02199533333334, "bike_id": "32bc0f593b9a86d981a744488b575c97", "fusion_lat": 0.0, "is_disabled": 0, "fusion_lon": 0.0}, {"name": "64498774e88588ce5ed627aaaf2a33b5", "is_reserved": 0, "type": "electric_scooter", "rental_uris": {"ios": "https://dc.lft.to/lastmile_qr_scan", "android": "https://dc.lft.to/lastmile_qr_scan"}, "lat": 38.9076005, "lon": -77.06335283333334, "bike_id": "64498774e88588ce5ed627aaaf2a33b5", "fusion_lat": 0.0, "is_disabled": 0, "fusion_lon": 0.0}, {"name": "deb57f13aeedd50c9deb1541ac2ae121", "is_reserved": 0, "type": "electric_scooter", "rental_uris": {"ios": "https://dc.lft.to/lastmile_qr_scan", "android": "https://dc.lft.to/lastmile_qr_scan"}, "lat": 38.9358285, "lon": -77.0274745, "bike_id": "deb57f13aeedd50c9deb1541ac2ae121", "fusion_lat": 0.0, "is_disabled": 0, "fusion_lon": 0.0}, {"name": "baf88d5d1b758ab0baba4074a14f6234", "is_reserved": 0, "type": "electric_scooter", "rental_uris": {"ios": "https://dc.lft.to/lastmile_qr_scan", "android": "https://dc.lft.to/lastmile_qr_scan"}, "lat": 38.91937133333333, "lon": -77.03212433333333, "bike_id": "baf88d5d1b758ab0baba4074a14f6234", "fusion_lat": 0.0, "is_disabled": 0, "fusion_lon": 0.0}, {"name": "1d5ff6a979db96e5d93739cfd2a06387", "is_reserved": 0, "type": "electric_scooter", "rental_uris": {"ios": "https://dc.lft.to/lastmile_qr_scan", "android": "https://dc.lft.to/lastmile_qr_scan"}, "lat": 38.917003, "lon": -77.03778033333333, "bike_id": "1d5ff6a979db96e5d93739cfd2a06387", "fusion_lat": 0.0, "is_disabled": 0, "fusion_lon": 0.0}, {"name": "cde9d98a9e951911dcc140129c31b0d2", "is_reserved": 0, "type": "electric_scooter", "rental_uris": {"ios": "https://dc.lft.to/lastmile_qr_scan", "android": "https://dc.lft.to/lastmile_qr_scan"}, "lat": 38.919161, "lon": -77.03364883333333, "bike_id": "cde9d98a9e951911dcc140129c31b0d2", "fusion_lat": 0.0, "is_disabled": 0, "fusion_lon": 0.0}, {"name": "f5e6d00ce796efd10893e898b4f50a58", "is_reserved": 0, "type": "electric_scooter", "rental_uris": {"ios": "https://dc.lft.to/lastmile_qr_scan", "android": "https://dc.lft.to/lastmile_qr_scan"}, "lat": 38.9386455, "lon": -77.024903, "bike_id": "f5e6d00ce796efd10893e898b4f50a58", "fusion_lat": 0.0, "is_disabled": 0, "fusion_lon": 0.0}, {"name": "7d8f0ca85ad776cda06e59a5fd2c526e", "is_reserved": 0, "type": "electric_scooter", "rental_uris": {"ios": "https://dc.lft.to/lastmile_qr_scan", "android": "https://dc.lft.to/lastmile_qr_scan"}, "lat": 38.942608, "lon": -77.02532616666667, "bike_id": "7d8f0ca85ad776cda06e59a5fd2c526e", "fusion_lat": 0.0, "is_disabled": 0, "fusion_lon": 0.0}, {"name": "57a62f35001bef5dda6641203e9a5d42", "is_reserved": 0, "type": "electric_scooter", "rental_uris": {"ios": "https://dc.lft.to/lastmile_qr_scan", "android": "https://dc.lft.to/lastmile_qr_scan"}, "lat": 38.9079675, "lon": -77.042845, "bike_id": "57a62f35001bef5dda6641203e9a5d42", "fusion_lat": 0.0, "is_disabled": 0, "fusion_lon": 0.0}, {"name": "2588219a19a5bbdbac9f7475d916a3fe", "is_reserved": 0, "type": "electric_scooter", "rental_uris": {"ios": "https://dc.lft.to/lastmile_qr_scan", "android": "https://dc.lft.to/lastmile_qr_scan"}, "lat": 38.918122, "lon": -77.0320405, "bike_id": "2588219a19a5bbdbac9f7475d916a3fe", "fusion_lat": 0.0, "is_disabled": 0, "fusion_lon": 0.0}, {"name": "5c863fbe015ab9d028c2d6cdbae0c37b", "is_reserved": 0, "type": "electric_scooter", "rental_uris": {"ios": "https://dc.lft.to/lastmile_qr_scan", "android": "https://dc.lft.to/lastmile_qr_scan"}, "lat": 38.88085916666667, "lon": -76.98507733333334, "bike_id": "5c863fbe015ab9d028c2d6cdbae0c37b", "fusion_lat": 0.0, "is_disabled": 0, "fusion_lon": 0.0}, {"name": "f962d73feac16bb30f3e780948413e18", "is_reserved": 0, "type": "electric_scooter", "rental_uris": {"ios": "https://dc.lft.to/lastmile_qr_scan", "android": "https://dc.lft.to/lastmile_qr_scan"}, "lat": 38.919717, "lon": -77.048583, "bike_id": "f962d73feac16bb30f3e780948413e18", "fusion_lat": 0.0, "is_disabled": 0, "fusion_lon": 0.0}, {"name": "91cebc341067a916399c6eeff29e4cb6", "is_reserved": 0, "type": "electric_scooter", "rental_uris": {"ios": "https://dc.lft.to/lastmile_qr_scan", "android": "https://dc.lft.to/lastmile_qr_scan"}, "lat": 38.89225, "lon": -77.03990483333334, "bike_id": "91cebc341067a916399c6eeff29e4cb6", "fusion_lat": 0.0, "is_disabled": 0, "fusion_lon": 0.0}, {"name": "1e30bb5612ac53768df61ad0d45fd326", "is_reserved": 0, "type": "electric_scooter", "rental_uris": {"ios": "https://dc.lft.to/lastmile_qr_scan", "android": "https://dc.lft.to/lastmile_qr_scan"}, "lat": 38.86658166666667, "lon": -76.988887, "bike_id": "1e30bb5612ac53768df61ad0d45fd326", "fusion_lat": 0.0, "is_disabled": 0, "fusion_lon": 0.0}, {"name": "e5cae8bc557e1bc0fafa06408e24d4c5", "is_reserved": 0, "type": "electric_scooter", "rental_uris": {"ios": "https://dc.lft.to/lastmile_qr_scan", "android": "https://dc.lft.to/lastmile_qr_scan"}, "lat": 38.893614666666664, "lon": -77.04195033333333, "bike_id": "e5cae8bc557e1bc0fafa06408e24d4c5", "fusion_lat": 0.0, "is_disabled": 0, "fusion_lon": 0.0}, {"name": "6b724a9c2764d0870c312cb86b115c8b", "is_reserved": 0, "type": "electric_scooter", "rental_uris": {"ios": "https://dc.lft.to/lastmile_qr_scan", "android": "https://dc.lft.to/lastmile_qr_scan"}, "lat": 38.900567833333334, "lon": -77.00220166666666, "bike_id": "6b724a9c2764d0870c312cb86b115c8b", "fusion_lat": 0.0, "is_disabled": 0, "fusion_lon": 0.0}, {"name": "413c379f38d2b0db8c2749dcc2b1017c", "is_reserved": 0, "type": "electric_scooter", "rental_uris": {"ios": "https://dc.lft.to/lastmile_qr_scan", "android": "https://dc.lft.to/lastmile_qr_scan"}, "lat": 38.9018695, "lon": -76.9794335, "bike_id": "413c379f38d2b0db8c2749dcc2b1017c", "fusion_lat": 0.0, "is_disabled": 0, "fusion_lon": 0.0}, {"name": "8b5ba45560556e152ce71e9a7461c1b8", "is_reserved": 0, "type": "electric_scooter", "rental_uris": {"ios": "https://dc.lft.to/lastmile_qr_scan", "android": "https://dc.lft.to/lastmile_qr_scan"}, "lat": 38.907700166666665, "lon": -77.05955916666667, "bike_id": "8b5ba45560556e152ce71e9a7461c1b8", "fusion_lat": 0.0, "is_disabled": 0, "fusion_lon": 0.0}, {"name": "2bc3200df8b06e8fd77efb638a212531", "is_reserved": 0, "type": "electric_scooter", "rental_uris": {"ios": "https://dc.lft.to/lastmile_qr_scan", "android": "https://dc.lft.to/lastmile_qr_scan"}, "lat": 38.92469216666667, "lon": -77.027144, "bike_id": "2bc3200df8b06e8fd77efb638a212531", "fusion_lat": 0.0, "is_disabled": 0, "fusion_lon": 0.0}, {"name": "f8fe96199c81aa37dee1d7fc7c18f6fb", "is_reserved": 0, "type": "electric_scooter", "rental_uris": {"ios": "https://dc.lft.to/lastmile_qr_scan", "android": "https://dc.lft.to/lastmile_qr_scan"}, "lat": 38.9124125, "lon": -77.03640583333333, "bike_id": "f8fe96199c81aa37dee1d7fc7c18f6fb", "fusion_lat": 0.0, "is_disabled": 0, "fusion_lon": 0.0}, {"name": "67411d2c55e70233cf52563b768bcacb", "is_reserved": 0, "type": "electric_scooter", "rental_uris": {"ios": "https://dc.lft.to/lastmile_qr_scan", "android": "https://dc.lft.to/lastmile_qr_scan"}, "lat": 38.90970933333333, "lon": -77.02167766666666, "bike_id": "67411d2c55e70233cf52563b768bcacb", "fusion_lat": 0.0, "is_disabled": 0, "fusion_lon": 0.0}, {"name": "979f3aa6545d426130e387224e38c077", "is_reserved": 0, "type": "electric_scooter", "rental_uris": {"ios": "https://dc.lft.to/lastmile_qr_scan", "android": "https://dc.lft.to/lastmile_qr_scan"}, "lat": 38.91866483333333, "lon": -77.0448015, "bike_id": "979f3aa6545d426130e387224e38c077", "fusion_lat": 0.0, "is_disabled": 0, "fusion_lon": 0.0}, {"name": "94355b52dc2f7aa3b5a6ffd8e963f6ad", "is_reserved": 0, "type": "electric_scooter", "rental_uris": {"ios": "https://dc.lft.to/lastmile_qr_scan", "android": "https://dc.lft.to/lastmile_qr_scan"}, "lat": 38.89686583333334, "lon": -77.00495183333334, "bike_id": "94355b52dc2f7aa3b5a6ffd8e963f6ad", "fusion_lat": 0.0, "is_disabled": 0, "fusion_lon": 0.0}, {"name": "90b27fafe5e1cc4ad1a15794b2d3f2a1", "is_reserved": 0, "type": "electric_scooter", "rental_uris": {"ios": "https://dc.lft.to/lastmile_qr_scan", "android": "https://dc.lft.to/lastmile_qr_scan"}, "lat": 38.896827, "lon": -76.936081, "bike_id": "90b27fafe5e1cc4ad1a15794b2d3f2a1", "fusion_lat": 0.0, "is_disabled": 0, "fusion_lon": 0.0}, {"name": "1ef43dc67d828284f0dc73d857c95291", "is_reserved": 0, "type": "electric_scooter", "rental_uris": {"ios": "https://dc.lft.to/lastmile_qr_scan", "android": "https://dc.lft.to/lastmile_qr_scan"}, "lat": 38.876839833333335, "lon": -77.01764616666667, "bike_id": "1ef43dc67d828284f0dc73d857c95291", "fusion_lat": 0.0, "is_disabled": 0, "fusion_lon": 0.0}, {"name": "a5362eba951a82b3f6fbcb1e8f838e62", "is_reserved": 0, "type": "electric_bike", "rental_uris": {"ios": "https://dc.lft.to/lastmile_qr_scan", "android": "https://dc.lft.to/lastmile_qr_scan"}, "lat": 38.8552425, "lon": -77.12027416666666, "bike_id": "a5362eba951a82b3f6fbcb1e8f838e62", "fusion_lat": 0.0, "is_disabled": 0, "fusion_lon": 0.0}, {"name": "74f2b4d6c5aa9fffbd20a3ec1f46205d", "is_reserved": 0, "type": "electric_scooter", "rental_uris": {"ios": "https://dc.lft.to/lastmile_qr_scan", "android": "https://dc.lft.to/lastmile_qr_scan"}, "lat": 38.89343216666666, "lon": -77.001999, "bike_id": "74f2b4d6c5aa9fffbd20a3ec1f46205d", "fusion_lat": 0.0, "is_disabled": 0, "fusion_lon": 0.0}, {"name": "d1e30dc38c809ad316dcbace2744f1ce", "is_reserved": 0, "type": "electric_scooter", "rental_uris": {"ios": "https://dc.lft.to/lastmile_qr_scan", "android": "https://dc.lft.to/lastmile_qr_scan"}, "lat": 38.87104183333334, "lon": -76.96626766666667, "bike_id": "d1e30dc38c809ad316dcbace2744f1ce", "fusion_lat": 0.0, "is_disabled": 0, "fusion_lon": 0.0}, {"name": "e0bd46f13b278dc9f757d4c19b804551", "is_reserved": 0, "type": "electric_scooter", "rental_uris": {"ios": "https://dc.lft.to/lastmile_qr_scan", "android": "https://dc.lft.to/lastmile_qr_scan"}, "lat": 38.90327966666667, "lon": -77.02699766666667, "bike_id": "e0bd46f13b278dc9f757d4c19b804551", "fusion_lat": 0.0, "is_disabled": 0, "fusion_lon": 0.0}, {"name": "d8f1616177702ece8f928ccb5d043004", "is_reserved": 0, "type": "electric_scooter", "rental_uris": {"ios": "https://dc.lft.to/lastmile_qr_scan", "android": "https://dc.lft.to/lastmile_qr_scan"}, "lat": 38.924917666666666, "lon": -77.057577, "bike_id": "d8f1616177702ece8f928ccb5d043004", "fusion_lat": 0.0, "is_disabled": 0, "fusion_lon": 0.0}, {"name": "0b0dd12bab2e2c25e0c40802ad7e6c6e", "is_reserved": 0, "type": "electric_scooter", "rental_uris": {"ios": "https://dc.lft.to/lastmile_qr_scan", "android": "https://dc.lft.to/lastmile_qr_scan"}, "lat": 38.89221633333333, "lon": -77.04333133333333, "bike_id": "0b0dd12bab2e2c25e0c40802ad7e6c6e", "fusion_lat": 0.0, "is_disabled": 0, "fusion_lon": 0.0}, {"name": "b908276c650cac4c408c742af1a001c5", "is_reserved": 0, "type": "electric_scooter", "rental_uris": {"ios": "https://dc.lft.to/lastmile_qr_scan", "android": "https://dc.lft.to/lastmile_qr_scan"}, "lat": 38.898302, "lon": -77.03040416666667, "bike_id": "b908276c650cac4c408c742af1a001c5", "fusion_lat": 0.0, "is_disabled": 0, "fusion_lon": 0.0}, {"name": "6f3a978a1811af9f9042ac8173eb07fb", "is_reserved": 0, "type": "electric_scooter", "rental_uris": {"ios": "https://dc.lft.to/lastmile_qr_scan", "android": "https://dc.lft.to/lastmile_qr_scan"}, "lat": 38.89732883333333, "lon": -77.0245605, "bike_id": "6f3a978a1811af9f9042ac8173eb07fb", "fusion_lat": 0.0, "is_disabled": 0, "fusion_lon": 0.0}, {"name": "770ff324490ffe2db94277f4e5935efc", "is_reserved": 0, "type": "electric_scooter", "rental_uris": {"ios": "https://dc.lft.to/lastmile_qr_scan", "android": "https://dc.lft.to/lastmile_qr_scan"}, "lat": 38.90620783333333, "lon": -77.04327183333334, "bike_id": "770ff324490ffe2db94277f4e5935efc", "fusion_lat": 0.0, "is_disabled": 0, "fusion_lon": 0.0}, {"name": "7f0088ce0cf0f42696d0cdfef33eb05c", "is_reserved": 0, "type": "electric_bike", "rental_uris": {"ios": "https://dc.lft.to/lastmile_qr_scan", "android": "https://dc.lft.to/lastmile_qr_scan"}, "lat": 39.06297416666666, "lon": -77.04982883333334, "bike_id": "7f0088ce0cf0f42696d0cdfef33eb05c", "fusion_lat": 0.0, "is_disabled": 0, "fusion_lon": 0.0}, {"name": "1b9f87d7700506039bec7f351b053cef", "is_reserved": 0, "type": "electric_scooter", "rental_uris": {"ios": "https://dc.lft.to/lastmile_qr_scan", "android": "https://dc.lft.to/lastmile_qr_scan"}, "lat": 38.89672, "lon": -76.942462, "bike_id": "1b9f87d7700506039bec7f351b053cef", "fusion_lat": 0.0, "is_disabled": 0, "fusion_lon": 0.0}, {"name": "6333a8cdade006e9c9943af3072be3a5", "is_reserved": 0, "type": "electric_bike", "rental_uris": {"ios": "https://dc.lft.to/lastmile_qr_scan", "android": "https://dc.lft.to/lastmile_qr_scan"}, "lat": 38.83237116666667, "lon": -76.9462185, "bike_id": "6333a8cdade006e9c9943af3072be3a5", "fusion_lat": 0.0, "is_disabled": 0, "fusion_lon": 0.0}, {"name": "e1f2d18838d6e019fb77f342b415dd92", "is_reserved": 0, "type": "electric_scooter", "rental_uris": {"ios": "https://dc.lft.to/lastmile_qr_scan", "android": "https://dc.lft.to/lastmile_qr_scan"}, "lat": 38.894865, "lon": -77.02184583333333, "bike_id": "e1f2d18838d6e019fb77f342b415dd92", "fusion_lat": 0.0, "is_disabled": 0, "fusion_lon": 0.0}, {"name": "7ae7c88c9758c38cc802c581e656c6ac", "is_reserved": 0, "type": "electric_scooter", "rental_uris": {"ios": "https://dc.lft.to/lastmile_qr_scan", "android": "https://dc.lft.to/lastmile_qr_scan"}, "lat": 38.91695883333333, "lon": -77.02985333333334, "bike_id": "7ae7c88c9758c38cc802c581e656c6ac", "fusion_lat": 0.0, "is_disabled": 0, "fusion_lon": 0.0}, {"name": "3e64be5359d0f4e9a8dced6721eea302", "is_reserved": 0, "type": "electric_scooter", "rental_uris": {"ios": "https://dc.lft.to/lastmile_qr_scan", "android": "https://dc.lft.to/lastmile_qr_scan"}, "lat": 38.9162485, "lon": -77.02285133333334, "bike_id": "3e64be5359d0f4e9a8dced6721eea302", "fusion_lat": 0.0, "is_disabled": 0, "fusion_lon": 0.0}, {"name": "a7300b48ecc7189692dfa1561c078891", "is_reserved": 0, "type": "electric_scooter", "rental_uris": {"ios": "https://dc.lft.to/lastmile_qr_scan", "android": "https://dc.lft.to/lastmile_qr_scan"}, "lat": 38.93301233333333, "lon": -77.0246865, "bike_id": "a7300b48ecc7189692dfa1561c078891", "fusion_lat": 0.0, "is_disabled": 0, "fusion_lon": 0.0}, {"name": "09d2d24d8b0267a27bf66a19ab318f89", "is_reserved": 0, "type": "electric_scooter", "rental_uris": {"ios": "https://dc.lft.to/lastmile_qr_scan", "android": "https://dc.lft.to/lastmile_qr_scan"}, "lat": 38.92804566666667, "lon": -77.0410565, "bike_id": "09d2d24d8b0267a27bf66a19ab318f89", "fusion_lat": 0.0, "is_disabled": 0, "fusion_lon": 0.0}, {"name": "34dba9126816b825847706bfa17c24e1", "is_reserved": 0, "type": "electric_scooter", "rental_uris": {"ios": "https://dc.lft.to/lastmile_qr_scan", "android": "https://dc.lft.to/lastmile_qr_scan"}, "lat": 38.89558983333333, "lon": -77.00911966666666, "bike_id": "34dba9126816b825847706bfa17c24e1", "fusion_lat": 0.0, "is_disabled": 0, "fusion_lon": 0.0}, {"name": "514c0c438e7135eb62a765cc5890c348", "is_reserved": 0, "type": "electric_scooter", "rental_uris": {"ios": "https://dc.lft.to/lastmile_qr_scan", "android": "https://dc.lft.to/lastmile_qr_scan"}, "lat": 38.924168, "lon": -77.02129183333334, "bike_id": "514c0c438e7135eb62a765cc5890c348", "fusion_lat": 0.0, "is_disabled": 0, "fusion_lon": 0.0}, {"name": "6b90ce71447c7aeacc62217a1bb0da6f", "is_reserved": 0, "type": "electric_scooter", "rental_uris": {"ios": "https://dc.lft.to/lastmile_qr_scan", "android": "https://dc.lft.to/lastmile_qr_scan"}, "lat": 38.9279345, "lon": -77.03270933333333, "bike_id": "6b90ce71447c7aeacc62217a1bb0da6f", "fusion_lat": 0.0, "is_disabled": 0, "fusion_lon": 0.0}, {"name": "e0764b123c7c4ca46c07eb69e1ebcb4f", "is_reserved": 0, "type": "electric_scooter", "rental_uris": {"ios": "https://dc.lft.to/lastmile_qr_scan", "android": "https://dc.lft.to/lastmile_qr_scan"}, "lat": 38.89625866666667, "lon": -77.02396516666667, "bike_id": "e0764b123c7c4ca46c07eb69e1ebcb4f", "fusion_lat": 0.0, "is_disabled": 0, "fusion_lon": 0.0}, {"name": "4593cb8b518f0ef9dbd160bf822cbe4f", "is_reserved": 0, "type": "electric_scooter", "rental_uris": {"ios": "https://dc.lft.to/lastmile_qr_scan", "android": "https://dc.lft.to/lastmile_qr_scan"}, "lat": 38.908759333333336, "lon": -77.02352366666666, "bike_id": "4593cb8b518f0ef9dbd160bf822cbe4f", "fusion_lat": 0.0, "is_disabled": 0, "fusion_lon": 0.0}, {"name": "4bb69dc7001252897d4f29af672feff3", "is_reserved": 0, "type": "electric_scooter", "rental_uris": {"ios": "https://dc.lft.to/lastmile_qr_scan", "android": "https://dc.lft.to/lastmile_qr_scan"}, "lat": 38.92634183333333, "lon": -77.03230466666666, "bike_id": "4bb69dc7001252897d4f29af672feff3", "fusion_lat": 0.0, "is_disabled": 0, "fusion_lon": 0.0}, {"name": "40a7c855426faa9ebd489eff6f28d7cd", "is_reserved": 0, "type": "electric_scooter", "rental_uris": {"ios": "https://dc.lft.to/lastmile_qr_scan", "android": "https://dc.lft.to/lastmile_qr_scan"}, "lat": 38.912266333333335, "lon": -77.00216566666667, "bike_id": "40a7c855426faa9ebd489eff6f28d7cd", "fusion_lat": 0.0, "is_disabled": 0, "fusion_lon": 0.0}, {"name": "bb5c493315a0652f8826c8ebf0356285", "is_reserved": 0, "type": "electric_bike", "rental_uris": {"ios": "https://dc.lft.to/lastmile_qr_scan", "android": "https://dc.lft.to/lastmile_qr_scan"}, "lat": 38.8482075, "lon": -77.08457583333333, "bike_id": "bb5c493315a0652f8826c8ebf0356285", "fusion_lat": 0.0, "is_disabled": 0, "fusion_lon": 0.0}, {"name": "d650a7a2551c227fc29b3132b986e561", "is_reserved": 0, "type": "electric_scooter", "rental_uris": {"ios": "https://dc.lft.to/lastmile_qr_scan", "android": "https://dc.lft.to/lastmile_qr_scan"}, "lat": 38.926777333333334, "lon": -77.00768316666667, "bike_id": "d650a7a2551c227fc29b3132b986e561", "fusion_lat": 0.0, "is_disabled": 0, "fusion_lon": 0.0}, {"name": "248e07a19c056a5d3345727c5d8a1952", "is_reserved": 0, "type": "electric_scooter", "rental_uris": {"ios": "https://dc.lft.to/lastmile_qr_scan", "android": "https://dc.lft.to/lastmile_qr_scan"}, "lat": 38.9071555, "lon": -77.0489065, "bike_id": "248e07a19c056a5d3345727c5d8a1952", "fusion_lat": 0.0, "is_disabled": 0, "fusion_lon": 0.0}, {"name": "9a3c9ccddb0717189c85505f639fa500", "is_reserved": 0, "type": "electric_scooter", "rental_uris": {"ios": "https://dc.lft.to/lastmile_qr_scan", "android": "https://dc.lft.to/lastmile_qr_scan"}, "lat": 38.90257883333334, "lon": -77.02681583333333, "bike_id": "9a3c9ccddb0717189c85505f639fa500", "fusion_lat": 0.0, "is_disabled": 0, "fusion_lon": 0.0}, {"name": "2aa5009d3cefda3836fc5d6606bb11d9", "is_reserved": 0, "type": "electric_scooter", "rental_uris": {"ios": "https://dc.lft.to/lastmile_qr_scan", "android": "https://dc.lft.to/lastmile_qr_scan"}, "lat": 38.940903666666664, "lon": -77.02316966666666, "bike_id": "2aa5009d3cefda3836fc5d6606bb11d9", "fusion_lat": 0.0, "is_disabled": 0, "fusion_lon": 0.0}, {"name": "8e3bef096ca30a8d7068128dcc349ed0", "is_reserved": 0, "type": "electric_scooter", "rental_uris": {"ios": "https://dc.lft.to/lastmile_qr_scan", "android": "https://dc.lft.to/lastmile_qr_scan"}, "lat": 38.901679, "lon": -77.02595383333333, "bike_id": "8e3bef096ca30a8d7068128dcc349ed0", "fusion_lat": 0.0, "is_disabled": 0, "fusion_lon": 0.0}, {"name": "2fa8d02fce4b1be434fd515fae966a0b", "is_reserved": 0, "type": "electric_scooter", "rental_uris": {"ios": "https://dc.lft.to/lastmile_qr_scan", "android": "https://dc.lft.to/lastmile_qr_scan"}, "lat": 38.91555566666667, "lon": -77.03173383333333, "bike_id": "2fa8d02fce4b1be434fd515fae966a0b", "fusion_lat": 0.0, "is_disabled": 0, "fusion_lon": 0.0}, {"name": "c7b29799ac80ff4ca10ab9379b52d829", "is_reserved": 0, "type": "electric_scooter", "rental_uris": {"ios": "https://dc.lft.to/lastmile_qr_scan", "android": "https://dc.lft.to/lastmile_qr_scan"}, "lat": 38.907225333333336, "lon": -77.029944, "bike_id": "c7b29799ac80ff4ca10ab9379b52d829", "fusion_lat": 0.0, "is_disabled": 0, "fusion_lon": 0.0}, {"name": "c565f7020e1f1363372f7533ea07b566", "is_reserved": 0, "type": "electric_scooter", "rental_uris": {"ios": "https://dc.lft.to/lastmile_qr_scan", "android": "https://dc.lft.to/lastmile_qr_scan"}, "lat": 38.87931016666667, "lon": -77.01328733333334, "bike_id": "c565f7020e1f1363372f7533ea07b566", "fusion_lat": 0.0, "is_disabled": 0, "fusion_lon": 0.0}, {"name": "0b89cdb3c61b417463a511bd460b6766", "is_reserved": 0, "type": "electric_scooter", "rental_uris": {"ios": "https://dc.lft.to/lastmile_qr_scan", "android": "https://dc.lft.to/lastmile_qr_scan"}, "lat": 38.93755683333333, "lon": -77.0244985, "bike_id": "0b89cdb3c61b417463a511bd460b6766", "fusion_lat": 0.0, "is_disabled": 0, "fusion_lon": 0.0}, {"name": "4c2502249471f284e6a250277f1d8e24", "is_reserved": 0, "type": "electric_scooter", "rental_uris": {"ios": "https://dc.lft.to/lastmile_qr_scan", "android": "https://dc.lft.to/lastmile_qr_scan"}, "lat": 38.919869, "lon": -77.03251416666667, "bike_id": "4c2502249471f284e6a250277f1d8e24", "fusion_lat": 0.0, "is_disabled": 0, "fusion_lon": 0.0}, {"name": "ca91f6388fa61cdb89e26aaf5f7eb68f", "is_reserved": 0, "type": "electric_bike", "rental_uris": {"ios": "https://dc.lft.to/lastmile_qr_scan", "android": "https://dc.lft.to/lastmile_qr_scan"}, "lat": 38.855651333333334, "lon": -77.1071015, "bike_id": "ca91f6388fa61cdb89e26aaf5f7eb68f", "fusion_lat": 0.0, "is_disabled": 0, "fusion_lon": 0.0}, {"name": "53d4e5e26109982429c44e6e87fe0827", "is_reserved": 0, "type": "electric_bike", "rental_uris": {"ios": "https://dc.lft.to/lastmile_qr_scan", "android": "https://dc.lft.to/lastmile_qr_scan"}, "lat": 38.921427333333334, "lon": -77.028394, "bike_id": "53d4e5e26109982429c44e6e87fe0827", "fusion_lat": 0.0, "is_disabled": 0, "fusion_lon": 0.0}, {"name": "e57ee4f34284564c479664ef992da721", "is_reserved": 0, "type": "electric_scooter", "rental_uris": {"ios": "https://dc.lft.to/lastmile_qr_scan", "android": "https://dc.lft.to/lastmile_qr_scan"}, "lat": 38.907776, "lon": -77.0354355, "bike_id": "e57ee4f34284564c479664ef992da721", "fusion_lat": 0.0, "is_disabled": 0, "fusion_lon": 0.0}, {"name": "7e8e9d99904f74fe6c0c1fce17489b86", "is_reserved": 0, "type": "electric_scooter", "rental_uris": {"ios": "https://dc.lft.to/lastmile_qr_scan", "android": "https://dc.lft.to/lastmile_qr_scan"}, "lat": 38.89611683333333, "lon": -77.011519, "bike_id": "7e8e9d99904f74fe6c0c1fce17489b86", "fusion_lat": 0.0, "is_disabled": 0, "fusion_lon": 0.0}, {"name": "8cfc320db819f91d71c2889f9919ee1c", "is_reserved": 0, "type": "electric_scooter", "rental_uris": {"ios": "https://dc.lft.to/lastmile_qr_scan", "android": "https://dc.lft.to/lastmile_qr_scan"}, "lat": 38.92417983333333, "lon": -77.03539433333333, "bike_id": "8cfc320db819f91d71c2889f9919ee1c", "fusion_lat": 0.0, "is_disabled": 0, "fusion_lon": 0.0}, {"name": "ac2e9627f226153f38e73c89df835ba0", "is_reserved": 0, "type": "electric_scooter", "rental_uris": {"ios": "https://dc.lft.to/lastmile_qr_scan", "android": "https://dc.lft.to/lastmile_qr_scan"}, "lat": 38.9118305, "lon": -77.03831416666667, "bike_id": "ac2e9627f226153f38e73c89df835ba0", "fusion_lat": 0.0, "is_disabled": 0, "fusion_lon": 0.0}, {"name": "9eab464c3ede5b59e1f378877cb684f0", "is_reserved": 0, "type": "electric_scooter", "rental_uris": {"ios": "https://dc.lft.to/lastmile_qr_scan", "android": "https://dc.lft.to/lastmile_qr_scan"}, "lat": 38.9214675, "lon": -77.04223316666666, "bike_id": "9eab464c3ede5b59e1f378877cb684f0", "fusion_lat": 0.0, "is_disabled": 0, "fusion_lon": 0.0}, {"name": "b0b9efd6f8f34560843fa102be30da79", "is_reserved": 0, "type": "electric_scooter", "rental_uris": {"ios": "https://dc.lft.to/lastmile_qr_scan", "android": "https://dc.lft.to/lastmile_qr_scan"}, "lat": 38.90038233333333, "lon": -76.992998, "bike_id": "b0b9efd6f8f34560843fa102be30da79", "fusion_lat": 0.0, "is_disabled": 0, "fusion_lon": 0.0}, {"name": "fd1c40892b5e96d454e49e94d102ff64", "is_reserved": 0, "type": "electric_bike", "rental_uris": {"ios": "https://dc.lft.to/lastmile_qr_scan", "android": "https://dc.lft.to/lastmile_qr_scan"}, "lat": 38.88607916666667, "lon": -77.09462233333333, "bike_id": "fd1c40892b5e96d454e49e94d102ff64", "fusion_lat": 0.0, "is_disabled": 0, "fusion_lon": 0.0}, {"name": "01cf9faada96311399e3464b6cf88d74", "is_reserved": 0, "type": "electric_scooter", "rental_uris": {"ios": "https://dc.lft.to/lastmile_qr_scan", "android": "https://dc.lft.to/lastmile_qr_scan"}, "lat": 38.890488833333336, "lon": -76.93756016666667, "bike_id": "01cf9faada96311399e3464b6cf88d74", "fusion_lat": 0.0, "is_disabled": 0, "fusion_lon": 0.0}, {"name": "1ee6cbf047173e1ed9453a2a769404f4", "is_reserved": 0, "type": "electric_scooter", "rental_uris": {"ios": "https://dc.lft.to/lastmile_qr_scan", "android": "https://dc.lft.to/lastmile_qr_scan"}, "lat": 38.876833166666664, "lon": -77.01765616666667, "bike_id": "1ee6cbf047173e1ed9453a2a769404f4", "fusion_lat": 0.0, "is_disabled": 0, "fusion_lon": 0.0}, {"name": "c82eecf2e8e81086c831c072fff8b2b5", "is_reserved": 0, "type": "electric_scooter", "rental_uris": {"ios": "https://dc.lft.to/lastmile_qr_scan", "android": "https://dc.lft.to/lastmile_qr_scan"}, "lat": 38.889873, "lon": -77.00335516666667, "bike_id": "c82eecf2e8e81086c831c072fff8b2b5", "fusion_lat": 0.0, "is_disabled": 0, "fusion_lon": 0.0}, {"name": "950b4ad206adb01e43c16be975eebb2d", "is_reserved": 0, "type": "electric_scooter", "rental_uris": {"ios": "https://dc.lft.to/lastmile_qr_scan", "android": "https://dc.lft.to/lastmile_qr_scan"}, "lat": 38.91582566666666, "lon": -77.04688266666666, "bike_id": "950b4ad206adb01e43c16be975eebb2d", "fusion_lat": 0.0, "is_disabled": 0, "fusion_lon": 0.0}, {"name": "a4b38d0b8b3eedc8855b01d9341a45f6", "is_reserved": 0, "type": "electric_scooter", "rental_uris": {"ios": "https://dc.lft.to/lastmile_qr_scan", "android": "https://dc.lft.to/lastmile_qr_scan"}, "lat": 38.92202183333333, "lon": -77.04711066666667, "bike_id": "a4b38d0b8b3eedc8855b01d9341a45f6", "fusion_lat": 0.0, "is_disabled": 0, "fusion_lon": 0.0}, {"name": "1d42f6464f1ea1959b696d4f608def86", "is_reserved": 0, "type": "electric_scooter", "rental_uris": {"ios": "https://dc.lft.to/lastmile_qr_scan", "android": "https://dc.lft.to/lastmile_qr_scan"}, "lat": 38.90256516666667, "lon": -77.03450716666667, "bike_id": "1d42f6464f1ea1959b696d4f608def86", "fusion_lat": 0.0, "is_disabled": 0, "fusion_lon": 0.0}, {"name": "0eb9696fa355ebdf9ca652181f1cd9cc", "is_reserved": 0, "type": "electric_scooter", "rental_uris": {"ios": "https://dc.lft.to/lastmile_qr_scan", "android": "https://dc.lft.to/lastmile_qr_scan"}, "lat": 38.91565933333333, "lon": -77.03118383333333, "bike_id": "0eb9696fa355ebdf9ca652181f1cd9cc", "fusion_lat": 0.0, "is_disabled": 0, "fusion_lon": 0.0}, {"name": "688b7410382eddf32a506abfb7ee8787", "is_reserved": 0, "type": "electric_scooter", "rental_uris": {"ios": "https://dc.lft.to/lastmile_qr_scan", "android": "https://dc.lft.to/lastmile_qr_scan"}, "lat": 38.89620933333333, "lon": -76.995192, "bike_id": "688b7410382eddf32a506abfb7ee8787", "fusion_lat": 0.0, "is_disabled": 0, "fusion_lon": 0.0}, {"name": "300f61f1a27bf56d693278b376580fd4", "is_reserved": 0, "type": "electric_scooter", "rental_uris": {"ios": "https://dc.lft.to/lastmile_qr_scan", "android": "https://dc.lft.to/lastmile_qr_scan"}, "lat": 38.9050175, "lon": -76.9901305, "bike_id": "300f61f1a27bf56d693278b376580fd4", "fusion_lat": 0.0, "is_disabled": 0, "fusion_lon": 0.0}, {"name": "652c68ea39519dcbb8b6876229f7db4b", "is_reserved": 0, "type": "electric_scooter", "rental_uris": {"ios": "https://dc.lft.to/lastmile_qr_scan", "android": "https://dc.lft.to/lastmile_qr_scan"}, "lat": 38.90100183333333, "lon": -77.05917483333333, "bike_id": "652c68ea39519dcbb8b6876229f7db4b", "fusion_lat": 0.0, "is_disabled": 0, "fusion_lon": 0.0}, {"name": "f7305405549a76e4e74b8ccafff98caf", "is_reserved": 0, "type": "electric_scooter", "rental_uris": {"ios": "https://dc.lft.to/lastmile_qr_scan", "android": "https://dc.lft.to/lastmile_qr_scan"}, "lat": 38.92178216666667, "lon": -77.04704933333333, "bike_id": "f7305405549a76e4e74b8ccafff98caf", "fusion_lat": 0.0, "is_disabled": 0, "fusion_lon": 0.0}, {"name": "c341bb6278b3424fd9c661c986e478fd", "is_reserved": 0, "type": "electric_scooter", "rental_uris": {"ios": "https://dc.lft.to/lastmile_qr_scan", "android": "https://dc.lft.to/lastmile_qr_scan"}, "lat": 38.9304305, "lon": -77.01813866666667, "bike_id": "c341bb6278b3424fd9c661c986e478fd", "fusion_lat": 0.0, "is_disabled": 0, "fusion_lon": 0.0}, {"name": "b4dd7e3c2356f00cd2d40c264f68d68f", "is_reserved": 0, "type": "electric_scooter", "rental_uris": {"ios": "https://dc.lft.to/lastmile_qr_scan", "android": "https://dc.lft.to/lastmile_qr_scan"}, "lat": 38.908508166666664, "lon": -76.99944333333333, "bike_id": "b4dd7e3c2356f00cd2d40c264f68d68f", "fusion_lat": 0.0, "is_disabled": 0, "fusion_lon": 0.0}, {"name": "13f8822efe9265bab00d67ca9583c26e", "is_reserved": 0, "type": "electric_scooter", "rental_uris": {"ios": "https://dc.lft.to/lastmile_qr_scan", "android": "https://dc.lft.to/lastmile_qr_scan"}, "lat": 38.9192615, "lon": -77.013615, "bike_id": "13f8822efe9265bab00d67ca9583c26e", "fusion_lat": 0.0, "is_disabled": 0, "fusion_lon": 0.0}, {"name": "34c4aca9df68ea336d533766479012d0", "is_reserved": 0, "type": "electric_scooter", "rental_uris": {"ios": "https://dc.lft.to/lastmile_qr_scan", "android": "https://dc.lft.to/lastmile_qr_scan"}, "lat": 38.865357333333336, "lon": -76.98970066666666, "bike_id": "34c4aca9df68ea336d533766479012d0", "fusion_lat": 0.0, "is_disabled": 0, "fusion_lon": 0.0}, {"name": "7b7058fcd474dc13bf5ed5539beb2766", "is_reserved": 0, "type": "electric_scooter", "rental_uris": {"ios": "https://dc.lft.to/lastmile_qr_scan", "android": "https://dc.lft.to/lastmile_qr_scan"}, "lat": 38.902798, "lon": -77.034572, "bike_id": "7b7058fcd474dc13bf5ed5539beb2766", "fusion_lat": 0.0, "is_disabled": 0, "fusion_lon": 0.0}, {"name": "02a5239834f4732c76f441796aa9215d", "is_reserved": 0, "type": "electric_scooter", "rental_uris": {"ios": "https://dc.lft.to/lastmile_qr_scan", "android": "https://dc.lft.to/lastmile_qr_scan"}, "lat": 38.870972333333334, "lon": -76.96870133333333, "bike_id": "02a5239834f4732c76f441796aa9215d", "fusion_lat": 0.0, "is_disabled": 0, "fusion_lon": 0.0}, {"name": "ca1ed8e7eb634cc890ae002a48fdca50", "is_reserved": 0, "type": "electric_scooter", "rental_uris": {"ios": "https://dc.lft.to/lastmile_qr_scan", "android": "https://dc.lft.to/lastmile_qr_scan"}, "lat": 38.924714333333334, "lon": -77.027149, "bike_id": "ca1ed8e7eb634cc890ae002a48fdca50", "fusion_lat": 0.0, "is_disabled": 0, "fusion_lon": 0.0}, {"name": "1124e4039f288f4a449ca1d34dd02580", "is_reserved": 0, "type": "electric_bike", "rental_uris": {"ios": "https://dc.lft.to/lastmile_qr_scan", "android": "https://dc.lft.to/lastmile_qr_scan"}, "lat": 38.9587205, "lon": -77.0013585, "bike_id": "1124e4039f288f4a449ca1d34dd02580", "fusion_lat": 0.0, "is_disabled": 0, "fusion_lon": 0.0}, {"name": "1a6dc993e931e71f15765f624decb1a7", "is_reserved": 0, "type": "electric_scooter", "rental_uris": {"ios": "https://dc.lft.to/lastmile_qr_scan", "android": "https://dc.lft.to/lastmile_qr_scan"}, "lat": 38.918705, "lon": -77.038997, "bike_id": "1a6dc993e931e71f15765f624decb1a7", "fusion_lat": 0.0, "is_disabled": 0, "fusion_lon": 0.0}, {"name": "a2d763d1411e555b98d1efe98f7a3d21", "is_reserved": 0, "type": "electric_scooter", "rental_uris": {"ios": "https://dc.lft.to/lastmile_qr_scan", "android": "https://dc.lft.to/lastmile_qr_scan"}, "lat": 38.900045666666664, "lon": -77.0338685, "bike_id": "a2d763d1411e555b98d1efe98f7a3d21", "fusion_lat": 0.0, "is_disabled": 0, "fusion_lon": 0.0}, {"name": "cb3ada697c6ea0f56757c8d441e6d036", "is_reserved": 0, "type": "electric_scooter", "rental_uris": {"ios": "https://dc.lft.to/lastmile_qr_scan", "android": "https://dc.lft.to/lastmile_qr_scan"}, "lat": 38.9003525, "lon": -76.988272, "bike_id": "cb3ada697c6ea0f56757c8d441e6d036", "fusion_lat": 0.0, "is_disabled": 0, "fusion_lon": 0.0}, {"name": "3e5a9e7546c3d99e1b214851316156db", "is_reserved": 0, "type": "electric_scooter", "rental_uris": {"ios": "https://dc.lft.to/lastmile_qr_scan", "android": "https://dc.lft.to/lastmile_qr_scan"}, "lat": 38.9073765, "lon": -77.06353266666666, "bike_id": "3e5a9e7546c3d99e1b214851316156db", "fusion_lat": 0.0, "is_disabled": 0, "fusion_lon": 0.0}, {"name": "8b2f228e3d1fbb692561be8abd55430c", "is_reserved": 0, "type": "electric_scooter", "rental_uris": {"ios": "https://dc.lft.to/lastmile_qr_scan", "android": "https://dc.lft.to/lastmile_qr_scan"}, "lat": 38.904099, "lon": -77.06594466666667, "bike_id": "8b2f228e3d1fbb692561be8abd55430c", "fusion_lat": 0.0, "is_disabled": 0, "fusion_lon": 0.0}, {"name": "bbb1c14290e2f832aa14b95d87e09442", "is_reserved": 0, "type": "electric_scooter", "rental_uris": {"ios": "https://dc.lft.to/lastmile_qr_scan", "android": "https://dc.lft.to/lastmile_qr_scan"}, "lat": 38.91666633333333, "lon": -77.022904, "bike_id": "bbb1c14290e2f832aa14b95d87e09442", "fusion_lat": 0.0, "is_disabled": 0, "fusion_lon": 0.0}, {"name": "4593b05f38538bbe0bd57c39fd67bd31", "is_reserved": 0, "type": "electric_bike", "rental_uris": {"ios": "https://dc.lft.to/lastmile_qr_scan", "android": "https://dc.lft.to/lastmile_qr_scan"}, "lat": 38.99945066666667, "lon": -77.0743235, "bike_id": "4593b05f38538bbe0bd57c39fd67bd31", "fusion_lat": 0.0, "is_disabled": 0, "fusion_lon": 0.0}, {"name": "64fcb42f76fc6ca38feb691fb498c9a6", "is_reserved": 0, "type": "electric_scooter", "rental_uris": {"ios": "https://dc.lft.to/lastmile_qr_scan", "android": "https://dc.lft.to/lastmile_qr_scan"}, "lat": 38.928785833333336, "lon": -77.03288366666666, "bike_id": "64fcb42f76fc6ca38feb691fb498c9a6", "fusion_lat": 0.0, "is_disabled": 0, "fusion_lon": 0.0}, {"name": "180ec5a7309fce933045484cbb9248f5", "is_reserved": 0, "type": "electric_scooter", "rental_uris": {"ios": "https://dc.lft.to/lastmile_qr_scan", "android": "https://dc.lft.to/lastmile_qr_scan"}, "lat": 38.89844466666667, "lon": -77.000632, "bike_id": "180ec5a7309fce933045484cbb9248f5", "fusion_lat": 0.0, "is_disabled": 0, "fusion_lon": 0.0}, {"name": "1880ffae21290b95f279d583798437bf", "is_reserved": 0, "type": "electric_scooter", "rental_uris": {"ios": "https://dc.lft.to/lastmile_qr_scan", "android": "https://dc.lft.to/lastmile_qr_scan"}, "lat": 38.826010333333336, "lon": -77.00765533333333, "bike_id": "1880ffae21290b95f279d583798437bf", "fusion_lat": 0.0, "is_disabled": 0, "fusion_lon": 0.0}, {"name": "98f6172ac6af04d997c2efc1bbc47c00", "is_reserved": 0, "type": "electric_scooter", "rental_uris": {"ios": "https://dc.lft.to/lastmile_qr_scan", "android": "https://dc.lft.to/lastmile_qr_scan"}, "lat": 38.9247135, "lon": -77.05209416666666, "bike_id": "98f6172ac6af04d997c2efc1bbc47c00", "fusion_lat": 0.0, "is_disabled": 0, "fusion_lon": 0.0}, {"name": "be9400ebbac25d1f37695f218652ed77", "is_reserved": 0, "type": "electric_scooter", "rental_uris": {"ios": "https://dc.lft.to/lastmile_qr_scan", "android": "https://dc.lft.to/lastmile_qr_scan"}, "lat": 38.927284666666665, "lon": -77.0244125, "bike_id": "be9400ebbac25d1f37695f218652ed77", "fusion_lat": 0.0, "is_disabled": 0, "fusion_lon": 0.0}, {"name": "5ccbd1e6d2254a4038b34441bb48da85", "is_reserved": 0, "type": "electric_scooter", "rental_uris": {"ios": "https://dc.lft.to/lastmile_qr_scan", "android": "https://dc.lft.to/lastmile_qr_scan"}, "lat": 38.923087833333334, "lon": -77.03524933333334, "bike_id": "5ccbd1e6d2254a4038b34441bb48da85", "fusion_lat": 0.0, "is_disabled": 0, "fusion_lon": 0.0}, {"name": "c0d3010a35ba39b4e379345442250cd9", "is_reserved": 0, "type": "electric_bike", "rental_uris": {"ios": "https://dc.lft.to/lastmile_qr_scan", "android": "https://dc.lft.to/lastmile_qr_scan"}, "lat": 38.85394316666667, "lon": -77.1248455, "bike_id": "c0d3010a35ba39b4e379345442250cd9", "fusion_lat": 0.0, "is_disabled": 0, "fusion_lon": 0.0}, {"name": "88928d923ad252e7284038c4148f831f", "is_reserved": 0, "type": "electric_scooter", "rental_uris": {"ios": "https://dc.lft.to/lastmile_qr_scan", "android": "https://dc.lft.to/lastmile_qr_scan"}, "lat": 38.90863733333333, "lon": -77.02326316666667, "bike_id": "88928d923ad252e7284038c4148f831f", "fusion_lat": 0.0, "is_disabled": 0, "fusion_lon": 0.0}, {"name": "00c6f24567135e1b8f0378dc8e4f43ef", "is_reserved": 0, "type": "electric_scooter", "rental_uris": {"ios": "https://dc.lft.to/lastmile_qr_scan", "android": "https://dc.lft.to/lastmile_qr_scan"}, "lat": 38.86625883333333, "lon": -76.98716183333333, "bike_id": "00c6f24567135e1b8f0378dc8e4f43ef", "fusion_lat": 0.0, "is_disabled": 0, "fusion_lon": 0.0}, {"name": "954763e606243b9796220dad10841b63", "is_reserved": 0, "type": "electric_bike", "rental_uris": {"ios": "https://dc.lft.to/lastmile_qr_scan", "android": "https://dc.lft.to/lastmile_qr_scan"}, "lat": 38.89963266666667, "lon": -76.98677966666666, "bike_id": "954763e606243b9796220dad10841b63", "fusion_lat": 0.0, "is_disabled": 0, "fusion_lon": 0.0}, {"name": "7d016ec603c250fd0176b0be9a3fbbf3", "is_reserved": 0, "type": "electric_scooter", "rental_uris": {"ios": "https://dc.lft.to/lastmile_qr_scan", "android": "https://dc.lft.to/lastmile_qr_scan"}, "lat": 38.91595433333333, "lon": -77.01213566666667, "bike_id": "7d016ec603c250fd0176b0be9a3fbbf3", "fusion_lat": 0.0, "is_disabled": 0, "fusion_lon": 0.0}, {"name": "8671f602e0a85cb4a2b42a2f091503a6", "is_reserved": 0, "type": "electric_scooter", "rental_uris": {"ios": "https://dc.lft.to/lastmile_qr_scan", "android": "https://dc.lft.to/lastmile_qr_scan"}, "lat": 38.87631233333333, "lon": -76.96529633333333, "bike_id": "8671f602e0a85cb4a2b42a2f091503a6", "fusion_lat": 0.0, "is_disabled": 0, "fusion_lon": 0.0}, {"name": "875bef4fb510621a75517cf839b8c9fb", "is_reserved": 0, "type": "electric_scooter", "rental_uris": {"ios": "https://dc.lft.to/lastmile_qr_scan", "android": "https://dc.lft.to/lastmile_qr_scan"}, "lat": 38.9102635, "lon": -77.029585, "bike_id": "875bef4fb510621a75517cf839b8c9fb", "fusion_lat": 0.0, "is_disabled": 0, "fusion_lon": 0.0}, {"name": "c6d52551f9ab6e92f23f804ef7cb8409", "is_reserved": 0, "type": "electric_scooter", "rental_uris": {"ios": "https://dc.lft.to/lastmile_qr_scan", "android": "https://dc.lft.to/lastmile_qr_scan"}, "lat": 38.954278, "lon": -77.02770833333334, "bike_id": "c6d52551f9ab6e92f23f804ef7cb8409", "fusion_lat": 0.0, "is_disabled": 0, "fusion_lon": 0.0}, {"name": "9a96bc3d98faf44afa844b345ae33b64", "is_reserved": 0, "type": "electric_bike", "rental_uris": {"ios": "https://dc.lft.to/lastmile_qr_scan", "android": "https://dc.lft.to/lastmile_qr_scan"}, "lat": 38.96230216666667, "lon": -77.0262135, "bike_id": "9a96bc3d98faf44afa844b345ae33b64", "fusion_lat": 0.0, "is_disabled": 0, "fusion_lon": 0.0}, {"name": "927784fadb5dec3d4047dc9cc6bc4d45", "is_reserved": 0, "type": "electric_scooter", "rental_uris": {"ios": "https://dc.lft.to/lastmile_qr_scan", "android": "https://dc.lft.to/lastmile_qr_scan"}, "lat": 38.905215166666665, "lon": -77.0434755, "bike_id": "927784fadb5dec3d4047dc9cc6bc4d45", "fusion_lat": 0.0, "is_disabled": 0, "fusion_lon": 0.0}, {"name": "7c81248e7a839ec52a8dcaa37b741d8c", "is_reserved": 0, "type": "electric_scooter", "rental_uris": {"ios": "https://dc.lft.to/lastmile_qr_scan", "android": "https://dc.lft.to/lastmile_qr_scan"}, "lat": 38.91425916666667, "lon": -77.04391983333333, "bike_id": "7c81248e7a839ec52a8dcaa37b741d8c", "fusion_lat": 0.0, "is_disabled": 0, "fusion_lon": 0.0}, {"name": "5f763757308383e20c0f756e0281fc6f", "is_reserved": 0, "type": "electric_scooter", "rental_uris": {"ios": "https://dc.lft.to/lastmile_qr_scan", "android": "https://dc.lft.to/lastmile_qr_scan"}, "lat": 38.90539, "lon": -77.06522716666667, "bike_id": "5f763757308383e20c0f756e0281fc6f", "fusion_lat": 0.0, "is_disabled": 0, "fusion_lon": 0.0}, {"name": "68f29000ab2ac2928432411cfb6a6ae8", "is_reserved": 0, "type": "electric_scooter", "rental_uris": {"ios": "https://dc.lft.to/lastmile_qr_scan", "android": "https://dc.lft.to/lastmile_qr_scan"}, "lat": 38.903737, "lon": -77.0316605, "bike_id": "68f29000ab2ac2928432411cfb6a6ae8", "fusion_lat": 0.0, "is_disabled": 0, "fusion_lon": 0.0}, {"name": "7fa5af44cb5025d7eb33b650273cccd2", "is_reserved": 0, "type": "electric_scooter", "rental_uris": {"ios": "https://dc.lft.to/lastmile_qr_scan", "android": "https://dc.lft.to/lastmile_qr_scan"}, "lat": 38.9180975, "lon": -77.034411, "bike_id": "7fa5af44cb5025d7eb33b650273cccd2", "fusion_lat": 0.0, "is_disabled": 0, "fusion_lon": 0.0}, {"name": "7247600c978d241255c032a43601fa45", "is_reserved": 0, "type": "electric_scooter", "rental_uris": {"ios": "https://dc.lft.to/lastmile_qr_scan", "android": "https://dc.lft.to/lastmile_qr_scan"}, "lat": 38.89365083333333, "lon": -77.047927, "bike_id": "7247600c978d241255c032a43601fa45", "fusion_lat": 0.0, "is_disabled": 0, "fusion_lon": 0.0}, {"name": "b8d1d4b5cb42a952d85c49fde33078c3", "is_reserved": 0, "type": "electric_scooter", "rental_uris": {"ios": "https://dc.lft.to/lastmile_qr_scan", "android": "https://dc.lft.to/lastmile_qr_scan"}, "lat": 38.942963666666664, "lon": -77.02170333333333, "bike_id": "b8d1d4b5cb42a952d85c49fde33078c3", "fusion_lat": 0.0, "is_disabled": 0, "fusion_lon": 0.0}, {"name": "ecff72b249cb47402ebd0d6dc60a798f", "is_reserved": 0, "type": "electric_scooter", "rental_uris": {"ios": "https://dc.lft.to/lastmile_qr_scan", "android": "https://dc.lft.to/lastmile_qr_scan"}, "lat": 38.945570333333336, "lon": -77.07143216666667, "bike_id": "ecff72b249cb47402ebd0d6dc60a798f", "fusion_lat": 0.0, "is_disabled": 0, "fusion_lon": 0.0}, {"name": "ca9eec377db36fee5df9a6a5e78140a6", "is_reserved": 0, "type": "electric_scooter", "rental_uris": {"ios": "https://dc.lft.to/lastmile_qr_scan", "android": "https://dc.lft.to/lastmile_qr_scan"}, "lat": 38.93532416666667, "lon": -77.05823083333334, "bike_id": "ca9eec377db36fee5df9a6a5e78140a6", "fusion_lat": 0.0, "is_disabled": 0, "fusion_lon": 0.0}, {"name": "69a6b287baf37293ef78a8747ede5789", "is_reserved": 0, "type": "electric_scooter", "rental_uris": {"ios": "https://dc.lft.to/lastmile_qr_scan", "android": "https://dc.lft.to/lastmile_qr_scan"}, "lat": 38.90025466666667, "lon": -76.99816383333334, "bike_id": "69a6b287baf37293ef78a8747ede5789", "fusion_lat": 0.0, "is_disabled": 0, "fusion_lon": 0.0}, {"name": "19c4946bc7687c56b7417e3d92dce059", "is_reserved": 0, "type": "electric_scooter", "rental_uris": {"ios": "https://dc.lft.to/lastmile_qr_scan", "android": "https://dc.lft.to/lastmile_qr_scan"}, "lat": 38.856975, "lon": -76.98963383333333, "bike_id": "19c4946bc7687c56b7417e3d92dce059", "fusion_lat": 0.0, "is_disabled": 0, "fusion_lon": 0.0}, {"name": "dd706db8592ffea81dc4df7f09479076", "is_reserved": 0, "type": "electric_scooter", "rental_uris": {"ios": "https://dc.lft.to/lastmile_qr_scan", "android": "https://dc.lft.to/lastmile_qr_scan"}, "lat": 38.866274, "lon": -76.98713733333334, "bike_id": "dd706db8592ffea81dc4df7f09479076", "fusion_lat": 0.0, "is_disabled": 0, "fusion_lon": 0.0}, {"name": "a2842770fa1534f8a9ff726f9da444b9", "is_reserved": 0, "type": "electric_scooter", "rental_uris": {"ios": "https://dc.lft.to/lastmile_qr_scan", "android": "https://dc.lft.to/lastmile_qr_scan"}, "lat": 38.90740183333333, "lon": -76.95186016666666, "bike_id": "a2842770fa1534f8a9ff726f9da444b9", "fusion_lat": 0.0, "is_disabled": 0, "fusion_lon": 0.0}, {"name": "a278cd5d7d45d28f8379999350049bfc", "is_reserved": 0, "type": "electric_scooter", "rental_uris": {"ios": "https://dc.lft.to/lastmile_qr_scan", "android": "https://dc.lft.to/lastmile_qr_scan"}, "lat": 38.90649066666667, "lon": -76.98376716666667, "bike_id": "a278cd5d7d45d28f8379999350049bfc", "fusion_lat": 0.0, "is_disabled": 0, "fusion_lon": 0.0}, {"name": "59f1af77784d4f0710404473f32daa77", "is_reserved": 0, "type": "electric_scooter", "rental_uris": {"ios": "https://dc.lft.to/lastmile_qr_scan", "android": "https://dc.lft.to/lastmile_qr_scan"}, "lat": 38.90768833333333, "lon": -77.003933, "bike_id": "59f1af77784d4f0710404473f32daa77", "fusion_lat": 0.0, "is_disabled": 0, "fusion_lon": 0.0}, {"name": "ad74860f697aa25c50b855f0b15a2fff", "is_reserved": 0, "type": "electric_scooter", "rental_uris": {"ios": "https://dc.lft.to/lastmile_qr_scan", "android": "https://dc.lft.to/lastmile_qr_scan"}, "lat": 38.907939, "lon": -77.03208416666666, "bike_id": "ad74860f697aa25c50b855f0b15a2fff", "fusion_lat": 0.0, "is_disabled": 0, "fusion_lon": 0.0}, {"name": "fc15115431f9f25b2e8b0b13626ad6a2", "is_reserved": 0, "type": "electric_scooter", "rental_uris": {"ios": "https://dc.lft.to/lastmile_qr_scan", "android": "https://dc.lft.to/lastmile_qr_scan"}, "lat": 38.88622266666667, "lon": -76.99620366666667, "bike_id": "fc15115431f9f25b2e8b0b13626ad6a2", "fusion_lat": 0.0, "is_disabled": 0, "fusion_lon": 0.0}, {"name": "b124f7d5ee24b76ba82856a4aa309fab", "is_reserved": 0, "type": "electric_bike", "rental_uris": {"ios": "https://dc.lft.to/lastmile_qr_scan", "android": "https://dc.lft.to/lastmile_qr_scan"}, "lat": 38.9078225, "lon": -77.07157616666667, "bike_id": "b124f7d5ee24b76ba82856a4aa309fab", "fusion_lat": 0.0, "is_disabled": 0, "fusion_lon": 0.0}, {"name": "a649b35d5c688f86b3a107317b60619d", "is_reserved": 0, "type": "electric_scooter", "rental_uris": {"ios": "https://dc.lft.to/lastmile_qr_scan", "android": "https://dc.lft.to/lastmile_qr_scan"}, "lat": 38.88700566666667, "lon": -77.00344466666667, "bike_id": "a649b35d5c688f86b3a107317b60619d", "fusion_lat": 0.0, "is_disabled": 0, "fusion_lon": 0.0}, {"name": "b51b51ca81044132493951351dfd45c8", "is_reserved": 0, "type": "electric_scooter", "rental_uris": {"ios": "https://dc.lft.to/lastmile_qr_scan", "android": "https://dc.lft.to/lastmile_qr_scan"}, "lat": 38.876524, "lon": -77.00469016666666, "bike_id": "b51b51ca81044132493951351dfd45c8", "fusion_lat": 0.0, "is_disabled": 0, "fusion_lon": 0.0}, {"name": "4c9a8c3bb0d73cb7c5afdac0a15e8f06", "is_reserved": 0, "type": "electric_scooter", "rental_uris": {"ios": "https://dc.lft.to/lastmile_qr_scan", "android": "https://dc.lft.to/lastmile_qr_scan"}, "lat": 38.9041185, "lon": -76.973318, "bike_id": "4c9a8c3bb0d73cb7c5afdac0a15e8f06", "fusion_lat": 0.0, "is_disabled": 0, "fusion_lon": 0.0}, {"name": "0ebc447c49fb6fe06b4906a9877616bf", "is_reserved": 0, "type": "electric_scooter", "rental_uris": {"ios": "https://dc.lft.to/lastmile_qr_scan", "android": "https://dc.lft.to/lastmile_qr_scan"}, "lat": 38.920010833333336, "lon": -77.03219416666667, "bike_id": "0ebc447c49fb6fe06b4906a9877616bf", "fusion_lat": 0.0, "is_disabled": 0, "fusion_lon": 0.0}, {"name": "5921668c306cfd8dce5e18ab9d6faf7b", "is_reserved": 0, "type": "electric_scooter", "rental_uris": {"ios": "https://dc.lft.to/lastmile_qr_scan", "android": "https://dc.lft.to/lastmile_qr_scan"}, "lat": 38.900094833333334, "lon": -77.00038866666667, "bike_id": "5921668c306cfd8dce5e18ab9d6faf7b", "fusion_lat": 0.0, "is_disabled": 0, "fusion_lon": 0.0}, {"name": "e4f81463e190afadafb5b96d0fa4f116", "is_reserved": 0, "type": "electric_scooter", "rental_uris": {"ios": "https://dc.lft.to/lastmile_qr_scan", "android": "https://dc.lft.to/lastmile_qr_scan"}, "lat": 38.894912166666664, "lon": -77.002976, "bike_id": "e4f81463e190afadafb5b96d0fa4f116", "fusion_lat": 0.0, "is_disabled": 0, "fusion_lon": 0.0}, {"name": "f15018adb826d2e8ada822740a69f7cf", "is_reserved": 0, "type": "electric_scooter", "rental_uris": {"ios": "https://dc.lft.to/lastmile_qr_scan", "android": "https://dc.lft.to/lastmile_qr_scan"}, "lat": 38.89227, "lon": -77.04336316666667, "bike_id": "f15018adb826d2e8ada822740a69f7cf", "fusion_lat": 0.0, "is_disabled": 0, "fusion_lon": 0.0}, {"name": "afbc0e44d18fa46462535bd8a018f71f", "is_reserved": 0, "type": "electric_scooter", "rental_uris": {"ios": "https://dc.lft.to/lastmile_qr_scan", "android": "https://dc.lft.to/lastmile_qr_scan"}, "lat": 38.9167455, "lon": -77.0271945, "bike_id": "afbc0e44d18fa46462535bd8a018f71f", "fusion_lat": 0.0, "is_disabled": 0, "fusion_lon": 0.0}, {"name": "5ccdf2ccf69167684912bb09f5264632", "is_reserved": 0, "type": "electric_scooter", "rental_uris": {"ios": "https://dc.lft.to/lastmile_qr_scan", "android": "https://dc.lft.to/lastmile_qr_scan"}, "lat": 38.92146533333333, "lon": -77.03451133333333, "bike_id": "5ccdf2ccf69167684912bb09f5264632", "fusion_lat": 0.0, "is_disabled": 0, "fusion_lon": 0.0}, {"name": "08fa77adcb101d3eb886c2d9e66052da", "is_reserved": 0, "type": "electric_scooter", "rental_uris": {"ios": "https://dc.lft.to/lastmile_qr_scan", "android": "https://dc.lft.to/lastmile_qr_scan"}, "lat": 38.897347, "lon": -77.00376666666666, "bike_id": "08fa77adcb101d3eb886c2d9e66052da", "fusion_lat": 0.0, "is_disabled": 0, "fusion_lon": 0.0}, {"name": "5cc4ab593f69ef7f1a34c1f726d68209", "is_reserved": 0, "type": "electric_scooter", "rental_uris": {"ios": "https://dc.lft.to/lastmile_qr_scan", "android": "https://dc.lft.to/lastmile_qr_scan"}, "lat": 38.9434245, "lon": -77.0630435, "bike_id": "5cc4ab593f69ef7f1a34c1f726d68209", "fusion_lat": 0.0, "is_disabled": 0, "fusion_lon": 0.0}, {"name": "e878f970876821166dce25737ce80d75", "is_reserved": 0, "type": "electric_scooter", "rental_uris": {"ios": "https://dc.lft.to/lastmile_qr_scan", "android": "https://dc.lft.to/lastmile_qr_scan"}, "lat": 38.93608666666667, "lon": -77.036536, "bike_id": "e878f970876821166dce25737ce80d75", "fusion_lat": 0.0, "is_disabled": 0, "fusion_lon": 0.0}, {"name": "6efa9ae6e6b03a98e0ae639a9577d15f", "is_reserved": 0, "type": "electric_scooter", "rental_uris": {"ios": "https://dc.lft.to/lastmile_qr_scan", "android": "https://dc.lft.to/lastmile_qr_scan"}, "lat": 38.909797166666664, "lon": -77.02312583333334, "bike_id": "6efa9ae6e6b03a98e0ae639a9577d15f", "fusion_lat": 0.0, "is_disabled": 0, "fusion_lon": 0.0}, {"name": "ff8b0d77f3be8f25d0d7943e41efebdd", "is_reserved": 0, "type": "electric_scooter", "rental_uris": {"ios": "https://dc.lft.to/lastmile_qr_scan", "android": "https://dc.lft.to/lastmile_qr_scan"}, "lat": 38.895465333333334, "lon": -77.00205983333333, "bike_id": "ff8b0d77f3be8f25d0d7943e41efebdd", "fusion_lat": 0.0, "is_disabled": 0, "fusion_lon": 0.0}, {"name": "040733270e614ea40d0aab4ed59fe6eb", "is_reserved": 0, "type": "electric_scooter", "rental_uris": {"ios": "https://dc.lft.to/lastmile_qr_scan", "android": "https://dc.lft.to/lastmile_qr_scan"}, "lat": 38.9170655, "lon": -77.03718566666667, "bike_id": "040733270e614ea40d0aab4ed59fe6eb", "fusion_lat": 0.0, "is_disabled": 0, "fusion_lon": 0.0}, {"name": "17bc9f713092abfcaa165c640cb397d5", "is_reserved": 0, "type": "electric_scooter", "rental_uris": {"ios": "https://dc.lft.to/lastmile_qr_scan", "android": "https://dc.lft.to/lastmile_qr_scan"}, "lat": 38.92875133333333, "lon": -77.0331605, "bike_id": "17bc9f713092abfcaa165c640cb397d5", "fusion_lat": 0.0, "is_disabled": 0, "fusion_lon": 0.0}, {"name": "8cdbfa0a6be6ce22f05ac356472c8b1e", "is_reserved": 0, "type": "electric_scooter", "rental_uris": {"ios": "https://dc.lft.to/lastmile_qr_scan", "android": "https://dc.lft.to/lastmile_qr_scan"}, "lat": 38.88962466666667, "lon": -76.93723383333334, "bike_id": "8cdbfa0a6be6ce22f05ac356472c8b1e", "fusion_lat": 0.0, "is_disabled": 0, "fusion_lon": 0.0}, {"name": "116fe9fba923db1e8c94ebf18010264f", "is_reserved": 0, "type": "electric_bike", "rental_uris": {"ios": "https://dc.lft.to/lastmile_qr_scan", "android": "https://dc.lft.to/lastmile_qr_scan"}, "lat": 38.95162766666667, "lon": -76.96925833333333, "bike_id": "116fe9fba923db1e8c94ebf18010264f", "fusion_lat": 0.0, "is_disabled": 0, "fusion_lon": 0.0}, {"name": "9187f55b79e2fee6ca3be6692f4ea6db", "is_reserved": 0, "type": "electric_scooter", "rental_uris": {"ios": "https://dc.lft.to/lastmile_qr_scan", "android": "https://dc.lft.to/lastmile_qr_scan"}, "lat": 38.9003055, "lon": -76.9983175, "bike_id": "9187f55b79e2fee6ca3be6692f4ea6db", "fusion_lat": 0.0, "is_disabled": 0, "fusion_lon": 0.0}, {"name": "fb075d44f3babce8e18347013d7ffdd1", "is_reserved": 0, "type": "electric_scooter", "rental_uris": {"ios": "https://dc.lft.to/lastmile_qr_scan", "android": "https://dc.lft.to/lastmile_qr_scan"}, "lat": 38.876591, "lon": -77.00438833333334, "bike_id": "fb075d44f3babce8e18347013d7ffdd1", "fusion_lat": 0.0, "is_disabled": 0, "fusion_lon": 0.0}, {"name": "c5acacf5d218a78b89285a1a863ed51e", "is_reserved": 0, "type": "electric_scooter", "rental_uris": {"ios": "https://dc.lft.to/lastmile_qr_scan", "android": "https://dc.lft.to/lastmile_qr_scan"}, "lat": 38.911364, "lon": -77.02695766666666, "bike_id": "c5acacf5d218a78b89285a1a863ed51e", "fusion_lat": 0.0, "is_disabled": 0, "fusion_lon": 0.0}, {"name": "332ff82e6662b2d150922e6d0d1052ec", "is_reserved": 0, "type": "electric_scooter", "rental_uris": {"ios": "https://dc.lft.to/lastmile_qr_scan", "android": "https://dc.lft.to/lastmile_qr_scan"}, "lat": 38.90242116666667, "lon": -77.04708983333333, "bike_id": "332ff82e6662b2d150922e6d0d1052ec", "fusion_lat": 0.0, "is_disabled": 0, "fusion_lon": 0.0}, {"name": "3cc9440ecda5b511775c1cdf1bed775f", "is_reserved": 0, "type": "electric_bike", "rental_uris": {"ios": "https://dc.lft.to/lastmile_qr_scan", "android": "https://dc.lft.to/lastmile_qr_scan"}, "lat": 38.85761316666667, "lon": -76.9875295, "bike_id": "3cc9440ecda5b511775c1cdf1bed775f", "fusion_lat": 0.0, "is_disabled": 0, "fusion_lon": 0.0}, {"name": "4c65184b7b05f011196968048a80adef", "is_reserved": 0, "type": "electric_scooter", "rental_uris": {"ios": "https://dc.lft.to/lastmile_qr_scan", "android": "https://dc.lft.to/lastmile_qr_scan"}, "lat": 38.921396, "lon": -77.0447365, "bike_id": "4c65184b7b05f011196968048a80adef", "fusion_lat": 0.0, "is_disabled": 0, "fusion_lon": 0.0}, {"name": "492fc49be707b766f7787787ef22007c", "is_reserved": 0, "type": "electric_scooter", "rental_uris": {"ios": "https://dc.lft.to/lastmile_qr_scan", "android": "https://dc.lft.to/lastmile_qr_scan"}, "lat": 38.92075166666667, "lon": -77.00445033333334, "bike_id": "492fc49be707b766f7787787ef22007c", "fusion_lat": 0.0, "is_disabled": 0, "fusion_lon": 0.0}, {"name": "74a2063a8b145cd6f2511f9486071645", "is_reserved": 0, "type": "electric_scooter", "rental_uris": {"ios": "https://dc.lft.to/lastmile_qr_scan", "android": "https://dc.lft.to/lastmile_qr_scan"}, "lat": 38.93156066666667, "lon": -77.039557, "bike_id": "74a2063a8b145cd6f2511f9486071645", "fusion_lat": 0.0, "is_disabled": 0, "fusion_lon": 0.0}, {"name": "06497caa061c6b5cb9ab86e4c21b64f5", "is_reserved": 0, "type": "electric_scooter", "rental_uris": {"ios": "https://dc.lft.to/lastmile_qr_scan", "android": "https://dc.lft.to/lastmile_qr_scan"}, "lat": 38.90116233333333, "lon": -77.02189283333334, "bike_id": "06497caa061c6b5cb9ab86e4c21b64f5", "fusion_lat": 0.0, "is_disabled": 0, "fusion_lon": 0.0}, {"name": "a18c40a444b8e39ea25b16cb52716bf9", "is_reserved": 0, "type": "electric_scooter", "rental_uris": {"ios": "https://dc.lft.to/lastmile_qr_scan", "android": "https://dc.lft.to/lastmile_qr_scan"}, "lat": 38.886187, "lon": -77.01588066666666, "bike_id": "a18c40a444b8e39ea25b16cb52716bf9", "fusion_lat": 0.0, "is_disabled": 0, "fusion_lon": 0.0}, {"name": "f74d749cf2fc88af450459682222add2", "is_reserved": 0, "type": "electric_scooter", "rental_uris": {"ios": "https://dc.lft.to/lastmile_qr_scan", "android": "https://dc.lft.to/lastmile_qr_scan"}, "lat": 38.898362, "lon": -77.031737, "bike_id": "f74d749cf2fc88af450459682222add2", "fusion_lat": 0.0, "is_disabled": 0, "fusion_lon": 0.0}, {"name": "483464cd5f5e9b2f1e0b1b7d51aefe6f", "is_reserved": 0, "type": "electric_scooter", "rental_uris": {"ios": "https://dc.lft.to/lastmile_qr_scan", "android": "https://dc.lft.to/lastmile_qr_scan"}, "lat": 38.9248775, "lon": -77.03492416666667, "bike_id": "483464cd5f5e9b2f1e0b1b7d51aefe6f", "fusion_lat": 0.0, "is_disabled": 0, "fusion_lon": 0.0}, {"name": "b9d9b7df5123f14d7035cea8e851afb7", "is_reserved": 0, "type": "electric_scooter", "rental_uris": {"ios": "https://dc.lft.to/lastmile_qr_scan", "android": "https://dc.lft.to/lastmile_qr_scan"}, "lat": 38.88426883333333, "lon": -76.99697016666667, "bike_id": "b9d9b7df5123f14d7035cea8e851afb7", "fusion_lat": 0.0, "is_disabled": 0, "fusion_lon": 0.0}, {"name": "cd55687d6e561999fa18e5786dd58567", "is_reserved": 0, "type": "electric_scooter", "rental_uris": {"ios": "https://dc.lft.to/lastmile_qr_scan", "android": "https://dc.lft.to/lastmile_qr_scan"}, "lat": 38.903702, "lon": -77.04469016666667, "bike_id": "cd55687d6e561999fa18e5786dd58567", "fusion_lat": 0.0, "is_disabled": 0, "fusion_lon": 0.0}, {"name": "566707dc8378f6454d1e1c203d746c65", "is_reserved": 0, "type": "electric_scooter", "rental_uris": {"ios": "https://dc.lft.to/lastmile_qr_scan", "android": "https://dc.lft.to/lastmile_qr_scan"}, "lat": 38.88649216666666, "lon": -76.98228666666667, "bike_id": "566707dc8378f6454d1e1c203d746c65", "fusion_lat": 0.0, "is_disabled": 0, "fusion_lon": 0.0}, {"name": "84ee5bddbcb52df3743a0b98ecccf729", "is_reserved": 0, "type": "electric_scooter", "rental_uris": {"ios": "https://dc.lft.to/lastmile_qr_scan", "android": "https://dc.lft.to/lastmile_qr_scan"}, "lat": 38.921499833333336, "lon": -77.038646, "bike_id": "84ee5bddbcb52df3743a0b98ecccf729", "fusion_lat": 0.0, "is_disabled": 0, "fusion_lon": 0.0}, {"name": "d4858fc15237114146cce547f5710ce1", "is_reserved": 0, "type": "electric_scooter", "rental_uris": {"ios": "https://dc.lft.to/lastmile_qr_scan", "android": "https://dc.lft.to/lastmile_qr_scan"}, "lat": 38.86594933333333, "lon": -76.97309683333333, "bike_id": "d4858fc15237114146cce547f5710ce1", "fusion_lat": 0.0, "is_disabled": 0, "fusion_lon": 0.0}, {"name": "b203494b674bef56ba95723f1d647634", "is_reserved": 0, "type": "electric_scooter", "rental_uris": {"ios": "https://dc.lft.to/lastmile_qr_scan", "android": "https://dc.lft.to/lastmile_qr_scan"}, "lat": 38.91934583333333, "lon": -77.02426583333333, "bike_id": "b203494b674bef56ba95723f1d647634", "fusion_lat": 0.0, "is_disabled": 0, "fusion_lon": 0.0}, {"name": "0f3b0c418349982ab5e6e893ed7bfe0c", "is_reserved": 0, "type": "electric_scooter", "rental_uris": {"ios": "https://dc.lft.to/lastmile_qr_scan", "android": "https://dc.lft.to/lastmile_qr_scan"}, "lat": 38.9058735, "lon": -77.033477, "bike_id": "0f3b0c418349982ab5e6e893ed7bfe0c", "fusion_lat": 0.0, "is_disabled": 0, "fusion_lon": 0.0}, {"name": "84d4e257b002c14fb47f96b136444096", "is_reserved": 0, "type": "electric_scooter", "rental_uris": {"ios": "https://dc.lft.to/lastmile_qr_scan", "android": "https://dc.lft.to/lastmile_qr_scan"}, "lat": 38.91692033333333, "lon": -77.03777016666666, "bike_id": "84d4e257b002c14fb47f96b136444096", "fusion_lat": 0.0, "is_disabled": 0, "fusion_lon": 0.0}, {"name": "f1dc638619f6d86ebe229d8d77e6a23c", "is_reserved": 0, "type": "electric_scooter", "rental_uris": {"ios": "https://dc.lft.to/lastmile_qr_scan", "android": "https://dc.lft.to/lastmile_qr_scan"}, "lat": 38.917102666666665, "lon": -77.03509666666666, "bike_id": "f1dc638619f6d86ebe229d8d77e6a23c", "fusion_lat": 0.0, "is_disabled": 0, "fusion_lon": 0.0}, {"name": "c20339f823d1dc3b20123099647b574c", "is_reserved": 0, "type": "electric_bike", "rental_uris": {"ios": "https://dc.lft.to/lastmile_qr_scan", "android": "https://dc.lft.to/lastmile_qr_scan"}, "lat": 39.023983333333334, "lon": -77.04688916666667, "bike_id": "c20339f823d1dc3b20123099647b574c", "fusion_lat": 0.0, "is_disabled": 0, "fusion_lon": 0.0}, {"name": "e56d99427ca89f9d716873229d907a34", "is_reserved": 0, "type": "electric_scooter", "rental_uris": {"ios": "https://dc.lft.to/lastmile_qr_scan", "android": "https://dc.lft.to/lastmile_qr_scan"}, "lat": 38.9083085, "lon": -77.02195516666667, "bike_id": "e56d99427ca89f9d716873229d907a34", "fusion_lat": 0.0, "is_disabled": 0, "fusion_lon": 0.0}, {"name": "65850ab48555520435add48adc0039fe", "is_reserved": 0, "type": "electric_scooter", "rental_uris": {"ios": "https://dc.lft.to/lastmile_qr_scan", "android": "https://dc.lft.to/lastmile_qr_scan"}, "lat": 38.91630883333333, "lon": -77.04180383333333, "bike_id": "65850ab48555520435add48adc0039fe", "fusion_lat": 0.0, "is_disabled": 0, "fusion_lon": 0.0}, {"name": "80ec13de40f76055bb38eb70fd898574", "is_reserved": 0, "type": "electric_scooter", "rental_uris": {"ios": "https://dc.lft.to/lastmile_qr_scan", "android": "https://dc.lft.to/lastmile_qr_scan"}, "lat": 38.900241333333334, "lon": -76.99759916666666, "bike_id": "80ec13de40f76055bb38eb70fd898574", "fusion_lat": 0.0, "is_disabled": 0, "fusion_lon": 0.0}, {"name": "af359c96570ea2656e7065c34d2f818c", "is_reserved": 0, "type": "electric_bike", "rental_uris": {"ios": "https://dc.lft.to/lastmile_qr_scan", "android": "https://dc.lft.to/lastmile_qr_scan"}, "lat": 38.893569666666664, "lon": -77.18744933333333, "bike_id": "af359c96570ea2656e7065c34d2f818c", "fusion_lat": 0.0, "is_disabled": 0, "fusion_lon": 0.0}, {"name": "41ae030be035b17845a2f16f002ab695", "is_reserved": 0, "type": "electric_scooter", "rental_uris": {"ios": "https://dc.lft.to/lastmile_qr_scan", "android": "https://dc.lft.to/lastmile_qr_scan"}, "lat": 38.924712, "lon": -77.03830233333333, "bike_id": "41ae030be035b17845a2f16f002ab695", "fusion_lat": 0.0, "is_disabled": 0, "fusion_lon": 0.0}, {"name": "16e765fcf183156aef31bbbce3e5e566", "is_reserved": 0, "type": "electric_scooter", "rental_uris": {"ios": "https://dc.lft.to/lastmile_qr_scan", "android": "https://dc.lft.to/lastmile_qr_scan"}, "lat": 38.919164, "lon": -77.03161316666667, "bike_id": "16e765fcf183156aef31bbbce3e5e566", "fusion_lat": 0.0, "is_disabled": 0, "fusion_lon": 0.0}, {"name": "ec05fc1a75a666b4c95f658017588a24", "is_reserved": 0, "type": "electric_scooter", "rental_uris": {"ios": "https://dc.lft.to/lastmile_qr_scan", "android": "https://dc.lft.to/lastmile_qr_scan"}, "lat": 38.87087983333333, "lon": -77.01215866666666, "bike_id": "ec05fc1a75a666b4c95f658017588a24", "fusion_lat": 0.0, "is_disabled": 0, "fusion_lon": 0.0}, {"name": "d5c6ed48bc7f21d5c807f2076ed9f7eb", "is_reserved": 0, "type": "electric_scooter", "rental_uris": {"ios": "https://dc.lft.to/lastmile_qr_scan", "android": "https://dc.lft.to/lastmile_qr_scan"}, "lat": 38.94299383333333, "lon": -77.0589935, "bike_id": "d5c6ed48bc7f21d5c807f2076ed9f7eb", "fusion_lat": 0.0, "is_disabled": 0, "fusion_lon": 0.0}, {"name": "c9527a89d19af93de6f9963292e1d913", "is_reserved": 0, "type": "electric_scooter", "rental_uris": {"ios": "https://dc.lft.to/lastmile_qr_scan", "android": "https://dc.lft.to/lastmile_qr_scan"}, "lat": 38.892247, "lon": -77.043655, "bike_id": "c9527a89d19af93de6f9963292e1d913", "fusion_lat": 0.0, "is_disabled": 0, "fusion_lon": 0.0}, {"name": "dc16db57db857891c1f3d7c9eb771b96", "is_reserved": 0, "type": "electric_scooter", "rental_uris": {"ios": "https://dc.lft.to/lastmile_qr_scan", "android": "https://dc.lft.to/lastmile_qr_scan"}, "lat": 38.92360516666667, "lon": -77.05241216666667, "bike_id": "dc16db57db857891c1f3d7c9eb771b96", "fusion_lat": 0.0, "is_disabled": 0, "fusion_lon": 0.0}, {"name": "83c7dc6f5411554fe9d69cbd269d10c6", "is_reserved": 0, "type": "electric_scooter", "rental_uris": {"ios": "https://dc.lft.to/lastmile_qr_scan", "android": "https://dc.lft.to/lastmile_qr_scan"}, "lat": 38.96500016666667, "lon": -77.062885, "bike_id": "83c7dc6f5411554fe9d69cbd269d10c6", "fusion_lat": 0.0, "is_disabled": 0, "fusion_lon": 0.0}, {"name": "2e668e5cc65567d60b9a1ec71dc56095", "is_reserved": 0, "type": "electric_scooter", "rental_uris": {"ios": "https://dc.lft.to/lastmile_qr_scan", "android": "https://dc.lft.to/lastmile_qr_scan"}, "lat": 38.93481333333333, "lon": -77.07270633333333, "bike_id": "2e668e5cc65567d60b9a1ec71dc56095", "fusion_lat": 0.0, "is_disabled": 0, "fusion_lon": 0.0}, {"name": "748844dee01da8f5b6159f72d7d32e0d", "is_reserved": 0, "type": "electric_scooter", "rental_uris": {"ios": "https://dc.lft.to/lastmile_qr_scan", "android": "https://dc.lft.to/lastmile_qr_scan"}, "lat": 38.917057166666666, "lon": -77.0327595, "bike_id": "748844dee01da8f5b6159f72d7d32e0d", "fusion_lat": 0.0, "is_disabled": 0, "fusion_lon": 0.0}, {"name": "dc59ead4dcbbd1423b3fab13f8a8d5a9", "is_reserved": 0, "type": "electric_scooter", "rental_uris": {"ios": "https://dc.lft.to/lastmile_qr_scan", "android": "https://dc.lft.to/lastmile_qr_scan"}, "lat": 38.91458333333333, "lon": -77.04158166666667, "bike_id": "dc59ead4dcbbd1423b3fab13f8a8d5a9", "fusion_lat": 0.0, "is_disabled": 0, "fusion_lon": 0.0}, {"name": "fd6e0f80072b4ef386153d3d00c78347", "is_reserved": 0, "type": "electric_scooter", "rental_uris": {"ios": "https://dc.lft.to/lastmile_qr_scan", "android": "https://dc.lft.to/lastmile_qr_scan"}, "lat": 38.912720666666665, "lon": -77.03461, "bike_id": "fd6e0f80072b4ef386153d3d00c78347", "fusion_lat": 0.0, "is_disabled": 0, "fusion_lon": 0.0}, {"name": "3a51b8218053faa224119ed3cb23eee2", "is_reserved": 0, "type": "electric_scooter", "rental_uris": {"ios": "https://dc.lft.to/lastmile_qr_scan", "android": "https://dc.lft.to/lastmile_qr_scan"}, "lat": 38.897463, "lon": -77.031917, "bike_id": "3a51b8218053faa224119ed3cb23eee2", "fusion_lat": 0.0, "is_disabled": 0, "fusion_lon": 0.0}, {"name": "badcbab5351787189d9e8b2e74c3e9c0", "is_reserved": 0, "type": "electric_scooter", "rental_uris": {"ios": "https://dc.lft.to/lastmile_qr_scan", "android": "https://dc.lft.to/lastmile_qr_scan"}, "lat": 38.9348005, "lon": -77.0866595, "bike_id": "badcbab5351787189d9e8b2e74c3e9c0", "fusion_lat": 0.0, "is_disabled": 0, "fusion_lon": 0.0}, {"name": "e921c2c50bc8262b954a15c21f841e7b", "is_reserved": 0, "type": "electric_scooter", "rental_uris": {"ios": "https://dc.lft.to/lastmile_qr_scan", "android": "https://dc.lft.to/lastmile_qr_scan"}, "lat": 38.915746666666664, "lon": -77.01999683333334, "bike_id": "e921c2c50bc8262b954a15c21f841e7b", "fusion_lat": 0.0, "is_disabled": 0, "fusion_lon": 0.0}, {"name": "50a6540c8920227a15ced6e3b6293ca0", "is_reserved": 0, "type": "electric_scooter", "rental_uris": {"ios": "https://dc.lft.to/lastmile_qr_scan", "android": "https://dc.lft.to/lastmile_qr_scan"}, "lat": 38.904085, "lon": -77.04666933333333, "bike_id": "50a6540c8920227a15ced6e3b6293ca0", "fusion_lat": 0.0, "is_disabled": 0, "fusion_lon": 0.0}, {"name": "93c92feff3b49f0d824e708b95273576", "is_reserved": 0, "type": "electric_scooter", "rental_uris": {"ios": "https://dc.lft.to/lastmile_qr_scan", "android": "https://dc.lft.to/lastmile_qr_scan"}, "lat": 38.91923033333333, "lon": -77.04601683333334, "bike_id": "93c92feff3b49f0d824e708b95273576", "fusion_lat": 0.0, "is_disabled": 0, "fusion_lon": 0.0}, {"name": "c0e1d29b72479eb062b949374031c909", "is_reserved": 0, "type": "electric_scooter", "rental_uris": {"ios": "https://dc.lft.to/lastmile_qr_scan", "android": "https://dc.lft.to/lastmile_qr_scan"}, "lat": 38.905769, "lon": -77.0058785, "bike_id": "c0e1d29b72479eb062b949374031c909", "fusion_lat": 0.0, "is_disabled": 0, "fusion_lon": 0.0}, {"name": "3cd8b1b6c76b7fb5bfd199df1c790b2a", "is_reserved": 0, "type": "electric_scooter", "rental_uris": {"ios": "https://dc.lft.to/lastmile_qr_scan", "android": "https://dc.lft.to/lastmile_qr_scan"}, "lat": 38.923616, "lon": -77.05120683333334, "bike_id": "3cd8b1b6c76b7fb5bfd199df1c790b2a", "fusion_lat": 0.0, "is_disabled": 0, "fusion_lon": 0.0}, {"name": "f7554d920005d54b95ea44729921c8cc", "is_reserved": 0, "type": "electric_scooter", "rental_uris": {"ios": "https://dc.lft.to/lastmile_qr_scan", "android": "https://dc.lft.to/lastmile_qr_scan"}, "lat": 38.932632166666664, "lon": -77.0388855, "bike_id": "f7554d920005d54b95ea44729921c8cc", "fusion_lat": 0.0, "is_disabled": 0, "fusion_lon": 0.0}, {"name": "51e2274ee4b33b3a5da2dfecdf8d8c38", "is_reserved": 0, "type": "electric_scooter", "rental_uris": {"ios": "https://dc.lft.to/lastmile_qr_scan", "android": "https://dc.lft.to/lastmile_qr_scan"}, "lat": 38.918157, "lon": -77.03455633333333, "bike_id": "51e2274ee4b33b3a5da2dfecdf8d8c38", "fusion_lat": 0.0, "is_disabled": 0, "fusion_lon": 0.0}, {"name": "f235c4891cc1f28e932fd4a43de1d731", "is_reserved": 0, "type": "electric_scooter", "rental_uris": {"ios": "https://dc.lft.to/lastmile_qr_scan", "android": "https://dc.lft.to/lastmile_qr_scan"}, "lat": 38.9082965, "lon": -77.0368005, "bike_id": "f235c4891cc1f28e932fd4a43de1d731", "fusion_lat": 0.0, "is_disabled": 0, "fusion_lon": 0.0}, {"name": "c5594c1c25f7335b9ad9ba34c5128e50", "is_reserved": 0, "type": "electric_scooter", "rental_uris": {"ios": "https://dc.lft.to/lastmile_qr_scan", "android": "https://dc.lft.to/lastmile_qr_scan"}, "lat": 38.936818333333335, "lon": -77.032659, "bike_id": "c5594c1c25f7335b9ad9ba34c5128e50", "fusion_lat": 0.0, "is_disabled": 0, "fusion_lon": 0.0}, {"name": "ae52a3b7fd17142458f98ee5492939bd", "is_reserved": 0, "type": "electric_scooter", "rental_uris": {"ios": "https://dc.lft.to/lastmile_qr_scan", "android": "https://dc.lft.to/lastmile_qr_scan"}, "lat": 38.9096065, "lon": -77.0228145, "bike_id": "ae52a3b7fd17142458f98ee5492939bd", "fusion_lat": 0.0, "is_disabled": 0, "fusion_lon": 0.0}, {"name": "3fb76958d21a2aa192c4b8364b7cc33e", "is_reserved": 0, "type": "electric_scooter", "rental_uris": {"ios": "https://dc.lft.to/lastmile_qr_scan", "android": "https://dc.lft.to/lastmile_qr_scan"}, "lat": 38.904425833333335, "lon": -77.02691333333334, "bike_id": "3fb76958d21a2aa192c4b8364b7cc33e", "fusion_lat": 0.0, "is_disabled": 0, "fusion_lon": 0.0}, {"name": "7886366fcef2cea3f90edba3448d46f4", "is_reserved": 0, "type": "electric_scooter", "rental_uris": {"ios": "https://dc.lft.to/lastmile_qr_scan", "android": "https://dc.lft.to/lastmile_qr_scan"}, "lat": 38.90603566666667, "lon": -77.03982266666667, "bike_id": "7886366fcef2cea3f90edba3448d46f4", "fusion_lat": 0.0, "is_disabled": 0, "fusion_lon": 0.0}, {"name": "f006a5c4b8532c5a2777d7fec0c10164", "is_reserved": 0, "type": "electric_scooter", "rental_uris": {"ios": "https://dc.lft.to/lastmile_qr_scan", "android": "https://dc.lft.to/lastmile_qr_scan"}, "lat": 38.9367505, "lon": -77.0368445, "bike_id": "f006a5c4b8532c5a2777d7fec0c10164", "fusion_lat": 0.0, "is_disabled": 0, "fusion_lon": 0.0}, {"name": "088eeb30d8c9be4f1719d92bd289e9f6", "is_reserved": 0, "type": "electric_scooter", "rental_uris": {"ios": "https://dc.lft.to/lastmile_qr_scan", "android": "https://dc.lft.to/lastmile_qr_scan"}, "lat": 38.908382833333334, "lon": -76.99760516666667, "bike_id": "088eeb30d8c9be4f1719d92bd289e9f6", "fusion_lat": 0.0, "is_disabled": 0, "fusion_lon": 0.0}, {"name": "071b5f4973eaf7f400c137cf538a0ac0", "is_reserved": 0, "type": "electric_scooter", "rental_uris": {"ios": "https://dc.lft.to/lastmile_qr_scan", "android": "https://dc.lft.to/lastmile_qr_scan"}, "lat": 38.904138, "lon": -76.9810775, "bike_id": "071b5f4973eaf7f400c137cf538a0ac0", "fusion_lat": 0.0, "is_disabled": 0, "fusion_lon": 0.0}, {"name": "743718c7dbdd8bad19c531198834a876", "is_reserved": 0, "type": "electric_scooter", "rental_uris": {"ios": "https://dc.lft.to/lastmile_qr_scan", "android": "https://dc.lft.to/lastmile_qr_scan"}, "lat": 38.939018833333336, "lon": -77.06071166666666, "bike_id": "743718c7dbdd8bad19c531198834a876", "fusion_lat": 0.0, "is_disabled": 0, "fusion_lon": 0.0}, {"name": "359eae6a64a9242d1c5c4a926d1bdf27", "is_reserved": 0, "type": "electric_scooter", "rental_uris": {"ios": "https://dc.lft.to/lastmile_qr_scan", "android": "https://dc.lft.to/lastmile_qr_scan"}, "lat": 38.896239333333334, "lon": -77.023995, "bike_id": "359eae6a64a9242d1c5c4a926d1bdf27", "fusion_lat": 0.0, "is_disabled": 0, "fusion_lon": 0.0}, {"name": "b8e2bcfb28eccd4ccabdc3b78950af5f", "is_reserved": 0, "type": "electric_scooter", "rental_uris": {"ios": "https://dc.lft.to/lastmile_qr_scan", "android": "https://dc.lft.to/lastmile_qr_scan"}, "lat": 38.908222, "lon": -77.07032183333334, "bike_id": "b8e2bcfb28eccd4ccabdc3b78950af5f", "fusion_lat": 0.0, "is_disabled": 0, "fusion_lon": 0.0}, {"name": "1826c9f713a420a12be9fea7c636bc88", "is_reserved": 0, "type": "electric_scooter", "rental_uris": {"ios": "https://dc.lft.to/lastmile_qr_scan", "android": "https://dc.lft.to/lastmile_qr_scan"}, "lat": 38.874977333333334, "lon": -77.01760516666667, "bike_id": "1826c9f713a420a12be9fea7c636bc88", "fusion_lat": 0.0, "is_disabled": 0, "fusion_lon": 0.0}, {"name": "c267faa78f44418abc2f97483046b1e6", "is_reserved": 0, "type": "electric_scooter", "rental_uris": {"ios": "https://dc.lft.to/lastmile_qr_scan", "android": "https://dc.lft.to/lastmile_qr_scan"}, "lat": 38.940876333333335, "lon": -77.061338, "bike_id": "c267faa78f44418abc2f97483046b1e6", "fusion_lat": 0.0, "is_disabled": 0, "fusion_lon": 0.0}, {"name": "b44780c7a494476e73b8de02c54c938f", "is_reserved": 0, "type": "electric_scooter", "rental_uris": {"ios": "https://dc.lft.to/lastmile_qr_scan", "android": "https://dc.lft.to/lastmile_qr_scan"}, "lat": 38.904138833333334, "lon": -76.98112449999999, "bike_id": "b44780c7a494476e73b8de02c54c938f", "fusion_lat": 0.0, "is_disabled": 0, "fusion_lon": 0.0}, {"name": "882df344a50a1745b6d85c0093aedd92", "is_reserved": 0, "type": "electric_scooter", "rental_uris": {"ios": "https://dc.lft.to/lastmile_qr_scan", "android": "https://dc.lft.to/lastmile_qr_scan"}, "lat": 38.915320666666666, "lon": -76.983607, "bike_id": "882df344a50a1745b6d85c0093aedd92", "fusion_lat": 0.0, "is_disabled": 0, "fusion_lon": 0.0}, {"name": "31170ca98852a9c0bb453b980ec437e7", "is_reserved": 0, "type": "electric_scooter", "rental_uris": {"ios": "https://dc.lft.to/lastmile_qr_scan", "android": "https://dc.lft.to/lastmile_qr_scan"},