{"data": {"bikes": [{"lon": -77.01747166666667, "lat": 38.87689866666667, "name": "35138c3bbd4142b93ce6df119da2be58", "fusion_lat": 0.0, "fusion_lon": 0.0, "rental_uris": {"android": "https://dc.lft.to/lastmile_qr_scan", "ios": "https://dc.lft.to/lastmile_qr_scan"}, "is_reserved": 0, "is_disabled": 0, "type": "electric_bike", "bike_id": "35138c3bbd4142b93ce6df119da2be58"}, {"lon": -76.9709025, "lat": 38.878800166666664, "name": "ce86127ef83e176be62220fa4523ac44", "fusion_lat": 0.0, "fusion_lon": 0.0, "rental_uris": {"android": "https://dc.lft.to/lastmile_qr_scan", "ios": "https://dc.lft.to/lastmile_qr_scan"}, "is_reserved": 0, "is_disabled": 0, "type": "electric_scooter", "bike_id": "ce86127ef83e176be62220fa4523ac44"}, {"lon": -76.99729866666667, "lat": 38.90794866666667, "name": "604c2a09569045328049f89cfd576c6b", "fusion_lat": 0.0, "fusion_lon": 0.0, "rental_uris": {"android": "https://dc.lft.to/lastmile_qr_scan", "ios": "https://dc.lft.to/lastmile_qr_scan"}, "is_reserved": 0, "is_disabled": 0, "type": "electric_scooter", "bike_id": "604c2a09569045328049f89cfd576c6b"}, {"lon": -77.03870866666666, "lat": 38.90973433333333, "name": "5a8bc1f82d4d04d0d054fce22b5e480e", "fusion_lat": 0.0, "fusion_lon": 0.0, "rental_uris": {"android": "https://dc.lft.to/lastmile_qr_scan", "ios": "https://dc.lft.to/lastmile_qr_scan"}, "is_reserved": 0, "is_disabled": 0, "type": "electric_scooter", "bike_id": "5a8bc1f82d4d04d0d054fce22b5e480e"}, {"lon": -77.02809, "lat": 38.9168665, "name": "0c66adba99c4f1da99d7845fb6775807", "fusion_lat": 0.0, "fusion_lon": 0.0, "rental_uris": {"android": "https://dc.lft.to/lastmile_qr_scan", "ios": "https://dc.lft.to/lastmile_qr_scan"}, "is_reserved": 0, "is_disabled": 0, "type": "electric_scooter", "bike_id": "0c66adba99c4f1da99d7845fb6775807"}, {"lon": -76.99866633333333, "lat": 38.9002395, "name": "c2a022e24a6f2cd1470aa82bf32741a3", "fusion_lat": 0.0, "fusion_lon": 0.0, "rental_uris": {"android": "https://dc.lft.to/lastmile_qr_scan", "ios": "https://dc.lft.to/lastmile_qr_scan"}, "is_reserved": 0, "is_disabled": 0, "type": "electric_scooter", "bike_id": "c2a022e24a6f2cd1470aa82bf32741a3"}, {"lon": -77.03506416666667, "lat": 38.921474333333336, "name": "aa93a7d6227ff53f911c0bf5bb04df6e", "fusion_lat": 0.0, "fusion_lon": 0.0, "rental_uris": {"android": "https://dc.lft.to/lastmile_qr_scan", "ios": "https://dc.lft.to/lastmile_qr_scan"}, "is_reserved": 0, "is_disabled": 0, "type": "electric_scooter", "bike_id": "aa93a7d6227ff53f911c0bf5bb04df6e"}, {"lon": -77.03145166666667, "lat": 38.912545, "name": "69635e127b76a8bfefb25bc519d03503", "fusion_lat": 0.0, "fusion_lon": 0.0, "rental_uris": {"android": "https://dc.lft.to/lastmile_qr_scan", "ios": "https://dc.lft.to/lastmile_qr_scan"}, "is_reserved": 0, "is_disabled": 0, "type": "electric_scooter", "bike_id": "69635e127b76a8bfefb25bc519d03503"}, {"lon": -77.02209516666667, "lat": 38.905708833333335, "name": "896e7c996617e700be1d11cb758528e3", "fusion_lat": 0.0, "fusion_lon": 0.0, "rental_uris": {"android": "https://dc.lft.to/lastmile_qr_scan", "ios": "https://dc.lft.to/lastmile_qr_scan"}, "is_reserved": 0, "is_disabled": 0, "type": "electric_scooter", "bike_id": "896e7c996617e700be1d11cb758528e3"}, {"lon": -76.98360016666666, "lat": 38.86484133333333, "name": "4b3d35c21b6b18c17ab60362b35f9eae", "fusion_lat": 0.0, "fusion_lon": 0.0, "rental_uris": {"android": "https://dc.lft.to/lastmile_qr_scan", "ios": "https://dc.lft.to/lastmile_qr_scan"}, "is_reserved": 0, "is_disabled": 0, "type": "electric_scooter", "bike_id": "4b3d35c21b6b18c17ab60362b35f9eae"}, {"lon": -76.99777433333334, "lat": 38.922932, "name": "3a0e0c264ebe7f91a64fb9eddfafa1d8", "fusion_lat": 0.0, "fusion_lon": 0.0, "rental_uris": {"android": "https://dc.lft.to/lastmile_qr_scan", "ios": "https://dc.lft.to/lastmile_qr_scan"}, "is_reserved": 0, "is_disabled": 0, "type": "electric_scooter", "bike_id": "3a0e0c264ebe7f91a64fb9eddfafa1d8"}, {"lon": -77.0403765, "lat": 38.9238235, "name": "d937636260ac64a2b36f8eb22db9edfc", "fusion_lat": 0.0, "fusion_lon": 0.0, "rental_uris": {"android": "https://dc.lft.to/lastmile_qr_scan", "ios": "https://dc.lft.to/lastmile_qr_scan"}, "is_reserved": 0, "is_disabled": 0, "type": "electric_scooter", "bike_id": "d937636260ac64a2b36f8eb22db9edfc"}, {"lon": -77.02704283333334, "lat": 38.9181795, "name": "c38ec047a62011253028ddc47990f87c", "fusion_lat": 0.0, "fusion_lon": 0.0, "rental_uris": {"android": "https://dc.lft.to/lastmile_qr_scan", "ios": "https://dc.lft.to/lastmile_qr_scan"}, "is_reserved": 0, "is_disabled": 0, "type": "electric_scooter", "bike_id": "c38ec047a62011253028ddc47990f87c"}, {"lon": -77.1142975, "lat": 38.852473333333336, "name": "0036fe1901377681088818a9f6e4db22", "fusion_lat": 0.0, "fusion_lon": 0.0, "rental_uris": {"android": "https://dc.lft.to/lastmile_qr_scan", "ios": "https://dc.lft.to/lastmile_qr_scan"}, "is_reserved": 0, "is_disabled": 0, "type": "electric_bike", "bike_id": "0036fe1901377681088818a9f6e4db22"}, {"lon": -77.03634516666666, "lat": 38.916277666666666, "name": "43250e0e0ecd2cf0afd2021516d74d3a", "fusion_lat": 0.0, "fusion_lon": 0.0, "rental_uris": {"android": "https://dc.lft.to/lastmile_qr_scan", "ios": "https://dc.lft.to/lastmile_qr_scan"}, "is_reserved": 0, "is_disabled": 0, "type": "electric_scooter", "bike_id": "43250e0e0ecd2cf0afd2021516d74d3a"}, {"lon": -77.03514816666667, "lat": 38.92147466666667, "name": "970c9829421556a7e34a0113b58a8b38", "fusion_lat": 0.0, "fusion_lon": 0.0, "rental_uris": {"android": "https://dc.lft.to/lastmile_qr_scan", "ios": "https://dc.lft.to/lastmile_qr_scan"}, "is_reserved": 0, "is_disabled": 0, "type": "electric_scooter", "bike_id": "970c9829421556a7e34a0113b58a8b38"}, {"lon": -77.03833716666666, "lat": 38.91186783333333, "name": "864a7a7eedcb199de3b5649561be8769", "fusion_lat": 0.0, "fusion_lon": 0.0, "rental_uris": {"android": "https://dc.lft.to/lastmile_qr_scan", "ios": "https://dc.lft.to/lastmile_qr_scan"}, "is_reserved": 0, "is_disabled": 0, "type": "electric_scooter", "bike_id": "864a7a7eedcb199de3b5649561be8769"}, {"lon": -77.0377885, "lat": 38.9967695, "name": "dc16c0ba899099b394d7ca0ef4b26d17", "fusion_lat": 0.0, "fusion_lon": 0.0, "rental_uris": {"android": "https://dc.lft.to/lastmile_qr_scan", "ios": "https://dc.lft.to/lastmile_qr_scan"}, "is_reserved": 0, "is_disabled": 0, "type": "electric_bike", "bike_id": "dc16c0ba899099b394d7ca0ef4b26d17"}, {"lon": -77.0341475, "lat": 38.929557333333335, "name": "9034fb40a0dbb5343290dd1983ad40f3", "fusion_lat": 0.0, "fusion_lon": 0.0, "rental_uris": {"android": "https://dc.lft.to/lastmile_qr_scan", "ios": "https://dc.lft.to/lastmile_qr_scan"}, "is_reserved": 0, "is_disabled": 0, "type": "electric_scooter", "bike_id": "9034fb40a0dbb5343290dd1983ad40f3"}, {"lon": -77.02636483333333, "lat": 38.915555, "name": "df38b9a65ba90b756831fc8fa264cc56", "fusion_lat": 0.0, "fusion_lon": 0.0, "rental_uris": {"android": "https://dc.lft.to/lastmile_qr_scan", "ios": "https://dc.lft.to/lastmile_qr_scan"}, "is_reserved": 0, "is_disabled": 0, "type": "electric_scooter", "bike_id": "df38b9a65ba90b756831fc8fa264cc56"}, {"lon": -77.04817583333333, "lat": 38.9110945, "name": "2d0cc2ff4d363463d859fd24f9d1572c", "fusion_lat": 0.0, "fusion_lon": 0.0, "rental_uris": {"android": "https://dc.lft.to/lastmile_qr_scan", "ios": "https://dc.lft.to/lastmile_qr_scan"}, "is_reserved": 0, "is_disabled": 0, "type": "electric_scooter", "bike_id": "2d0cc2ff4d363463d859fd24f9d1572c"}, {"lon": -77.024262, "lat": 38.92373466666667, "name": "3610db2cb9f1f85e8d56e00543000f38", "fusion_lat": 0.0, "fusion_lon": 0.0, "rental_uris": {"android": "https://dc.lft.to/lastmile_qr_scan", "ios": "https://dc.lft.to/lastmile_qr_scan"}, "is_reserved": 0, "is_disabled": 0, "type": "electric_bike", "bike_id": "3610db2cb9f1f85e8d56e00543000f38"}, {"lon": -77.02403516666666, "lat": 38.91982316666667, "name": "6ff6555361d68feccd00023cd705ac21", "fusion_lat": 0.0, "fusion_lon": 0.0, "rental_uris": {"android": "https://dc.lft.to/lastmile_qr_scan", "ios": "https://dc.lft.to/lastmile_qr_scan"}, "is_reserved": 0, "is_disabled": 0, "type": "electric_scooter", "bike_id": "6ff6555361d68feccd00023cd705ac21"}, {"lon": -77.0296075, "lat": 38.92266933333333, "name": "83a70709d8e5cee56486141e2b3845fc", "fusion_lat": 0.0, "fusion_lon": 0.0, "rental_uris": {"android": "https://dc.lft.to/lastmile_qr_scan", "ios": "https://dc.lft.to/lastmile_qr_scan"}, "is_reserved": 0, "is_disabled": 0, "type": "electric_scooter", "bike_id": "83a70709d8e5cee56486141e2b3845fc"}, {"lon": -77.04464533333334, "lat": 38.91858033333333, "name": "2befa3b08e5bd96e76bd6f6cfc71cc4b", "fusion_lat": 0.0, "fusion_lon": 0.0, "rental_uris": {"android": "https://dc.lft.to/lastmile_qr_scan", "ios": "https://dc.lft.to/lastmile_qr_scan"}, "is_reserved": 0, "is_disabled": 0, "type": "electric_scooter", "bike_id": "2befa3b08e5bd96e76bd6f6cfc71cc4b"}, {"lon": -77.04631016666667, "lat": 38.91530016666667, "name": "2665b43d051ff7a8172c1de0739cfe5b", "fusion_lat": 0.0, "fusion_lon": 0.0, "rental_uris": {"android": "https://dc.lft.to/lastmile_qr_scan", "ios": "https://dc.lft.to/lastmile_qr_scan"}, "is_reserved": 0, "is_disabled": 0, "type": "electric_scooter", "bike_id": "2665b43d051ff7a8172c1de0739cfe5b"}, {"lon": -76.99869733333334, "lat": 38.90027083333333, "name": "ec13aca2b50fa300aa076386ca914269", "fusion_lat": 0.0, "fusion_lon": 0.0, "rental_uris": {"android": "https://dc.lft.to/lastmile_qr_scan", "ios": "https://dc.lft.to/lastmile_qr_scan"}, "is_reserved": 0, "is_disabled": 0, "type": "electric_scooter", "bike_id": "ec13aca2b50fa300aa076386ca914269"}, {"lon": -77.030645, "lat": 38.880447, "name": "d8c61a4e5c944d0bba78972372cfe887", "fusion_lat": 0.0, "fusion_lon": 0.0, "rental_uris": {"android": "https://dc.lft.to/lastmile_qr_scan", "ios": "https://dc.lft.to/lastmile_qr_scan"}, "is_reserved": 0, "is_disabled": 0, "type": "electric_scooter", "bike_id": "d8c61a4e5c944d0bba78972372cfe887"}, {"lon": -77.02415166666667, "lat": 38.909672, "name": "651409fa4b77da218ccaec33d36f62b8", "fusion_lat": 0.0, "fusion_lon": 0.0, "rental_uris": {"android": "https://dc.lft.to/lastmile_qr_scan", "ios": "https://dc.lft.to/lastmile_qr_scan"}, "is_reserved": 0, "is_disabled": 0, "type": "electric_scooter", "bike_id": "651409fa4b77da218ccaec33d36f62b8"}, {"lon": -77.0383505, "lat": 38.91193116666667, "name": "24419b3d318ba5a40345fb9004542900", "fusion_lat": 0.0, "fusion_lon": 0.0, "rental_uris": {"android": "https://dc.lft.to/lastmile_qr_scan", "ios": "https://dc.lft.to/lastmile_qr_scan"}, "is_reserved": 0, "is_disabled": 0, "type": "electric_scooter", "bike_id": "24419b3d318ba5a40345fb9004542900"}, {"lon": -77.044614, "lat": 38.9185765, "name": "0517622760a596d7a5b7cad348cac36a", "fusion_lat": 0.0, "fusion_lon": 0.0, "rental_uris": {"android": "https://dc.lft.to/lastmile_qr_scan", "ios": "https://dc.lft.to/lastmile_qr_scan"}, "is_reserved": 0, "is_disabled": 0, "type": "electric_scooter", "bike_id": "0517622760a596d7a5b7cad348cac36a"}, {"lon": -76.9477525, "lat": 38.8944495, "name": "4d9b0f2b95f4fae1a796271367229e6c", "fusion_lat": 0.0, "fusion_lon": 0.0, "rental_uris": {"android": "https://dc.lft.to/lastmile_qr_scan", "ios": "https://dc.lft.to/lastmile_qr_scan"}, "is_reserved": 0, "is_disabled": 0, "type": "electric_scooter", "bike_id": "4d9b0f2b95f4fae1a796271367229e6c"}, {"lon": -77.0242555, "lat": 38.905914833333334, "name": "d38ca4a827918f1fbcf64f2f0c9b63fa", "fusion_lat": 0.0, "fusion_lon": 0.0, "rental_uris": {"android": "https://dc.lft.to/lastmile_qr_scan", "ios": "https://dc.lft.to/lastmile_qr_scan"}, "is_reserved": 0, "is_disabled": 0, "type": "electric_scooter", "bike_id": "d38ca4a827918f1fbcf64f2f0c9b63fa"}, {"lon": -77.04284, "lat": 38.90732083333333, "name": "8b9f08519eaab2b3d9062774a8330253", "fusion_lat": 0.0, "fusion_lon": 0.0, "rental_uris": {"android": "https://dc.lft.to/lastmile_qr_scan", "ios": "https://dc.lft.to/lastmile_qr_scan"}, "is_reserved": 0, "is_disabled": 0, "type": "electric_scooter", "bike_id": "8b9f08519eaab2b3d9062774a8330253"}, {"lon": -77.0256525, "lat": 38.88338783333333, "name": "061eb3c3c554d375b0ce692a4ccec51f", "fusion_lat": 0.0, "fusion_lon": 0.0, "rental_uris": {"android": "https://dc.lft.to/lastmile_qr_scan", "ios": "https://dc.lft.to/lastmile_qr_scan"}, "is_reserved": 0, "is_disabled": 0, "type": "electric_scooter", "bike_id": "061eb3c3c554d375b0ce692a4ccec51f"}, {"lon": -77.1317805, "lat": 38.86910966666667, "name": "a5fd8e9115d104c0f993ddf602e6fab0", "fusion_lat": 0.0, "fusion_lon": 0.0, "rental_uris": {"android": "https://dc.lft.to/lastmile_qr_scan", "ios": "https://dc.lft.to/lastmile_qr_scan"}, "is_reserved": 0, "is_disabled": 0, "type": "electric_bike", "bike_id": "a5fd8e9115d104c0f993ddf602e6fab0"}, {"lon": -77.019276, "lat": 38.9166125, "name": "03482e782101fb2f82b321d0ec30f2f3", "fusion_lat": 0.0, "fusion_lon": 0.0, "rental_uris": {"android": "https://dc.lft.to/lastmile_qr_scan", "ios": "https://dc.lft.to/lastmile_qr_scan"}, "is_reserved": 0, "is_disabled": 0, "type": "electric_scooter", "bike_id": "03482e782101fb2f82b321d0ec30f2f3"}, {"lon": -77.00352866666667, "lat": 38.88193316666667, "name": "319794bd4da285b17a8bb5f7b330091b", "fusion_lat": 0.0, "fusion_lon": 0.0, "rental_uris": {"android": "https://dc.lft.to/lastmile_qr_scan", "ios": "https://dc.lft.to/lastmile_qr_scan"}, "is_reserved": 0, "is_disabled": 0, "type": "electric_scooter", "bike_id": "319794bd4da285b17a8bb5f7b330091b"}, {"lon": -77.03226183333334, "lat": 38.91997716666667, "name": "990b26b0cb468599408d82c5695afb21", "fusion_lat": 0.0, "fusion_lon": 0.0, "rental_uris": {"android": "https://dc.lft.to/lastmile_qr_scan", "ios": "https://dc.lft.to/lastmile_qr_scan"}, "is_reserved": 0, "is_disabled": 0, "type": "electric_scooter", "bike_id": "990b26b0cb468599408d82c5695afb21"}, {"lon": -77.02249833333333, "lat": 38.91271833333333, "name": "5546d48559a6f5655691ad5cb26c6c61", "fusion_lat": 0.0, "fusion_lon": 0.0, "rental_uris": {"android": "https://dc.lft.to/lastmile_qr_scan", "ios": "https://dc.lft.to/lastmile_qr_scan"}, "is_reserved": 0, "is_disabled": 0, "type": "electric_scooter", "bike_id": "5546d48559a6f5655691ad5cb26c6c61"}, {"lon": -77.00135666666667, "lat": 38.904088, "name": "750896c55f02483cdd3c975804bc9046", "fusion_lat": 0.0, "fusion_lon": 0.0, "rental_uris": {"android": "https://dc.lft.to/lastmile_qr_scan", "ios": "https://dc.lft.to/lastmile_qr_scan"}, "is_reserved": 0, "is_disabled": 0, "type": "electric_scooter", "bike_id": "750896c55f02483cdd3c975804bc9046"}, {"lon": -77.03164183333334, "lat": 38.91418266666667, "name": "12fa340dba24e809778997d260ca863f", "fusion_lat": 0.0, "fusion_lon": 0.0, "rental_uris": {"android": "https://dc.lft.to/lastmile_qr_scan", "ios": "https://dc.lft.to/lastmile_qr_scan"}, "is_reserved": 0, "is_disabled": 0, "type": "electric_scooter", "bike_id": "12fa340dba24e809778997d260ca863f"}, {"lon": -77.02158983333334, "lat": 38.886279333333334, "name": "60afe474f64fb507c055b366c79c7418", "fusion_lat": 0.0, "fusion_lon": 0.0, "rental_uris": {"android": "https://dc.lft.to/lastmile_qr_scan", "ios": "https://dc.lft.to/lastmile_qr_scan"}, "is_reserved": 0, "is_disabled": 0, "type": "electric_scooter", "bike_id": "60afe474f64fb507c055b366c79c7418"}, {"lon": -77.04242133333334, "lat": 38.924307, "name": "5b37289e308b9b89a338f5d1e634a847", "fusion_lat": 0.0, "fusion_lon": 0.0, "rental_uris": {"android": "https://dc.lft.to/lastmile_qr_scan", "ios": "https://dc.lft.to/lastmile_qr_scan"}, "is_reserved": 0, "is_disabled": 0, "type": "electric_scooter", "bike_id": "5b37289e308b9b89a338f5d1e634a847"}, {"lon": -77.02402333333333, "lat": 38.920064833333335, "name": "ca90ea10925a9b284dc3f064bf6428ee", "fusion_lat": 0.0, "fusion_lon": 0.0, "rental_uris": {"android": "https://dc.lft.to/lastmile_qr_scan", "ios": "https://dc.lft.to/lastmile_qr_scan"}, "is_reserved": 0, "is_disabled": 0, "type": "electric_scooter", "bike_id": "ca90ea10925a9b284dc3f064bf6428ee"}, {"lon": -77.02976383333333, "lat": 38.96231366666667, "name": "124f4563f1321717cd5a5f9ce1a4c1b8", "fusion_lat": 0.0, "fusion_lon": 0.0, "rental_uris": {"android": "https://dc.lft.to/lastmile_qr_scan", "ios": "https://dc.lft.to/lastmile_qr_scan"}, "is_reserved": 0, "is_disabled": 0, "type": "electric_scooter", "bike_id": "124f4563f1321717cd5a5f9ce1a4c1b8"}, {"lon": -76.99495666666667, "lat": 38.862228, "name": "f5e7ce86550d230858b2cf1f777f99c5", "fusion_lat": 0.0, "fusion_lon": 0.0, "rental_uris": {"android": "https://dc.lft.to/lastmile_qr_scan", "ios": "https://dc.lft.to/lastmile_qr_scan"}, "is_reserved": 0, "is_disabled": 0, "type": "electric_scooter", "bike_id": "f5e7ce86550d230858b2cf1f777f99c5"}, {"lon": -77.00557933333333, "lat": 38.87615733333333, "name": "ee9343eba9bfc9e7b49b9a064abc4db6", "fusion_lat": 0.0, "fusion_lon": 0.0, "rental_uris": {"android": "https://dc.lft.to/lastmile_qr_scan", "ios": "https://dc.lft.to/lastmile_qr_scan"}, "is_reserved": 0, "is_disabled": 0, "type": "electric_scooter", "bike_id": "ee9343eba9bfc9e7b49b9a064abc4db6"}, {"lon": -77.06122066666667, "lat": 38.90673816666666, "name": "48af8e216978a0da66b0c69417dd631b", "fusion_lat": 0.0, "fusion_lon": 0.0, "rental_uris": {"android": "https://dc.lft.to/lastmile_qr_scan", "ios": "https://dc.lft.to/lastmile_qr_scan"}, "is_reserved": 0, "is_disabled": 0, "type": "electric_scooter", "bike_id": "48af8e216978a0da66b0c69417dd631b"}, {"lon": -77.10129716666667, "lat": 38.85213866666667, "name": "2de030f41f39e837aa76139447117c20", "fusion_lat": 0.0, "fusion_lon": 0.0, "rental_uris": {"android": "https://dc.lft.to/lastmile_qr_scan", "ios": "https://dc.lft.to/lastmile_qr_scan"}, "is_reserved": 0, "is_disabled": 0, "type": "electric_bike", "bike_id": "2de030f41f39e837aa76139447117c20"}, {"lon": -76.91921483333333, "lat": 38.8908, "name": "86ebe90cee4337e53da67751b817d42c", "fusion_lat": 0.0, "fusion_lon": 0.0, "rental_uris": {"android": "https://dc.lft.to/lastmile_qr_scan", "ios": "https://dc.lft.to/lastmile_qr_scan"}, "is_reserved": 0, "is_disabled": 0, "type": "electric_scooter", "bike_id": "86ebe90cee4337e53da67751b817d42c"}, {"lon": -77.0386685, "lat": 38.91255916666667, "name": "76120279fc33a8a0cf20498368095d4f", "fusion_lat": 0.0, "fusion_lon": 0.0, "rental_uris": {"android": "https://dc.lft.to/lastmile_qr_scan", "ios": "https://dc.lft.to/lastmile_qr_scan"}, "is_reserved": 0, "is_disabled": 0, "type": "electric_scooter", "bike_id": "76120279fc33a8a0cf20498368095d4f"}, {"lon": -77.0440275, "lat": 38.9342285, "name": "5bdd31da3753d200612de7c0d7c29c82", "fusion_lat": 0.0, "fusion_lon": 0.0, "rental_uris": {"android": "https://dc.lft.to/lastmile_qr_scan", "ios": "https://dc.lft.to/lastmile_qr_scan"}, "is_reserved": 0, "is_disabled": 0, "type": "electric_scooter", "bike_id": "5bdd31da3753d200612de7c0d7c29c82"}, {"lon": -77.03432133333334, "lat": 38.904480666666664, "name": "833dd8f3d03788ef42fbcee0f7c8102a", "fusion_lat": 0.0, "fusion_lon": 0.0, "rental_uris": {"android": "https://dc.lft.to/lastmile_qr_scan", "ios": "https://dc.lft.to/lastmile_qr_scan"}, "is_reserved": 0, "is_disabled": 0, "type": "electric_scooter", "bike_id": "833dd8f3d03788ef42fbcee0f7c8102a"}, {"lon": -77.03822983333333, "lat": 38.92074216666666, "name": "6dfea5f8640c618c140e50d589c5ebae", "fusion_lat": 0.0, "fusion_lon": 0.0, "rental_uris": {"android": "https://dc.lft.to/lastmile_qr_scan", "ios": "https://dc.lft.to/lastmile_qr_scan"}, "is_reserved": 0, "is_disabled": 0, "type": "electric_scooter", "bike_id": "6dfea5f8640c618c140e50d589c5ebae"}, {"lon": -77.03071066666666, "lat": 38.905613833333334, "name": "6cfa540ebfdf0bb0b0920b8b9a33ec0d", "fusion_lat": 0.0, "fusion_lon": 0.0, "rental_uris": {"android": "https://dc.lft.to/lastmile_qr_scan", "ios": "https://dc.lft.to/lastmile_qr_scan"}, "is_reserved": 0, "is_disabled": 0, "type": "electric_scooter", "bike_id": "6cfa540ebfdf0bb0b0920b8b9a33ec0d"}, {"lon": -77.02407183333334, "lat": 38.920020666666666, "name": "2ea07a6e4ef7a796361c21721b7e96c3", "fusion_lat": 0.0, "fusion_lon": 0.0, "rental_uris": {"android": "https://dc.lft.to/lastmile_qr_scan", "ios": "https://dc.lft.to/lastmile_qr_scan"}, "is_reserved": 0, "is_disabled": 0, "type": "electric_scooter", "bike_id": "2ea07a6e4ef7a796361c21721b7e96c3"}, {"lon": -77.01223433333334, "lat": 38.950824, "name": "22635bbc53c75445d8df7cd87cc1fca9", "fusion_lat": 0.0, "fusion_lon": 0.0, "rental_uris": {"android": "https://dc.lft.to/lastmile_qr_scan", "ios": "https://dc.lft.to/lastmile_qr_scan"}, "is_reserved": 0, "is_disabled": 0, "type": "electric_bike", "bike_id": "22635bbc53c75445d8df7cd87cc1fca9"}, {"lon": -77.04499033333333, "lat": 38.91118783333334, "name": "b3de795b4d84160ecb88df8a28b6d045", "fusion_lat": 0.0, "fusion_lon": 0.0, "rental_uris": {"android": "https://dc.lft.to/lastmile_qr_scan", "ios": "https://dc.lft.to/lastmile_qr_scan"}, "is_reserved": 0, "is_disabled": 0, "type": "electric_scooter", "bike_id": "b3de795b4d84160ecb88df8a28b6d045"}, {"lon": -77.0343665, "lat": 38.90737883333333, "name": "d8ddb148a01846feb5d09664710bed7d", "fusion_lat": 0.0, "fusion_lon": 0.0, "rental_uris": {"android": "https://dc.lft.to/lastmile_qr_scan", "ios": "https://dc.lft.to/lastmile_qr_scan"}, "is_reserved": 0, "is_disabled": 0, "type": "electric_scooter", "bike_id": "d8ddb148a01846feb5d09664710bed7d"}, {"lon": -77.02966033333334, "lat": 38.940372333333336, "name": "ae396066422d389dc9422f2631d26b82", "fusion_lat": 0.0, "fusion_lon": 0.0, "rental_uris": {"android": "https://dc.lft.to/lastmile_qr_scan", "ios": "https://dc.lft.to/lastmile_qr_scan"}, "is_reserved": 0, "is_disabled": 0, "type": "electric_scooter", "bike_id": "ae396066422d389dc9422f2631d26b82"}, {"lon": -77.0445895, "lat": 38.918539833333334, "name": "27a75947a56352e72b99be681d41d0b5", "fusion_lat": 0.0, "fusion_lon": 0.0, "rental_uris": {"android": "https://dc.lft.to/lastmile_qr_scan", "ios": "https://dc.lft.to/lastmile_qr_scan"}, "is_reserved": 0, "is_disabled": 0, "type": "electric_scooter", "bike_id": "27a75947a56352e72b99be681d41d0b5"}, {"lon": -77.0307755, "lat": 38.92248633333333, "name": "fb74fc77cbe876f421572607aa6f8985", "fusion_lat": 0.0, "fusion_lon": 0.0, "rental_uris": {"android": "https://dc.lft.to/lastmile_qr_scan", "ios": "https://dc.lft.to/lastmile_qr_scan"}, "is_reserved": 0, "is_disabled": 0, "type": "electric_scooter", "bike_id": "fb74fc77cbe876f421572607aa6f8985"}, {"lon": -77.04845033333334, "lat": 38.900759, "name": "ef6207819c4515cb660c14e66a014398", "fusion_lat": 0.0, "fusion_lon": 0.0, "rental_uris": {"android": "https://dc.lft.to/lastmile_qr_scan", "ios": "https://dc.lft.to/lastmile_qr_scan"}, "is_reserved": 0, "is_disabled": 0, "type": "electric_scooter", "bike_id": "ef6207819c4515cb660c14e66a014398"}, {"lon": -77.04118, "lat": 38.918934666666665, "name": "72f3d6f0a3a01fefcb0d45601add1a3d", "fusion_lat": 0.0, "fusion_lon": 0.0, "rental_uris": {"android": "https://dc.lft.to/lastmile_qr_scan", "ios": "https://dc.lft.to/lastmile_qr_scan"}, "is_reserved": 0, "is_disabled": 0, "type": "electric_scooter", "bike_id": "72f3d6f0a3a01fefcb0d45601add1a3d"}, {"lon": -77.03390816666666, "lat": 38.90400983333333, "name": "ec08d7f6c8424e51b7bf0c6277f235f3", "fusion_lat": 0.0, "fusion_lon": 0.0, "rental_uris": {"android": "https://dc.lft.to/lastmile_qr_scan", "ios": "https://dc.lft.to/lastmile_qr_scan"}, "is_reserved": 0, "is_disabled": 0, "type": "electric_scooter", "bike_id": "ec08d7f6c8424e51b7bf0c6277f235f3"}, {"lon": -77.03473516666666, "lat": 38.9170985, "name": "c5b857adff033168149d2883f70fbb9f", "fusion_lat": 0.0, "fusion_lon": 0.0, "rental_uris": {"android": "https://dc.lft.to/lastmile_qr_scan", "ios": "https://dc.lft.to/lastmile_qr_scan"}, "is_reserved": 0, "is_disabled": 0, "type": "electric_scooter", "bike_id": "c5b857adff033168149d2883f70fbb9f"}, {"lon": -77.01577016666667, "lat": 38.87698533333333, "name": "21469e87df969fe5f1b7709c2845947b", "fusion_lat": 0.0, "fusion_lon": 0.0, "rental_uris": {"android": "https://dc.lft.to/lastmile_qr_scan", "ios": "https://dc.lft.to/lastmile_qr_scan"}, "is_reserved": 0, "is_disabled": 0, "type": "electric_scooter", "bike_id": "21469e87df969fe5f1b7709c2845947b"}, {"lon": -76.98411083333333, "lat": 38.89999533333334, "name": "24615247e92af62c7f7d3061c8b52f2f", "fusion_lat": 0.0, "fusion_lon": 0.0, "rental_uris": {"android": "https://dc.lft.to/lastmile_qr_scan", "ios": "https://dc.lft.to/lastmile_qr_scan"}, "is_reserved": 0, "is_disabled": 0, "type": "electric_scooter", "bike_id": "24615247e92af62c7f7d3061c8b52f2f"}, {"lon": -77.0235785, "lat": 38.8791285, "name": "babe738a2417f98846065ea95946fe2f", "fusion_lat": 0.0, "fusion_lon": 0.0, "rental_uris": {"android": "https://dc.lft.to/lastmile_qr_scan", "ios": "https://dc.lft.to/lastmile_qr_scan"}, "is_reserved": 0, "is_disabled": 0, "type": "electric_scooter", "bike_id": "babe738a2417f98846065ea95946fe2f"}, {"lon": -77.03636883333333, "lat": 38.912619166666666, "name": "978b41d72298ed98d0a33a5d7dcd8387", "fusion_lat": 0.0, "fusion_lon": 0.0, "rental_uris": {"android": "https://dc.lft.to/lastmile_qr_scan", "ios": "https://dc.lft.to/lastmile_qr_scan"}, "is_reserved": 0, "is_disabled": 0, "type": "electric_scooter", "bike_id": "978b41d72298ed98d0a33a5d7dcd8387"}, {"lon": -77.0634015, "lat": 38.9068265, "name": "299f864520cab75c14cd9d27f98bf9ba", "fusion_lat": 0.0, "fusion_lon": 0.0, "rental_uris": {"android": "https://dc.lft.to/lastmile_qr_scan", "ios": "https://dc.lft.to/lastmile_qr_scan"}, "is_reserved": 0, "is_disabled": 0, "type": "electric_scooter", "bike_id": "299f864520cab75c14cd9d27f98bf9ba"}, {"lon": -77.00602483333333, "lat": 38.89815466666667, "name": "2271bca72414e68a1bc8150afbd65c6f", "fusion_lat": 0.0, "fusion_lon": 0.0, "rental_uris": {"android": "https://dc.lft.to/lastmile_qr_scan", "ios": "https://dc.lft.to/lastmile_qr_scan"}, "is_reserved": 0, "is_disabled": 0, "type": "electric_bike", "bike_id": "2271bca72414e68a1bc8150afbd65c6f"}, {"lon": -76.991255, "lat": 38.903272666666666, "name": "732cb6ec54308d3059dc04201385be37", "fusion_lat": 0.0, "fusion_lon": 0.0, "rental_uris": {"android": "https://dc.lft.to/lastmile_qr_scan", "ios": "https://dc.lft.to/lastmile_qr_scan"}, "is_reserved": 0, "is_disabled": 0, "type": "electric_bike", "bike_id": "732cb6ec54308d3059dc04201385be37"}, {"lon": -76.98474016666667, "lat": 38.92897266666667, "name": "48a3746793db3bc019ec8873b6cdc654", "fusion_lat": 0.0, "fusion_lon": 0.0, "rental_uris": {"android": "https://dc.lft.to/lastmile_qr_scan", "ios": "https://dc.lft.to/lastmile_qr_scan"}, "is_reserved": 0, "is_disabled": 0, "type": "electric_scooter", "bike_id": "48a3746793db3bc019ec8873b6cdc654"}, {"lon": -77.0313315, "lat": 38.9193475, "name": "6ab4900cf7237cbdef99fa355be577c2", "fusion_lat": 0.0, "fusion_lon": 0.0, "rental_uris": {"android": "https://dc.lft.to/lastmile_qr_scan", "ios": "https://dc.lft.to/lastmile_qr_scan"}, "is_reserved": 0, "is_disabled": 0, "type": "electric_scooter", "bike_id": "6ab4900cf7237cbdef99fa355be577c2"}, {"lon": -77.03501116666666, "lat": 38.93750683333333, "name": "6822d74edf151e97931e85aad92d6cc4", "fusion_lat": 0.0, "fusion_lon": 0.0, "rental_uris": {"android": "https://dc.lft.to/lastmile_qr_scan", "ios": "https://dc.lft.to/lastmile_qr_scan"}, "is_reserved": 0, "is_disabled": 0, "type": "electric_scooter", "bike_id": "6822d74edf151e97931e85aad92d6cc4"}, {"lon": -77.0319245, "lat": 38.892489166666664, "name": "e80ee43a410be615d928d159d4991ddf", "fusion_lat": 0.0, "fusion_lon": 0.0, "rental_uris": {"android": "https://dc.lft.to/lastmile_qr_scan", "ios": "https://dc.lft.to/lastmile_qr_scan"}, "is_reserved": 0, "is_disabled": 0, "type": "electric_scooter", "bike_id": "e80ee43a410be615d928d159d4991ddf"}, {"lon": -77.04542833333333, "lat": 38.8948235, "name": "b4e0f51aef5dead39ccf80a0d64dabb8", "fusion_lat": 0.0, "fusion_lon": 0.0, "rental_uris": {"android": "https://dc.lft.to/lastmile_qr_scan", "ios": "https://dc.lft.to/lastmile_qr_scan"}, "is_reserved": 0, "is_disabled": 0, "type": "electric_scooter", "bike_id": "b4e0f51aef5dead39ccf80a0d64dabb8"}, {"lon": -77.03357716666666, "lat": 38.898363833333335, "name": "7e52ee35e5b79cec224f6621959645ab", "fusion_lat": 0.0, "fusion_lon": 0.0, "rental_uris": {"android": "https://dc.lft.to/lastmile_qr_scan", "ios": "https://dc.lft.to/lastmile_qr_scan"}, "is_reserved": 0, "is_disabled": 0, "type": "electric_scooter", "bike_id": "7e52ee35e5b79cec224f6621959645ab"}, {"lon": -76.94788283333334, "lat": 38.89661316666667, "name": "836d3488437d3c7a9c00ceb57c2b626f", "fusion_lat": 0.0, "fusion_lon": 0.0, "rental_uris": {"android": "https://dc.lft.to/lastmile_qr_scan", "ios": "https://dc.lft.to/lastmile_qr_scan"}, "is_reserved": 0, "is_disabled": 0, "type": "electric_bike", "bike_id": "836d3488437d3c7a9c00ceb57c2b626f"}, {"lon": -76.9907665, "lat": 38.842916, "name": "b90388e085acc93b919fae794641a9b4", "fusion_lat": 0.0, "fusion_lon": 0.0, "rental_uris": {"android": "https://dc.lft.to/lastmile_qr_scan", "ios": "https://dc.lft.to/lastmile_qr_scan"}, "is_reserved": 0, "is_disabled": 0, "type": "electric_scooter", "bike_id": "b90388e085acc93b919fae794641a9b4"}, {"lon": -77.029666, "lat": 38.91668383333333, "name": "b927ce5f22a98c0c9b305ee84fc76492", "fusion_lat": 0.0, "fusion_lon": 0.0, "rental_uris": {"android": "https://dc.lft.to/lastmile_qr_scan", "ios": "https://dc.lft.to/lastmile_qr_scan"}, "is_reserved": 0, "is_disabled": 0, "type": "electric_scooter", "bike_id": "b927ce5f22a98c0c9b305ee84fc76492"}, {"lon": -76.970206, "lat": 38.92031766666667, "name": "57774548bda3ed9924116cf6076e6019", "fusion_lat": 0.0, "fusion_lon": 0.0, "rental_uris": {"android": "https://dc.lft.to/lastmile_qr_scan", "ios": "https://dc.lft.to/lastmile_qr_scan"}, "is_reserved": 0, "is_disabled": 0, "type": "electric_scooter", "bike_id": "57774548bda3ed9924116cf6076e6019"}, {"lon": -76.9995225, "lat": 38.90860883333333, "name": "ac7bb94aa9499aec9206e6af545a21d1", "fusion_lat": 0.0, "fusion_lon": 0.0, "rental_uris": {"android": "https://dc.lft.to/lastmile_qr_scan", "ios": "https://dc.lft.to/lastmile_qr_scan"}, "is_reserved": 0, "is_disabled": 0, "type": "electric_scooter", "bike_id": "ac7bb94aa9499aec9206e6af545a21d1"}, {"lon": -76.9869345, "lat": 38.90695483333333, "name": "01e1c4a0a71ca646cca8331f2257c531", "fusion_lat": 0.0, "fusion_lon": 0.0, "rental_uris": {"android": "https://dc.lft.to/lastmile_qr_scan", "ios": "https://dc.lft.to/lastmile_qr_scan"}, "is_reserved": 0, "is_disabled": 0, "type": "electric_scooter", "bike_id": "01e1c4a0a71ca646cca8331f2257c531"}, {"lon": -76.98609166666667, "lat": 38.925768166666664, "name": "f5f49dc4f84654b0f1afcecfa6654f89", "fusion_lat": 0.0, "fusion_lon": 0.0, "rental_uris": {"android": "https://dc.lft.to/lastmile_qr_scan", "ios": "https://dc.lft.to/lastmile_qr_scan"}, "is_reserved": 0, "is_disabled": 0, "type": "electric_bike", "bike_id": "f5f49dc4f84654b0f1afcecfa6654f89"}, {"lon": -77.01902116666666, "lat": 38.93917716666667, "name": "78df3aa5d14ddcf764bcf18e1f500827", "fusion_lat": 0.0, "fusion_lon": 0.0, "rental_uris": {"android": "https://dc.lft.to/lastmile_qr_scan", "ios": "https://dc.lft.to/lastmile_qr_scan"}, "is_reserved": 0, "is_disabled": 0, "type": "electric_scooter", "bike_id": "78df3aa5d14ddcf764bcf18e1f500827"}, {"lon": -77.03742366666667, "lat": 38.9220335, "name": "bc64272ff12faa27298bb80880237b95", "fusion_lat": 0.0, "fusion_lon": 0.0, "rental_uris": {"android": "https://dc.lft.to/lastmile_qr_scan", "ios": "https://dc.lft.to/lastmile_qr_scan"}, "is_reserved": 0, "is_disabled": 0, "type": "electric_scooter", "bike_id": "bc64272ff12faa27298bb80880237b95"}, {"lon": -77.059299, "lat": 38.93666283333334, "name": "f0ecb0dca1525a8c6af281736ff3d2d9", "fusion_lat": 0.0, "fusion_lon": 0.0, "rental_uris": {"android": "https://dc.lft.to/lastmile_qr_scan", "ios": "https://dc.lft.to/lastmile_qr_scan"}, "is_reserved": 0, "is_disabled": 0, "type": "electric_scooter", "bike_id": "f0ecb0dca1525a8c6af281736ff3d2d9"}, {"lon": -77.04480883333333, "lat": 38.90007666666666, "name": "e186ac4ad38a1edf36ef9ce980fe8944", "fusion_lat": 0.0, "fusion_lon": 0.0, "rental_uris": {"android": "https://dc.lft.to/lastmile_qr_scan", "ios": "https://dc.lft.to/lastmile_qr_scan"}, "is_reserved": 0, "is_disabled": 0, "type": "electric_scooter", "bike_id": "e186ac4ad38a1edf36ef9ce980fe8944"}, {"lon": -77.028256, "lat": 38.88740766666667, "name": "9ffb757ee34701c6d493f7161b4c7d1f", "fusion_lat": 0.0, "fusion_lon": 0.0, "rental_uris": {"android": "https://dc.lft.to/lastmile_qr_scan", "ios": "https://dc.lft.to/lastmile_qr_scan"}, "is_reserved": 0, "is_disabled": 0, "type": "electric_scooter", "bike_id": "9ffb757ee34701c6d493f7161b4c7d1f"}, {"lon": -77.00915733333333, "lat": 38.9106795, "name": "6db7952da9b6040dc8e18439aa3f21e0", "fusion_lat": 0.0, "fusion_lon": 0.0, "rental_uris": {"android": "https://dc.lft.to/lastmile_qr_scan", "ios": "https://dc.lft.to/lastmile_qr_scan"}, "is_reserved": 0, "is_disabled": 0, "type": "electric_scooter", "bike_id": "6db7952da9b6040dc8e18439aa3f21e0"}, {"lon": -77.02480333333334, "lat": 38.917592166666665, "name": "d1ed1bf65c240c4ed53c25b6270bed76", "fusion_lat": 0.0, "fusion_lon": 0.0, "rental_uris": {"android": "https://dc.lft.to/lastmile_qr_scan", "ios": "https://dc.lft.to/lastmile_qr_scan"}, "is_reserved": 0, "is_disabled": 0, "type": "electric_scooter", "bike_id": "d1ed1bf65c240c4ed53c25b6270bed76"}, {"lon": -77.0141055, "lat": 38.913249, "name": "c4ecb8efd7b092876b415151788f7769", "fusion_lat": 0.0, "fusion_lon": 0.0, "rental_uris": {"android": "https://dc.lft.to/lastmile_qr_scan", "ios": "https://dc.lft.to/lastmile_qr_scan"}, "is_reserved": 0, "is_disabled": 0, "type": "electric_scooter", "bike_id": "c4ecb8efd7b092876b415151788f7769"}, {"lon": -77.00927483333334, "lat": 38.91262566666666, "name": "d4581127bdf30631ab58718b8e0abb95", "fusion_lat": 0.0, "fusion_lon": 0.0, "rental_uris": {"android": "https://dc.lft.to/lastmile_qr_scan", "ios": "https://dc.lft.to/lastmile_qr_scan"}, "is_reserved": 0, "is_disabled": 0, "type": "electric_scooter", "bike_id": "d4581127bdf30631ab58718b8e0abb95"}, {"lon": -77.0338085, "lat": 38.919215666666666, "name": "51bcb048a3061c220533bda8e860e2ec", "fusion_lat": 0.0, "fusion_lon": 0.0, "rental_uris": {"android": "https://dc.lft.to/lastmile_qr_scan", "ios": "https://dc.lft.to/lastmile_qr_scan"}, "is_reserved": 0, "is_disabled": 0, "type": "electric_scooter", "bike_id": "51bcb048a3061c220533bda8e860e2ec"}, {"lon": -76.94218166666667, "lat": 38.896809, "name": "362262a061b87569cba089e68c70fc8f", "fusion_lat": 0.0, "fusion_lon": 0.0, "rental_uris": {"android": "https://dc.lft.to/lastmile_qr_scan", "ios": "https://dc.lft.to/lastmile_qr_scan"}, "is_reserved": 0, "is_disabled": 0, "type": "electric_scooter", "bike_id": "362262a061b87569cba089e68c70fc8f"}, {"lon": -77.027331, "lat": 38.9279075, "name": "ea93bfe5b1c78dc56ee799bb357788b3", "fusion_lat": 0.0, "fusion_lon": 0.0, "rental_uris": {"android": "https://dc.lft.to/lastmile_qr_scan", "ios": "https://dc.lft.to/lastmile_qr_scan"}, "is_reserved": 0, "is_disabled": 0, "type": "electric_scooter", "bike_id": "ea93bfe5b1c78dc56ee799bb357788b3"}, {"lon": -76.93228983333333, "lat": 38.8659865, "name": "412b2a858f9ac34133fa8bc1072cc896", "fusion_lat": 0.0, "fusion_lon": 0.0, "rental_uris": {"android": "https://dc.lft.to/lastmile_qr_scan", "ios": "https://dc.lft.to/lastmile_qr_scan"}, "is_reserved": 0, "is_disabled": 0, "type": "electric_bike", "bike_id": "412b2a858f9ac34133fa8bc1072cc896"}, {"lon": -77.129634, "lat": 38.85219033333333, "name": "585236adaadfb23a6fbadc28cc52fe20", "fusion_lat": 0.0, "fusion_lon": 0.0, "rental_uris": {"android": "https://dc.lft.to/lastmile_qr_scan", "ios": "https://dc.lft.to/lastmile_qr_scan"}, "is_reserved": 0, "is_disabled": 0, "type": "electric_bike", "bike_id": "585236adaadfb23a6fbadc28cc52fe20"}, {"lon": -76.99517616666667, "lat": 38.89484233333334, "name": "04c01795bfb236bf0f6e2507d1d48f65", "fusion_lat": 0.0, "fusion_lon": 0.0, "rental_uris": {"android": "https://dc.lft.to/lastmile_qr_scan", "ios": "https://dc.lft.to/lastmile_qr_scan"}, "is_reserved": 0, "is_disabled": 0, "type": "electric_scooter", "bike_id": "04c01795bfb236bf0f6e2507d1d48f65"}, {"lon": -77.02224116666666, "lat": 38.912526166666666, "name": "9e0e0e39f00d7ae3f6d28f2989fec77a", "fusion_lat": 0.0, "fusion_lon": 0.0, "rental_uris": {"android": "https://dc.lft.to/lastmile_qr_scan", "ios": "https://dc.lft.to/lastmile_qr_scan"}, "is_reserved": 0, "is_disabled": 0, "type": "electric_scooter", "bike_id": "9e0e0e39f00d7ae3f6d28f2989fec77a"}, {"lon": -77.002134, "lat": 38.900827, "name": "973537889694a4bb38eb1318e3893df4", "fusion_lat": 0.0, "fusion_lon": 0.0, "rental_uris": {"android": "https://dc.lft.to/lastmile_qr_scan", "ios": "https://dc.lft.to/lastmile_qr_scan"}, "is_reserved": 0, "is_disabled": 0, "type": "electric_scooter", "bike_id": "973537889694a4bb38eb1318e3893df4"}, {"lon": -77.09201583333333, "lat": 38.941312, "name": "9043653152dfe4bcd1281235295fa92f", "fusion_lat": 0.0, "fusion_lon": 0.0, "rental_uris": {"android": "https://dc.lft.to/lastmile_qr_scan", "ios": "https://dc.lft.to/lastmile_qr_scan"}, "is_reserved": 0, "is_disabled": 0, "type": "electric_scooter", "bike_id": "9043653152dfe4bcd1281235295fa92f"}, {"lon": -77.0058335, "lat": 38.905630333333335, "name": "02e04463e6abee6d9cfaa203ffd3f72c", "fusion_lat": 0.0, "fusion_lon": 0.0, "rental_uris": {"android": "https://dc.lft.to/lastmile_qr_scan", "ios": "https://dc.lft.to/lastmile_qr_scan"}, "is_reserved": 0, "is_disabled": 0, "type": "electric_scooter", "bike_id": "02e04463e6abee6d9cfaa203ffd3f72c"}, {"lon": -77.00633166666667, "lat": 38.95566016666667, "name": "bea8af8f4db224e68edebfbb1a51d9e5", "fusion_lat": 0.0, "fusion_lon": 0.0, "rental_uris": {"android": "https://dc.lft.to/lastmile_qr_scan", "ios": "https://dc.lft.to/lastmile_qr_scan"}, "is_reserved": 0, "is_disabled": 0, "type": "electric_scooter", "bike_id": "bea8af8f4db224e68edebfbb1a51d9e5"}, {"lon": -77.0178755, "lat": 38.90371116666667, "name": "b225420b3dde9f684c7f71eb4a114215", "fusion_lat": 0.0, "fusion_lon": 0.0, "rental_uris": {"android": "https://dc.lft.to/lastmile_qr_scan", "ios": "https://dc.lft.to/lastmile_qr_scan"}, "is_reserved": 0, "is_disabled": 0, "type": "electric_bike", "bike_id": "b225420b3dde9f684c7f71eb4a114215"}, {"lon": -77.0403305, "lat": 38.90496233333333, "name": "5cb8a60d3eddab9e0695b8f07a31aea7", "fusion_lat": 0.0, "fusion_lon": 0.0, "rental_uris": {"android": "https://dc.lft.to/lastmile_qr_scan", "ios": "https://dc.lft.to/lastmile_qr_scan"}, "is_reserved": 0, "is_disabled": 0, "type": "electric_scooter", "bike_id": "5cb8a60d3eddab9e0695b8f07a31aea7"}, {"lon": -77.02480183333333, "lat": 38.9388045, "name": "cc31e9477e522e2043b62efeef76e276", "fusion_lat": 0.0, "fusion_lon": 0.0, "rental_uris": {"android": "https://dc.lft.to/lastmile_qr_scan", "ios": "https://dc.lft.to/lastmile_qr_scan"}, "is_reserved": 0, "is_disabled": 0, "type": "electric_scooter", "bike_id": "cc31e9477e522e2043b62efeef76e276"}, {"lon": -77.02153066666666, "lat": 38.89403183333334, "name": "1f71c5d11f27a0e69f91c5977e8f3e7e", "fusion_lat": 0.0, "fusion_lon": 0.0, "rental_uris": {"android": "https://dc.lft.to/lastmile_qr_scan", "ios": "https://dc.lft.to/lastmile_qr_scan"}, "is_reserved": 0, "is_disabled": 0, "type": "electric_scooter", "bike_id": "1f71c5d11f27a0e69f91c5977e8f3e7e"}, {"lon": -76.9901345, "lat": 38.861148, "name": "66aa93c87de1a20d46f3eae126edb3e5", "fusion_lat": 0.0, "fusion_lon": 0.0, "rental_uris": {"android": "https://dc.lft.to/lastmile_qr_scan", "ios": "https://dc.lft.to/lastmile_qr_scan"}, "is_reserved": 0, "is_disabled": 0, "type": "electric_scooter", "bike_id": "66aa93c87de1a20d46f3eae126edb3e5"}, {"lon": -77.0154515, "lat": 38.943137666666665, "name": "eaa01f6e45f73702fd1315cc5df5e867", "fusion_lat": 0.0, "fusion_lon": 0.0, "rental_uris": {"android": "https://dc.lft.to/lastmile_qr_scan", "ios": "https://dc.lft.to/lastmile_qr_scan"}, "is_reserved": 0, "is_disabled": 0, "type": "electric_scooter", "bike_id": "eaa01f6e45f73702fd1315cc5df5e867"}, {"lon": -77.031883, "lat": 38.91913316666667, "name": "35d24b819a848dcd4fc02275b14222ac", "fusion_lat": 0.0, "fusion_lon": 0.0, "rental_uris": {"android": "https://dc.lft.to/lastmile_qr_scan", "ios": "https://dc.lft.to/lastmile_qr_scan"}, "is_reserved": 0, "is_disabled": 0, "type": "electric_scooter", "bike_id": "35d24b819a848dcd4fc02275b14222ac"}, {"lon": -77.01600466666666, "lat": 38.9095735, "name": "d939621a8bf11c48b4ac3381a7a16288", "fusion_lat": 0.0, "fusion_lon": 0.0, "rental_uris": {"android": "https://dc.lft.to/lastmile_qr_scan", "ios": "https://dc.lft.to/lastmile_qr_scan"}, "is_reserved": 0, "is_disabled": 0, "type": "electric_scooter", "bike_id": "d939621a8bf11c48b4ac3381a7a16288"}, {"lon": -77.03635483333333, "lat": 38.92409033333333, "name": "2c45e66243c216cdaecc6cdbab03ba10", "fusion_lat": 0.0, "fusion_lon": 0.0, "rental_uris": {"android": "https://dc.lft.to/lastmile_qr_scan", "ios": "https://dc.lft.to/lastmile_qr_scan"}, "is_reserved": 0, "is_disabled": 0, "type": "electric_scooter", "bike_id": "2c45e66243c216cdaecc6cdbab03ba10"}, {"lon": -76.94891333333334, "lat": 38.895245, "name": "a02ad695d7105e03c358764291534c00", "fusion_lat": 0.0, "fusion_lon": 0.0, "rental_uris": {"android": "https://dc.lft.to/lastmile_qr_scan", "ios": "https://dc.lft.to/lastmile_qr_scan"}, "is_reserved": 0, "is_disabled": 0, "type": "electric_scooter", "bike_id": "a02ad695d7105e03c358764291534c00"}, {"lon": -77.000532, "lat": 38.9036755, "name": "da465d33c853cf45574ce5e70b9f55fd", "fusion_lat": 0.0, "fusion_lon": 0.0, "rental_uris": {"android": "https://dc.lft.to/lastmile_qr_scan", "ios": "https://dc.lft.to/lastmile_qr_scan"}, "is_reserved": 0, "is_disabled": 0, "type": "electric_scooter", "bike_id": "da465d33c853cf45574ce5e70b9f55fd"}, {"lon": -76.99632416666667, "lat": 38.846255166666666, "name": "a4f4c972c3ff0fede87ec8ba21f9ca6d", "fusion_lat": 0.0, "fusion_lon": 0.0, "rental_uris": {"android": "https://dc.lft.to/lastmile_qr_scan", "ios": "https://dc.lft.to/lastmile_qr_scan"}, "is_reserved": 0, "is_disabled": 0, "type": "electric_scooter", "bike_id": "a4f4c972c3ff0fede87ec8ba21f9ca6d"}, {"lon": -77.02575, "lat": 38.93883066666667, "name": "1d8ce969a0638bad46b4a812b4908c90", "fusion_lat": 0.0, "fusion_lon": 0.0, "rental_uris": {"android": "https://dc.lft.to/lastmile_qr_scan", "ios": "https://dc.lft.to/lastmile_qr_scan"}, "is_reserved": 0, "is_disabled": 0, "type": "electric_scooter", "bike_id": "1d8ce969a0638bad46b4a812b4908c90"}, {"lon": -76.9986, "lat": 38.90016, "name": "c12d2fa8a7311a39e6fc61261bb4fec0", "fusion_lat": 0.0, "fusion_lon": 0.0, "rental_uris": {"android": "https://dc.lft.to/lastmile_qr_scan", "ios": "https://dc.lft.to/lastmile_qr_scan"}, "is_reserved": 0, "is_disabled": 0, "type": "electric_scooter", "bike_id": "c12d2fa8a7311a39e6fc61261bb4fec0"}, {"lon": -77.04172616666666, "lat": 38.9191275, "name": "88f7b69d9ac255b216cc110cd123d91b", "fusion_lat": 0.0, "fusion_lon": 0.0, "rental_uris": {"android": "https://dc.lft.to/lastmile_qr_scan", "ios": "https://dc.lft.to/lastmile_qr_scan"}, "is_reserved": 0, "is_disabled": 0, "type": "electric_scooter", "bike_id": "88f7b69d9ac255b216cc110cd123d91b"}, {"lon": -76.99863083333334, "lat": 38.90020166666667, "name": "7e52dbfa606de404a365b417bab03d6a", "fusion_lat": 0.0, "fusion_lon": 0.0, "rental_uris": {"android": "https://dc.lft.to/lastmile_qr_scan", "ios": "https://dc.lft.to/lastmile_qr_scan"}, "is_reserved": 0, "is_disabled": 0, "type": "electric_scooter", "bike_id": "7e52dbfa606de404a365b417bab03d6a"}, {"lon": -77.034473, "lat": 38.904511666666664, "name": "ae9ba8d4d7cd263b745e7f4f9691be40", "fusion_lat": 0.0, "fusion_lon": 0.0, "rental_uris": {"android": "https://dc.lft.to/lastmile_qr_scan", "ios": "https://dc.lft.to/lastmile_qr_scan"}, "is_reserved": 0, "is_disabled": 0, "type": "electric_scooter", "bike_id": "ae9ba8d4d7cd263b745e7f4f9691be40"}, {"lon": -77.03164783333334, "lat": 38.914154833333335, "name": "cc888b28537646b8a8ebee9b226b11d0", "fusion_lat": 0.0, "fusion_lon": 0.0, "rental_uris": {"android": "https://dc.lft.to/lastmile_qr_scan", "ios": "https://dc.lft.to/lastmile_qr_scan"}, "is_reserved": 0, "is_disabled": 0, "type": "electric_scooter", "bike_id": "cc888b28537646b8a8ebee9b226b11d0"}, {"lon": -77.03397616666666, "lat": 38.921766, "name": "9031ec85f51a67ad5f1c0266a222715d", "fusion_lat": 0.0, "fusion_lon": 0.0, "rental_uris": {"android": "https://dc.lft.to/lastmile_qr_scan", "ios": "https://dc.lft.to/lastmile_qr_scan"}, "is_reserved": 0, "is_disabled": 0, "type": "electric_scooter", "bike_id": "9031ec85f51a67ad5f1c0266a222715d"}, {"lon": -77.0282755, "lat": 38.892484833333334, "name": "cd59f8ccd620436303c20a1591360e38", "fusion_lat": 0.0, "fusion_lon": 0.0, "rental_uris": {"android": "https://dc.lft.to/lastmile_qr_scan", "ios": "https://dc.lft.to/lastmile_qr_scan"}, "is_reserved": 0, "is_disabled": 0, "type": "electric_scooter", "bike_id": "cd59f8ccd620436303c20a1591360e38"}, {"lon": -77.026633, "lat": 38.902569666666665, "name": "c9957dbc212a3c5e7712b32c482c15bc", "fusion_lat": 0.0, "fusion_lon": 0.0, "rental_uris": {"android": "https://dc.lft.to/lastmile_qr_scan", "ios": "https://dc.lft.to/lastmile_qr_scan"}, "is_reserved": 0, "is_disabled": 0, "type": "electric_scooter", "bike_id": "c9957dbc212a3c5e7712b32c482c15bc"}, {"lon": -76.99159983333334, "lat": 38.8791915, "name": "533aa1e1885690d6a55209330f5629ce", "fusion_lat": 0.0, "fusion_lon": 0.0, "rental_uris": {"android": "https://dc.lft.to/lastmile_qr_scan", "ios": "https://dc.lft.to/lastmile_qr_scan"}, "is_reserved": 0, "is_disabled": 0, "type": "electric_scooter", "bike_id": "533aa1e1885690d6a55209330f5629ce"}, {"lon": -77.038598, "lat": 38.912524833333336, "name": "e605464be5ab35833c404c83b19e62df", "fusion_lat": 0.0, "fusion_lon": 0.0, "rental_uris": {"android": "https://dc.lft.to/lastmile_qr_scan", "ios": "https://dc.lft.to/lastmile_qr_scan"}, "is_reserved": 0, "is_disabled": 0, "type": "electric_scooter", "bike_id": "e605464be5ab35833c404c83b19e62df"}, {"lon": -77.06467466666666, "lat": 38.97383716666667, "name": "a305368426a39162230f789ffb7da862", "fusion_lat": 0.0, "fusion_lon": 0.0, "rental_uris": {"android": "https://dc.lft.to/lastmile_qr_scan", "ios": "https://dc.lft.to/lastmile_qr_scan"}, "is_reserved": 0, "is_disabled": 0, "type": "electric_bike", "bike_id": "a305368426a39162230f789ffb7da862"}, {"lon": -77.03859966666667, "lat": 38.912569, "name": "bb6064e7c8c0efe6fea56304529a6c5e", "fusion_lat": 0.0, "fusion_lon": 0.0, "rental_uris": {"android": "https://dc.lft.to/lastmile_qr_scan", "ios": "https://dc.lft.to/lastmile_qr_scan"}, "is_reserved": 0, "is_disabled": 0, "type": "electric_scooter", "bike_id": "bb6064e7c8c0efe6fea56304529a6c5e"}, {"lon": -76.99869883333334, "lat": 38.90754316666667, "name": "2be9db606e546061da7f716f078ab299", "fusion_lat": 0.0, "fusion_lon": 0.0, "rental_uris": {"android": "https://dc.lft.to/lastmile_qr_scan", "ios": "https://dc.lft.to/lastmile_qr_scan"}, "is_reserved": 0, "is_disabled": 0, "type": "electric_scooter", "bike_id": "2be9db606e546061da7f716f078ab299"}, {"lon": -77.03985533333334, "lat": 38.80297516666667, "name": "8ccaa4a3826f94cd5652948388b4ca7e", "fusion_lat": 0.0, "fusion_lon": 0.0, "rental_uris": {"android": "https://dc.lft.to/lastmile_qr_scan", "ios": "https://dc.lft.to/lastmile_qr_scan"}, "is_reserved": 0, "is_disabled": 0, "type": "electric_bike", "bike_id": "8ccaa4a3826f94cd5652948388b4ca7e"}, {"lon": -77.02809816666667, "lat": 38.909286, "name": "5cdd21afef8b2d9de50fe6e5e413b095", "fusion_lat": 0.0, "fusion_lon": 0.0, "rental_uris": {"android": "https://dc.lft.to/lastmile_qr_scan", "ios": "https://dc.lft.to/lastmile_qr_scan"}, "is_reserved": 0, "is_disabled": 0, "type": "electric_scooter", "bike_id": "5cdd21afef8b2d9de50fe6e5e413b095"}, {"lon": -76.99908916666666, "lat": 38.909341166666664, "name": "b5e3a0dd85ced288b76363947e5a8203", "fusion_lat": 0.0, "fusion_lon": 0.0, "rental_uris": {"android": "https://dc.lft.to/lastmile_qr_scan", "ios": "https://dc.lft.to/lastmile_qr_scan"}, "is_reserved": 0, "is_disabled": 0, "type": "electric_scooter", "bike_id": "b5e3a0dd85ced288b76363947e5a8203"}, {"lon": -77.027487, "lat": 38.96627566666667, "name": "c7af7519860e02b530c9116c2c00204d", "fusion_lat": 0.0, "fusion_lon": 0.0, "rental_uris": {"android": "https://dc.lft.to/lastmile_qr_scan", "ios": "https://dc.lft.to/lastmile_qr_scan"}, "is_reserved": 0, "is_disabled": 0, "type": "electric_scooter", "bike_id": "c7af7519860e02b530c9116c2c00204d"}, {"lon": -76.98232666666667, "lat": 38.866845833333336, "name": "b08d7458690bff8fde0c5a02bb8d06da", "fusion_lat": 0.0, "fusion_lon": 0.0, "rental_uris": {"android": "https://dc.lft.to/lastmile_qr_scan", "ios": "https://dc.lft.to/lastmile_qr_scan"}, "is_reserved": 0, "is_disabled": 0, "type": "electric_bike", "bike_id": "b08d7458690bff8fde0c5a02bb8d06da"}, {"lon": -76.97032083333333, "lat": 38.90316683333333, "name": "e6c570a9df0ccc4e5fcb6fb6f50dd9de", "fusion_lat": 0.0, "fusion_lon": 0.0, "rental_uris": {"android": "https://dc.lft.to/lastmile_qr_scan", "ios": "https://dc.lft.to/lastmile_qr_scan"}, "is_reserved": 0, "is_disabled": 0, "type": "electric_scooter", "bike_id": "e6c570a9df0ccc4e5fcb6fb6f50dd9de"}, {"lon": -77.02696083333333, "lat": 38.9066855, "name": "63f9c6806723b79e7fc25ccdf1027637", "fusion_lat": 0.0, "fusion_lon": 0.0, "rental_uris": {"android": "https://dc.lft.to/lastmile_qr_scan", "ios": "https://dc.lft.to/lastmile_qr_scan"}, "is_reserved": 0, "is_disabled": 0, "type": "electric_scooter", "bike_id": "63f9c6806723b79e7fc25ccdf1027637"}, {"lon": -77.021588, "lat": 38.928381333333334, "name": "c6734e96981d5b7cf3c17b63bd08c25c", "fusion_lat": 0.0, "fusion_lon": 0.0, "rental_uris": {"android": "https://dc.lft.to/lastmile_qr_scan", "ios": "https://dc.lft.to/lastmile_qr_scan"}, "is_reserved": 0, "is_disabled": 0, "type": "electric_scooter", "bike_id": "c6734e96981d5b7cf3c17b63bd08c25c"}, {"lon": -77.02289433333333, "lat": 38.926876666666665, "name": "aca13899437cfacdbb6f70953b8588e3", "fusion_lat": 0.0, "fusion_lon": 0.0, "rental_uris": {"android": "https://dc.lft.to/lastmile_qr_scan", "ios": "https://dc.lft.to/lastmile_qr_scan"}, "is_reserved": 0, "is_disabled": 0, "type": "electric_scooter", "bike_id": "aca13899437cfacdbb6f70953b8588e3"}, {"lon": -76.9951055, "lat": 38.844701666666666, "name": "2e88759d293a3f3cad786ad3379271bd", "fusion_lat": 0.0, "fusion_lon": 0.0, "rental_uris": {"android": "https://dc.lft.to/lastmile_qr_scan", "ios": "https://dc.lft.to/lastmile_qr_scan"}, "is_reserved": 0, "is_disabled": 0, "type": "electric_scooter", "bike_id": "2e88759d293a3f3cad786ad3379271bd"}, {"lon": -77.02569633333333, "lat": 38.88746666666667, "name": "564b243e3507847e4845213a00b53c7b", "fusion_lat": 0.0, "fusion_lon": 0.0, "rental_uris": {"android": "https://dc.lft.to/lastmile_qr_scan", "ios": "https://dc.lft.to/lastmile_qr_scan"}, "is_reserved": 0, "is_disabled": 0, "type": "electric_scooter", "bike_id": "564b243e3507847e4845213a00b53c7b"}, {"lon": -77.03273066666667, "lat": 38.929082333333334, "name": "f7e6b65d6bd8e44d05e4d59578e41ccd", "fusion_lat": 0.0, "fusion_lon": 0.0, "rental_uris": {"android": "https://dc.lft.to/lastmile_qr_scan", "ios": "https://dc.lft.to/lastmile_qr_scan"}, "is_reserved": 0, "is_disabled": 0, "type": "electric_scooter", "bike_id": "f7e6b65d6bd8e44d05e4d59578e41ccd"}, {"lon": -77.01181333333334, "lat": 38.900245, "name": "3c0706c8877a1fbb9b49004167cc2c46", "fusion_lat": 0.0, "fusion_lon": 0.0, "rental_uris": {"android": "https://dc.lft.to/lastmile_qr_scan", "ios": "https://dc.lft.to/lastmile_qr_scan"}, "is_reserved": 0, "is_disabled": 0, "type": "electric_scooter", "bike_id": "3c0706c8877a1fbb9b49004167cc2c46"}, {"lon": -77.040725, "lat": 38.9036995, "name": "7451802bb25d3c2af9d6872af4e8fe97", "fusion_lat": 0.0, "fusion_lon": 0.0, "rental_uris": {"android": "https://dc.lft.to/lastmile_qr_scan", "ios": "https://dc.lft.to/lastmile_qr_scan"}, "is_reserved": 0, "is_disabled": 0, "type": "electric_scooter", "bike_id": "7451802bb25d3c2af9d6872af4e8fe97"}, {"lon": -77.11435766666666, "lat": 38.84304916666667, "name": "4f4657c5ec7273ef957a812c44862d37", "fusion_lat": 0.0, "fusion_lon": 0.0, "rental_uris": {"android": "https://dc.lft.to/lastmile_qr_scan", "ios": "https://dc.lft.to/lastmile_qr_scan"}, "is_reserved": 0, "is_disabled": 0, "type": "electric_bike", "bike_id": "4f4657c5ec7273ef957a812c44862d37"}, {"lon": -77.01329866666667, "lat": 38.914871833333336, "name": "e1791887ada3d1877851c30c8efd21bb", "fusion_lat": 0.0, "fusion_lon": 0.0, "rental_uris": {"android": "https://dc.lft.to/lastmile_qr_scan", "ios": "https://dc.lft.to/lastmile_qr_scan"}, "is_reserved": 0, "is_disabled": 0, "type": "electric_scooter", "bike_id": "e1791887ada3d1877851c30c8efd21bb"}, {"lon": -77.04062366666666, "lat": 38.917706833333334, "name": "42bea0b4d5fd1157e708826ac8b19251", "fusion_lat": 0.0, "fusion_lon": 0.0, "rental_uris": {"android": "https://dc.lft.to/lastmile_qr_scan", "ios": "https://dc.lft.to/lastmile_qr_scan"}, "is_reserved": 0, "is_disabled": 0, "type": "electric_scooter", "bike_id": "42bea0b4d5fd1157e708826ac8b19251"}, {"lon": -77.0316295, "lat": 38.9142075, "name": "be8a8a75bf7ea08764471db8fea07a89", "fusion_lat": 0.0, "fusion_lon": 0.0, "rental_uris": {"android": "https://dc.lft.to/lastmile_qr_scan", "ios": "https://dc.lft.to/lastmile_qr_scan"}, "is_reserved": 0, "is_disabled": 0, "type": "electric_scooter", "bike_id": "be8a8a75bf7ea08764471db8fea07a89"}, {"lon": -77.01529183333334, "lat": 38.887362, "name": "66fe3a1c16de4e4f17088bb0cf4953da", "fusion_lat": 0.0, "fusion_lon": 0.0, "rental_uris": {"android": "https://dc.lft.to/lastmile_qr_scan", "ios": "https://dc.lft.to/lastmile_qr_scan"}, "is_reserved": 0, "is_disabled": 0, "type": "electric_scooter", "bike_id": "66fe3a1c16de4e4f17088bb0cf4953da"}, {"lon": -77.07908966666666, "lat": 38.83933283333333, "name": "99e5b090d7fd638eca1941659d5c3160", "fusion_lat": 0.0, "fusion_lon": 0.0, "rental_uris": {"android": "https://dc.lft.to/lastmile_qr_scan", "ios": "https://dc.lft.to/lastmile_qr_scan"}, "is_reserved": 0, "is_disabled": 0, "type": "electric_bike", "bike_id": "99e5b090d7fd638eca1941659d5c3160"}, {"lon": -77.0383835, "lat": 38.914715, "name": "e85fbe4e7234b71d58d41d89b7bb61eb", "fusion_lat": 0.0, "fusion_lon": 0.0, "rental_uris": {"android": "https://dc.lft.to/lastmile_qr_scan", "ios": "https://dc.lft.to/lastmile_qr_scan"}, "is_reserved": 0, "is_disabled": 0, "type": "electric_scooter", "bike_id": "e85fbe4e7234b71d58d41d89b7bb61eb"}, {"lon": -77.05314633333333, "lat": 38.820532, "name": "582df0b44d9f02060a49e180518b25db", "fusion_lat": 0.0, "fusion_lon": 0.0, "rental_uris": {"android": "https://dc.lft.to/lastmile_qr_scan", "ios": "https://dc.lft.to/lastmile_qr_scan"}, "is_reserved": 0, "is_disabled": 0, "type": "electric_bike", "bike_id": "582df0b44d9f02060a49e180518b25db"}, {"lon": -77.02916683333333, "lat": 38.88465266666667, "name": "829990d348d1b187eb7ced63521621a9", "fusion_lat": 0.0, "fusion_lon": 0.0, "rental_uris": {"android": "https://dc.lft.to/lastmile_qr_scan", "ios": "https://dc.lft.to/lastmile_qr_scan"}, "is_reserved": 0, "is_disabled": 0, "type": "electric_scooter", "bike_id": "829990d348d1b187eb7ced63521621a9"}, {"lon": -77.02945716666666, "lat": 38.90505983333333, "name": "737110645b879b149af818295f16c4e5", "fusion_lat": 0.0, "fusion_lon": 0.0, "rental_uris": {"android": "https://dc.lft.to/lastmile_qr_scan", "ios": "https://dc.lft.to/lastmile_qr_scan"}, "is_reserved": 0, "is_disabled": 0, "type": "electric_scooter", "bike_id": "737110645b879b149af818295f16c4e5"}, {"lon": -77.03702266666667, "lat": 38.916594833333335, "name": "87cc7660c09a87899e8c0d388d10c271", "fusion_lat": 0.0, "fusion_lon": 0.0, "rental_uris": {"android": "https://dc.lft.to/lastmile_qr_scan", "ios": "https://dc.lft.to/lastmile_qr_scan"}, "is_reserved": 0, "is_disabled": 0, "type": "electric_scooter", "bike_id": "87cc7660c09a87899e8c0d388d10c271"}, {"lon": -77.008596, "lat": 38.869468166666664, "name": "e91abb24029f00cde9ef8e256c937bf2", "fusion_lat": 0.0, "fusion_lon": 0.0, "rental_uris": {"android": "https://dc.lft.to/lastmile_qr_scan", "ios": "https://dc.lft.to/lastmile_qr_scan"}, "is_reserved": 0, "is_disabled": 0, "type": "electric_scooter", "bike_id": "e91abb24029f00cde9ef8e256c937bf2"}, {"lon": -77.01099216666667, "lat": 38.894803833333334, "name": "2e4ec32fdb0739616c935a9103c831ed", "fusion_lat": 0.0, "fusion_lon": 0.0, "rental_uris": {"android": "https://dc.lft.to/lastmile_qr_scan", "ios": "https://dc.lft.to/lastmile_qr_scan"}, "is_reserved": 0, "is_disabled": 0, "type": "electric_scooter", "bike_id": "2e4ec32fdb0739616c935a9103c831ed"}, {"lon": -76.97622983333333, "lat": 38.905656666666665, "name": "4ed9e91eb09faff1825aac24fed0820f", "fusion_lat": 0.0, "fusion_lon": 0.0, "rental_uris": {"android": "https://dc.lft.to/lastmile_qr_scan", "ios": "https://dc.lft.to/lastmile_qr_scan"}, "is_reserved": 0, "is_disabled": 0, "type": "electric_scooter", "bike_id": "4ed9e91eb09faff1825aac24fed0820f"}, {"lon": -76.98682333333333, "lat": 38.882160999999996, "name": "50c13d4c8dc12590ccd551a725965531", "fusion_lat": 0.0, "fusion_lon": 0.0, "rental_uris": {"android": "https://dc.lft.to/lastmile_qr_scan", "ios": "https://dc.lft.to/lastmile_qr_scan"}, "is_reserved": 0, "is_disabled": 0, "type": "electric_scooter", "bike_id": "50c13d4c8dc12590ccd551a725965531"}, {"lon": -77.04181766666666, "lat": 38.9187495, "name": "2165911198a2fd59df2e8d4b63234709", "fusion_lat": 0.0, "fusion_lon": 0.0, "rental_uris": {"android": "https://dc.lft.to/lastmile_qr_scan", "ios": "https://dc.lft.to/lastmile_qr_scan"}, "is_reserved": 0, "is_disabled": 0, "type": "electric_scooter", "bike_id": "2165911198a2fd59df2e8d4b63234709"}, {"lon": -77.0328155, "lat": 38.91024766666666, "name": "8d28b08fa5ac8d9e17d5045ef8e44fa3", "fusion_lat": 0.0, "fusion_lon": 0.0, "rental_uris": {"android": "https://dc.lft.to/lastmile_qr_scan", "ios": "https://dc.lft.to/lastmile_qr_scan"}, "is_reserved": 0, "is_disabled": 0, "type": "electric_scooter", "bike_id": "8d28b08fa5ac8d9e17d5045ef8e44fa3"}, {"lon": -77.02849133333333, "lat": 38.96508433333333, "name": "fe0ea6b4c5af0994f7caeda4b57e096b", "fusion_lat": 0.0, "fusion_lon": 0.0, "rental_uris": {"android": "https://dc.lft.to/lastmile_qr_scan", "ios": "https://dc.lft.to/lastmile_qr_scan"}, "is_reserved": 0, "is_disabled": 0, "type": "electric_scooter", "bike_id": "fe0ea6b4c5af0994f7caeda4b57e096b"}, {"lon": -77.03284933333333, "lat": 38.93985766666667, "name": "3976e3096937216c2dd838195c3c3cbc", "fusion_lat": 0.0, "fusion_lon": 0.0, "rental_uris": {"android": "https://dc.lft.to/lastmile_qr_scan", "ios": "https://dc.lft.to/lastmile_qr_scan"}, "is_reserved": 0, "is_disabled": 0, "type": "electric_scooter", "bike_id": "3976e3096937216c2dd838195c3c3cbc"}, {"lon": -77.038514, "lat": 38.91545416666666, "name": "2925f1eb82e809888a32658becca86dd", "fusion_lat": 0.0, "fusion_lon": 0.0, "rental_uris": {"android": "https://dc.lft.to/lastmile_qr_scan", "ios": "https://dc.lft.to/lastmile_qr_scan"}, "is_reserved": 0, "is_disabled": 0, "type": "electric_scooter", "bike_id": "2925f1eb82e809888a32658becca86dd"}, {"lon": -77.033425, "lat": 38.8850635, "name": "57cd81ad3a09914c680a8eef7901e11e", "fusion_lat": 0.0, "fusion_lon": 0.0, "rental_uris": {"android": "https://dc.lft.to/lastmile_qr_scan", "ios": "https://dc.lft.to/lastmile_qr_scan"}, "is_reserved": 0, "is_disabled": 0, "type": "electric_scooter", "bike_id": "57cd81ad3a09914c680a8eef7901e11e"}, {"lon": -77.04407183333333, "lat": 38.92951016666667, "name": "9fe69f717cbdb879b0cf6c1c7746ef16", "fusion_lat": 0.0, "fusion_lon": 0.0, "rental_uris": {"android": "https://dc.lft.to/lastmile_qr_scan", "ios": "https://dc.lft.to/lastmile_qr_scan"}, "is_reserved": 0, "is_disabled": 0, "type": "electric_scooter", "bike_id": "9fe69f717cbdb879b0cf6c1c7746ef16"}, {"lon": -77.028683, "lat": 38.8939115, "name": "47303225a4a4a61ae56881f4bcda9928", "fusion_lat": 0.0, "fusion_lon": 0.0, "rental_uris": {"android": "https://dc.lft.to/lastmile_qr_scan", "ios": "https://dc.lft.to/lastmile_qr_scan"}, "is_reserved": 0, "is_disabled": 0, "type": "electric_scooter", "bike_id": "47303225a4a4a61ae56881f4bcda9928"}, {"lon": -77.02818883333333, "lat": 38.923696, "name": "b9f1514dc7e4ff13d3ab03bc28410383", "fusion_lat": 0.0, "fusion_lon": 0.0, "rental_uris": {"android": "https://dc.lft.to/lastmile_qr_scan", "ios": "https://dc.lft.to/lastmile_qr_scan"}, "is_reserved": 0, "is_disabled": 0, "type": "electric_scooter", "bike_id": "b9f1514dc7e4ff13d3ab03bc28410383"}, {"lon": -77.05590783333334, "lat": 38.9277755, "name": "745a6d6d372a55de4e63686061e22093", "fusion_lat": 0.0, "fusion_lon": 0.0, "rental_uris": {"android": "https://dc.lft.to/lastmile_qr_scan", "ios": "https://dc.lft.to/lastmile_qr_scan"}, "is_reserved": 0, "is_disabled": 0, "type": "electric_scooter", "bike_id": "745a6d6d372a55de4e63686061e22093"}, {"lon": -77.09520416666666, "lat": 38.838076666666666, "name": "ffc88669c68fce682202c0ca87cd3a87", "fusion_lat": 0.0, "fusion_lon": 0.0, "rental_uris": {"android": "https://dc.lft.to/lastmile_qr_scan", "ios": "https://dc.lft.to/lastmile_qr_scan"}, "is_reserved": 0, "is_disabled": 0, "type": "electric_bike", "bike_id": "ffc88669c68fce682202c0ca87cd3a87"}, {"lon": -77.046989, "lat": 38.92109816666667, "name": "0fc72d7ffc3ad704a5e5fbc3bee6d9ae", "fusion_lat": 0.0, "fusion_lon": 0.0, "rental_uris": {"android": "https://dc.lft.to/lastmile_qr_scan", "ios": "https://dc.lft.to/lastmile_qr_scan"}, "is_reserved": 0, "is_disabled": 0, "type": "electric_scooter", "bike_id": "0fc72d7ffc3ad704a5e5fbc3bee6d9ae"}, {"lon": -77.04314516666666, "lat": 38.904231, "name": "0f5101e7b0f442653e97399c51c42d5a", "fusion_lat": 0.0, "fusion_lon": 0.0, "rental_uris": {"android": "https://dc.lft.to/lastmile_qr_scan", "ios": "https://dc.lft.to/lastmile_qr_scan"}, "is_reserved": 0, "is_disabled": 0, "type": "electric_scooter", "bike_id": "0f5101e7b0f442653e97399c51c42d5a"}, {"lon": -76.94960183333333, "lat": 38.8936175, "name": "c5ed7a5b9f6be9cb56b8b4a33597e694", "fusion_lat": 0.0, "fusion_lon": 0.0, "rental_uris": {"android": "https://dc.lft.to/lastmile_qr_scan", "ios": "https://dc.lft.to/lastmile_qr_scan"}, "is_reserved": 0, "is_disabled": 0, "type": "electric_scooter", "bike_id": "c5ed7a5b9f6be9cb56b8b4a33597e694"}, {"lon": -77.044697, "lat": 38.90259983333333, "name": "b03335a683210cbf5f88d155557a7997", "fusion_lat": 0.0, "fusion_lon": 0.0, "rental_uris": {"android": "https://dc.lft.to/lastmile_qr_scan", "ios": "https://dc.lft.to/lastmile_qr_scan"}, "is_reserved": 0, "is_disabled": 0, "type": "electric_scooter", "bike_id": "b03335a683210cbf5f88d155557a7997"}, {"lon": -77.02477016666667, "lat": 38.92653816666667, "name": "e4757ec2cf9c89299afea75b7fa54a9e", "fusion_lat": 0.0, "fusion_lon": 0.0, "rental_uris": {"android": "https://dc.lft.to/lastmile_qr_scan", "ios": "https://dc.lft.to/lastmile_qr_scan"}, "is_reserved": 0, "is_disabled": 0, "type": "electric_scooter", "bike_id": "e4757ec2cf9c89299afea75b7fa54a9e"}, {"lon": -77.04207116666667, "lat": 38.901652, "name": "df86ab2a6f7cada92064d761682363a4", "fusion_lat": 0.0, "fusion_lon": 0.0, "rental_uris": {"android": "https://dc.lft.to/lastmile_qr_scan", "ios": "https://dc.lft.to/lastmile_qr_scan"}, "is_reserved": 0, "is_disabled": 0, "type": "electric_scooter", "bike_id": "df86ab2a6f7cada92064d761682363a4"}, {"lon": -77.03359633333334, "lat": 38.88757716666667, "name": "b7b6007b61f9bbdfb31b4292352009c1", "fusion_lat": 0.0, "fusion_lon": 0.0, "rental_uris": {"android": "https://dc.lft.to/lastmile_qr_scan", "ios": "https://dc.lft.to/lastmile_qr_scan"}, "is_reserved": 0, "is_disabled": 0, "type": "electric_scooter", "bike_id": "b7b6007b61f9bbdfb31b4292352009c1"}, {"lon": -77.0237815, "lat": 38.911566, "name": "7904b62c7173e6950d1eda31c8c027ec", "fusion_lat": 0.0, "fusion_lon": 0.0, "rental_uris": {"android": "https://dc.lft.to/lastmile_qr_scan", "ios": "https://dc.lft.to/lastmile_qr_scan"}, "is_reserved": 0, "is_disabled": 0, "type": "electric_scooter", "bike_id": "7904b62c7173e6950d1eda31c8c027ec"}, {"lon": -76.94897833333333, "lat": 38.895280666666665, "name": "bb8bdb4890e7fb68ce2bec6697995808", "fusion_lat": 0.0, "fusion_lon": 0.0, "rental_uris": {"android": "https://dc.lft.to/lastmile_qr_scan", "ios": "https://dc.lft.to/lastmile_qr_scan"}, "is_reserved": 0, "is_disabled": 0, "type": "electric_scooter", "bike_id": "bb8bdb4890e7fb68ce2bec6697995808"}, {"lon": -77.02689916666667, "lat": 38.91593966666667, "name": "52b6de501c5595f6c78e778ec22a4b46", "fusion_lat": 0.0, "fusion_lon": 0.0, "rental_uris": {"android": "https://dc.lft.to/lastmile_qr_scan", "ios": "https://dc.lft.to/lastmile_qr_scan"}, "is_reserved": 0, "is_disabled": 0, "type": "electric_scooter", "bike_id": "52b6de501c5595f6c78e778ec22a4b46"}, {"lon": -77.08544316666666, "lat": 38.856161666666665, "name": "4e51a6d73c69e1afbe68417dd9dc7a98", "fusion_lat": 0.0, "fusion_lon": 0.0, "rental_uris": {"android": "https://dc.lft.to/lastmile_qr_scan", "ios": "https://dc.lft.to/lastmile_qr_scan"}, "is_reserved": 0, "is_disabled": 0, "type": "electric_bike", "bike_id": "4e51a6d73c69e1afbe68417dd9dc7a98"}, {"lon": -77.03459083333334, "lat": 38.9457755, "name": "e969182bd2e3e5562aeac9789f6d0559", "fusion_lat": 0.0, "fusion_lon": 0.0, "rental_uris": {"android": "https://dc.lft.to/lastmile_qr_scan", "ios": "https://dc.lft.to/lastmile_qr_scan"}, "is_reserved": 0, "is_disabled": 0, "type": "electric_scooter", "bike_id": "e969182bd2e3e5562aeac9789f6d0559"}, {"lon": -77.04997883333333, "lat": 38.892279, "name": "5b33bc3968d105def04f30a1241ad66a", "fusion_lat": 0.0, "fusion_lon": 0.0, "rental_uris": {"android": "https://dc.lft.to/lastmile_qr_scan", "ios": "https://dc.lft.to/lastmile_qr_scan"}, "is_reserved": 0, "is_disabled": 0, "type": "electric_scooter", "bike_id": "5b33bc3968d105def04f30a1241ad66a"}, {"lon": -76.99558233333333, "lat": 38.88608516666667, "name": "2deb2e2a210f8225118dfc69e74dbb57", "fusion_lat": 0.0, "fusion_lon": 0.0, "rental_uris": {"android": "https://dc.lft.to/lastmile_qr_scan", "ios": "https://dc.lft.to/lastmile_qr_scan"}, "is_reserved": 0, "is_disabled": 0, "type": "electric_scooter", "bike_id": "2deb2e2a210f8225118dfc69e74dbb57"}, {"lon": -77.03347033333333, "lat": 38.8850515, "name": "e5f49a5a5ef99c5405dae6c0b2af07f0", "fusion_lat": 0.0, "fusion_lon": 0.0, "rental_uris": {"android": "https://dc.lft.to/lastmile_qr_scan", "ios": "https://dc.lft.to/lastmile_qr_scan"}, "is_reserved": 0, "is_disabled": 0, "type": "electric_scooter", "bike_id": "e5f49a5a5ef99c5405dae6c0b2af07f0"}, {"lon": -77.02944833333333, "lat": 38.90503483333333, "name": "be44e0b5095a6ed4d17430ed8cd223a4", "fusion_lat": 0.0, "fusion_lon": 0.0, "rental_uris": {"android": "https://dc.lft.to/lastmile_qr_scan", "ios": "https://dc.lft.to/lastmile_qr_scan"}, "is_reserved": 0, "is_disabled": 0, "type": "electric_scooter", "bike_id": "be44e0b5095a6ed4d17430ed8cd223a4"}, {"lon": -77.178298, "lat": 39.0888155, "name": "454ce796933a2fd6c21ae822ff70c15d", "fusion_lat": 0.0, "fusion_lon": 0.0, "rental_uris": {"android": "https://dc.lft.to/lastmile_qr_scan", "ios": "https://dc.lft.to/lastmile_qr_scan"}, "is_reserved": 0, "is_disabled": 0, "type": "electric_bike", "bike_id": "454ce796933a2fd6c21ae822ff70c15d"}, {"lon": -77.02542883333334, "lat": 38.94096716666667, "name": "e038c833334636d64840426194a112e0", "fusion_lat": 0.0, "fusion_lon": 0.0, "rental_uris": {"android": "https://dc.lft.to/lastmile_qr_scan", "ios": "https://dc.lft.to/lastmile_qr_scan"}, "is_reserved": 0, "is_disabled": 0, "type": "electric_scooter", "bike_id": "e038c833334636d64840426194a112e0"}, {"lon": -76.98892233333333, "lat": 38.86673116666667, "name": "713c3a112628b14d7b7079ce63bec745", "fusion_lat": 0.0, "fusion_lon": 0.0, "rental_uris": {"android": "https://dc.lft.to/lastmile_qr_scan", "ios": "https://dc.lft.to/lastmile_qr_scan"}, "is_reserved": 0, "is_disabled": 0, "type": "electric_scooter", "bike_id": "713c3a112628b14d7b7079ce63bec745"}, {"lon": -77.026295, "lat": 38.96228966666666, "name": "5bf2b5d8228b055d23d7bb6491fceaf4", "fusion_lat": 0.0, "fusion_lon": 0.0, "rental_uris": {"android": "https://dc.lft.to/lastmile_qr_scan", "ios": "https://dc.lft.to/lastmile_qr_scan"}, "is_reserved": 0, "is_disabled": 0, "type": "electric_bike", "bike_id": "5bf2b5d8228b055d23d7bb6491fceaf4"}, {"lon": -77.029743, "lat": 38.91667833333333, "name": "b68ca59bfdcb30ea6cef2aeb293d08fc", "fusion_lat": 0.0, "fusion_lon": 0.0, "rental_uris": {"android": "https://dc.lft.to/lastmile_qr_scan", "ios": "https://dc.lft.to/lastmile_qr_scan"}, "is_reserved": 0, "is_disabled": 0, "type": "electric_scooter", "bike_id": "b68ca59bfdcb30ea6cef2aeb293d08fc"}, {"lon": -77.0786325, "lat": 38.9316065, "name": "aab068c4ea4803187ed238ef45f6cd5d", "fusion_lat": 0.0, "fusion_lon": 0.0, "rental_uris": {"android": "https://dc.lft.to/lastmile_qr_scan", "ios": "https://dc.lft.to/lastmile_qr_scan"}, "is_reserved": 0, "is_disabled": 0, "type": "electric_scooter", "bike_id": "aab068c4ea4803187ed238ef45f6cd5d"}, {"lon": -76.96552016666666, "lat": 38.95097166666667, "name": "ddc54123840d42c941b68d680c9fb6c6", "fusion_lat": 0.0, "fusion_lon": 0.0, "rental_uris": {"android": "https://dc.lft.to/lastmile_qr_scan", "ios": "https://dc.lft.to/lastmile_qr_scan"}, "is_reserved": 0, "is_disabled": 0, "type": "electric_bike", "bike_id": "ddc54123840d42c941b68d680c9fb6c6"}, {"lon": -76.99263166666667, "lat": 38.89978683333333, "name": "4b4995bfb865551dbb82cb863c05295b", "fusion_lat": 0.0, "fusion_lon": 0.0, "rental_uris": {"android": "https://dc.lft.to/lastmile_qr_scan", "ios": "https://dc.lft.to/lastmile_qr_scan"}, "is_reserved": 0, "is_disabled": 0, "type": "electric_scooter", "bike_id": "4b4995bfb865551dbb82cb863c05295b"}, {"lon": -77.03739383333334, "lat": 38.92892716666667, "name": "04a4de9bc0a2a1d916caaf0b8ab0591e", "fusion_lat": 0.0, "fusion_lon": 0.0, "rental_uris": {"android": "https://dc.lft.to/lastmile_qr_scan", "ios": "https://dc.lft.to/lastmile_qr_scan"}, "is_reserved": 0, "is_disabled": 0, "type": "electric_scooter", "bike_id": "04a4de9bc0a2a1d916caaf0b8ab0591e"}, {"lon": -77.045909, "lat": 38.89997433333333, "name": "a5bd7ca346c3884178777e2eadfefd32", "fusion_lat": 0.0, "fusion_lon": 0.0, "rental_uris": {"android": "https://dc.lft.to/lastmile_qr_scan", "ios": "https://dc.lft.to/lastmile_qr_scan"}, "is_reserved": 0, "is_disabled": 0, "type": "electric_scooter", "bike_id": "a5bd7ca346c3884178777e2eadfefd32"}, {"lon": -77.040338, "lat": 38.91716616666667, "name": "668b3889a6b7e735646a4606de4056d3", "fusion_lat": 0.0, "fusion_lon": 0.0, "rental_uris": {"android": "https://dc.lft.to/lastmile_qr_scan", "ios": "https://dc.lft.to/lastmile_qr_scan"}, "is_reserved": 0, "is_disabled": 0, "type": "electric_scooter", "bike_id": "668b3889a6b7e735646a4606de4056d3"}, {"lon": -77.03935916666667, "lat": 38.914191833333334, "name": "3cde7e5390d50789f04b35dcec12eafc", "fusion_lat": 0.0, "fusion_lon": 0.0, "rental_uris": {"android": "https://dc.lft.to/lastmile_qr_scan", "ios": "https://dc.lft.to/lastmile_qr_scan"}, "is_reserved": 0, "is_disabled": 0, "type": "electric_scooter", "bike_id": "3cde7e5390d50789f04b35dcec12eafc"}, {"lon": -76.98802083333334, "lat": 38.892346, "name": "ee3018eb488f56e3e3a98e2832915f9a", "fusion_lat": 0.0, "fusion_lon": 0.0, "rental_uris": {"android": "https://dc.lft.to/lastmile_qr_scan", "ios": "https://dc.lft.to/lastmile_qr_scan"}, "is_reserved": 0, "is_disabled": 0, "type": "electric_scooter", "bike_id": "ee3018eb488f56e3e3a98e2832915f9a"}, {"lon": -77.0602905, "lat": 38.939272, "name": "ca0c41da548b1b1a472c3f9a50fdfb17", "fusion_lat": 0.0, "fusion_lon": 0.0, "rental_uris": {"android": "https://dc.lft.to/lastmile_qr_scan", "ios": "https://dc.lft.to/lastmile_qr_scan"}, "is_reserved": 0, "is_disabled": 0, "type": "electric_scooter", "bike_id": "ca0c41da548b1b1a472c3f9a50fdfb17"}, {"lon": -76.93361166666666, "lat": 38.89904883333333, "name": "f93c736e32e49a3688626ba729f94d3f", "fusion_lat": 0.0, "fusion_lon": 0.0, "rental_uris": {"android": "https://dc.lft.to/lastmile_qr_scan", "ios": "https://dc.lft.to/lastmile_qr_scan"}, "is_reserved": 0, "is_disabled": 0, "type": "electric_scooter", "bike_id": "f93c736e32e49a3688626ba729f94d3f"}, {"lon": -77.07348883333333, "lat": 38.911022833333334, "name": "da70ac5e012a13bfa46afde6db02f2d5", "fusion_lat": 0.0, "fusion_lon": 0.0, "rental_uris": {"android": "https://dc.lft.to/lastmile_qr_scan", "ios": "https://dc.lft.to/lastmile_qr_scan"}, "is_reserved": 0, "is_disabled": 0, "type": "electric_scooter", "bike_id": "da70ac5e012a13bfa46afde6db02f2d5"}, {"lon": -77.05132816666666, "lat": 38.904243666666666, "name": "879e8d18cdf3769f5520e6bb5cd5b055", "fusion_lat": 0.0, "fusion_lon": 0.0, "rental_uris": {"android": "https://dc.lft.to/lastmile_qr_scan", "ios": "https://dc.lft.to/lastmile_qr_scan"}, "is_reserved": 0, "is_disabled": 0, "type": "electric_scooter", "bike_id": "879e8d18cdf3769f5520e6bb5cd5b055"}, {"lon": -77.0073765, "lat": 38.904852, "name": "6a5bbf73abd00b6db493dc412070185f", "fusion_lat": 0.0, "fusion_lon": 0.0, "rental_uris": {"android": "https://dc.lft.to/lastmile_qr_scan", "ios": "https://dc.lft.to/lastmile_qr_scan"}, "is_reserved": 0, "is_disabled": 0, "type": "electric_scooter", "bike_id": "6a5bbf73abd00b6db493dc412070185f"}, {"lon": -77.03182633333333, "lat": 38.919216, "name": "68d32353000eb043c26acc6dd5e9a514", "fusion_lat": 0.0, "fusion_lon": 0.0, "rental_uris": {"android": "https://dc.lft.to/lastmile_qr_scan", "ios": "https://dc.lft.to/lastmile_qr_scan"}, "is_reserved": 0, "is_disabled": 0, "type": "electric_scooter", "bike_id": "68d32353000eb043c26acc6dd5e9a514"}, {"lon": -76.98539133333334, "lat": 38.87996533333333, "name": "05f14de8d403d61240f2ec8c580927a0", "fusion_lat": 0.0, "fusion_lon": 0.0, "rental_uris": {"android": "https://dc.lft.to/lastmile_qr_scan", "ios": "https://dc.lft.to/lastmile_qr_scan"}, "is_reserved": 0, "is_disabled": 0, "type": "electric_scooter", "bike_id": "05f14de8d403d61240f2ec8c580927a0"}, {"lon": -77.034521, "lat": 38.905650333333334, "name": "410a4579316c03034c5dfffd945143e8", "fusion_lat": 0.0, "fusion_lon": 0.0, "rental_uris": {"android": "https://dc.lft.to/lastmile_qr_scan", "ios": "https://dc.lft.to/lastmile_qr_scan"}, "is_reserved": 0, "is_disabled": 0, "type": "electric_scooter", "bike_id": "410a4579316c03034c5dfffd945143e8"}, {"lon": -77.0212365, "lat": 38.923943666666666, "name": "a4ab3341c80754fadb7da6046736db9a", "fusion_lat": 0.0, "fusion_lon": 0.0, "rental_uris": {"android": "https://dc.lft.to/lastmile_qr_scan", "ios": "https://dc.lft.to/lastmile_qr_scan"}, "is_reserved": 0, "is_disabled": 0, "type": "electric_scooter", "bike_id": "a4ab3341c80754fadb7da6046736db9a"}, {"lon": -77.028303, "lat": 38.89222683333333, "name": "4234fbe2a0f728381e0c5bc50433ab04", "fusion_lat": 0.0, "fusion_lon": 0.0, "rental_uris": {"android": "https://dc.lft.to/lastmile_qr_scan", "ios": "https://dc.lft.to/lastmile_qr_scan"}, "is_reserved": 0, "is_disabled": 0, "type": "electric_scooter", "bike_id": "4234fbe2a0f728381e0c5bc50433ab04"}, {"lon": -76.95264316666666, "lat": 38.88598266666666, "name": "805520ce21400b225d3dfa07fbdac568", "fusion_lat": 0.0, "fusion_lon": 0.0, "rental_uris": {"android": "https://dc.lft.to/lastmile_qr_scan", "ios": "https://dc.lft.to/lastmile_qr_scan"}, "is_reserved": 0, "is_disabled": 0, "type": "electric_scooter", "bike_id": "805520ce21400b225d3dfa07fbdac568"}, {"lon": -77.06464116666666, "lat": 38.91051483333333, "name": "fc37854b205d178db07be79d00b35247", "fusion_lat": 0.0, "fusion_lon": 0.0, "rental_uris": {"android": "https://dc.lft.to/lastmile_qr_scan", "ios": "https://dc.lft.to/lastmile_qr_scan"}, "is_reserved": 0, "is_disabled": 0, "type": "electric_scooter", "bike_id": "fc37854b205d178db07be79d00b35247"}, {"lon": -77.010411, "lat": 38.884485833333336, "name": "7f94827d1c57f15e430727cabd73c9c2", "fusion_lat": 0.0, "fusion_lon": 0.0, "rental_uris": {"android": "https://dc.lft.to/lastmile_qr_scan", "ios": "https://dc.lft.to/lastmile_qr_scan"}, "is_reserved": 0, "is_disabled": 0, "type": "electric_scooter", "bike_id": "7f94827d1c57f15e430727cabd73c9c2"}, {"lon": -76.97904483333333, "lat": 38.90393433333333, "name": "00e5eb6427bc66840604f7d4847814ef", "fusion_lat": 0.0, "fusion_lon": 0.0, "rental_uris": {"android": "https://dc.lft.to/lastmile_qr_scan", "ios": "https://dc.lft.to/lastmile_qr_scan"}, "is_reserved": 0, "is_disabled": 0, "type": "electric_scooter", "bike_id": "00e5eb6427bc66840604f7d4847814ef"}, {"lon": -77.03440516666667, "lat": 38.906965166666666, "name": "74a3a2113bb050bac35d5060badbb779", "fusion_lat": 0.0, "fusion_lon": 0.0, "rental_uris": {"android": "https://dc.lft.to/lastmile_qr_scan", "ios": "https://dc.lft.to/lastmile_qr_scan"}, "is_reserved": 0, "is_disabled": 0, "type": "electric_scooter", "bike_id": "74a3a2113bb050bac35d5060badbb779"}, {"lon": -77.02391366666667, "lat": 38.93280466666667, "name": "dae503733160670b0517da4fb52d1c34", "fusion_lat": 0.0, "fusion_lon": 0.0, "rental_uris": {"android": "https://dc.lft.to/lastmile_qr_scan", "ios": "https://dc.lft.to/lastmile_qr_scan"}, "is_reserved": 0, "is_disabled": 0, "type": "electric_scooter", "bike_id": "dae503733160670b0517da4fb52d1c34"}, {"lon": -77.018583, "lat": 38.949232, "name": "5c9d8e110df7d5c017088cf0900b05dc", "fusion_lat": 0.0, "fusion_lon": 0.0, "rental_uris": {"android": "https://dc.lft.to/lastmile_qr_scan", "ios": "https://dc.lft.to/lastmile_qr_scan"}, "is_reserved": 0, "is_disabled": 0, "type": "electric_scooter", "bike_id": "5c9d8e110df7d5c017088cf0900b05dc"}, {"lon": -77.03830133333334, "lat": 38.911193, "name": "e5319ffd04fe6e3d851b6698a0a2e772", "fusion_lat": 0.0, "fusion_lon": 0.0, "rental_uris": {"android": "https://dc.lft.to/lastmile_qr_scan", "ios": "https://dc.lft.to/lastmile_qr_scan"}, "is_reserved": 0, "is_disabled": 0, "type": "electric_scooter", "bike_id": "e5319ffd04fe6e3d851b6698a0a2e772"}, {"lon": -77.01720183333333, "lat": 38.879386, "name": "3ebc1da11da372fcefa52707be6277fd", "fusion_lat": 0.0, "fusion_lon": 0.0, "rental_uris": {"android": "https://dc.lft.to/lastmile_qr_scan", "ios": "https://dc.lft.to/lastmile_qr_scan"}, "is_reserved": 0, "is_disabled": 0, "type": "electric_scooter", "bike_id": "3ebc1da11da372fcefa52707be6277fd"}, {"lon": -77.04353483333334, "lat": 38.896850666666666, "name": "e3f6f071f8fd1c20c41d752309fafa3e", "fusion_lat": 0.0, "fusion_lon": 0.0, "rental_uris": {"android": "https://dc.lft.to/lastmile_qr_scan", "ios": "https://dc.lft.to/lastmile_qr_scan"}, "is_reserved": 0, "is_disabled": 0, "type": "electric_scooter", "bike_id": "e3f6f071f8fd1c20c41d752309fafa3e"}, {"lon": -77.04310433333333, "lat": 38.934116, "name": "6de809014bc86b557811e55f7e59f4d5", "fusion_lat": 0.0, "fusion_lon": 0.0, "rental_uris": {"android": "https://dc.lft.to/lastmile_qr_scan", "ios": "https://dc.lft.to/lastmile_qr_scan"}, "is_reserved": 0, "is_disabled": 0, "type": "electric_scooter", "bike_id": "6de809014bc86b557811e55f7e59f4d5"}, {"lon": -77.02707166666667, "lat": 38.92882016666667, "name": "aa5a836f81682d3958540cab54da77e5", "fusion_lat": 0.0, "fusion_lon": 0.0, "rental_uris": {"android": "https://dc.lft.to/lastmile_qr_scan", "ios": "https://dc.lft.to/lastmile_qr_scan"}, "is_reserved": 0, "is_disabled": 0, "type": "electric_scooter", "bike_id": "aa5a836f81682d3958540cab54da77e5"}, {"lon": -76.9900915, "lat": 38.91140083333333, "name": "48e75855c8fb47f4bd303acf1643f09a", "fusion_lat": 0.0, "fusion_lon": 0.0, "rental_uris": {"android": "https://dc.lft.to/lastmile_qr_scan", "ios": "https://dc.lft.to/lastmile_qr_scan"}, "is_reserved": 0, "is_disabled": 0, "type": "electric_scooter", "bike_id": "48e75855c8fb47f4bd303acf1643f09a"}, {"lon": -77.05122733333333, "lat": 38.999672333333336, "name": "4f7561fbe5eaf8035705258620ae27d3", "fusion_lat": 0.0, "fusion_lon": 0.0, "rental_uris": {"android": "https://dc.lft.to/lastmile_qr_scan", "ios": "https://dc.lft.to/lastmile_qr_scan"}, "is_reserved": 0, "is_disabled": 0, "type": "electric_bike", "bike_id": "4f7561fbe5eaf8035705258620ae27d3"}, {"lon": -76.973318, "lat": 38.917854, "name": "9661c307eb24f504d68990d0556ad1d9", "fusion_lat": 0.0, "fusion_lon": 0.0, "rental_uris": {"android": "https://dc.lft.to/lastmile_qr_scan", "ios": "https://dc.lft.to/lastmile_qr_scan"}, "is_reserved": 0, "is_disabled": 0, "type": "electric_scooter", "bike_id": "9661c307eb24f504d68990d0556ad1d9"}, {"lon": -77.02485016666667, "lat": 38.918173833333334, "name": "af698a9d72bb0290db145150b4f30d3a", "fusion_lat": 0.0, "fusion_lon": 0.0, "rental_uris": {"android": "https://dc.lft.to/lastmile_qr_scan", "ios": "https://dc.lft.to/lastmile_qr_scan"}, "is_reserved": 0, "is_disabled": 0, "type": "electric_scooter", "bike_id": "af698a9d72bb0290db145150b4f30d3a"}, {"lon": -77.0030225, "lat": 38.877035166666666, "name": "56f5e20011a464c7eea1afc5b07ccc99", "fusion_lat": 0.0, "fusion_lon": 0.0, "rental_uris": {"android": "https://dc.lft.to/lastmile_qr_scan", "ios": "https://dc.lft.to/lastmile_qr_scan"}, "is_reserved": 0, "is_disabled": 0, "type": "electric_scooter", "bike_id": "56f5e20011a464c7eea1afc5b07ccc99"}, {"lon": -77.18795283333333, "lat": 39.09943116666667, "name": "e8202366c257afeaa0e3cee29fa1c558", "fusion_lat": 0.0, "fusion_lon": 0.0, "rental_uris": {"android": "https://dc.lft.to/lastmile_qr_scan", "ios": "https://dc.lft.to/lastmile_qr_scan"}, "is_reserved": 0, "is_disabled": 0, "type": "electric_bike", "bike_id": "e8202366c257afeaa0e3cee29fa1c558"}, {"lon": -77.00211533333334, "lat": 38.899874, "name": "a61a283ed0b9e0f5c84490f48490ef98", "fusion_lat": 0.0, "fusion_lon": 0.0, "rental_uris": {"android": "https://dc.lft.to/lastmile_qr_scan", "ios": "https://dc.lft.to/lastmile_qr_scan"}, "is_reserved": 0, "is_disabled": 0, "type": "electric_scooter", "bike_id": "a61a283ed0b9e0f5c84490f48490ef98"}, {"lon": -77.032099, "lat": 38.9171195, "name": "e216e4a42929dd96c1082f89275c6dd0", "fusion_lat": 0.0, "fusion_lon": 0.0, "rental_uris": {"android": "https://dc.lft.to/lastmile_qr_scan", "ios": "https://dc.lft.to/lastmile_qr_scan"}, "is_reserved": 0, "is_disabled": 0, "type": "electric_scooter", "bike_id": "e216e4a42929dd96c1082f89275c6dd0"}, {"lon": -77.02154283333333, "lat": 38.9260055, "name": "b5c6303c2c57a75b14af85a2f0a36a9c", "fusion_lat": 0.0, "fusion_lon": 0.0, "rental_uris": {"android": "https://dc.lft.to/lastmile_qr_scan", "ios": "https://dc.lft.to/lastmile_qr_scan"}, "is_reserved": 0, "is_disabled": 0, "type": "electric_scooter", "bike_id": "b5c6303c2c57a75b14af85a2f0a36a9c"}, {"lon": -77.032837, "lat": 38.9369185, "name": "0eb8022ee83690e2c73a5bfe048a72e6", "fusion_lat": 0.0, "fusion_lon": 0.0, "rental_uris": {"android": "https://dc.lft.to/lastmile_qr_scan", "ios": "https://dc.lft.to/lastmile_qr_scan"}, "is_reserved": 0, "is_disabled": 0, "type": "electric_scooter", "bike_id": "0eb8022ee83690e2c73a5bfe048a72e6"}, {"lon": -77.02204733333333, "lat": 38.887171333333335, "name": "5f2aab85db56bb05271929bb4773e856", "fusion_lat": 0.0, "fusion_lon": 0.0, "rental_uris": {"android": "https://dc.lft.to/lastmile_qr_scan", "ios": "https://dc.lft.to/lastmile_qr_scan"}, "is_reserved": 0, "is_disabled": 0, "type": "electric_scooter", "bike_id": "5f2aab85db56bb05271929bb4773e856"}, {"lon": -76.983288, "lat": 38.966055, "name": "bc7984715d5ff590b9fbbeee20c370b6", "fusion_lat": 0.0, "fusion_lon": 0.0, "rental_uris": {"android": "https://dc.lft.to/lastmile_qr_scan", "ios": "https://dc.lft.to/lastmile_qr_scan"}, "is_reserved": 0, "is_disabled": 0, "type": "electric_bike", "bike_id": "bc7984715d5ff590b9fbbeee20c370b6"}, {"lon": -76.99609, "lat": 38.90481483333333, "name": "3a199e0f0ef91ca9e119b1466bf1b93e", "fusion_lat": 0.0, "fusion_lon": 0.0, "rental_uris": {"android": "https://dc.lft.to/lastmile_qr_scan", "ios": "https://dc.lft.to/lastmile_qr_scan"}, "is_reserved": 0, "is_disabled": 0, "type": "electric_scooter", "bike_id": "3a199e0f0ef91ca9e119b1466bf1b93e"}, {"lon": -77.00547483333334, "lat": 38.87848783333333, "name": "b94f5f29c5b22c2710058302fef1117e", "fusion_lat": 0.0, "fusion_lon": 0.0, "rental_uris": {"android": "https://dc.lft.to/lastmile_qr_scan", "ios": "https://dc.lft.to/lastmile_qr_scan"}, "is_reserved": 0, "is_disabled": 0, "type": "electric_scooter", "bike_id": "b94f5f29c5b22c2710058302fef1117e"}, {"lon": -76.96523433333333, "lat": 38.8762945, "name": "fd358134cd2e240c7fe36d0bc11d18e6", "fusion_lat": 0.0, "fusion_lon": 0.0, "rental_uris": {"android": "https://dc.lft.to/lastmile_qr_scan", "ios": "https://dc.lft.to/lastmile_qr_scan"}, "is_reserved": 0, "is_disabled": 0, "type": "electric_scooter", "bike_id": "fd358134cd2e240c7fe36d0bc11d18e6"}, {"lon": -77.001412, "lat": 38.9000615, "name": "b345b0a583730c59e8e915da028ac117", "fusion_lat": 0.0, "fusion_lon": 0.0, "rental_uris": {"android": "https://dc.lft.to/lastmile_qr_scan", "ios": "https://dc.lft.to/lastmile_qr_scan"}, "is_reserved": 0, "is_disabled": 0, "type": "electric_scooter", "bike_id": "b345b0a583730c59e8e915da028ac117"}, {"lon": -76.952533, "lat": 38.90693916666667, "name": "cbb80aec39392693f8fbaa551916f8a1", "fusion_lat": 0.0, "fusion_lon": 0.0, "rental_uris": {"android": "https://dc.lft.to/lastmile_qr_scan", "ios": "https://dc.lft.to/lastmile_qr_scan"}, "is_reserved": 0, "is_disabled": 0, "type": "electric_bike", "bike_id": "cbb80aec39392693f8fbaa551916f8a1"}, {"lon": -77.11232366666667, "lat": 38.81221133333333, "name": "65f584b1e92b72d41ef77aa6456e452e", "fusion_lat": 0.0, "fusion_lon": 0.0, "rental_uris": {"android": "https://dc.lft.to/lastmile_qr_scan", "ios": "https://dc.lft.to/lastmile_qr_scan"}, "is_reserved": 0, "is_disabled": 0, "type": "electric_bike", "bike_id": "65f584b1e92b72d41ef77aa6456e452e"}, {"lon": -77.03357733333333, "lat": 38.89832416666667, "name": "2548f90c89c481e88306d7b06faad556", "fusion_lat": 0.0, "fusion_lon": 0.0, "rental_uris": {"android": "https://dc.lft.to/lastmile_qr_scan", "ios": "https://dc.lft.to/lastmile_qr_scan"}, "is_reserved": 0, "is_disabled": 0, "type": "electric_scooter", "bike_id": "2548f90c89c481e88306d7b06faad556"}, {"lon": -77.03254716666666, "lat": 38.9324485, "name": "08233cead997b6d769c1ef67e12f3736", "fusion_lat": 0.0, "fusion_lon": 0.0, "rental_uris": {"android": "https://dc.lft.to/lastmile_qr_scan", "ios": "https://dc.lft.to/lastmile_qr_scan"}, "is_reserved": 0, "is_disabled": 0, "type": "electric_scooter", "bike_id": "08233cead997b6d769c1ef67e12f3736"}, {"lon": -76.981275, "lat": 38.8967545, "name": "b5838a5394819fbec5c056ba56304fb3", "fusion_lat": 0.0, "fusion_lon": 0.0, "rental_uris": {"android": "https://dc.lft.to/lastmile_qr_scan", "ios": "https://dc.lft.to/lastmile_qr_scan"}, "is_reserved": 0, "is_disabled": 0, "type": "electric_bike", "bike_id": "b5838a5394819fbec5c056ba56304fb3"}, {"lon": -77.017, "lat": 38.91383916666667, "name": "e1f121cb201fe6ef56c4ddde4c133e51", "fusion_lat": 0.0, "fusion_lon": 0.0, "rental_uris": {"android": "https://dc.lft.to/lastmile_qr_scan", "ios": "https://dc.lft.to/lastmile_qr_scan"}, "is_reserved": 0, "is_disabled": 0, "type": "electric_scooter", "bike_id": "e1f121cb201fe6ef56c4ddde4c133e51"}, {"lon": -77.02228766666667, "lat": 38.912701166666665, "name": "ff4cdd3368cec5b20d961e0b10e31970", "fusion_lat": 0.0, "fusion_lon": 0.0, "rental_uris": {"android": "https://dc.lft.to/lastmile_qr_scan", "ios": "https://dc.lft.to/lastmile_qr_scan"}, "is_reserved": 0, "is_disabled": 0, "type": "electric_scooter", "bike_id": "ff4cdd3368cec5b20d961e0b10e31970"}, {"lon": -76.99777566666667, "lat": 38.84426, "name": "992423fed47c9b0ae12db5e48d8f46d1", "fusion_lat": 0.0, "fusion_lon": 0.0, "rental_uris": {"android": "https://dc.lft.to/lastmile_qr_scan", "ios": "https://dc.lft.to/lastmile_qr_scan"}, "is_reserved": 0, "is_disabled": 0, "type": "electric_scooter", "bike_id": "992423fed47c9b0ae12db5e48d8f46d1"}, {"lon": -77.01780466666666, "lat": 38.90276183333334, "name": "8ada5f12c95cb8d1ee7a7e33ef8da607", "fusion_lat": 0.0, "fusion_lon": 0.0, "rental_uris": {"android": "https://dc.lft.to/lastmile_qr_scan", "ios": "https://dc.lft.to/lastmile_qr_scan"}, "is_reserved": 0, "is_disabled": 0, "type": "electric_scooter", "bike_id": "8ada5f12c95cb8d1ee7a7e33ef8da607"}, {"lon": -77.09548033333333, "lat": 38.83732666666667, "name": "446c3f4d3fe63a8e4c62632fa773ad7d", "fusion_lat": 0.0, "fusion_lon": 0.0, "rental_uris": {"android": "https://dc.lft.to/lastmile_qr_scan", "ios": "https://dc.lft.to/lastmile_qr_scan"}, "is_reserved": 0, "is_disabled": 0, "type": "electric_bike", "bike_id": "446c3f4d3fe63a8e4c62632fa773ad7d"}, {"lon": -77.02720783333334, "lat": 38.9067815, "name": "2e96cad0c31cd0d9b8ddabeb13520dde", "fusion_lat": 0.0, "fusion_lon": 0.0, "rental_uris": {"android": "https://dc.lft.to/lastmile_qr_scan", "ios": "https://dc.lft.to/lastmile_qr_scan"}, "is_reserved": 0, "is_disabled": 0, "type": "electric_scooter", "bike_id": "2e96cad0c31cd0d9b8ddabeb13520dde"}, {"lon": -77.03663183333333, "lat": 38.912439166666665, "name": "491cdd0ad4ab9d6fd45fec6f07e3545a", "fusion_lat": 0.0, "fusion_lon": 0.0, "rental_uris": {"android": "https://dc.lft.to/lastmile_qr_scan", "ios": "https://dc.lft.to/lastmile_qr_scan"}, "is_reserved": 0, "is_disabled": 0, "type": "electric_scooter", "bike_id": "491cdd0ad4ab9d6fd45fec6f07e3545a"}, {"lon": -77.04282166666667, "lat": 38.90725616666667, "name": "7bc5b995a301de9ee61c44edb8ee4ec1", "fusion_lat": 0.0, "fusion_lon": 0.0, "rental_uris": {"android": "https://dc.lft.to/lastmile_qr_scan", "ios": "https://dc.lft.to/lastmile_qr_scan"}, "is_reserved": 0, "is_disabled": 0, "type": "electric_scooter", "bike_id": "7bc5b995a301de9ee61c44edb8ee4ec1"}, {"lon": -77.0328965, "lat": 38.95649483333333, "name": "d4e3c925d1f047c4284a8c39cd8bf2fb", "fusion_lat": 0.0, "fusion_lon": 0.0, "rental_uris": {"android": "https://dc.lft.to/lastmile_qr_scan", "ios": "https://dc.lft.to/lastmile_qr_scan"}, "is_reserved": 0, "is_disabled": 0, "type": "electric_scooter", "bike_id": "d4e3c925d1f047c4284a8c39cd8bf2fb"}, {"lon": -77.011537, "lat": 38.893425, "name": "868bcb6f719f33c12aa657b8347408ee", "fusion_lat": 0.0, "fusion_lon": 0.0, "rental_uris": {"android": "https://dc.lft.to/lastmile_qr_scan", "ios": "https://dc.lft.to/lastmile_qr_scan"}, "is_reserved": 0, "is_disabled": 0, "type": "electric_scooter", "bike_id": "868bcb6f719f33c12aa657b8347408ee"}, {"lon": -76.94941683333333, "lat": 38.883199, "name": "fbb9fa732e03ccac369c6bda9951bb93", "fusion_lat": 0.0, "fusion_lon": 0.0, "rental_uris": {"android": "https://dc.lft.to/lastmile_qr_scan", "ios": "https://dc.lft.to/lastmile_qr_scan"}, "is_reserved": 0, "is_disabled": 0, "type": "electric_scooter", "bike_id": "fbb9fa732e03ccac369c6bda9951bb93"}, {"lon": -77.00367366666667, "lat": 38.83608683333333, "name": "216f5e7af9be307616344dc05566466d", "fusion_lat": 0.0, "fusion_lon": 0.0, "rental_uris": {"android": "https://dc.lft.to/lastmile_qr_scan", "ios": "https://dc.lft.to/lastmile_qr_scan"}, "is_reserved": 0, "is_disabled": 0, "type": "electric_bike", "bike_id": "216f5e7af9be307616344dc05566466d"}, {"lon": -77.03513883333333, "lat": 38.975872833333334, "name": "9a0ef2b30be930682d87e4027d3b4f6f", "fusion_lat": 0.0, "fusion_lon": 0.0, "rental_uris": {"android": "https://dc.lft.to/lastmile_qr_scan", "ios": "https://dc.lft.to/lastmile_qr_scan"}, "is_reserved": 0, "is_disabled": 0, "type": "electric_bike", "bike_id": "9a0ef2b30be930682d87e4027d3b4f6f"}, {"lon": -76.9963045, "lat": 38.8462095, "name": "127dd777247fe0a8cf6fbc136f23632f", "fusion_lat": 0.0, "fusion_lon": 0.0, "rental_uris": {"android": "https://dc.lft.to/lastmile_qr_scan", "ios": "https://dc.lft.to/lastmile_qr_scan"}, "is_reserved": 0, "is_disabled": 0, "type": "electric_scooter", "bike_id": "127dd777247fe0a8cf6fbc136f23632f"}, {"lon": -77.04250033333334, "lat": 38.92231983333333, "name": "294ac57b14cd19cbbfc6c801bca8cbe7", "fusion_lat": 0.0, "fusion_lon": 0.0, "rental_uris": {"android": "https://dc.lft.to/lastmile_qr_scan", "ios": "https://dc.lft.to/lastmile_qr_scan"}, "is_reserved": 0, "is_disabled": 0, "type": "electric_scooter", "bike_id": "294ac57b14cd19cbbfc6c801bca8cbe7"}, {"lon": -77.02886966666667, "lat": 38.897547833333334, "name": "3bd2c00897122662881c69ab307d4680", "fusion_lat": 0.0, "fusion_lon": 0.0, "rental_uris": {"android": "https://dc.lft.to/lastmile_qr_scan", "ios": "https://dc.lft.to/lastmile_qr_scan"}, "is_reserved": 0, "is_disabled": 0, "type": "electric_scooter", "bike_id": "3bd2c00897122662881c69ab307d4680"}, {"lon": -76.94287783333333, "lat": 38.954049499999996, "name": "a978e2c6c44cc7988210e3d4de0c4d6c", "fusion_lat": 0.0, "fusion_lon": 0.0, "rental_uris": {"android": "https://dc.lft.to/lastmile_qr_scan", "ios": "https://dc.lft.to/lastmile_qr_scan"}, "is_reserved": 0, "is_disabled": 0, "type": "electric_bike", "bike_id": "a978e2c6c44cc7988210e3d4de0c4d6c"}, {"lon": -77.04176433333333, "lat": 38.91461183333333, "name": "552578c67f10c188020724a99da879f6", "fusion_lat": 0.0, "fusion_lon": 0.0, "rental_uris": {"android": "https://dc.lft.to/lastmile_qr_scan", "ios": "https://dc.lft.to/lastmile_qr_scan"}, "is_reserved": 0, "is_disabled": 0, "type": "electric_scooter", "bike_id": "552578c67f10c188020724a99da879f6"}, {"lon": -77.044587, "lat": 38.91119416666667, "name": "b694ef4a4e759628bd80411159b49ede", "fusion_lat": 0.0, "fusion_lon": 0.0, "rental_uris": {"android": "https://dc.lft.to/lastmile_qr_scan", "ios": "https://dc.lft.to/lastmile_qr_scan"}, "is_reserved": 0, "is_disabled": 0, "type": "electric_scooter", "bike_id": "b694ef4a4e759628bd80411159b49ede"}, {"lon": -77.07162783333334, "lat": 38.9144605, "name": "feb29e7ddfecf5a1871604dbc4ec9ffa", "fusion_lat": 0.0, "fusion_lon": 0.0, "rental_uris": {"android": "https://dc.lft.to/lastmile_qr_scan", "ios": "https://dc.lft.to/lastmile_qr_scan"}, "is_reserved": 0, "is_disabled": 0, "type": "electric_scooter", "bike_id": "feb29e7ddfecf5a1871604dbc4ec9ffa"}, {"lon": -77.028217, "lat": 38.965007, "name": "d313529385ee56404cc7dadd9ed620fe", "fusion_lat": 0.0, "fusion_lon": 0.0, "rental_uris": {"android": "https://dc.lft.to/lastmile_qr_scan", "ios": "https://dc.lft.to/lastmile_qr_scan"}, "is_reserved": 0, "is_disabled": 0, "type": "electric_bike", "bike_id": "d313529385ee56404cc7dadd9ed620fe"}, {"lon": -76.99776483333333, "lat": 38.844207833333336, "name": "ae45354c379c825b650c25cb9644de36", "fusion_lat": 0.0, "fusion_lon": 0.0, "rental_uris": {"android": "https://dc.lft.to/lastmile_qr_scan", "ios": "https://dc.lft.to/lastmile_qr_scan"}, "is_reserved": 0, "is_disabled": 0, "type": "electric_scooter", "bike_id": "ae45354c379c825b650c25cb9644de36"}, {"lon": -77.032516, "lat": 38.93523833333333, "name": "c8846f6a7d7b3a045495efe5489574d3", "fusion_lat": 0.0, "fusion_lon": 0.0, "rental_uris": {"android": "https://dc.lft.to/lastmile_qr_scan", "ios": "https://dc.lft.to/lastmile_qr_scan"}, "is_reserved": 0, "is_disabled": 0, "type": "electric_scooter", "bike_id": "c8846f6a7d7b3a045495efe5489574d3"}, {"lon": -77.02166083333333, "lat": 38.886381, "name": "6f1197c0ae2e77fd6c9f2a986eb60420", "fusion_lat": 0.0, "fusion_lon": 0.0, "rental_uris": {"android": "https://dc.lft.to/lastmile_qr_scan", "ios": "https://dc.lft.to/lastmile_qr_scan"}, "is_reserved": 0, "is_disabled": 0, "type": "electric_scooter", "bike_id": "6f1197c0ae2e77fd6c9f2a986eb60420"}, {"lon": -77.032071, "lat": 38.907549333333336, "name": "8437aba47070eb192fe427558a24524d", "fusion_lat": 0.0, "fusion_lon": 0.0, "rental_uris": {"android": "https://dc.lft.to/lastmile_qr_scan", "ios": "https://dc.lft.to/lastmile_qr_scan"}, "is_reserved": 0, "is_disabled": 0, "type": "electric_scooter", "bike_id": "8437aba47070eb192fe427558a24524d"}, {"lon": -77.02353566666666, "lat": 38.925132166666664, "name": "06a7fa4ce2f35521d81313965caa5871", "fusion_lat": 0.0, "fusion_lon": 0.0, "rental_uris": {"android": "https://dc.lft.to/lastmile_qr_scan", "ios": "https://dc.lft.to/lastmile_qr_scan"}, "is_reserved": 0, "is_disabled": 0, "type": "electric_scooter", "bike_id": "06a7fa4ce2f35521d81313965caa5871"}, {"lon": -77.04047833333334, "lat": 38.9270695, "name": "a9deddce1893768dc53cdd30d0855955", "fusion_lat": 0.0, "fusion_lon": 0.0, "rental_uris": {"android": "https://dc.lft.to/lastmile_qr_scan", "ios": "https://dc.lft.to/lastmile_qr_scan"}, "is_reserved": 0, "is_disabled": 0, "type": "electric_scooter", "bike_id": "a9deddce1893768dc53cdd30d0855955"}, {"lon": -76.965061, "lat": 38.876489166666666, "name": "ef75dddace265aaed0e80362494acefd", "fusion_lat": 0.0, "fusion_lon": 0.0, "rental_uris": {"android": "https://dc.lft.to/lastmile_qr_scan", "ios": "https://dc.lft.to/lastmile_qr_scan"}, "is_reserved": 0, "is_disabled": 0, "type": "electric_scooter", "bike_id": "ef75dddace265aaed0e80362494acefd"}, {"lon": -77.04148033333334, "lat": 38.918956, "name": "2eece29aba146d7e19ef9b1781de8ce6", "fusion_lat": 0.0, "fusion_lon": 0.0, "rental_uris": {"android": "https://dc.lft.to/lastmile_qr_scan", "ios": "https://dc.lft.to/lastmile_qr_scan"}, "is_reserved": 0, "is_disabled": 0, "type": "electric_scooter", "bike_id": "2eece29aba146d7e19ef9b1781de8ce6"}, {"lon": -77.15268216666666, "lat": 39.105674, "name": "ca7a8860dc6c849b3fc25682ce4aeba2", "fusion_lat": 0.0, "fusion_lon": 0.0, "rental_uris": {"android": "https://dc.lft.to/lastmile_qr_scan", "ios": "https://dc.lft.to/lastmile_qr_scan"}, "is_reserved": 0, "is_disabled": 0, "type": "electric_bike", "bike_id": "ca7a8860dc6c849b3fc25682ce4aeba2"}, {"lon": -77.03034383333333, "lat": 38.91563033333333, "name": "6051de9fff0cb51a7a211f8717c1d42e", "fusion_lat": 0.0, "fusion_lon": 0.0, "rental_uris": {"android": "https://dc.lft.to/lastmile_qr_scan", "ios": "https://dc.lft.to/lastmile_qr_scan"}, "is_reserved": 0, "is_disabled": 0, "type": "electric_scooter", "bike_id": "6051de9fff0cb51a7a211f8717c1d42e"}, {"lon": -77.03456, "lat": 38.91824533333333, "name": "4b054d34838080c29ef91cf5ce65edc0", "fusion_lat": 0.0, "fusion_lon": 0.0, "rental_uris": {"android": "https://dc.lft.to/lastmile_qr_scan", "ios": "https://dc.lft.to/lastmile_qr_scan"}, "is_reserved": 0, "is_disabled": 0, "type": "electric_scooter", "bike_id": "4b054d34838080c29ef91cf5ce65edc0"}, {"lon": -77.0529345, "lat": 38.92551866666667, "name": "cb62176a1224bd8c305cc57427e25408", "fusion_lat": 0.0, "fusion_lon": 0.0, "rental_uris": {"android": "https://dc.lft.to/lastmile_qr_scan", "ios": "https://dc.lft.to/lastmile_qr_scan"}, "is_reserved": 0, "is_disabled": 0, "type": "electric_scooter", "bike_id": "cb62176a1224bd8c305cc57427e25408"}, {"lon": -77.02948716666667, "lat": 38.90494483333333, "name": "78fcdd9233b962f46bba6911d7dd54a0", "fusion_lat": 0.0, "fusion_lon": 0.0, "rental_uris": {"android": "https://dc.lft.to/lastmile_qr_scan", "ios": "https://dc.lft.to/lastmile_qr_scan"}, "is_reserved": 0, "is_disabled": 0, "type": "electric_scooter", "bike_id": "78fcdd9233b962f46bba6911d7dd54a0"}, {"lon": -76.99017516666666, "lat": 38.90156266666666, "name": "af2c31bad17d85c999849fa306b05302", "fusion_lat": 0.0, "fusion_lon": 0.0, "rental_uris": {"android": "https://dc.lft.to/lastmile_qr_scan", "ios": "https://dc.lft.to/lastmile_qr_scan"}, "is_reserved": 0, "is_disabled": 0, "type": "electric_scooter", "bike_id": "af2c31bad17d85c999849fa306b05302"}, {"lon": -77.02592283333334, "lat": 38.9042865, "name": "42004af75d595db093504f573103b494", "fusion_lat": 0.0, "fusion_lon": 0.0, "rental_uris": {"android": "https://dc.lft.to/lastmile_qr_scan", "ios": "https://dc.lft.to/lastmile_qr_scan"}, "is_reserved": 0, "is_disabled": 0, "type": "electric_scooter", "bike_id": "42004af75d595db093504f573103b494"}, {"lon": -77.04720866666666, "lat": 38.911088166666666, "name": "2eeeb391646e02231d3d614b8d9257e2", "fusion_lat": 0.0, "fusion_lon": 0.0, "rental_uris": {"android": "https://dc.lft.to/lastmile_qr_scan", "ios": "https://dc.lft.to/lastmile_qr_scan"}, "is_reserved": 0, "is_disabled": 0, "type": "electric_scooter", "bike_id": "2eeeb391646e02231d3d614b8d9257e2"}, {"lon": -77.030522, "lat": 38.90793683333333, "name": "d0f59fe19e09cfb36535ce4c4ba9bbcb", "fusion_lat": 0.0, "fusion_lon": 0.0, "rental_uris": {"android": "https://dc.lft.to/lastmile_qr_scan", "ios": "https://dc.lft.to/lastmile_qr_scan"},