{"data": {"bikes": [{"fusion_lon": 0.0, "bike_id": "34f73537cfd96688ad879e4a88dc5dbc", "name": "34f73537cfd96688ad879e4a88dc5dbc", "type": "electric_scooter", "lon": -77.02960766666666, "rental_uris": {"android": "https://dc.lft.to/lastmile_qr_scan", "ios": "https://dc.lft.to/lastmile_qr_scan"}, "lat": 38.920720833333334, "is_reserved": 0, "is_disabled": 0, "fusion_lat": 0.0}, {"fusion_lon": 0.0, "bike_id": "2d11b9bf49bece56c4d337ecd5acd6fc", "name": "2d11b9bf49bece56c4d337ecd5acd6fc", "type": "electric_bike", "lon": -77.0278705, "rental_uris": {"android": "https://dc.lft.to/lastmile_qr_scan", "ios": "https://dc.lft.to/lastmile_qr_scan"}, "lat": 38.93947033333333, "is_reserved": 0, "is_disabled": 0, "fusion_lat": 0.0}, {"fusion_lon": 0.0, "bike_id": "c95f83874cea7b993b07945ca725530d", "name": "c95f83874cea7b993b07945ca725530d", "type": "electric_scooter", "lon": -77.02371516666666, "rental_uris": {"android": "https://dc.lft.to/lastmile_qr_scan", "ios": "https://dc.lft.to/lastmile_qr_scan"}, "lat": 38.907285, "is_reserved": 0, "is_disabled": 0, "fusion_lat": 0.0}, {"fusion_lon": 0.0, "bike_id": "e23dde6fe87268a31dd4a6a1718536bb", "name": "e23dde6fe87268a31dd4a6a1718536bb", "type": "electric_scooter", "lon": -77.0218765, "rental_uris": {"android": "https://dc.lft.to/lastmile_qr_scan", "ios": "https://dc.lft.to/lastmile_qr_scan"}, "lat": 38.9078925, "is_reserved": 0, "is_disabled": 0, "fusion_lat": 0.0}, {"fusion_lon": 0.0, "bike_id": "348d8902bdab4865be1cd5caa054c749", "name": "348d8902bdab4865be1cd5caa054c749", "type": "electric_scooter", "lon": -77.034646, "rental_uris": {"android": "https://dc.lft.to/lastmile_qr_scan", "ios": "https://dc.lft.to/lastmile_qr_scan"}, "lat": 38.921575, "is_reserved": 0, "is_disabled": 0, "fusion_lat": 0.0}, {"fusion_lon": 0.0, "bike_id": "ecec94d9685b0847a19da1bb830538ea", "name": "ecec94d9685b0847a19da1bb830538ea", "type": "electric_scooter", "lon": -77.038314, "rental_uris": {"android": "https://dc.lft.to/lastmile_qr_scan", "ios": "https://dc.lft.to/lastmile_qr_scan"}, "lat": 38.9111045, "is_reserved": 0, "is_disabled": 0, "fusion_lat": 0.0}, {"fusion_lon": 0.0, "bike_id": "ea25145c843d6ac6d436120e2b37169a", "name": "ea25145c843d6ac6d436120e2b37169a", "type": "electric_scooter", "lon": -77.0372735, "rental_uris": {"android": "https://dc.lft.to/lastmile_qr_scan", "ios": "https://dc.lft.to/lastmile_qr_scan"}, "lat": 38.92849066666667, "is_reserved": 0, "is_disabled": 0, "fusion_lat": 0.0}, {"fusion_lon": 0.0, "bike_id": "1518e79896b2f6a4fa5b0aa84405f552", "name": "1518e79896b2f6a4fa5b0aa84405f552", "type": "electric_bike", "lon": -76.95153916666666, "rental_uris": {"android": "https://dc.lft.to/lastmile_qr_scan", "ios": "https://dc.lft.to/lastmile_qr_scan"}, "lat": 38.88516466666667, "is_reserved": 0, "is_disabled": 0, "fusion_lat": 0.0}, {"fusion_lon": 0.0, "bike_id": "1d9325abd730585dde7e5960c6f284c4", "name": "1d9325abd730585dde7e5960c6f284c4", "type": "electric_scooter", "lon": -77.03285666666666, "rental_uris": {"android": "https://dc.lft.to/lastmile_qr_scan", "ios": "https://dc.lft.to/lastmile_qr_scan"}, "lat": 38.93876733333333, "is_reserved": 0, "is_disabled": 0, "fusion_lat": 0.0}, {"fusion_lon": 0.0, "bike_id": "7649eb978d0d174168995f76e7c4808a", "name": "7649eb978d0d174168995f76e7c4808a", "type": "electric_scooter", "lon": -76.9898965, "rental_uris": {"android": "https://dc.lft.to/lastmile_qr_scan", "ios": "https://dc.lft.to/lastmile_qr_scan"}, "lat": 38.86442566666667, "is_reserved": 0, "is_disabled": 0, "fusion_lat": 0.0}, {"fusion_lon": 0.0, "bike_id": "09637364179110f87cd0e31a23228769", "name": "09637364179110f87cd0e31a23228769", "type": "electric_scooter", "lon": -77.0442085, "rental_uris": {"android": "https://dc.lft.to/lastmile_qr_scan", "ios": "https://dc.lft.to/lastmile_qr_scan"}, "lat": 38.89403, "is_reserved": 0, "is_disabled": 0, "fusion_lat": 0.0}, {"fusion_lon": 0.0, "bike_id": "b00bce253f2ad981942f62f706a4d3ec", "name": "b00bce253f2ad981942f62f706a4d3ec", "type": "electric_bike", "lon": -77.01377116666667, "rental_uris": {"android": "https://dc.lft.to/lastmile_qr_scan", "ios": "https://dc.lft.to/lastmile_qr_scan"}, "lat": 38.9424215, "is_reserved": 0, "is_disabled": 0, "fusion_lat": 0.0}, {"fusion_lon": 0.0, "bike_id": "a6843865cc8bba946e909f7d3041eea9", "name": "a6843865cc8bba946e909f7d3041eea9", "type": "electric_scooter", "lon": -76.94631616666666, "rental_uris": {"android": "https://dc.lft.to/lastmile_qr_scan", "ios": "https://dc.lft.to/lastmile_qr_scan"}, "lat": 38.898432, "is_reserved": 0, "is_disabled": 0, "fusion_lat": 0.0}, {"fusion_lon": 0.0, "bike_id": "c0358d66a9ec5cd48da1705ead160ed0", "name": "c0358d66a9ec5cd48da1705ead160ed0", "type": "electric_scooter", "lon": -77.02691916666667, "rental_uris": {"android": "https://dc.lft.to/lastmile_qr_scan", "ios": "https://dc.lft.to/lastmile_qr_scan"}, "lat": 38.936361833333336, "is_reserved": 0, "is_disabled": 0, "fusion_lat": 0.0}, {"fusion_lon": 0.0, "bike_id": "83504c94c712ba52517580bd72c2e0aa", "name": "83504c94c712ba52517580bd72c2e0aa", "type": "electric_scooter", "lon": -77.0497975, "rental_uris": {"android": "https://dc.lft.to/lastmile_qr_scan", "ios": "https://dc.lft.to/lastmile_qr_scan"}, "lat": 38.896685166666664, "is_reserved": 0, "is_disabled": 0, "fusion_lat": 0.0}, {"fusion_lon": 0.0, "bike_id": "872e90119de379def86c02d3905fa92d", "name": "872e90119de379def86c02d3905fa92d", "type": "electric_scooter", "lon": -77.0044995, "rental_uris": {"android": "https://dc.lft.to/lastmile_qr_scan", "ios": "https://dc.lft.to/lastmile_qr_scan"}, "lat": 38.9117525, "is_reserved": 0, "is_disabled": 0, "fusion_lat": 0.0}, {"fusion_lon": 0.0, "bike_id": "cfbbbd3c136a56ab8d9763f481e1b8b8", "name": "cfbbbd3c136a56ab8d9763f481e1b8b8", "type": "electric_scooter", "lon": -77.041551, "rental_uris": {"android": "https://dc.lft.to/lastmile_qr_scan", "ios": "https://dc.lft.to/lastmile_qr_scan"}, "lat": 38.917443166666665, "is_reserved": 0, "is_disabled": 0, "fusion_lat": 0.0}, {"fusion_lon": 0.0, "bike_id": "5ca5cf456adc974e6db5dfc3cdac89c5", "name": "5ca5cf456adc974e6db5dfc3cdac89c5", "type": "electric_scooter", "lon": -77.0417085, "rental_uris": {"android": "https://dc.lft.to/lastmile_qr_scan", "ios": "https://dc.lft.to/lastmile_qr_scan"}, "lat": 38.910946, "is_reserved": 0, "is_disabled": 0, "fusion_lat": 0.0}, {"fusion_lon": 0.0, "bike_id": "5a22c02d6d90aa807f652271d989ab44", "name": "5a22c02d6d90aa807f652271d989ab44", "type": "electric_scooter", "lon": -77.03635616666666, "rental_uris": {"android": "https://dc.lft.to/lastmile_qr_scan", "ios": "https://dc.lft.to/lastmile_qr_scan"}, "lat": 38.936658666666666, "is_reserved": 0, "is_disabled": 0, "fusion_lat": 0.0}, {"fusion_lon": 0.0, "bike_id": "78f5425491e46c754793ee1482c10811", "name": "78f5425491e46c754793ee1482c10811", "type": "electric_scooter", "lon": -76.9937705, "rental_uris": {"android": "https://dc.lft.to/lastmile_qr_scan", "ios": "https://dc.lft.to/lastmile_qr_scan"}, "lat": 38.924109666666666, "is_reserved": 0, "is_disabled": 0, "fusion_lat": 0.0}, {"fusion_lon": 0.0, "bike_id": "2ab0340871f4f2d49ed3f638cefd0794", "name": "2ab0340871f4f2d49ed3f638cefd0794", "type": "electric_scooter", "lon": -77.01608333333333, "rental_uris": {"android": "https://dc.lft.to/lastmile_qr_scan", "ios": "https://dc.lft.to/lastmile_qr_scan"}, "lat": 38.876835166666666, "is_reserved": 0, "is_disabled": 0, "fusion_lat": 0.0}, {"fusion_lon": 0.0, "bike_id": "c90e2ff4b0cfb8670be3a4efd7b79fc2", "name": "c90e2ff4b0cfb8670be3a4efd7b79fc2", "type": "electric_scooter", "lon": -77.020984, "rental_uris": {"android": "https://dc.lft.to/lastmile_qr_scan", "ios": "https://dc.lft.to/lastmile_qr_scan"}, "lat": 38.9345225, "is_reserved": 0, "is_disabled": 0, "fusion_lat": 0.0}, {"fusion_lon": 0.0, "bike_id": "58bc4c4dce5b480d5742d42386c76819", "name": "58bc4c4dce5b480d5742d42386c76819", "type": "electric_scooter", "lon": -77.00189533333334, "rental_uris": {"android": "https://dc.lft.to/lastmile_qr_scan", "ios": "https://dc.lft.to/lastmile_qr_scan"}, "lat": 38.91477733333333, "is_reserved": 0, "is_disabled": 0, "fusion_lat": 0.0}, {"fusion_lon": 0.0, "bike_id": "2bdec799a79e1c23176f3bbd4da711df", "name": "2bdec799a79e1c23176f3bbd4da711df", "type": "electric_scooter", "lon": -77.05699683333333, "rental_uris": {"android": "https://dc.lft.to/lastmile_qr_scan", "ios": "https://dc.lft.to/lastmile_qr_scan"}, "lat": 38.91060483333333, "is_reserved": 0, "is_disabled": 0, "fusion_lat": 0.0}, {"fusion_lon": 0.0, "bike_id": "d663cfecddd64b73a3805d3b70f3693a", "name": "d663cfecddd64b73a3805d3b70f3693a", "type": "electric_scooter", "lon": -77.02787633333334, "rental_uris": {"android": "https://dc.lft.to/lastmile_qr_scan", "ios": "https://dc.lft.to/lastmile_qr_scan"}, "lat": 38.89843366666667, "is_reserved": 0, "is_disabled": 0, "fusion_lat": 0.0}, {"fusion_lon": 0.0, "bike_id": "b2914b9fd2dafae2fbc731b5d6d7e5ff", "name": "b2914b9fd2dafae2fbc731b5d6d7e5ff", "type": "electric_scooter", "lon": -76.9960405, "rental_uris": {"android": "https://dc.lft.to/lastmile_qr_scan", "ios": "https://dc.lft.to/lastmile_qr_scan"}, "lat": 38.8803125, "is_reserved": 0, "is_disabled": 0, "fusion_lat": 0.0}, {"fusion_lon": 0.0, "bike_id": "b7844b6b97fb7ac526fda2b165433da7", "name": "b7844b6b97fb7ac526fda2b165433da7", "type": "electric_scooter", "lon": -77.000435, "rental_uris": {"android": "https://dc.lft.to/lastmile_qr_scan", "ios": "https://dc.lft.to/lastmile_qr_scan"}, "lat": 38.91902833333333, "is_reserved": 0, "is_disabled": 0, "fusion_lat": 0.0}, {"fusion_lon": 0.0, "bike_id": "0a2fac5ccc772f72c43ea429ea763d21", "name": "0a2fac5ccc772f72c43ea429ea763d21", "type": "electric_scooter", "lon": -77.03851266666666, "rental_uris": {"android": "https://dc.lft.to/lastmile_qr_scan", "ios": "https://dc.lft.to/lastmile_qr_scan"}, "lat": 38.918344833333336, "is_reserved": 0, "is_disabled": 0, "fusion_lat": 0.0}, {"fusion_lon": 0.0, "bike_id": "3fba86ec753c5bfa807c630f04592c46", "name": "3fba86ec753c5bfa807c630f04592c46", "type": "electric_scooter", "lon": -77.03652883333334, "rental_uris": {"android": "https://dc.lft.to/lastmile_qr_scan", "ios": "https://dc.lft.to/lastmile_qr_scan"}, "lat": 38.92457533333334, "is_reserved": 0, "is_disabled": 0, "fusion_lat": 0.0}, {"fusion_lon": 0.0, "bike_id": "c5dd66b92687af4c59e5d97ffeda6f6e", "name": "c5dd66b92687af4c59e5d97ffeda6f6e", "type": "electric_scooter", "lon": -77.04152016666667, "rental_uris": {"android": "https://dc.lft.to/lastmile_qr_scan", "ios": "https://dc.lft.to/lastmile_qr_scan"}, "lat": 38.91718516666667, "is_reserved": 0, "is_disabled": 0, "fusion_lat": 0.0}, {"fusion_lon": 0.0, "bike_id": "6e32b74cbae2c02fc39559128098b360", "name": "6e32b74cbae2c02fc39559128098b360", "type": "electric_scooter", "lon": -77.0819665, "rental_uris": {"android": "https://dc.lft.to/lastmile_qr_scan", "ios": "https://dc.lft.to/lastmile_qr_scan"}, "lat": 38.93559533333333, "is_reserved": 0, "is_disabled": 0, "fusion_lat": 0.0}, {"fusion_lon": 0.0, "bike_id": "89b7283c78a4d2807c6ac5bf3be26637", "name": "89b7283c78a4d2807c6ac5bf3be26637", "type": "electric_scooter", "lon": -77.03390316666666, "rental_uris": {"android": "https://dc.lft.to/lastmile_qr_scan", "ios": "https://dc.lft.to/lastmile_qr_scan"}, "lat": 38.91918833333333, "is_reserved": 0, "is_disabled": 0, "fusion_lat": 0.0}, {"fusion_lon": 0.0, "bike_id": "9d36ce250a3c25de9716d614788e084e", "name": "9d36ce250a3c25de9716d614788e084e", "type": "electric_scooter", "lon": -77.02027883333334, "rental_uris": {"android": "https://dc.lft.to/lastmile_qr_scan", "ios": "https://dc.lft.to/lastmile_qr_scan"}, "lat": 38.92418716666667, "is_reserved": 0, "is_disabled": 0, "fusion_lat": 0.0}, {"fusion_lon": 0.0, "bike_id": "4159de1bae6c00e9c66963b66e6ed1d7", "name": "4159de1bae6c00e9c66963b66e6ed1d7", "type": "electric_scooter", "lon": -77.00812816666667, "rental_uris": {"android": "https://dc.lft.to/lastmile_qr_scan", "ios": "https://dc.lft.to/lastmile_qr_scan"}, "lat": 38.91562733333333, "is_reserved": 0, "is_disabled": 0, "fusion_lat": 0.0}, {"fusion_lon": 0.0, "bike_id": "043348a557e8d22ce8495edfc1789039", "name": "043348a557e8d22ce8495edfc1789039", "type": "electric_scooter", "lon": -77.020012, "rental_uris": {"android": "https://dc.lft.to/lastmile_qr_scan", "ios": "https://dc.lft.to/lastmile_qr_scan"}, "lat": 38.91567033333333, "is_reserved": 0, "is_disabled": 0, "fusion_lat": 0.0}, {"fusion_lon": 0.0, "bike_id": "82ece3469aff7411f04d0c27aa0929e3", "name": "82ece3469aff7411f04d0c27aa0929e3", "type": "electric_scooter", "lon": -77.04668616666666, "rental_uris": {"android": "https://dc.lft.to/lastmile_qr_scan", "ios": "https://dc.lft.to/lastmile_qr_scan"}, "lat": 38.90743233333333, "is_reserved": 0, "is_disabled": 0, "fusion_lat": 0.0}, {"fusion_lon": 0.0, "bike_id": "45fef9630a994840447c22f28c07e134", "name": "45fef9630a994840447c22f28c07e134", "type": "electric_scooter", "lon": -76.99788516666666, "rental_uris": {"android": "https://dc.lft.to/lastmile_qr_scan", "ios": "https://dc.lft.to/lastmile_qr_scan"}, "lat": 38.94827216666667, "is_reserved": 0, "is_disabled": 0, "fusion_lat": 0.0}, {"fusion_lon": 0.0, "bike_id": "dcb099993f8b12c79a302d25074fb2fd", "name": "dcb099993f8b12c79a302d25074fb2fd", "type": "electric_scooter", "lon": -77.0048485, "rental_uris": {"android": "https://dc.lft.to/lastmile_qr_scan", "ios": "https://dc.lft.to/lastmile_qr_scan"}, "lat": 38.8803925, "is_reserved": 0, "is_disabled": 0, "fusion_lat": 0.0}, {"fusion_lon": 0.0, "bike_id": "3b4f525dd993292109a028f9e3070f7c", "name": "3b4f525dd993292109a028f9e3070f7c", "type": "electric_scooter", "lon": -77.0180535, "rental_uris": {"android": "https://dc.lft.to/lastmile_qr_scan", "ios": "https://dc.lft.to/lastmile_qr_scan"}, "lat": 38.90278983333333, "is_reserved": 0, "is_disabled": 0, "fusion_lat": 0.0}, {"fusion_lon": 0.0, "bike_id": "fc57f18a61f0b1dd0e971d9371c6e739", "name": "fc57f18a61f0b1dd0e971d9371c6e739", "type": "electric_scooter", "lon": -77.061059, "rental_uris": {"android": "https://dc.lft.to/lastmile_qr_scan", "ios": "https://dc.lft.to/lastmile_qr_scan"}, "lat": 38.94363666666667, "is_reserved": 0, "is_disabled": 0, "fusion_lat": 0.0}, {"fusion_lon": 0.0, "bike_id": "a1963ef0021e66d9eab333cd21dc714c", "name": "a1963ef0021e66d9eab333cd21dc714c", "type": "electric_scooter", "lon": -77.041625, "rental_uris": {"android": "https://dc.lft.to/lastmile_qr_scan", "ios": "https://dc.lft.to/lastmile_qr_scan"}, "lat": 38.913526166666664, "is_reserved": 0, "is_disabled": 0, "fusion_lat": 0.0}, {"fusion_lon": 0.0, "bike_id": "5e778eedb5ebea66ff20c8eebeecc7bd", "name": "5e778eedb5ebea66ff20c8eebeecc7bd", "type": "electric_scooter", "lon": -77.03489316666666, "rental_uris": {"android": "https://dc.lft.to/lastmile_qr_scan", "ios": "https://dc.lft.to/lastmile_qr_scan"}, "lat": 38.92156883333333, "is_reserved": 0, "is_disabled": 0, "fusion_lat": 0.0}, {"fusion_lon": 0.0, "bike_id": "84ed58eaf17c54d1219e205b3199725e", "name": "84ed58eaf17c54d1219e205b3199725e", "type": "electric_scooter", "lon": -77.00593716666667, "rental_uris": {"android": "https://dc.lft.to/lastmile_qr_scan", "ios": "https://dc.lft.to/lastmile_qr_scan"}, "lat": 38.905550166666664, "is_reserved": 0, "is_disabled": 0, "fusion_lat": 0.0}, {"fusion_lon": 0.0, "bike_id": "4a4110d96688013732c2066ed61791c2", "name": "4a4110d96688013732c2066ed61791c2", "type": "electric_scooter", "lon": -77.03256633333334, "rental_uris": {"android": "https://dc.lft.to/lastmile_qr_scan", "ios": "https://dc.lft.to/lastmile_qr_scan"}, "lat": 38.91818766666667, "is_reserved": 0, "is_disabled": 0, "fusion_lat": 0.0}, {"fusion_lon": 0.0, "bike_id": "d97239ab6a39e8f2d8d5be7a928d0972", "name": "d97239ab6a39e8f2d8d5be7a928d0972", "type": "electric_scooter", "lon": -77.03047716666667, "rental_uris": {"android": "https://dc.lft.to/lastmile_qr_scan", "ios": "https://dc.lft.to/lastmile_qr_scan"}, "lat": 38.88404533333333, "is_reserved": 0, "is_disabled": 0, "fusion_lat": 0.0}, {"fusion_lon": 0.0, "bike_id": "887eb05d564fd9f360b79089f642539c", "name": "887eb05d564fd9f360b79089f642539c", "type": "electric_scooter", "lon": -76.98423566666666, "rental_uris": {"android": "https://dc.lft.to/lastmile_qr_scan", "ios": "https://dc.lft.to/lastmile_qr_scan"}, "lat": 38.859751, "is_reserved": 0, "is_disabled": 0, "fusion_lat": 0.0}, {"fusion_lon": 0.0, "bike_id": "f72589de545e38bac6b910597bb466b1", "name": "f72589de545e38bac6b910597bb466b1", "type": "electric_bike", "lon": -76.90813416666667, "rental_uris": {"android": "https://dc.lft.to/lastmile_qr_scan", "ios": "https://dc.lft.to/lastmile_qr_scan"}, "lat": 38.99452216666667, "is_reserved": 0, "is_disabled": 0, "fusion_lat": 0.0}, {"fusion_lon": 0.0, "bike_id": "1d16e6466ac6fde5ee80bb13f7d6e319", "name": "1d16e6466ac6fde5ee80bb13f7d6e319", "type": "electric_scooter", "lon": -77.03320483333333, "rental_uris": {"android": "https://dc.lft.to/lastmile_qr_scan", "ios": "https://dc.lft.to/lastmile_qr_scan"}, "lat": 38.960143, "is_reserved": 0, "is_disabled": 0, "fusion_lat": 0.0}, {"fusion_lon": 0.0, "bike_id": "ba07284fc04a2081b3f58e4f5d93e241", "name": "ba07284fc04a2081b3f58e4f5d93e241", "type": "electric_scooter", "lon": -77.003364, "rental_uris": {"android": "https://dc.lft.to/lastmile_qr_scan", "ios": "https://dc.lft.to/lastmile_qr_scan"}, "lat": 38.883187166666666, "is_reserved": 0, "is_disabled": 0, "fusion_lat": 0.0}, {"fusion_lon": 0.0, "bike_id": "92a88b7f5f72719498f9eab55d003a72", "name": "92a88b7f5f72719498f9eab55d003a72", "type": "electric_scooter", "lon": -77.01892233333334, "rental_uris": {"android": "https://dc.lft.to/lastmile_qr_scan", "ios": "https://dc.lft.to/lastmile_qr_scan"}, "lat": 38.877512333333335, "is_reserved": 0, "is_disabled": 0, "fusion_lat": 0.0}, {"fusion_lon": 0.0, "bike_id": "ed5aa2ccd70bacd0b7507b38f066fd82", "name": "ed5aa2ccd70bacd0b7507b38f066fd82", "type": "electric_bike", "lon": -76.978938, "rental_uris": {"android": "https://dc.lft.to/lastmile_qr_scan", "ios": "https://dc.lft.to/lastmile_qr_scan"}, "lat": 38.8549085, "is_reserved": 0, "is_disabled": 0, "fusion_lat": 0.0}, {"fusion_lon": 0.0, "bike_id": "8346dd6b139762c917ffe4c590565dd7", "name": "8346dd6b139762c917ffe4c590565dd7", "type": "electric_scooter", "lon": -77.02288516666667, "rental_uris": {"android": "https://dc.lft.to/lastmile_qr_scan", "ios": "https://dc.lft.to/lastmile_qr_scan"}, "lat": 38.91762583333333, "is_reserved": 0, "is_disabled": 0, "fusion_lat": 0.0}, {"fusion_lon": 0.0, "bike_id": "9405848a14ffa99d58657a96df51ab66", "name": "9405848a14ffa99d58657a96df51ab66", "type": "electric_scooter", "lon": -76.955335, "rental_uris": {"android": "https://dc.lft.to/lastmile_qr_scan", "ios": "https://dc.lft.to/lastmile_qr_scan"}, "lat": 38.887645166666665, "is_reserved": 0, "is_disabled": 0, "fusion_lat": 0.0}, {"fusion_lon": 0.0, "bike_id": "1237de47043eced0e0f291cc1031b97f", "name": "1237de47043eced0e0f291cc1031b97f", "type": "electric_scooter", "lon": -77.10307866666666, "rental_uris": {"android": "https://dc.lft.to/lastmile_qr_scan", "ios": "https://dc.lft.to/lastmile_qr_scan"}, "lat": 38.926714, "is_reserved": 0, "is_disabled": 0, "fusion_lat": 0.0}, {"fusion_lon": 0.0, "bike_id": "84f079f0b92cf0f9a7a172dd7a74388b", "name": "84f079f0b92cf0f9a7a172dd7a74388b", "type": "electric_bike", "lon": -76.915911, "rental_uris": {"android": "https://dc.lft.to/lastmile_qr_scan", "ios": "https://dc.lft.to/lastmile_qr_scan"}, "lat": 38.8800755, "is_reserved": 0, "is_disabled": 0, "fusion_lat": 0.0}, {"fusion_lon": 0.0, "bike_id": "13c28d970393e6cc5c553d77671805d7", "name": "13c28d970393e6cc5c553d77671805d7", "type": "electric_scooter", "lon": -76.98336366666666, "rental_uris": {"android": "https://dc.lft.to/lastmile_qr_scan", "ios": "https://dc.lft.to/lastmile_qr_scan"}, "lat": 38.912698166666665, "is_reserved": 0, "is_disabled": 0, "fusion_lat": 0.0}, {"fusion_lon": 0.0, "bike_id": "d961a0affeb9c5f70e4efbae8bf2c4b5", "name": "d961a0affeb9c5f70e4efbae8bf2c4b5", "type": "electric_scooter", "lon": -77.06232733333333, "rental_uris": {"android": "https://dc.lft.to/lastmile_qr_scan", "ios": "https://dc.lft.to/lastmile_qr_scan"}, "lat": 38.905247, "is_reserved": 0, "is_disabled": 0, "fusion_lat": 0.0}, {"fusion_lon": 0.0, "bike_id": "cf8695175aeaffe069be99dcc04ccccc", "name": "cf8695175aeaffe069be99dcc04ccccc", "type": "electric_scooter", "lon": -77.050974, "rental_uris": {"android": "https://dc.lft.to/lastmile_qr_scan", "ios": "https://dc.lft.to/lastmile_qr_scan"}, "lat": 38.9234275, "is_reserved": 0, "is_disabled": 0, "fusion_lat": 0.0}, {"fusion_lon": 0.0, "bike_id": "a3dc4a36ca9cda33c0209d721b77ee2c", "name": "a3dc4a36ca9cda33c0209d721b77ee2c", "type": "electric_scooter", "lon": -76.98197333333333, "rental_uris": {"android": "https://dc.lft.to/lastmile_qr_scan", "ios": "https://dc.lft.to/lastmile_qr_scan"}, "lat": 38.90196266666667, "is_reserved": 0, "is_disabled": 0, "fusion_lat": 0.0}, {"fusion_lon": 0.0, "bike_id": "71b9f5cf2246ad873a4b9d962a553ea4", "name": "71b9f5cf2246ad873a4b9d962a553ea4", "type": "electric_scooter", "lon": -77.027142, "rental_uris": {"android": "https://dc.lft.to/lastmile_qr_scan", "ios": "https://dc.lft.to/lastmile_qr_scan"}, "lat": 38.90745283333333, "is_reserved": 0, "is_disabled": 0, "fusion_lat": 0.0}, {"fusion_lon": 0.0, "bike_id": "2b8cb79829f7db0bc9a37bb1041e45a2", "name": "2b8cb79829f7db0bc9a37bb1041e45a2", "type": "electric_scooter", "lon": -77.02776, "rental_uris": {"android": "https://dc.lft.to/lastmile_qr_scan", "ios": "https://dc.lft.to/lastmile_qr_scan"}, "lat": 38.892189333333334, "is_reserved": 0, "is_disabled": 0, "fusion_lat": 0.0}, {"fusion_lon": 0.0, "bike_id": "6af2c2f20eec7dbd343f65fa345507bd", "name": "6af2c2f20eec7dbd343f65fa345507bd", "type": "electric_scooter", "lon": -76.96438633333334, "rental_uris": {"android": "https://dc.lft.to/lastmile_qr_scan", "ios": "https://dc.lft.to/lastmile_qr_scan"}, "lat": 38.934638166666666, "is_reserved": 0, "is_disabled": 0, "fusion_lat": 0.0}, {"fusion_lon": 0.0, "bike_id": "f04bfce101b08e5c397b7736a8c01aa4", "name": "f04bfce101b08e5c397b7736a8c01aa4", "type": "electric_scooter", "lon": -77.03881316666667, "rental_uris": {"android": "https://dc.lft.to/lastmile_qr_scan", "ios": "https://dc.lft.to/lastmile_qr_scan"}, "lat": 38.934291, "is_reserved": 0, "is_disabled": 0, "fusion_lat": 0.0}, {"fusion_lon": 0.0, "bike_id": "ff5b597d4db0f69c295b17e852576b3c", "name": "ff5b597d4db0f69c295b17e852576b3c", "type": "electric_bike", "lon": -77.0511825, "rental_uris": {"android": "https://dc.lft.to/lastmile_qr_scan", "ios": "https://dc.lft.to/lastmile_qr_scan"}, "lat": 38.94555916666667, "is_reserved": 0, "is_disabled": 0, "fusion_lat": 0.0}, {"fusion_lon": 0.0, "bike_id": "91b18258ed4d22ced79ee63ddb1b5d68", "name": "91b18258ed4d22ced79ee63ddb1b5d68", "type": "electric_bike", "lon": -76.9999695, "rental_uris": {"android": "https://dc.lft.to/lastmile_qr_scan", "ios": "https://dc.lft.to/lastmile_qr_scan"}, "lat": 38.923865666666664, "is_reserved": 0, "is_disabled": 0, "fusion_lat": 0.0}, {"fusion_lon": 0.0, "bike_id": "14664c16e3f0240978b57ad8a5e89750", "name": "14664c16e3f0240978b57ad8a5e89750", "type": "electric_bike", "lon": -77.0541105, "rental_uris": {"android": "https://dc.lft.to/lastmile_qr_scan", "ios": "https://dc.lft.to/lastmile_qr_scan"}, "lat": 38.8488855, "is_reserved": 0, "is_disabled": 0, "fusion_lat": 0.0}, {"fusion_lon": 0.0, "bike_id": "08b2778ecc8aea5d7f185b00ca36fbb5", "name": "08b2778ecc8aea5d7f185b00ca36fbb5", "type": "electric_bike", "lon": -77.10713966666667, "rental_uris": {"android": "https://dc.lft.to/lastmile_qr_scan", "ios": "https://dc.lft.to/lastmile_qr_scan"}, "lat": 38.855757833333335, "is_reserved": 0, "is_disabled": 0, "fusion_lat": 0.0}, {"fusion_lon": 0.0, "bike_id": "bc61a85162b4647f1feb1f8ab5cfeb68", "name": "bc61a85162b4647f1feb1f8ab5cfeb68", "type": "electric_scooter", "lon": -76.9892025, "rental_uris": {"android": "https://dc.lft.to/lastmile_qr_scan", "ios": "https://dc.lft.to/lastmile_qr_scan"}, "lat": 38.88201933333333, "is_reserved": 0, "is_disabled": 0, "fusion_lat": 0.0}, {"fusion_lon": 0.0, "bike_id": "b1d5ba06d2fdcd41c8ef983996d99455", "name": "b1d5ba06d2fdcd41c8ef983996d99455", "type": "electric_scooter", "lon": -77.039288, "rental_uris": {"android": "https://dc.lft.to/lastmile_qr_scan", "ios": "https://dc.lft.to/lastmile_qr_scan"}, "lat": 38.92492266666667, "is_reserved": 0, "is_disabled": 0, "fusion_lat": 0.0}, {"fusion_lon": 0.0, "bike_id": "e00255c50d04f75c94370cf0c1b44cda", "name": "e00255c50d04f75c94370cf0c1b44cda", "type": "electric_scooter", "lon": -77.06362933333334, "rental_uris": {"android": "https://dc.lft.to/lastmile_qr_scan", "ios": "https://dc.lft.to/lastmile_qr_scan"}, "lat": 38.94414966666667, "is_reserved": 0, "is_disabled": 0, "fusion_lat": 0.0}, {"fusion_lon": 0.0, "bike_id": "5c3763ffc053521ea26bf11af408c8c2", "name": "5c3763ffc053521ea26bf11af408c8c2", "type": "electric_scooter", "lon": -77.032156, "rental_uris": {"android": "https://dc.lft.to/lastmile_qr_scan", "ios": "https://dc.lft.to/lastmile_qr_scan"}, "lat": 38.91261383333333, "is_reserved": 0, "is_disabled": 0, "fusion_lat": 0.0}, {"fusion_lon": 0.0, "bike_id": "2f42a6b539d5419c9c2e4c64b16eb529", "name": "2f42a6b539d5419c9c2e4c64b16eb529", "type": "electric_scooter", "lon": -77.04448833333333, "rental_uris": {"android": "https://dc.lft.to/lastmile_qr_scan", "ios": "https://dc.lft.to/lastmile_qr_scan"}, "lat": 38.9098705, "is_reserved": 0, "is_disabled": 0, "fusion_lat": 0.0}, {"fusion_lon": 0.0, "bike_id": "22ac2bbe2b4e8afe44ce106fbaf7c11b", "name": "22ac2bbe2b4e8afe44ce106fbaf7c11b", "type": "electric_scooter", "lon": -77.04150933333334, "rental_uris": {"android": "https://dc.lft.to/lastmile_qr_scan", "ios": "https://dc.lft.to/lastmile_qr_scan"}, "lat": 38.91565166666667, "is_reserved": 0, "is_disabled": 0, "fusion_lat": 0.0}, {"fusion_lon": 0.0, "bike_id": "51cb2a89067d0c818504ad2552f3b62d", "name": "51cb2a89067d0c818504ad2552f3b62d", "type": "electric_scooter", "lon": -77.02800116666667, "rental_uris": {"android": "https://dc.lft.to/lastmile_qr_scan", "ios": "https://dc.lft.to/lastmile_qr_scan"}, "lat": 38.950957833333334, "is_reserved": 0, "is_disabled": 0, "fusion_lat": 0.0}, {"fusion_lon": 0.0, "bike_id": "b172c8ec97ba3c01e07fd443db779d7e", "name": "b172c8ec97ba3c01e07fd443db779d7e", "type": "electric_scooter", "lon": -77.03381083333333, "rental_uris": {"android": "https://dc.lft.to/lastmile_qr_scan", "ios": "https://dc.lft.to/lastmile_qr_scan"}, "lat": 38.968287333333336, "is_reserved": 0, "is_disabled": 0, "fusion_lat": 0.0}, {"fusion_lon": 0.0, "bike_id": "47180cdb6c118764d07044a674722ecb", "name": "47180cdb6c118764d07044a674722ecb", "type": "electric_scooter", "lon": -77.02190816666666, "rental_uris": {"android": "https://dc.lft.to/lastmile_qr_scan", "ios": "https://dc.lft.to/lastmile_qr_scan"}, "lat": 38.91121616666667, "is_reserved": 0, "is_disabled": 0, "fusion_lat": 0.0}, {"fusion_lon": 0.0, "bike_id": "d22b10088a177135ab1821c488023b28", "name": "d22b10088a177135ab1821c488023b28", "type": "electric_scooter", "lon": -77.0221975, "rental_uris": {"android": "https://dc.lft.to/lastmile_qr_scan", "ios": "https://dc.lft.to/lastmile_qr_scan"}, "lat": 38.91266566666667, "is_reserved": 0, "is_disabled": 0, "fusion_lat": 0.0}, {"fusion_lon": 0.0, "bike_id": "a4c6cf7c839b32530a24b55f284f3a4d", "name": "a4c6cf7c839b32530a24b55f284f3a4d", "type": "electric_bike", "lon": -77.04896116666667, "rental_uris": {"android": "https://dc.lft.to/lastmile_qr_scan", "ios": "https://dc.lft.to/lastmile_qr_scan"}, "lat": 38.87490016666667, "is_reserved": 0, "is_disabled": 0, "fusion_lat": 0.0}, {"fusion_lon": 0.0, "bike_id": "1c088886386a208d401cc78457183d64", "name": "1c088886386a208d401cc78457183d64", "type": "electric_scooter", "lon": -77.0019385, "rental_uris": {"android": "https://dc.lft.to/lastmile_qr_scan", "ios": "https://dc.lft.to/lastmile_qr_scan"}, "lat": 38.902283, "is_reserved": 0, "is_disabled": 0, "fusion_lat": 0.0}, {"fusion_lon": 0.0, "bike_id": "2ec0dfd5d5e1a9f46b47ad0cac3fbbf7", "name": "2ec0dfd5d5e1a9f46b47ad0cac3fbbf7", "type": "electric_scooter", "lon": -77.02958983333333, "rental_uris": {"android": "https://dc.lft.to/lastmile_qr_scan", "ios": "https://dc.lft.to/lastmile_qr_scan"}, "lat": 38.911758166666665, "is_reserved": 0, "is_disabled": 0, "fusion_lat": 0.0}, {"fusion_lon": 0.0, "bike_id": "09f65935be47caafba9975820ec232f0", "name": "09f65935be47caafba9975820ec232f0", "type": "electric_scooter", "lon": -77.03156116666666, "rental_uris": {"android": "https://dc.lft.to/lastmile_qr_scan", "ios": "https://dc.lft.to/lastmile_qr_scan"}, "lat": 38.927954, "is_reserved": 0, "is_disabled": 0, "fusion_lat": 0.0}, {"fusion_lon": 0.0, "bike_id": "d86ea2c0668af0b4d6b2f7c75b046ad2", "name": "d86ea2c0668af0b4d6b2f7c75b046ad2", "type": "electric_scooter", "lon": -77.0178575, "rental_uris": {"android": "https://dc.lft.to/lastmile_qr_scan", "ios": "https://dc.lft.to/lastmile_qr_scan"}, "lat": 38.94116533333333, "is_reserved": 0, "is_disabled": 0, "fusion_lat": 0.0}, {"fusion_lon": 0.0, "bike_id": "8b0b2d57da2e0cb9053c656c11997754", "name": "8b0b2d57da2e0cb9053c656c11997754", "type": "electric_scooter", "lon": -77.00341816666666, "rental_uris": {"android": "https://dc.lft.to/lastmile_qr_scan", "ios": "https://dc.lft.to/lastmile_qr_scan"}, "lat": 38.90708033333333, "is_reserved": 0, "is_disabled": 0, "fusion_lat": 0.0}, {"fusion_lon": 0.0, "bike_id": "9c9ab529fc1889b0cf6160b1e12178cb", "name": "9c9ab529fc1889b0cf6160b1e12178cb", "type": "electric_scooter", "lon": -77.0248205, "rental_uris": {"android": "https://dc.lft.to/lastmile_qr_scan", "ios": "https://dc.lft.to/lastmile_qr_scan"}, "lat": 38.904083666666665, "is_reserved": 0, "is_disabled": 0, "fusion_lat": 0.0}, {"fusion_lon": 0.0, "bike_id": "ca50a8a99c2667000a519ae6c44fc415", "name": "ca50a8a99c2667000a519ae6c44fc415", "type": "electric_scooter", "lon": -77.03727566666667, "rental_uris": {"android": "https://dc.lft.to/lastmile_qr_scan", "ios": "https://dc.lft.to/lastmile_qr_scan"}, "lat": 38.935727, "is_reserved": 0, "is_disabled": 0, "fusion_lat": 0.0}, {"fusion_lon": 0.0, "bike_id": "a27c21a144fcdbb8b6fd451850f6e10b", "name": "a27c21a144fcdbb8b6fd451850f6e10b", "type": "electric_scooter", "lon": -77.04013533333334, "rental_uris": {"android": "https://dc.lft.to/lastmile_qr_scan", "ios": "https://dc.lft.to/lastmile_qr_scan"}, "lat": 38.91293983333333, "is_reserved": 0, "is_disabled": 0, "fusion_lat": 0.0}, {"fusion_lon": 0.0, "bike_id": "166c8ddb0721c203ba61f4414ee677cf", "name": "166c8ddb0721c203ba61f4414ee677cf", "type": "electric_scooter", "lon": -77.02935966666666, "rental_uris": {"android": "https://dc.lft.to/lastmile_qr_scan", "ios": "https://dc.lft.to/lastmile_qr_scan"}, "lat": 38.914171833333334, "is_reserved": 0, "is_disabled": 0, "fusion_lat": 0.0}, {"fusion_lon": 0.0, "bike_id": "978fd498835ea62116bbd4a3bd6aa2d7", "name": "978fd498835ea62116bbd4a3bd6aa2d7", "type": "electric_scooter", "lon": -77.05913083333333, "rental_uris": {"android": "https://dc.lft.to/lastmile_qr_scan", "ios": "https://dc.lft.to/lastmile_qr_scan"}, "lat": 38.910038166666666, "is_reserved": 0, "is_disabled": 0, "fusion_lat": 0.0}, {"fusion_lon": 0.0, "bike_id": "410af696bceb20460e317354377e0518", "name": "410af696bceb20460e317354377e0518", "type": "electric_bike", "lon": -76.87491583333333, "rental_uris": {"android": "https://dc.lft.to/lastmile_qr_scan", "ios": "https://dc.lft.to/lastmile_qr_scan"}, "lat": 38.990896666666664, "is_reserved": 0, "is_disabled": 0, "fusion_lat": 0.0}, {"fusion_lon": 0.0, "bike_id": "275e2db5d847ef2b324d6b844ef796e1", "name": "275e2db5d847ef2b324d6b844ef796e1", "type": "electric_bike", "lon": -77.10026883333333, "rental_uris": {"android": "https://dc.lft.to/lastmile_qr_scan", "ios": "https://dc.lft.to/lastmile_qr_scan"}, "lat": 38.99064883333333, "is_reserved": 0, "is_disabled": 0, "fusion_lat": 0.0}, {"fusion_lon": 0.0, "bike_id": "7ba7b47051bde199d878fe0d952bc206", "name": "7ba7b47051bde199d878fe0d952bc206", "type": "electric_scooter", "lon": -77.03051033333334, "rental_uris": {"android": "https://dc.lft.to/lastmile_qr_scan", "ios": "https://dc.lft.to/lastmile_qr_scan"}, "lat": 38.8840795, "is_reserved": 0, "is_disabled": 0, "fusion_lat": 0.0}, {"fusion_lon": 0.0, "bike_id": "7ce2ed4c78bf656a0f63742669a6a75f", "name": "7ce2ed4c78bf656a0f63742669a6a75f", "type": "electric_scooter", "lon": -77.026938, "rental_uris": {"android": "https://dc.lft.to/lastmile_qr_scan", "ios": "https://dc.lft.to/lastmile_qr_scan"}, "lat": 38.9098005, "is_reserved": 0, "is_disabled": 0, "fusion_lat": 0.0}, {"fusion_lon": 0.0, "bike_id": "6c5378a5a8c6e7ace643cf8852f64ee4", "name": "6c5378a5a8c6e7ace643cf8852f64ee4", "type": "electric_scooter", "lon": -77.0006965, "rental_uris": {"android": "https://dc.lft.to/lastmile_qr_scan", "ios": "https://dc.lft.to/lastmile_qr_scan"}, "lat": 38.919524333333335, "is_reserved": 0, "is_disabled": 0, "fusion_lat": 0.0}, {"fusion_lon": 0.0, "bike_id": "b06b01e0082855e7a9998efd4d1748a4", "name": "b06b01e0082855e7a9998efd4d1748a4", "type": "electric_scooter", "lon": -76.9855915, "rental_uris": {"android": "https://dc.lft.to/lastmile_qr_scan", "ios": "https://dc.lft.to/lastmile_qr_scan"}, "lat": 38.900392333333336, "is_reserved": 0, "is_disabled": 0, "fusion_lat": 0.0}, {"fusion_lon": 0.0, "bike_id": "cd1f2cf853444a2f1c1b3ed864ff38fc", "name": "cd1f2cf853444a2f1c1b3ed864ff38fc", "type": "electric_scooter", "lon": -76.94885233333333, "rental_uris": {"android": "https://dc.lft.to/lastmile_qr_scan", "ios": "https://dc.lft.to/lastmile_qr_scan"}, "lat": 38.895112833333336, "is_reserved": 0, "is_disabled": 0, "fusion_lat": 0.0}, {"fusion_lon": 0.0, "bike_id": "1cdebbcbb65b67278c80c16bb0058da8", "name": "1cdebbcbb65b67278c80c16bb0058da8", "type": "electric_scooter", "lon": -77.01474216666666, "rental_uris": {"android": "https://dc.lft.to/lastmile_qr_scan", "ios": "https://dc.lft.to/lastmile_qr_scan"}, "lat": 38.87633733333333, "is_reserved": 0, "is_disabled": 0, "fusion_lat": 0.0}, {"fusion_lon": 0.0, "bike_id": "cb67a318504f10c6652c0ace52797010", "name": "cb67a318504f10c6652c0ace52797010", "type": "electric_scooter", "lon": -77.0027735, "rental_uris": {"android": "https://dc.lft.to/lastmile_qr_scan", "ios": "https://dc.lft.to/lastmile_qr_scan"}, "lat": 38.939190333333336, "is_reserved": 0, "is_disabled": 0, "fusion_lat": 0.0}, {"fusion_lon": 0.0, "bike_id": "cc5fa517d76b0e1e84de71c8f499be7d", "name": "cc5fa517d76b0e1e84de71c8f499be7d", "type": "electric_scooter", "lon": -77.0051525, "rental_uris": {"android": "https://dc.lft.to/lastmile_qr_scan", "ios": "https://dc.lft.to/lastmile_qr_scan"}, "lat": 38.87466516666667, "is_reserved": 0, "is_disabled": 0, "fusion_lat": 0.0}, {"fusion_lon": 0.0, "bike_id": "e3b3aa983c90878b0e2366d86ad46869", "name": "e3b3aa983c90878b0e2366d86ad46869", "type": "electric_scooter", "lon": -77.047041, "rental_uris": {"android": "https://dc.lft.to/lastmile_qr_scan", "ios": "https://dc.lft.to/lastmile_qr_scan"}, "lat": 38.9126635, "is_reserved": 0, "is_disabled": 0, "fusion_lat": 0.0}, {"fusion_lon": 0.0, "bike_id": "57dff463c0469b076a975ac97477a0ea", "name": "57dff463c0469b076a975ac97477a0ea", "type": "electric_scooter", "lon": -77.0143615, "rental_uris": {"android": "https://dc.lft.to/lastmile_qr_scan", "ios": "https://dc.lft.to/lastmile_qr_scan"}, "lat": 38.912549, "is_reserved": 0, "is_disabled": 0, "fusion_lat": 0.0}, {"fusion_lon": 0.0, "bike_id": "c73dfaa3c64d7444af35f9501f97c0ed", "name": "c73dfaa3c64d7444af35f9501f97c0ed", "type": "electric_scooter", "lon": -76.999585, "rental_uris": {"android": "https://dc.lft.to/lastmile_qr_scan", "ios": "https://dc.lft.to/lastmile_qr_scan"}, "lat": 38.900611833333336, "is_reserved": 0, "is_disabled": 0, "fusion_lat": 0.0}, {"fusion_lon": 0.0, "bike_id": "e9faac5eca49eaa8317db90d9862955c", "name": "e9faac5eca49eaa8317db90d9862955c", "type": "electric_scooter", "lon": -76.99383116666667, "rental_uris": {"android": "https://dc.lft.to/lastmile_qr_scan", "ios": "https://dc.lft.to/lastmile_qr_scan"}, "lat": 38.920986, "is_reserved": 0, "is_disabled": 0, "fusion_lat": 0.0}, {"fusion_lon": 0.0, "bike_id": "9c0c3748bed4438d182d344dec1b0806", "name": "9c0c3748bed4438d182d344dec1b0806", "type": "electric_scooter", "lon": -76.98845766666666, "rental_uris": {"android": "https://dc.lft.to/lastmile_qr_scan", "ios": "https://dc.lft.to/lastmile_qr_scan"}, "lat": 38.9002595, "is_reserved": 0, "is_disabled": 0, "fusion_lat": 0.0}, {"fusion_lon": 0.0, "bike_id": "355ccbfd0f4cd07d343872ffcf3eccc1", "name": "355ccbfd0f4cd07d343872ffcf3eccc1", "type": "electric_scooter", "lon": -77.042211, "rental_uris": {"android": "https://dc.lft.to/lastmile_qr_scan", "ios": "https://dc.lft.to/lastmile_qr_scan"}, "lat": 38.921750333333335, "is_reserved": 0, "is_disabled": 0, "fusion_lat": 0.0}, {"fusion_lon": 0.0, "bike_id": "34d5dbf072c35249448ea99585b6ce62", "name": "34d5dbf072c35249448ea99585b6ce62", "type": "electric_scooter", "lon": -77.02401933333333, "rental_uris": {"android": "https://dc.lft.to/lastmile_qr_scan", "ios": "https://dc.lft.to/lastmile_qr_scan"}, "lat": 38.90573066666666, "is_reserved": 0, "is_disabled": 0, "fusion_lat": 0.0}, {"fusion_lon": 0.0, "bike_id": "ab1fad20801efc5445f4d0e227b525e7", "name": "ab1fad20801efc5445f4d0e227b525e7", "type": "electric_scooter", "lon": -77.04146266666666, "rental_uris": {"android": "https://dc.lft.to/lastmile_qr_scan", "ios": "https://dc.lft.to/lastmile_qr_scan"}, "lat": 38.9178655, "is_reserved": 0, "is_disabled": 0, "fusion_lat": 0.0}, {"fusion_lon": 0.0, "bike_id": "0ef0163ef5b297aa2caa7e7e67ca2fd5", "name": "0ef0163ef5b297aa2caa7e7e67ca2fd5", "type": "electric_scooter", "lon": -77.027455, "rental_uris": {"android": "https://dc.lft.to/lastmile_qr_scan", "ios": "https://dc.lft.to/lastmile_qr_scan"}, "lat": 38.932074666666665, "is_reserved": 0, "is_disabled": 0, "fusion_lat": 0.0}, {"fusion_lon": 0.0, "bike_id": "9e733e5abad69a6c127a95fa626a402f", "name": "9e733e5abad69a6c127a95fa626a402f", "type": "electric_scooter", "lon": -77.05119016666667, "rental_uris": {"android": "https://dc.lft.to/lastmile_qr_scan", "ios": "https://dc.lft.to/lastmile_qr_scan"}, "lat": 38.9234795, "is_reserved": 0, "is_disabled": 0, "fusion_lat": 0.0}, {"fusion_lon": 0.0, "bike_id": "3c6cac036dfd1f69d0e94b8b54391fe7", "name": "3c6cac036dfd1f69d0e94b8b54391fe7", "type": "electric_scooter", "lon": -77.05162333333334, "rental_uris": {"android": "https://dc.lft.to/lastmile_qr_scan", "ios": "https://dc.lft.to/lastmile_qr_scan"}, "lat": 38.900807, "is_reserved": 0, "is_disabled": 0, "fusion_lat": 0.0}, {"fusion_lon": 0.0, "bike_id": "f9c7cbead24683ae64cc0eb29cbdc276", "name": "f9c7cbead24683ae64cc0eb29cbdc276", "type": "electric_scooter", "lon": -76.99646316666667, "rental_uris": {"android": "https://dc.lft.to/lastmile_qr_scan", "ios": "https://dc.lft.to/lastmile_qr_scan"}, "lat": 38.932598, "is_reserved": 0, "is_disabled": 0, "fusion_lat": 0.0}, {"fusion_lon": 0.0, "bike_id": "80b089370b6c55f22efb4fc7894eaa95", "name": "80b089370b6c55f22efb4fc7894eaa95", "type": "electric_scooter", "lon": -77.02810366666667, "rental_uris": {"android": "https://dc.lft.to/lastmile_qr_scan", "ios": "https://dc.lft.to/lastmile_qr_scan"}, "lat": 38.916294666666666, "is_reserved": 0, "is_disabled": 0, "fusion_lat": 0.0}, {"fusion_lon": 0.0, "bike_id": "694e10cedbadb7ea9ed759a5146df137", "name": "694e10cedbadb7ea9ed759a5146df137", "type": "electric_scooter", "lon": -77.0100515, "rental_uris": {"android": "https://dc.lft.to/lastmile_qr_scan", "ios": "https://dc.lft.to/lastmile_qr_scan"}, "lat": 38.8796285, "is_reserved": 0, "is_disabled": 0, "fusion_lat": 0.0}, {"fusion_lon": 0.0, "bike_id": "1a91ebc9ba615f5471579fcd5ea2bf0c", "name": "1a91ebc9ba615f5471579fcd5ea2bf0c", "type": "electric_scooter", "lon": -77.0077095, "rental_uris": {"android": "https://dc.lft.to/lastmile_qr_scan", "ios": "https://dc.lft.to/lastmile_qr_scan"}, "lat": 38.876627666666664, "is_reserved": 0, "is_disabled": 0, "fusion_lat": 0.0}, {"fusion_lon": 0.0, "bike_id": "c125c33f26fd22f1b8b6fb8ebb6a8c40", "name": "c125c33f26fd22f1b8b6fb8ebb6a8c40", "type": "electric_scooter", "lon": -76.990748, "rental_uris": {"android": "https://dc.lft.to/lastmile_qr_scan", "ios": "https://dc.lft.to/lastmile_qr_scan"}, "lat": 38.8637015, "is_reserved": 0, "is_disabled": 0, "fusion_lat": 0.0}, {"fusion_lon": 0.0, "bike_id": "636894053e3d989d5bc651fd356b0941", "name": "636894053e3d989d5bc651fd356b0941", "type": "electric_scooter", "lon": -77.03386283333333, "rental_uris": {"android": "https://dc.lft.to/lastmile_qr_scan", "ios": "https://dc.lft.to/lastmile_qr_scan"}, "lat": 38.90951366666667, "is_reserved": 0, "is_disabled": 0, "fusion_lat": 0.0}, {"fusion_lon": 0.0, "bike_id": "ae556f80f05c8671612aaff28a6ba56c", "name": "ae556f80f05c8671612aaff28a6ba56c", "type": "electric_scooter", "lon": -76.993527, "rental_uris": {"android": "https://dc.lft.to/lastmile_qr_scan", "ios": "https://dc.lft.to/lastmile_qr_scan"}, "lat": 38.89611583333333, "is_reserved": 0, "is_disabled": 0, "fusion_lat": 0.0}, {"fusion_lon": 0.0, "bike_id": "d9ccb792f7d240704ed65acb2aa2f236", "name": "d9ccb792f7d240704ed65acb2aa2f236", "type": "electric_scooter", "lon": -77.04606783333334, "rental_uris": {"android": "https://dc.lft.to/lastmile_qr_scan", "ios": "https://dc.lft.to/lastmile_qr_scan"}, "lat": 38.905915, "is_reserved": 0, "is_disabled": 0, "fusion_lat": 0.0}, {"fusion_lon": 0.0, "bike_id": "665b0d72c80d39eacd606cdb23d00d06", "name": "665b0d72c80d39eacd606cdb23d00d06", "type": "electric_scooter", "lon": -77.027134, "rental_uris": {"android": "https://dc.lft.to/lastmile_qr_scan", "ios": "https://dc.lft.to/lastmile_qr_scan"}, "lat": 38.9074915, "is_reserved": 0, "is_disabled": 0, "fusion_lat": 0.0}, {"fusion_lon": 0.0, "bike_id": "c905c45270380a813e58ad1c05426a3c", "name": "c905c45270380a813e58ad1c05426a3c", "type": "electric_scooter", "lon": -77.007449, "rental_uris": {"android": "https://dc.lft.to/lastmile_qr_scan", "ios": "https://dc.lft.to/lastmile_qr_scan"}, "lat": 38.876334, "is_reserved": 0, "is_disabled": 0, "fusion_lat": 0.0}, {"fusion_lon": 0.0, "bike_id": "3a4f34ee69b4b428367596639022296b", "name": "3a4f34ee69b4b428367596639022296b", "type": "electric_scooter", "lon": -77.031994, "rental_uris": {"android": "https://dc.lft.to/lastmile_qr_scan", "ios": "https://dc.lft.to/lastmile_qr_scan"}, "lat": 38.919205166666664, "is_reserved": 0, "is_disabled": 0, "fusion_lat": 0.0}, {"fusion_lon": 0.0, "bike_id": "5a1413e666011a67fc2b55aea13ebcaa", "name": "5a1413e666011a67fc2b55aea13ebcaa", "type": "electric_scooter", "lon": -77.0009605, "rental_uris": {"android": "https://dc.lft.to/lastmile_qr_scan", "ios": "https://dc.lft.to/lastmile_qr_scan"}, "lat": 38.897428, "is_reserved": 0, "is_disabled": 0, "fusion_lat": 0.0}, {"fusion_lon": 0.0, "bike_id": "51555a3c88ac834297f707e5c22d7156", "name": "51555a3c88ac834297f707e5c22d7156", "type": "electric_scooter", "lon": -77.005705, "rental_uris": {"android": "https://dc.lft.to/lastmile_qr_scan", "ios": "https://dc.lft.to/lastmile_qr_scan"}, "lat": 38.87505216666667, "is_reserved": 0, "is_disabled": 0, "fusion_lat": 0.0}, {"fusion_lon": 0.0, "bike_id": "f9d2ca3f5bb6b9096df5efeae74e4809", "name": "f9d2ca3f5bb6b9096df5efeae74e4809", "type": "electric_scooter", "lon": -77.02649633333333, "rental_uris": {"android": "https://dc.lft.to/lastmile_qr_scan", "ios": "https://dc.lft.to/lastmile_qr_scan"}, "lat": 38.930929166666665, "is_reserved": 0, "is_disabled": 0, "fusion_lat": 0.0}, {"fusion_lon": 0.0, "bike_id": "c3285b31c2194c8a720ff663c2a1f030", "name": "c3285b31c2194c8a720ff663c2a1f030", "type": "electric_scooter", "lon": -77.00363016666667, "rental_uris": {"android": "https://dc.lft.to/lastmile_qr_scan", "ios": "https://dc.lft.to/lastmile_qr_scan"}, "lat": 38.87755833333333, "is_reserved": 0, "is_disabled": 0, "fusion_lat": 0.0}, {"fusion_lon": 0.0, "bike_id": "00054ef9e2af09444c9f09471b088762", "name": "00054ef9e2af09444c9f09471b088762", "type": "electric_bike", "lon": -77.13228666666667, "rental_uris": {"android": "https://dc.lft.to/lastmile_qr_scan", "ios": "https://dc.lft.to/lastmile_qr_scan"}, "lat": 38.869742, "is_reserved": 0, "is_disabled": 0, "fusion_lat": 0.0}, {"fusion_lon": 0.0, "bike_id": "2631ad5c79dc68af15dd005157ed1d56", "name": "2631ad5c79dc68af15dd005157ed1d56", "type": "electric_scooter", "lon": -77.03182683333333, "rental_uris": {"android": "https://dc.lft.to/lastmile_qr_scan", "ios": "https://dc.lft.to/lastmile_qr_scan"}, "lat": 38.916308666666666, "is_reserved": 0, "is_disabled": 0, "fusion_lat": 0.0}, {"fusion_lon": 0.0, "bike_id": "3d5c1b38fef7a4bfd56a228a53fea820", "name": "3d5c1b38fef7a4bfd56a228a53fea820", "type": "electric_scooter", "lon": -77.071662, "rental_uris": {"android": "https://dc.lft.to/lastmile_qr_scan", "ios": "https://dc.lft.to/lastmile_qr_scan"}, "lat": 38.907635, "is_reserved": 0, "is_disabled": 0, "fusion_lat": 0.0}, {"fusion_lon": 0.0, "bike_id": "55a93dbdb174c389308ae07548e8ffbf", "name": "55a93dbdb174c389308ae07548e8ffbf", "type": "electric_scooter", "lon": -77.01129583333334, "rental_uris": {"android": "https://dc.lft.to/lastmile_qr_scan", "ios": "https://dc.lft.to/lastmile_qr_scan"}, "lat": 38.89499933333333, "is_reserved": 0, "is_disabled": 0, "fusion_lat": 0.0}, {"fusion_lon": 0.0, "bike_id": "fd6b46a9bace763edecd6004ba9a32e2", "name": "fd6b46a9bace763edecd6004ba9a32e2", "type": "electric_scooter", "lon": -77.02168933333333, "rental_uris": {"android": "https://dc.lft.to/lastmile_qr_scan", "ios": "https://dc.lft.to/lastmile_qr_scan"}, "lat": 38.9429115, "is_reserved": 0, "is_disabled": 0, "fusion_lat": 0.0}, {"fusion_lon": 0.0, "bike_id": "2dd86ea366081b5a323cc329170a1f8f", "name": "2dd86ea366081b5a323cc329170a1f8f", "type": "electric_scooter", "lon": -77.04641116666667, "rental_uris": {"android": "https://dc.lft.to/lastmile_qr_scan", "ios": "https://dc.lft.to/lastmile_qr_scan"}, "lat": 38.904045833333335, "is_reserved": 0, "is_disabled": 0, "fusion_lat": 0.0}, {"fusion_lon": 0.0, "bike_id": "f88fdd04a4378de14f3a29f7f445ac86", "name": "f88fdd04a4378de14f3a29f7f445ac86", "type": "electric_scooter", "lon": -77.02540516666667, "rental_uris": {"android": "https://dc.lft.to/lastmile_qr_scan", "ios": "https://dc.lft.to/lastmile_qr_scan"}, "lat": 38.9008535, "is_reserved": 0, "is_disabled": 0, "fusion_lat": 0.0}, {"fusion_lon": 0.0, "bike_id": "9ec04e1a6d5c7e43947be5459bac8375", "name": "9ec04e1a6d5c7e43947be5459bac8375", "type": "electric_scooter", "lon": -77.04157066666667, "rental_uris": {"android": "https://dc.lft.to/lastmile_qr_scan", "ios": "https://dc.lft.to/lastmile_qr_scan"}, "lat": 38.916034, "is_reserved": 0, "is_disabled": 0, "fusion_lat": 0.0}, {"fusion_lon": 0.0, "bike_id": "c7ff00fc81d068876ccb700714c3facb", "name": "c7ff00fc81d068876ccb700714c3facb", "type": "electric_scooter", "lon": -76.99186716666667, "rental_uris": {"android": "https://dc.lft.to/lastmile_qr_scan", "ios": "https://dc.lft.to/lastmile_qr_scan"}, "lat": 38.9259535, "is_reserved": 0, "is_disabled": 0, "fusion_lat": 0.0}, {"fusion_lon": 0.0, "bike_id": "47926c169b05568315a3ce85c7121148", "name": "47926c169b05568315a3ce85c7121148", "type": "electric_scooter", "lon": -77.01210883333333, "rental_uris": {"android": "https://dc.lft.to/lastmile_qr_scan", "ios": "https://dc.lft.to/lastmile_qr_scan"}, "lat": 38.893267333333334, "is_reserved": 0, "is_disabled": 0, "fusion_lat": 0.0}, {"fusion_lon": 0.0, "bike_id": "346dafbccca171df2fbded3457679b4c", "name": "346dafbccca171df2fbded3457679b4c", "type": "electric_scooter", "lon": -76.93345066666667, "rental_uris": {"android": "https://dc.lft.to/lastmile_qr_scan", "ios": "https://dc.lft.to/lastmile_qr_scan"}, "lat": 38.899157, "is_reserved": 0, "is_disabled": 0, "fusion_lat": 0.0}, {"fusion_lon": 0.0, "bike_id": "8572175813cd41c7e41b3aa808ee6803", "name": "8572175813cd41c7e41b3aa808ee6803", "type": "electric_scooter", "lon": -77.036492, "rental_uris": {"android": "https://dc.lft.to/lastmile_qr_scan", "ios": "https://dc.lft.to/lastmile_qr_scan"}, "lat": 38.91583933333333, "is_reserved": 0, "is_disabled": 0, "fusion_lat": 0.0}, {"fusion_lon": 0.0, "bike_id": "5fa549704435a92bd4f8754d5473c8b6", "name": "5fa549704435a92bd4f8754d5473c8b6", "type": "electric_bike", "lon": -76.98155816666667, "rental_uris": {"android": "https://dc.lft.to/lastmile_qr_scan", "ios": "https://dc.lft.to/lastmile_qr_scan"}, "lat": 38.959590666666664, "is_reserved": 0, "is_disabled": 0, "fusion_lat": 0.0}, {"fusion_lon": 0.0, "bike_id": "1e7ed46a45ca1fdb332efc52b76be9eb", "name": "1e7ed46a45ca1fdb332efc52b76be9eb", "type": "electric_scooter", "lon": -77.011821, "rental_uris": {"android": "https://dc.lft.to/lastmile_qr_scan", "ios": "https://dc.lft.to/lastmile_qr_scan"}, "lat": 38.9065245, "is_reserved": 0, "is_disabled": 0, "fusion_lat": 0.0}, {"fusion_lon": 0.0, "bike_id": "7cceb7ac0d4617710b5bfd40d2f1ad28", "name": "7cceb7ac0d4617710b5bfd40d2f1ad28", "type": "electric_scooter", "lon": -77.0189355, "rental_uris": {"android": "https://dc.lft.to/lastmile_qr_scan", "ios": "https://dc.lft.to/lastmile_qr_scan"}, "lat": 38.949335833333336, "is_reserved": 0, "is_disabled": 0, "fusion_lat": 0.0}, {"fusion_lon": 0.0, "bike_id": "a03a20c0dfed7a5dae23083324253e04", "name": "a03a20c0dfed7a5dae23083324253e04", "type": "electric_scooter", "lon": -77.0021585, "rental_uris": {"android": "https://dc.lft.to/lastmile_qr_scan", "ios": "https://dc.lft.to/lastmile_qr_scan"}, "lat": 38.90037866666667, "is_reserved": 0, "is_disabled": 0, "fusion_lat": 0.0}, {"fusion_lon": 0.0, "bike_id": "0fb68d169673f0a60d39517480f04a61", "name": "0fb68d169673f0a60d39517480f04a61", "type": "electric_scooter", "lon": -77.03531483333333, "rental_uris": {"android": "https://dc.lft.to/lastmile_qr_scan", "ios": "https://dc.lft.to/lastmile_qr_scan"}, "lat": 38.93601016666667, "is_reserved": 0, "is_disabled": 0, "fusion_lat": 0.0}, {"fusion_lon": 0.0, "bike_id": "c9b61c8e565ac567a7d535975e317e6e", "name": "c9b61c8e565ac567a7d535975e317e6e", "type": "electric_scooter", "lon": -76.98457416666666, "rental_uris": {"android": "https://dc.lft.to/lastmile_qr_scan", "ios": "https://dc.lft.to/lastmile_qr_scan"}, "lat": 38.88005366666667, "is_reserved": 0, "is_disabled": 0, "fusion_lat": 0.0}, {"fusion_lon": 0.0, "bike_id": "62adfcfc6435281403b3ce64e738071c", "name": "62adfcfc6435281403b3ce64e738071c", "type": "electric_scooter", "lon": -77.04164566666667, "rental_uris": {"android": "https://dc.lft.to/lastmile_qr_scan", "ios": "https://dc.lft.to/lastmile_qr_scan"}, "lat": 38.91095833333333, "is_reserved": 0, "is_disabled": 0, "fusion_lat": 0.0}, {"fusion_lon": 0.0, "bike_id": "2fc118d2d0ef2638d926da606c9e2776", "name": "2fc118d2d0ef2638d926da606c9e2776", "type": "electric_scooter", "lon": -77.00107966666667, "rental_uris": {"android": "https://dc.lft.to/lastmile_qr_scan", "ios": "https://dc.lft.to/lastmile_qr_scan"}, "lat": 38.91629833333333, "is_reserved": 0, "is_disabled": 0, "fusion_lat": 0.0}, {"fusion_lon": 0.0, "bike_id": "fa0cbe0644eec2d5ab368dfc727cbdd5", "name": "fa0cbe0644eec2d5ab368dfc727cbdd5", "type": "electric_scooter", "lon": -77.02395816666667, "rental_uris": {"android": "https://dc.lft.to/lastmile_qr_scan", "ios": "https://dc.lft.to/lastmile_qr_scan"}, "lat": 38.90741516666667, "is_reserved": 0, "is_disabled": 0, "fusion_lat": 0.0}, {"fusion_lon": 0.0, "bike_id": "88f1bb0d0e07e3eff19f89e9b64cd47c", "name": "88f1bb0d0e07e3eff19f89e9b64cd47c", "type": "electric_scooter", "lon": -77.053334, "rental_uris": {"android": "https://dc.lft.to/lastmile_qr_scan", "ios": "https://dc.lft.to/lastmile_qr_scan"}, "lat": 38.902349666666666, "is_reserved": 0, "is_disabled": 0, "fusion_lat": 0.0}, {"fusion_lon": 0.0, "bike_id": "2f0889a10d158ed42b482c6e731d7d66", "name": "2f0889a10d158ed42b482c6e731d7d66", "type": "electric_scooter", "lon": -77.00200183333334, "rental_uris": {"android": "https://dc.lft.to/lastmile_qr_scan", "ios": "https://dc.lft.to/lastmile_qr_scan"}, "lat": 38.90286416666667, "is_reserved": 0, "is_disabled": 0, "fusion_lat": 0.0}, {"fusion_lon": 0.0, "bike_id": "42d9e4bc190797c388807f17e9edb641", "name": "42d9e4bc190797c388807f17e9edb641", "type": "electric_scooter", "lon": -76.98549133333333, "rental_uris": {"android": "https://dc.lft.to/lastmile_qr_scan", "ios": "https://dc.lft.to/lastmile_qr_scan"}, "lat": 38.90422216666666, "is_reserved": 0, "is_disabled": 0, "fusion_lat": 0.0}, {"fusion_lon": 0.0, "bike_id": "71bfdd0f38c0674a1155a616377b38b1", "name": "71bfdd0f38c0674a1155a616377b38b1", "type": "electric_scooter", "lon": -77.01894916666667, "rental_uris": {"android": "https://dc.lft.to/lastmile_qr_scan", "ios": "https://dc.lft.to/lastmile_qr_scan"}, "lat": 38.93917233333333, "is_reserved": 0, "is_disabled": 0, "fusion_lat": 0.0}, {"fusion_lon": 0.0, "bike_id": "31ad08821b2174d8b3bdefbb95a84f26", "name": "31ad08821b2174d8b3bdefbb95a84f26", "type": "electric_scooter", "lon": -77.01706133333333, "rental_uris": {"android": "https://dc.lft.to/lastmile_qr_scan", "ios": "https://dc.lft.to/lastmile_qr_scan"}, "lat": 38.904030166666665, "is_reserved": 0, "is_disabled": 0, "fusion_lat": 0.0}, {"fusion_lon": 0.0, "bike_id": "8a05d1e8f05a83ae0b73d815c3d83498", "name": "8a05d1e8f05a83ae0b73d815c3d83498", "type": "electric_bike", "lon": -76.94779333333334, "rental_uris": {"android": "https://dc.lft.to/lastmile_qr_scan", "ios": "https://dc.lft.to/lastmile_qr_scan"}, "lat": 38.89645133333333, "is_reserved": 0, "is_disabled": 0, "fusion_lat": 0.0}, {"fusion_lon": 0.0, "bike_id": "7a307e06a3c32f07082c0de34db92c5d", "name": "7a307e06a3c32f07082c0de34db92c5d", "type": "electric_scooter", "lon": -77.02978283333333, "rental_uris": {"android": "https://dc.lft.to/lastmile_qr_scan", "ios": "https://dc.lft.to/lastmile_qr_scan"}, "lat": 38.92458466666667, "is_reserved": 0, "is_disabled": 0, "fusion_lat": 0.0}, {"fusion_lon": 0.0, "bike_id": "c3d9d27dcebe9813a263f841c251ca2a", "name": "c3d9d27dcebe9813a263f841c251ca2a", "type": "electric_scooter", "lon": -77.02747566666666, "rental_uris": {"android": "https://dc.lft.to/lastmile_qr_scan", "ios": "https://dc.lft.to/lastmile_qr_scan"}, "lat": 38.9240705, "is_reserved": 0, "is_disabled": 0, "fusion_lat": 0.0}, {"fusion_lon": 0.0, "bike_id": "558d144c2453b2a9815dbce11b84fffc", "name": "558d144c2453b2a9815dbce11b84fffc", "type": "electric_scooter", "lon": -76.9355515, "rental_uris": {"android": "https://dc.lft.to/lastmile_qr_scan", "ios": "https://dc.lft.to/lastmile_qr_scan"}, "lat": 38.901563833333334, "is_reserved": 0, "is_disabled": 0, "fusion_lat": 0.0}, {"fusion_lon": 0.0, "bike_id": "c76e5cf60913bcbf914220f8c0005068", "name": "c76e5cf60913bcbf914220f8c0005068", "type": "electric_scooter", "lon": -77.03967583333333, "rental_uris": {"android": "https://dc.lft.to/lastmile_qr_scan", "ios": "https://dc.lft.to/lastmile_qr_scan"}, "lat": 38.91185266666667, "is_reserved": 0, "is_disabled": 0, "fusion_lat": 0.0}, {"fusion_lon": 0.0, "bike_id": "f1cfa0281ea59437a70cccafa0eadb53", "name": "f1cfa0281ea59437a70cccafa0eadb53", "type": "electric_scooter", "lon": -76.99336266666667, "rental_uris": {"android": "https://dc.lft.to/lastmile_qr_scan", "ios": "https://dc.lft.to/lastmile_qr_scan"}, "lat": 38.838770333333336, "is_reserved": 0, "is_disabled": 0, "fusion_lat": 0.0}, {"fusion_lon": 0.0, "bike_id": "0ac172e3aec1b0fd98d48505d39493b9", "name": "0ac172e3aec1b0fd98d48505d39493b9", "type": "electric_scooter", "lon": -77.03749383333333, "rental_uris": {"android": "https://dc.lft.to/lastmile_qr_scan", "ios": "https://dc.lft.to/lastmile_qr_scan"}, "lat": 38.902163, "is_reserved": 0, "is_disabled": 0, "fusion_lat": 0.0}, {"fusion_lon": 0.0, "bike_id": "bf6be02abb223aec8766a33601facac4", "name": "bf6be02abb223aec8766a33601facac4", "type": "electric_scooter", "lon": -76.984564, "rental_uris": {"android": "https://dc.lft.to/lastmile_qr_scan", "ios": "https://dc.lft.to/lastmile_qr_scan"}, "lat": 38.89361866666667, "is_reserved": 0, "is_disabled": 0, "fusion_lat": 0.0}, {"fusion_lon": 0.0, "bike_id": "d27fdd190ad0d307296c369386c27827", "name": "d27fdd190ad0d307296c369386c27827", "type": "electric_scooter", "lon": -77.0155655, "rental_uris": {"android": "https://dc.lft.to/lastmile_qr_scan", "ios": "https://dc.lft.to/lastmile_qr_scan"}, "lat": 38.91404433333334, "is_reserved": 0, "is_disabled": 0, "fusion_lat": 0.0}, {"fusion_lon": 0.0, "bike_id": "5f6749c127362e72d3f34f031a39ed92", "name": "5f6749c127362e72d3f34f031a39ed92", "type": "electric_scooter", "lon": -77.02530816666666, "rental_uris": {"android": "https://dc.lft.to/lastmile_qr_scan", "ios": "https://dc.lft.to/lastmile_qr_scan"}, "lat": 38.948358166666665, "is_reserved": 0, "is_disabled": 0, "fusion_lat": 0.0}, {"fusion_lon": 0.0, "bike_id": "254d02219e00f0d4b89b6a7f7375da2c", "name": "254d02219e00f0d4b89b6a7f7375da2c", "type": "electric_scooter", "lon": -77.01133666666666, "rental_uris": {"android": "https://dc.lft.to/lastmile_qr_scan", "ios": "https://dc.lft.to/lastmile_qr_scan"}, "lat": 38.87066, "is_reserved": 0, "is_disabled": 0, "fusion_lat": 0.0}, {"fusion_lon": 0.0, "bike_id": "9c105955ffcbfcabb23c9378fe70551b", "name": "9c105955ffcbfcabb23c9378fe70551b", "type": "electric_scooter", "lon": -77.03258683333334, "rental_uris": {"android": "https://dc.lft.to/lastmile_qr_scan", "ios": "https://dc.lft.to/lastmile_qr_scan"}, "lat": 38.91931866666667, "is_reserved": 0, "is_disabled": 0, "fusion_lat": 0.0}, {"fusion_lon": 0.0, "bike_id": "8a20aad164722afa8383468fe2550c09", "name": "8a20aad164722afa8383468fe2550c09", "type": "electric_scooter", "lon": -77.0465195, "rental_uris": {"android": "https://dc.lft.to/lastmile_qr_scan", "ios": "https://dc.lft.to/lastmile_qr_scan"}, "lat": 38.8929065, "is_reserved": 0, "is_disabled": 0, "fusion_lat": 0.0}, {"fusion_lon": 0.0, "bike_id": "3d8ccb458518c5479f3e7c0d990f9426", "name": "3d8ccb458518c5479f3e7c0d990f9426", "type": "electric_scooter", "lon": -77.00515916666667, "rental_uris": {"android": "https://dc.lft.to/lastmile_qr_scan", "ios": "https://dc.lft.to/lastmile_qr_scan"}, "lat": 38.87470283333333, "is_reserved": 0, "is_disabled": 0, "fusion_lat": 0.0}, {"fusion_lon": 0.0, "bike_id": "b5d466f4976175e48891a5bdca2f0b4a", "name": "b5d466f4976175e48891a5bdca2f0b4a", "type": "electric_scooter", "lon": -77.02344016666666, "rental_uris": {"android": "https://dc.lft.to/lastmile_qr_scan", "ios": "https://dc.lft.to/lastmile_qr_scan"}, "lat": 38.91942183333333, "is_reserved": 0, "is_disabled": 0, "fusion_lat": 0.0}, {"fusion_lon": 0.0, "bike_id": "f94b09bbccb8e9d19a40a13c39dc10fe", "name": "f94b09bbccb8e9d19a40a13c39dc10fe", "type": "electric_scooter", "lon": -77.037254, "rental_uris": {"android": "https://dc.lft.to/lastmile_qr_scan", "ios": "https://dc.lft.to/lastmile_qr_scan"}, "lat": 38.918171, "is_reserved": 0, "is_disabled": 0, "fusion_lat": 0.0}, {"fusion_lon": 0.0, "bike_id": "067b43b01d305b97ce6c96a0b2d32a15", "name": "067b43b01d305b97ce6c96a0b2d32a15", "type": "electric_scooter", "lon": -77.036501, "rental_uris": {"android": "https://dc.lft.to/lastmile_qr_scan", "ios": "https://dc.lft.to/lastmile_qr_scan"}, "lat": 38.941793, "is_reserved": 0, "is_disabled": 0, "fusion_lat": 0.0}, {"fusion_lon": 0.0, "bike_id": "32fed43ff30beb1e9e2c78646d854409", "name": "32fed43ff30beb1e9e2c78646d854409", "type": "electric_scooter", "lon": -77.04859266666666, "rental_uris": {"android": "https://dc.lft.to/lastmile_qr_scan", "ios": "https://dc.lft.to/lastmile_qr_scan"}, "lat": 38.905758666666664, "is_reserved": 0, "is_disabled": 0, "fusion_lat": 0.0}, {"fusion_lon": 0.0, "bike_id": "31fcb246bb2843ef7121eee1cc5dcbd0", "name": "31fcb246bb2843ef7121eee1cc5dcbd0", "type": "electric_scooter", "lon": -77.04380833333333, "rental_uris": {"android": "https://dc.lft.to/lastmile_qr_scan", "ios": "https://dc.lft.to/lastmile_qr_scan"}, "lat": 38.87418433333333, "is_reserved": 0, "is_disabled": 0, "fusion_lat": 0.0}, {"fusion_lon": 0.0, "bike_id": "b9943b26f86dff2fe385b2a09c815550", "name": "b9943b26f86dff2fe385b2a09c815550", "type": "electric_scooter", "lon": -77.02074966666666, "rental_uris": {"android": "https://dc.lft.to/lastmile_qr_scan", "ios": "https://dc.lft.to/lastmile_qr_scan"}, "lat": 38.949017, "is_reserved": 0, "is_disabled": 0, "fusion_lat": 0.0}, {"fusion_lon": 0.0, "bike_id": "032821587fd6a92e9685d03d30e20683", "name": "032821587fd6a92e9685d03d30e20683", "type": "electric_scooter", "lon": -76.99702466666666, "rental_uris": {"android": "https://dc.lft.to/lastmile_qr_scan", "ios": "https://dc.lft.to/lastmile_qr_scan"}, "lat": 38.83868066666667, "is_reserved": 0, "is_disabled": 0, "fusion_lat": 0.0}, {"fusion_lon": 0.0, "bike_id": "5f95b05394db3ee5d915393bc55d44cf", "name": "5f95b05394db3ee5d915393bc55d44cf", "type": "electric_bike", "lon": -77.09154366666667, "rental_uris": {"android": "https://dc.lft.to/lastmile_qr_scan", "ios": "https://dc.lft.to/lastmile_qr_scan"}, "lat": 38.96758616666666, "is_reserved": 0, "is_disabled": 0, "fusion_lat": 0.0}, {"fusion_lon": 0.0, "bike_id": "31fe650e779f30f810fbd6a608cebfca", "name": "31fe650e779f30f810fbd6a608cebfca", "type": "electric_scooter", "lon": -76.97220883333334, "rental_uris": {"android": "https://dc.lft.to/lastmile_qr_scan", "ios": "https://dc.lft.to/lastmile_qr_scan"}, "lat": 38.854536333333336, "is_reserved": 0, "is_disabled": 0, "fusion_lat": 0.0}, {"fusion_lon": 0.0, "bike_id": "6a20491072108fc194e126ed65d2d758", "name": "6a20491072108fc194e126ed65d2d758", "type": "electric_scooter", "lon": -77.04639416666667, "rental_uris": {"android": "https://dc.lft.to/lastmile_qr_scan", "ios": "https://dc.lft.to/lastmile_qr_scan"}, "lat": 38.91490533333333, "is_reserved": 0, "is_disabled": 0, "fusion_lat": 0.0}, {"fusion_lon": 0.0, "bike_id": "7d2c5ce9fef0dba3e934c77c9408084f", "name": "7d2c5ce9fef0dba3e934c77c9408084f", "type": "electric_bike", "lon": -77.12267583333333, "rental_uris": {"android": "https://dc.lft.to/lastmile_qr_scan", "ios": "https://dc.lft.to/lastmile_qr_scan"}, "lat": 38.897315166666665, "is_reserved": 0, "is_disabled": 0, "fusion_lat": 0.0}, {"fusion_lon": 0.0, "bike_id": "6c362f3884768e62e0d06d0efc77fa34", "name": "6c362f3884768e62e0d06d0efc77fa34", "type": "electric_bike", "lon": -76.916516, "rental_uris": {"android": "https://dc.lft.to/lastmile_qr_scan", "ios": "https://dc.lft.to/lastmile_qr_scan"}, "lat": 38.86857583333333, "is_reserved": 0, "is_disabled": 0, "fusion_lat": 0.0}, {"fusion_lon": 0.0, "bike_id": "c7b53ce2e0301768a5f5ed0e584db764", "name": "c7b53ce2e0301768a5f5ed0e584db764", "type": "electric_scooter", "lon": -77.023857, "rental_uris": {"android": "https://dc.lft.to/lastmile_qr_scan", "ios": "https://dc.lft.to/lastmile_qr_scan"}, "lat": 38.91508866666667, "is_reserved": 0, "is_disabled": 0, "fusion_lat": 0.0}, {"fusion_lon": 0.0, "bike_id": "2a2a757c04550040c4d21f3c655d540b", "name": "2a2a757c04550040c4d21f3c655d540b", "type": "electric_scooter", "lon": -76.9425245, "rental_uris": {"android": "https://dc.lft.to/lastmile_qr_scan", "ios": "https://dc.lft.to/lastmile_qr_scan"}, "lat": 38.89680333333333, "is_reserved": 0, "is_disabled": 0, "fusion_lat": 0.0}, {"fusion_lon": 0.0, "bike_id": "848327e34310de48f94d5b02fefa7a5a", "name": "848327e34310de48f94d5b02fefa7a5a", "type": "electric_scooter", "lon": -77.00213333333333, "rental_uris": {"android": "https://dc.lft.to/lastmile_qr_scan", "ios": "https://dc.lft.to/lastmile_qr_scan"}, "lat": 38.890898166666666, "is_reserved": 0, "is_disabled": 0, "fusion_lat": 0.0}, {"fusion_lon": 0.0, "bike_id": "70af283f6058a98e53521bdb451d3c6c", "name": "70af283f6058a98e53521bdb451d3c6c", "type": "electric_scooter", "lon": -77.0399285, "rental_uris": {"android": "https://dc.lft.to/lastmile_qr_scan", "ios": "https://dc.lft.to/lastmile_qr_scan"}, "lat": 38.91327416666667, "is_reserved": 0, "is_disabled": 0, "fusion_lat": 0.0}, {"fusion_lon": 0.0, "bike_id": "6b08f87f2068e92a46beb9f4c5a402a3", "name": "6b08f87f2068e92a46beb9f4c5a402a3", "type": "electric_scooter", "lon": -77.04187916666666, "rental_uris": {"android": "https://dc.lft.to/lastmile_qr_scan", "ios": "https://dc.lft.to/lastmile_qr_scan"}, "lat": 38.923341, "is_reserved": 0, "is_disabled": 0, "fusion_lat": 0.0}, {"fusion_lon": 0.0, "bike_id": "6a44f26fc1684fc00f708406f7745694", "name": "6a44f26fc1684fc00f708406f7745694", "type": "electric_bike", "lon": -77.02297516666667, "rental_uris": {"android": "https://dc.lft.to/lastmile_qr_scan", "ios": "https://dc.lft.to/lastmile_qr_scan"}, "lat": 38.965603333333334, "is_reserved": 0, "is_disabled": 0, "fusion_lat": 0.0}, {"fusion_lon": 0.0, "bike_id": "a9d6f5813b0b60b769dcdbecca7f671a", "name": "a9d6f5813b0b60b769dcdbecca7f671a", "type": "electric_scooter", "lon": -77.02565133333333, "rental_uris": {"android": "https://dc.lft.to/lastmile_qr_scan", "ios": "https://dc.lft.to/lastmile_qr_scan"}, "lat": 38.895034333333335, "is_reserved": 0, "is_disabled": 0, "fusion_lat": 0.0}, {"fusion_lon": 0.0, "bike_id": "a2d6012563d0bfdd81b5b03f34a626de", "name": "a2d6012563d0bfdd81b5b03f34a626de", "type": "electric_scooter", "lon": -77.048868, "rental_uris": {"android": "https://dc.lft.to/lastmile_qr_scan", "ios": "https://dc.lft.to/lastmile_qr_scan"}, "lat": 38.903606833333335, "is_reserved": 0, "is_disabled": 0, "fusion_lat": 0.0}, {"fusion_lon": 0.0, "bike_id": "77e2116978ffbd6b5cd3eb6f3e374051", "name": "77e2116978ffbd6b5cd3eb6f3e374051", "type": "electric_scooter", "lon": -77.07100983333333, "rental_uris": {"android": "https://dc.lft.to/lastmile_qr_scan", "ios": "https://dc.lft.to/lastmile_qr_scan"}, "lat": 38.91972366666667, "is_reserved": 0, "is_disabled": 0, "fusion_lat": 0.0}, {"fusion_lon": 0.0, "bike_id": "2e70dbf57f0162b55e73ef888d9a6e0b", "name": "2e70dbf57f0162b55e73ef888d9a6e0b", "type": "electric_scooter", "lon": -77.0382685, "rental_uris": {"android": "https://dc.lft.to/lastmile_qr_scan", "ios": "https://dc.lft.to/lastmile_qr_scan"}, "lat": 38.9313315, "is_reserved": 0, "is_disabled": 0, "fusion_lat": 0.0}, {"fusion_lon": 0.0, "bike_id": "19130e96bb7ada8332f5f0ae9117d6fc", "name": "19130e96bb7ada8332f5f0ae9117d6fc", "type": "electric_scooter", "lon": -77.023541, "rental_uris": {"android": "https://dc.lft.to/lastmile_qr_scan", "ios": "https://dc.lft.to/lastmile_qr_scan"}, "lat": 38.92502833333333, "is_reserved": 0, "is_disabled": 0, "fusion_lat": 0.0}, {"fusion_lon": 0.0, "bike_id": "f94d5b6c22794e1177a5b6c5ad3e0069", "name": "f94d5b6c22794e1177a5b6c5ad3e0069", "type": "electric_scooter", "lon": -77.00202883333333, "rental_uris": {"android": "https://dc.lft.to/lastmile_qr_scan", "ios": "https://dc.lft.to/lastmile_qr_scan"}, "lat": 38.90002033333333, "is_reserved": 0, "is_disabled": 0, "fusion_lat": 0.0}, {"fusion_lon": 0.0, "bike_id": "b1ee7c32451a3100c6052a755d7ab9f5", "name": "b1ee7c32451a3100c6052a755d7ab9f5", "type": "electric_scooter", "lon": -76.99464933333333, "rental_uris": {"android": "https://dc.lft.to/lastmile_qr_scan", "ios": "https://dc.lft.to/lastmile_qr_scan"}, "lat": 38.840329833333335, "is_reserved": 0, "is_disabled": 0, "fusion_lat": 0.0}, {"fusion_lon": 0.0, "bike_id": "3cc0bea3ae60e07b2908a7117da961a5", "name": "3cc0bea3ae60e07b2908a7117da961a5", "type": "electric_scooter", "lon": -77.04155266666666, "rental_uris": {"android": "https://dc.lft.to/lastmile_qr_scan", "ios": "https://dc.lft.to/lastmile_qr_scan"}, "lat": 38.91597766666667, "is_reserved": 0, "is_disabled": 0, "fusion_lat": 0.0}, {"fusion_lon": 0.0, "bike_id": "bce57ea6ff776b90f44f4a9556400893", "name": "bce57ea6ff776b90f44f4a9556400893", "type": "electric_scooter", "lon": -77.023881, "rental_uris": {"android": "https://dc.lft.to/lastmile_qr_scan", "ios": "https://dc.lft.to/lastmile_qr_scan"}, "lat": 38.95738333333333, "is_reserved": 0, "is_disabled": 0, "fusion_lat": 0.0}, {"fusion_lon": 0.0, "bike_id": "e8637ce5f7a73320e5055c91256be259", "name": "e8637ce5f7a73320e5055c91256be259", "type": "electric_scooter", "lon": -77.0164435, "rental_uris": {"android": "https://dc.lft.to/lastmile_qr_scan", "ios": "https://dc.lft.to/lastmile_qr_scan"}, "lat": 38.903844666666664, "is_reserved": 0, "is_disabled": 0, "fusion_lat": 0.0}, {"fusion_lon": 0.0, "bike_id": "fef1e4d9d05b1a19e8ef31f27143035c", "name": "fef1e4d9d05b1a19e8ef31f27143035c", "type": "electric_scooter", "lon": -77.02442416666666, "rental_uris": {"android": "https://dc.lft.to/lastmile_qr_scan", "ios": "https://dc.lft.to/lastmile_qr_scan"}, "lat": 38.927861666666665, "is_reserved": 0, "is_disabled": 0, "fusion_lat": 0.0}, {"fusion_lon": 0.0, "bike_id": "f2fe8a904ce44353e190b78b8a9355c3", "name": "f2fe8a904ce44353e190b78b8a9355c3", "type": "electric_scooter", "lon": -77.041873, "rental_uris": {"android": "https://dc.lft.to/lastmile_qr_scan", "ios": "https://dc.lft.to/lastmile_qr_scan"}, "lat": 38.92468383333333, "is_reserved": 0, "is_disabled": 0, "fusion_lat": 0.0}, {"fusion_lon": 0.0, "bike_id": "ea1e96061c71bc8532d73754474599af", "name": "ea1e96061c71bc8532d73754474599af", "type": "electric_scooter", "lon": -77.04781466666667, "rental_uris": {"android": "https://dc.lft.to/lastmile_qr_scan", "ios": "https://dc.lft.to/lastmile_qr_scan"}, "lat": 38.90795383333333, "is_reserved": 0, "is_disabled": 0, "fusion_lat": 0.0}, {"fusion_lon": 0.0, "bike_id": "63167e586445024e6bf6a05aabc6278b", "name": "63167e586445024e6bf6a05aabc6278b", "type": "electric_bike", "lon": -76.98828066666667, "rental_uris": {"android": "https://dc.lft.to/lastmile_qr_scan", "ios": "https://dc.lft.to/lastmile_qr_scan"}, "lat": 38.985624666666666, "is_reserved": 0, "is_disabled": 0, "fusion_lat": 0.0}, {"fusion_lon": 0.0, "bike_id": "f123a4fe7b6c1a62b452ff739e367e63", "name": "f123a4fe7b6c1a62b452ff739e367e63", "type": "electric_scooter", "lon": -77.04033033333333, "rental_uris": {"android": "https://dc.lft.to/lastmile_qr_scan", "ios": "https://dc.lft.to/lastmile_qr_scan"}, "lat": 38.917989, "is_reserved": 0, "is_disabled": 0, "fusion_lat": 0.0}, {"fusion_lon": 0.0, "bike_id": "34a04c42283c0d2454996e31d74ae580", "name": "34a04c42283c0d2454996e31d74ae580", "type": "electric_scooter", "lon": -77.03269083333333, "rental_uris": {"android": "https://dc.lft.to/lastmile_qr_scan", "ios": "https://dc.lft.to/lastmile_qr_scan"}, "lat": 38.93211633333333, "is_reserved": 0, "is_disabled": 0, "fusion_lat": 0.0}, {"fusion_lon": 0.0, "bike_id": "8a3abefb383fb6c4e3dda26da04ef2cc", "name": "8a3abefb383fb6c4e3dda26da04ef2cc", "type": "electric_scooter", "lon": -77.02657416666666, "rental_uris": {"android": "https://dc.lft.to/lastmile_qr_scan", "ios": "https://dc.lft.to/lastmile_qr_scan"}, "lat": 38.979435, "is_reserved": 0, "is_disabled": 0, "fusion_lat": 0.0}, {"fusion_lon": 0.0, "bike_id": "654b787725d01a3eb48b5c95a70b9ebc", "name": "654b787725d01a3eb48b5c95a70b9ebc", "type": "electric_scooter", "lon": -77.02724266666667, "rental_uris": {"android": "https://dc.lft.to/lastmile_qr_scan", "ios": "https://dc.lft.to/lastmile_qr_scan"}, "lat": 38.934287166666664, "is_reserved": 0, "is_disabled": 0, "fusion_lat": 0.0}, {"fusion_lon": 0.0, "bike_id": "f1ae51e1c0f84d7c7fc0c55831b70416", "name": "f1ae51e1c0f84d7c7fc0c55831b70416", "type": "electric_scooter", "lon": -77.04704383333333, "rental_uris": {"android": "https://dc.lft.to/lastmile_qr_scan", "ios": "https://dc.lft.to/lastmile_qr_scan"}, "lat": 38.89747033333333, "is_reserved": 0, "is_disabled": 0, "fusion_lat": 0.0}, {"fusion_lon": 0.0, "bike_id": "a0c6225d667d8ee45e5d147709707084", "name": "a0c6225d667d8ee45e5d147709707084", "type": "electric_scooter", "lon": -77.03860883333333, "rental_uris": {"android": "https://dc.lft.to/lastmile_qr_scan", "ios": "https://dc.lft.to/lastmile_qr_scan"}, "lat": 38.915510166666664, "is_reserved": 0, "is_disabled": 0, "fusion_lat": 0.0}, {"fusion_lon": 0.0, "bike_id": "26d004560568dc892e6bd73803d63b3f", "name": "26d004560568dc892e6bd73803d63b3f", "type": "electric_scooter", "lon": -77.038006, "rental_uris": {"android": "https://dc.lft.to/lastmile_qr_scan", "ios": "https://dc.lft.to/lastmile_qr_scan"}, "lat": 38.9103825, "is_reserved": 0, "is_disabled": 0, "fusion_lat": 0.0}, {"fusion_lon": 0.0, "bike_id": "3ede3533b6accbd4922c3409c989a32d", "name": "3ede3533b6accbd4922c3409c989a32d", "type": "electric_bike", "lon": -77.10125866666667, "rental_uris": {"android": "https://dc.lft.to/lastmile_qr_scan", "ios": "https://dc.lft.to/lastmile_qr_scan"}, "lat": 38.85208766666667, "is_reserved": 0, "is_disabled": 0, "fusion_lat": 0.0}, {"fusion_lon": 0.0, "bike_id": "29ad2421bf904ed36f4e0ad0b1bdfa83", "name": "29ad2421bf904ed36f4e0ad0b1bdfa83", "type": "electric_scooter", "lon": -77.02316766666667, "rental_uris": {"android": "https://dc.lft.to/lastmile_qr_scan", "ios": "https://dc.lft.to/lastmile_qr_scan"}, "lat": 38.91794133333333, "is_reserved": 0, "is_disabled": 0, "fusion_lat": 0.0}, {"fusion_lon": 0.0, "bike_id": "e8208a93b4986ae529d7adc326c559a8", "name": "e8208a93b4986ae529d7adc326c559a8", "type": "electric_scooter", "lon": -77.0423725, "rental_uris": {"android": "https://dc.lft.to/lastmile_qr_scan", "ios": "https://dc.lft.to/lastmile_qr_scan"}, "lat": 38.9215275, "is_reserved": 0, "is_disabled": 0, "fusion_lat": 0.0}, {"fusion_lon": 0.0, "bike_id": "33d425b8e549529a4dd6b75bf3b3d88c", "name": "33d425b8e549529a4dd6b75bf3b3d88c", "type": "electric_scooter", "lon": -77.0185585, "rental_uris": {"android": "https://dc.lft.to/lastmile_qr_scan", "ios": "https://dc.lft.to/lastmile_qr_scan"}, "lat": 38.902571, "is_reserved": 0, "is_disabled": 0, "fusion_lat": 0.0}, {"fusion_lon": 0.0, "bike_id": "8c2346cc7ee5c12be3927157a9debf18", "name": "8c2346cc7ee5c12be3927157a9debf18", "type": "electric_scooter", "lon": -77.03519516666667, "rental_uris": {"android": "https://dc.lft.to/lastmile_qr_scan", "ios": "https://dc.lft.to/lastmile_qr_scan"}, "lat": 38.932770833333336, "is_reserved": 0, "is_disabled": 0, "fusion_lat": 0.0}, {"fusion_lon": 0.0, "bike_id": "f8b4df2f40a4d2080ecb761c7737efcc", "name": "f8b4df2f40a4d2080ecb761c7737efcc", "type": "electric_scooter", "lon": -77.04512, "rental_uris": {"android": "https://dc.lft.to/lastmile_qr_scan", "ios": "https://dc.lft.to/lastmile_qr_scan"}, "lat": 38.88605233333333, "is_reserved": 0, "is_disabled": 0, "fusion_lat": 0.0}, {"fusion_lon": 0.0, "bike_id": "60d77660f78a8ccf1296ea817b73d627", "name": "60d77660f78a8ccf1296ea817b73d627", "type": "electric_scooter", "lon": -77.03200216666667, "rental_uris": {"android": "https://dc.lft.to/lastmile_qr_scan", "ios": "https://dc.lft.to/lastmile_qr_scan"}, "lat": 38.919176666666665, "is_reserved": 0, "is_disabled": 0, "fusion_lat": 0.0}, {"fusion_lon": 0.0, "bike_id": "728559d6a26ba3f97f0c6d8fa101adb3", "name": "728559d6a26ba3f97f0c6d8fa101adb3", "type": "electric_scooter", "lon": -77.03211666666667, "rental_uris": {"android": "https://dc.lft.to/lastmile_qr_scan", "ios": "https://dc.lft.to/lastmile_qr_scan"}, "lat": 38.90764166666666, "is_reserved": 0, "is_disabled": 0, "fusion_lat": 0.0}, {"fusion_lon": 0.0, "bike_id": "58b9df9fd64603eaf0dc38f0f98bfdf3", "name": "58b9df9fd64603eaf0dc38f0f98bfdf3", "type": "electric_scooter", "lon": -77.0526865, "rental_uris": {"android": "https://dc.lft.to/lastmile_qr_scan", "ios": "https://dc.lft.to/lastmile_qr_scan"}, "lat": 38.92757683333333, "is_reserved": 0, "is_disabled": 0, "fusion_lat": 0.0}, {"fusion_lon": 0.0, "bike_id": "c8f984833c2a51c6566acca7bc6293f1", "name": "c8f984833c2a51c6566acca7bc6293f1", "type": "electric_scooter", "lon": -76.98589566666666, "rental_uris": {"android": "https://dc.lft.to/lastmile_qr_scan", "ios": "https://dc.lft.to/lastmile_qr_scan"}, "lat": 38.88970333333333, "is_reserved": 0, "is_disabled": 0, "fusion_lat": 0.0}, {"fusion_lon": 0.0, "bike_id": "7061f5986291ee1f4744adfa3128c927", "name": "7061f5986291ee1f4744adfa3128c927", "type": "electric_bike", "lon": -76.8749445, "rental_uris": {"android": "https://dc.lft.to/lastmile_qr_scan", "ios": "https://dc.lft.to/lastmile_qr_scan"}, "lat": 38.9909035, "is_reserved": 0, "is_disabled": 0, "fusion_lat": 0.0}, {"fusion_lon": 0.0, "bike_id": "57c3143f6fe69e48a6c5b41c633801ef", "name": "57c3143f6fe69e48a6c5b41c633801ef", "type": "electric_scooter", "lon": -76.95755716666666, "rental_uris": {"android": "https://dc.lft.to/lastmile_qr_scan", "ios": "https://dc.lft.to/lastmile_qr_scan"}, "lat": 38.88433633333333, "is_reserved": 0, "is_disabled": 0, "fusion_lat": 0.0}, {"fusion_lon": 0.0, "bike_id": "5baf60f2a21263a68844827ec8511ce9", "name": "5baf60f2a21263a68844827ec8511ce9", "type": "electric_scooter", "lon": -77.04344633333334, "rental_uris": {"android": "https://dc.lft.to/lastmile_qr_scan", "ios": "https://dc.lft.to/lastmile_qr_scan"}, "lat": 38.9135755, "is_reserved": 0, "is_disabled": 0, "fusion_lat": 0.0}, {"fusion_lon": 0.0, "bike_id": "5d8532d66ac9d5e9e23517c15181bc50", "name": "5d8532d66ac9d5e9e23517c15181bc50", "type": "electric_scooter", "lon": -77.02335166666667, "rental_uris": {"android": "https://dc.lft.to/lastmile_qr_scan", "ios": "https://dc.lft.to/lastmile_qr_scan"}, "lat": 38.91559633333333, "is_reserved": 0, "is_disabled": 0, "fusion_lat": 0.0}, {"fusion_lon": 0.0, "bike_id": "9feb2288a59b0fdf6ab020025326790b", "name": "9feb2288a59b0fdf6ab020025326790b", "type": "electric_scooter", "lon": -77.0187755, "rental_uris": {"android": "https://dc.lft.to/lastmile_qr_scan", "ios": "https://dc.lft.to/lastmile_qr_scan"}, "lat": 38.90001266666667, "is_reserved": 0, "is_disabled": 0, "fusion_lat": 0.0}, {"fusion_lon": 0.0, "bike_id": "4ea9fab90a3505742a82ca3313655d57", "name": "4ea9fab90a3505742a82ca3313655d57", "type": "electric_scooter", "lon": -77.02275316666666, "rental_uris": {"android": "https://dc.lft.to/lastmile_qr_scan", "ios": "https://dc.lft.to/lastmile_qr_scan"}, "lat": 38.92504233333333, "is_reserved": 0, "is_disabled": 0, "fusion_lat": 0.0}, {"fusion_lon": 0.0, "bike_id": "046fe474bce274969e997e2aafb422ae", "name": "046fe474bce274969e997e2aafb422ae", "type": "electric_scooter", "lon": -77.01039566666667, "rental_uris": {"android": "https://dc.lft.to/lastmile_qr_scan", "ios": "https://dc.lft.to/lastmile_qr_scan"}, "lat": 38.884513, "is_reserved": 0, "is_disabled": 0, "fusion_lat": 0.0}, {"fusion_lon": 0.0, "bike_id": "14c0e5f7b527b89e7fcfd0d17cc42391", "name": "14c0e5f7b527b89e7fcfd0d17cc42391", "type": "electric_scooter", "lon": -77.01355166666667, "rental_uris": {"android": "https://dc.lft.to/lastmile_qr_scan", "ios": "https://dc.lft.to/lastmile_qr_scan"}, "lat": 38.90386133333333, "is_reserved": 0, "is_disabled": 0, "fusion_lat": 0.0}, {"fusion_lon": 0.0, "bike_id": "0497b7c98d297243469208f1089bb377", "name": "0497b7c98d297243469208f1089bb377", "type": "electric_scooter", "lon": -77.038389, "rental_uris": {"android": "https://dc.lft.to/lastmile_qr_scan", "ios": "https://dc.lft.to/lastmile_qr_scan"}, "lat": 38.916633166666664, "is_reserved": 0, "is_disabled": 0, "fusion_lat": 0.0}, {"fusion_lon": 0.0, "bike_id": "98a9e86a5d13bfddfdd169d57f51e648", "name": "98a9e86a5d13bfddfdd169d57f51e648", "type": "electric_scooter", "lon": -76.99444733333333, "rental_uris": {"android": "https://dc.lft.to/lastmile_qr_scan", "ios": "https://dc.lft.to/lastmile_qr_scan"}, "lat": 38.905028333333334, "is_reserved": 0, "is_disabled": 0, "fusion_lat": 0.0}, {"fusion_lon": 0.0, "bike_id": "39edd485b647132975accf4792c906c2", "name": "39edd485b647132975accf4792c906c2", "type": "electric_scooter", "lon": -77.0316095, "rental_uris": {"android": "https://dc.lft.to/lastmile_qr_scan", "ios": "https://dc.lft.to/lastmile_qr_scan"}, "lat": 38.91555483333333, "is_reserved": 0, "is_disabled": 0, "fusion_lat": 0.0}, {"fusion_lon": 0.0, "bike_id": "4d869a2c504f6880eed2a538becf8b7b", "name": "4d869a2c504f6880eed2a538becf8b7b", "type": "electric_scooter", "lon": -77.04491583333333, "rental_uris": {"android": "https://dc.lft.to/lastmile_qr_scan", "ios": "https://dc.lft.to/lastmile_qr_scan"}, "lat": 38.906704, "is_reserved": 0, "is_disabled": 0, "fusion_lat": 0.0}, {"fusion_lon": 0.0, "bike_id": "1c08c746c34f94640b5a1cf5f0140cd6", "name": "1c08c746c34f94640b5a1cf5f0140cd6", "type": "electric_scooter", "lon": -76.9551495, "rental_uris": {"android": "https://dc.lft.to/lastmile_qr_scan", "ios": "https://dc.lft.to/lastmile_qr_scan"}, "lat": 38.890485166666664, "is_reserved": 0, "is_disabled": 0, "fusion_lat": 0.0}, {"fusion_lon": 0.0, "bike_id": "bac8298c2cc42e0e05f16aea843986aa", "name": "bac8298c2cc42e0e05f16aea843986aa", "type": "electric_scooter", "lon": -77.04161916666666, "rental_uris": {"android": "https://dc.lft.to/lastmile_qr_scan", "ios": "https://dc.lft.to/lastmile_qr_scan"}, "lat": 38.913393166666665, "is_reserved": 0, "is_disabled": 0, "fusion_lat": 0.0}, {"fusion_lon": 0.0, "bike_id": "7712105317af5301de956df93b3da670", "name": "7712105317af5301de956df93b3da670", "type": "electric_scooter", "lon": -76.94471483333334, "rental_uris": {"android": "https://dc.lft.to/lastmile_qr_scan", "ios": "https://dc.lft.to/lastmile_qr_scan"}, "lat": 38.90280816666667, "is_reserved": 0, "is_disabled": 0, "fusion_lat": 0.0}, {"fusion_lon": 0.0, "bike_id": "db95a5f0bbe182dbb53a3802d5165e10", "name": "db95a5f0bbe182dbb53a3802d5165e10", "type": "electric_scooter", "lon": -77.04138616666667, "rental_uris": {"android": "https://dc.lft.to/lastmile_qr_scan", "ios": "https://dc.lft.to/lastmile_qr_scan"}, "lat": 38.9168555, "is_reserved": 0, "is_disabled": 0, "fusion_lat": 0.0}, {"fusion_lon": 0.0, "bike_id": "1308b692edbd4402948c13167404dbc8", "name": "1308b692edbd4402948c13167404dbc8", "type": "electric_scooter", "lon": -77.02600333333334, "rental_uris": {"android": "https://dc.lft.to/lastmile_qr_scan", "ios": "https://dc.lft.to/lastmile_qr_scan"}, "lat": 38.91422283333333, "is_reserved": 0, "is_disabled": 0, "fusion_lat": 0.0}, {"fusion_lon": 0.0, "bike_id": "60bac86ce0fe85f97705954de54e9d8a", "name": "60bac86ce0fe85f97705954de54e9d8a", "type": "electric_scooter", "lon": -77.02161216666667, "rental_uris": {"android": "https://dc.lft.to/lastmile_qr_scan", "ios": "https://dc.lft.to/lastmile_qr_scan"}, "lat": 38.899878333333334, "is_reserved": 0, "is_disabled": 0, "fusion_lat": 0.0}, {"fusion_lon": 0.0, "bike_id": "cae40fc7ee3c88ae45e0e1d9fb2599ca", "name": "cae40fc7ee3c88ae45e0e1d9fb2599ca", "type": "electric_scooter", "lon": -77.05063083333333, "rental_uris": {"android": "https://dc.lft.to/lastmile_qr_scan", "ios": "https://dc.lft.to/lastmile_qr_scan"}, "lat": 38.9008025, "is_reserved": 0, "is_disabled": 0, "fusion_lat": 0.0}, {"fusion_lon": 0.0, "bike_id": "7b409ef66c4e8579b371f9e682ef180c", "name": "7b409ef66c4e8579b371f9e682ef180c", "type": "electric_scooter", "lon": -77.034377, "rental_uris": {"android": "https://dc.lft.to/lastmile_qr_scan", "ios": "https://dc.lft.to/lastmile_qr_scan"}, "lat": 38.91034716666667, "is_reserved": 0, "is_disabled": 0, "fusion_lat": 0.0}, {"fusion_lon": 0.0, "bike_id": "27de923f9e2bb4f7da5a614457a724da", "name": "27de923f9e2bb4f7da5a614457a724da", "type": "electric_scooter", "lon": -77.0249015, "rental_uris": {"android": "https://dc.lft.to/lastmile_qr_scan", "ios": "https://dc.lft.to/lastmile_qr_scan"}, "lat": 38.91750916666667, "is_reserved": 0, "is_disabled": 0, "fusion_lat": 0.0}, {"fusion_lon": 0.0, "bike_id": "a7bb2df89e98c4a7bf8be053e620c455", "name": "a7bb2df89e98c4a7bf8be053e620c455", "type": "electric_bike", "lon": -76.92914433333334, "rental_uris": {"android": "https://dc.lft.to/lastmile_qr_scan", "ios": "https://dc.lft.to/lastmile_qr_scan"}, "lat": 38.98027166666667, "is_reserved": 0, "is_disabled": 0, "fusion_lat": 0.0}, {"fusion_lon": 0.0, "bike_id": "5b59f3757a370b0b13c1ec3ba1e0c72a", "name": "5b59f3757a370b0b13c1ec3ba1e0c72a", "type": "electric_scooter", "lon": -77.043098, "rental_uris": {"android": "https://dc.lft.to/lastmile_qr_scan", "ios": "https://dc.lft.to/lastmile_qr_scan"}, "lat": 38.91883983333334, "is_reserved": 0, "is_disabled": 0, "fusion_lat": 0.0}, {"fusion_lon": 0.0, "bike_id": "28d6e085e097fc5b8fb7c4bb640fdfa1", "name": "28d6e085e097fc5b8fb7c4bb640fdfa1", "type": "electric_scooter", "lon": -77.024853, "rental_uris": {"android": "https://dc.lft.to/lastmile_qr_scan", "ios": "https://dc.lft.to/lastmile_qr_scan"}, "lat": 38.94182283333333, "is_reserved": 0, "is_disabled": 0, "fusion_lat": 0.0}, {"fusion_lon": 0.0, "bike_id": "f5a757054013a8de889208a606311757", "name": "f5a757054013a8de889208a606311757", "type": "electric_scooter", "lon": -76.99808216666666, "rental_uris": {"android": "https://dc.lft.to/lastmile_qr_scan", "ios": "https://dc.lft.to/lastmile_qr_scan"}, "lat": 38.87663466666667, "is_reserved": 0, "is_disabled": 0, "fusion_lat": 0.0}, {"fusion_lon": 0.0, "bike_id": "bb184436b54ffc861986be443dc83796", "name": "bb184436b54ffc861986be443dc83796", "type": "electric_scooter", "lon": -77.057881, "rental_uris": {"android": "https://dc.lft.to/lastmile_qr_scan", "ios": "https://dc.lft.to/lastmile_qr_scan"}, "lat": 38.93476833333333, "is_reserved": 0, "is_disabled": 0, "fusion_lat": 0.0}, {"fusion_lon": 0.0, "bike_id": "e275889a4a84f1220d7136ce703ca1ea", "name": "e275889a4a84f1220d7136ce703ca1ea", "type": "electric_scooter", "lon": -77.003096, "rental_uris": {"android": "https://dc.lft.to/lastmile_qr_scan", "ios": "https://dc.lft.to/lastmile_qr_scan"}, "lat": 38.90892383333333, "is_reserved": 0, "is_disabled": 0, "fusion_lat": 0.0}, {"fusion_lon": 0.0, "bike_id": "4c2947a0f89fc4e8a60aaff882ca4a89", "name": "4c2947a0f89fc4e8a60aaff882ca4a89", "type": "electric_scooter", "lon": -76.94641, "rental_uris": {"android": "https://dc.lft.to/lastmile_qr_scan", "ios": "https://dc.lft.to/lastmile_qr_scan"}, "lat": 38.8984535, "is_reserved": 0, "is_disabled": 0, "fusion_lat": 0.0}, {"fusion_lon": 0.0, "bike_id": "0e5d385ab2541842d54bf72db3bb35c1", "name": "0e5d385ab2541842d54bf72db3bb35c1", "type": "electric_scooter", "lon": -76.9941315, "rental_uris": {"android": "https://dc.lft.to/lastmile_qr_scan", "ios": "https://dc.lft.to/lastmile_qr_scan"}, "lat": 38.93307433333333, "is_reserved": 0, "is_disabled": 0, "fusion_lat": 0.0}, {"fusion_lon": 0.0, "bike_id": "dfab68beca31d3ffdb32c5752ed884d2", "name": "dfab68beca31d3ffdb32c5752ed884d2", "type": "electric_scooter", "lon": -76.9734215, "rental_uris": {"android": "https://dc.lft.to/lastmile_qr_scan", "ios": "https://dc.lft.to/lastmile_qr_scan"}, "lat": 38.865150666666665, "is_reserved": 0, "is_disabled": 0, "fusion_lat": 0.0}, {"fusion_lon": 0.0, "bike_id": "459aa86846eecaf684de69daebf91da9", "name": "459aa86846eecaf684de69daebf91da9", "type": "electric_scooter", "lon": -77.041709, "rental_uris": {"android": "https://dc.lft.to/lastmile_qr_scan", "ios": "https://dc.lft.to/lastmile_qr_scan"}, "lat": 38.9154845, "is_reserved": 0, "is_disabled": 0, "fusion_lat": 0.0}, {"fusion_lon": 0.0, "bike_id": "ef07e1e185759fe730da20bdc08f28d2", "name": "ef07e1e185759fe730da20bdc08f28d2", "type": "electric_scooter", "lon": -77.02689066666667, "rental_uris": {"android": "https://dc.lft.to/lastmile_qr_scan", "ios": "https://dc.lft.to/lastmile_qr_scan"}, "lat": 38.90864783333333, "is_reserved": 0, "is_disabled": 0, "fusion_lat": 0.0}, {"fusion_lon": 0.0, "bike_id": "2506c1a6859494e0379cdbfcbc943af0", "name": "2506c1a6859494e0379cdbfcbc943af0", "type": "electric_scooter", "lon": -77.03442883333334, "rental_uris": {"android": "https://dc.lft.to/lastmile_qr_scan", "ios": "https://dc.lft.to/lastmile_qr_scan"}, "lat": 38.90673483333333, "is_reserved": 0, "is_disabled": 0, "fusion_lat": 0.0}, {"fusion_lon": 0.0, "bike_id": "de85025d83fdc31d08aeb050c30e7b85", "name": "de85025d83fdc31d08aeb050c30e7b85", "type": "electric_scooter", "lon": -77.01691166666667, "rental_uris": {"android": "https://dc.lft.to/lastmile_qr_scan", "ios": "https://dc.lft.to/lastmile_qr_scan"}, "lat": 38.974955333333334, "is_reserved": 0, "is_disabled": 0, "fusion_lat": 0.0}, {"fusion_lon": 0.0, "bike_id": "7d67f6c8ff50d97f64065d36c9b6a7d3", "name": "7d67f6c8ff50d97f64065d36c9b6a7d3", "type": "electric_scooter", "lon": -77.01699283333333, "rental_uris": {"android": "https://dc.lft.to/lastmile_qr_scan", "ios": "https://dc.lft.to/lastmile_qr_scan"}, "lat": 38.975015, "is_reserved": 0, "is_disabled": 0, "fusion_lat": 0.0}, {"fusion_lon": 0.0, "bike_id": "b2b95787ca198698c5fb26e62d06695a", "name": "b2b95787ca198698c5fb26e62d06695a", "type": "electric_scooter", "lon": -77.021541, "rental_uris": {"android": "https://dc.lft.to/lastmile_qr_scan", "ios": "https://dc.lft.to/lastmile_qr_scan"}, "lat": 38.92603066666667, "is_reserved": 0, "is_disabled": 0, "fusion_lat": 0.0}, {"fusion_lon": 0.0, "bike_id": "b18aa9fe7a24c89d7560e241d2c9dfac", "name": "b18aa9fe7a24c89d7560e241d2c9dfac", "type": "electric_scooter", "lon": -77.02152583333333, "rental_uris": {"android": "https://dc.lft.to/lastmile_qr_scan", "ios": "https://dc.lft.to/lastmile_qr_scan"}, "lat": 38.92604266666667, "is_reserved": 0, "is_disabled": 0, "fusion_lat": 0.0}, {"fusion_lon": 0.0, "bike_id": "0fabbc2c393d9258eeb28598be0bbfb1", "name": "0fabbc2c393d9258eeb28598be0bbfb1", "type": "electric_scooter", "lon": -77.02803883333333, "rental_uris": {"android": "https://dc.lft.to/lastmile_qr_scan", "ios": "https://dc.lft.to/lastmile_qr_scan"}, "lat": 38.9168045, "is_reserved": 0, "is_disabled": 0, "fusion_lat": 0.0}, {"fusion_lon": 0.0, "bike_id": "bf80040936b9e8ed64a8f68b84daa5c4", "name": "bf80040936b9e8ed64a8f68b84daa5c4", "type": "electric_bike", "lon": -77.00363183333333, "rental_uris": {"android": "https://dc.lft.to/lastmile_qr_scan", "ios": "https://dc.lft.to/lastmile_qr_scan"}, "lat": 38.879449666666666, "is_reserved": 0, "is_disabled": 0, "fusion_lat": 0.0}, {"fusion_lon": 0.0, "bike_id": "22bd7ff3f5de37afa9eb8aac98179b75", "name": "22bd7ff3f5de37afa9eb8aac98179b75", "type": "electric_scooter", "lon": -77.05824916666667, "rental_uris": {"android": "https://dc.lft.to/lastmile_qr_scan", "ios": "https://dc.lft.to/lastmile_qr_scan"}, "lat": 38.93537383333334, "is_reserved": 0, "is_disabled": 0, "fusion_lat": 0.0}, {"fusion_lon": 0.0, "bike_id": "572cd48500d9d8bbde01ca872ded3280", "name": "572cd48500d9d8bbde01ca872ded3280", "type": "electric_bike", "lon": -76.97221316666666, "rental_uris": {"android": "https://dc.lft.to/lastmile_qr_scan", "ios": "https://dc.lft.to/lastmile_qr_scan"}, "lat": 38.844828, "is_reserved": 0, "is_disabled": 0, "fusion_lat": 0.0}, {"fusion_lon": 0.0, "bike_id": "fa11d9cf8d00a684feb96ab5f760e248", "name": "fa11d9cf8d00a684feb96ab5f760e248", "type": "electric_scooter", "lon": -77.06753016666667, "rental_uris": {"android": "https://dc.lft.to/lastmile_qr_scan", "ios": "https://dc.lft.to/lastmile_qr_scan"}, "lat": 38.94976783333333, "is_reserved": 0, "is_disabled": 0, "fusion_lat": 0.0}, {"fusion_lon": 0.0, "bike_id": "e75392163b44d5a2501a78d254a35a32", "name": "e75392163b44d5a2501a78d254a35a32", "type": "electric_bike", "lon": -76.90970466666667, "rental_uris": {"android": "https://dc.lft.to/lastmile_qr_scan", "ios": "https://dc.lft.to/lastmile_qr_scan"}, "lat": 38.854360666666665, "is_reserved": 0, "is_disabled": 0, "fusion_lat": 0.0}, {"fusion_lon": 0.0, "bike_id": "0a5bba171a15895299fa0894c8f610e3", "name": "0a5bba171a15895299fa0894c8f610e3", "type": "electric_scooter", "lon": -77.06272783333333, "rental_uris": {"android": "https://dc.lft.to/lastmile_qr_scan", "ios": "https://dc.lft.to/lastmile_qr_scan"}, "lat": 38.90512583333334, "is_reserved": 0, "is_disabled": 0, "fusion_lat": 0.0}, {"fusion_lon": 0.0, "bike_id": "a8d915069353fed447e24b30a7baf6a5", "name": "a8d915069353fed447e24b30a7baf6a5", "type": "electric_scooter", "lon": -77.0074255, "rental_uris": {"android": "https://dc.lft.to/lastmile_qr_scan", "ios": "https://dc.lft.to/lastmile_qr_scan"}, "lat": 38.903585166666666, "is_reserved": 0, "is_disabled": 0, "fusion_lat": 0.0}, {"fusion_lon": 0.0, "bike_id": "9297303bcdce80638c31bc67a89ca1ec", "name": "9297303bcdce80638c31bc67a89ca1ec", "type": "electric_scooter", "lon": -77.06099483333334, "rental_uris": {"android": "https://dc.lft.to/lastmile_qr_scan", "ios": "https://dc.lft.to/lastmile_qr_scan"}, "lat": 38.94373783333333, "is_reserved": 0, "is_disabled": 0, "fusion_lat": 0.0}, {"fusion_lon": 0.0, "bike_id": "a687aac17cc86aac641624fcf07a1c9b", "name": "a687aac17cc86aac641624fcf07a1c9b", "type": "electric_scooter", "lon": -77.0416015, "rental_uris": {"android": "https://dc.lft.to/lastmile_qr_scan", "ios": "https://dc.lft.to/lastmile_qr_scan"}, "lat": 38.91332233333333, "is_reserved": 0, "is_disabled": 0, "fusion_lat": 0.0}, {"fusion_lon": 0.0, "bike_id": "cad193a714f947e59515fac9d248d1a8", "name": "cad193a714f947e59515fac9d248d1a8", "type": "electric_scooter", "lon": -77.03848783333333, "rental_uris": {"android": "https://dc.lft.to/lastmile_qr_scan", "ios": "https://dc.lft.to/lastmile_qr_scan"}, "lat": 38.91285366666666, "is_reserved": 0, "is_disabled": 0, "fusion_lat": 0.0}, {"fusion_lon": 0.0, "bike_id": "cab5c2c137ba6e8da0f777d8bc038cfe", "name": "cab5c2c137ba6e8da0f777d8bc038cfe", "type": "electric_scooter", "lon": -77.0365405, "rental_uris": {"android": "https://dc.lft.to/lastmile_qr_scan", "ios": "https://dc.lft.to/lastmile_qr_scan"}, "lat": 38.93627683333333, "is_reserved": 0, "is_disabled": 0, "fusion_lat": 0.0}, {"fusion_lon": 0.0, "bike_id": "1c3dcb589bbb084def3089cba659a0a6", "name": "1c3dcb589bbb084def3089cba659a0a6", "type": "electric_scooter", "lon": -77.03206333333333, "rental_uris": {"android": "https://dc.lft.to/lastmile_qr_scan", "ios": "https://dc.lft.to/lastmile_qr_scan"}, "lat": 38.887331833333334, "is_reserved": 0, "is_disabled": 0, "fusion_lat": 0.0}, {"fusion_lon": 0.0, "bike_id": "eeb46fc48acf9ccc8c11920939dab3fa", "name": "eeb46fc48acf9ccc8c11920939dab3fa", "type": "electric_scooter", "lon": -76.9366305, "rental_uris": {"android": "https://dc.lft.to/lastmile_qr_scan", "ios": "https://dc.lft.to/lastmile_qr_scan"}, "lat": 38.889596833333336, "is_reserved": 0, "is_disabled": 0, "fusion_lat": 0.0}, {"fusion_lon": 0.0, "bike_id": "93e71eb25d638152e3180b8859d8c2fa", "name": "93e71eb25d638152e3180b8859d8c2fa", "type": "electric_scooter", "lon": -77.03058566666667, "rental_uris": {"android": "https://dc.lft.to/lastmile_qr_scan", "ios": "https://dc.lft.to/lastmile_qr_scan"}, "lat": 38.90086683333333, "is_reserved": 0, "is_disabled": 0, "fusion_lat": 0.0}, {"fusion_lon": 0.0, "bike_id": "6ea79186fae066bfd8fb45ae4144aef4", "name": "6ea79186fae066bfd8fb45ae4144aef4", "type": "electric_scooter", "lon": -77.01421416666666, "rental_uris": {"android": "https://dc.lft.to/lastmile_qr_scan", "ios": "https://dc.lft.to/lastmile_qr_scan"}, "lat": 38.92749966666667, "is_reserved": 0, "is_disabled": 0, "fusion_lat": 0.0}, {"fusion_lon": 0.0, "bike_id": "4d7879299722fbc12b6b174c3637502a", "name": "4d7879299722fbc12b6b174c3637502a", "type": "electric_scooter", "lon": -77.00959566666667, "rental_uris": {"android": "https://dc.lft.to/lastmile_qr_scan", "ios": "https://dc.lft.to/lastmile_qr_scan"}, "lat": 38.8766165, "is_reserved": 0, "is_disabled": 0, "fusion_lat": 0.0}, {"fusion_lon": 0.0, "bike_id": "4771ff89a0a9b99b0bc79219e05c0eca", "name": "4771ff89a0a9b99b0bc79219e05c0eca", "type": "electric_scooter", "lon": -77.03778216666667, "rental_uris": {"android": "https://dc.lft.to/lastmile_qr_scan", "ios": "https://dc.lft.to/lastmile_qr_scan"}, "lat": 38.93600983333333, "is_reserved": 0, "is_disabled": 0, "fusion_lat": 0.0}, {"fusion_lon": 0.0, "bike_id": "d346ad1b5cc60592b8a8291b543d925f", "name": "d346ad1b5cc60592b8a8291b543d925f", "type": "electric_scooter", "lon": -77.05128866666666, "rental_uris": {"android": "https://dc.lft.to/lastmile_qr_scan", "ios": "https://dc.lft.to/lastmile_qr_scan"}, "lat": 38.907145166666666, "is_reserved": 0, "is_disabled": 0, "fusion_lat": 0.0}, {"fusion_lon": 0.0, "bike_id": "9ebcf1cf0d80a35a9ddf403ca9ea07f1", "name": "9ebcf1cf0d80a35a9ddf403ca9ea07f1", "type": "electric_scooter", "lon": -77.003412, "rental_uris": {"android": "https://dc.lft.to/lastmile_qr_scan", "ios": "https://dc.lft.to/lastmile_qr_scan"}, "lat": 38.922659333333335, "is_reserved": 0, "is_disabled": 0, "fusion_lat": 0.0}, {"fusion_lon": 0.0, "bike_id": "416221a415483db0017d88261ed8dad6", "name": "416221a415483db0017d88261ed8dad6", "type": "electric_scooter", "lon": -77.02581783333333, "rental_uris": {"android": "https://dc.lft.to/lastmile_qr_scan", "ios": "https://dc.lft.to/lastmile_qr_scan"}, "lat": 38.9279205, "is_reserved": 0, "is_disabled": 0, "fusion_lat": 0.0}, {"fusion_lon": 0.0, "bike_id": "c0df82c70e7f59cd598cd20986af6947", "name": "c0df82c70e7f59cd598cd20986af6947", "type": "electric_scooter", "lon": -76.942444, "rental_uris": {"android": "https://dc.lft.to/lastmile_qr_scan", "ios": "https://dc.lft.to/lastmile_qr_scan"}, "lat": 38.889914, "is_reserved": 0, "is_disabled": 0, "fusion_lat": 0.0}, {"fusion_lon": 0.0, "bike_id": "26d7d0a81cffb1014d267d5f544f9830", "name": "26d7d0a81cffb1014d267d5f544f9830", "type": "electric_bike", "lon": -77.19552483333334, "rental_uris": {"android": "https://dc.lft.to/lastmile_qr_scan", "ios": "https://dc.lft.to/lastmile_qr_scan"}, "lat": 39.115093333333334, "is_reserved": 0, "is_disabled": 0, "fusion_lat": 0.0}, {"fusion_lon": 0.0, "bike_id": "611ad9510bc1c5c83837033a6c37e2c4", "name": "611ad9510bc1c5c83837033a6c37e2c4", "type": "electric_scooter", "lon": -77.00212133333333, "rental_uris": {"android": "https://dc.lft.to/lastmile_qr_scan", "ios": "https://dc.lft.to/lastmile_qr_scan"}, "lat": 38.9002475, "is_reserved": 0, "is_disabled": 0, "fusion_lat": 0.0}, {"fusion_lon": 0.0, "bike_id": "914ce735cf41c063922234e881ba09dc", "name": "914ce735cf41c063922234e881ba09dc", "type": "electric_scooter", "lon": -77.01751716666666, "rental_uris": {"android": "https://dc.lft.to/lastmile_qr_scan", "ios": "https://dc.lft.to/lastmile_qr_scan"}, "lat": 38.877246166666666, "is_reserved": 0, "is_disabled": 0, "fusion_lat": 0.0}, {"fusion_lon": 0.0, "bike_id": "717601b5fd01632b57a322418230e4b8", "name": "717601b5fd01632b57a322418230e4b8", "type": "electric_bike", "lon": -77.00321033333333, "rental_uris": {"android": "https://dc.lft.to/lastmile_qr_scan", "ios": "https://dc.lft.to/lastmile_qr_scan"}, "lat": 38.91160033333333, "is_reserved": 0, "is_disabled": 0, "fusion_lat": 0.0}, {"fusion_lon": 0.0, "bike_id": "8f146d5dc7e5cf726bdf46f62e0d29e1", "name": "8f146d5dc7e5cf726bdf46f62e0d29e1", "type": "electric_scooter", "lon": -77.04680016666667, "rental_uris": {"android": "https://dc.lft.to/lastmile_qr_scan", "ios": "https://dc.lft.to/lastmile_qr_scan"}, "lat": 38.915748, "is_reserved": 0, "is_disabled": 0, "fusion_lat": 0.0}, {"fusion_lon": 0.0, "bike_id": "9de06e51bacaabed6454c3f7a9cbcea2", "name": "9de06e51bacaabed6454c3f7a9cbcea2", "type": "electric_scooter", "lon": -77.0559865, "rental_uris": {"android": "https://dc.lft.to/lastmile_qr_scan", "ios": "https://dc.lft.to/lastmile_qr_scan"}, "lat": 38.936974, "is_reserved": 0, "is_disabled": 0, "fusion_lat": 0.0}, {"fusion_lon": 0.0, "bike_id": "f2249397a26b2bc8efe25f04ffb4ee4c", "name": "f2249397a26b2bc8efe25f04ffb4ee4c", "type": "electric_bike", "lon": -76.9669905, "rental_uris": {"android": "https://dc.lft.to/lastmile_qr_scan", "ios": "https://dc.lft.to/lastmile_qr_scan"}, "lat": 38.868506, "is_reserved": 0, "is_disabled": 0, "fusion_lat": 0.0}, {"fusion_lon": 0.0, "bike_id": "51a6bc0ddadb8efed8c0d10c33c9c9f5", "name": "51a6bc0ddadb8efed8c0d10c33c9c9f5", "type": "electric_scooter", "lon": -77.01747266666666, "rental_uris": {"android": "https://dc.lft.to/lastmile_qr_scan", "ios": "https://dc.lft.to/lastmile_qr_scan"}, "lat": 38.88581283333333, "is_reserved": 0, "is_disabled": 0, "fusion_lat": 0.0}, {"fusion_lon": 0.0, "bike_id": "240fb22bd0572297d5a58c63e59878d6", "name": "240fb22bd0572297d5a58c63e59878d6", "type": "electric_bike", "lon": -77.049755, "rental_uris": {"android": "https://dc.lft.to/lastmile_qr_scan", "ios": "https://dc.lft.to/lastmile_qr_scan"}, "lat": 38.992400833333335, "is_reserved": 0, "is_disabled": 0, "fusion_lat": 0.0}, {"fusion_lon": 0.0, "bike_id": "1db0627bd98110106fc1431669db6fd2", "name": "1db0627bd98110106fc1431669db6fd2", "type": "electric_scooter", "lon": -77.03160633333333, "rental_uris": {"android": "https://dc.lft.to/lastmile_qr_scan", "ios": "https://dc.lft.to/lastmile_qr_scan"}, "lat": 38.88736466666667, "is_reserved": 0, "is_disabled": 0, "fusion_lat": 0.0},