{"data": {"bikes": [{"type": "electric_scooter", "rental_uris": {"android": "https://dc.lft.to/lastmile_qr_scan", "ios": "https://dc.lft.to/lastmile_qr_scan"}, "name": "22376f1fe7d0b53a3692968dbc0427cd", "lat": 38.88023716666667, "is_reserved": 0, "fusion_lon": 0.0, "fusion_lat": 0.0, "is_disabled": 0, "bike_id": "22376f1fe7d0b53a3692968dbc0427cd", "lon": -76.94322033333333}, {"type": "electric_scooter", "rental_uris": {"android": "https://dc.lft.to/lastmile_qr_scan", "ios": "https://dc.lft.to/lastmile_qr_scan"}, "name": "f1ddce2541f672394d4243b5dc05bfc0", "lat": 38.890297833333335, "is_reserved": 0, "fusion_lon": 0.0, "fusion_lat": 0.0, "is_disabled": 0, "bike_id": "f1ddce2541f672394d4243b5dc05bfc0", "lon": -76.93712716666667}, {"type": "electric_bike", "rental_uris": {"android": "https://dc.lft.to/lastmile_qr_scan", "ios": "https://dc.lft.to/lastmile_qr_scan"}, "name": "495988d448611ebdfed13460fcb96208", "lat": 38.80384566666667, "is_reserved": 0, "fusion_lon": 0.0, "fusion_lat": 0.0, "is_disabled": 0, "bike_id": "495988d448611ebdfed13460fcb96208", "lon": -76.988137}, {"type": "electric_scooter", "rental_uris": {"android": "https://dc.lft.to/lastmile_qr_scan", "ios": "https://dc.lft.to/lastmile_qr_scan"}, "name": "606e80e6ffda4a10f5c006065c8c6247", "lat": 38.905738, "is_reserved": 0, "fusion_lon": 0.0, "fusion_lat": 0.0, "is_disabled": 0, "bike_id": "606e80e6ffda4a10f5c006065c8c6247", "lon": -77.0349015}, {"type": "electric_scooter", "rental_uris": {"android": "https://dc.lft.to/lastmile_qr_scan", "ios": "https://dc.lft.to/lastmile_qr_scan"}, "name": "7e3a24084bc196ba6b31a5afb76fe54e", "lat": 38.866583, "is_reserved": 0, "fusion_lon": 0.0, "fusion_lat": 0.0, "is_disabled": 0, "bike_id": "7e3a24084bc196ba6b31a5afb76fe54e", "lon": -76.97914116666666}, {"type": "electric_scooter", "rental_uris": {"android": "https://dc.lft.to/lastmile_qr_scan", "ios": "https://dc.lft.to/lastmile_qr_scan"}, "name": "2133d14abd112c2d3a436cce3a47770b", "lat": 38.91892816666667, "is_reserved": 0, "fusion_lon": 0.0, "fusion_lat": 0.0, "is_disabled": 0, "bike_id": "2133d14abd112c2d3a436cce3a47770b", "lon": -77.0274595}, {"type": "electric_scooter", "rental_uris": {"android": "https://dc.lft.to/lastmile_qr_scan", "ios": "https://dc.lft.to/lastmile_qr_scan"}, "name": "d01a6600c0b9b1bf43e404ac3bcee990", "lat": 38.923852, "is_reserved": 0, "fusion_lon": 0.0, "fusion_lat": 0.0, "is_disabled": 0, "bike_id": "d01a6600c0b9b1bf43e404ac3bcee990", "lon": -77.03054716666666}, {"type": "electric_scooter", "rental_uris": {"android": "https://dc.lft.to/lastmile_qr_scan", "ios": "https://dc.lft.to/lastmile_qr_scan"}, "name": "ea2c5191d1b1fba08dc1c7223f21a0d8", "lat": 38.9025605, "is_reserved": 0, "fusion_lon": 0.0, "fusion_lat": 0.0, "is_disabled": 0, "bike_id": "ea2c5191d1b1fba08dc1c7223f21a0d8", "lon": -77.0421445}, {"type": "electric_bike", "rental_uris": {"android": "https://dc.lft.to/lastmile_qr_scan", "ios": "https://dc.lft.to/lastmile_qr_scan"}, "name": "6e6dfceaa76129ce1a313df304142187", "lat": 38.92799016666667, "is_reserved": 0, "fusion_lon": 0.0, "fusion_lat": 0.0, "is_disabled": 0, "bike_id": "6e6dfceaa76129ce1a313df304142187", "lon": -77.036122}, {"type": "electric_scooter", "rental_uris": {"android": "https://dc.lft.to/lastmile_qr_scan", "ios": "https://dc.lft.to/lastmile_qr_scan"}, "name": "9a9abb4b139653ce6dfd5aa2efa1fc13", "lat": 38.920683333333336, "is_reserved": 0, "fusion_lon": 0.0, "fusion_lat": 0.0, "is_disabled": 0, "bike_id": "9a9abb4b139653ce6dfd5aa2efa1fc13", "lon": -77.025621}, {"type": "electric_scooter", "rental_uris": {"android": "https://dc.lft.to/lastmile_qr_scan", "ios": "https://dc.lft.to/lastmile_qr_scan"}, "name": "e3382493d0e50204475ea28d0e98d43d", "lat": 38.89017033333333, "is_reserved": 0, "fusion_lon": 0.0, "fusion_lat": 0.0, "is_disabled": 0, "bike_id": "e3382493d0e50204475ea28d0e98d43d", "lon": -76.93716966666666}, {"type": "electric_scooter", "rental_uris": {"android": "https://dc.lft.to/lastmile_qr_scan", "ios": "https://dc.lft.to/lastmile_qr_scan"}, "name": "86ee88a438cfbc080f5c4e8ecc48b67a", "lat": 38.89682766666667, "is_reserved": 0, "fusion_lon": 0.0, "fusion_lat": 0.0, "is_disabled": 0, "bike_id": "86ee88a438cfbc080f5c4e8ecc48b67a", "lon": -76.93664516666666}, {"type": "electric_scooter", "rental_uris": {"android": "https://dc.lft.to/lastmile_qr_scan", "ios": "https://dc.lft.to/lastmile_qr_scan"}, "name": "b3d1a24cf77139d180df62ec6c94ec3f", "lat": 38.8922745, "is_reserved": 0, "fusion_lon": 0.0, "fusion_lat": 0.0, "is_disabled": 0, "bike_id": "b3d1a24cf77139d180df62ec6c94ec3f", "lon": -77.0263325}, {"type": "electric_scooter", "rental_uris": {"android": "https://dc.lft.to/lastmile_qr_scan", "ios": "https://dc.lft.to/lastmile_qr_scan"}, "name": "a223d2c967f823eb5c0668c9e036dd66", "lat": 38.90963266666667, "is_reserved": 0, "fusion_lon": 0.0, "fusion_lat": 0.0, "is_disabled": 0, "bike_id": "a223d2c967f823eb5c0668c9e036dd66", "lon": -77.03302916666667}, {"type": "electric_scooter", "rental_uris": {"android": "https://dc.lft.to/lastmile_qr_scan", "ios": "https://dc.lft.to/lastmile_qr_scan"}, "name": "fbf7909bf817fb922fa4018a9536f7cd", "lat": 38.906789333333336, "is_reserved": 0, "fusion_lon": 0.0, "fusion_lat": 0.0, "is_disabled": 0, "bike_id": "fbf7909bf817fb922fa4018a9536f7cd", "lon": -77.0269225}, {"type": "electric_bike", "rental_uris": {"android": "https://dc.lft.to/lastmile_qr_scan", "ios": "https://dc.lft.to/lastmile_qr_scan"}, "name": "fc0d7b1dfd38169162260994b1824eb6", "lat": 38.846740833333335, "is_reserved": 0, "fusion_lon": 0.0, "fusion_lat": 0.0, "is_disabled": 0, "bike_id": "fc0d7b1dfd38169162260994b1824eb6", "lon": -77.1392065}, {"type": "electric_scooter", "rental_uris": {"android": "https://dc.lft.to/lastmile_qr_scan", "ios": "https://dc.lft.to/lastmile_qr_scan"}, "name": "88be305fb91d71053875bf610552667f", "lat": 38.896412, "is_reserved": 0, "fusion_lon": 0.0, "fusion_lat": 0.0, "is_disabled": 0, "bike_id": "88be305fb91d71053875bf610552667f", "lon": -77.04010183333334}, {"type": "electric_scooter", "rental_uris": {"android": "https://dc.lft.to/lastmile_qr_scan", "ios": "https://dc.lft.to/lastmile_qr_scan"}, "name": "d22ee9c0dab9412c1ad5f4ba6402833a", "lat": 38.930465166666664, "is_reserved": 0, "fusion_lon": 0.0, "fusion_lat": 0.0, "is_disabled": 0, "bike_id": "d22ee9c0dab9412c1ad5f4ba6402833a", "lon": -76.958361}, {"type": "electric_bike", "rental_uris": {"android": "https://dc.lft.to/lastmile_qr_scan", "ios": "https://dc.lft.to/lastmile_qr_scan"}, "name": "4a0a6574194f188ee2978f22b624f922", "lat": 38.955439, "is_reserved": 0, "fusion_lon": 0.0, "fusion_lat": 0.0, "is_disabled": 0, "bike_id": "4a0a6574194f188ee2978f22b624f922", "lon": -77.069334}, {"type": "electric_scooter", "rental_uris": {"android": "https://dc.lft.to/lastmile_qr_scan", "ios": "https://dc.lft.to/lastmile_qr_scan"}, "name": "d128c359c7d63a6700fef7dcd6b37a3d", "lat": 38.876585666666664, "is_reserved": 0, "fusion_lon": 0.0, "fusion_lat": 0.0, "is_disabled": 0, "bike_id": "d128c359c7d63a6700fef7dcd6b37a3d", "lon": -76.99319783333334}, {"type": "electric_scooter", "rental_uris": {"android": "https://dc.lft.to/lastmile_qr_scan", "ios": "https://dc.lft.to/lastmile_qr_scan"}, "name": "d3dae1331b4ae4152d89ed2793ba529d", "lat": 38.903668, "is_reserved": 0, "fusion_lon": 0.0, "fusion_lat": 0.0, "is_disabled": 0, "bike_id": "d3dae1331b4ae4152d89ed2793ba529d", "lon": -77.0377935}, {"type": "electric_scooter", "rental_uris": {"android": "https://dc.lft.to/lastmile_qr_scan", "ios": "https://dc.lft.to/lastmile_qr_scan"}, "name": "ca6f7b2d5e77e5f9c65ff6d72f6100a9", "lat": 38.923502166666665, "is_reserved": 0, "fusion_lon": 0.0, "fusion_lat": 0.0, "is_disabled": 0, "bike_id": "ca6f7b2d5e77e5f9c65ff6d72f6100a9", "lon": -77.0494915}, {"type": "electric_scooter", "rental_uris": {"android": "https://dc.lft.to/lastmile_qr_scan", "ios": "https://dc.lft.to/lastmile_qr_scan"}, "name": "715aede4730fa5603cc0f09a5f1376cb", "lat": 38.92080816666667, "is_reserved": 0, "fusion_lon": 0.0, "fusion_lat": 0.0, "is_disabled": 0, "bike_id": "715aede4730fa5603cc0f09a5f1376cb", "lon": -77.03558616666666}, {"type": "electric_scooter", "rental_uris": {"android": "https://dc.lft.to/lastmile_qr_scan", "ios": "https://dc.lft.to/lastmile_qr_scan"}, "name": "cd0087be032652646af8c724e0ae73b7", "lat": 38.913264, "is_reserved": 0, "fusion_lon": 0.0, "fusion_lat": 0.0, "is_disabled": 0, "bike_id": "cd0087be032652646af8c724e0ae73b7", "lon": -77.04535533333333}, {"type": "electric_scooter", "rental_uris": {"android": "https://dc.lft.to/lastmile_qr_scan", "ios": "https://dc.lft.to/lastmile_qr_scan"}, "name": "4c4a3619c213385ff0a3b6a9b55b4840", "lat": 38.9027115, "is_reserved": 0, "fusion_lon": 0.0, "fusion_lat": 0.0, "is_disabled": 0, "bike_id": "4c4a3619c213385ff0a3b6a9b55b4840", "lon": -77.017601}, {"type": "electric_scooter", "rental_uris": {"android": "https://dc.lft.to/lastmile_qr_scan", "ios": "https://dc.lft.to/lastmile_qr_scan"}, "name": "45488350723c5c5676c696571ce34a76", "lat": 38.923883333333336, "is_reserved": 0, "fusion_lon": 0.0, "fusion_lat": 0.0, "is_disabled": 0, "bike_id": "45488350723c5c5676c696571ce34a76", "lon": -77.02605816666667}, {"type": "electric_bike", "rental_uris": {"android": "https://dc.lft.to/lastmile_qr_scan", "ios": "https://dc.lft.to/lastmile_qr_scan"}, "name": "c2ab5cef542eae6a05863a249c92e46d", "lat": 38.850496, "is_reserved": 0, "fusion_lon": 0.0, "fusion_lat": 0.0, "is_disabled": 0, "bike_id": "c2ab5cef542eae6a05863a249c92e46d", "lon": -77.0516925}, {"type": "electric_scooter", "rental_uris": {"android": "https://dc.lft.to/lastmile_qr_scan", "ios": "https://dc.lft.to/lastmile_qr_scan"}, "name": "ad87169c4dfdec43f2511c1f81c19754", "lat": 38.954870666666665, "is_reserved": 0, "fusion_lon": 0.0, "fusion_lat": 0.0, "is_disabled": 0, "bike_id": "ad87169c4dfdec43f2511c1f81c19754", "lon": -77.06993633333333}, {"type": "electric_scooter", "rental_uris": {"android": "https://dc.lft.to/lastmile_qr_scan", "ios": "https://dc.lft.to/lastmile_qr_scan"}, "name": "29146f407dc884d2725d9e40ce73b769", "lat": 38.9204735, "is_reserved": 0, "fusion_lon": 0.0, "fusion_lat": 0.0, "is_disabled": 0, "bike_id": "29146f407dc884d2725d9e40ce73b769", "lon": -77.01775983333333}, {"type": "electric_scooter", "rental_uris": {"android": "https://dc.lft.to/lastmile_qr_scan", "ios": "https://dc.lft.to/lastmile_qr_scan"}, "name": "f2a85d68c87d2275eee677b11f3accf8", "lat": 38.927925, "is_reserved": 0, "fusion_lon": 0.0, "fusion_lat": 0.0, "is_disabled": 0, "bike_id": "f2a85d68c87d2275eee677b11f3accf8", "lon": -77.03088083333333}, {"type": "electric_scooter", "rental_uris": {"android": "https://dc.lft.to/lastmile_qr_scan", "ios": "https://dc.lft.to/lastmile_qr_scan"}, "name": "f613655173153852a3480208c65b443c", "lat": 38.8990175, "is_reserved": 0, "fusion_lon": 0.0, "fusion_lat": 0.0, "is_disabled": 0, "bike_id": "f613655173153852a3480208c65b443c", "lon": -76.9882635}, {"type": "electric_scooter", "rental_uris": {"android": "https://dc.lft.to/lastmile_qr_scan", "ios": "https://dc.lft.to/lastmile_qr_scan"}, "name": "1e18dbe4be6f201b8871f4d3beef96b2", "lat": 38.9004245, "is_reserved": 0, "fusion_lon": 0.0, "fusion_lat": 0.0, "is_disabled": 0, "bike_id": "1e18dbe4be6f201b8871f4d3beef96b2", "lon": -77.043256}, {"type": "electric_scooter", "rental_uris": {"android": "https://dc.lft.to/lastmile_qr_scan", "ios": "https://dc.lft.to/lastmile_qr_scan"}, "name": "89fa17066705a678f4147ac0d535ff51", "lat": 38.870917666666664, "is_reserved": 0, "fusion_lon": 0.0, "fusion_lat": 0.0, "is_disabled": 0, "bike_id": "89fa17066705a678f4147ac0d535ff51", "lon": -77.01219233333333}, {"type": "electric_scooter", "rental_uris": {"android": "https://dc.lft.to/lastmile_qr_scan", "ios": "https://dc.lft.to/lastmile_qr_scan"}, "name": "157471fd1bba19a6e4e999898cd41e94", "lat": 38.89731233333333, "is_reserved": 0, "fusion_lon": 0.0, "fusion_lat": 0.0, "is_disabled": 0, "bike_id": "157471fd1bba19a6e4e999898cd41e94", "lon": -77.02688116666667}, {"type": "electric_scooter", "rental_uris": {"android": "https://dc.lft.to/lastmile_qr_scan", "ios": "https://dc.lft.to/lastmile_qr_scan"}, "name": "b1f59fba6927a39063ca9b99b664d406", "lat": 38.935241833333336, "is_reserved": 0, "fusion_lon": 0.0, "fusion_lat": 0.0, "is_disabled": 0, "bike_id": "b1f59fba6927a39063ca9b99b664d406", "lon": -77.03259616666666}, {"type": "electric_scooter", "rental_uris": {"android": "https://dc.lft.to/lastmile_qr_scan", "ios": "https://dc.lft.to/lastmile_qr_scan"}, "name": "7821b656edfdc92836275e58f24e8c69", "lat": 38.89355116666667, "is_reserved": 0, "fusion_lon": 0.0, "fusion_lat": 0.0, "is_disabled": 0, "bike_id": "7821b656edfdc92836275e58f24e8c69", "lon": -77.01743716666667}, {"type": "electric_scooter", "rental_uris": {"android": "https://dc.lft.to/lastmile_qr_scan", "ios": "https://dc.lft.to/lastmile_qr_scan"}, "name": "33b2a190753c03f7d657483835a72fdf", "lat": 38.902219, "is_reserved": 0, "fusion_lon": 0.0, "fusion_lat": 0.0, "is_disabled": 0, "bike_id": "33b2a190753c03f7d657483835a72fdf", "lon": -77.03642383333333}, {"type": "electric_scooter", "rental_uris": {"android": "https://dc.lft.to/lastmile_qr_scan", "ios": "https://dc.lft.to/lastmile_qr_scan"}, "name": "fb0d577973c92ae02f42ada3b5cb8091", "lat": 38.86422666666667, "is_reserved": 0, "fusion_lon": 0.0, "fusion_lat": 0.0, "is_disabled": 0, "bike_id": "fb0d577973c92ae02f42ada3b5cb8091", "lon": -76.974896}, {"type": "electric_scooter", "rental_uris": {"android": "https://dc.lft.to/lastmile_qr_scan", "ios": "https://dc.lft.to/lastmile_qr_scan"}, "name": "af749c3880dbbe27b13b6aee02450d92", "lat": 38.929694, "is_reserved": 0, "fusion_lon": 0.0, "fusion_lat": 0.0, "is_disabled": 0, "bike_id": "af749c3880dbbe27b13b6aee02450d92", "lon": -77.0320745}, {"type": "electric_scooter", "rental_uris": {"android": "https://dc.lft.to/lastmile_qr_scan", "ios": "https://dc.lft.to/lastmile_qr_scan"}, "name": "bb0ed6069623dd6629af4770df945fcc", "lat": 38.89001283333333, "is_reserved": 0, "fusion_lon": 0.0, "fusion_lat": 0.0, "is_disabled": 0, "bike_id": "bb0ed6069623dd6629af4770df945fcc", "lon": -77.00358566666667}, {"type": "electric_scooter", "rental_uris": {"android": "https://dc.lft.to/lastmile_qr_scan", "ios": "https://dc.lft.to/lastmile_qr_scan"}, "name": "8b4ac6577bf8db3878c13693c9849e98", "lat": 38.9209025, "is_reserved": 0, "fusion_lon": 0.0, "fusion_lat": 0.0, "is_disabled": 0, "bike_id": "8b4ac6577bf8db3878c13693c9849e98", "lon": -77.02303133333334}, {"type": "electric_scooter", "rental_uris": {"android": "https://dc.lft.to/lastmile_qr_scan", "ios": "https://dc.lft.to/lastmile_qr_scan"}, "name": "fd89bd58773bde93047e3a81e31d74f7", "lat": 38.894892, "is_reserved": 0, "fusion_lon": 0.0, "fusion_lat": 0.0, "is_disabled": 0, "bike_id": "fd89bd58773bde93047e3a81e31d74f7", "lon": -76.995766}, {"type": "electric_scooter", "rental_uris": {"android": "https://dc.lft.to/lastmile_qr_scan", "ios": "https://dc.lft.to/lastmile_qr_scan"}, "name": "741f51960b78c9eb55a09a0603386867", "lat": 38.89175766666666, "is_reserved": 0, "fusion_lon": 0.0, "fusion_lat": 0.0, "is_disabled": 0, "bike_id": "741f51960b78c9eb55a09a0603386867", "lon": -76.9425485}, {"type": "electric_scooter", "rental_uris": {"android": "https://dc.lft.to/lastmile_qr_scan", "ios": "https://dc.lft.to/lastmile_qr_scan"}, "name": "c0ab941d35f2bb940412d81541f9bb85", "lat": 38.923755, "is_reserved": 0, "fusion_lon": 0.0, "fusion_lat": 0.0, "is_disabled": 0, "bike_id": "c0ab941d35f2bb940412d81541f9bb85", "lon": -77.0195475}, {"type": "electric_scooter", "rental_uris": {"android": "https://dc.lft.to/lastmile_qr_scan", "ios": "https://dc.lft.to/lastmile_qr_scan"}, "name": "da044741783ab87be9500dd29eddf3be", "lat": 38.899218166666664, "is_reserved": 0, "fusion_lon": 0.0, "fusion_lat": 0.0, "is_disabled": 0, "bike_id": "da044741783ab87be9500dd29eddf3be", "lon": -77.02438183333334}, {"type": "electric_scooter", "rental_uris": {"android": "https://dc.lft.to/lastmile_qr_scan", "ios": "https://dc.lft.to/lastmile_qr_scan"}, "name": "445286eb113a93d9358f07022009b4b9", "lat": 38.8851195, "is_reserved": 0, "fusion_lon": 0.0, "fusion_lat": 0.0, "is_disabled": 0, "bike_id": "445286eb113a93d9358f07022009b4b9", "lon": -77.0053385}, {"type": "electric_scooter", "rental_uris": {"android": "https://dc.lft.to/lastmile_qr_scan", "ios": "https://dc.lft.to/lastmile_qr_scan"}, "name": "87c868a57805b70d6b82c6cd733b88a6", "lat": 38.875752166666665, "is_reserved": 0, "fusion_lon": 0.0, "fusion_lat": 0.0, "is_disabled": 0, "bike_id": "87c868a57805b70d6b82c6cd733b88a6", "lon": -77.0057875}, {"type": "electric_scooter", "rental_uris": {"android": "https://dc.lft.to/lastmile_qr_scan", "ios": "https://dc.lft.to/lastmile_qr_scan"}, "name": "e5e8ff748f618a486280912388feb09a", "lat": 38.9157765, "is_reserved": 0, "fusion_lon": 0.0, "fusion_lat": 0.0, "is_disabled": 0, "bike_id": "e5e8ff748f618a486280912388feb09a", "lon": -77.01231116666666}, {"type": "electric_bike", "rental_uris": {"android": "https://dc.lft.to/lastmile_qr_scan", "ios": "https://dc.lft.to/lastmile_qr_scan"}, "name": "6f9bc4753d265572415903c91d0bcd19", "lat": 38.83296766666667, "is_reserved": 0, "fusion_lon": 0.0, "fusion_lat": 0.0, "is_disabled": 0, "bike_id": "6f9bc4753d265572415903c91d0bcd19", "lon": -77.084117}, {"type": "electric_scooter", "rental_uris": {"android": "https://dc.lft.to/lastmile_qr_scan", "ios": "https://dc.lft.to/lastmile_qr_scan"}, "name": "11c62775cadb18ef489a2f500be872a8", "lat": 38.9011955, "is_reserved": 0, "fusion_lon": 0.0, "fusion_lat": 0.0, "is_disabled": 0, "bike_id": "11c62775cadb18ef489a2f500be872a8", "lon": -77.03715433333333}, {"type": "electric_scooter", "rental_uris": {"android": "https://dc.lft.to/lastmile_qr_scan", "ios": "https://dc.lft.to/lastmile_qr_scan"}, "name": "1afa49a657a0adc2909700da8305552d", "lat": 38.88439866666667, "is_reserved": 0, "fusion_lon": 0.0, "fusion_lat": 0.0, "is_disabled": 0, "bike_id": "1afa49a657a0adc2909700da8305552d", "lon": -76.95767616666667}, {"type": "electric_scooter", "rental_uris": {"android": "https://dc.lft.to/lastmile_qr_scan", "ios": "https://dc.lft.to/lastmile_qr_scan"}, "name": "97520b185d1a65c518c59a884234958a", "lat": 38.903853166666664, "is_reserved": 0, "fusion_lon": 0.0, "fusion_lat": 0.0, "is_disabled": 0, "bike_id": "97520b185d1a65c518c59a884234958a", "lon": -77.038559}, {"type": "electric_scooter", "rental_uris": {"android": "https://dc.lft.to/lastmile_qr_scan", "ios": "https://dc.lft.to/lastmile_qr_scan"}, "name": "ee13e8b61f92891023417b660e9b59a9", "lat": 38.8849965, "is_reserved": 0, "fusion_lon": 0.0, "fusion_lat": 0.0, "is_disabled": 0, "bike_id": "ee13e8b61f92891023417b660e9b59a9", "lon": -77.01978466666667}, {"type": "electric_scooter", "rental_uris": {"android": "https://dc.lft.to/lastmile_qr_scan", "ios": "https://dc.lft.to/lastmile_qr_scan"}, "name": "8b3ef2465a1f4db287e348a900abc043", "lat": 38.91703116666667, "is_reserved": 0, "fusion_lon": 0.0, "fusion_lat": 0.0, "is_disabled": 0, "bike_id": "8b3ef2465a1f4db287e348a900abc043", "lon": -77.00961033333333}, {"type": "electric_scooter", "rental_uris": {"android": "https://dc.lft.to/lastmile_qr_scan", "ios": "https://dc.lft.to/lastmile_qr_scan"}, "name": "b2408435398d834f4b97bec2f2e8746a", "lat": 38.90583083333333, "is_reserved": 0, "fusion_lon": 0.0, "fusion_lat": 0.0, "is_disabled": 0, "bike_id": "b2408435398d834f4b97bec2f2e8746a", "lon": -77.042044}, {"type": "electric_scooter", "rental_uris": {"android": "https://dc.lft.to/lastmile_qr_scan", "ios": "https://dc.lft.to/lastmile_qr_scan"}, "name": "0f27318bf272476b84a2fc398b88967c", "lat": 38.906666333333334, "is_reserved": 0, "fusion_lon": 0.0, "fusion_lat": 0.0, "is_disabled": 0, "bike_id": "0f27318bf272476b84a2fc398b88967c", "lon": -77.03805666666666}, {"type": "electric_bike", "rental_uris": {"android": "https://dc.lft.to/lastmile_qr_scan", "ios": "https://dc.lft.to/lastmile_qr_scan"}, "name": "573d13062fb0f70792a1a7351cf05646", "lat": 38.906066833333334, "is_reserved": 0, "fusion_lon": 0.0, "fusion_lat": 0.0, "is_disabled": 0, "bike_id": "573d13062fb0f70792a1a7351cf05646", "lon": -77.07620333333334}, {"type": "electric_scooter", "rental_uris": {"android": "https://dc.lft.to/lastmile_qr_scan", "ios": "https://dc.lft.to/lastmile_qr_scan"}, "name": "692e2f745a3c48187c2c81f9ca12cb9f", "lat": 38.905648166666666, "is_reserved": 0, "fusion_lon": 0.0, "fusion_lat": 0.0, "is_disabled": 0, "bike_id": "692e2f745a3c48187c2c81f9ca12cb9f", "lon": -77.034744}, {"type": "electric_scooter", "rental_uris": {"android": "https://dc.lft.to/lastmile_qr_scan", "ios": "https://dc.lft.to/lastmile_qr_scan"}, "name": "78e5dcb1882bc1249d43b731432de9aa", "lat": 38.902902, "is_reserved": 0, "fusion_lon": 0.0, "fusion_lat": 0.0, "is_disabled": 0, "bike_id": "78e5dcb1882bc1249d43b731432de9aa", "lon": -77.02311466666667}, {"type": "electric_scooter", "rental_uris": {"android": "https://dc.lft.to/lastmile_qr_scan", "ios": "https://dc.lft.to/lastmile_qr_scan"}, "name": "ac621c726656fe5dd127132026259421", "lat": 38.909212833333335, "is_reserved": 0, "fusion_lon": 0.0, "fusion_lat": 0.0, "is_disabled": 0, "bike_id": "ac621c726656fe5dd127132026259421", "lon": -77.04389616666667}, {"type": "electric_scooter", "rental_uris": {"android": "https://dc.lft.to/lastmile_qr_scan", "ios": "https://dc.lft.to/lastmile_qr_scan"}, "name": "e6a3a6e01e30f81c3a6e86b55a126ddc", "lat": 38.9282205, "is_reserved": 0, "fusion_lon": 0.0, "fusion_lat": 0.0, "is_disabled": 0, "bike_id": "e6a3a6e01e30f81c3a6e86b55a126ddc", "lon": -77.02237133333334}, {"type": "electric_scooter", "rental_uris": {"android": "https://dc.lft.to/lastmile_qr_scan", "ios": "https://dc.lft.to/lastmile_qr_scan"}, "name": "ce8ac2b445596fc5f88ef71d9aa5cefd", "lat": 38.89366416666667, "is_reserved": 0, "fusion_lon": 0.0, "fusion_lat": 0.0, "is_disabled": 0, "bike_id": "ce8ac2b445596fc5f88ef71d9aa5cefd", "lon": -76.98459933333334}, {"type": "electric_scooter", "rental_uris": {"android": "https://dc.lft.to/lastmile_qr_scan", "ios": "https://dc.lft.to/lastmile_qr_scan"}, "name": "257601f5da2ca03e58f9678746fe3d32", "lat": 38.90271633333333, "is_reserved": 0, "fusion_lon": 0.0, "fusion_lat": 0.0, "is_disabled": 0, "bike_id": "257601f5da2ca03e58f9678746fe3d32", "lon": -77.030673}, {"type": "electric_scooter", "rental_uris": {"android": "https://dc.lft.to/lastmile_qr_scan", "ios": "https://dc.lft.to/lastmile_qr_scan"}, "name": "b80d0fe1ef6e07c1b6d2199ee1d83e96", "lat": 38.873150333333335, "is_reserved": 0, "fusion_lon": 0.0, "fusion_lat": 0.0, "is_disabled": 0, "bike_id": "b80d0fe1ef6e07c1b6d2199ee1d83e96", "lon": -77.01390216666667}, {"type": "electric_scooter", "rental_uris": {"android": "https://dc.lft.to/lastmile_qr_scan", "ios": "https://dc.lft.to/lastmile_qr_scan"}, "name": "d14c5f4cbb985b2509ada91aadf5bd3d", "lat": 38.9004245, "is_reserved": 0, "fusion_lon": 0.0, "fusion_lat": 0.0, "is_disabled": 0, "bike_id": "d14c5f4cbb985b2509ada91aadf5bd3d", "lon": -77.04314316666667}, {"type": "electric_scooter", "rental_uris": {"android": "https://dc.lft.to/lastmile_qr_scan", "ios": "https://dc.lft.to/lastmile_qr_scan"}, "name": "3e63e876075b9ce049dec37127dc7733", "lat": 38.896171, "is_reserved": 0, "fusion_lon": 0.0, "fusion_lat": 0.0, "is_disabled": 0, "bike_id": "3e63e876075b9ce049dec37127dc7733", "lon": -76.92973916666666}, {"type": "electric_scooter", "rental_uris": {"android": "https://dc.lft.to/lastmile_qr_scan", "ios": "https://dc.lft.to/lastmile_qr_scan"}, "name": "e061a1aeb566bff548e25ccd23c262a2", "lat": 38.91531716666667, "is_reserved": 0, "fusion_lon": 0.0, "fusion_lat": 0.0, "is_disabled": 0, "bike_id": "e061a1aeb566bff548e25ccd23c262a2", "lon": -77.03198283333333}, {"type": "electric_bike", "rental_uris": {"android": "https://dc.lft.to/lastmile_qr_scan", "ios": "https://dc.lft.to/lastmile_qr_scan"}, "name": "1fc49ea89b6393caa51966318906dd40", "lat": 38.949275166666666, "is_reserved": 0, "fusion_lon": 0.0, "fusion_lat": 0.0, "is_disabled": 0, "bike_id": "1fc49ea89b6393caa51966318906dd40", "lon": -76.95914166666667}, {"type": "electric_bike", "rental_uris": {"android": "https://dc.lft.to/lastmile_qr_scan", "ios": "https://dc.lft.to/lastmile_qr_scan"}, "name": "a3362b9668a2ef3cd19792683ed83595", "lat": 38.94151683333333, "is_reserved": 0, "fusion_lon": 0.0, "fusion_lat": 0.0, "is_disabled": 0, "bike_id": "a3362b9668a2ef3cd19792683ed83595", "lon": -77.00195183333334}, {"type": "electric_scooter", "rental_uris": {"android": "https://dc.lft.to/lastmile_qr_scan", "ios": "https://dc.lft.to/lastmile_qr_scan"}, "name": "f3b5ca581389026da0a6cf209494ef4f", "lat": 38.88073583333333, "is_reserved": 0, "fusion_lon": 0.0, "fusion_lat": 0.0, "is_disabled": 0, "bike_id": "f3b5ca581389026da0a6cf209494ef4f", "lon": -77.0372005}, {"type": "electric_scooter", "rental_uris": {"android": "https://dc.lft.to/lastmile_qr_scan", "ios": "https://dc.lft.to/lastmile_qr_scan"}, "name": "f376255720c1ad484b81f01ece9cd426", "lat": 38.91553583333334, "is_reserved": 0, "fusion_lon": 0.0, "fusion_lat": 0.0, "is_disabled": 0, "bike_id": "f376255720c1ad484b81f01ece9cd426", "lon": -77.0366315}, {"type": "electric_scooter", "rental_uris": {"android": "https://dc.lft.to/lastmile_qr_scan", "ios": "https://dc.lft.to/lastmile_qr_scan"}, "name": "11e9c07488a62ebee3b3f3ed44c6da94", "lat": 38.915913, "is_reserved": 0, "fusion_lon": 0.0, "fusion_lat": 0.0, "is_disabled": 0, "bike_id": "11e9c07488a62ebee3b3f3ed44c6da94", "lon": -77.03192066666666}, {"type": "electric_bike", "rental_uris": {"android": "https://dc.lft.to/lastmile_qr_scan", "ios": "https://dc.lft.to/lastmile_qr_scan"}, "name": "2bcaf273faabf05b04005ae7c3094042", "lat": 38.877288, "is_reserved": 0, "fusion_lon": 0.0, "fusion_lat": 0.0, "is_disabled": 0, "bike_id": "2bcaf273faabf05b04005ae7c3094042", "lon": -77.1242}, {"type": "electric_bike", "rental_uris": {"android": "https://dc.lft.to/lastmile_qr_scan", "ios": "https://dc.lft.to/lastmile_qr_scan"}, "name": "14e74e0ed7c03643c23210c1e6897ff9", "lat": 38.926211, "is_reserved": 0, "fusion_lon": 0.0, "fusion_lat": 0.0, "is_disabled": 0, "bike_id": "14e74e0ed7c03643c23210c1e6897ff9", "lon": -77.00585833333334}, {"type": "electric_scooter", "rental_uris": {"android": "https://dc.lft.to/lastmile_qr_scan", "ios": "https://dc.lft.to/lastmile_qr_scan"}, "name": "47ebafd54e13f3c0368279fea014111a", "lat": 38.956307333333335, "is_reserved": 0, "fusion_lon": 0.0, "fusion_lat": 0.0, "is_disabled": 0, "bike_id": "47ebafd54e13f3c0368279fea014111a", "lon": -77.02951833333333}, {"type": "electric_scooter", "rental_uris": {"android": "https://dc.lft.to/lastmile_qr_scan", "ios": "https://dc.lft.to/lastmile_qr_scan"}, "name": "b5aaabbac9b992562d5acb4d496caac3", "lat": 38.905499666666664, "is_reserved": 0, "fusion_lon": 0.0, "fusion_lat": 0.0, "is_disabled": 0, "bike_id": "b5aaabbac9b992562d5acb4d496caac3", "lon": -77.039893}, {"type": "electric_scooter", "rental_uris": {"android": "https://dc.lft.to/lastmile_qr_scan", "ios": "https://dc.lft.to/lastmile_qr_scan"}, "name": "a9f6ab396f81f5ef418d0107d9dceaf4", "lat": 38.9205985, "is_reserved": 0, "fusion_lon": 0.0, "fusion_lat": 0.0, "is_disabled": 0, "bike_id": "a9f6ab396f81f5ef418d0107d9dceaf4", "lon": -77.02302116666667}, {"type": "electric_scooter", "rental_uris": {"android": "https://dc.lft.to/lastmile_qr_scan", "ios": "https://dc.lft.to/lastmile_qr_scan"}, "name": "279cd794a9bc8ba7f4ba8f0cdfdc936c", "lat": 38.877317166666664, "is_reserved": 0, "fusion_lon": 0.0, "fusion_lat": 0.0, "is_disabled": 0, "bike_id": "279cd794a9bc8ba7f4ba8f0cdfdc936c", "lon": -77.0077805}, {"type": "electric_scooter", "rental_uris": {"android": "https://dc.lft.to/lastmile_qr_scan", "ios": "https://dc.lft.to/lastmile_qr_scan"}, "name": "edbb5a59bd40bad4be62730a879b2b31", "lat": 38.88487216666667, "is_reserved": 0, "fusion_lon": 0.0, "fusion_lat": 0.0, "is_disabled": 0, "bike_id": "edbb5a59bd40bad4be62730a879b2b31", "lon": -77.015189}, {"type": "electric_bike", "rental_uris": {"android": "https://dc.lft.to/lastmile_qr_scan", "ios": "https://dc.lft.to/lastmile_qr_scan"}, "name": "33b694f3560458528dbaab3a56d39b27", "lat": 38.90826933333334, "is_reserved": 0, "fusion_lon": 0.0, "fusion_lat": 0.0, "is_disabled": 0, "bike_id": "33b694f3560458528dbaab3a56d39b27", "lon": -76.94154883333333}, {"type": "electric_scooter", "rental_uris": {"android": "https://dc.lft.to/lastmile_qr_scan", "ios": "https://dc.lft.to/lastmile_qr_scan"}, "name": "721f1347cadebf838bd141a24244ecde", "lat": 38.90824666666666, "is_reserved": 0, "fusion_lon": 0.0, "fusion_lat": 0.0, "is_disabled": 0, "bike_id": "721f1347cadebf838bd141a24244ecde", "lon": -77.0383295}, {"type": "electric_scooter", "rental_uris": {"android": "https://dc.lft.to/lastmile_qr_scan", "ios": "https://dc.lft.to/lastmile_qr_scan"}, "name": "f4a6b39585a73491357111681eb29242", "lat": 38.9210655, "is_reserved": 0, "fusion_lon": 0.0, "fusion_lat": 0.0, "is_disabled": 0, "bike_id": "f4a6b39585a73491357111681eb29242", "lon": -77.02162933333334}, {"type": "electric_scooter", "rental_uris": {"android": "https://dc.lft.to/lastmile_qr_scan", "ios": "https://dc.lft.to/lastmile_qr_scan"}, "name": "3132c15a6e170767df3c9239dc621238", "lat": 38.90409183333333, "is_reserved": 0, "fusion_lon": 0.0, "fusion_lat": 0.0, "is_disabled": 0, "bike_id": "3132c15a6e170767df3c9239dc621238", "lon": -76.98112766666667}, {"type": "electric_scooter", "rental_uris": {"android": "https://dc.lft.to/lastmile_qr_scan", "ios": "https://dc.lft.to/lastmile_qr_scan"}, "name": "e419ca83977049dce5498ab74f221f80", "lat": 38.90134033333333, "is_reserved": 0, "fusion_lon": 0.0, "fusion_lat": 0.0, "is_disabled": 0, "bike_id": "e419ca83977049dce5498ab74f221f80", "lon": -77.03175583333334}, {"type": "electric_scooter", "rental_uris": {"android": "https://dc.lft.to/lastmile_qr_scan", "ios": "https://dc.lft.to/lastmile_qr_scan"}, "name": "39c83f8eb2cf6dc30d38e323836bdc34", "lat": 38.91558916666666, "is_reserved": 0, "fusion_lon": 0.0, "fusion_lat": 0.0, "is_disabled": 0, "bike_id": "39c83f8eb2cf6dc30d38e323836bdc34", "lon": -77.036693}, {"type": "electric_scooter", "rental_uris": {"android": "https://dc.lft.to/lastmile_qr_scan", "ios": "https://dc.lft.to/lastmile_qr_scan"}, "name": "23fb832828dfa8d221a73a95f8dff3ac", "lat": 38.90009, "is_reserved": 0, "fusion_lon": 0.0, "fusion_lat": 0.0, "is_disabled": 0, "bike_id": "23fb832828dfa8d221a73a95f8dff3ac", "lon": -77.01157483333333}, {"type": "electric_scooter", "rental_uris": {"android": "https://dc.lft.to/lastmile_qr_scan", "ios": "https://dc.lft.to/lastmile_qr_scan"}, "name": "ba1aeb70053c862551828298f53f0a85", "lat": 38.899866333333335, "is_reserved": 0, "fusion_lon": 0.0, "fusion_lat": 0.0, "is_disabled": 0, "bike_id": "ba1aeb70053c862551828298f53f0a85", "lon": -77.03077983333333}, {"type": "electric_scooter", "rental_uris": {"android": "https://dc.lft.to/lastmile_qr_scan", "ios": "https://dc.lft.to/lastmile_qr_scan"}, "name": "c9c8b71174d96ee295dd174d34564971", "lat": 38.883638166666664, "is_reserved": 0, "fusion_lon": 0.0, "fusion_lat": 0.0, "is_disabled": 0, "bike_id": "c9c8b71174d96ee295dd174d34564971", "lon": -76.99488966666667}, {"type": "electric_scooter", "rental_uris": {"android": "https://dc.lft.to/lastmile_qr_scan", "ios": "https://dc.lft.to/lastmile_qr_scan"}, "name": "1eb637454f29e491b0b100c512fa5b4e", "lat": 38.9073285, "is_reserved": 0, "fusion_lon": 0.0, "fusion_lat": 0.0, "is_disabled": 0, "bike_id": "1eb637454f29e491b0b100c512fa5b4e", "lon": -77.04352133333333}, {"type": "electric_bike", "rental_uris": {"android": "https://dc.lft.to/lastmile_qr_scan", "ios": "https://dc.lft.to/lastmile_qr_scan"}, "name": "53a56beaabaea697a68df3369f062928", "lat": 38.860148333333335, "is_reserved": 0, "fusion_lon": 0.0, "fusion_lat": 0.0, "is_disabled": 0, "bike_id": "53a56beaabaea697a68df3369f062928", "lon": -77.06526566666666}, {"type": "electric_scooter", "rental_uris": {"android": "https://dc.lft.to/lastmile_qr_scan", "ios": "https://dc.lft.to/lastmile_qr_scan"}, "name": "b489d3a6055c95b0f3c0ceeb24b09bea", "lat": 38.899314, "is_reserved": 0, "fusion_lon": 0.0, "fusion_lat": 0.0, "is_disabled": 0, "bike_id": "b489d3a6055c95b0f3c0ceeb24b09bea", "lon": -77.03189133333333}, {"type": "electric_scooter", "rental_uris": {"android": "https://dc.lft.to/lastmile_qr_scan", "ios": "https://dc.lft.to/lastmile_qr_scan"}, "name": "fb061ec6e4b3ec13f41c6805da7f4eef", "lat": 38.903707833333335, "is_reserved": 0, "fusion_lon": 0.0, "fusion_lat": 0.0, "is_disabled": 0, "bike_id": "fb061ec6e4b3ec13f41c6805da7f4eef", "lon": -77.03219466666667}, {"type": "electric_scooter", "rental_uris": {"android": "https://dc.lft.to/lastmile_qr_scan", "ios": "https://dc.lft.to/lastmile_qr_scan"}, "name": "3b2caf52f35900ae837b5a91be3bcdae", "lat": 38.87857116666667, "is_reserved": 0, "fusion_lon": 0.0, "fusion_lat": 0.0, "is_disabled": 0, "bike_id": "3b2caf52f35900ae837b5a91be3bcdae", "lon": -77.02227666666667}, {"type": "electric_scooter", "rental_uris": {"android": "https://dc.lft.to/lastmile_qr_scan", "ios": "https://dc.lft.to/lastmile_qr_scan"}, "name": "af6df3a5924af41702b1ae393e10b75d", "lat": 38.89215883333333, "is_reserved": 0, "fusion_lon": 0.0, "fusion_lat": 0.0, "is_disabled": 0, "bike_id": "af6df3a5924af41702b1ae393e10b75d", "lon": -77.0319465}, {"type": "electric_scooter", "rental_uris": {"android": "https://dc.lft.to/lastmile_qr_scan", "ios": "https://dc.lft.to/lastmile_qr_scan"}, "name": "feffb3511017c72e12b7ee6bd54ee815", "lat": 38.87341466666667, "is_reserved": 0, "fusion_lon": 0.0, "fusion_lat": 0.0, "is_disabled": 0, "bike_id": "feffb3511017c72e12b7ee6bd54ee815", "lon": -76.991655}, {"type": "electric_scooter", "rental_uris": {"android": "https://dc.lft.to/lastmile_qr_scan", "ios": "https://dc.lft.to/lastmile_qr_scan"}, "name": "9fd5fa888e6e6480dec40ff55f26fd02", "lat": 38.905615166666664, "is_reserved": 0, "fusion_lon": 0.0, "fusion_lat": 0.0, "is_disabled": 0, "bike_id": "9fd5fa888e6e6480dec40ff55f26fd02", "lon": -77.005943}, {"type": "electric_scooter", "rental_uris": {"android": "https://dc.lft.to/lastmile_qr_scan", "ios": "https://dc.lft.to/lastmile_qr_scan"}, "name": "1ccbd76489b3114a2d58e973c7ad3010", "lat": 38.89425083333333, "is_reserved": 0, "fusion_lon": 0.0, "fusion_lat": 0.0, "is_disabled": 0, "bike_id": "1ccbd76489b3114a2d58e973c7ad3010", "lon": -77.0209275}, {"type": "electric_scooter", "rental_uris": {"android": "https://dc.lft.to/lastmile_qr_scan", "ios": "https://dc.lft.to/lastmile_qr_scan"}, "name": "9dd2f55253738553c8492ff262d6b2f0", "lat": 38.915637, "is_reserved": 0, "fusion_lon": 0.0, "fusion_lat": 0.0, "is_disabled": 0, "bike_id": "9dd2f55253738553c8492ff262d6b2f0", "lon": -77.03254633333333}, {"type": "electric_scooter", "rental_uris": {"android": "https://dc.lft.to/lastmile_qr_scan", "ios": "https://dc.lft.to/lastmile_qr_scan"}, "name": "d7eca7e9bbe0d1318d40d166dbd24cf5", "lat": 38.887241833333334, "is_reserved": 0, "fusion_lon": 0.0, "fusion_lat": 0.0, "is_disabled": 0, "bike_id": "d7eca7e9bbe0d1318d40d166dbd24cf5", "lon": -76.98355816666667}, {"type": "electric_scooter", "rental_uris": {"android": "https://dc.lft.to/lastmile_qr_scan", "ios": "https://dc.lft.to/lastmile_qr_scan"}, "name": "49f6f261826b889b26683229b7a798b9", "lat": 38.92480416666667, "is_reserved": 0, "fusion_lon": 0.0, "fusion_lat": 0.0, "is_disabled": 0, "bike_id": "49f6f261826b889b26683229b7a798b9", "lon": -77.03099083333333}, {"type": "electric_scooter", "rental_uris": {"android": "https://dc.lft.to/lastmile_qr_scan", "ios": "https://dc.lft.to/lastmile_qr_scan"}, "name": "c1597526f1e4e057bd871b506635e4fa", "lat": 38.91563516666667, "is_reserved": 0, "fusion_lon": 0.0, "fusion_lat": 0.0, "is_disabled": 0, "bike_id": "c1597526f1e4e057bd871b506635e4fa", "lon": -77.04623283333333}, {"type": "electric_scooter", "rental_uris": {"android": "https://dc.lft.to/lastmile_qr_scan", "ios": "https://dc.lft.to/lastmile_qr_scan"}, "name": "506551c07e4468ece1f9ec16021d1494", "lat": 38.90390133333333, "is_reserved": 0, "fusion_lon": 0.0, "fusion_lat": 0.0, "is_disabled": 0, "bike_id": "506551c07e4468ece1f9ec16021d1494", "lon": -76.98098933333333}, {"type": "electric_scooter", "rental_uris": {"android": "https://dc.lft.to/lastmile_qr_scan", "ios": "https://dc.lft.to/lastmile_qr_scan"}, "name": "c3b79f5b0a47f2caa43c5118b9994ef6", "lat": 38.89323616666667, "is_reserved": 0, "fusion_lon": 0.0, "fusion_lat": 0.0, "is_disabled": 0, "bike_id": "c3b79f5b0a47f2caa43c5118b9994ef6", "lon": -77.046764}, {"type": "electric_scooter", "rental_uris": {"android": "https://dc.lft.to/lastmile_qr_scan", "ios": "https://dc.lft.to/lastmile_qr_scan"}, "name": "2117829abe47390791a119351d10459b", "lat": 38.88621666666667, "is_reserved": 0, "fusion_lon": 0.0, "fusion_lat": 0.0, "is_disabled": 0, "bike_id": "2117829abe47390791a119351d10459b", "lon": -77.03172766666667}, {"type": "electric_scooter", "rental_uris": {"android": "https://dc.lft.to/lastmile_qr_scan", "ios": "https://dc.lft.to/lastmile_qr_scan"}, "name": "5a8a86f55f97ca71ae7d080525ce436d", "lat": 38.895069, "is_reserved": 0, "fusion_lon": 0.0, "fusion_lat": 0.0, "is_disabled": 0, "bike_id": "5a8a86f55f97ca71ae7d080525ce436d", "lon": -77.02285683333334}, {"type": "electric_scooter", "rental_uris": {"android": "https://dc.lft.to/lastmile_qr_scan", "ios": "https://dc.lft.to/lastmile_qr_scan"}, "name": "587067a7e3da09e22c87fe9f32908867", "lat": 38.9090075, "is_reserved": 0, "fusion_lon": 0.0, "fusion_lat": 0.0, "is_disabled": 0, "bike_id": "587067a7e3da09e22c87fe9f32908867", "lon": -76.983889}, {"type": "electric_scooter", "rental_uris": {"android": "https://dc.lft.to/lastmile_qr_scan", "ios": "https://dc.lft.to/lastmile_qr_scan"}, "name": "ba99aa86f9059db8f3783dd3d9d7d73c", "lat": 38.945651, "is_reserved": 0, "fusion_lon": 0.0, "fusion_lat": 0.0, "is_disabled": 0, "bike_id": "ba99aa86f9059db8f3783dd3d9d7d73c", "lon": -77.07962433333333}, {"type": "electric_scooter", "rental_uris": {"android": "https://dc.lft.to/lastmile_qr_scan", "ios": "https://dc.lft.to/lastmile_qr_scan"}, "name": "0cf23b1fa6a60c910e9c8676860da89a", "lat": 38.8975705, "is_reserved": 0, "fusion_lon": 0.0, "fusion_lat": 0.0, "is_disabled": 0, "bike_id": "0cf23b1fa6a60c910e9c8676860da89a", "lon": -77.02684633333334}, {"type": "electric_bike", "rental_uris": {"android": "https://dc.lft.to/lastmile_qr_scan", "ios": "https://dc.lft.to/lastmile_qr_scan"}, "name": "e0bca507bb79323ce4b562b4f6e028c8", "lat": 38.783943, "is_reserved": 0, "fusion_lon": 0.0, "fusion_lat": 0.0, "is_disabled": 0, "bike_id": "e0bca507bb79323ce4b562b4f6e028c8", "lon": -77.12087266666667}, {"type": "electric_scooter", "rental_uris": {"android": "https://dc.lft.to/lastmile_qr_scan", "ios": "https://dc.lft.to/lastmile_qr_scan"}, "name": "76d9dab80db87b27541b33019a727d34", "lat": 38.916932833333334, "is_reserved": 0, "fusion_lon": 0.0, "fusion_lat": 0.0, "is_disabled": 0, "bike_id": "76d9dab80db87b27541b33019a727d34", "lon": -77.0259845}, {"type": "electric_scooter", "rental_uris": {"android": "https://dc.lft.to/lastmile_qr_scan", "ios": "https://dc.lft.to/lastmile_qr_scan"}, "name": "26160e5663b7ae65f8677f700ca40b33", "lat": 38.89849566666667, "is_reserved": 0, "fusion_lon": 0.0, "fusion_lat": 0.0, "is_disabled": 0, "bike_id": "26160e5663b7ae65f8677f700ca40b33", "lon": -77.02886783333334}, {"type": "electric_scooter", "rental_uris": {"android": "https://dc.lft.to/lastmile_qr_scan", "ios": "https://dc.lft.to/lastmile_qr_scan"}, "name": "f54e5738c412bd294dbc44c7e40677c3", "lat": 38.92472566666667, "is_reserved": 0, "fusion_lon": 0.0, "fusion_lat": 0.0, "is_disabled": 0, "bike_id": "f54e5738c412bd294dbc44c7e40677c3", "lon": -77.02224533333333}, {"type": "electric_scooter", "rental_uris": {"android": "https://dc.lft.to/lastmile_qr_scan", "ios": "https://dc.lft.to/lastmile_qr_scan"}, "name": "11e4675ab694a818ae09fe7f0b0c4b8c", "lat": 38.927921166666664, "is_reserved": 0, "fusion_lon": 0.0, "fusion_lat": 0.0, "is_disabled": 0, "bike_id": "11e4675ab694a818ae09fe7f0b0c4b8c", "lon": -77.031492}, {"type": "electric_scooter", "rental_uris": {"android": "https://dc.lft.to/lastmile_qr_scan", "ios": "https://dc.lft.to/lastmile_qr_scan"}, "name": "0f0d1d0ce14ca90512c4520a9d77f234", "lat": 38.883227166666664, "is_reserved": 0, "fusion_lon": 0.0, "fusion_lat": 0.0, "is_disabled": 0, "bike_id": "0f0d1d0ce14ca90512c4520a9d77f234", "lon": -77.00954433333334}, {"type": "electric_scooter", "rental_uris": {"android": "https://dc.lft.to/lastmile_qr_scan", "ios": "https://dc.lft.to/lastmile_qr_scan"}, "name": "96299405170750e7d24210a0df68daa0", "lat": 38.89739216666667, "is_reserved": 0, "fusion_lon": 0.0, "fusion_lat": 0.0, "is_disabled": 0, "bike_id": "96299405170750e7d24210a0df68daa0", "lon": -77.01385183333333}, {"type": "electric_scooter", "rental_uris": {"android": "https://dc.lft.to/lastmile_qr_scan", "ios": "https://dc.lft.to/lastmile_qr_scan"}, "name": "8be923529dc69058dce53224339ec699", "lat": 38.901865, "is_reserved": 0, "fusion_lon": 0.0, "fusion_lat": 0.0, "is_disabled": 0, "bike_id": "8be923529dc69058dce53224339ec699", "lon": -77.0012045}, {"type": "electric_bike", "rental_uris": {"android": "https://dc.lft.to/lastmile_qr_scan", "ios": "https://dc.lft.to/lastmile_qr_scan"}, "name": "56ce3363297c72d30c15ac5d6f3bba7d", "lat": 38.988382666666666, "is_reserved": 0, "fusion_lon": 0.0, "fusion_lat": 0.0, "is_disabled": 0, "bike_id": "56ce3363297c72d30c15ac5d6f3bba7d", "lon": -77.026523}, {"type": "electric_scooter", "rental_uris": {"android": "https://dc.lft.to/lastmile_qr_scan", "ios": "https://dc.lft.to/lastmile_qr_scan"}, "name": "ae6d22870d0d493dc2fed8e36c13bae7", "lat": 38.89356433333333, "is_reserved": 0, "fusion_lon": 0.0, "fusion_lat": 0.0, "is_disabled": 0, "bike_id": "ae6d22870d0d493dc2fed8e36c13bae7", "lon": -77.003384}, {"type": "electric_scooter", "rental_uris": {"android": "https://dc.lft.to/lastmile_qr_scan", "ios": "https://dc.lft.to/lastmile_qr_scan"}, "name": "960891efa7405218abb34a008aea5110", "lat": 38.902621, "is_reserved": 0, "fusion_lon": 0.0, "fusion_lat": 0.0, "is_disabled": 0, "bike_id": "960891efa7405218abb34a008aea5110", "lon": -77.0300055}, {"type": "electric_scooter", "rental_uris": {"android": "https://dc.lft.to/lastmile_qr_scan", "ios": "https://dc.lft.to/lastmile_qr_scan"}, "name": "c66c10c105c99a1e60762a4202f37f8a", "lat": 38.92612316666667, "is_reserved": 0, "fusion_lon": 0.0, "fusion_lat": 0.0, "is_disabled": 0, "bike_id": "c66c10c105c99a1e60762a4202f37f8a", "lon": -77.0215795}, {"type": "electric_scooter", "rental_uris": {"android": "https://dc.lft.to/lastmile_qr_scan", "ios": "https://dc.lft.to/lastmile_qr_scan"}, "name": "3946b899557a9acffbe1958dd1ccc1a2", "lat": 38.908294833333336, "is_reserved": 0, "fusion_lon": 0.0, "fusion_lat": 0.0, "is_disabled": 0, "bike_id": "3946b899557a9acffbe1958dd1ccc1a2", "lon": -76.99678083333333}, {"type": "electric_bike", "rental_uris": {"android": "https://dc.lft.to/lastmile_qr_scan", "ios": "https://dc.lft.to/lastmile_qr_scan"}, "name": "6ef3cb49f62943aab6adac59f4736699", "lat": 38.910557, "is_reserved": 0, "fusion_lon": 0.0, "fusion_lat": 0.0, "is_disabled": 0, "bike_id": "6ef3cb49f62943aab6adac59f4736699", "lon": -77.05219183333334}, {"type": "electric_scooter", "rental_uris": {"android": "https://dc.lft.to/lastmile_qr_scan", "ios": "https://dc.lft.to/lastmile_qr_scan"}, "name": "ad279e54437fbe2bb228f31336526d5f", "lat": 38.9073055, "is_reserved": 0, "fusion_lon": 0.0, "fusion_lat": 0.0, "is_disabled": 0, "bike_id": "ad279e54437fbe2bb228f31336526d5f", "lon": -77.0415635}, {"type": "electric_scooter", "rental_uris": {"android": "https://dc.lft.to/lastmile_qr_scan", "ios": "https://dc.lft.to/lastmile_qr_scan"}, "name": "27fb225be28bf90532879a6c4eb951b0", "lat": 38.89845016666666, "is_reserved": 0, "fusion_lon": 0.0, "fusion_lat": 0.0, "is_disabled": 0, "bike_id": "27fb225be28bf90532879a6c4eb951b0", "lon": -77.04936666666667}, {"type": "electric_scooter", "rental_uris": {"android": "https://dc.lft.to/lastmile_qr_scan", "ios": "https://dc.lft.to/lastmile_qr_scan"}, "name": "a360cac6cb0c1e741b0ab0a6606abb87", "lat": 38.909047666666666, "is_reserved": 0, "fusion_lon": 0.0, "fusion_lat": 0.0, "is_disabled": 0, "bike_id": "a360cac6cb0c1e741b0ab0a6606abb87", "lon": -77.07273433333333}, {"type": "electric_scooter", "rental_uris": {"android": "https://dc.lft.to/lastmile_qr_scan", "ios": "https://dc.lft.to/lastmile_qr_scan"}, "name": "5d8c8daf124d920e6c0d985435f6d853", "lat": 38.891714666666665, "is_reserved": 0, "fusion_lon": 0.0, "fusion_lat": 0.0, "is_disabled": 0, "bike_id": "5d8c8daf124d920e6c0d985435f6d853", "lon": -77.015497}, {"type": "electric_scooter", "rental_uris": {"android": "https://dc.lft.to/lastmile_qr_scan", "ios": "https://dc.lft.to/lastmile_qr_scan"}, "name": "3ed9698947cc0f571505c0dca826a169", "lat": 38.899774, "is_reserved": 0, "fusion_lon": 0.0, "fusion_lat": 0.0, "is_disabled": 0, "bike_id": "3ed9698947cc0f571505c0dca826a169", "lon": -77.03377033333334}, {"type": "electric_scooter", "rental_uris": {"android": "https://dc.lft.to/lastmile_qr_scan", "ios": "https://dc.lft.to/lastmile_qr_scan"}, "name": "7143b24a722021d08c5b5b7fa5dbe418", "lat": 38.8939905, "is_reserved": 0, "fusion_lon": 0.0, "fusion_lat": 0.0, "is_disabled": 0, "bike_id": "7143b24a722021d08c5b5b7fa5dbe418", "lon": -77.02313366666667}, {"type": "electric_scooter", "rental_uris": {"android": "https://dc.lft.to/lastmile_qr_scan", "ios": "https://dc.lft.to/lastmile_qr_scan"}, "name": "f6080a2808c28a15c6fe284d67062ef2", "lat": 38.905574333333334, "is_reserved": 0, "fusion_lon": 0.0, "fusion_lat": 0.0, "is_disabled": 0, "bike_id": "f6080a2808c28a15c6fe284d67062ef2", "lon": -77.03415133333333}, {"type": "electric_scooter", "rental_uris": {"android": "https://dc.lft.to/lastmile_qr_scan", "ios": "https://dc.lft.to/lastmile_qr_scan"}, "name": "2d2870a3d52c5197ad4b2a83a002df88", "lat": 38.9037375, "is_reserved": 0, "fusion_lon": 0.0, "fusion_lat": 0.0, "is_disabled": 0, "bike_id": "2d2870a3d52c5197ad4b2a83a002df88", "lon": -77.032004}, {"type": "electric_scooter", "rental_uris": {"android": "https://dc.lft.to/lastmile_qr_scan", "ios": "https://dc.lft.to/lastmile_qr_scan"}, "name": "814305325c96eb6f8b929705d3d452e9", "lat": 38.90373, "is_reserved": 0, "fusion_lon": 0.0, "fusion_lat": 0.0, "is_disabled": 0, "bike_id": "814305325c96eb6f8b929705d3d452e9", "lon": -77.03327533333334}, {"type": "electric_scooter", "rental_uris": {"android": "https://dc.lft.to/lastmile_qr_scan", "ios": "https://dc.lft.to/lastmile_qr_scan"}, "name": "bdd08375f42027e1797ed57975a3ea09", "lat": 38.88064716666667, "is_reserved": 0, "fusion_lon": 0.0, "fusion_lat": 0.0, "is_disabled": 0, "bike_id": "bdd08375f42027e1797ed57975a3ea09", "lon": -77.02557483333334}, {"type": "electric_scooter", "rental_uris": {"android": "https://dc.lft.to/lastmile_qr_scan", "ios": "https://dc.lft.to/lastmile_qr_scan"}, "name": "21a7b956f67a524fdc148517f2bb6806", "lat": 38.902794166666666, "is_reserved": 0, "fusion_lon": 0.0, "fusion_lat": 0.0, "is_disabled": 0, "bike_id": "21a7b956f67a524fdc148517f2bb6806", "lon": -77.033631}, {"type": "electric_scooter", "rental_uris": {"android": "https://dc.lft.to/lastmile_qr_scan", "ios": "https://dc.lft.to/lastmile_qr_scan"}, "name": "4705efa2b443ed44d25340f6e6a1a135", "lat": 38.916280666666665, "is_reserved": 0, "fusion_lon": 0.0, "fusion_lat": 0.0, "is_disabled": 0, "bike_id": "4705efa2b443ed44d25340f6e6a1a135", "lon": -77.02251183333334}, {"type": "electric_bike", "rental_uris": {"android": "https://dc.lft.to/lastmile_qr_scan", "ios": "https://dc.lft.to/lastmile_qr_scan"}, "name": "0df0db271f645bdffb1e4d8f5cdf28d1", "lat": 38.87076233333333, "is_reserved": 0, "fusion_lon": 0.0, "fusion_lat": 0.0, "is_disabled": 0, "bike_id": "0df0db271f645bdffb1e4d8f5cdf28d1", "lon": -77.0120115}, {"type": "electric_bike", "rental_uris": {"android": "https://dc.lft.to/lastmile_qr_scan", "ios": "https://dc.lft.to/lastmile_qr_scan"}, "name": "83d994cf76f69192bcb93cb752f4145b", "lat": 38.9479685, "is_reserved": 0, "fusion_lon": 0.0, "fusion_lat": 0.0, "is_disabled": 0, "bike_id": "83d994cf76f69192bcb93cb752f4145b", "lon": -76.94248816666666}, {"type": "electric_scooter", "rental_uris": {"android": "https://dc.lft.to/lastmile_qr_scan", "ios": "https://dc.lft.to/lastmile_qr_scan"}, "name": "9a025d9382134c5ca542b34e0056724b", "lat": 38.895445333333335, "is_reserved": 0, "fusion_lon": 0.0, "fusion_lat": 0.0, "is_disabled": 0, "bike_id": "9a025d9382134c5ca542b34e0056724b", "lon": -76.98337116666667}, {"type": "electric_scooter", "rental_uris": {"android": "https://dc.lft.to/lastmile_qr_scan", "ios": "https://dc.lft.to/lastmile_qr_scan"}, "name": "f23466a1087c53b58dc45e2ddd291109", "lat": 38.922998, "is_reserved": 0, "fusion_lon": 0.0, "fusion_lat": 0.0, "is_disabled": 0, "bike_id": "f23466a1087c53b58dc45e2ddd291109", "lon": -77.041448}, {"type": "electric_scooter", "rental_uris": {"android": "https://dc.lft.to/lastmile_qr_scan", "ios": "https://dc.lft.to/lastmile_qr_scan"}, "name": "d3480f502729c75ed5544704edafea2c", "lat": 38.917086, "is_reserved": 0, "fusion_lon": 0.0, "fusion_lat": 0.0, "is_disabled": 0, "bike_id": "d3480f502729c75ed5544704edafea2c", "lon": -77.0313335}, {"type": "electric_scooter", "rental_uris": {"android": "https://dc.lft.to/lastmile_qr_scan", "ios": "https://dc.lft.to/lastmile_qr_scan"}, "name": "43bc350062d3eabcb0a4308e696c10b2", "lat": 38.91977, "is_reserved": 0, "fusion_lon": 0.0, "fusion_lat": 0.0, "is_disabled": 0, "bike_id": "43bc350062d3eabcb0a4308e696c10b2", "lon": -77.01799183333334}, {"type": "electric_scooter", "rental_uris": {"android": "https://dc.lft.to/lastmile_qr_scan", "ios": "https://dc.lft.to/lastmile_qr_scan"}, "name": "cc4edfe39e4866028a87d5aea236b7ee", "lat": 38.87672333333333, "is_reserved": 0, "fusion_lon": 0.0, "fusion_lat": 0.0, "is_disabled": 0, "bike_id": "cc4edfe39e4866028a87d5aea236b7ee", "lon": -76.99608116666667}, {"type": "electric_bike", "rental_uris": {"android": "https://dc.lft.to/lastmile_qr_scan", "ios": "https://dc.lft.to/lastmile_qr_scan"}, "name": "5c4460da7ea69a1993403e1168f4493c", "lat": 38.805641333333334, "is_reserved": 0, "fusion_lon": 0.0, "fusion_lat": 0.0, "is_disabled": 0, "bike_id": "5c4460da7ea69a1993403e1168f4493c", "lon": -77.1322605}, {"type": "electric_scooter", "rental_uris": {"android": "https://dc.lft.to/lastmile_qr_scan", "ios": "https://dc.lft.to/lastmile_qr_scan"}, "name": "02cbaf7b3968cc145c66e6e62835d554", "lat": 38.8942675, "is_reserved": 0, "fusion_lon": 0.0, "fusion_lat": 0.0, "is_disabled": 0, "bike_id": "02cbaf7b3968cc145c66e6e62835d554", "lon": -76.99775816666667}, {"type": "electric_scooter", "rental_uris": {"android": "https://dc.lft.to/lastmile_qr_scan", "ios": "https://dc.lft.to/lastmile_qr_scan"}, "name": "5ec391b59be91550a10e38a2b4ede4e6", "lat": 38.876519, "is_reserved": 0, "fusion_lon": 0.0, "fusion_lat": 0.0, "is_disabled": 0, "bike_id": "5ec391b59be91550a10e38a2b4ede4e6", "lon": -77.00263383333333}, {"type": "electric_scooter", "rental_uris": {"android": "https://dc.lft.to/lastmile_qr_scan", "ios": "https://dc.lft.to/lastmile_qr_scan"}, "name": "6b95b12c4ee2683e09b6b4ff719d7977", "lat": 38.900287666666664, "is_reserved": 0, "fusion_lon": 0.0, "fusion_lat": 0.0, "is_disabled": 0, "bike_id": "6b95b12c4ee2683e09b6b4ff719d7977", "lon": -77.023813}, {"type": "electric_scooter", "rental_uris": {"android": "https://dc.lft.to/lastmile_qr_scan", "ios": "https://dc.lft.to/lastmile_qr_scan"}, "name": "04b8de1ca50e6e70342b0a1f640015d9", "lat": 38.882178833333334, "is_reserved": 0, "fusion_lon": 0.0, "fusion_lat": 0.0, "is_disabled": 0, "bike_id": "04b8de1ca50e6e70342b0a1f640015d9", "lon": -76.93923783333334}, {"type": "electric_scooter", "rental_uris": {"android": "https://dc.lft.to/lastmile_qr_scan", "ios": "https://dc.lft.to/lastmile_qr_scan"}, "name": "339bf4ad058ab479e0278e037fd47b70", "lat": 38.89217433333334, "is_reserved": 0, "fusion_lon": 0.0, "fusion_lat": 0.0, "is_disabled": 0, "bike_id": "339bf4ad058ab479e0278e037fd47b70", "lon": -77.04367916666666}, {"type": "electric_scooter", "rental_uris": {"android": "https://dc.lft.to/lastmile_qr_scan", "ios": "https://dc.lft.to/lastmile_qr_scan"}, "name": "c4d819d9157761edef69c205c2170a5c", "lat": 38.94302666666667, "is_reserved": 0, "fusion_lon": 0.0, "fusion_lat": 0.0, "is_disabled": 0, "bike_id": "c4d819d9157761edef69c205c2170a5c", "lon": -77.03455266666667}, {"type": "electric_bike", "rental_uris": {"android": "https://dc.lft.to/lastmile_qr_scan", "ios": "https://dc.lft.to/lastmile_qr_scan"}, "name": "fa1ab8c79c390d23a5c6e17307d8f5f8", "lat": 39.038123, "is_reserved": 0, "fusion_lon": 0.0, "fusion_lat": 0.0, "is_disabled": 0, "bike_id": "fa1ab8c79c390d23a5c6e17307d8f5f8", "lon": -77.0422325}, {"type": "electric_scooter", "rental_uris": {"android": "https://dc.lft.to/lastmile_qr_scan", "ios": "https://dc.lft.to/lastmile_qr_scan"}, "name": "0ea2052b29edebade8d24111b17a561e", "lat": 38.905528333333336, "is_reserved": 0, "fusion_lon": 0.0, "fusion_lat": 0.0, "is_disabled": 0, "bike_id": "0ea2052b29edebade8d24111b17a561e", "lon": -77.0358745}, {"type": "electric_scooter", "rental_uris": {"android": "https://dc.lft.to/lastmile_qr_scan", "ios": "https://dc.lft.to/lastmile_qr_scan"}, "name": "a10738c29e56a9b29eba68c73c5726eb", "lat": 38.902431666666665, "is_reserved": 0, "fusion_lon": 0.0, "fusion_lat": 0.0, "is_disabled": 0, "bike_id": "a10738c29e56a9b29eba68c73c5726eb", "lon": -76.974101}, {"type": "electric_scooter", "rental_uris": {"android": "https://dc.lft.to/lastmile_qr_scan", "ios": "https://dc.lft.to/lastmile_qr_scan"}, "name": "1b061b340571fffd1d33efb1474f9de1", "lat": 38.9228375, "is_reserved": 0, "fusion_lon": 0.0, "fusion_lat": 0.0, "is_disabled": 0, "bike_id": "1b061b340571fffd1d33efb1474f9de1", "lon": -77.0424165}, {"type": "electric_scooter", "rental_uris": {"android": "https://dc.lft.to/lastmile_qr_scan", "ios": "https://dc.lft.to/lastmile_qr_scan"}, "name": "1295e7a51eb66abe85e93395e497e644", "lat": 38.901992666666665, "is_reserved": 0, "fusion_lon": 0.0, "fusion_lat": 0.0, "is_disabled": 0, "bike_id": "1295e7a51eb66abe85e93395e497e644", "lon": -77.02524166666667}, {"type": "electric_scooter", "rental_uris": {"android": "https://dc.lft.to/lastmile_qr_scan", "ios": "https://dc.lft.to/lastmile_qr_scan"}, "name": "fe26d48d938bfd9a87b9de156b332895", "lat": 38.9149055, "is_reserved": 0, "fusion_lon": 0.0, "fusion_lat": 0.0, "is_disabled": 0, "bike_id": "fe26d48d938bfd9a87b9de156b332895", "lon": -77.04482383333334}, {"type": "electric_scooter", "rental_uris": {"android": "https://dc.lft.to/lastmile_qr_scan", "ios": "https://dc.lft.to/lastmile_qr_scan"}, "name": "c8dcc3ca8a2d19c5ebfab56e103af73c", "lat": 38.89608616666666, "is_reserved": 0, "fusion_lon": 0.0, "fusion_lat": 0.0, "is_disabled": 0, "bike_id": "c8dcc3ca8a2d19c5ebfab56e103af73c", "lon": -77.04601783333334}, {"type": "electric_scooter", "rental_uris": {"android": "https://dc.lft.to/lastmile_qr_scan", "ios": "https://dc.lft.to/lastmile_qr_scan"}, "name": "4e76887cb59ecc7374ff3aae2e37b78b", "lat": 38.9279605, "is_reserved": 0, "fusion_lon": 0.0, "fusion_lat": 0.0, "is_disabled": 0, "bike_id": "4e76887cb59ecc7374ff3aae2e37b78b", "lon": -77.02502516666667}, {"type": "electric_scooter", "rental_uris": {"android": "https://dc.lft.to/lastmile_qr_scan", "ios": "https://dc.lft.to/lastmile_qr_scan"}, "name": "d0e08ec4a3d65a09830fffca9cb8582f", "lat": 38.902655833333334, "is_reserved": 0, "fusion_lon": 0.0, "fusion_lat": 0.0, "is_disabled": 0, "bike_id": "d0e08ec4a3d65a09830fffca9cb8582f", "lon": -77.03975366666667}, {"type": "electric_scooter", "rental_uris": {"android": "https://dc.lft.to/lastmile_qr_scan", "ios": "https://dc.lft.to/lastmile_qr_scan"}, "name": "37f6668d809592908e3e253d51f0d49d", "lat": 38.90374816666667, "is_reserved": 0, "fusion_lon": 0.0, "fusion_lat": 0.0, "is_disabled": 0, "bike_id": "37f6668d809592908e3e253d51f0d49d", "lon": -77.03850366666667}, {"type": "electric_scooter", "rental_uris": {"android": "https://dc.lft.to/lastmile_qr_scan", "ios": "https://dc.lft.to/lastmile_qr_scan"}, "name": "8866e3c8a86eab6e1171f483a84b2d4d", "lat": 38.89502316666667, "is_reserved": 0, "fusion_lon": 0.0, "fusion_lat": 0.0, "is_disabled": 0, "bike_id": "8866e3c8a86eab6e1171f483a84b2d4d", "lon": -77.04642016666666}, {"type": "electric_scooter", "rental_uris": {"android": "https://dc.lft.to/lastmile_qr_scan", "ios": "https://dc.lft.to/lastmile_qr_scan"}, "name": "1e77efec48f2d346cdf0fe02e0519201", "lat": 38.89522933333333, "is_reserved": 0, "fusion_lon": 0.0, "fusion_lat": 0.0, "is_disabled": 0, "bike_id": "1e77efec48f2d346cdf0fe02e0519201", "lon": -77.0119295}, {"type": "electric_scooter", "rental_uris": {"android": "https://dc.lft.to/lastmile_qr_scan", "ios": "https://dc.lft.to/lastmile_qr_scan"}, "name": "dc9953fd22d9547353826b1144e09f38", "lat": 38.92419566666667, "is_reserved": 0, "fusion_lon": 0.0, "fusion_lat": 0.0, "is_disabled": 0, "bike_id": "dc9953fd22d9547353826b1144e09f38", "lon": -77.01945083333334}, {"type": "electric_bike", "rental_uris": {"android": "https://dc.lft.to/lastmile_qr_scan", "ios": "https://dc.lft.to/lastmile_qr_scan"}, "name": "7b31201e4c0e40acdb3e1d7218f87bcd", "lat": 38.857829833333334, "is_reserved": 0, "fusion_lon": 0.0, "fusion_lat": 0.0, "is_disabled": 0, "bike_id": "7b31201e4c0e40acdb3e1d7218f87bcd", "lon": -76.98755116666666}, {"type": "electric_bike", "rental_uris": {"android": "https://dc.lft.to/lastmile_qr_scan", "ios": "https://dc.lft.to/lastmile_qr_scan"}, "name": "f5b6ccef8e027f98c56a81c4205c1d82", "lat": 38.893509, "is_reserved": 0, "fusion_lon": 0.0, "fusion_lat": 0.0, "is_disabled": 0, "bike_id": "f5b6ccef8e027f98c56a81c4205c1d82", "lon": -76.9925665}, {"type": "electric_scooter", "rental_uris": {"android": "https://dc.lft.to/lastmile_qr_scan", "ios": "https://dc.lft.to/lastmile_qr_scan"}, "name": "c55bae844ffe35704fb2fe55db4a0c95", "lat": 38.92876166666667, "is_reserved": 0, "fusion_lon": 0.0, "fusion_lat": 0.0, "is_disabled": 0, "bike_id": "c55bae844ffe35704fb2fe55db4a0c95", "lon": -77.01231816666666}, {"type": "electric_scooter", "rental_uris": {"android": "https://dc.lft.to/lastmile_qr_scan", "ios": "https://dc.lft.to/lastmile_qr_scan"}, "name": "c96f44fc9c0a8c29ba080a57ea171088", "lat": 38.906999166666665, "is_reserved": 0, "fusion_lon": 0.0, "fusion_lat": 0.0, "is_disabled": 0, "bike_id": "c96f44fc9c0a8c29ba080a57ea171088", "lon": -77.0269325}, {"type": "electric_scooter", "rental_uris": {"android": "https://dc.lft.to/lastmile_qr_scan", "ios": "https://dc.lft.to/lastmile_qr_scan"}, "name": "5efb2a83aa74c7a5c65f884dd9db83ec", "lat": 38.930864, "is_reserved": 0, "fusion_lon": 0.0, "fusion_lat": 0.0, "is_disabled": 0, "bike_id": "5efb2a83aa74c7a5c65f884dd9db83ec", "lon": -77.0308885}, {"type": "electric_scooter", "rental_uris": {"android": "https://dc.lft.to/lastmile_qr_scan", "ios": "https://dc.lft.to/lastmile_qr_scan"}, "name": "644a28f95c54a2b27818ea4995995dcc", "lat": 38.91368683333334, "is_reserved": 0, "fusion_lon": 0.0, "fusion_lat": 0.0, "is_disabled": 0, "bike_id": "644a28f95c54a2b27818ea4995995dcc", "lon": -77.04652716666666}, {"type": "electric_scooter", "rental_uris": {"android": "https://dc.lft.to/lastmile_qr_scan", "ios": "https://dc.lft.to/lastmile_qr_scan"}, "name": "3fc9bdc693481d0da49c69f1f2aa1f34", "lat": 38.876507833333335, "is_reserved": 0, "fusion_lon": 0.0, "fusion_lat": 0.0, "is_disabled": 0, "bike_id": "3fc9bdc693481d0da49c69f1f2aa1f34", "lon": -77.00822333333333}, {"type": "electric_scooter", "rental_uris": {"android": "https://dc.lft.to/lastmile_qr_scan", "ios": "https://dc.lft.to/lastmile_qr_scan"}, "name": "fc3b67a68e2ca3a22549a534a2e78bd7", "lat": 38.87556383333333, "is_reserved": 0, "fusion_lon": 0.0, "fusion_lat": 0.0, "is_disabled": 0, "bike_id": "fc3b67a68e2ca3a22549a534a2e78bd7", "lon": -77.00604083333333}, {"type": "electric_scooter", "rental_uris": {"android": "https://dc.lft.to/lastmile_qr_scan", "ios": "https://dc.lft.to/lastmile_qr_scan"}, "name": "8268f76263311e67b6dc74ce7c8519a1", "lat": 38.943143, "is_reserved": 0, "fusion_lon": 0.0, "fusion_lat": 0.0, "is_disabled": 0, "bike_id": "8268f76263311e67b6dc74ce7c8519a1", "lon": -77.0172505}, {"type": "electric_bike", "rental_uris": {"android": "https://dc.lft.to/lastmile_qr_scan", "ios": "https://dc.lft.to/lastmile_qr_scan"}, "name": "3fd54cbbaa030eb6275bc202b5d08208", "lat": 38.89848216666667, "is_reserved": 0, "fusion_lon": 0.0, "fusion_lat": 0.0, "is_disabled": 0, "bike_id": "3fd54cbbaa030eb6275bc202b5d08208", "lon": -77.039868}, {"type": "electric_scooter", "rental_uris": {"android": "https://dc.lft.to/lastmile_qr_scan", "ios": "https://dc.lft.to/lastmile_qr_scan"}, "name": "1f1b168ea3eb7d930cbc7243b7ee0922", "lat": 38.89980633333333, "is_reserved": 0, "fusion_lon": 0.0, "fusion_lat": 0.0, "is_disabled": 0, "bike_id": "1f1b168ea3eb7d930cbc7243b7ee0922", "lon": -77.025825}, {"type": "electric_scooter", "rental_uris": {"android": "https://dc.lft.to/lastmile_qr_scan", "ios": "https://dc.lft.to/lastmile_qr_scan"}, "name": "90fe6ecca42c6623a729c95ec79a5129", "lat": 38.95106783333333, "is_reserved": 0, "fusion_lon": 0.0, "fusion_lat": 0.0, "is_disabled": 0, "bike_id": "90fe6ecca42c6623a729c95ec79a5129", "lon": -77.013089}, {"type": "electric_scooter", "rental_uris": {"android": "https://dc.lft.to/lastmile_qr_scan", "ios": "https://dc.lft.to/lastmile_qr_scan"}, "name": "243a8ecbc84b41fbd05f40aa32a9f253", "lat": 38.906797833333336, "is_reserved": 0, "fusion_lon": 0.0, "fusion_lat": 0.0, "is_disabled": 0, "bike_id": "243a8ecbc84b41fbd05f40aa32a9f253", "lon": -77.03647016666666}, {"type": "electric_scooter", "rental_uris": {"android": "https://dc.lft.to/lastmile_qr_scan", "ios": "https://dc.lft.to/lastmile_qr_scan"}, "name": "8e865785bdb91cda2b75204bf98d6946", "lat": 38.90746, "is_reserved": 0, "fusion_lon": 0.0, "fusion_lat": 0.0, "is_disabled": 0, "bike_id": "8e865785bdb91cda2b75204bf98d6946", "lon": -77.04143033333334}, {"type": "electric_scooter", "rental_uris": {"android": "https://dc.lft.to/lastmile_qr_scan", "ios": "https://dc.lft.to/lastmile_qr_scan"}, "name": "d5c3e60e117d8d0e316f711a8ffcd902", "lat": 38.88744066666667, "is_reserved": 0, "fusion_lon": 0.0, "fusion_lat": 0.0, "is_disabled": 0, "bike_id": "d5c3e60e117d8d0e316f711a8ffcd902", "lon": -77.0257}, {"type": "electric_scooter", "rental_uris": {"android": "https://dc.lft.to/lastmile_qr_scan", "ios": "https://dc.lft.to/lastmile_qr_scan"}, "name": "af2c0f19955f69fec47b45517cfe9050", "lat": 38.919132833333336, "is_reserved": 0, "fusion_lon": 0.0, "fusion_lat": 0.0, "is_disabled": 0, "bike_id": "af2c0f19955f69fec47b45517cfe9050", "lon": -77.03219433333334}, {"type": "electric_scooter", "rental_uris": {"android": "https://dc.lft.to/lastmile_qr_scan", "ios": "https://dc.lft.to/lastmile_qr_scan"}, "name": "ae93922618200bb2224f1284c9a028d2", "lat": 38.92971933333333, "is_reserved": 0, "fusion_lon": 0.0, "fusion_lat": 0.0, "is_disabled": 0, "bike_id": "ae93922618200bb2224f1284c9a028d2", "lon": -77.03226633333334}, {"type": "electric_scooter", "rental_uris": {"android": "https://dc.lft.to/lastmile_qr_scan", "ios": "https://dc.lft.to/lastmile_qr_scan"}, "name": "28df0d58e93045a21ae351a694de12e2", "lat": 38.9067115, "is_reserved": 0, "fusion_lon": 0.0, "fusion_lat": 0.0, "is_disabled": 0, "bike_id": "28df0d58e93045a21ae351a694de12e2", "lon": -77.05011566666667}, {"type": "electric_scooter", "rental_uris": {"android": "https://dc.lft.to/lastmile_qr_scan", "ios": "https://dc.lft.to/lastmile_qr_scan"}, "name": "064ce44c953958b78ee9eb0bb7888fc2", "lat": 38.90367883333333, "is_reserved": 0, "fusion_lon": 0.0, "fusion_lat": 0.0, "is_disabled": 0, "bike_id": "064ce44c953958b78ee9eb0bb7888fc2", "lon": -77.04352516666667}, {"type": "electric_scooter", "rental_uris": {"android": "https://dc.lft.to/lastmile_qr_scan", "ios": "https://dc.lft.to/lastmile_qr_scan"}, "name": "b3d0afac5b32b6b7775ed39e47df37d3", "lat": 38.886767666666664, "is_reserved": 0, "fusion_lon": 0.0, "fusion_lat": 0.0, "is_disabled": 0, "bike_id": "b3d0afac5b32b6b7775ed39e47df37d3", "lon": -77.02613916666667}, {"type": "electric_scooter", "rental_uris": {"android": "https://dc.lft.to/lastmile_qr_scan", "ios": "https://dc.lft.to/lastmile_qr_scan"}, "name": "6743efab46f3e4cb7520e96f2ed68987", "lat": 38.89247783333333, "is_reserved": 0, "fusion_lon": 0.0, "fusion_lat": 0.0, "is_disabled": 0, "bike_id": "6743efab46f3e4cb7520e96f2ed68987", "lon": -77.02515533333333}, {"type": "electric_scooter", "rental_uris": {"android": "https://dc.lft.to/lastmile_qr_scan", "ios": "https://dc.lft.to/lastmile_qr_scan"}, "name": "5cafe70ad4b0a8ce0f8b82d353a86db0", "lat": 38.895328166666665, "is_reserved": 0, "fusion_lon": 0.0, "fusion_lat": 0.0, "is_disabled": 0, "bike_id": "5cafe70ad4b0a8ce0f8b82d353a86db0", "lon": -77.04472816666667}, {"type": "electric_bike", "rental_uris": {"android": "https://dc.lft.to/lastmile_qr_scan", "ios": "https://dc.lft.to/lastmile_qr_scan"}, "name": "d233e45a323a714243ebf5109442ebe5", "lat": 39.084937833333335, "is_reserved": 0, "fusion_lon": 0.0, "fusion_lat": 0.0, "is_disabled": 0, "bike_id": "d233e45a323a714243ebf5109442ebe5", "lon": -76.95046633333334}, {"type": "electric_scooter", "rental_uris": {"android": "https://dc.lft.to/lastmile_qr_scan", "ios": "https://dc.lft.to/lastmile_qr_scan"}, "name": "e123bf44d019c29138b32b196b6b267f", "lat": 38.88612833333333, "is_reserved": 0, "fusion_lon": 0.0, "fusion_lat": 0.0, "is_disabled": 0, "bike_id": "e123bf44d019c29138b32b196b6b267f", "lon": -77.00279583333334}, {"type": "electric_scooter", "rental_uris": {"android": "https://dc.lft.to/lastmile_qr_scan", "ios": "https://dc.lft.to/lastmile_qr_scan"}, "name": "de48465f038bc89c5959c00ce59918b6", "lat": 38.944244166666664, "is_reserved": 0, "fusion_lon": 0.0, "fusion_lat": 0.0, "is_disabled": 0, "bike_id": "de48465f038bc89c5959c00ce59918b6", "lon": -77.05515783333334}, {"type": "electric_scooter", "rental_uris": {"android": "https://dc.lft.to/lastmile_qr_scan", "ios": "https://dc.lft.to/lastmile_qr_scan"}, "name": "e1dbbcc1ff83ec0b1d82297c1a0274ea", "lat": 38.9232775, "is_reserved": 0, "fusion_lon": 0.0, "fusion_lat": 0.0, "is_disabled": 0, "bike_id": "e1dbbcc1ff83ec0b1d82297c1a0274ea", "lon": -77.01950416666666}, {"type": "electric_scooter", "rental_uris": {"android": "https://dc.lft.to/lastmile_qr_scan", "ios": "https://dc.lft.to/lastmile_qr_scan"}, "name": "0250e08ecf8c99ec2c71f6f56d5d391d", "lat": 38.91012116666667, "is_reserved": 0, "fusion_lon": 0.0, "fusion_lat": 0.0, "is_disabled": 0, "bike_id": "0250e08ecf8c99ec2c71f6f56d5d391d", "lon": -77.03185866666666}, {"type": "electric_scooter", "rental_uris": {"android": "https://dc.lft.to/lastmile_qr_scan", "ios": "https://dc.lft.to/lastmile_qr_scan"}, "name": "fdcab41ae7b3af4faa1d9a1bae64a087", "lat": 38.9018745, "is_reserved": 0, "fusion_lon": 0.0, "fusion_lat": 0.0, "is_disabled": 0, "bike_id": "fdcab41ae7b3af4faa1d9a1bae64a087", "lon": -77.05893383333333}, {"type": "electric_scooter", "rental_uris": {"android": "https://dc.lft.to/lastmile_qr_scan", "ios": "https://dc.lft.to/lastmile_qr_scan"}, "name": "ef6f5b4cdcdfaa5477af2335d4f3a763", "lat": 38.96266583333333, "is_reserved": 0, "fusion_lon": 0.0, "fusion_lat": 0.0, "is_disabled": 0, "bike_id": "ef6f5b4cdcdfaa5477af2335d4f3a763", "lon": -77.01353083333333}, {"type": "electric_scooter", "rental_uris": {"android": "https://dc.lft.to/lastmile_qr_scan", "ios": "https://dc.lft.to/lastmile_qr_scan"}, "name": "679c64973f476931b4b0699bcfb6f4f9", "lat": 38.901046666666666, "is_reserved": 0, "fusion_lon": 0.0, "fusion_lat": 0.0, "is_disabled": 0, "bike_id": "679c64973f476931b4b0699bcfb6f4f9", "lon": -77.05133116666667}, {"type": "electric_scooter", "rental_uris": {"android": "https://dc.lft.to/lastmile_qr_scan", "ios": "https://dc.lft.to/lastmile_qr_scan"}, "name": "ec846c8a366d605665789c05ec041ebc", "lat": 38.9306555, "is_reserved": 0, "fusion_lon": 0.0, "fusion_lat": 0.0, "is_disabled": 0, "bike_id": "ec846c8a366d605665789c05ec041ebc", "lon": -77.03945}, {"type": "electric_scooter", "rental_uris": {"android": "https://dc.lft.to/lastmile_qr_scan", "ios": "https://dc.lft.to/lastmile_qr_scan"}, "name": "657ee74c2980ee24ee9bfbd53492977b", "lat": 38.899670666666665, "is_reserved": 0, "fusion_lon": 0.0, "fusion_lat": 0.0, "is_disabled": 0, "bike_id": "657ee74c2980ee24ee9bfbd53492977b", "lon": -77.0414365}, {"type": "electric_scooter", "rental_uris": {"android": "https://dc.lft.to/lastmile_qr_scan", "ios": "https://dc.lft.to/lastmile_qr_scan"}, "name": "b8c879b4eb8b5a01f9962646fd778d48", "lat": 38.8949775, "is_reserved": 0, "fusion_lon": 0.0, "fusion_lat": 0.0, "is_disabled": 0, "bike_id": "b8c879b4eb8b5a01f9962646fd778d48", "lon": -77.02675433333333}, {"type": "electric_scooter", "rental_uris": {"android": "https://dc.lft.to/lastmile_qr_scan", "ios": "https://dc.lft.to/lastmile_qr_scan"}, "name": "503f7f260b18101e156449c6a18878f0", "lat": 38.906977499999996, "is_reserved": 0, "fusion_lon": 0.0, "fusion_lat": 0.0, "is_disabled": 0, "bike_id": "503f7f260b18101e156449c6a18878f0", "lon": -77.00367783333333}, {"type": "electric_scooter", "rental_uris": {"android": "https://dc.lft.to/lastmile_qr_scan", "ios": "https://dc.lft.to/lastmile_qr_scan"}, "name": "8b3dac1c199d5a0076c126fcdbe38dcd", "lat": 38.901621666666664, "is_reserved": 0, "fusion_lon": 0.0, "fusion_lat": 0.0, "is_disabled": 0, "bike_id": "8b3dac1c199d5a0076c126fcdbe38dcd", "lon": -77.050561}, {"type": "electric_scooter", "rental_uris": {"android": "https://dc.lft.to/lastmile_qr_scan", "ios": "https://dc.lft.to/lastmile_qr_scan"}, "name": "7a72011949f3982cf5fcfa9014684bfc", "lat": 38.94446416666667, "is_reserved": 0, "fusion_lon": 0.0, "fusion_lat": 0.0, "is_disabled": 0, "bike_id": "7a72011949f3982cf5fcfa9014684bfc", "lon": -77.0234105}, {"type": "electric_scooter", "rental_uris": {"android": "https://dc.lft.to/lastmile_qr_scan", "ios": "https://dc.lft.to/lastmile_qr_scan"}, "name": "642b5ce78885557131d6ba6d01603c45", "lat": 38.903453, "is_reserved": 0, "fusion_lon": 0.0, "fusion_lat": 0.0, "is_disabled": 0, "bike_id": "642b5ce78885557131d6ba6d01603c45", "lon": -77.061961}, {"type": "electric_scooter", "rental_uris": {"android": "https://dc.lft.to/lastmile_qr_scan", "ios": "https://dc.lft.to/lastmile_qr_scan"}, "name": "cb4d4f8888cf410d64a2762b6ce7a1f8", "lat": 38.9041925, "is_reserved": 0, "fusion_lon": 0.0, "fusion_lat": 0.0, "is_disabled": 0, "bike_id": "cb4d4f8888cf410d64a2762b6ce7a1f8", "lon": -77.02418333333334}, {"type": "electric_scooter", "rental_uris": {"android": "https://dc.lft.to/lastmile_qr_scan", "ios": "https://dc.lft.to/lastmile_qr_scan"}, "name": "d2124f044dfa6d0695c83ab502f4803f", "lat": 38.914021, "is_reserved": 0, "fusion_lon": 0.0, "fusion_lat": 0.0, "is_disabled": 0, "bike_id": "d2124f044dfa6d0695c83ab502f4803f", "lon": -77.01839966666667}, {"type": "electric_scooter", "rental_uris": {"android": "https://dc.lft.to/lastmile_qr_scan", "ios": "https://dc.lft.to/lastmile_qr_scan"}, "name": "838e726a52f45426d0aa2ad0fc64a7b1", "lat": 38.896825666666665, "is_reserved": 0, "fusion_lon": 0.0, "fusion_lat": 0.0, "is_disabled": 0, "bike_id": "838e726a52f45426d0aa2ad0fc64a7b1", "lon": -77.04329416666667}, {"type": "electric_scooter", "rental_uris": {"android": "https://dc.lft.to/lastmile_qr_scan", "ios": "https://dc.lft.to/lastmile_qr_scan"}, "name": "28d40890439b20baab862714c1f8ce72", "lat": 38.91120333333333, "is_reserved": 0, "fusion_lon": 0.0, "fusion_lat": 0.0, "is_disabled": 0, "bike_id": "28d40890439b20baab862714c1f8ce72", "lon": -77.04362216666667}, {"type": "electric_scooter", "rental_uris": {"android": "https://dc.lft.to/lastmile_qr_scan", "ios": "https://dc.lft.to/lastmile_qr_scan"}, "name": "7485c2d83fae699c4232767b7bead9cf", "lat": 38.894566833333336, "is_reserved": 0, "fusion_lon": 0.0, "fusion_lat": 0.0, "is_disabled": 0, "bike_id": "7485c2d83fae699c4232767b7bead9cf", "lon": -77.03371966666667}, {"type": "electric_scooter", "rental_uris": {"android": "https://dc.lft.to/lastmile_qr_scan", "ios": "https://dc.lft.to/lastmile_qr_scan"}, "name": "d80558b0e8949a4287af11704ca43e2d", "lat": 38.908161, "is_reserved": 0, "fusion_lon": 0.0, "fusion_lat": 0.0, "is_disabled": 0, "bike_id": "d80558b0e8949a4287af11704ca43e2d", "lon": -77.034517}, {"type": "electric_scooter", "rental_uris": {"android": "https://dc.lft.to/lastmile_qr_scan", "ios": "https://dc.lft.to/lastmile_qr_scan"}, "name": "c525cd376e23d34f96f6e566345be4ae", "lat": 38.930985, "is_reserved": 0, "fusion_lon": 0.0, "fusion_lat": 0.0, "is_disabled": 0, "bike_id": "c525cd376e23d34f96f6e566345be4ae", "lon": -77.02657883333333}, {"type": "electric_scooter", "rental_uris": {"android": "https://dc.lft.to/lastmile_qr_scan", "ios": "https://dc.lft.to/lastmile_qr_scan"}, "name": "f712b5c11c86012023369367fb3f5f21", "lat": 38.90488783333333, "is_reserved": 0, "fusion_lon": 0.0, "fusion_lat": 0.0, "is_disabled": 0, "bike_id": "f712b5c11c86012023369367fb3f5f21", "lon": -77.0433375}, {"type": "electric_scooter", "rental_uris": {"android": "https://dc.lft.to/lastmile_qr_scan", "ios": "https://dc.lft.to/lastmile_qr_scan"}, "name": "1c199cc4d2475166758b85586d0837e1", "lat": 38.884454, "is_reserved": 0, "fusion_lon": 0.0, "fusion_lat": 0.0, "is_disabled": 0, "bike_id": "1c199cc4d2475166758b85586d0837e1", "lon": -76.9576665}, {"type": "electric_scooter", "rental_uris": {"android": "https://dc.lft.to/lastmile_qr_scan", "ios": "https://dc.lft.to/lastmile_qr_scan"}, "name": "1252c93b9ea2d38584d05ccbdf7005ec", "lat": 38.91815716666667, "is_reserved": 0, "fusion_lon": 0.0, "fusion_lat": 0.0, "is_disabled": 0, "bike_id": "1252c93b9ea2d38584d05ccbdf7005ec", "lon": -77.02471333333334}, {"type": "electric_scooter", "rental_uris": {"android": "https://dc.lft.to/lastmile_qr_scan", "ios": "https://dc.lft.to/lastmile_qr_scan"}, "name": "3a46ce6102a38ebdfba7eee4e20b5770", "lat": 38.89630783333333, "is_reserved": 0, "fusion_lon": 0.0, "fusion_lat": 0.0, "is_disabled": 0, "bike_id": "3a46ce6102a38ebdfba7eee4e20b5770", "lon": -77.04079116666666}, {"type": "electric_scooter", "rental_uris": {"android": "https://dc.lft.to/lastmile_qr_scan", "ios": "https://dc.lft.to/lastmile_qr_scan"}, "name": "ef8e152b4f85b9be08af0893e6cc4be2", "lat": 38.8922805, "is_reserved": 0, "fusion_lon": 0.0, "fusion_lat": 0.0, "is_disabled": 0, "bike_id": "ef8e152b4f85b9be08af0893e6cc4be2", "lon": -77.02557166666666}, {"type": "electric_scooter", "rental_uris": {"android": "https://dc.lft.to/lastmile_qr_scan", "ios": "https://dc.lft.to/lastmile_qr_scan"}, "name": "0755321518517415f932515188e2c173", "lat": 38.907238666666665, "is_reserved": 0, "fusion_lon": 0.0, "fusion_lat": 0.0, "is_disabled": 0, "bike_id": "0755321518517415f932515188e2c173", "lon": -77.03949283333333}, {"type": "electric_scooter", "rental_uris": {"android": "https://dc.lft.to/lastmile_qr_scan", "ios": "https://dc.lft.to/lastmile_qr_scan"}, "name": "ea02d871b2a78883590bc2d0dfbe283f", "lat": 38.896059, "is_reserved": 0, "fusion_lon": 0.0, "fusion_lat": 0.0, "is_disabled": 0, "bike_id": "ea02d871b2a78883590bc2d0dfbe283f", "lon": -77.0335015}, {"type": "electric_scooter", "rental_uris": {"android": "https://dc.lft.to/lastmile_qr_scan", "ios": "https://dc.lft.to/lastmile_qr_scan"}, "name": "431941a1013126649c9d8b643c27b6b1", "lat": 38.907298833333336, "is_reserved": 0, "fusion_lon": 0.0, "fusion_lat": 0.0, "is_disabled": 0, "bike_id": "431941a1013126649c9d8b643c27b6b1", "lon": -77.05018383333334}, {"type": "electric_scooter", "rental_uris": {"android": "https://dc.lft.to/lastmile_qr_scan", "ios": "https://dc.lft.to/lastmile_qr_scan"}, "name": "62e0ffded19b41697d49e181c4b89b09", "lat": 38.96121016666667, "is_reserved": 0, "fusion_lon": 0.0, "fusion_lat": 0.0, "is_disabled": 0, "bike_id": "62e0ffded19b41697d49e181c4b89b09", "lon": -77.027884}, {"type": "electric_scooter", "rental_uris": {"android": "https://dc.lft.to/lastmile_qr_scan", "ios": "https://dc.lft.to/lastmile_qr_scan"}, "name": "389aa02bb9ebaf17016383f37171d37a", "lat": 38.9246625, "is_reserved": 0, "fusion_lon": 0.0, "fusion_lat": 0.0, "is_disabled": 0, "bike_id": "389aa02bb9ebaf17016383f37171d37a", "lon": -77.02697816666667}, {"type": "electric_scooter", "rental_uris": {"android": "https://dc.lft.to/lastmile_qr_scan", "ios": "https://dc.lft.to/lastmile_qr_scan"}, "name": "1f91c68e314ee1984491a0152777623f", "lat": 38.88988766666667, "is_reserved": 0, "fusion_lon": 0.0, "fusion_lat": 0.0, "is_disabled": 0, "bike_id": "1f91c68e314ee1984491a0152777623f", "lon": -77.003164}, {"type": "electric_scooter", "rental_uris": {"android": "https://dc.lft.to/lastmile_qr_scan", "ios": "https://dc.lft.to/lastmile_qr_scan"}, "name": "ccba9fc76fd201d18b53bd7e503387df", "lat": 38.9353315, "is_reserved": 0, "fusion_lon": 0.0, "fusion_lat": 0.0, "is_disabled": 0, "bike_id": "ccba9fc76fd201d18b53bd7e503387df", "lon": -77.03470333333334}, {"type": "electric_scooter", "rental_uris": {"android": "https://dc.lft.to/lastmile_qr_scan", "ios": "https://dc.lft.to/lastmile_qr_scan"}, "name": "4e997835d3aa79442948a74abca22496", "lat": 38.89897966666667, "is_reserved": 0, "fusion_lon": 0.0, "fusion_lat": 0.0, "is_disabled": 0, "bike_id": "4e997835d3aa79442948a74abca22496", "lon": -76.97600933333334}, {"type": "electric_scooter", "rental_uris": {"android": "https://dc.lft.to/lastmile_qr_scan", "ios": "https://dc.lft.to/lastmile_qr_scan"}, "name": "834846d4d94daf579b3d4e1e1a9650f4", "lat": 38.927895, "is_reserved": 0, "fusion_lon": 0.0, "fusion_lat": 0.0, "is_disabled": 0, "bike_id": "834846d4d94daf579b3d4e1e1a9650f4", "lon": -77.033594}, {"type": "electric_scooter", "rental_uris": {"android": "https://dc.lft.to/lastmile_qr_scan", "ios": "https://dc.lft.to/lastmile_qr_scan"}, "name": "db49fa885352035d4b6464c5022c52f7", "lat": 38.92157533333334, "is_reserved": 0, "fusion_lon": 0.0, "fusion_lat": 0.0, "is_disabled": 0, "bike_id": "db49fa885352035d4b6464c5022c52f7", "lon": -77.03373866666666}, {"type": "electric_scooter", "rental_uris": {"android": "https://dc.lft.to/lastmile_qr_scan", "ios": "https://dc.lft.to/lastmile_qr_scan"}, "name": "4725ef40e8343f303fac8ee810bc474f", "lat": 38.89723633333333, "is_reserved": 0, "fusion_lon": 0.0, "fusion_lat": 0.0, "is_disabled": 0, "bike_id": "4725ef40e8343f303fac8ee810bc474f", "lon": -77.0289955}, {"type": "electric_scooter", "rental_uris": {"android": "https://dc.lft.to/lastmile_qr_scan", "ios": "https://dc.lft.to/lastmile_qr_scan"}, "name": "2f7d38cde3f0560bc0fdd0a488f66dee", "lat": 38.89671233333333, "is_reserved": 0, "fusion_lon": 0.0, "fusion_lat": 0.0, "is_disabled": 0, "bike_id": "2f7d38cde3f0560bc0fdd0a488f66dee", "lon": -77.04350983333333}, {"type": "electric_scooter", "rental_uris": {"android": "https://dc.lft.to/lastmile_qr_scan", "ios": "https://dc.lft.to/lastmile_qr_scan"}, "name": "d9e3e7ef333a094bf188270e0dfed499", "lat": 38.906988, "is_reserved": 0, "fusion_lon": 0.0, "fusion_lat": 0.0, "is_disabled": 0, "bike_id": "d9e3e7ef333a094bf188270e0dfed499", "lon": -77.026902}, {"type": "electric_scooter", "rental_uris": {"android": "https://dc.lft.to/lastmile_qr_scan", "ios": "https://dc.lft.to/lastmile_qr_scan"}, "name": "092723629e3688c7684964141b2d6adf", "lat": 38.92604133333333, "is_reserved": 0, "fusion_lon": 0.0, "fusion_lat": 0.0, "is_disabled": 0, "bike_id": "092723629e3688c7684964141b2d6adf", "lon": -77.021558}, {"type": "electric_scooter", "rental_uris": {"android": "https://dc.lft.to/lastmile_qr_scan", "ios": "https://dc.lft.to/lastmile_qr_scan"}, "name": "3aab9be9c5e374fc3059505a650d5db5", "lat": 38.9217505, "is_reserved": 0, "fusion_lon": 0.0, "fusion_lat": 0.0, "is_disabled": 0, "bike_id": "3aab9be9c5e374fc3059505a650d5db5", "lon": -77.01920183333333}, {"type": "electric_scooter", "rental_uris": {"android": "https://dc.lft.to/lastmile_qr_scan", "ios": "https://dc.lft.to/lastmile_qr_scan"}, "name": "c7862bc918569108e9cce6010601301e", "lat": 38.910519, "is_reserved": 0, "fusion_lon": 0.0, "fusion_lat": 0.0, "is_disabled": 0, "bike_id": "c7862bc918569108e9cce6010601301e", "lon": -77.04372116666667}, {"type": "electric_scooter", "rental_uris": {"android": "https://dc.lft.to/lastmile_qr_scan", "ios": "https://dc.lft.to/lastmile_qr_scan"}, "name": "9c79c41fd388eede92593d48837658bf", "lat": 38.91420766666667, "is_reserved": 0, "fusion_lon": 0.0, "fusion_lat": 0.0, "is_disabled": 0, "bike_id": "9c79c41fd388eede92593d48837658bf", "lon": -77.02225716666666}, {"type": "electric_scooter", "rental_uris": {"android": "https://dc.lft.to/lastmile_qr_scan", "ios": "https://dc.lft.to/lastmile_qr_scan"}, "name": "44360729fd4f28925dd117fcab90557c", "lat": 38.92924033333333, "is_reserved": 0, "fusion_lon": 0.0, "fusion_lat": 0.0, "is_disabled": 0, "bike_id": "44360729fd4f28925dd117fcab90557c", "lon": -76.99814266666667}, {"type": "electric_scooter", "rental_uris": {"android": "https://dc.lft.to/lastmile_qr_scan", "ios": "https://dc.lft.to/lastmile_qr_scan"}, "name": "401b983858df164ce671b8b2472ac564", "lat": 38.902607833333334, "is_reserved": 0, "fusion_lon": 0.0, "fusion_lat": 0.0, "is_disabled": 0, "bike_id": "401b983858df164ce671b8b2472ac564", "lon": -77.05810616666666}, {"type": "electric_scooter", "rental_uris": {"android": "https://dc.lft.to/lastmile_qr_scan", "ios": "https://dc.lft.to/lastmile_qr_scan"}, "name": "18225d3338e5ac5d6d0225518f3beb4f", "lat": 38.883737333333336, "is_reserved": 0, "fusion_lon": 0.0, "fusion_lat": 0.0, "is_disabled": 0, "bike_id": "18225d3338e5ac5d6d0225518f3beb4f", "lon": -76.9951835}, {"type": "electric_scooter", "rental_uris": {"android": "https://dc.lft.to/lastmile_qr_scan", "ios": "https://dc.lft.to/lastmile_qr_scan"}, "name": "f7ff6efe0bc2b2f61ce5d086df0d5a3d", "lat": 38.920594666666666, "is_reserved": 0, "fusion_lon": 0.0, "fusion_lat": 0.0, "is_disabled": 0, "bike_id": "f7ff6efe0bc2b2f61ce5d086df0d5a3d", "lon": -77.02309616666666}, {"type": "electric_scooter", "rental_uris": {"android": "https://dc.lft.to/lastmile_qr_scan", "ios": "https://dc.lft.to/lastmile_qr_scan"}, "name": "520381d4a5353a5d1de16b432c8ff4e8", "lat": 38.90117516666667, "is_reserved": 0, "fusion_lon": 0.0, "fusion_lat": 0.0, "is_disabled": 0, "bike_id": "520381d4a5353a5d1de16b432c8ff4e8", "lon": -77.04249883333334}, {"type": "electric_scooter", "rental_uris": {"android": "https://dc.lft.to/lastmile_qr_scan", "ios": "https://dc.lft.to/lastmile_qr_scan"}, "name": "b8da4c0ec44f1fcd390e47ba7485f71f", "lat": 38.96218416666667, "is_reserved": 0, "fusion_lon": 0.0, "fusion_lat": 0.0, "is_disabled": 0, "bike_id": "b8da4c0ec44f1fcd390e47ba7485f71f", "lon": -77.02587}, {"type": "electric_scooter", "rental_uris": {"android": "https://dc.lft.to/lastmile_qr_scan", "ios": "https://dc.lft.to/lastmile_qr_scan"}, "name": "a9f6978f5afea9d32c9551cf0bd6e4af", "lat": 38.87525266666667, "is_reserved": 0, "fusion_lon": 0.0, "fusion_lat": 0.0, "is_disabled": 0, "bike_id": "a9f6978f5afea9d32c9551cf0bd6e4af", "lon": -77.01227633333333}, {"type": "electric_scooter", "rental_uris": {"android": "https://dc.lft.to/lastmile_qr_scan", "ios": "https://dc.lft.to/lastmile_qr_scan"}, "name": "8f766405bcdbc3550991fe25e7dc1003", "lat": 38.916513333333334, "is_reserved": 0, "fusion_lon": 0.0, "fusion_lat": 0.0, "is_disabled": 0, "bike_id": "8f766405bcdbc3550991fe25e7dc1003", "lon": -77.047782}, {"type": "electric_scooter", "rental_uris": {"android": "https://dc.lft.to/lastmile_qr_scan", "ios": "https://dc.lft.to/lastmile_qr_scan"}, "name": "4a920d05a8ed71f00729c63973e8efe3", "lat": 38.91650683333334, "is_reserved": 0, "fusion_lon": 0.0, "fusion_lat": 0.0, "is_disabled": 0, "bike_id": "4a920d05a8ed71f00729c63973e8efe3", "lon": -77.03652783333334}, {"type": "electric_scooter", "rental_uris": {"android": "https://dc.lft.to/lastmile_qr_scan", "ios": "https://dc.lft.to/lastmile_qr_scan"}, "name": "ec96952b78d00f8c4081a6ad8dd3be67", "lat": 38.90354333333333, "is_reserved": 0, "fusion_lon": 0.0, "fusion_lat": 0.0, "is_disabled": 0, "bike_id": "ec96952b78d00f8c4081a6ad8dd3be67", "lon": -77.03444733333333}, {"type": "electric_scooter", "rental_uris": {"android": "https://dc.lft.to/lastmile_qr_scan", "ios": "https://dc.lft.to/lastmile_qr_scan"}, "name": "e1d1126748e2ec638e4b1f2fcf574e5b", "lat": 38.90963816666667, "is_reserved": 0, "fusion_lon": 0.0, "fusion_lat": 0.0, "is_disabled": 0, "bike_id": "e1d1126748e2ec638e4b1f2fcf574e5b", "lon": -77.0321745}, {"type": "electric_scooter", "rental_uris": {"android": "https://dc.lft.to/lastmile_qr_scan", "ios": "https://dc.lft.to/lastmile_qr_scan"}, "name": "2d717e9d348331c9951e46be28d35b40", "lat": 38.900493, "is_reserved": 0, "fusion_lon": 0.0, "fusion_lat": 0.0, "is_disabled": 0, "bike_id": "2d717e9d348331c9951e46be28d35b40", "lon": -76.998432}, {"type": "electric_scooter", "rental_uris": {"android": "https://dc.lft.to/lastmile_qr_scan", "ios": "https://dc.lft.to/lastmile_qr_scan"}, "name": "bd8abc92c5ff088bb7117fa2ddeea137", "lat": 38.9101555, "is_reserved": 0, "fusion_lon": 0.0, "fusion_lat": 0.0, "is_disabled": 0, "bike_id": "bd8abc92c5ff088bb7117fa2ddeea137", "lon": -76.99372566666666}, {"type": "electric_scooter", "rental_uris": {"android": "https://dc.lft.to/lastmile_qr_scan", "ios": "https://dc.lft.to/lastmile_qr_scan"}, "name": "dbb3ff37b1965672496f6d2f7f96b194", "lat": 38.9169555, "is_reserved": 0, "fusion_lon": 0.0, "fusion_lat": 0.0, "is_disabled": 0, "bike_id": "dbb3ff37b1965672496f6d2f7f96b194", "lon": -77.0382855}, {"type": "electric_scooter", "rental_uris": {"android": "https://dc.lft.to/lastmile_qr_scan", "ios": "https://dc.lft.to/lastmile_qr_scan"}, "name": "9008c175170d39db5c7325913d68ba7b", "lat": 38.896310166666666, "is_reserved": 0, "fusion_lon": 0.0, "fusion_lat": 0.0, "is_disabled": 0, "bike_id": "9008c175170d39db5c7325913d68ba7b", "lon": -77.0309355}, {"type": "electric_scooter", "rental_uris": {"android": "https://dc.lft.to/lastmile_qr_scan", "ios": "https://dc.lft.to/lastmile_qr_scan"}, "name": "97e380a6cc71e2b2e9f79b6c79bdaf88", "lat": 38.90622366666667, "is_reserved": 0, "fusion_lon": 0.0, "fusion_lat": 0.0, "is_disabled": 0, "bike_id": "97e380a6cc71e2b2e9f79b6c79bdaf88", "lon": -76.9932715}, {"type": "electric_scooter", "rental_uris": {"android": "https://dc.lft.to/lastmile_qr_scan", "ios": "https://dc.lft.to/lastmile_qr_scan"}, "name": "9728101701b8fdef48bda5641e7366ef", "lat": 38.918087, "is_reserved": 0, "fusion_lon": 0.0, "fusion_lat": 0.0, "is_disabled": 0, "bike_id": "9728101701b8fdef48bda5641e7366ef", "lon": -77.0230125}, {"type": "electric_bike", "rental_uris": {"android": "https://dc.lft.to/lastmile_qr_scan", "ios": "https://dc.lft.to/lastmile_qr_scan"}, "name": "4e0d45bdbf548c2187880fb0c852be14", "lat": 38.80733516666667, "is_reserved": 0, "fusion_lon": 0.0, "fusion_lat": 0.0, "is_disabled": 0, "bike_id": "4e0d45bdbf548c2187880fb0c852be14", "lon": -76.99257833333333}, {"type": "electric_scooter", "rental_uris": {"android": "https://dc.lft.to/lastmile_qr_scan", "ios": "https://dc.lft.to/lastmile_qr_scan"}, "name": "2b85326b3d17f6cab2bf96c62ab002c6", "lat": 38.924123333333334, "is_reserved": 0, "fusion_lon": 0.0, "fusion_lat": 0.0, "is_disabled": 0, "bike_id": "2b85326b3d17f6cab2bf96c62ab002c6", "lon": -77.02140766666666}, {"type": "electric_scooter", "rental_uris": {"android": "https://dc.lft.to/lastmile_qr_scan", "ios": "https://dc.lft.to/lastmile_qr_scan"}, "name": "d809836c4d8b6102040f6614fe0eb343", "lat": 38.91741566666666, "is_reserved": 0, "fusion_lon": 0.0, "fusion_lat": 0.0, "is_disabled": 0, "bike_id": "d809836c4d8b6102040f6614fe0eb343", "lon": -77.041498}, {"type": "electric_bike", "rental_uris": {"android": "https://dc.lft.to/lastmile_qr_scan", "ios": "https://dc.lft.to/lastmile_qr_scan"}, "name": "8068d80e786a415ce6ed9fad9c8b219d", "lat": 38.9206115, "is_reserved": 0, "fusion_lon": 0.0, "fusion_lat": 0.0, "is_disabled": 0, "bike_id": "8068d80e786a415ce6ed9fad9c8b219d", "lon": -76.9706935}, {"type": "electric_scooter", "rental_uris": {"android": "https://dc.lft.to/lastmile_qr_scan", "ios": "https://dc.lft.to/lastmile_qr_scan"}, "name": "616468a5bf0681aed34c75a49e0380fb", "lat": 38.90262366666666, "is_reserved": 0, "fusion_lon": 0.0, "fusion_lat": 0.0, "is_disabled": 0, "bike_id": "616468a5bf0681aed34c75a49e0380fb", "lon": -77.0312765}, {"type": "electric_scooter", "rental_uris": {"android": "https://dc.lft.to/lastmile_qr_scan", "ios": "https://dc.lft.to/lastmile_qr_scan"}, "name": "85d9956e1a764d625ab1d5403c277acd", "lat": 38.87994883333333, "is_reserved": 0, "fusion_lon": 0.0, "fusion_lat": 0.0, "is_disabled": 0, "bike_id": "85d9956e1a764d625ab1d5403c277acd", "lon": -77.03737583333333}, {"type": "electric_scooter", "rental_uris": {"android": "https://dc.lft.to/lastmile_qr_scan", "ios": "https://dc.lft.to/lastmile_qr_scan"}, "name": "23a5f5e15833a509a3a7c445cc9966a6", "lat": 38.892239000000004, "is_reserved": 0, "fusion_lon": 0.0, "fusion_lat": 0.0, "is_disabled": 0, "bike_id": "23a5f5e15833a509a3a7c445cc9966a6", "lon": -77.04365483333333}, {"type": "electric_scooter", "rental_uris": {"android": "https://dc.lft.to/lastmile_qr_scan", "ios": "https://dc.lft.to/lastmile_qr_scan"}, "name": "282479dfa602c199ce2f77dbe6ee5cd0", "lat": 38.886852833333336, "is_reserved": 0, "fusion_lon": 0.0, "fusion_lat": 0.0, "is_disabled": 0, "bike_id": "282479dfa602c199ce2f77dbe6ee5cd0", "lon": -77.01373233333334}, {"type": "electric_scooter", "rental_uris": {"android": "https://dc.lft.to/lastmile_qr_scan", "ios": "https://dc.lft.to/lastmile_qr_scan"}, "name": "0e87d2e2109e06dbef1b2ba67ed0326b", "lat": 38.9016615, "is_reserved": 0, "fusion_lon": 0.0, "fusion_lat": 0.0, "is_disabled": 0, "bike_id": "0e87d2e2109e06dbef1b2ba67ed0326b", "lon": -76.93022383333333}, {"type": "electric_scooter", "rental_uris": {"android": "https://dc.lft.to/lastmile_qr_scan", "ios": "https://dc.lft.to/lastmile_qr_scan"}, "name": "d890eb810e2953f38b8562208dc92bb6", "lat": 38.926891, "is_reserved": 0, "fusion_lon": 0.0, "fusion_lat": 0.0, "is_disabled": 0, "bike_id": "d890eb810e2953f38b8562208dc92bb6", "lon": -77.029644}, {"type": "electric_scooter", "rental_uris": {"android": "https://dc.lft.to/lastmile_qr_scan", "ios": "https://dc.lft.to/lastmile_qr_scan"}, "name": "b28a8ef96ad3825506ccf485b6b630a7", "lat": 38.91999633333333, "is_reserved": 0, "fusion_lon": 0.0, "fusion_lat": 0.0, "is_disabled": 0, "bike_id": "b28a8ef96ad3825506ccf485b6b630a7", "lon": -77.02695133333333}, {"type": "electric_scooter", "rental_uris": {"android": "https://dc.lft.to/lastmile_qr_scan", "ios": "https://dc.lft.to/lastmile_qr_scan"}, "name": "6fa24c3b9fd833f016b3d07e4b449088", "lat": 38.905518, "is_reserved": 0, "fusion_lon": 0.0, "fusion_lat": 0.0, "is_disabled": 0, "bike_id": "6fa24c3b9fd833f016b3d07e4b449088", "lon": -77.03585766666667}, {"type": "electric_scooter", "rental_uris": {"android": "https://dc.lft.to/lastmile_qr_scan", "ios": "https://dc.lft.to/lastmile_qr_scan"}, "name": "47c54260300d65e468efd900256cbec0", "lat": 38.89798616666667, "is_reserved": 0, "fusion_lon": 0.0, "fusion_lat": 0.0, "is_disabled": 0, "bike_id": "47c54260300d65e468efd900256cbec0", "lon": -77.01214383333334}, {"type": "electric_scooter", "rental_uris": {"android": "https://dc.lft.to/lastmile_qr_scan", "ios": "https://dc.lft.to/lastmile_qr_scan"}, "name": "2d2d38f55e8acec0907570d57b10fa39", "lat": 38.92972866666667, "is_reserved": 0, "fusion_lon": 0.0, "fusion_lat": 0.0, "is_disabled": 0, "bike_id": "2d2d38f55e8acec0907570d57b10fa39", "lon": -77.032008}, {"type": "electric_scooter", "rental_uris": {"android": "https://dc.lft.to/lastmile_qr_scan", "ios": "https://dc.lft.to/lastmile_qr_scan"}, "name": "e1e7e711351e99a7832424014beb8a0e", "lat": 38.884365333333335, "is_reserved": 0, "fusion_lon": 0.0, "fusion_lat": 0.0, "is_disabled": 0, "bike_id": "e1e7e711351e99a7832424014beb8a0e", "lon": -76.95744716666667}, {"type": "electric_bike", "rental_uris": {"android": "https://dc.lft.to/lastmile_qr_scan", "ios": "https://dc.lft.to/lastmile_qr_scan"}, "name": "b663de95d40e2ff4ba06343099ee4cf6", "lat": 38.784622666666664, "is_reserved": 0, "fusion_lon": 0.0, "fusion_lat": 0.0, "is_disabled": 0, "bike_id": "b663de95d40e2ff4ba06343099ee4cf6", "lon": -77.05436483333334}, {"type": "electric_scooter", "rental_uris": {"android": "https://dc.lft.to/lastmile_qr_scan", "ios": "https://dc.lft.to/lastmile_qr_scan"}, "name": "f4b57b4eae9fc1098461532df15a317a", "lat": 38.87854183333334, "is_reserved": 0, "fusion_lon": 0.0, "fusion_lat": 0.0, "is_disabled": 0, "bike_id": "f4b57b4eae9fc1098461532df15a317a", "lon": -77.02228466666666}, {"type": "electric_scooter", "rental_uris": {"android": "https://dc.lft.to/lastmile_qr_scan", "ios": "https://dc.lft.to/lastmile_qr_scan"}, "name": "2c740b541118fc6fcf0be80bfa6ec1e2", "lat": 38.8922375, "is_reserved": 0, "fusion_lon": 0.0, "fusion_lat": 0.0, "is_disabled": 0, "bike_id": "2c740b541118fc6fcf0be80bfa6ec1e2", "lon": -77.0263415}, {"type": "electric_scooter", "rental_uris": {"android": "https://dc.lft.to/lastmile_qr_scan", "ios": "https://dc.lft.to/lastmile_qr_scan"}, "name": "e3805376fe1887a0a025a9cee41948c8", "lat": 38.892231, "is_reserved": 0, "fusion_lon": 0.0, "fusion_lat": 0.0, "is_disabled": 0, "bike_id": "e3805376fe1887a0a025a9cee41948c8", "lon": -77.0436325}, {"type": "electric_scooter", "rental_uris": {"android": "https://dc.lft.to/lastmile_qr_scan", "ios": "https://dc.lft.to/lastmile_qr_scan"}, "name": "efdcd147d05a4f67fa281a66d3e51785", "lat": 38.897488833333334, "is_reserved": 0, "fusion_lon": 0.0, "fusion_lat": 0.0, "is_disabled": 0, "bike_id": "efdcd147d05a4f67fa281a66d3e51785", "lon": -77.027147}, {"type": "electric_scooter", "rental_uris": {"android": "https://dc.lft.to/lastmile_qr_scan", "ios": "https://dc.lft.to/lastmile_qr_scan"}, "name": "ea46a9b5a6e5104ee538a658ff06eb5b", "lat": 38.872976, "is_reserved": 0, "fusion_lon": 0.0, "fusion_lat": 0.0, "is_disabled": 0, "bike_id": "ea46a9b5a6e5104ee538a658ff06eb5b", "lon": -77.002297}, {"type": "electric_scooter", "rental_uris": {"android": "https://dc.lft.to/lastmile_qr_scan", "ios": "https://dc.lft.to/lastmile_qr_scan"}, "name": "26704d9aef4de219552df99fcbf0c8fd", "lat": 38.8964415, "is_reserved": 0, "fusion_lon": 0.0, "fusion_lat": 0.0, "is_disabled": 0, "bike_id": "26704d9aef4de219552df99fcbf0c8fd", "lon": -77.02298966666666}, {"type": "electric_scooter", "rental_uris": {"android": "https://dc.lft.to/lastmile_qr_scan", "ios": "https://dc.lft.to/lastmile_qr_scan"}, "name": "05d5f5087437a61686121cec4826c833", "lat": 38.92853383333333, "is_reserved": 0, "fusion_lon": 0.0, "fusion_lat": 0.0, "is_disabled": 0, "bike_id": "05d5f5087437a61686121cec4826c833", "lon": -77.03655316666666}, {"type": "electric_scooter", "rental_uris": {"android": "https://dc.lft.to/lastmile_qr_scan", "ios": "https://dc.lft.to/lastmile_qr_scan"}, "name": "ce5dadd2482d2e9d67659bd7a2a00cdd", "lat": 38.901612666666665, "is_reserved": 0, "fusion_lon": 0.0, "fusion_lat": 0.0, "is_disabled": 0, "bike_id": "ce5dadd2482d2e9d67659bd7a2a00cdd", "lon": -77.03180966666666}, {"type": "electric_scooter", "rental_uris": {"android": "https://dc.lft.to/lastmile_qr_scan", "ios": "https://dc.lft.to/lastmile_qr_scan"}, "name": "3e667eedb01c3c487128b58f9bb038ef", "lat": 38.90084733333333, "is_reserved": 0, "fusion_lon": 0.0, "fusion_lat": 0.0, "is_disabled": 0, "bike_id": "3e667eedb01c3c487128b58f9bb038ef", "lon": -77.04774166666667}, {"type": "electric_scooter", "rental_uris": {"android": "https://dc.lft.to/lastmile_qr_scan", "ios": "https://dc.lft.to/lastmile_qr_scan"}, "name": "d66c1974e34557240ffc19f72cfac5cd", "lat": 38.896321, "is_reserved": 0, "fusion_lon": 0.0, "fusion_lat": 0.0, "is_disabled": 0, "bike_id": "d66c1974e34557240ffc19f72cfac5cd", "lon": -77.02941883333334}, {"type": "electric_scooter", "rental_uris": {"android": "https://dc.lft.to/lastmile_qr_scan", "ios": "https://dc.lft.to/lastmile_qr_scan"}, "name": "c0007e45ce97728914fe79129259bad1", "lat": 38.92247066666667, "is_reserved": 0, "fusion_lon": 0.0, "fusion_lat": 0.0, "is_disabled": 0, "bike_id": "c0007e45ce97728914fe79129259bad1", "lon": -77.02807666666666}, {"type": "electric_scooter", "rental_uris": {"android": "https://dc.lft.to/lastmile_qr_scan", "ios": "https://dc.lft.to/lastmile_qr_scan"}, "name": "5ac431cd4bb9c6446407704130dfce3f", "lat": 38.90156616666667, "is_reserved": 0, "fusion_lon": 0.0, "fusion_lat": 0.0, "is_disabled": 0, "bike_id": "5ac431cd4bb9c6446407704130dfce3f", "lon": -77.044471}, {"type": "electric_scooter", "rental_uris": {"android": "https://dc.lft.to/lastmile_qr_scan", "ios": "https://dc.lft.to/lastmile_qr_scan"}, "name": "1ff4275e6f5feadfb61a46754a74593a", "lat": 38.92069583333333, "is_reserved": 0, "fusion_lon": 0.0, "fusion_lat": 0.0, "is_disabled": 0, "bike_id": "1ff4275e6f5feadfb61a46754a74593a", "lon": -77.025623}, {"type": "electric_scooter", "rental_uris": {"android": "https://dc.lft.to/lastmile_qr_scan", "ios": "https://dc.lft.to/lastmile_qr_scan"}, "name": "b2f1912d3bec8a1ee9de1174cf8c4b4e", "lat": 38.91045616666667, "is_reserved": 0, "fusion_lon": 0.0, "fusion_lat": 0.0, "is_disabled": 0, "bike_id": "b2f1912d3bec8a1ee9de1174cf8c4b4e", "lon": -77.04340433333333}, {"type": "electric_scooter", "rental_uris": {"android": "https://dc.lft.to/lastmile_qr_scan", "ios": "https://dc.lft.to/lastmile_qr_scan"}, "name": "03042a9a42c5dd2dad199e39cb9aeddd", "lat": 38.910061, "is_reserved": 0, "fusion_lon": 0.0, "fusion_lat": 0.0, "is_disabled": 0, "bike_id": "03042a9a42c5dd2dad199e39cb9aeddd", "lon": -77.03194133333334}, {"type": "electric_scooter", "rental_uris": {"android": "https://dc.lft.to/lastmile_qr_scan", "ios": "https://dc.lft.to/lastmile_qr_scan"}, "name": "693cced102d1d99efb84bf061a7a2a33", "lat": 38.9289345, "is_reserved": 0, "fusion_lon": 0.0, "fusion_lat": 0.0, "is_disabled": 0, "bike_id": "693cced102d1d99efb84bf061a7a2a33", "lon": -77.01362966666667}, {"type": "electric_scooter", "rental_uris": {"android": "https://dc.lft.to/lastmile_qr_scan", "ios": "https://dc.lft.to/lastmile_qr_scan"}, "name": "b66b5699e7c07f83c090f759ef2ddfc4", "lat": 38.892428333333335, "is_reserved": 0, "fusion_lon": 0.0, "fusion_lat": 0.0, "is_disabled": 0, "bike_id": "b66b5699e7c07f83c090f759ef2ddfc4", "lon": -77.03177383333333}, {"type": "electric_scooter", "rental_uris": {"android": "https://dc.lft.to/lastmile_qr_scan", "ios": "https://dc.lft.to/lastmile_qr_scan"}, "name": "1949567ee44f80060949d797fd716ffa", "lat": 38.908908333333336, "is_reserved": 0, "fusion_lon": 0.0, "fusion_lat": 0.0, "is_disabled": 0, "bike_id": "1949567ee44f80060949d797fd716ffa", "lon": -77.0030255}, {"type": "electric_scooter", "rental_uris": {"android": "https://dc.lft.to/lastmile_qr_scan", "ios": "https://dc.lft.to/lastmile_qr_scan"}, "name": "7b037d191e75cb416ba27c1c53c58a9e", "lat": 38.92467933333333, "is_reserved": 0, "fusion_lon": 0.0, "fusion_lat": 0.0, "is_disabled": 0, "bike_id": "7b037d191e75cb416ba27c1c53c58a9e", "lon": -77.02203083333333}, {"type": "electric_scooter", "rental_uris": {"android": "https://dc.lft.to/lastmile_qr_scan", "ios": "https://dc.lft.to/lastmile_qr_scan"}, "name": "bf878daeb6a1c53d6a11544110220298", "lat": 38.90824383333333, "is_reserved": 0, "fusion_lon": 0.0, "fusion_lat": 0.0, "is_disabled": 0, "bike_id": "bf878daeb6a1c53d6a11544110220298", "lon": -77.03829083333333}, {"type": "electric_scooter", "rental_uris": {"android": "https://dc.lft.to/lastmile_qr_scan", "ios": "https://dc.lft.to/lastmile_qr_scan"}, "name": "8012f9ded436168b3630243afa49f942", "lat": 38.916968833333335, "is_reserved": 0, "fusion_lon": 0.0, "fusion_lat": 0.0, "is_disabled": 0, "bike_id": "8012f9ded436168b3630243afa49f942", "lon": -77.04109266666667}, {"type": "electric_scooter", "rental_uris": {"android": "https://dc.lft.to/lastmile_qr_scan", "ios": "https://dc.lft.to/lastmile_qr_scan"}, "name": "281d4dcc28baf680965ea929dff650f1", "lat": 38.902413833333334, "is_reserved": 0, "fusion_lon": 0.0, "fusion_lat": 0.0, "is_disabled": 0, "bike_id": "281d4dcc28baf680965ea929dff650f1", "lon": -77.019506}, {"type": "electric_scooter", "rental_uris": {"android": "https://dc.lft.to/lastmile_qr_scan", "ios": "https://dc.lft.to/lastmile_qr_scan"},