{"data": {"bikes": [{"rental_uris": {"ios": "https://dc.lft.to/lastmile_qr_scan", "android": "https://dc.lft.to/lastmile_qr_scan"}, "lat": 38.85806016666667, "is_reserved": 0, "bike_id": "bf41cca81fb237ebf8cc7771bf46fdc3", "lon": -76.9865295, "is_disabled": 0, "fusion_lat": 0.0, "fusion_lon": 0.0, "name": "bf41cca81fb237ebf8cc7771bf46fdc3", "type": "electric_scooter"}, {"rental_uris": {"ios": "https://dc.lft.to/lastmile_qr_scan", "android": "https://dc.lft.to/lastmile_qr_scan"}, "lat": 38.90336583333333, "is_reserved": 0, "bike_id": "7ad466a13baa73e8e23eb1fc840b2991", "lon": -77.02013416666667, "is_disabled": 0, "fusion_lat": 0.0, "fusion_lon": 0.0, "name": "7ad466a13baa73e8e23eb1fc840b2991", "type": "electric_scooter"}, {"rental_uris": {"ios": "https://dc.lft.to/lastmile_qr_scan", "android": "https://dc.lft.to/lastmile_qr_scan"}, "lat": 38.926000333333334, "is_reserved": 0, "bike_id": "1e483718f6c525f172c48b89c9cfd79c", "lon": -77.025773, "is_disabled": 0, "fusion_lat": 0.0, "fusion_lon": 0.0, "name": "1e483718f6c525f172c48b89c9cfd79c", "type": "electric_scooter"}, {"rental_uris": {"ios": "https://dc.lft.to/lastmile_qr_scan", "android": "https://dc.lft.to/lastmile_qr_scan"}, "lat": 38.90235216666667, "is_reserved": 0, "bike_id": "9561874154f1b3b2219f577f94d0e7cf", "lon": -77.00202133333333, "is_disabled": 0, "fusion_lat": 0.0, "fusion_lon": 0.0, "name": "9561874154f1b3b2219f577f94d0e7cf", "type": "electric_scooter"}, {"rental_uris": {"ios": "https://dc.lft.to/lastmile_qr_scan", "android": "https://dc.lft.to/lastmile_qr_scan"}, "lat": 38.8888955, "is_reserved": 0, "bike_id": "086a0d5d98784457e5d06e3fd9312861", "lon": -77.03323233333333, "is_disabled": 0, "fusion_lat": 0.0, "fusion_lon": 0.0, "name": "086a0d5d98784457e5d06e3fd9312861", "type": "electric_scooter"}, {"rental_uris": {"ios": "https://dc.lft.to/lastmile_qr_scan", "android": "https://dc.lft.to/lastmile_qr_scan"}, "lat": 38.908339833333336, "is_reserved": 0, "bike_id": "85e0d80826e6f80cdff0a803a3801604", "lon": -77.0356025, "is_disabled": 0, "fusion_lat": 0.0, "fusion_lon": 0.0, "name": "85e0d80826e6f80cdff0a803a3801604", "type": "electric_scooter"}, {"rental_uris": {"ios": "https://dc.lft.to/lastmile_qr_scan", "android": "https://dc.lft.to/lastmile_qr_scan"}, "lat": 38.907415666666665, "is_reserved": 0, "bike_id": "0a04ed22427b407a54d48a79f363e6fa", "lon": -77.04278083333334, "is_disabled": 0, "fusion_lat": 0.0, "fusion_lon": 0.0, "name": "0a04ed22427b407a54d48a79f363e6fa", "type": "electric_scooter"}, {"rental_uris": {"ios": "https://dc.lft.to/lastmile_qr_scan", "android": "https://dc.lft.to/lastmile_qr_scan"}, "lat": 38.928603, "is_reserved": 0, "bike_id": "f677e93fac906971e522835cf3c96c99", "lon": -77.03321366666667, "is_disabled": 0, "fusion_lat": 0.0, "fusion_lon": 0.0, "name": "f677e93fac906971e522835cf3c96c99", "type": "electric_scooter"}, {"rental_uris": {"ios": "https://dc.lft.to/lastmile_qr_scan", "android": "https://dc.lft.to/lastmile_qr_scan"}, "lat": 38.9271315, "is_reserved": 0, "bike_id": "7c290bd41408a1c0db6368700129ebb0", "lon": -77.02314083333333, "is_disabled": 0, "fusion_lat": 0.0, "fusion_lon": 0.0, "name": "7c290bd41408a1c0db6368700129ebb0", "type": "electric_scooter"}, {"rental_uris": {"ios": "https://dc.lft.to/lastmile_qr_scan", "android": "https://dc.lft.to/lastmile_qr_scan"}, "lat": 38.92390566666667, "is_reserved": 0, "bike_id": "73a0102293d2204a1e574d16abe5006f", "lon": -77.02965683333333, "is_disabled": 0, "fusion_lat": 0.0, "fusion_lon": 0.0, "name": "73a0102293d2204a1e574d16abe5006f", "type": "electric_scooter"}, {"rental_uris": {"ios": "https://dc.lft.to/lastmile_qr_scan", "android": "https://dc.lft.to/lastmile_qr_scan"}, "lat": 38.93736233333333, "is_reserved": 0, "bike_id": "d1251a362e164c8495ad27c262317aac", "lon": -77.02457016666666, "is_disabled": 0, "fusion_lat": 0.0, "fusion_lon": 0.0, "name": "d1251a362e164c8495ad27c262317aac", "type": "electric_scooter"}, {"rental_uris": {"ios": "https://dc.lft.to/lastmile_qr_scan", "android": "https://dc.lft.to/lastmile_qr_scan"}, "lat": 38.92724616666667, "is_reserved": 0, "bike_id": "0847e54395c3cd9748c2c714c65ceda2", "lon": -77.03243933333333, "is_disabled": 0, "fusion_lat": 0.0, "fusion_lon": 0.0, "name": "0847e54395c3cd9748c2c714c65ceda2", "type": "electric_scooter"}, {"rental_uris": {"ios": "https://dc.lft.to/lastmile_qr_scan", "android": "https://dc.lft.to/lastmile_qr_scan"}, "lat": 38.88746616666667, "is_reserved": 0, "bike_id": "bb4e3fef1b7cc423dc77eb7ef2e7a470", "lon": -77.01723983333333, "is_disabled": 0, "fusion_lat": 0.0, "fusion_lon": 0.0, "name": "bb4e3fef1b7cc423dc77eb7ef2e7a470", "type": "electric_scooter"}, {"rental_uris": {"ios": "https://dc.lft.to/lastmile_qr_scan", "android": "https://dc.lft.to/lastmile_qr_scan"}, "lat": 38.858048333333336, "is_reserved": 0, "bike_id": "4b7d2535ed5f38153f7ecdaea0b86f38", "lon": -76.98655866666667, "is_disabled": 0, "fusion_lat": 0.0, "fusion_lon": 0.0, "name": "4b7d2535ed5f38153f7ecdaea0b86f38", "type": "electric_scooter"}, {"rental_uris": {"ios": "https://dc.lft.to/lastmile_qr_scan", "android": "https://dc.lft.to/lastmile_qr_scan"}, "lat": 38.9111675, "is_reserved": 0, "bike_id": "303d3ff6e70d8eec3fdd6a8c2268084a", "lon": -77.04459833333334, "is_disabled": 0, "fusion_lat": 0.0, "fusion_lon": 0.0, "name": "303d3ff6e70d8eec3fdd6a8c2268084a", "type": "electric_scooter"}, {"rental_uris": {"ios": "https://dc.lft.to/lastmile_qr_scan", "android": "https://dc.lft.to/lastmile_qr_scan"}, "lat": 38.885216, "is_reserved": 0, "bike_id": "5f4a19a2a9e3e658c0172b2cb1f0662e", "lon": -77.00271933333333, "is_disabled": 0, "fusion_lat": 0.0, "fusion_lon": 0.0, "name": "5f4a19a2a9e3e658c0172b2cb1f0662e", "type": "electric_scooter"}, {"rental_uris": {"ios": "https://dc.lft.to/lastmile_qr_scan", "android": "https://dc.lft.to/lastmile_qr_scan"}, "lat": 38.892277666666665, "is_reserved": 0, "bike_id": "003ffc4a3d5592776e332c45ef543634", "lon": -77.02207316666667, "is_disabled": 0, "fusion_lat": 0.0, "fusion_lon": 0.0, "name": "003ffc4a3d5592776e332c45ef543634", "type": "electric_scooter"}, {"rental_uris": {"ios": "https://dc.lft.to/lastmile_qr_scan", "android": "https://dc.lft.to/lastmile_qr_scan"}, "lat": 38.86624583333333, "is_reserved": 0, "bike_id": "0d1c06f1425cd28b42a5c4adceea4937", "lon": -76.98711266666666, "is_disabled": 0, "fusion_lat": 0.0, "fusion_lon": 0.0, "name": "0d1c06f1425cd28b42a5c4adceea4937", "type": "electric_scooter"}, {"rental_uris": {"ios": "https://dc.lft.to/lastmile_qr_scan", "android": "https://dc.lft.to/lastmile_qr_scan"}, "lat": 38.86514183333333, "is_reserved": 0, "bike_id": "4b8d7a2fc36e698cbc9d5facf1afeadf", "lon": -76.97330566666666, "is_disabled": 0, "fusion_lat": 0.0, "fusion_lon": 0.0, "name": "4b8d7a2fc36e698cbc9d5facf1afeadf", "type": "electric_bike"}, {"rental_uris": {"ios": "https://dc.lft.to/lastmile_qr_scan", "android": "https://dc.lft.to/lastmile_qr_scan"}, "lat": 38.884055000000004, "is_reserved": 0, "bike_id": "a87303832ca6e0f42da9b47d62d89db0", "lon": -77.01535933333334, "is_disabled": 0, "fusion_lat": 0.0, "fusion_lon": 0.0, "name": "a87303832ca6e0f42da9b47d62d89db0", "type": "electric_scooter"}, {"rental_uris": {"ios": "https://dc.lft.to/lastmile_qr_scan", "android": "https://dc.lft.to/lastmile_qr_scan"}, "lat": 38.86682616666667, "is_reserved": 0, "bike_id": "2ebf1532ca3667f7d9e20abb5c52cfb1", "lon": -76.9857055, "is_disabled": 0, "fusion_lat": 0.0, "fusion_lon": 0.0, "name": "2ebf1532ca3667f7d9e20abb5c52cfb1", "type": "electric_scooter"}, {"rental_uris": {"ios": "https://dc.lft.to/lastmile_qr_scan", "android": "https://dc.lft.to/lastmile_qr_scan"}, "lat": 38.82788133333333, "is_reserved": 0, "bike_id": "1183dbd0fda660147880e6c61ee3322c", "lon": -77.12491966666667, "is_disabled": 0, "fusion_lat": 0.0, "fusion_lon": 0.0, "name": "1183dbd0fda660147880e6c61ee3322c", "type": "electric_bike"}, {"rental_uris": {"ios": "https://dc.lft.to/lastmile_qr_scan", "android": "https://dc.lft.to/lastmile_qr_scan"}, "lat": 38.90952216666667, "is_reserved": 0, "bike_id": "f5651b13b07ff39ec92480b5705e49d4", "lon": -76.98437583333333, "is_disabled": 0, "fusion_lat": 0.0, "fusion_lon": 0.0, "name": "f5651b13b07ff39ec92480b5705e49d4", "type": "electric_bike"}, {"rental_uris": {"ios": "https://dc.lft.to/lastmile_qr_scan", "android": "https://dc.lft.to/lastmile_qr_scan"}, "lat": 38.9077515, "is_reserved": 0, "bike_id": "7442f345857bb910a05ff81820fc88ac", "lon": -77.07150366666667, "is_disabled": 0, "fusion_lat": 0.0, "fusion_lon": 0.0, "name": "7442f345857bb910a05ff81820fc88ac", "type": "electric_scooter"}, {"rental_uris": {"ios": "https://dc.lft.to/lastmile_qr_scan", "android": "https://dc.lft.to/lastmile_qr_scan"}, "lat": 38.89822516666667, "is_reserved": 0, "bike_id": "5441c8171f8b93841b22fd28db06610c", "lon": -77.03329783333334, "is_disabled": 0, "fusion_lat": 0.0, "fusion_lon": 0.0, "name": "5441c8171f8b93841b22fd28db06610c", "type": "electric_scooter"}, {"rental_uris": {"ios": "https://dc.lft.to/lastmile_qr_scan", "android": "https://dc.lft.to/lastmile_qr_scan"}, "lat": 38.9104765, "is_reserved": 0, "bike_id": "ad65d68df62d4141a5bf0380edbf1f3a", "lon": -77.04090333333333, "is_disabled": 0, "fusion_lat": 0.0, "fusion_lon": 0.0, "name": "ad65d68df62d4141a5bf0380edbf1f3a", "type": "electric_scooter"}, {"rental_uris": {"ios": "https://dc.lft.to/lastmile_qr_scan", "android": "https://dc.lft.to/lastmile_qr_scan"}, "lat": 38.90589583333333, "is_reserved": 0, "bike_id": "0b026cfea0d2488666ef236d7949a2b9", "lon": -77.00197716666666, "is_disabled": 0, "fusion_lat": 0.0, "fusion_lon": 0.0, "name": "0b026cfea0d2488666ef236d7949a2b9", "type": "electric_scooter"}, {"rental_uris": {"ios": "https://dc.lft.to/lastmile_qr_scan", "android": "https://dc.lft.to/lastmile_qr_scan"}, "lat": 38.899448666666665, "is_reserved": 0, "bike_id": "be7b9bf5d6dd8cdb92eb136195893fc8", "lon": -77.02387016666667, "is_disabled": 0, "fusion_lat": 0.0, "fusion_lon": 0.0, "name": "be7b9bf5d6dd8cdb92eb136195893fc8", "type": "electric_scooter"}, {"rental_uris": {"ios": "https://dc.lft.to/lastmile_qr_scan", "android": "https://dc.lft.to/lastmile_qr_scan"}, "lat": 38.915972333333336, "is_reserved": 0, "bike_id": "0ef54b34df779cbcc891dd7ca8707f80", "lon": -77.02105966666667, "is_disabled": 0, "fusion_lat": 0.0, "fusion_lon": 0.0, "name": "0ef54b34df779cbcc891dd7ca8707f80", "type": "electric_scooter"}, {"rental_uris": {"ios": "https://dc.lft.to/lastmile_qr_scan", "android": "https://dc.lft.to/lastmile_qr_scan"}, "lat": 38.90547016666667, "is_reserved": 0, "bike_id": "8d1ae02bce1fef75a544cf22ec6763de", "lon": -77.043386, "is_disabled": 0, "fusion_lat": 0.0, "fusion_lon": 0.0, "name": "8d1ae02bce1fef75a544cf22ec6763de", "type": "electric_scooter"}, {"rental_uris": {"ios": "https://dc.lft.to/lastmile_qr_scan", "android": "https://dc.lft.to/lastmile_qr_scan"}, "lat": 38.9040135, "is_reserved": 0, "bike_id": "d054fc4117d57283f279efae474c55f2", "lon": -77.04048716666667, "is_disabled": 0, "fusion_lat": 0.0, "fusion_lon": 0.0, "name": "d054fc4117d57283f279efae474c55f2", "type": "electric_scooter"}, {"rental_uris": {"ios": "https://dc.lft.to/lastmile_qr_scan", "android": "https://dc.lft.to/lastmile_qr_scan"}, "lat": 38.91803866666667, "is_reserved": 0, "bike_id": "00874b87feedcd2f1709b21383a66c6a", "lon": -77.02700483333334, "is_disabled": 0, "fusion_lat": 0.0, "fusion_lon": 0.0, "name": "00874b87feedcd2f1709b21383a66c6a", "type": "electric_scooter"}, {"rental_uris": {"ios": "https://dc.lft.to/lastmile_qr_scan", "android": "https://dc.lft.to/lastmile_qr_scan"}, "lat": 38.892235, "is_reserved": 0, "bike_id": "9b4c881cc8be214a1d6f588ebdce4ad3", "lon": -77.0419565, "is_disabled": 0, "fusion_lat": 0.0, "fusion_lon": 0.0, "name": "9b4c881cc8be214a1d6f588ebdce4ad3", "type": "electric_scooter"}, {"rental_uris": {"ios": "https://dc.lft.to/lastmile_qr_scan", "android": "https://dc.lft.to/lastmile_qr_scan"}, "lat": 38.951187, "is_reserved": 0, "bike_id": "5cec3e4f6ea749a60853e9c37f9acf6d", "lon": -77.01526066666666, "is_disabled": 0, "fusion_lat": 0.0, "fusion_lon": 0.0, "name": "5cec3e4f6ea749a60853e9c37f9acf6d", "type": "electric_bike"}, {"rental_uris": {"ios": "https://dc.lft.to/lastmile_qr_scan", "android": "https://dc.lft.to/lastmile_qr_scan"}, "lat": 38.8940015, "is_reserved": 0, "bike_id": "f22463bc2fc74d09307900795ab74886", "lon": -76.99497716666667, "is_disabled": 0, "fusion_lat": 0.0, "fusion_lon": 0.0, "name": "f22463bc2fc74d09307900795ab74886", "type": "electric_scooter"}, {"rental_uris": {"ios": "https://dc.lft.to/lastmile_qr_scan", "android": "https://dc.lft.to/lastmile_qr_scan"}, "lat": 38.954904166666665, "is_reserved": 0, "bike_id": "7121a64360ff30d2fd91b1a0594d39d3", "lon": -77.01723783333334, "is_disabled": 0, "fusion_lat": 0.0, "fusion_lon": 0.0, "name": "7121a64360ff30d2fd91b1a0594d39d3", "type": "electric_scooter"}, {"rental_uris": {"ios": "https://dc.lft.to/lastmile_qr_scan", "android": "https://dc.lft.to/lastmile_qr_scan"}, "lat": 38.92830766666667, "is_reserved": 0, "bike_id": "ba5c730864d9ab041476547284d073ab", "lon": -77.014198, "is_disabled": 0, "fusion_lat": 0.0, "fusion_lon": 0.0, "name": "ba5c730864d9ab041476547284d073ab", "type": "electric_scooter"}, {"rental_uris": {"ios": "https://dc.lft.to/lastmile_qr_scan", "android": "https://dc.lft.to/lastmile_qr_scan"}, "lat": 38.874613333333336, "is_reserved": 0, "bike_id": "4b32ca9f2a743be22fb7ec31fc85bb4f", "lon": -77.01895833333333, "is_disabled": 0, "fusion_lat": 0.0, "fusion_lon": 0.0, "name": "4b32ca9f2a743be22fb7ec31fc85bb4f", "type": "electric_scooter"}, {"rental_uris": {"ios": "https://dc.lft.to/lastmile_qr_scan", "android": "https://dc.lft.to/lastmile_qr_scan"}, "lat": 38.927672333333334, "is_reserved": 0, "bike_id": "4db95efff2bc790d95053c5f63c1bb66", "lon": -77.02742616666667, "is_disabled": 0, "fusion_lat": 0.0, "fusion_lon": 0.0, "name": "4db95efff2bc790d95053c5f63c1bb66", "type": "electric_scooter"}, {"rental_uris": {"ios": "https://dc.lft.to/lastmile_qr_scan", "android": "https://dc.lft.to/lastmile_qr_scan"}, "lat": 38.883291, "is_reserved": 0, "bike_id": "97b96908acdea6a6f57c9d2d6f52c5ae", "lon": -77.01729383333333, "is_disabled": 0, "fusion_lat": 0.0, "fusion_lon": 0.0, "name": "97b96908acdea6a6f57c9d2d6f52c5ae", "type": "electric_scooter"}, {"rental_uris": {"ios": "https://dc.lft.to/lastmile_qr_scan", "android": "https://dc.lft.to/lastmile_qr_scan"}, "lat": 38.90292766666666, "is_reserved": 0, "bike_id": "e6b772d46068c2d9ca8adf9f79c534c2", "lon": -77.04682366666667, "is_disabled": 0, "fusion_lat": 0.0, "fusion_lon": 0.0, "name": "e6b772d46068c2d9ca8adf9f79c534c2", "type": "electric_scooter"}, {"rental_uris": {"ios": "https://dc.lft.to/lastmile_qr_scan", "android": "https://dc.lft.to/lastmile_qr_scan"}, "lat": 38.89645466666666, "is_reserved": 0, "bike_id": "26b75bcacc68ed1bdae6fb8404a15ece", "lon": -77.02608733333334, "is_disabled": 0, "fusion_lat": 0.0, "fusion_lon": 0.0, "name": "26b75bcacc68ed1bdae6fb8404a15ece", "type": "electric_scooter"}, {"rental_uris": {"ios": "https://dc.lft.to/lastmile_qr_scan", "android": "https://dc.lft.to/lastmile_qr_scan"}, "lat": 38.905646, "is_reserved": 0, "bike_id": "bb1548cc974683acfb2a67b15474d847", "lon": -77.00596533333334, "is_disabled": 0, "fusion_lat": 0.0, "fusion_lon": 0.0, "name": "bb1548cc974683acfb2a67b15474d847", "type": "electric_scooter"}, {"rental_uris": {"ios": "https://dc.lft.to/lastmile_qr_scan", "android": "https://dc.lft.to/lastmile_qr_scan"}, "lat": 38.928863166666666, "is_reserved": 0, "bike_id": "365497867ab3cf2465e40b3768bbbc97", "lon": -77.01234666666667, "is_disabled": 0, "fusion_lat": 0.0, "fusion_lon": 0.0, "name": "365497867ab3cf2465e40b3768bbbc97", "type": "electric_scooter"}, {"rental_uris": {"ios": "https://dc.lft.to/lastmile_qr_scan", "android": "https://dc.lft.to/lastmile_qr_scan"}, "lat": 38.928574833333336, "is_reserved": 0, "bike_id": "9874e085d928bfb341af1dfa33d311ca", "lon": -77.03319783333333, "is_disabled": 0, "fusion_lat": 0.0, "fusion_lon": 0.0, "name": "9874e085d928bfb341af1dfa33d311ca", "type": "electric_scooter"}, {"rental_uris": {"ios": "https://dc.lft.to/lastmile_qr_scan", "android": "https://dc.lft.to/lastmile_qr_scan"}, "lat": 38.91672416666667, "is_reserved": 0, "bike_id": "8aa5d2382a98cdc4b93173ec445c98ca", "lon": -77.04633466666667, "is_disabled": 0, "fusion_lat": 0.0, "fusion_lon": 0.0, "name": "8aa5d2382a98cdc4b93173ec445c98ca", "type": "electric_scooter"}, {"rental_uris": {"ios": "https://dc.lft.to/lastmile_qr_scan", "android": "https://dc.lft.to/lastmile_qr_scan"}, "lat": 39.052549166666665, "is_reserved": 0, "bike_id": "b62299690979143169460f52de4744ab", "lon": -77.08066833333334, "is_disabled": 0, "fusion_lat": 0.0, "fusion_lon": 0.0, "name": "b62299690979143169460f52de4744ab", "type": "electric_bike"}, {"rental_uris": {"ios": "https://dc.lft.to/lastmile_qr_scan", "android": "https://dc.lft.to/lastmile_qr_scan"}, "lat": 38.8970895, "is_reserved": 0, "bike_id": "4966f0c7bf4fce03a5e76a3d845824e8", "lon": -77.02309816666667, "is_disabled": 0, "fusion_lat": 0.0, "fusion_lon": 0.0, "name": "4966f0c7bf4fce03a5e76a3d845824e8", "type": "electric_scooter"}, {"rental_uris": {"ios": "https://dc.lft.to/lastmile_qr_scan", "android": "https://dc.lft.to/lastmile_qr_scan"}, "lat": 38.90259016666667, "is_reserved": 0, "bike_id": "d3ecb0de5c1620fef4e30776fc213b5f", "lon": -77.02962866666667, "is_disabled": 0, "fusion_lat": 0.0, "fusion_lon": 0.0, "name": "d3ecb0de5c1620fef4e30776fc213b5f", "type": "electric_scooter"}, {"rental_uris": {"ios": "https://dc.lft.to/lastmile_qr_scan", "android": "https://dc.lft.to/lastmile_qr_scan"}, "lat": 38.93912483333333, "is_reserved": 0, "bike_id": "aba7ac8516a9079df248a80b24b8b724", "lon": -77.03620966666666, "is_disabled": 0, "fusion_lat": 0.0, "fusion_lon": 0.0, "name": "aba7ac8516a9079df248a80b24b8b724", "type": "electric_scooter"}, {"rental_uris": {"ios": "https://dc.lft.to/lastmile_qr_scan", "android": "https://dc.lft.to/lastmile_qr_scan"}, "lat": 38.915733333333336, "is_reserved": 0, "bike_id": "97fc5798c776ebe140c0a4314b237042", "lon": -77.04700516666666, "is_disabled": 0, "fusion_lat": 0.0, "fusion_lon": 0.0, "name": "97fc5798c776ebe140c0a4314b237042", "type": "electric_scooter"}, {"rental_uris": {"ios": "https://dc.lft.to/lastmile_qr_scan", "android": "https://dc.lft.to/lastmile_qr_scan"}, "lat": 38.873831, "is_reserved": 0, "bike_id": "ee9747e88958382e03eeb2eaabf70125", "lon": -76.9700945, "is_disabled": 0, "fusion_lat": 0.0, "fusion_lon": 0.0, "name": "ee9747e88958382e03eeb2eaabf70125", "type": "electric_scooter"}, {"rental_uris": {"ios": "https://dc.lft.to/lastmile_qr_scan", "android": "https://dc.lft.to/lastmile_qr_scan"}, "lat": 38.89828416666667, "is_reserved": 0, "bike_id": "741024b8e0eec6ba3c3a80a661d5dcf2", "lon": -77.03327216666666, "is_disabled": 0, "fusion_lat": 0.0, "fusion_lon": 0.0, "name": "741024b8e0eec6ba3c3a80a661d5dcf2", "type": "electric_scooter"}, {"rental_uris": {"ios": "https://dc.lft.to/lastmile_qr_scan", "android": "https://dc.lft.to/lastmile_qr_scan"}, "lat": 38.896156166666664, "is_reserved": 0, "bike_id": "c3cd21da415cbae9983b8cbcab14ff88", "lon": -77.00918416666667, "is_disabled": 0, "fusion_lat": 0.0, "fusion_lon": 0.0, "name": "c3cd21da415cbae9983b8cbcab14ff88", "type": "electric_scooter"}, {"rental_uris": {"ios": "https://dc.lft.to/lastmile_qr_scan", "android": "https://dc.lft.to/lastmile_qr_scan"}, "lat": 38.922543166666664, "is_reserved": 0, "bike_id": "bf0826629851d7b0a3e6510ff5bbcd2e", "lon": -77.04272366666666, "is_disabled": 0, "fusion_lat": 0.0, "fusion_lon": 0.0, "name": "bf0826629851d7b0a3e6510ff5bbcd2e", "type": "electric_scooter"}, {"rental_uris": {"ios": "https://dc.lft.to/lastmile_qr_scan", "android": "https://dc.lft.to/lastmile_qr_scan"}, "lat": 38.9112615, "is_reserved": 0, "bike_id": "09d67e4a36989b7965ddb1ec4fafaa82", "lon": -77.03859383333334, "is_disabled": 0, "fusion_lat": 0.0, "fusion_lon": 0.0, "name": "09d67e4a36989b7965ddb1ec4fafaa82", "type": "electric_scooter"}, {"rental_uris": {"ios": "https://dc.lft.to/lastmile_qr_scan", "android": "https://dc.lft.to/lastmile_qr_scan"}, "lat": 38.924706, "is_reserved": 0, "bike_id": "838ced42ef87597f77e474ff9ed304e1", "lon": -77.02220666666666, "is_disabled": 0, "fusion_lat": 0.0, "fusion_lon": 0.0, "name": "838ced42ef87597f77e474ff9ed304e1", "type": "electric_scooter"}, {"rental_uris": {"ios": "https://dc.lft.to/lastmile_qr_scan", "android": "https://dc.lft.to/lastmile_qr_scan"}, "lat": 38.8986465, "is_reserved": 0, "bike_id": "268bf1c8f4749bc2c14c8c149bbcedd5", "lon": -76.9464445, "is_disabled": 0, "fusion_lat": 0.0, "fusion_lon": 0.0, "name": "268bf1c8f4749bc2c14c8c149bbcedd5", "type": "electric_scooter"}, {"rental_uris": {"ios": "https://dc.lft.to/lastmile_qr_scan", "android": "https://dc.lft.to/lastmile_qr_scan"}, "lat": 38.928908, "is_reserved": 0, "bike_id": "c92f6425cb6ff2c29d488d1429817c67", "lon": -77.03261933333333, "is_disabled": 0, "fusion_lat": 0.0, "fusion_lon": 0.0, "name": "c92f6425cb6ff2c29d488d1429817c67", "type": "electric_scooter"}, {"rental_uris": {"ios": "https://dc.lft.to/lastmile_qr_scan", "android": "https://dc.lft.to/lastmile_qr_scan"}, "lat": 38.91110066666667, "is_reserved": 0, "bike_id": "919827c46759a950b10e9a360217fedb", "lon": -77.038309, "is_disabled": 0, "fusion_lat": 0.0, "fusion_lon": 0.0, "name": "919827c46759a950b10e9a360217fedb", "type": "electric_scooter"}, {"rental_uris": {"ios": "https://dc.lft.to/lastmile_qr_scan", "android": "https://dc.lft.to/lastmile_qr_scan"}, "lat": 38.88728733333333, "is_reserved": 0, "bike_id": "fe313578094fbd52a7e040b08db590da", "lon": -77.02581566666667, "is_disabled": 0, "fusion_lat": 0.0, "fusion_lon": 0.0, "name": "fe313578094fbd52a7e040b08db590da", "type": "electric_scooter"}, {"rental_uris": {"ios": "https://dc.lft.to/lastmile_qr_scan", "android": "https://dc.lft.to/lastmile_qr_scan"}, "lat": 38.93235766666667, "is_reserved": 0, "bike_id": "3c9087e384bc5d2d2e2f877ae55e3df4", "lon": -77.0284945, "is_disabled": 0, "fusion_lat": 0.0, "fusion_lon": 0.0, "name": "3c9087e384bc5d2d2e2f877ae55e3df4", "type": "electric_scooter"}, {"rental_uris": {"ios": "https://dc.lft.to/lastmile_qr_scan", "android": "https://dc.lft.to/lastmile_qr_scan"}, "lat": 38.935231333333334, "is_reserved": 0, "bike_id": "33b4e668d650f7c0b52e4083060fc479", "lon": -77.07657883333333, "is_disabled": 0, "fusion_lat": 0.0, "fusion_lon": 0.0, "name": "33b4e668d650f7c0b52e4083060fc479", "type": "electric_scooter"}, {"rental_uris": {"ios": "https://dc.lft.to/lastmile_qr_scan", "android": "https://dc.lft.to/lastmile_qr_scan"}, "lat": 38.913948166666664, "is_reserved": 0, "bike_id": "03f20861d18cbd82cf7db0a2fed3ad63", "lon": -77.03331716666666, "is_disabled": 0, "fusion_lat": 0.0, "fusion_lon": 0.0, "name": "03f20861d18cbd82cf7db0a2fed3ad63", "type": "electric_scooter"}, {"rental_uris": {"ios": "https://dc.lft.to/lastmile_qr_scan", "android": "https://dc.lft.to/lastmile_qr_scan"}, "lat": 38.894998666666666, "is_reserved": 0, "bike_id": "a57ba01dcc523cb904f691eae2de5ff6", "lon": -76.934767, "is_disabled": 0, "fusion_lat": 0.0, "fusion_lon": 0.0, "name": "a57ba01dcc523cb904f691eae2de5ff6", "type": "electric_scooter"}, {"rental_uris": {"ios": "https://dc.lft.to/lastmile_qr_scan", "android": "https://dc.lft.to/lastmile_qr_scan"}, "lat": 38.873787, "is_reserved": 0, "bike_id": "8a669bcfecaba769483bbc25e0256fee", "lon": -77.00105316666667, "is_disabled": 0, "fusion_lat": 0.0, "fusion_lon": 0.0, "name": "8a669bcfecaba769483bbc25e0256fee", "type": "electric_scooter"}, {"rental_uris": {"ios": "https://dc.lft.to/lastmile_qr_scan", "android": "https://dc.lft.to/lastmile_qr_scan"}, "lat": 38.921036666666666, "is_reserved": 0, "bike_id": "55b8b736ccd1379b81447e11750462e4", "lon": -77.01764216666666, "is_disabled": 0, "fusion_lat": 0.0, "fusion_lon": 0.0, "name": "55b8b736ccd1379b81447e11750462e4", "type": "electric_scooter"}, {"rental_uris": {"ios": "https://dc.lft.to/lastmile_qr_scan", "android": "https://dc.lft.to/lastmile_qr_scan"}, "lat": 38.9012375, "is_reserved": 0, "bike_id": "1dead61f7ed2f804e8d9402ba6e9635b", "lon": -77.03219516666667, "is_disabled": 0, "fusion_lat": 0.0, "fusion_lon": 0.0, "name": "1dead61f7ed2f804e8d9402ba6e9635b", "type": "electric_scooter"}, {"rental_uris": {"ios": "https://dc.lft.to/lastmile_qr_scan", "android": "https://dc.lft.to/lastmile_qr_scan"}, "lat": 38.93394883333333, "is_reserved": 0, "bike_id": "ee021293bdd728831ed0ff23010f561e", "lon": -77.05746833333333, "is_disabled": 0, "fusion_lat": 0.0, "fusion_lon": 0.0, "name": "ee021293bdd728831ed0ff23010f561e", "type": "electric_scooter"}, {"rental_uris": {"ios": "https://dc.lft.to/lastmile_qr_scan", "android": "https://dc.lft.to/lastmile_qr_scan"}, "lat": 38.89228033333333, "is_reserved": 0, "bike_id": "a0cff623935c6a2cb83cd1fb64e4568e", "lon": -77.0176395, "is_disabled": 0, "fusion_lat": 0.0, "fusion_lon": 0.0, "name": "a0cff623935c6a2cb83cd1fb64e4568e", "type": "electric_scooter"}, {"rental_uris": {"ios": "https://dc.lft.to/lastmile_qr_scan", "android": "https://dc.lft.to/lastmile_qr_scan"}, "lat": 38.9141605, "is_reserved": 0, "bike_id": "954286d59649b4172057c4fdfb898cd0", "lon": -77.02331283333334, "is_disabled": 0, "fusion_lat": 0.0, "fusion_lon": 0.0, "name": "954286d59649b4172057c4fdfb898cd0", "type": "electric_scooter"}, {"rental_uris": {"ios": "https://dc.lft.to/lastmile_qr_scan", "android": "https://dc.lft.to/lastmile_qr_scan"}, "lat": 38.9267785, "is_reserved": 0, "bike_id": "1a2d0ae7c2c5b35df043071e31937677", "lon": -77.03792283333334, "is_disabled": 0, "fusion_lat": 0.0, "fusion_lon": 0.0, "name": "1a2d0ae7c2c5b35df043071e31937677", "type": "electric_scooter"}, {"rental_uris": {"ios": "https://dc.lft.to/lastmile_qr_scan", "android": "https://dc.lft.to/lastmile_qr_scan"}, "lat": 38.91758433333333, "is_reserved": 0, "bike_id": "acd19bb3d6d250ab96ae4edc371ccce9", "lon": -77.02807716666666, "is_disabled": 0, "fusion_lat": 0.0, "fusion_lon": 0.0, "name": "acd19bb3d6d250ab96ae4edc371ccce9", "type": "electric_scooter"}, {"rental_uris": {"ios": "https://dc.lft.to/lastmile_qr_scan", "android": "https://dc.lft.to/lastmile_qr_scan"}, "lat": 38.915974166666665, "is_reserved": 0, "bike_id": "201fbdc72d8b058a68eb4fcec40f9f8c", "lon": -77.04620833333334, "is_disabled": 0, "fusion_lat": 0.0, "fusion_lon": 0.0, "name": "201fbdc72d8b058a68eb4fcec40f9f8c", "type": "electric_scooter"}, {"rental_uris": {"ios": "https://dc.lft.to/lastmile_qr_scan", "android": "https://dc.lft.to/lastmile_qr_scan"}, "lat": 38.897441666666666, "is_reserved": 0, "bike_id": "8b9f8bfc06f39592f3799e9ec5e79bd6", "lon": -76.97978583333334, "is_disabled": 0, "fusion_lat": 0.0, "fusion_lon": 0.0, "name": "8b9f8bfc06f39592f3799e9ec5e79bd6", "type": "electric_scooter"}, {"rental_uris": {"ios": "https://dc.lft.to/lastmile_qr_scan", "android": "https://dc.lft.to/lastmile_qr_scan"}, "lat": 38.8761065, "is_reserved": 0, "bike_id": "f1eb4981f525b7ed0cdd344061d59f10", "lon": -77.00744916666666, "is_disabled": 0, "fusion_lat": 0.0, "fusion_lon": 0.0, "name": "f1eb4981f525b7ed0cdd344061d59f10", "type": "electric_scooter"}, {"rental_uris": {"ios": "https://dc.lft.to/lastmile_qr_scan", "android": "https://dc.lft.to/lastmile_qr_scan"}, "lat": 38.9558275, "is_reserved": 0, "bike_id": "c4257385d03363c07eb8805e09bb0cd3", "lon": -77.07014666666667, "is_disabled": 0, "fusion_lat": 0.0, "fusion_lon": 0.0, "name": "c4257385d03363c07eb8805e09bb0cd3", "type": "electric_scooter"}, {"rental_uris": {"ios": "https://dc.lft.to/lastmile_qr_scan", "android": "https://dc.lft.to/lastmile_qr_scan"}, "lat": 38.897488, "is_reserved": 0, "bike_id": "ed7b2a2d4afeeb57f0b37ae6f48b9850", "lon": -77.05144466666667, "is_disabled": 0, "fusion_lat": 0.0, "fusion_lon": 0.0, "name": "ed7b2a2d4afeeb57f0b37ae6f48b9850", "type": "electric_scooter"}, {"rental_uris": {"ios": "https://dc.lft.to/lastmile_qr_scan", "android": "https://dc.lft.to/lastmile_qr_scan"}, "lat": 38.89641833333334, "is_reserved": 0, "bike_id": "56d8f976bc675af8939611760d7fe2fa", "lon": -77.00919316666666, "is_disabled": 0, "fusion_lat": 0.0, "fusion_lon": 0.0, "name": "56d8f976bc675af8939611760d7fe2fa", "type": "electric_scooter"}, {"rental_uris": {"ios": "https://dc.lft.to/lastmile_qr_scan", "android": "https://dc.lft.to/lastmile_qr_scan"}, "lat": 38.916349833333335, "is_reserved": 0, "bike_id": "68c41eeb6a572e84e27e542e827b8902", "lon": -77.0320995, "is_disabled": 0, "fusion_lat": 0.0, "fusion_lon": 0.0, "name": "68c41eeb6a572e84e27e542e827b8902", "type": "electric_scooter"}, {"rental_uris": {"ios": "https://dc.lft.to/lastmile_qr_scan", "android": "https://dc.lft.to/lastmile_qr_scan"}, "lat": 38.892181666666666, "is_reserved": 0, "bike_id": "c9ca25d30a9a736f67a93c5ede3b47e2", "lon": -77.04514166666667, "is_disabled": 0, "fusion_lat": 0.0, "fusion_lon": 0.0, "name": "c9ca25d30a9a736f67a93c5ede3b47e2", "type": "electric_scooter"}, {"rental_uris": {"ios": "https://dc.lft.to/lastmile_qr_scan", "android": "https://dc.lft.to/lastmile_qr_scan"}, "lat": 38.907883, "is_reserved": 0, "bike_id": "2ffd5070848966345d71d08c61f1ed9c", "lon": -77.0379345, "is_disabled": 0, "fusion_lat": 0.0, "fusion_lon": 0.0, "name": "2ffd5070848966345d71d08c61f1ed9c", "type": "electric_scooter"}, {"rental_uris": {"ios": "https://dc.lft.to/lastmile_qr_scan", "android": "https://dc.lft.to/lastmile_qr_scan"}, "lat": 38.911297166666664, "is_reserved": 0, "bike_id": "b294b5aa01b21d46339490414c73fed2", "lon": -77.0219005, "is_disabled": 0, "fusion_lat": 0.0, "fusion_lon": 0.0, "name": "b294b5aa01b21d46339490414c73fed2", "type": "electric_scooter"}, {"rental_uris": {"ios": "https://dc.lft.to/lastmile_qr_scan", "android": "https://dc.lft.to/lastmile_qr_scan"}, "lat": 38.903181000000004, "is_reserved": 0, "bike_id": "a2665a37ffee44403b6db1d572034a1e", "lon": -77.02127866666666, "is_disabled": 0, "fusion_lat": 0.0, "fusion_lon": 0.0, "name": "a2665a37ffee44403b6db1d572034a1e", "type": "electric_scooter"}, {"rental_uris": {"ios": "https://dc.lft.to/lastmile_qr_scan", "android": "https://dc.lft.to/lastmile_qr_scan"}, "lat": 38.92737666666667, "is_reserved": 0, "bike_id": "d91e41347a323eb1bcfd61d4f5e7f202", "lon": -77.03432183333334, "is_disabled": 0, "fusion_lat": 0.0, "fusion_lon": 0.0, "name": "d91e41347a323eb1bcfd61d4f5e7f202", "type": "electric_scooter"}, {"rental_uris": {"ios": "https://dc.lft.to/lastmile_qr_scan", "android": "https://dc.lft.to/lastmile_qr_scan"}, "lat": 38.91390033333333, "is_reserved": 0, "bike_id": "3bca3fc220f1722bdd61572a6c340aa8", "lon": -77.0365575, "is_disabled": 0, "fusion_lat": 0.0, "fusion_lon": 0.0, "name": "3bca3fc220f1722bdd61572a6c340aa8", "type": "electric_scooter"}, {"rental_uris": {"ios": "https://dc.lft.to/lastmile_qr_scan", "android": "https://dc.lft.to/lastmile_qr_scan"}, "lat": 38.89876683333333, "is_reserved": 0, "bike_id": "49f25a89b6a649316a60f97aeedc0a93", "lon": -77.00927033333333, "is_disabled": 0, "fusion_lat": 0.0, "fusion_lon": 0.0, "name": "49f25a89b6a649316a60f97aeedc0a93", "type": "electric_scooter"}, {"rental_uris": {"ios": "https://dc.lft.to/lastmile_qr_scan", "android": "https://dc.lft.to/lastmile_qr_scan"}, "lat": 38.88730233333333, "is_reserved": 0, "bike_id": "04ec4ebdf5e0d8fbc3eb9e9423951f1a", "lon": -77.025822, "is_disabled": 0, "fusion_lat": 0.0, "fusion_lon": 0.0, "name": "04ec4ebdf5e0d8fbc3eb9e9423951f1a", "type": "electric_scooter"}, {"rental_uris": {"ios": "https://dc.lft.to/lastmile_qr_scan", "android": "https://dc.lft.to/lastmile_qr_scan"}, "lat": 38.914192, "is_reserved": 0, "bike_id": "559c128a9455f2ed4cb4f0b5157cd4db", "lon": -77.02233866666667, "is_disabled": 0, "fusion_lat": 0.0, "fusion_lon": 0.0, "name": "559c128a9455f2ed4cb4f0b5157cd4db", "type": "electric_scooter"}, {"rental_uris": {"ios": "https://dc.lft.to/lastmile_qr_scan", "android": "https://dc.lft.to/lastmile_qr_scan"}, "lat": 38.892337166666664, "is_reserved": 0, "bike_id": "45df31ae9b96e96568e7b3221da57926", "lon": -77.02178683333334, "is_disabled": 0, "fusion_lat": 0.0, "fusion_lon": 0.0, "name": "45df31ae9b96e96568e7b3221da57926", "type": "electric_scooter"}, {"rental_uris": {"ios": "https://dc.lft.to/lastmile_qr_scan", "android": "https://dc.lft.to/lastmile_qr_scan"}, "lat": 38.90153466666667, "is_reserved": 0, "bike_id": "fb6640d4b6a77d74ef624fce609f1fd2", "lon": -77.03552966666666, "is_disabled": 0, "fusion_lat": 0.0, "fusion_lon": 0.0, "name": "fb6640d4b6a77d74ef624fce609f1fd2", "type": "electric_scooter"}, {"rental_uris": {"ios": "https://dc.lft.to/lastmile_qr_scan", "android": "https://dc.lft.to/lastmile_qr_scan"}, "lat": 38.866797166666665, "is_reserved": 0, "bike_id": "e971bd3afa6ef7b4d42483d31fbe5317", "lon": -76.98576733333333, "is_disabled": 0, "fusion_lat": 0.0, "fusion_lon": 0.0, "name": "e971bd3afa6ef7b4d42483d31fbe5317", "type": "electric_scooter"}, {"rental_uris": {"ios": "https://dc.lft.to/lastmile_qr_scan", "android": "https://dc.lft.to/lastmile_qr_scan"}, "lat": 38.85653333333333, "is_reserved": 0, "bike_id": "dab558e433e491bafafdf031149ae8e8", "lon": -77.0852845, "is_disabled": 0, "fusion_lat": 0.0, "fusion_lon": 0.0, "name": "dab558e433e491bafafdf031149ae8e8", "type": "electric_bike"}, {"rental_uris": {"ios": "https://dc.lft.to/lastmile_qr_scan", "android": "https://dc.lft.to/lastmile_qr_scan"}, "lat": 38.903393666666666, "is_reserved": 0, "bike_id": "8b3c64a38356712333600a40db7cc9cb", "lon": -77.0591775, "is_disabled": 0, "fusion_lat": 0.0, "fusion_lon": 0.0, "name": "8b3c64a38356712333600a40db7cc9cb", "type": "electric_scooter"}, {"rental_uris": {"ios": "https://dc.lft.to/lastmile_qr_scan", "android": "https://dc.lft.to/lastmile_qr_scan"}, "lat": 38.8728845, "is_reserved": 0, "bike_id": "5168c0cffd9bd3fe9dd069ba4a58e32f", "lon": -76.99964416666667, "is_disabled": 0, "fusion_lat": 0.0, "fusion_lon": 0.0, "name": "5168c0cffd9bd3fe9dd069ba4a58e32f", "type": "electric_scooter"}, {"rental_uris": {"ios": "https://dc.lft.to/lastmile_qr_scan", "android": "https://dc.lft.to/lastmile_qr_scan"}, "lat": 38.857169166666665, "is_reserved": 0, "bike_id": "051955ee632b2e778a4415cf59fa6b6c", "lon": -76.99594833333333, "is_disabled": 0, "fusion_lat": 0.0, "fusion_lon": 0.0, "name": "051955ee632b2e778a4415cf59fa6b6c", "type": "electric_scooter"}, {"rental_uris": {"ios": "https://dc.lft.to/lastmile_qr_scan", "android": "https://dc.lft.to/lastmile_qr_scan"}, "lat": 38.91706383333333, "is_reserved": 0, "bike_id": "f4b1f634bde3e2b6d4d69e82619c86e9", "lon": -77.02888183333333, "is_disabled": 0, "fusion_lat": 0.0, "fusion_lon": 0.0, "name": "f4b1f634bde3e2b6d4d69e82619c86e9", "type": "electric_scooter"}, {"rental_uris": {"ios": "https://dc.lft.to/lastmile_qr_scan", "android": "https://dc.lft.to/lastmile_qr_scan"}, "lat": 38.91118633333333, "is_reserved": 0, "bike_id": "475fa1993d6a54ddd606d8f609592639", "lon": -77.04241333333333, "is_disabled": 0, "fusion_lat": 0.0, "fusion_lon": 0.0, "name": "475fa1993d6a54ddd606d8f609592639", "type": "electric_scooter"}, {"rental_uris": {"ios": "https://dc.lft.to/lastmile_qr_scan", "android": "https://dc.lft.to/lastmile_qr_scan"}, "lat": 38.92244733333333, "is_reserved": 0, "bike_id": "64f58506935b3f733faad3fdcd514e0d", "lon": -76.98086416666666, "is_disabled": 0, "fusion_lat": 0.0, "fusion_lon": 0.0, "name": "64f58506935b3f733faad3fdcd514e0d", "type": "electric_scooter"}, {"rental_uris": {"ios": "https://dc.lft.to/lastmile_qr_scan", "android": "https://dc.lft.to/lastmile_qr_scan"}, "lat": 38.91110466666667, "is_reserved": 0, "bike_id": "e4821d5e4a9be61df742d7af22bd8363", "lon": -77.03830316666667, "is_disabled": 0, "fusion_lat": 0.0, "fusion_lon": 0.0, "name": "e4821d5e4a9be61df742d7af22bd8363", "type": "electric_scooter"}, {"rental_uris": {"ios": "https://dc.lft.to/lastmile_qr_scan", "android": "https://dc.lft.to/lastmile_qr_scan"}, "lat": 38.845504166666665, "is_reserved": 0, "bike_id": "4cb9a110cf6621883a80e9dee30b728f", "lon": -76.98780633333334, "is_disabled": 0, "fusion_lat": 0.0, "fusion_lon": 0.0, "name": "4cb9a110cf6621883a80e9dee30b728f", "type": "electric_bike"}, {"rental_uris": {"ios": "https://dc.lft.to/lastmile_qr_scan", "android": "https://dc.lft.to/lastmile_qr_scan"}, "lat": 38.95624933333333, "is_reserved": 0, "bike_id": "da2e463d1238364ef52a94d548dcadbb", "lon": -76.93873716666667, "is_disabled": 0, "fusion_lat": 0.0, "fusion_lon": 0.0, "name": "da2e463d1238364ef52a94d548dcadbb", "type": "electric_bike"}, {"rental_uris": {"ios": "https://dc.lft.to/lastmile_qr_scan", "android": "https://dc.lft.to/lastmile_qr_scan"}, "lat": 38.897191666666664, "is_reserved": 0, "bike_id": "2a94aec9820c7ab2b21a77a98ae4d2b3", "lon": -77.0098705, "is_disabled": 0, "fusion_lat": 0.0, "fusion_lon": 0.0, "name": "2a94aec9820c7ab2b21a77a98ae4d2b3", "type": "electric_scooter"}, {"rental_uris": {"ios": "https://dc.lft.to/lastmile_qr_scan", "android": "https://dc.lft.to/lastmile_qr_scan"}, "lat": 38.919765, "is_reserved": 0, "bike_id": "c035a795c1b81e877332f2c056f0f8e6", "lon": -77.02376933333333, "is_disabled": 0, "fusion_lat": 0.0, "fusion_lon": 0.0, "name": "c035a795c1b81e877332f2c056f0f8e6", "type": "electric_scooter"}, {"rental_uris": {"ios": "https://dc.lft.to/lastmile_qr_scan", "android": "https://dc.lft.to/lastmile_qr_scan"}, "lat": 38.91549233333333, "is_reserved": 0, "bike_id": "2643b9026ee247912f3a4a4b407fd463", "lon": -77.03172333333333, "is_disabled": 0, "fusion_lat": 0.0, "fusion_lon": 0.0, "name": "2643b9026ee247912f3a4a4b407fd463", "type": "electric_scooter"}, {"rental_uris": {"ios": "https://dc.lft.to/lastmile_qr_scan", "android": "https://dc.lft.to/lastmile_qr_scan"}, "lat": 38.9191265, "is_reserved": 0, "bike_id": "daaf198c64054948b8c971a318e094f5", "lon": -77.02137266666666, "is_disabled": 0, "fusion_lat": 0.0, "fusion_lon": 0.0, "name": "daaf198c64054948b8c971a318e094f5", "type": "electric_scooter"}, {"rental_uris": {"ios": "https://dc.lft.to/lastmile_qr_scan", "android": "https://dc.lft.to/lastmile_qr_scan"}, "lat": 38.920607, "is_reserved": 0, "bike_id": "c5dfc86f4b9e53bce96c76c7e0b3c278", "lon": -77.02301133333333, "is_disabled": 0, "fusion_lat": 0.0, "fusion_lon": 0.0, "name": "c5dfc86f4b9e53bce96c76c7e0b3c278", "type": "electric_scooter"}, {"rental_uris": {"ios": "https://dc.lft.to/lastmile_qr_scan", "android": "https://dc.lft.to/lastmile_qr_scan"}, "lat": 38.924575, "is_reserved": 0, "bike_id": "ac7bc84d97227b32a9adea0fe712e9be", "lon": -77.02260033333333, "is_disabled": 0, "fusion_lat": 0.0, "fusion_lon": 0.0, "name": "ac7bc84d97227b32a9adea0fe712e9be", "type": "electric_scooter"}, {"rental_uris": {"ios": "https://dc.lft.to/lastmile_qr_scan", "android": "https://dc.lft.to/lastmile_qr_scan"}, "lat": 38.921602666666665, "is_reserved": 0, "bike_id": "9fc09af1398fdb7c3e1c17e6281b42f7", "lon": -77.03378833333333, "is_disabled": 0, "fusion_lat": 0.0, "fusion_lon": 0.0, "name": "9fc09af1398fdb7c3e1c17e6281b42f7", "type": "electric_scooter"}, {"rental_uris": {"ios": "https://dc.lft.to/lastmile_qr_scan", "android": "https://dc.lft.to/lastmile_qr_scan"}, "lat": 38.9109685, "is_reserved": 0, "bike_id": "80688f1d299fe96e65cf0d721d6ab774", "lon": -77.038628, "is_disabled": 0, "fusion_lat": 0.0, "fusion_lon": 0.0, "name": "80688f1d299fe96e65cf0d721d6ab774", "type": "electric_scooter"}, {"rental_uris": {"ios": "https://dc.lft.to/lastmile_qr_scan", "android": "https://dc.lft.to/lastmile_qr_scan"}, "lat": 38.90831333333333, "is_reserved": 0, "bike_id": "987fc0b3e12f3d86040e6d14c5c8b0ad", "lon": -77.03392533333333, "is_disabled": 0, "fusion_lat": 0.0, "fusion_lon": 0.0, "name": "987fc0b3e12f3d86040e6d14c5c8b0ad", "type": "electric_scooter"}, {"rental_uris": {"ios": "https://dc.lft.to/lastmile_qr_scan", "android": "https://dc.lft.to/lastmile_qr_scan"}, "lat": 38.8843125, "is_reserved": 0, "bike_id": "35f456be1ce14dbd4c99fe0d02fe0718", "lon": -77.023253, "is_disabled": 0, "fusion_lat": 0.0, "fusion_lon": 0.0, "name": "35f456be1ce14dbd4c99fe0d02fe0718", "type": "electric_scooter"}, {"rental_uris": {"ios": "https://dc.lft.to/lastmile_qr_scan", "android": "https://dc.lft.to/lastmile_qr_scan"}, "lat": 38.94899, "is_reserved": 0, "bike_id": "b5ee50a5a4e4df5000acbedc670bd8f1", "lon": -76.96373716666666, "is_disabled": 0, "fusion_lat": 0.0, "fusion_lon": 0.0, "name": "b5ee50a5a4e4df5000acbedc670bd8f1", "type": "electric_bike"}, {"rental_uris": {"ios": "https://dc.lft.to/lastmile_qr_scan", "android": "https://dc.lft.to/lastmile_qr_scan"}, "lat": 38.9288375, "is_reserved": 0, "bike_id": "0ebafd84a28748eff142f77eed68a86b", "lon": -77.03344566666667, "is_disabled": 0, "fusion_lat": 0.0, "fusion_lon": 0.0, "name": "0ebafd84a28748eff142f77eed68a86b", "type": "electric_scooter"}, {"rental_uris": {"ios": "https://dc.lft.to/lastmile_qr_scan", "android": "https://dc.lft.to/lastmile_qr_scan"}, "lat": 38.93280766666667, "is_reserved": 0, "bike_id": "c3b8b0c7f96cdb889fe434ebbe8268ed", "lon": -77.02541966666666, "is_disabled": 0, "fusion_lat": 0.0, "fusion_lon": 0.0, "name": "c3b8b0c7f96cdb889fe434ebbe8268ed", "type": "electric_scooter"}, {"rental_uris": {"ios": "https://dc.lft.to/lastmile_qr_scan", "android": "https://dc.lft.to/lastmile_qr_scan"}, "lat": 38.91413683333333, "is_reserved": 0, "bike_id": "3f49e1176d1070957b4a2bf884036a7b", "lon": -77.0234215, "is_disabled": 0, "fusion_lat": 0.0, "fusion_lon": 0.0, "name": "3f49e1176d1070957b4a2bf884036a7b", "type": "electric_scooter"}, {"rental_uris": {"ios": "https://dc.lft.to/lastmile_qr_scan", "android": "https://dc.lft.to/lastmile_qr_scan"}, "lat": 38.923684, "is_reserved": 0, "bike_id": "a2bde26f0f219053851d9cec33a1d57e", "lon": -77.0212535, "is_disabled": 0, "fusion_lat": 0.0, "fusion_lon": 0.0, "name": "a2bde26f0f219053851d9cec33a1d57e", "type": "electric_scooter"}, {"rental_uris": {"ios": "https://dc.lft.to/lastmile_qr_scan", "android": "https://dc.lft.to/lastmile_qr_scan"}, "lat": 38.907096, "is_reserved": 0, "bike_id": "dec9c988e6795775dba295449cdc7b90", "lon": -77.031889, "is_disabled": 0, "fusion_lat": 0.0, "fusion_lon": 0.0, "name": "dec9c988e6795775dba295449cdc7b90", "type": "electric_scooter"}, {"rental_uris": {"ios": "https://dc.lft.to/lastmile_qr_scan", "android": "https://dc.lft.to/lastmile_qr_scan"}, "lat": 38.90007166666667, "is_reserved": 0, "bike_id": "dc09413e837fa0e4e99fa239a62459b0", "lon": -76.98833616666667, "is_disabled": 0, "fusion_lat": 0.0, "fusion_lon": 0.0, "name": "dc09413e837fa0e4e99fa239a62459b0", "type": "electric_scooter"}, {"rental_uris": {"ios": "https://dc.lft.to/lastmile_qr_scan", "android": "https://dc.lft.to/lastmile_qr_scan"}, "lat": 38.86566116666667, "is_reserved": 0, "bike_id": "a34f34d7b454028e83b5c273d6d7a685", "lon": -76.983379, "is_disabled": 0, "fusion_lat": 0.0, "fusion_lon": 0.0, "name": "a34f34d7b454028e83b5c273d6d7a685", "type": "electric_scooter"}, {"rental_uris": {"ios": "https://dc.lft.to/lastmile_qr_scan", "android": "https://dc.lft.to/lastmile_qr_scan"}, "lat": 38.909821, "is_reserved": 0, "bike_id": "77ce216ae8e4500f9cbe64d937fc8f72", "lon": -77.009047, "is_disabled": 0, "fusion_lat": 0.0, "fusion_lon": 0.0, "name": "77ce216ae8e4500f9cbe64d937fc8f72", "type": "electric_bike"}, {"rental_uris": {"ios": "https://dc.lft.to/lastmile_qr_scan", "android": "https://dc.lft.to/lastmile_qr_scan"}, "lat": 38.925492166666665, "is_reserved": 0, "bike_id": "b45a1d4d29f1c2fb7aa12da8b0a716d5", "lon": -77.02710633333334, "is_disabled": 0, "fusion_lat": 0.0, "fusion_lon": 0.0, "name": "b45a1d4d29f1c2fb7aa12da8b0a716d5", "type": "electric_scooter"}, {"rental_uris": {"ios": "https://dc.lft.to/lastmile_qr_scan", "android": "https://dc.lft.to/lastmile_qr_scan"}, "lat": 38.939816, "is_reserved": 0, "bike_id": "9b32ea72133fece4e2e38b327b2d8e54", "lon": -77.0326405, "is_disabled": 0, "fusion_lat": 0.0, "fusion_lon": 0.0, "name": "9b32ea72133fece4e2e38b327b2d8e54", "type": "electric_scooter"}, {"rental_uris": {"ios": "https://dc.lft.to/lastmile_qr_scan", "android": "https://dc.lft.to/lastmile_qr_scan"}, "lat": 38.915730833333335, "is_reserved": 0, "bike_id": "e65bc9fef4b7bd9104dccb9666440f46", "lon": -77.02195233333333, "is_disabled": 0, "fusion_lat": 0.0, "fusion_lon": 0.0, "name": "e65bc9fef4b7bd9104dccb9666440f46", "type": "electric_scooter"}, {"rental_uris": {"ios": "https://dc.lft.to/lastmile_qr_scan", "android": "https://dc.lft.to/lastmile_qr_scan"}, "lat": 38.89369683333334, "is_reserved": 0, "bike_id": "6821ee5295f84806fae2d9a82ea3ebc3", "lon": -77.0155385, "is_disabled": 0, "fusion_lat": 0.0, "fusion_lon": 0.0, "name": "6821ee5295f84806fae2d9a82ea3ebc3", "type": "electric_scooter"}, {"rental_uris": {"ios": "https://dc.lft.to/lastmile_qr_scan", "android": "https://dc.lft.to/lastmile_qr_scan"}, "lat": 38.91343633333334, "is_reserved": 0, "bike_id": "4ab27fe39ec7aaa789015e324dca5846", "lon": -77.01213933333334, "is_disabled": 0, "fusion_lat": 0.0, "fusion_lon": 0.0, "name": "4ab27fe39ec7aaa789015e324dca5846", "type": "electric_scooter"}, {"rental_uris": {"ios": "https://dc.lft.to/lastmile_qr_scan", "android": "https://dc.lft.to/lastmile_qr_scan"}, "lat": 38.88604266666667, "is_reserved": 0, "bike_id": "4b0b55f80399aa184a87afd7cf7a2d62", "lon": -77.03210933333334, "is_disabled": 0, "fusion_lat": 0.0, "fusion_lon": 0.0, "name": "4b0b55f80399aa184a87afd7cf7a2d62", "type": "electric_scooter"}, {"rental_uris": {"ios": "https://dc.lft.to/lastmile_qr_scan", "android": "https://dc.lft.to/lastmile_qr_scan"}, "lat": 38.839312166666666, "is_reserved": 0, "bike_id": "77dfa8f8e80a973e844e410907523b07", "lon": -77.07902183333333, "is_disabled": 0, "fusion_lat": 0.0, "fusion_lon": 0.0, "name": "77dfa8f8e80a973e844e410907523b07", "type": "electric_bike"}, {"rental_uris": {"ios": "https://dc.lft.to/lastmile_qr_scan", "android": "https://dc.lft.to/lastmile_qr_scan"}, "lat": 38.90054166666667, "is_reserved": 0, "bike_id": "dca27f609c75b65fe0d7951205a32004", "lon": -77.02973266666666, "is_disabled": 0, "fusion_lat": 0.0, "fusion_lon": 0.0, "name": "dca27f609c75b65fe0d7951205a32004", "type": "electric_scooter"}, {"rental_uris": {"ios": "https://dc.lft.to/lastmile_qr_scan", "android": "https://dc.lft.to/lastmile_qr_scan"}, "lat": 38.89221216666667, "is_reserved": 0, "bike_id": "7433ec62e8e05e9fee5e12b2545b8fa0", "lon": -77.04769866666666, "is_disabled": 0, "fusion_lat": 0.0, "fusion_lon": 0.0, "name": "7433ec62e8e05e9fee5e12b2545b8fa0", "type": "electric_scooter"}, {"rental_uris": {"ios": "https://dc.lft.to/lastmile_qr_scan", "android": "https://dc.lft.to/lastmile_qr_scan"}, "lat": 38.924558, "is_reserved": 0, "bike_id": "297f8f9c102ec0bbe5fad17085a1627e", "lon": -77.05233716666666, "is_disabled": 0, "fusion_lat": 0.0, "fusion_lon": 0.0, "name": "297f8f9c102ec0bbe5fad17085a1627e", "type": "electric_scooter"}, {"rental_uris": {"ios": "https://dc.lft.to/lastmile_qr_scan", "android": "https://dc.lft.to/lastmile_qr_scan"}, "lat": 38.954794166666666, "is_reserved": 0, "bike_id": "62d5649bf924681d4b14a800e7d42bb4", "lon": -77.0266725, "is_disabled": 0, "fusion_lat": 0.0, "fusion_lon": 0.0, "name": "62d5649bf924681d4b14a800e7d42bb4", "type": "electric_bike"}, {"rental_uris": {"ios": "https://dc.lft.to/lastmile_qr_scan", "android": "https://dc.lft.to/lastmile_qr_scan"}, "lat": 38.898351, "is_reserved": 0, "bike_id": "49352755b8c95021e500c1b2c017840b", "lon": -77.04553866666667, "is_disabled": 0, "fusion_lat": 0.0, "fusion_lon": 0.0, "name": "49352755b8c95021e500c1b2c017840b", "type": "electric_scooter"}, {"rental_uris": {"ios": "https://dc.lft.to/lastmile_qr_scan", "android": "https://dc.lft.to/lastmile_qr_scan"}, "lat": 38.918088833333336, "is_reserved": 0, "bike_id": "e51e62ec1e12b8e02a60258e607c03e4", "lon": -77.01298283333334, "is_disabled": 0, "fusion_lat": 0.0, "fusion_lon": 0.0, "name": "e51e62ec1e12b8e02a60258e607c03e4", "type": "electric_scooter"}, {"rental_uris": {"ios": "https://dc.lft.to/lastmile_qr_scan", "android": "https://dc.lft.to/lastmile_qr_scan"}, "lat": 38.920469, "is_reserved": 0, "bike_id": "6cbd6a61eeb227dc58d9a82f1bbc3b04", "lon": -77.01799533333333, "is_disabled": 0, "fusion_lat": 0.0, "fusion_lon": 0.0, "name": "6cbd6a61eeb227dc58d9a82f1bbc3b04", "type": "electric_scooter"}, {"rental_uris": {"ios": "https://dc.lft.to/lastmile_qr_scan", "android": "https://dc.lft.to/lastmile_qr_scan"}, "lat": 38.89736533333333, "is_reserved": 0, "bike_id": "5b1b66b04be088ae39ecebdbc15a3f06", "lon": -77.03247866666666, "is_disabled": 0, "fusion_lat": 0.0, "fusion_lon": 0.0, "name": "5b1b66b04be088ae39ecebdbc15a3f06", "type": "electric_scooter"}, {"rental_uris": {"ios": "https://dc.lft.to/lastmile_qr_scan", "android": "https://dc.lft.to/lastmile_qr_scan"}, "lat": 38.87678366666667, "is_reserved": 0, "bike_id": "8fcaa20f2460eb4c2687981134d7d0a2", "lon": -77.01782933333334, "is_disabled": 0, "fusion_lat": 0.0, "fusion_lon": 0.0, "name": "8fcaa20f2460eb4c2687981134d7d0a2", "type": "electric_scooter"}, {"rental_uris": {"ios": "https://dc.lft.to/lastmile_qr_scan", "android": "https://dc.lft.to/lastmile_qr_scan"}, "lat": 38.921108333333336, "is_reserved": 0, "bike_id": "12e1b1a58d49a08d104d5f4ed415bfa2", "lon": -77.02547916666667, "is_disabled": 0, "fusion_lat": 0.0, "fusion_lon": 0.0, "name": "12e1b1a58d49a08d104d5f4ed415bfa2", "type": "electric_scooter"}, {"rental_uris": {"ios": "https://dc.lft.to/lastmile_qr_scan", "android": "https://dc.lft.to/lastmile_qr_scan"}, "lat": 38.887299, "is_reserved": 0, "bike_id": "d0a7c17f1200fc7898e266f9f7b0b1a1", "lon": -77.02579783333333, "is_disabled": 0, "fusion_lat": 0.0, "fusion_lon": 0.0, "name": "d0a7c17f1200fc7898e266f9f7b0b1a1", "type": "electric_scooter"}, {"rental_uris": {"ios": "https://dc.lft.to/lastmile_qr_scan", "android": "https://dc.lft.to/lastmile_qr_scan"}, "lat": 38.91569116666667, "is_reserved": 0, "bike_id": "a9282311db694d50b3aa8046991d5029", "lon": -77.0323705, "is_disabled": 0, "fusion_lat": 0.0, "fusion_lon": 0.0, "name": "a9282311db694d50b3aa8046991d5029", "type": "electric_scooter"}, {"rental_uris": {"ios": "https://dc.lft.to/lastmile_qr_scan", "android": "https://dc.lft.to/lastmile_qr_scan"}, "lat": 38.9072645, "is_reserved": 0, "bike_id": "78e2d11ce63e25831d0cd815e554d340", "lon": -76.99771266666667, "is_disabled": 0, "fusion_lat": 0.0, "fusion_lon": 0.0, "name": "78e2d11ce63e25831d0cd815e554d340", "type": "electric_scooter"}, {"rental_uris": {"ios": "https://dc.lft.to/lastmile_qr_scan", "android": "https://dc.lft.to/lastmile_qr_scan"}, "lat": 38.914147, "is_reserved": 0, "bike_id": "38d4f3e1b3d47660be14557754b9d72a", "lon": -77.04231333333334, "is_disabled": 0, "fusion_lat": 0.0, "fusion_lon": 0.0, "name": "38d4f3e1b3d47660be14557754b9d72a", "type": "electric_scooter"}, {"rental_uris": {"ios": "https://dc.lft.to/lastmile_qr_scan", "android": "https://dc.lft.to/lastmile_qr_scan"}, "lat": 38.892243, "is_reserved": 0, "bike_id": "3fb2c0b154550fd19b2dae40cdc17472", "lon": -77.04774883333333, "is_disabled": 0, "fusion_lat": 0.0, "fusion_lon": 0.0, "name": "3fb2c0b154550fd19b2dae40cdc17472", "type": "electric_scooter"}, {"rental_uris": {"ios": "https://dc.lft.to/lastmile_qr_scan", "android": "https://dc.lft.to/lastmile_qr_scan"}, "lat": 38.901335, "is_reserved": 0, "bike_id": "cd29cf19d91a26d1ed6fa9f97654b86d", "lon": -77.018211, "is_disabled": 0, "fusion_lat": 0.0, "fusion_lon": 0.0, "name": "cd29cf19d91a26d1ed6fa9f97654b86d", "type": "electric_scooter"}, {"rental_uris": {"ios": "https://dc.lft.to/lastmile_qr_scan", "android": "https://dc.lft.to/lastmile_qr_scan"}, "lat": 38.865637, "is_reserved": 0, "bike_id": "1b3167993e832a0e091666cde98f71b5", "lon": -76.983382, "is_disabled": 0, "fusion_lat": 0.0, "fusion_lon": 0.0, "name": "1b3167993e832a0e091666cde98f71b5", "type": "electric_scooter"}, {"rental_uris": {"ios": "https://dc.lft.to/lastmile_qr_scan", "android": "https://dc.lft.to/lastmile_qr_scan"}, "lat": 38.89221366666666, "is_reserved": 0, "bike_id": "7ac88194996053ab1011b1ec5f5d8261", "lon": -77.0451775, "is_disabled": 0, "fusion_lat": 0.0, "fusion_lon": 0.0, "name": "7ac88194996053ab1011b1ec5f5d8261", "type": "electric_scooter"}, {"rental_uris": {"ios": "https://dc.lft.to/lastmile_qr_scan", "android": "https://dc.lft.to/lastmile_qr_scan"}, "lat": 38.915928666666666, "is_reserved": 0, "bike_id": "3522bf4a296446ab4a5d74ccc5066d79", "lon": -77.02200833333333, "is_disabled": 0, "fusion_lat": 0.0, "fusion_lon": 0.0, "name": "3522bf4a296446ab4a5d74ccc5066d79", "type": "electric_scooter"}, {"rental_uris": {"ios": "https://dc.lft.to/lastmile_qr_scan", "android": "https://dc.lft.to/lastmile_qr_scan"}, "lat": 38.928967, "is_reserved": 0, "bike_id": "560ee5100b985c1d54591491f609f2d7", "lon": -77.0162755, "is_disabled": 0, "fusion_lat": 0.0, "fusion_lon": 0.0, "name": "560ee5100b985c1d54591491f609f2d7", "type": "electric_scooter"}, {"rental_uris": {"ios": "https://dc.lft.to/lastmile_qr_scan", "android": "https://dc.lft.to/lastmile_qr_scan"}, "lat": 38.90240083333333, "is_reserved": 0, "bike_id": "64bc949321f39761cfc7890b81ffb159", "lon": -77.02698016666666, "is_disabled": 0, "fusion_lat": 0.0, "fusion_lon": 0.0, "name": "64bc949321f39761cfc7890b81ffb159", "type": "electric_scooter"}, {"rental_uris": {"ios": "https://dc.lft.to/lastmile_qr_scan", "android": "https://dc.lft.to/lastmile_qr_scan"}, "lat": 38.904722166666666, "is_reserved": 0, "bike_id": "496f8625ac4cb6a72dea88a4aa545f15", "lon": -77.04356683333333, "is_disabled": 0, "fusion_lat": 0.0, "fusion_lon": 0.0, "name": "496f8625ac4cb6a72dea88a4aa545f15", "type": "electric_scooter"}, {"rental_uris": {"ios": "https://dc.lft.to/lastmile_qr_scan", "android": "https://dc.lft.to/lastmile_qr_scan"}, "lat": 38.923155666666666, "is_reserved": 0, "bike_id": "54b0d5f5bc9515c1bd5f071e18ac4043", "lon": -77.041826, "is_disabled": 0, "fusion_lat": 0.0, "fusion_lon": 0.0, "name": "54b0d5f5bc9515c1bd5f071e18ac4043", "type": "electric_scooter"}, {"rental_uris": {"ios": "https://dc.lft.to/lastmile_qr_scan", "android": "https://dc.lft.to/lastmile_qr_scan"}, "lat": 38.89974316666667, "is_reserved": 0, "bike_id": "972f2515e1f243df3f648e50b2aa12ab", "lon": -77.00668966666667, "is_disabled": 0, "fusion_lat": 0.0, "fusion_lon": 0.0, "name": "972f2515e1f243df3f648e50b2aa12ab", "type": "electric_scooter"}, {"rental_uris": {"ios": "https://dc.lft.to/lastmile_qr_scan", "android": "https://dc.lft.to/lastmile_qr_scan"}, "lat": 38.9233305, "is_reserved": 0, "bike_id": "d810e0d1811fbb2ba8629a41824a7a78", "lon": -77.0430985, "is_disabled": 0, "fusion_lat": 0.0, "fusion_lon": 0.0, "name": "d810e0d1811fbb2ba8629a41824a7a78", "type": "electric_scooter"}, {"rental_uris": {"ios": "https://dc.lft.to/lastmile_qr_scan", "android": "https://dc.lft.to/lastmile_qr_scan"}, "lat": 38.903815, "is_reserved": 0, "bike_id": "0baf7eebe5f32b572fc256ea42673175", "lon": -77.036301, "is_disabled": 0, "fusion_lat": 0.0, "fusion_lon": 0.0, "name": "0baf7eebe5f32b572fc256ea42673175", "type": "electric_scooter"}, {"rental_uris": {"ios": "https://dc.lft.to/lastmile_qr_scan", "android": "https://dc.lft.to/lastmile_qr_scan"}, "lat": 38.903914, "is_reserved": 0, "bike_id": "52a739f307722ce3b13159bd5e35e65b", "lon": -77.04025583333333, "is_disabled": 0, "fusion_lat": 0.0, "fusion_lon": 0.0, "name": "52a739f307722ce3b13159bd5e35e65b", "type": "electric_scooter"}, {"rental_uris": {"ios": "https://dc.lft.to/lastmile_qr_scan", "android": "https://dc.lft.to/lastmile_qr_scan"}, "lat": 38.8790255, "is_reserved": 0, "bike_id": "adab7bd6b3852a41b7b9a3a298843cd9", "lon": -77.02202883333334, "is_disabled": 0, "fusion_lat": 0.0, "fusion_lon": 0.0, "name": "adab7bd6b3852a41b7b9a3a298843cd9", "type": "electric_scooter"}, {"rental_uris": {"ios": "https://dc.lft.to/lastmile_qr_scan", "android": "https://dc.lft.to/lastmile_qr_scan"}, "lat": 38.896198, "is_reserved": 0, "bike_id": "2bcc8c68e95b9a6d02dbca017720b7ea", "lon": -77.0268495, "is_disabled": 0, "fusion_lat": 0.0, "fusion_lon": 0.0, "name": "2bcc8c68e95b9a6d02dbca017720b7ea", "type": "electric_scooter"}, {"rental_uris": {"ios": "https://dc.lft.to/lastmile_qr_scan", "android": "https://dc.lft.to/lastmile_qr_scan"}, "lat": 38.898358, "is_reserved": 0, "bike_id": "c74756c9fa99e7b7d6be4709d77da979", "lon": -77.0469635, "is_disabled": 0, "fusion_lat": 0.0, "fusion_lon": 0.0, "name": "c74756c9fa99e7b7d6be4709d77da979", "type": "electric_scooter"}, {"rental_uris": {"ios": "https://dc.lft.to/lastmile_qr_scan", "android": "https://dc.lft.to/lastmile_qr_scan"}, "lat": 38.9027105, "is_reserved": 0, "bike_id": "c325756349e04776ce1565761a1955a0", "lon": -77.038597, "is_disabled": 0, "fusion_lat": 0.0, "fusion_lon": 0.0, "name": "c325756349e04776ce1565761a1955a0", "type": "electric_scooter"}, {"rental_uris": {"ios": "https://dc.lft.to/lastmile_qr_scan", "android": "https://dc.lft.to/lastmile_qr_scan"}, "lat": 38.892290833333334, "is_reserved": 0, "bike_id": "08feafb2b4e4fce7d52dd7d9395ee1ed", "lon": -77.04373533333333, "is_disabled": 0, "fusion_lat": 0.0, "fusion_lon": 0.0, "name": "08feafb2b4e4fce7d52dd7d9395ee1ed", "type": "electric_scooter"}, {"rental_uris": {"ios": "https://dc.lft.to/lastmile_qr_scan", "android": "https://dc.lft.to/lastmile_qr_scan"}, "lat": 38.92516783333333, "is_reserved": 0, "bike_id": "6c672cef671fa566235eeff02b4b7af4", "lon": -77.051279, "is_disabled": 0, "fusion_lat": 0.0, "fusion_lon": 0.0, "name": "6c672cef671fa566235eeff02b4b7af4", "type": "electric_scooter"}, {"rental_uris": {"ios": "https://dc.lft.to/lastmile_qr_scan", "android": "https://dc.lft.to/lastmile_qr_scan"}, "lat": 38.923131833333336, "is_reserved": 0, "bike_id": "4a597bb3e0ad74f55022944255c17368", "lon": -77.02131933333334, "is_disabled": 0, "fusion_lat": 0.0, "fusion_lon": 0.0, "name": "4a597bb3e0ad74f55022944255c17368", "type": "electric_scooter"}, {"rental_uris": {"ios": "https://dc.lft.to/lastmile_qr_scan", "android": "https://dc.lft.to/lastmile_qr_scan"}, "lat": 38.898670333333335, "is_reserved": 0, "bike_id": "64152e5d9732bf177d3443b27be5d321", "lon": -76.94636633333333, "is_disabled": 0, "fusion_lat": 0.0, "fusion_lon": 0.0, "name": "64152e5d9732bf177d3443b27be5d321", "type": "electric_scooter"}, {"rental_uris": {"ios": "https://dc.lft.to/lastmile_qr_scan", "android": "https://dc.lft.to/lastmile_qr_scan"}, "lat": 38.91596716666667, "is_reserved": 0, "bike_id": "21e720a63e087a273567233041af4906", "lon": -77.02396916666666, "is_disabled": 0, "fusion_lat": 0.0, "fusion_lon": 0.0, "name": "21e720a63e087a273567233041af4906", "type": "electric_scooter"}, {"rental_uris": {"ios": "https://dc.lft.to/lastmile_qr_scan", "android": "https://dc.lft.to/lastmile_qr_scan"}, "lat": 38.90993266666667, "is_reserved": 0, "bike_id": "c02518df8d574de7952b893517c9bee4", "lon": -77.02712183333334, "is_disabled": 0, "fusion_lat": 0.0, "fusion_lon": 0.0, "name": "c02518df8d574de7952b893517c9bee4", "type": "electric_scooter"}, {"rental_uris": {"ios": "https://dc.lft.to/lastmile_qr_scan", "android": "https://dc.lft.to/lastmile_qr_scan"}, "lat": 38.90007383333333, "is_reserved": 0, "bike_id": "bc5318d1fc0d01088e3e3b9eb6f71ac8", "lon": -76.9984605, "is_disabled": 0, "fusion_lat": 0.0, "fusion_lon": 0.0, "name": "bc5318d1fc0d01088e3e3b9eb6f71ac8", "type": "electric_scooter"}, {"rental_uris": {"ios": "https://dc.lft.to/lastmile_qr_scan", "android": "https://dc.lft.to/lastmile_qr_scan"}, "lat": 38.9054445, "is_reserved": 0, "bike_id": "8a5acb02fc6942455acff5b9a0281a59", "lon": -77.06605466666667, "is_disabled": 0, "fusion_lat": 0.0, "fusion_lon": 0.0, "name": "8a5acb02fc6942455acff5b9a0281a59", "type": "electric_scooter"}, {"rental_uris": {"ios": "https://dc.lft.to/lastmile_qr_scan", "android": "https://dc.lft.to/lastmile_qr_scan"}, "lat": 38.92152033333333, "is_reserved": 0, "bike_id": "9988e130de6a1588fabc3a2716eb4889", "lon": -77.03850966666667, "is_disabled": 0, "fusion_lat": 0.0, "fusion_lon": 0.0, "name": "9988e130de6a1588fabc3a2716eb4889", "type": "electric_scooter"}, {"rental_uris": {"ios": "https://dc.lft.to/lastmile_qr_scan", "android": "https://dc.lft.to/lastmile_qr_scan"}, "lat": 38.897303666666666, "is_reserved": 0, "bike_id": "83fb2ce99bc10f8a4c53952f48f56a9f", "lon": -77.04740966666667, "is_disabled": 0, "fusion_lat": 0.0, "fusion_lon": 0.0, "name": "83fb2ce99bc10f8a4c53952f48f56a9f", "type": "electric_scooter"}, {"rental_uris": {"ios": "https://dc.lft.to/lastmile_qr_scan", "android": "https://dc.lft.to/lastmile_qr_scan"}, "lat": 38.905770833333335, "is_reserved": 0, "bike_id": "c0f56f086d717fa1ff1903ff9104f0a9", "lon": -77.00893866666667, "is_disabled": 0, "fusion_lat": 0.0, "fusion_lon": 0.0, "name": "c0f56f086d717fa1ff1903ff9104f0a9", "type": "electric_scooter"}, {"rental_uris": {"ios": "https://dc.lft.to/lastmile_qr_scan", "android": "https://dc.lft.to/lastmile_qr_scan"}, "lat": 38.94185433333333, "is_reserved": 0, "bike_id": "30261e81a56428d6c266a9f10385bfc3", "lon": -77.02406633333334, "is_disabled": 0, "fusion_lat": 0.0, "fusion_lon": 0.0, "name": "30261e81a56428d6c266a9f10385bfc3", "type": "electric_scooter"}, {"rental_uris": {"ios": "https://dc.lft.to/lastmile_qr_scan", "android": "https://dc.lft.to/lastmile_qr_scan"}, "lat": 38.908565, "is_reserved": 0, "bike_id": "ad9bd057cd016c54905804697231bc61", "lon": -76.99938566666667, "is_disabled": 0, "fusion_lat": 0.0, "fusion_lon": 0.0, "name": "ad9bd057cd016c54905804697231bc61", "type": "electric_bike"}, {"rental_uris": {"ios": "https://dc.lft.to/lastmile_qr_scan", "android": "https://dc.lft.to/lastmile_qr_scan"}, "lat": 38.94787733333333, "is_reserved": 0, "bike_id": "c26cbd09b369e35212d05aa79e10f378", "lon": -77.08021216666667, "is_disabled": 0, "fusion_lat": 0.0, "fusion_lon": 0.0, "name": "c26cbd09b369e35212d05aa79e10f378", "type": "electric_scooter"}, {"rental_uris": {"ios": "https://dc.lft.to/lastmile_qr_scan", "android": "https://dc.lft.to/lastmile_qr_scan"}, "lat": 38.903567833333334, "is_reserved": 0, "bike_id": "ff6d2071c13ec6b7d4edbbaab25aa492", "lon": -77.03716433333334, "is_disabled": 0, "fusion_lat": 0.0, "fusion_lon": 0.0, "name": "ff6d2071c13ec6b7d4edbbaab25aa492", "type": "electric_scooter"}, {"rental_uris": {"ios": "https://dc.lft.to/lastmile_qr_scan", "android": "https://dc.lft.to/lastmile_qr_scan"}, "lat": 38.90487733333333, "is_reserved": 0, "bike_id": "c08f28fae9593c6dfaed35e286fcf577", "lon": -77.04359716666667, "is_disabled": 0, "fusion_lat": 0.0, "fusion_lon": 0.0, "name": "c08f28fae9593c6dfaed35e286fcf577", "type": "electric_scooter"}, {"rental_uris": {"ios": "https://dc.lft.to/lastmile_qr_scan", "android": "https://dc.lft.to/lastmile_qr_scan"}, "lat": 38.930890833333336, "is_reserved": 0, "bike_id": "a6a7f03a6d168e9e8f519bbc9223e6ae", "lon": -77.03662566666667, "is_disabled": 0, "fusion_lat": 0.0, "fusion_lon": 0.0, "name": "a6a7f03a6d168e9e8f519bbc9223e6ae", "type": "electric_scooter"}, {"rental_uris": {"ios": "https://dc.lft.to/lastmile_qr_scan", "android": "https://dc.lft.to/lastmile_qr_scan"}, "lat": 38.901159166666666, "is_reserved": 0, "bike_id": "95418909c94e5924785d3ff4361c28cd", "lon": -77.04999666666667, "is_disabled": 0, "fusion_lat": 0.0, "fusion_lon": 0.0, "name": "95418909c94e5924785d3ff4361c28cd", "type": "electric_scooter"}, {"rental_uris": {"ios": "https://dc.lft.to/lastmile_qr_scan", "android": "https://dc.lft.to/lastmile_qr_scan"}, "lat": 38.908534833333334, "is_reserved": 0, "bike_id": "6ac181fa2cd56ff79b668dee4d311ca7", "lon": -77.0223645, "is_disabled": 0, "fusion_lat": 0.0, "fusion_lon": 0.0, "name": "6ac181fa2cd56ff79b668dee4d311ca7", "type": "electric_scooter"}, {"rental_uris": {"ios": "https://dc.lft.to/lastmile_qr_scan", "android": "https://dc.lft.to/lastmile_qr_scan"}, "lat": 38.88525533333333, "is_reserved": 0, "bike_id": "0efdd38ed3d2ef977d99a71c8d9c4b5b", "lon": -76.97710583333334, "is_disabled": 0, "fusion_lat": 0.0, "fusion_lon": 0.0, "name": "0efdd38ed3d2ef977d99a71c8d9c4b5b", "type": "electric_scooter"}, {"rental_uris": {"ios": "https://dc.lft.to/lastmile_qr_scan", "android": "https://dc.lft.to/lastmile_qr_scan"}, "lat": 38.92656866666667, "is_reserved": 0, "bike_id": "df63c4f5d9c1aeac78c7195b4752fb2d", "lon": -77.02421266666667, "is_disabled": 0, "fusion_lat": 0.0, "fusion_lon": 0.0, "name": "df63c4f5d9c1aeac78c7195b4752fb2d", "type": "electric_scooter"}, {"rental_uris": {"ios": "https://dc.lft.to/lastmile_qr_scan", "android": "https://dc.lft.to/lastmile_qr_scan"}, "lat": 38.9072735, "is_reserved": 0, "bike_id": "8ad771d4a587689c4625a9e3ce7d20b2", "lon": -77.02378033333333, "is_disabled": 0, "fusion_lat": 0.0, "fusion_lon": 0.0, "name": "8ad771d4a587689c4625a9e3ce7d20b2", "type": "electric_scooter"}, {"rental_uris": {"ios": "https://dc.lft.to/lastmile_qr_scan", "android": "https://dc.lft.to/lastmile_qr_scan"}, "lat": 38.900255666666666, "is_reserved": 0, "bike_id": "a0bc584b9b677063fe86807006a957ec", "lon": -76.9954905, "is_disabled": 0, "fusion_lat": 0.0, "fusion_lon": 0.0, "name": "a0bc584b9b677063fe86807006a957ec", "type": "electric_scooter"}, {"rental_uris": {"ios": "https://dc.lft.to/lastmile_qr_scan", "android": "https://dc.lft.to/lastmile_qr_scan"}, "lat": 38.897338, "is_reserved": 0, "bike_id": "de7d1f9007df92eed687f3f7365971f9", "lon": -77.04743483333333, "is_disabled": 0, "fusion_lat": 0.0, "fusion_lon": 0.0, "name": "de7d1f9007df92eed687f3f7365971f9", "type": "electric_scooter"}, {"rental_uris": {"ios": "https://dc.lft.to/lastmile_qr_scan", "android": "https://dc.lft.to/lastmile_qr_scan"}, "lat": 38.896209, "is_reserved": 0, "bike_id": "edd837a801a4e0b19c945625c3b1af76", "lon": -77.02686266666667, "is_disabled": 0, "fusion_lat": 0.0, "fusion_lon": 0.0, "name": "edd837a801a4e0b19c945625c3b1af76", "type": "electric_scooter"}, {"rental_uris": {"ios": "https://dc.lft.to/lastmile_qr_scan", "android": "https://dc.lft.to/lastmile_qr_scan"}, "lat": 38.89441383333333, "is_reserved": 0, "bike_id": "f1d1baea4090fb694e444f7f24399459", "lon": -76.98359633333334, "is_disabled": 0, "fusion_lat": 0.0, "fusion_lon": 0.0, "name": "f1d1baea4090fb694e444f7f24399459", "type": "electric_scooter"}, {"rental_uris": {"ios": "https://dc.lft.to/lastmile_qr_scan", "android": "https://dc.lft.to/lastmile_qr_scan"}, "lat": 38.892536, "is_reserved": 0, "bike_id": "d18f1c0153b89829e368d46bb3a6dd15", "lon": -77.01963633333334, "is_disabled": 0, "fusion_lat": 0.0, "fusion_lon": 0.0, "name": "d18f1c0153b89829e368d46bb3a6dd15", "type": "electric_scooter"}, {"rental_uris": {"ios": "https://dc.lft.to/lastmile_qr_scan", "android": "https://dc.lft.to/lastmile_qr_scan"}, "lat": 38.89437616666667, "is_reserved": 0, "bike_id": "f512c61e17cbcf8fbc48968c1470b25a", "lon": -77.02696133333333, "is_disabled": 0, "fusion_lat": 0.0, "fusion_lon": 0.0, "name": "f512c61e17cbcf8fbc48968c1470b25a", "type": "electric_scooter"}, {"rental_uris": {"ios": "https://dc.lft.to/lastmile_qr_scan", "android": "https://dc.lft.to/lastmile_qr_scan"}, "lat": 38.8551535, "is_reserved": 0, "bike_id": "6145db0ebeba3c62807126f30b4bb038", "lon": -76.9840835, "is_disabled": 0, "fusion_lat": 0.0, "fusion_lon": 0.0, "name": "6145db0ebeba3c62807126f30b4bb038", "type": "electric_bike"}, {"rental_uris": {"ios": "https://dc.lft.to/lastmile_qr_scan", "android": "https://dc.lft.to/lastmile_qr_scan"}, "lat": 38.923456, "is_reserved": 0, "bike_id": "2eb51d2466eb3007da6c183b7cf98715", "lon": -77.035278, "is_disabled": 0, "fusion_lat": 0.0, "fusion_lon": 0.0, "name": "2eb51d2466eb3007da6c183b7cf98715", "type": "electric_scooter"}, {"rental_uris": {"ios": "https://dc.lft.to/lastmile_qr_scan", "android": "https://dc.lft.to/lastmile_qr_scan"}, "lat": 38.894401, "is_reserved": 0, "bike_id": "e4e1cb3a4d18ed9864d565846210ffd4", "lon": -77.026337, "is_disabled": 0, "fusion_lat": 0.0, "fusion_lon": 0.0, "name": "e4e1cb3a4d18ed9864d565846210ffd4", "type": "electric_scooter"}, {"rental_uris": {"ios": "https://dc.lft.to/lastmile_qr_scan", "android": "https://dc.lft.to/lastmile_qr_scan"}, "lat": 38.907371499999996, "is_reserved": 0, "bike_id": "41e3cc5acf29dd25f6aa7394bd856b55", "lon": -77.041692, "is_disabled": 0, "fusion_lat": 0.0, "fusion_lon": 0.0, "name": "41e3cc5acf29dd25f6aa7394bd856b55", "type": "electric_scooter"}, {"rental_uris": {"ios": "https://dc.lft.to/lastmile_qr_scan", "android": "https://dc.lft.to/lastmile_qr_scan"}, "lat": 38.906661666666665, "is_reserved": 0, "bike_id": "3d7288c4d32a94bcf8bcd11f86ce24d4", "lon": -77.02596483333333, "is_disabled": 0, "fusion_lat": 0.0, "fusion_lon": 0.0, "name": "3d7288c4d32a94bcf8bcd11f86ce24d4", "type": "electric_scooter"}, {"rental_uris": {"ios": "https://dc.lft.to/lastmile_qr_scan", "android": "https://dc.lft.to/lastmile_qr_scan"}, "lat": 38.92100966666667, "is_reserved": 0, "bike_id": "53dd56766cc12a2670ab1d43fa692986", "lon": -77.02327183333334, "is_disabled": 0, "fusion_lat": 0.0, "fusion_lon": 0.0, "name": "53dd56766cc12a2670ab1d43fa692986", "type": "electric_scooter"}, {"rental_uris": {"ios": "https://dc.lft.to/lastmile_qr_scan", "android": "https://dc.lft.to/lastmile_qr_scan"}, "lat": 38.956869166666664, "is_reserved": 0, "bike_id": "bcd1db4f0266a750dddd3a4d61e54552", "lon": -77.0223725, "is_disabled": 0, "fusion_lat": 0.0, "fusion_lon": 0.0, "name": "bcd1db4f0266a750dddd3a4d61e54552", "type": "electric_bike"}, {"rental_uris": {"ios": "https://dc.lft.to/lastmile_qr_scan", "android": "https://dc.lft.to/lastmile_qr_scan"}, "lat": 38.90963, "is_reserved": 0, "bike_id": "7a7159f0ad48d9347740f5c325694429", "lon": -77.01079066666667, "is_disabled": 0, "fusion_lat": 0.0, "fusion_lon": 0.0, "name": "7a7159f0ad48d9347740f5c325694429", "type": "electric_scooter"}, {"rental_uris": {"ios": "https://dc.lft.to/lastmile_qr_scan", "android": "https://dc.lft.to/lastmile_qr_scan"}, "lat": 38.90046516666666, "is_reserved": 0, "bike_id": "2216542968fe4d5089785d53669d67e4", "lon": -77.00224666666666, "is_disabled": 0, "fusion_lat": 0.0, "fusion_lon": 0.0, "name": "2216542968fe4d5089785d53669d67e4", "type": "electric_scooter"}, {"rental_uris": {"ios": "https://dc.lft.to/lastmile_qr_scan", "android": "https://dc.lft.to/lastmile_qr_scan"}, "lat": 38.92550766666667, "is_reserved": 0, "bike_id": "2e3ba8c7bd26b249762d1ec17ebdce65", "lon": -77.0007475, "is_disabled": 0, "fusion_lat": 0.0, "fusion_lon": 0.0, "name": "2e3ba8c7bd26b249762d1ec17ebdce65", "type": "electric_scooter"}, {"rental_uris": {"ios": "https://dc.lft.to/lastmile_qr_scan", "android": "https://dc.lft.to/lastmile_qr_scan"}, "lat": 38.87413633333333, "is_reserved": 0, "bike_id": "0c1db2f534578aab806cae18385aecd8", "lon": -76.99966266666667, "is_disabled": 0, "fusion_lat": 0.0, "fusion_lon": 0.0, "name": "0c1db2f534578aab806cae18385aecd8", "type": "electric_scooter"}, {"rental_uris": {"ios": "https://dc.lft.to/lastmile_qr_scan", "android": "https://dc.lft.to/lastmile_qr_scan"}, "lat": 38.957385, "is_reserved": 0, "bike_id": "15fadace0775e272a8712941fabcfe08", "lon": -76.97254083333333, "is_disabled": 0, "fusion_lat": 0.0, "fusion_lon": 0.0, "name": "15fadace0775e272a8712941fabcfe08", "type": "electric_bike"}, {"rental_uris": {"ios": "https://dc.lft.to/lastmile_qr_scan", "android": "https://dc.lft.to/lastmile_qr_scan"}, "lat": 38.897210333333334, "is_reserved": 0, "bike_id": "bd6d086d4898892eb64641f71aa724ff", "lon": -77.02010066666666, "is_disabled": 0, "fusion_lat": 0.0, "fusion_lon": 0.0, "name": "bd6d086d4898892eb64641f71aa724ff", "type": "electric_scooter"}, {"rental_uris": {"ios": "https://dc.lft.to/lastmile_qr_scan", "android": "https://dc.lft.to/lastmile_qr_scan"}, "lat": 38.91409216666667, "is_reserved": 0, "bike_id": "b050eb4ad0dd3067ca995295490f2727", "lon": -77.01483483333334, "is_disabled": 0, "fusion_lat": 0.0, "fusion_lon": 0.0, "name": "b050eb4ad0dd3067ca995295490f2727", "type": "electric_scooter"}, {"rental_uris": {"ios": "https://dc.lft.to/lastmile_qr_scan", "android": "https://dc.lft.to/lastmile_qr_scan"}, "lat": 38.90566883333334, "is_reserved": 0, "bike_id": "3c5444a8679f07ba931dd525ffcb413e", "lon": -77.04011866666667, "is_disabled": 0, "fusion_lat": 0.0, "fusion_lon": 0.0, "name": "3c5444a8679f07ba931dd525ffcb413e", "type": "electric_scooter"}, {"rental_uris": {"ios": "https://dc.lft.to/lastmile_qr_scan", "android": "https://dc.lft.to/lastmile_qr_scan"}, "lat": 38.900061666666666, "is_reserved": 0, "bike_id": "e8c953b6cb1d7367dd1235c3fcd23877", "lon": -77.001178, "is_disabled": 0, "fusion_lat": 0.0, "fusion_lon": 0.0, "name": "e8c953b6cb1d7367dd1235c3fcd23877", "type": "electric_scooter"}, {"rental_uris": {"ios": "https://dc.lft.to/lastmile_qr_scan", "android": "https://dc.lft.to/lastmile_qr_scan"}, "lat": 38.95746316666666, "is_reserved": 0, "bike_id": "87267b507bd996caf56c503c37a420d7", "lon": -76.97253933333333, "is_disabled": 0, "fusion_lat": 0.0, "fusion_lon": 0.0, "name": "87267b507bd996caf56c503c37a420d7", "type": "electric_bike"}, {"rental_uris": {"ios": "https://dc.lft.to/lastmile_qr_scan", "android": "https://dc.lft.to/lastmile_qr_scan"}, "lat": 38.904235, "is_reserved": 0, "bike_id": "ad4faec77931b2deb3d6413f60a11959", "lon": -77.04353883333333, "is_disabled": 0, "fusion_lat": 0.0, "fusion_lon": 0.0, "name": "ad4faec77931b2deb3d6413f60a11959", "type": "electric_scooter"}, {"rental_uris": {"ios": "https://dc.lft.to/lastmile_qr_scan", "android": "https://dc.lft.to/lastmile_qr_scan"}, "lat": 38.92136033333333, "is_reserved": 0, "bike_id": "4af3b600ee616927fdaef9f8f5728f50", "lon": -77.045562, "is_disabled": 0, "fusion_lat": 0.0, "fusion_lon": 0.0, "name": "4af3b600ee616927fdaef9f8f5728f50", "type": "electric_scooter"}, {"rental_uris": {"ios": "https://dc.lft.to/lastmile_qr_scan", "android": "https://dc.lft.to/lastmile_qr_scan"}, "lat": 38.9036185, "is_reserved": 0, "bike_id": "076d2045ede9d182cc81f1cdb6041cec", "lon": -77.03873866666666, "is_disabled": 0, "fusion_lat": 0.0, "fusion_lon": 0.0, "name": "076d2045ede9d182cc81f1cdb6041cec", "type": "electric_scooter"}, {"rental_uris": {"ios": "https://dc.lft.to/lastmile_qr_scan", "android": "https://dc.lft.to/lastmile_qr_scan"}, "lat": 38.882309, "is_reserved": 0, "bike_id": "5f0df3088ce60b0b314e91abb8dfb554", "lon": -76.989769, "is_disabled": 0, "fusion_lat": 0.0, "fusion_lon": 0.0, "name": "5f0df3088ce60b0b314e91abb8dfb554", "type": "electric_scooter"}, {"rental_uris": {"ios": "https://dc.lft.to/lastmile_qr_scan", "android": "https://dc.lft.to/lastmile_qr_scan"}, "lat": 38.931196666666665, "is_reserved": 0, "bike_id": "3eee0e6876194847a267f605ce5c3599", "lon": -77.01989116666667, "is_disabled": 0, "fusion_lat": 0.0, "fusion_lon": 0.0, "name": "3eee0e6876194847a267f605ce5c3599", "type": "electric_scooter"}, {"rental_uris": {"ios": "https://dc.lft.to/lastmile_qr_scan", "android": "https://dc.lft.to/lastmile_qr_scan"}, "lat": 38.8762455, "is_reserved": 0, "bike_id": "6632922fc0d5422077827d0e2854d5a4", "lon": -77.00934483333333, "is_disabled": 0, "fusion_lat": 0.0, "fusion_lon": 0.0, "name": "6632922fc0d5422077827d0e2854d5a4", "type": "electric_scooter"}, {"rental_uris": {"ios": "https://dc.lft.to/lastmile_qr_scan", "android": "https://dc.lft.to/lastmile_qr_scan"}, "lat": 38.92042633333333, "is_reserved": 0, "bike_id": "144ce5e89946610536de9f8cdb86af1f", "lon": -77.07978666666666, "is_disabled": 0, "fusion_lat": 0.0, "fusion_lon": 0.0, "name": "144ce5e89946610536de9f8cdb86af1f", "type": "electric_scooter"}, {"rental_uris": {"ios": "https://dc.lft.to/lastmile_qr_scan", "android": "https://dc.lft.to/lastmile_qr_scan"}, "lat": 38.820612, "is_reserved": 0, "bike_id": "d79d4214519f4699848533ba94be7af0", "lon": -77.0546215, "is_disabled": 0, "fusion_lat": 0.0, "fusion_lon": 0.0, "name": "d79d4214519f4699848533ba94be7af0", "type": "electric_bike"}, {"rental_uris": {"ios": "https://dc.lft.to/lastmile_qr_scan", "android": "https://dc.lft.to/lastmile_qr_scan"}, "lat": 38.8824335, "is_reserved": 0, "bike_id": "35f7137d2d8525fa7aa7c86548be5067", "lon": -76.96264083333334, "is_disabled": 0, "fusion_lat": 0.0, "fusion_lon": 0.0, "name": "35f7137d2d8525fa7aa7c86548be5067", "type": "electric_bike"}, {"rental_uris": {"ios": "https://dc.lft.to/lastmile_qr_scan", "android": "https://dc.lft.to/lastmile_qr_scan"}, "lat": 38.9077915, "is_reserved": 0, "bike_id": "11cc5a421138a8c07d31e5e27e0a5abb", "lon": -76.99860683333333, "is_disabled": 0, "fusion_lat": 0.0, "fusion_lon": 0.0, "name": "11cc5a421138a8c07d31e5e27e0a5abb", "type": "electric_scooter"}, {"rental_uris": {"ios": "https://dc.lft.to/lastmile_qr_scan", "android": "https://dc.lft.to/lastmile_qr_scan"}, "lat": 38.895079, "is_reserved": 0, "bike_id": "3b3189866813159adad56c60c9958e13", "lon": -77.02291366666667, "is_disabled": 0, "fusion_lat": 0.0, "fusion_lon": 0.0, "name": "3b3189866813159adad56c60c9958e13", "type": "electric_scooter"}, {"rental_uris": {"ios": "https://dc.lft.to/lastmile_qr_scan", "android": "https://dc.lft.to/lastmile_qr_scan"}, "lat": 38.9187275, "is_reserved": 0, "bike_id": "12d0f49086381c239399b1864515a395", "lon": -77.044687, "is_disabled": 0, "fusion_lat": 0.0, "fusion_lon": 0.0, "name": "12d0f49086381c239399b1864515a395", "type": "electric_scooter"}, {"rental_uris": {"ios": "https://dc.lft.to/lastmile_qr_scan", "android": "https://dc.lft.to/lastmile_qr_scan"}, "lat": 38.901573166666665, "is_reserved": 0, "bike_id": "5678cb858fe7644596c5ca0b9250bc8f", "lon": -76.97629, "is_disabled": 0, "fusion_lat": 0.0, "fusion_lon": 0.0, "name": "5678cb858fe7644596c5ca0b9250bc8f", "type": "electric_scooter"}, {"rental_uris": {"ios": "https://dc.lft.to/lastmile_qr_scan", "android": "https://dc.lft.to/lastmile_qr_scan"}, "lat": 38.898819, "is_reserved": 0, "bike_id": "e768305cc1cb5d436d992071b74e607b", "lon": -77.01864533333334, "is_disabled": 0, "fusion_lat": 0.0, "fusion_lon": 0.0, "name": "e768305cc1cb5d436d992071b74e607b", "type": "electric_scooter"}, {"rental_uris": {"ios": "https://dc.lft.to/lastmile_qr_scan", "android": "https://dc.lft.to/lastmile_qr_scan"}, "lat": 38.875676166666665, "is_reserved": 0, "bike_id": "13e8b143285a596c71645d42a8199831", "lon": -77.00936183333333, "is_disabled": 0, "fusion_lat": 0.0, "fusion_lon": 0.0, "name": "13e8b143285a596c71645d42a8199831", "type": "electric_scooter"}, {"rental_uris": {"ios": "https://dc.lft.to/lastmile_qr_scan", "android": "https://dc.lft.to/lastmile_qr_scan"}, "lat": 38.896305166666664, "is_reserved": 0, "bike_id": "24894f83414d437d1fbf9d5f66c2a72b", "lon": -77.02380866666667, "is_disabled": 0, "fusion_lat": 0.0, "fusion_lon": 0.0, "name": "24894f83414d437d1fbf9d5f66c2a72b", "type": "electric_scooter"}, {"rental_uris": {"ios": "https://dc.lft.to/lastmile_qr_scan", "android": "https://dc.lft.to/lastmile_qr_scan"}, "lat": 38.89280616666667, "is_reserved": 0, "bike_id": "e6acd05ce25c90a473f92da4a0330dca", "lon": -77.01965066666666, "is_disabled": 0, "fusion_lat": 0.0, "fusion_lon": 0.0, "name": "e6acd05ce25c90a473f92da4a0330dca", "type": "electric_scooter"}, {"rental_uris": {"ios": "https://dc.lft.to/lastmile_qr_scan", "android": "https://dc.lft.to/lastmile_qr_scan"}, "lat": 38.922515833333335, "is_reserved": 0, "bike_id": "48bad3b4b6c2da3c6b3e608b59a5ceb9", "lon": -77.0211965, "is_disabled": 0, "fusion_lat": 0.0, "fusion_lon": 0.0, "name": "48bad3b4b6c2da3c6b3e608b59a5ceb9", "type": "electric_scooter"}, {"rental_uris": {"ios": "https://dc.lft.to/lastmile_qr_scan", "android": "https://dc.lft.to/lastmile_qr_scan"}, "lat": 38.92051683333333, "is_reserved": 0, "bike_id": "e1948f6ba727d45339f35359115c1a81", "lon": -77.03446633333333, "is_disabled": 0, "fusion_lat": 0.0, "fusion_lon": 0.0, "name": "e1948f6ba727d45339f35359115c1a81", "type": "electric_scooter"}, {"rental_uris": {"ios": "https://dc.lft.to/lastmile_qr_scan", "android": "https://dc.lft.to/lastmile_qr_scan"}, "lat": 38.87779466666667, "is_reserved": 0, "bike_id": "78c7a5059acc157b9fe2940fc8b4e0d2", "lon": -76.9941185, "is_disabled": 0, "fusion_lat": 0.0, "fusion_lon": 0.0, "name": "78c7a5059acc157b9fe2940fc8b4e0d2", "type": "electric_scooter"}, {"rental_uris": {"ios": "https://dc.lft.to/lastmile_qr_scan", "android": "https://dc.lft.to/lastmile_qr_scan"}, "lat": 38.9285645, "is_reserved": 0, "bike_id": "9705560385b4fb3b6ea5b78d2ecf2ce4", "lon": -77.03314433333334, "is_disabled": 0, "fusion_lat": 0.0, "fusion_lon": 0.0, "name": "9705560385b4fb3b6ea5b78d2ecf2ce4", "type": "electric_scooter"}, {"rental_uris": {"ios": "https://dc.lft.to/lastmile_qr_scan", "android": "https://dc.lft.to/lastmile_qr_scan"}, "lat": 38.907681333333336, "is_reserved": 0, "bike_id": "f7edefd3102214d85c1b52056abf82d9", "lon": -77.03839616666667, "is_disabled": 0, "fusion_lat": 0.0, "fusion_lon": 0.0, "name": "f7edefd3102214d85c1b52056abf82d9", "type": "electric_scooter"}, {"rental_uris": {"ios": "https://dc.lft.to/lastmile_qr_scan", "android": "https://dc.lft.to/lastmile_qr_scan"}, "lat": 38.89908716666667, "is_reserved": 0, "bike_id": "a328c1fe2b669f3edad6716473e62d34", "lon": -77.02819816666667, "is_disabled": 0, "fusion_lat": 0.0, "fusion_lon": 0.0, "name": "a328c1fe2b669f3edad6716473e62d34", "type": "electric_scooter"}, {"rental_uris": {"ios": "https://dc.lft.to/lastmile_qr_scan", "android": "https://dc.lft.to/lastmile_qr_scan"}, "lat": 38.907267833333336, "is_reserved": 0, "bike_id": "1e6ca54da034f061113b399156ded4c0", "lon": -77.0021705, "is_disabled": 0, "fusion_lat": 0.0, "fusion_lon": 0.0, "name": "1e6ca54da034f061113b399156ded4c0", "type": "electric_scooter"}, {"rental_uris": {"ios": "https://dc.lft.to/lastmile_qr_scan", "android": "https://dc.lft.to/lastmile_qr_scan"}, "lat": 38.904129833333336, "is_reserved": 0, "bike_id": "baa2efb675b68f94d820141c95d9f811", "lon": -76.9733075, "is_disabled": 0, "fusion_lat": 0.0, "fusion_lon": 0.0, "name": "baa2efb675b68f94d820141c95d9f811", "type": "electric_scooter"}, {"rental_uris": {"ios": "https://dc.lft.to/lastmile_qr_scan", "android": "https://dc.lft.to/lastmile_qr_scan"}, "lat": 38.91921383333333, "is_reserved": 0, "bike_id": "21ad67f7eee2cf84e21330934504f8c9", "lon": -77.034175, "is_disabled": 0, "fusion_lat": 0.0, "fusion_lon": 0.0, "name": "21ad67f7eee2cf84e21330934504f8c9", "type": "electric_scooter"}, {"rental_uris": {"ios": "https://dc.lft.to/lastmile_qr_scan", "android": "https://dc.lft.to/lastmile_qr_scan"}, "lat": 38.9037735, "is_reserved": 0, "bike_id": "d08fae482f6e9959fb084509061937c5", "lon": -77.03633183333334, "is_disabled": 0, "fusion_lat": 0.0, "fusion_lon": 0.0, "name": "d08fae482f6e9959fb084509061937c5", "type": "electric_scooter"}, {"rental_uris": {"ios": "https://dc.lft.to/lastmile_qr_scan", "android": "https://dc.lft.to/lastmile_qr_scan"}, "lat": 38.899179333333336, "is_reserved": 0, "bike_id": "7df3f6dcffdbe30c8506d9440764da77", "lon": -77.0417055, "is_disabled": 0, "fusion_lat": 0.0, "fusion_lon": 0.0, "name": "7df3f6dcffdbe30c8506d9440764da77", "type": "electric_scooter"}, {"rental_uris": {"ios": "https://dc.lft.to/lastmile_qr_scan", "android": "https://dc.lft.to/lastmile_qr_scan"}, "lat": 38.91700516666667, "is_reserved": 0, "bike_id": "0ce6c6a58eb5669b75b9a42a9dbc1bfe", "lon": -77.0279705, "is_disabled": 0, "fusion_lat": 0.0, "fusion_lon": 0.0, "name": "0ce6c6a58eb5669b75b9a42a9dbc1bfe", "type": "electric_scooter"}, {"rental_uris": {"ios": "https://dc.lft.to/lastmile_qr_scan", "android": "https://dc.lft.to/lastmile_qr_scan"}, "lat": 38.910643666666665, "is_reserved": 0, "bike_id": "ec52600644a946581f830f4b583d92dd", "lon": -77.0045695, "is_disabled": 0, "fusion_lat": 0.0, "fusion_lon": 0.0, "name": "ec52600644a946581f830f4b583d92dd", "type": "electric_scooter"}, {"rental_uris": {"ios": "https://dc.lft.to/lastmile_qr_scan", "android": "https://dc.lft.to/lastmile_qr_scan"}, "lat": 38.9234915, "is_reserved": 0, "bike_id": "90ab58879de826b9866730e1345fc055", "lon": -77.04143133333334, "is_disabled": 0, "fusion_lat": 0.0, "fusion_lon": 0.0, "name": "90ab58879de826b9866730e1345fc055", "type": "electric_scooter"}, {"rental_uris": {"ios": "https://dc.lft.to/lastmile_qr_scan", "android": "https://dc.lft.to/lastmile_qr_scan"}, "lat": 38.90855116666667, "is_reserved": 0, "bike_id": "29a6e56199f6640ad463381522116ddb", "lon": -77.01970733333333, "is_disabled": 0, "fusion_lat": 0.0, "fusion_lon": 0.0, "name": "29a6e56199f6640ad463381522116ddb", "type": "electric_scooter"}, {"rental_uris": {"ios": "https://dc.lft.to/lastmile_qr_scan", "android": "https://dc.lft.to/lastmile_qr_scan"}, "lat": 38.921469333333334, "is_reserved": 0, "bike_id": "e6dca5cfa4f0a12c23de545551270762", "lon": -77.034996, "is_disabled": 0, "fusion_lat": 0.0, "fusion_lon": 0.0, "name": "e6dca5cfa4f0a12c23de545551270762", "type": "electric_scooter"}, {"rental_uris": {"ios": "https://dc.lft.to/lastmile_qr_scan", "android": "https://dc.lft.to/lastmile_qr_scan"}, "lat": 38.90867566666667, "is_reserved": 0, "bike_id": "f6a8b9e1b94bf8cb15b3535c77adf02e", "lon": -76.93339233333333, "is_disabled": 0, "fusion_lat": 0.0, "fusion_lon": 0.0, "name": "f6a8b9e1b94bf8cb15b3535c77adf02e", "type": "electric_scooter"}, {"rental_uris": {"ios": "https://dc.lft.to/lastmile_qr_scan", "android": "https://dc.lft.to/lastmile_qr_scan"}, "lat": 38.9276675, "is_reserved": 0, "bike_id": "8122ad40d3dc063ac949eaaf8a98bb35", "lon": -77.02737466666666, "is_disabled": 0, "fusion_lat": 0.0, "fusion_lon": 0.0, "name": "8122ad40d3dc063ac949eaaf8a98bb35", "type": "electric_scooter"}, {"rental_uris": {"ios": "https://dc.lft.to/lastmile_qr_scan", "android": "https://dc.lft.to/lastmile_qr_scan"}, "lat": 38.92406716666667, "is_reserved": 0, "bike_id": "1b29fdc40785c33815be759ae73ce624", "lon": -77.02139666666666, "is_disabled": 0, "fusion_lat": 0.0, "fusion_lon": 0.0, "name": "1b29fdc40785c33815be759ae73ce624", "type": "electric_scooter"}, {"rental_uris": {"ios": "https://dc.lft.to/lastmile_qr_scan", "android": "https://dc.lft.to/lastmile_qr_scan"}, "lat": 38.89714033333333, "is_reserved": 0, "bike_id": "7f597c8286ec3b018259d85fdf76c5f6", "lon": -77.00940833333334, "is_disabled": 0, "fusion_lat": 0.0, "fusion_lon": 0.0, "name": "7f597c8286ec3b018259d85fdf76c5f6", "type": "electric_scooter"}, {"rental_uris": {"ios": "https://dc.lft.to/lastmile_qr_scan", "android": "https://dc.lft.to/lastmile_qr_scan"}, "lat": 38.90981083333333, "is_reserved": 0, "bike_id": "35df90defc1bb141f2ac531da57723ec", "lon": -77.03178016666666, "is_disabled": 0, "fusion_lat": 0.0, "fusion_lon": 0.0, "name": "35df90defc1bb141f2ac531da57723ec", "type": "electric_scooter"}, {"rental_uris": {"ios": "https://dc.lft.to/lastmile_qr_scan", "android": "https://dc.lft.to/lastmile_qr_scan"}, "lat": 38.9052505, "is_reserved": 0, "bike_id": "08ebe17beae6252d4236a7c66d7b0cf3", "lon": -76.99640166666667, "is_disabled": 0, "fusion_lat": 0.0, "fusion_lon": 0.0, "name": "08ebe17beae6252d4236a7c66d7b0cf3", "type": "electric_scooter"}, {"rental_uris": {"ios": "https://dc.lft.to/lastmile_qr_scan", "android": "https://dc.lft.to/lastmile_qr_scan"}, "lat": 38.92466433333333, "is_reserved": 0, "bike_id": "f9b97f10d5b5c8b2bc04862d82b861ae", "lon": -77.02266933333334, "is_disabled": 0, "fusion_lat": 0.0, "fusion_lon": 0.0, "name": "f9b97f10d5b5c8b2bc04862d82b861ae", "type": "electric_scooter"}, {"rental_uris": {"ios": "https://dc.lft.to/lastmile_qr_scan", "android": "https://dc.lft.to/lastmile_qr_scan"}, "lat": 38.883802833333334, "is_reserved": 0, "bike_id": "b9522ea50b8d400ea630ddf698580630", "lon": -76.995249, "is_disabled": 0, "fusion_lat": 0.0, "fusion_lon": 0.0, "name": "b9522ea50b8d400ea630ddf698580630", "type": "electric_scooter"}, {"rental_uris": {"ios": "https://dc.lft.to/lastmile_qr_scan", "android": "https://dc.lft.to/lastmile_qr_scan"}, "lat": 38.90409316666667, "is_reserved": 0, "bike_id": "2e992554f39aa24bdcf4cfb3ddb3f3ef", "lon": -77.05334016666667, "is_disabled": 0, "fusion_lat": 0.0, "fusion_lon": 0.0, "name": "2e992554f39aa24bdcf4cfb3ddb3f3ef", "type": "electric_scooter"}, {"rental_uris": {"ios": "https://dc.lft.to/lastmile_qr_scan", "android": "https://dc.lft.to/lastmile_qr_scan"}, "lat": 38.9257305, "is_reserved": 0, "bike_id": "e2ac10d9dc3d6d051c768223dc6d9c64", "lon": -77.03644483333333, "is_disabled": 0, "fusion_lat": 0.0, "fusion_lon": 0.0, "name": "e2ac10d9dc3d6d051c768223dc6d9c64", "type": "electric_scooter"}, {"rental_uris": {"ios": "https://dc.lft.to/lastmile_qr_scan", "android": "https://dc.lft.to/lastmile_qr_scan"}, "lat": 38.901546, "is_reserved": 0, "bike_id": "b2aea69af509357b0fca127b1201232e", "lon": -77.03569316666666, "is_disabled": 0, "fusion_lat": 0.0, "fusion_lon": 0.0, "name": "b2aea69af509357b0fca127b1201232e", "type": "electric_scooter"}, {"rental_uris": {"ios": "https://dc.lft.to/lastmile_qr_scan", "android": "https://dc.lft.to/lastmile_qr_scan"}, "lat": 38.915361, "is_reserved": 0, "bike_id": "75928749e70c75ba26cf837032b2751a", "lon": -77.03209166666667, "is_disabled": 0, "fusion_lat": 0.0, "fusion_lon": 0.0, "name": "75928749e70c75ba26cf837032b2751a", "type": "electric_scooter"}, {"rental_uris": {"ios": "https://dc.lft.to/lastmile_qr_scan", "android": "https://dc.lft.to/lastmile_qr_scan"}, "lat": 38.92780116666667, "is_reserved": 0, "bike_id": "9e0086c1fd5da4b9a311693904d77548", "lon": -77.03201016666667, "is_disabled": 0, "fusion_lat": 0.0, "fusion_lon": 0.0, "name": "9e0086c1fd5da4b9a311693904d77548", "type": "electric_scooter"}, {"rental_uris": {"ios": "https://dc.lft.to/lastmile_qr_scan", "android": "https://dc.lft.to/lastmile_qr_scan"}, "lat": 38.902370833333336, "is_reserved": 0, "bike_id": "04a7f0b321f3f6bad6a2bd4d69310547", "lon": -77.00199283333333, "is_disabled": 0, "fusion_lat": 0.0, "fusion_lon": 0.0, "name": "04a7f0b321f3f6bad6a2bd4d69310547", "type": "electric_scooter"}, {"rental_uris": {"ios": "https://dc.lft.to/lastmile_qr_scan", "android": "https://dc.lft.to/lastmile_qr_scan"}, "lat": 38.925151666666665, "is_reserved": 0, "bike_id": "212df02babcc7894c5aebfb291e325d0", "lon": -77.05128983333333, "is_disabled": 0, "fusion_lat": 0.0, "fusion_lon": 0.0, "name": "212df02babcc7894c5aebfb291e325d0", "type": "electric_scooter"}, {"rental_uris": {"ios": "https://dc.lft.to/lastmile_qr_scan", "android": "https://dc.lft.to/lastmile_qr_scan"}, "lat": 38.909407, "is_reserved": 0, "bike_id": "ab1454e3f1d623bbe4726e339bf3674a", "lon": -77.028268, "is_disabled": 0, "fusion_lat": 0.0, "fusion_lon": 0.0, "name": "ab1454e3f1d623bbe4726e339bf3674a", "type": "electric_scooter"}, {"rental_uris": {"ios": "https://dc.lft.to/lastmile_qr_scan", "android": "https://dc.lft.to/lastmile_qr_scan"}, "lat": 38.900300666666666, "is_reserved": 0, "bike_id": "5c3358caf1fa4c57fdba1c91f98c2e79", "lon": -76.9890215, "is_disabled": 0, "fusion_lat": 0.0, "fusion_lon": 0.0, "name": "5c3358caf1fa4c57fdba1c91f98c2e79", "type": "electric_scooter"}, {"rental_uris": {"ios": "https://dc.lft.to/lastmile_qr_scan", "android": "https://dc.lft.to/lastmile_qr_scan"}, "lat": 38.884321, "is_reserved": 0, "bike_id": "aadb1837ec21d706f06882e446c3cfce", "lon": -77.01507316666667, "is_disabled": 0, "fusion_lat": 0.0, "fusion_lon": 0.0, "name": "aadb1837ec21d706f06882e446c3cfce", "type": "electric_scooter"}, {"rental_uris": {"ios": "https://dc.lft.to/lastmile_qr_scan", "android": "https://dc.lft.to/lastmile_qr_scan"}, "lat": 38.94129733333333, "is_reserved": 0, "bike_id": "dd0726e2283b0078074471d4a3b3de40", "lon": -77.01543683333334, "is_disabled": 0, "fusion_lat": 0.0, "fusion_lon": 0.0, "name": "dd0726e2283b0078074471d4a3b3de40", "type": "electric_scooter"}, {"rental_uris": {"ios": "https://dc.lft.to/lastmile_qr_scan", "android": "https://dc.lft.to/lastmile_qr_scan"}, "lat": 38.89451366666667, "is_reserved": 0, "bike_id": "06c26dae9cbc5e0ae20d1e581cda1010", "lon": -77.01879633333333, "is_disabled": 0, "fusion_lat": 0.0, "fusion_lon": 0.0, "name": "06c26dae9cbc5e0ae20d1e581cda1010", "type": "electric_scooter"}, {"rental_uris": {"ios": "https://dc.lft.to/lastmile_qr_scan", "android": "https://dc.lft.to/lastmile_qr_scan"}, "lat": 38.92855083333333, "is_reserved": 0, "bike_id": "27d568597004cf4ae8f653c91b211944", "lon": -77.036087, "is_disabled": 0, "fusion_lat": 0.0, "fusion_lon": 0.0, "name": "27d568597004cf4ae8f653c91b211944", "type": "electric_scooter"}, {"rental_uris": {"ios": "https://dc.lft.to/lastmile_qr_scan", "android": "https://dc.lft.to/lastmile_qr_scan"}, "lat": 38.927865, "is_reserved": 0, "bike_id": "1b92b7eeca007060b02c9aafdc5d91c0", "lon": -77.0231765, "is_disabled": 0, "fusion_lat": 0.0, "fusion_lon": 0.0, "name": "1b92b7eeca007060b02c9aafdc5d91c0", "type": "electric_scooter"}, {"rental_uris": {"ios": "https://dc.lft.to/lastmile_qr_scan", "android": "https://dc.lft.to/lastmile_qr_scan"}, "lat": 38.900243833333334, "is_reserved": 0, "bike_id": "27490916488f88002eea101285972f29", "lon": -77.0117955, "is_disabled": 0, "fusion_lat": 0.0, "fusion_lon": 0.0, "name": "27490916488f88002eea101285972f29", "type": "electric_scooter"}, {"rental_uris": {"ios": "https://dc.lft.to/lastmile_qr_scan", "android": "https://dc.lft.to/lastmile_qr_scan"}, "lat": 38.897194666666664, "is_reserved": 0, "bike_id": "195d0c2609a38e126b204129ed9b923f", "lon": -77.026828, "is_disabled": 0, "fusion_lat": 0.0, "fusion_lon": 0.0, "name": "195d0c2609a38e126b204129ed9b923f", "type": "electric_scooter"}, {"rental_uris": {"ios": "https://dc.lft.to/lastmile_qr_scan", "android": "https://dc.lft.to/lastmile_qr_scan"}, "lat": 38.9125295, "is_reserved": 0, "bike_id": "1113126ac653221f5f7aa7086e1cd30a", "lon": -77.03934783333334, "is_disabled": 0, "fusion_lat": 0.0, "fusion_lon": 0.0, "name": "1113126ac653221f5f7aa7086e1cd30a", "type": "electric_scooter"}, {"rental_uris": {"ios": "https://dc.lft.to/lastmile_qr_scan", "android": "https://dc.lft.to/lastmile_qr_scan"}, "lat": 38.922507333333336, "is_reserved": 0, "bike_id": "6e2cb7dc6025bc17e34032c9d2dd1e03", "lon": -77.01973283333334, "is_disabled": 0, "fusion_lat": 0.0, "fusion_lon": 0.0, "name": "6e2cb7dc6025bc17e34032c9d2dd1e03", "type": "electric_scooter"}, {"rental_uris": {"ios": "https://dc.lft.to/lastmile_qr_scan", "android": "https://dc.lft.to/lastmile_qr_scan"}, "lat": 38.918234, "is_reserved": 0, "bike_id": "6001319847fafc37bbc6b5b119312485", "lon": -77.027182, "is_disabled": 0, "fusion_lat": 0.0, "fusion_lon": 0.0, "name": "6001319847fafc37bbc6b5b119312485", "type": "electric_scooter"}, {"rental_uris": {"ios": "https://dc.lft.to/lastmile_qr_scan", "android": "https://dc.lft.to/lastmile_qr_scan"}, "lat": 38.875712166666666, "is_reserved": 0, "bike_id": "8023f78780e784b48b387ec5d3735667", "lon": -77.00583716666667, "is_disabled": 0, "fusion_lat": 0.0, "fusion_lon": 0.0, "name": "8023f78780e784b48b387ec5d3735667", "type": "electric_scooter"}, {"rental_uris": {"ios": "https://dc.lft.to/lastmile_qr_scan", "android": "https://dc.lft.to/lastmile_qr_scan"}, "lat": 38.89623916666667, "is_reserved": 0, "bike_id": "0dc4f7b8232340525ebc296b533f79b0", "lon": -77.02702316666667, "is_disabled": 0, "fusion_lat": 0.0, "fusion_lon": 0.0, "name": "0dc4f7b8232340525ebc296b533f79b0", "type": "electric_scooter"}, {"rental_uris": {"ios": "https://dc.lft.to/lastmile_qr_scan", "android": "https://dc.lft.to/lastmile_qr_scan"}, "lat": 38.91114283333334, "is_reserved": 0, "bike_id": "eff2e2e67b187150ecd867acb71eb71a", "lon": -77.04503533333333, "is_disabled": 0, "fusion_lat": 0.0, "fusion_lon": 0.0, "name": "eff2e2e67b187150ecd867acb71eb71a", "type": "electric_scooter"}, {"rental_uris": {"ios": "https://dc.lft.to/lastmile_qr_scan", "android": "https://dc.lft.to/lastmile_qr_scan"}, "lat": 38.9388655, "is_reserved": 0, "bike_id": "b946f56e1859e9829e2bc13f7575d201", "lon": -77.0326235, "is_disabled": 0, "fusion_lat": 0.0, "fusion_lon": 0.0, "name": "b946f56e1859e9829e2bc13f7575d201", "type": "electric_scooter"}, {"rental_uris": {"ios": "https://dc.lft.to/lastmile_qr_scan", "android": "https://dc.lft.to/lastmile_qr_scan"}, "lat": 38.91863516666667, "is_reserved": 0, "bike_id": "68ff8a2526390c0a98961648fbdd120e", "lon": -77.0366605, "is_disabled": 0, "fusion_lat": 0.0, "fusion_lon": 0.0, "name": "68ff8a2526390c0a98961648fbdd120e", "type": "electric_scooter"}, {"rental_uris": {"ios": "https://dc.lft.to/lastmile_qr_scan", "android": "https://dc.lft.to/lastmile_qr_scan"}, "lat": 38.91720483333334, "is_reserved": 0, "bike_id": "0cd6cd250088fa8253d49f3b9006e127", "lon": -77.068193, "is_disabled": 0, "fusion_lat": 0.0, "fusion_lon": 0.0, "name": "0cd6cd250088fa8253d49f3b9006e127", "type": "electric_scooter"}, {"rental_uris": {"ios": "https://dc.lft.to/lastmile_qr_scan", "android": "https://dc.lft.to/lastmile_qr_scan"}, "lat": 38.99220433333333, "is_reserved": 0, "bike_id": "0557bbb27bbb910a54333342526ed87a", "lon": -76.94437083333334, "is_disabled": 0, "fusion_lat": 0.0, "fusion_lon": 0.0, "name": "0557bbb27bbb910a54333342526ed87a", "type": "electric_bike"}, {"rental_uris": {"ios": "https://dc.lft.to/lastmile_qr_scan", "android": "https://dc.lft.to/lastmile_qr_scan"}, "lat": 38.90279916666667, "is_reserved": 0, "bike_id": "488fc98bfe6d790e0348467593e1d629", "lon": -77.04007016666667, "is_disabled": 0, "fusion_lat": 0.0, "fusion_lon": 0.0, "name": "488fc98bfe6d790e0348467593e1d629", "type": "electric_scooter"}, {"rental_uris": {"ios": "https://dc.lft.to/lastmile_qr_scan", "android": "https://dc.lft.to/lastmile_qr_scan"}, "lat": 38.85782916666667, "is_reserved": 0, "bike_id": "6eda9998ea27bf2a349d47dab34c633d", "lon": -77.120222, "is_disabled": 0, "fusion_lat": 0.0, "fusion_lon": 0.0, "name": "6eda9998ea27bf2a349d47dab34c633d", "type": "electric_bike"}, {"rental_uris": {"ios": "https://dc.lft.to/lastmile_qr_scan", "android": "https://dc.lft.to/lastmile_qr_scan"}, "lat": 38.897978, "is_reserved": 0, "bike_id": "1bd9fca00ab4dd6b4ef24f2e0a826301", "lon": -77.03313433333334, "is_disabled": 0, "fusion_lat": 0.0, "fusion_lon": 0.0, "name": "1bd9fca00ab4dd6b4ef24f2e0a826301", "type": "electric_scooter"}, {"rental_uris": {"ios": "https://dc.lft.to/lastmile_qr_scan", "android": "https://dc.lft.to/lastmile_qr_scan"}, "lat": 38.920414, "is_reserved": 0, "bike_id": "a2525afba0dca88f3b461c17b06365b6", "lon": -77.02572216666667, "is_disabled": 0, "fusion_lat": 0.0, "fusion_lon": 0.0, "name": "a2525afba0dca88f3b461c17b06365b6", "type": "electric_scooter"}, {"rental_uris": {"ios": "https://dc.lft.to/lastmile_qr_scan", "android": "https://dc.lft.to/lastmile_qr_scan"}, "lat": 38.95233433333333, "is_reserved": 0, "bike_id": "ca810e752cc38b6515326e61e86114da", "lon": -77.00216716666667, "is_disabled": 0, "fusion_lat": 0.0, "fusion_lon": 0.0, "name": "ca810e752cc38b6515326e61e86114da", "type": "electric_scooter"}, {"rental_uris": {"ios": "https://dc.lft.to/lastmile_qr_scan", "android": "https://dc.lft.to/lastmile_qr_scan"}, "lat": 38.94062233333333, "is_reserved": 0, "bike_id": "1871d0bb1a2d1fb01492a99d656c8df4", "lon": -76.99939483333333, "is_disabled": 0, "fusion_lat": 0.0, "fusion_lon": 0.0, "name": "1871d0bb1a2d1fb01492a99d656c8df4", "type": "electric_scooter"}, {"rental_uris": {"ios": "https://dc.lft.to/lastmile_qr_scan", "android": "https://dc.lft.to/lastmile_qr_scan"}, "lat": 38.89202216666666, "is_reserved": 0, "bike_id": "1e6c0c62947d4389844c736f0d7f679e", "lon": -76.9569275, "is_disabled": 0, "fusion_lat": 0.0, "fusion_lon": 0.0, "name": "1e6c0c62947d4389844c736f0d7f679e", "type": "electric_scooter"}, {"rental_uris": {"ios": "https://dc.lft.to/lastmile_qr_scan", "android": "https://dc.lft.to/lastmile_qr_scan"}, "lat": 38.913456833333335, "is_reserved": 0, "bike_id": "4876f4f7883577cfe6d75ed873e51554", "lon": -77.04404916666667, "is_disabled": 0, "fusion_lat": 0.0, "fusion_lon": 0.0, "name": "4876f4f7883577cfe6d75ed873e51554", "type": "electric_scooter"}, {"rental_uris": {"ios": "https://dc.lft.to/lastmile_qr_scan", "android": "https://dc.lft.to/lastmile_qr_scan"}, "lat": 38.876558333333335, "is_reserved": 0, "bike_id": "ee5977bfbaf0c11c34ed4cca4df4536b", "lon": -77.004631, "is_disabled": 0, "fusion_lat": 0.0, "fusion_lon": 0.0, "name": "ee5977bfbaf0c11c34ed4cca4df4536b", "type": "electric_scooter"}, {"rental_uris": {"ios": "https://dc.lft.to/lastmile_qr_scan", "android": "https://dc.lft.to/lastmile_qr_scan"}, "lat": 38.90577733333333, "is_reserved": 0, "bike_id": "ff69dad92ce5406df389a6219b7bee3b", "lon": -77.05147366666667, "is_disabled": 0, "fusion_lat": 0.0, "fusion_lon": 0.0, "name": "ff69dad92ce5406df389a6219b7bee3b", "type": "electric_scooter"}, {"rental_uris": {"ios": "https://dc.lft.to/lastmile_qr_scan", "android": "https://dc.lft.to/lastmile_qr_scan"}, "lat": 38.921358, "is_reserved": 0, "bike_id": "7a00569068a0e4d94c0394776e8652e0", "lon": -77.01166416666666, "is_disabled": 0, "fusion_lat": 0.0, "fusion_lon": 0.0, "name": "7a00569068a0e4d94c0394776e8652e0", "type": "electric_scooter"},