{"data": {"bikes": [{"is_disabled": 0, "fusion_lon": 0.0, "fusion_lat": 0.0, "lat": 38.9232515, "type": "electric_scooter", "lon": -77.04509866666666, "bike_id": "8ce60b8ad3b64aa40b720a6fde1e14a2", "rental_uris": {"android": "https://dc.lft.to/lastmile_qr_scan", "ios": "https://dc.lft.to/lastmile_qr_scan"}, "name": "8ce60b8ad3b64aa40b720a6fde1e14a2", "is_reserved": 0}, {"is_disabled": 0, "fusion_lon": 0.0, "fusion_lat": 0.0, "lat": 38.9418835, "type": "electric_scooter", "lon": -77.0424855, "bike_id": "6d31d5cdedbdcc7af9186b43d20a329b", "rental_uris": {"android": "https://dc.lft.to/lastmile_qr_scan", "ios": "https://dc.lft.to/lastmile_qr_scan"}, "name": "6d31d5cdedbdcc7af9186b43d20a329b", "is_reserved": 0}, {"is_disabled": 0, "fusion_lon": 0.0, "fusion_lat": 0.0, "lat": 38.888804666666665, "type": "electric_bike", "lon": -77.028496, "bike_id": "53dfae3c4bfddbe5c07b07133dd3c9c6", "rental_uris": {"android": "https://dc.lft.to/lastmile_qr_scan", "ios": "https://dc.lft.to/lastmile_qr_scan"}, "name": "53dfae3c4bfddbe5c07b07133dd3c9c6", "is_reserved": 0}, {"is_disabled": 0, "fusion_lon": 0.0, "fusion_lat": 0.0, "lat": 38.87658283333333, "type": "electric_scooter", "lon": -77.007573, "bike_id": "ddf5cfe43f84067844e3020a3ce3a574", "rental_uris": {"android": "https://dc.lft.to/lastmile_qr_scan", "ios": "https://dc.lft.to/lastmile_qr_scan"}, "name": "ddf5cfe43f84067844e3020a3ce3a574", "is_reserved": 0}, {"is_disabled": 0, "fusion_lon": 0.0, "fusion_lat": 0.0, "lat": 39.022958, "type": "electric_bike", "lon": -77.0210185, "bike_id": "9dddcb2616bcfc266f4e71ce51a98f3b", "rental_uris": {"android": "https://dc.lft.to/lastmile_qr_scan", "ios": "https://dc.lft.to/lastmile_qr_scan"}, "name": "9dddcb2616bcfc266f4e71ce51a98f3b", "is_reserved": 0}, {"is_disabled": 0, "fusion_lon": 0.0, "fusion_lat": 0.0, "lat": 38.895509833333335, "type": "electric_scooter", "lon": -76.9487085, "bike_id": "16a4ba7a2c0f7bc31272e1ec085fcc6e", "rental_uris": {"android": "https://dc.lft.to/lastmile_qr_scan", "ios": "https://dc.lft.to/lastmile_qr_scan"}, "name": "16a4ba7a2c0f7bc31272e1ec085fcc6e", "is_reserved": 0}, {"is_disabled": 0, "fusion_lon": 0.0, "fusion_lat": 0.0, "lat": 38.90432466666667, "type": "electric_scooter", "lon": -77.05139483333333, "bike_id": "53d5555feeb6ee54a0dffee2b8c201f9", "rental_uris": {"android": "https://dc.lft.to/lastmile_qr_scan", "ios": "https://dc.lft.to/lastmile_qr_scan"}, "name": "53d5555feeb6ee54a0dffee2b8c201f9", "is_reserved": 0}, {"is_disabled": 0, "fusion_lon": 0.0, "fusion_lat": 0.0, "lat": 38.89331266666667, "type": "electric_scooter", "lon": -77.02125866666667, "bike_id": "580cd8b484ef89ecc90abb82e63eb1c5", "rental_uris": {"android": "https://dc.lft.to/lastmile_qr_scan", "ios": "https://dc.lft.to/lastmile_qr_scan"}, "name": "580cd8b484ef89ecc90abb82e63eb1c5", "is_reserved": 0}, {"is_disabled": 0, "fusion_lon": 0.0, "fusion_lat": 0.0, "lat": 38.8303855, "type": "electric_scooter", "lon": -77.01228916666666, "bike_id": "425253a539bf5a3fba785df8c9cfaec4", "rental_uris": {"android": "https://dc.lft.to/lastmile_qr_scan", "ios": "https://dc.lft.to/lastmile_qr_scan"}, "name": "425253a539bf5a3fba785df8c9cfaec4", "is_reserved": 0}, {"is_disabled": 0, "fusion_lon": 0.0, "fusion_lat": 0.0, "lat": 38.93186433333333, "type": "electric_scooter", "lon": -77.04142083333333, "bike_id": "94d86b83c614328e9056ab11f1d66ce8", "rental_uris": {"android": "https://dc.lft.to/lastmile_qr_scan", "ios": "https://dc.lft.to/lastmile_qr_scan"}, "name": "94d86b83c614328e9056ab11f1d66ce8", "is_reserved": 0}, {"is_disabled": 0, "fusion_lon": 0.0, "fusion_lat": 0.0, "lat": 38.908632833333336, "type": "electric_scooter", "lon": -77.03009866666666, "bike_id": "e5d2727bd82f6473910f6402d643018b", "rental_uris": {"android": "https://dc.lft.to/lastmile_qr_scan", "ios": "https://dc.lft.to/lastmile_qr_scan"}, "name": "e5d2727bd82f6473910f6402d643018b", "is_reserved": 0}, {"is_disabled": 0, "fusion_lon": 0.0, "fusion_lat": 0.0, "lat": 38.865241166666664, "type": "electric_scooter", "lon": -76.98968483333333, "bike_id": "26757e000ba866dc24657e4f72a31fdd", "rental_uris": {"android": "https://dc.lft.to/lastmile_qr_scan", "ios": "https://dc.lft.to/lastmile_qr_scan"}, "name": "26757e000ba866dc24657e4f72a31fdd", "is_reserved": 0}, {"is_disabled": 0, "fusion_lon": 0.0, "fusion_lat": 0.0, "lat": 38.89844166666666, "type": "electric_scooter", "lon": -76.94494683333333, "bike_id": "03ad730b085e4cfc0fe772c470069fcf", "rental_uris": {"android": "https://dc.lft.to/lastmile_qr_scan", "ios": "https://dc.lft.to/lastmile_qr_scan"}, "name": "03ad730b085e4cfc0fe772c470069fcf", "is_reserved": 0}, {"is_disabled": 0, "fusion_lon": 0.0, "fusion_lat": 0.0, "lat": 38.91501066666667, "type": "electric_scooter", "lon": -77.03207583333334, "bike_id": "8a16430890d38398ebc50c6b89fe6921", "rental_uris": {"android": "https://dc.lft.to/lastmile_qr_scan", "ios": "https://dc.lft.to/lastmile_qr_scan"}, "name": "8a16430890d38398ebc50c6b89fe6921", "is_reserved": 0}, {"is_disabled": 0, "fusion_lon": 0.0, "fusion_lat": 0.0, "lat": 38.968036833333336, "type": "electric_scooter", "lon": -77.0212035, "bike_id": "f21a681eba9d04aceb827701d73f4bdf", "rental_uris": {"android": "https://dc.lft.to/lastmile_qr_scan", "ios": "https://dc.lft.to/lastmile_qr_scan"}, "name": "f21a681eba9d04aceb827701d73f4bdf", "is_reserved": 0}, {"is_disabled": 0, "fusion_lon": 0.0, "fusion_lat": 0.0, "lat": 38.880195, "type": "electric_scooter", "lon": -76.98240233333334, "bike_id": "7156d614fa03c63096d36f34fe703528", "rental_uris": {"android": "https://dc.lft.to/lastmile_qr_scan", "ios": "https://dc.lft.to/lastmile_qr_scan"}, "name": "7156d614fa03c63096d36f34fe703528", "is_reserved": 0}, {"is_disabled": 0, "fusion_lon": 0.0, "fusion_lat": 0.0, "lat": 38.883199, "type": "electric_scooter", "lon": -77.01691316666667, "bike_id": "60ff41446a0894f2eeb2a3c8c64e604d", "rental_uris": {"android": "https://dc.lft.to/lastmile_qr_scan", "ios": "https://dc.lft.to/lastmile_qr_scan"}, "name": "60ff41446a0894f2eeb2a3c8c64e604d", "is_reserved": 0}, {"is_disabled": 0, "fusion_lon": 0.0, "fusion_lat": 0.0, "lat": 38.9716985, "type": "electric_bike", "lon": -76.98023316666666, "bike_id": "b11c4c43238775b491b9207dd7f8b494", "rental_uris": {"android": "https://dc.lft.to/lastmile_qr_scan", "ios": "https://dc.lft.to/lastmile_qr_scan"}, "name": "b11c4c43238775b491b9207dd7f8b494", "is_reserved": 0}, {"is_disabled": 0, "fusion_lon": 0.0, "fusion_lat": 0.0, "lat": 38.901370666666665, "type": "electric_scooter", "lon": -77.03997733333334, "bike_id": "a6c92dbca9e09e6ecf03229d20299eb1", "rental_uris": {"android": "https://dc.lft.to/lastmile_qr_scan", "ios": "https://dc.lft.to/lastmile_qr_scan"}, "name": "a6c92dbca9e09e6ecf03229d20299eb1", "is_reserved": 0}, {"is_disabled": 0, "fusion_lon": 0.0, "fusion_lat": 0.0, "lat": 38.94085783333333, "type": "electric_scooter", "lon": -77.03817183333334, "bike_id": "95fbf07affe2aec64ba7ef9fe5a15a66", "rental_uris": {"android": "https://dc.lft.to/lastmile_qr_scan", "ios": "https://dc.lft.to/lastmile_qr_scan"}, "name": "95fbf07affe2aec64ba7ef9fe5a15a66", "is_reserved": 0}, {"is_disabled": 0, "fusion_lon": 0.0, "fusion_lat": 0.0, "lat": 38.90141233333333, "type": "electric_scooter", "lon": -77.01764883333334, "bike_id": "a229b45ef64f88acb0631220e1b47f0e", "rental_uris": {"android": "https://dc.lft.to/lastmile_qr_scan", "ios": "https://dc.lft.to/lastmile_qr_scan"}, "name": "a229b45ef64f88acb0631220e1b47f0e", "is_reserved": 0}, {"is_disabled": 0, "fusion_lon": 0.0, "fusion_lat": 0.0, "lat": 38.893528, "type": "electric_scooter", "lon": -76.98469966666667, "bike_id": "8014d418aead2d9aa2950afe8dbc2ce1", "rental_uris": {"android": "https://dc.lft.to/lastmile_qr_scan", "ios": "https://dc.lft.to/lastmile_qr_scan"}, "name": "8014d418aead2d9aa2950afe8dbc2ce1", "is_reserved": 0}, {"is_disabled": 0, "fusion_lon": 0.0, "fusion_lat": 0.0, "lat": 38.9396275, "type": "electric_scooter", "lon": -77.02749866666667, "bike_id": "93bfb1e31a6cbfef540178b70afc0252", "rental_uris": {"android": "https://dc.lft.to/lastmile_qr_scan", "ios": "https://dc.lft.to/lastmile_qr_scan"}, "name": "93bfb1e31a6cbfef540178b70afc0252", "is_reserved": 0}, {"is_disabled": 0, "fusion_lon": 0.0, "fusion_lat": 0.0, "lat": 38.884904666666664, "type": "electric_scooter", "lon": -77.02208666666667, "bike_id": "9c840c1f19d36fbc32973a6075521a11", "rental_uris": {"android": "https://dc.lft.to/lastmile_qr_scan", "ios": "https://dc.lft.to/lastmile_qr_scan"}, "name": "9c840c1f19d36fbc32973a6075521a11", "is_reserved": 0}, {"is_disabled": 0, "fusion_lon": 0.0, "fusion_lat": 0.0, "lat": 38.9704725, "type": "electric_bike", "lon": -77.030804, "bike_id": "4e7a8eb62569d4b994a4bf195cacfe3e", "rental_uris": {"android": "https://dc.lft.to/lastmile_qr_scan", "ios": "https://dc.lft.to/lastmile_qr_scan"}, "name": "4e7a8eb62569d4b994a4bf195cacfe3e", "is_reserved": 0}, {"is_disabled": 0, "fusion_lon": 0.0, "fusion_lat": 0.0, "lat": 38.89191366666667, "type": "electric_scooter", "lon": -77.00290333333334, "bike_id": "10bfff4771d57ddb3b89a1f10bb04847", "rental_uris": {"android": "https://dc.lft.to/lastmile_qr_scan", "ios": "https://dc.lft.to/lastmile_qr_scan"}, "name": "10bfff4771d57ddb3b89a1f10bb04847", "is_reserved": 0}, {"is_disabled": 0, "fusion_lon": 0.0, "fusion_lat": 0.0, "lat": 38.902432, "type": "electric_bike", "lon": -76.97013816666667, "bike_id": "3d70bcd0844f8fc7d6b6b45441530de2", "rental_uris": {"android": "https://dc.lft.to/lastmile_qr_scan", "ios": "https://dc.lft.to/lastmile_qr_scan"}, "name": "3d70bcd0844f8fc7d6b6b45441530de2", "is_reserved": 0}, {"is_disabled": 0, "fusion_lon": 0.0, "fusion_lat": 0.0, "lat": 38.900516333333336, "type": "electric_scooter", "lon": -77.03445816666667, "bike_id": "c1cc6edc70461e434151a657f05ccba7", "rental_uris": {"android": "https://dc.lft.to/lastmile_qr_scan", "ios": "https://dc.lft.to/lastmile_qr_scan"}, "name": "c1cc6edc70461e434151a657f05ccba7", "is_reserved": 0}, {"is_disabled": 0, "fusion_lon": 0.0, "fusion_lat": 0.0, "lat": 38.91804, "type": "electric_scooter", "lon": -77.0268495, "bike_id": "aabbeef2e9126f3b5d71e5e293b263e2", "rental_uris": {"android": "https://dc.lft.to/lastmile_qr_scan", "ios": "https://dc.lft.to/lastmile_qr_scan"}, "name": "aabbeef2e9126f3b5d71e5e293b263e2", "is_reserved": 0}, {"is_disabled": 0, "fusion_lon": 0.0, "fusion_lat": 0.0, "lat": 38.895239833333335, "type": "electric_scooter", "lon": -77.02818533333334, "bike_id": "557ae5d3cbc5090c84a29e3e8a4f2a6e", "rental_uris": {"android": "https://dc.lft.to/lastmile_qr_scan", "ios": "https://dc.lft.to/lastmile_qr_scan"}, "name": "557ae5d3cbc5090c84a29e3e8a4f2a6e", "is_reserved": 0}, {"is_disabled": 0, "fusion_lon": 0.0, "fusion_lat": 0.0, "lat": 38.922707, "type": "electric_scooter", "lon": -77.042127, "bike_id": "28493b762fcce25ee7675badda3f39ad", "rental_uris": {"android": "https://dc.lft.to/lastmile_qr_scan", "ios": "https://dc.lft.to/lastmile_qr_scan"}, "name": "28493b762fcce25ee7675badda3f39ad", "is_reserved": 0}, {"is_disabled": 0, "fusion_lon": 0.0, "fusion_lat": 0.0, "lat": 38.84843266666667, "type": "electric_bike", "lon": -77.08043933333333, "bike_id": "5dcbc400a57b6eb7817c5c7cb1c6fc68", "rental_uris": {"android": "https://dc.lft.to/lastmile_qr_scan", "ios": "https://dc.lft.to/lastmile_qr_scan"}, "name": "5dcbc400a57b6eb7817c5c7cb1c6fc68", "is_reserved": 0}, {"is_disabled": 0, "fusion_lon": 0.0, "fusion_lat": 0.0, "lat": 38.9056, "type": "electric_scooter", "lon": -77.02714633333333, "bike_id": "8e9839862eeb91b7059dad2a8016f78f", "rental_uris": {"android": "https://dc.lft.to/lastmile_qr_scan", "ios": "https://dc.lft.to/lastmile_qr_scan"}, "name": "8e9839862eeb91b7059dad2a8016f78f", "is_reserved": 0}, {"is_disabled": 0, "fusion_lon": 0.0, "fusion_lat": 0.0, "lat": 38.930566166666665, "type": "electric_scooter", "lon": -77.02660816666666, "bike_id": "33cd127b0e1da4b11b48bdeeded5a41d", "rental_uris": {"android": "https://dc.lft.to/lastmile_qr_scan", "ios": "https://dc.lft.to/lastmile_qr_scan"}, "name": "33cd127b0e1da4b11b48bdeeded5a41d", "is_reserved": 0}, {"is_disabled": 0, "fusion_lon": 0.0, "fusion_lat": 0.0, "lat": 38.90705366666667, "type": "electric_scooter", "lon": -77.02691683333333, "bike_id": "66ece0b7d1b37fffd92d3091c3c22f72", "rental_uris": {"android": "https://dc.lft.to/lastmile_qr_scan", "ios": "https://dc.lft.to/lastmile_qr_scan"}, "name": "66ece0b7d1b37fffd92d3091c3c22f72", "is_reserved": 0}, {"is_disabled": 0, "fusion_lon": 0.0, "fusion_lat": 0.0, "lat": 38.9299275, "type": "electric_scooter", "lon": -77.02175316666667, "bike_id": "72448d8c76a7e2f114357dd565b45332", "rental_uris": {"android": "https://dc.lft.to/lastmile_qr_scan", "ios": "https://dc.lft.to/lastmile_qr_scan"}, "name": "72448d8c76a7e2f114357dd565b45332", "is_reserved": 0}, {"is_disabled": 0, "fusion_lon": 0.0, "fusion_lat": 0.0, "lat": 38.91766, "type": "electric_scooter", "lon": -77.02341383333334, "bike_id": "52da598ca6ae2064cc3cc92bbd05f9e7", "rental_uris": {"android": "https://dc.lft.to/lastmile_qr_scan", "ios": "https://dc.lft.to/lastmile_qr_scan"}, "name": "52da598ca6ae2064cc3cc92bbd05f9e7", "is_reserved": 0}, {"is_disabled": 0, "fusion_lon": 0.0, "fusion_lat": 0.0, "lat": 38.93394516666667, "type": "electric_scooter", "lon": -77.027279, "bike_id": "e0587a808f6fce9bf73e0d04baba8079", "rental_uris": {"android": "https://dc.lft.to/lastmile_qr_scan", "ios": "https://dc.lft.to/lastmile_qr_scan"}, "name": "e0587a808f6fce9bf73e0d04baba8079", "is_reserved": 0}, {"is_disabled": 0, "fusion_lon": 0.0, "fusion_lat": 0.0, "lat": 38.876250666666664, "type": "electric_scooter", "lon": -76.9653975, "bike_id": "37310c84346311d28187b104dddd8056", "rental_uris": {"android": "https://dc.lft.to/lastmile_qr_scan", "ios": "https://dc.lft.to/lastmile_qr_scan"}, "name": "37310c84346311d28187b104dddd8056", "is_reserved": 0}, {"is_disabled": 0, "fusion_lon": 0.0, "fusion_lat": 0.0, "lat": 38.88372366666667, "type": "electric_scooter", "lon": -76.92645083333333, "bike_id": "76a57b32ed57aadab18e2ad7b0d7aa39", "rental_uris": {"android": "https://dc.lft.to/lastmile_qr_scan", "ios": "https://dc.lft.to/lastmile_qr_scan"}, "name": "76a57b32ed57aadab18e2ad7b0d7aa39", "is_reserved": 0}, {"is_disabled": 0, "fusion_lon": 0.0, "fusion_lat": 0.0, "lat": 38.89741183333334, "type": "electric_scooter", "lon": -77.02714766666666, "bike_id": "1e116f2c00834fb43e79e97e7a604116", "rental_uris": {"android": "https://dc.lft.to/lastmile_qr_scan", "ios": "https://dc.lft.to/lastmile_qr_scan"}, "name": "1e116f2c00834fb43e79e97e7a604116", "is_reserved": 0}, {"is_disabled": 0, "fusion_lon": 0.0, "fusion_lat": 0.0, "lat": 38.9147285, "type": "electric_bike", "lon": -77.00917433333333, "bike_id": "244273550fe8c9ba851d97ff14718b93", "rental_uris": {"android": "https://dc.lft.to/lastmile_qr_scan", "ios": "https://dc.lft.to/lastmile_qr_scan"}, "name": "244273550fe8c9ba851d97ff14718b93", "is_reserved": 0}, {"is_disabled": 0, "fusion_lon": 0.0, "fusion_lat": 0.0, "lat": 38.9318875, "type": "electric_bike", "lon": -77.22938766666667, "bike_id": "c46bb10c699efdb1fcb87a8867c26f97", "rental_uris": {"android": "https://dc.lft.to/lastmile_qr_scan", "ios": "https://dc.lft.to/lastmile_qr_scan"}, "name": "c46bb10c699efdb1fcb87a8867c26f97", "is_reserved": 0}, {"is_disabled": 0, "fusion_lon": 0.0, "fusion_lat": 0.0, "lat": 38.913245833333335, "type": "electric_scooter", "lon": -77.04010883333333, "bike_id": "3822898ba68d2484349001db8bc7f840", "rental_uris": {"android": "https://dc.lft.to/lastmile_qr_scan", "ios": "https://dc.lft.to/lastmile_qr_scan"}, "name": "3822898ba68d2484349001db8bc7f840", "is_reserved": 0}, {"is_disabled": 0, "fusion_lon": 0.0, "fusion_lat": 0.0, "lat": 38.896207, "type": "electric_scooter", "lon": -76.95635866666667, "bike_id": "9defd2167a036b93821e7befc0256b25", "rental_uris": {"android": "https://dc.lft.to/lastmile_qr_scan", "ios": "https://dc.lft.to/lastmile_qr_scan"}, "name": "9defd2167a036b93821e7befc0256b25", "is_reserved": 0}, {"is_disabled": 0, "fusion_lon": 0.0, "fusion_lat": 0.0, "lat": 38.950772, "type": "electric_scooter", "lon": -77.02873116666666, "bike_id": "08e06c1776cd673596c0a60b4f7d571f", "rental_uris": {"android": "https://dc.lft.to/lastmile_qr_scan", "ios": "https://dc.lft.to/lastmile_qr_scan"}, "name": "08e06c1776cd673596c0a60b4f7d571f", "is_reserved": 0}, {"is_disabled": 0, "fusion_lon": 0.0, "fusion_lat": 0.0, "lat": 38.917559833333335, "type": "electric_scooter", "lon": -77.03583933333333, "bike_id": "da59488856fb3c6524b3273e6923a442", "rental_uris": {"android": "https://dc.lft.to/lastmile_qr_scan", "ios": "https://dc.lft.to/lastmile_qr_scan"}, "name": "da59488856fb3c6524b3273e6923a442", "is_reserved": 0}, {"is_disabled": 0, "fusion_lon": 0.0, "fusion_lat": 0.0, "lat": 38.918834, "type": "electric_scooter", "lon": -77.015911, "bike_id": "06c2fd1eff5370d25e09eeee691ab7c3", "rental_uris": {"android": "https://dc.lft.to/lastmile_qr_scan", "ios": "https://dc.lft.to/lastmile_qr_scan"}, "name": "06c2fd1eff5370d25e09eeee691ab7c3", "is_reserved": 0}, {"is_disabled": 0, "fusion_lon": 0.0, "fusion_lat": 0.0, "lat": 38.92054183333333, "type": "electric_scooter", "lon": -76.998754, "bike_id": "a7b8498aab3b911fc0be00eb9380701e", "rental_uris": {"android": "https://dc.lft.to/lastmile_qr_scan", "ios": "https://dc.lft.to/lastmile_qr_scan"}, "name": "a7b8498aab3b911fc0be00eb9380701e", "is_reserved": 0}, {"is_disabled": 0, "fusion_lon": 0.0, "fusion_lat": 0.0, "lat": 38.992510333333335, "type": "electric_bike", "lon": -77.0499695, "bike_id": "bbb3f1bf031d11eb7a8f3ebb92f16824", "rental_uris": {"android": "https://dc.lft.to/lastmile_qr_scan", "ios": "https://dc.lft.to/lastmile_qr_scan"}, "name": "bbb3f1bf031d11eb7a8f3ebb92f16824", "is_reserved": 0}, {"is_disabled": 0, "fusion_lon": 0.0, "fusion_lat": 0.0, "lat": 38.908389166666666, "type": "electric_scooter", "lon": -77.03830966666666, "bike_id": "6a837dc5f981ba7ae3aa6ecc15257c2b", "rental_uris": {"android": "https://dc.lft.to/lastmile_qr_scan", "ios": "https://dc.lft.to/lastmile_qr_scan"}, "name": "6a837dc5f981ba7ae3aa6ecc15257c2b", "is_reserved": 0}, {"is_disabled": 0, "fusion_lon": 0.0, "fusion_lat": 0.0, "lat": 38.87209816666667, "type": "electric_bike", "lon": -77.01621916666667, "bike_id": "3e1d4ea53e8c208983c6eebd2632792c", "rental_uris": {"android": "https://dc.lft.to/lastmile_qr_scan", "ios": "https://dc.lft.to/lastmile_qr_scan"}, "name": "3e1d4ea53e8c208983c6eebd2632792c", "is_reserved": 0}, {"is_disabled": 0, "fusion_lon": 0.0, "fusion_lat": 0.0, "lat": 38.935805333333334, "type": "electric_bike", "lon": -77.03656666666667, "bike_id": "ece08d345acdf28c3e10d51101d579d5", "rental_uris": {"android": "https://dc.lft.to/lastmile_qr_scan", "ios": "https://dc.lft.to/lastmile_qr_scan"}, "name": "ece08d345acdf28c3e10d51101d579d5", "is_reserved": 0}, {"is_disabled": 0, "fusion_lon": 0.0, "fusion_lat": 0.0, "lat": 38.87863683333333, "type": "electric_bike", "lon": -77.01753933333333, "bike_id": "aae1410168b497f0f2dcb4afde3ad3a6", "rental_uris": {"android": "https://dc.lft.to/lastmile_qr_scan", "ios": "https://dc.lft.to/lastmile_qr_scan"}, "name": "aae1410168b497f0f2dcb4afde3ad3a6", "is_reserved": 0}, {"is_disabled": 0, "fusion_lon": 0.0, "fusion_lat": 0.0, "lat": 38.88455833333333, "type": "electric_bike", "lon": -76.91637866666667, "bike_id": "51c7953d51d0d3ce456c04032162645e", "rental_uris": {"android": "https://dc.lft.to/lastmile_qr_scan", "ios": "https://dc.lft.to/lastmile_qr_scan"}, "name": "51c7953d51d0d3ce456c04032162645e", "is_reserved": 0}, {"is_disabled": 0, "fusion_lon": 0.0, "fusion_lat": 0.0, "lat": 38.9053705, "type": "electric_scooter", "lon": -77.05009216666667, "bike_id": "cba5fb35aa9683de822b3bd9d30483b3", "rental_uris": {"android": "https://dc.lft.to/lastmile_qr_scan", "ios": "https://dc.lft.to/lastmile_qr_scan"}, "name": "cba5fb35aa9683de822b3bd9d30483b3", "is_reserved": 0}, {"is_disabled": 0, "fusion_lon": 0.0, "fusion_lat": 0.0, "lat": 38.909683333333334, "type": "electric_scooter", "lon": -77.048252, "bike_id": "9aa4d1edf1be6ee4234e9622cb05fca5", "rental_uris": {"android": "https://dc.lft.to/lastmile_qr_scan", "ios": "https://dc.lft.to/lastmile_qr_scan"}, "name": "9aa4d1edf1be6ee4234e9622cb05fca5", "is_reserved": 0}, {"is_disabled": 0, "fusion_lon": 0.0, "fusion_lat": 0.0, "lat": 38.94896, "type": "electric_bike", "lon": -76.96366016666667, "bike_id": "c372b15c1524aaa43b458a99bc003a0b", "rental_uris": {"android": "https://dc.lft.to/lastmile_qr_scan", "ios": "https://dc.lft.to/lastmile_qr_scan"}, "name": "c372b15c1524aaa43b458a99bc003a0b", "is_reserved": 0}, {"is_disabled": 0, "fusion_lon": 0.0, "fusion_lat": 0.0, "lat": 39.05262716666667, "type": "electric_bike", "lon": -77.04379783333333, "bike_id": "a5aed9b2dc855d17b730704e8c77995f", "rental_uris": {"android": "https://dc.lft.to/lastmile_qr_scan", "ios": "https://dc.lft.to/lastmile_qr_scan"}, "name": "a5aed9b2dc855d17b730704e8c77995f", "is_reserved": 0}, {"is_disabled": 0, "fusion_lon": 0.0, "fusion_lat": 0.0, "lat": 38.9170325, "type": "electric_scooter", "lon": -77.00114666666667, "bike_id": "face24a70907e0be363d51d9f6f6cef2", "rental_uris": {"android": "https://dc.lft.to/lastmile_qr_scan", "ios": "https://dc.lft.to/lastmile_qr_scan"}, "name": "face24a70907e0be363d51d9f6f6cef2", "is_reserved": 0}, {"is_disabled": 0, "fusion_lon": 0.0, "fusion_lat": 0.0, "lat": 38.9370285, "type": "electric_scooter", "lon": -77.05604316666667, "bike_id": "c68effb95a896b0ddea52f59c7c9d629", "rental_uris": {"android": "https://dc.lft.to/lastmile_qr_scan", "ios": "https://dc.lft.to/lastmile_qr_scan"}, "name": "c68effb95a896b0ddea52f59c7c9d629", "is_reserved": 0}, {"is_disabled": 0, "fusion_lon": 0.0, "fusion_lat": 0.0, "lat": 38.9162855, "type": "electric_scooter", "lon": -77.02275533333334, "bike_id": "df3bca71c785fa95bdfdf066211dd3b3", "rental_uris": {"android": "https://dc.lft.to/lastmile_qr_scan", "ios": "https://dc.lft.to/lastmile_qr_scan"}, "name": "df3bca71c785fa95bdfdf066211dd3b3", "is_reserved": 0}, {"is_disabled": 0, "fusion_lon": 0.0, "fusion_lat": 0.0, "lat": 38.83934683333333, "type": "electric_bike", "lon": -77.07900883333333, "bike_id": "077ceb419289427617917199fa811092", "rental_uris": {"android": "https://dc.lft.to/lastmile_qr_scan", "ios": "https://dc.lft.to/lastmile_qr_scan"}, "name": "077ceb419289427617917199fa811092", "is_reserved": 0}, {"is_disabled": 0, "fusion_lon": 0.0, "fusion_lat": 0.0, "lat": 38.89737516666667, "type": "electric_scooter", "lon": -77.0100725, "bike_id": "d44de6c50cb988a6e0c56dc2eb3e0edd", "rental_uris": {"android": "https://dc.lft.to/lastmile_qr_scan", "ios": "https://dc.lft.to/lastmile_qr_scan"}, "name": "d44de6c50cb988a6e0c56dc2eb3e0edd", "is_reserved": 0}, {"is_disabled": 0, "fusion_lon": 0.0, "fusion_lat": 0.0, "lat": 38.917748833333334, "type": "electric_scooter", "lon": -77.04750116666666, "bike_id": "1ceb1ade4864b950ccd34ac2f36c3758", "rental_uris": {"android": "https://dc.lft.to/lastmile_qr_scan", "ios": "https://dc.lft.to/lastmile_qr_scan"}, "name": "1ceb1ade4864b950ccd34ac2f36c3758", "is_reserved": 0}, {"is_disabled": 0, "fusion_lon": 0.0, "fusion_lat": 0.0, "lat": 38.93469416666667, "type": "electric_scooter", "lon": -77.068769, "bike_id": "a027422b6fe21a2babb8ac894751b53f", "rental_uris": {"android": "https://dc.lft.to/lastmile_qr_scan", "ios": "https://dc.lft.to/lastmile_qr_scan"}, "name": "a027422b6fe21a2babb8ac894751b53f", "is_reserved": 0}, {"is_disabled": 0, "fusion_lon": 0.0, "fusion_lat": 0.0, "lat": 38.89443133333333, "type": "electric_scooter", "lon": -77.010933, "bike_id": "a716a79ec6015d9d3b002de16d95a26a", "rental_uris": {"android": "https://dc.lft.to/lastmile_qr_scan", "ios": "https://dc.lft.to/lastmile_qr_scan"}, "name": "a716a79ec6015d9d3b002de16d95a26a", "is_reserved": 0}, {"is_disabled": 0, "fusion_lon": 0.0, "fusion_lat": 0.0, "lat": 38.89512533333333, "type": "electric_scooter", "lon": -77.01102716666666, "bike_id": "0cdb4062bf3d5951326b09f1b8623749", "rental_uris": {"android": "https://dc.lft.to/lastmile_qr_scan", "ios": "https://dc.lft.to/lastmile_qr_scan"}, "name": "0cdb4062bf3d5951326b09f1b8623749", "is_reserved": 0}, {"is_disabled": 0, "fusion_lon": 0.0, "fusion_lat": 0.0, "lat": 38.919269166666666, "type": "electric_scooter", "lon": -77.03389083333333, "bike_id": "e378d04c4290ab95ceb49daa55138ff4", "rental_uris": {"android": "https://dc.lft.to/lastmile_qr_scan", "ios": "https://dc.lft.to/lastmile_qr_scan"}, "name": "e378d04c4290ab95ceb49daa55138ff4", "is_reserved": 0}, {"is_disabled": 0, "fusion_lon": 0.0, "fusion_lat": 0.0, "lat": 38.97259916666667, "type": "electric_bike", "lon": -76.99168433333334, "bike_id": "a8884678736a91f1472b3b10c478151a", "rental_uris": {"android": "https://dc.lft.to/lastmile_qr_scan", "ios": "https://dc.lft.to/lastmile_qr_scan"}, "name": "a8884678736a91f1472b3b10c478151a", "is_reserved": 0}, {"is_disabled": 0, "fusion_lon": 0.0, "fusion_lat": 0.0, "lat": 38.903804666666666, "type": "electric_scooter", "lon": -77.01644616666667, "bike_id": "4daed83e5194dad6db459b6bde698b5e", "rental_uris": {"android": "https://dc.lft.to/lastmile_qr_scan", "ios": "https://dc.lft.to/lastmile_qr_scan"}, "name": "4daed83e5194dad6db459b6bde698b5e", "is_reserved": 0}, {"is_disabled": 0, "fusion_lon": 0.0, "fusion_lat": 0.0, "lat": 38.9225895, "type": "electric_bike", "lon": -77.07715433333334, "bike_id": "f89ca36c0452b60895873818c46f3524", "rental_uris": {"android": "https://dc.lft.to/lastmile_qr_scan", "ios": "https://dc.lft.to/lastmile_qr_scan"}, "name": "f89ca36c0452b60895873818c46f3524", "is_reserved": 0}, {"is_disabled": 0, "fusion_lon": 0.0, "fusion_lat": 0.0, "lat": 38.845139833333334, "type": "electric_bike", "lon": -77.0779435, "bike_id": "867b45ace0bf4a814817cda6ea47fd0d", "rental_uris": {"android": "https://dc.lft.to/lastmile_qr_scan", "ios": "https://dc.lft.to/lastmile_qr_scan"}, "name": "867b45ace0bf4a814817cda6ea47fd0d", "is_reserved": 0}, {"is_disabled": 0, "fusion_lon": 0.0, "fusion_lat": 0.0, "lat": 38.906815, "type": "electric_scooter", "lon": -77.02691716666666, "bike_id": "ef552ded2e6bbdef3a01ee47c448afb9", "rental_uris": {"android": "https://dc.lft.to/lastmile_qr_scan", "ios": "https://dc.lft.to/lastmile_qr_scan"}, "name": "ef552ded2e6bbdef3a01ee47c448afb9", "is_reserved": 0}, {"is_disabled": 0, "fusion_lon": 0.0, "fusion_lat": 0.0, "lat": 38.912608166666665, "type": "electric_scooter", "lon": -77.00827016666666, "bike_id": "a5077b2b7ea8527aa3b6d5fd43a3bb02", "rental_uris": {"android": "https://dc.lft.to/lastmile_qr_scan", "ios": "https://dc.lft.to/lastmile_qr_scan"}, "name": "a5077b2b7ea8527aa3b6d5fd43a3bb02", "is_reserved": 0}, {"is_disabled": 0, "fusion_lon": 0.0, "fusion_lat": 0.0, "lat": 38.908361666666664, "type": "electric_scooter", "lon": -76.9969705, "bike_id": "2bccb591fbc7c7f347a5f7b32c7ec79c", "rental_uris": {"android": "https://dc.lft.to/lastmile_qr_scan", "ios": "https://dc.lft.to/lastmile_qr_scan"}, "name": "2bccb591fbc7c7f347a5f7b32c7ec79c", "is_reserved": 0}, {"is_disabled": 0, "fusion_lon": 0.0, "fusion_lat": 0.0, "lat": 38.916699333333334, "type": "electric_scooter", "lon": -77.02708816666667, "bike_id": "2f3e6bf9b9e808c410a7aa6cbeaeff10", "rental_uris": {"android": "https://dc.lft.to/lastmile_qr_scan", "ios": "https://dc.lft.to/lastmile_qr_scan"}, "name": "2f3e6bf9b9e808c410a7aa6cbeaeff10", "is_reserved": 0}, {"is_disabled": 0, "fusion_lon": 0.0, "fusion_lat": 0.0, "lat": 38.86626783333333, "type": "electric_scooter", "lon": -76.98720583333333, "bike_id": "1adf2233e8d681c3d88358896e0c48e3", "rental_uris": {"android": "https://dc.lft.to/lastmile_qr_scan", "ios": "https://dc.lft.to/lastmile_qr_scan"}, "name": "1adf2233e8d681c3d88358896e0c48e3", "is_reserved": 0}, {"is_disabled": 0, "fusion_lon": 0.0, "fusion_lat": 0.0, "lat": 38.901936666666664, "type": "electric_scooter", "lon": -77.03956183333334, "bike_id": "2c3515ce0cc2b33854df699acf75aa84", "rental_uris": {"android": "https://dc.lft.to/lastmile_qr_scan", "ios": "https://dc.lft.to/lastmile_qr_scan"}, "name": "2c3515ce0cc2b33854df699acf75aa84", "is_reserved": 0}, {"is_disabled": 0, "fusion_lon": 0.0, "fusion_lat": 0.0, "lat": 38.9018935, "type": "electric_scooter", "lon": -77.02500033333334, "bike_id": "ed33cf316b74f8315a5801acd94faaf1", "rental_uris": {"android": "https://dc.lft.to/lastmile_qr_scan", "ios": "https://dc.lft.to/lastmile_qr_scan"}, "name": "ed33cf316b74f8315a5801acd94faaf1", "is_reserved": 0}, {"is_disabled": 0, "fusion_lon": 0.0, "fusion_lat": 0.0, "lat": 38.905341166666666, "type": "electric_scooter", "lon": -77.047132, "bike_id": "f79ac5c1420a074e12d7f014be7900e6", "rental_uris": {"android": "https://dc.lft.to/lastmile_qr_scan", "ios": "https://dc.lft.to/lastmile_qr_scan"}, "name": "f79ac5c1420a074e12d7f014be7900e6", "is_reserved": 0}, {"is_disabled": 0, "fusion_lon": 0.0, "fusion_lat": 0.0, "lat": 38.91622983333333, "type": "electric_scooter", "lon": -77.03187066666666, "bike_id": "4991738be3ab10f6e087b45346a6bf53", "rental_uris": {"android": "https://dc.lft.to/lastmile_qr_scan", "ios": "https://dc.lft.to/lastmile_qr_scan"}, "name": "4991738be3ab10f6e087b45346a6bf53", "is_reserved": 0}, {"is_disabled": 0, "fusion_lon": 0.0, "fusion_lat": 0.0, "lat": 38.90735, "type": "electric_scooter", "lon": -77.02879483333334, "bike_id": "11d693419b5e5810f7a2b94b85ede245", "rental_uris": {"android": "https://dc.lft.to/lastmile_qr_scan", "ios": "https://dc.lft.to/lastmile_qr_scan"}, "name": "11d693419b5e5810f7a2b94b85ede245", "is_reserved": 0}, {"is_disabled": 0, "fusion_lon": 0.0, "fusion_lat": 0.0, "lat": 38.91092016666666, "type": "electric_bike", "lon": -77.087716, "bike_id": "f983523d0f4d759c363894952cd15d8f", "rental_uris": {"android": "https://dc.lft.to/lastmile_qr_scan", "ios": "https://dc.lft.to/lastmile_qr_scan"}, "name": "f983523d0f4d759c363894952cd15d8f", "is_reserved": 0}, {"is_disabled": 0, "fusion_lon": 0.0, "fusion_lat": 0.0, "lat": 38.945214166666666, "type": "electric_scooter", "lon": -77.029873, "bike_id": "81436368959042295d3acadb867ba801", "rental_uris": {"android": "https://dc.lft.to/lastmile_qr_scan", "ios": "https://dc.lft.to/lastmile_qr_scan"}, "name": "81436368959042295d3acadb867ba801", "is_reserved": 0}, {"is_disabled": 0, "fusion_lon": 0.0, "fusion_lat": 0.0, "lat": 38.92566333333333, "type": "electric_scooter", "lon": -77.0526805, "bike_id": "89889b9c65796c288348441974625e3f", "rental_uris": {"android": "https://dc.lft.to/lastmile_qr_scan", "ios": "https://dc.lft.to/lastmile_qr_scan"}, "name": "89889b9c65796c288348441974625e3f", "is_reserved": 0}, {"is_disabled": 0, "fusion_lon": 0.0, "fusion_lat": 0.0, "lat": 38.90249583333333, "type": "electric_scooter", "lon": -77.054215, "bike_id": "349a5fa01b1b8e9fe622ef56421b9fa3", "rental_uris": {"android": "https://dc.lft.to/lastmile_qr_scan", "ios": "https://dc.lft.to/lastmile_qr_scan"}, "name": "349a5fa01b1b8e9fe622ef56421b9fa3", "is_reserved": 0}, {"is_disabled": 0, "fusion_lon": 0.0, "fusion_lat": 0.0, "lat": 38.918069833333334, "type": "electric_scooter", "lon": -77.034344, "bike_id": "1c3096d803b0e79a0bc18f8560fb8875", "rental_uris": {"android": "https://dc.lft.to/lastmile_qr_scan", "ios": "https://dc.lft.to/lastmile_qr_scan"}, "name": "1c3096d803b0e79a0bc18f8560fb8875", "is_reserved": 0}, {"is_disabled": 0, "fusion_lon": 0.0, "fusion_lat": 0.0, "lat": 38.88376183333333, "type": "electric_scooter", "lon": -76.92375033333333, "bike_id": "5508c327953dd6407938b3ef38b4986c", "rental_uris": {"android": "https://dc.lft.to/lastmile_qr_scan", "ios": "https://dc.lft.to/lastmile_qr_scan"}, "name": "5508c327953dd6407938b3ef38b4986c", "is_reserved": 0}, {"is_disabled": 0, "fusion_lon": 0.0, "fusion_lat": 0.0, "lat": 38.91635683333333, "type": "electric_scooter", "lon": -77.04097483333334, "bike_id": "d5df0c5ac141c50f86c13af6c852e92f", "rental_uris": {"android": "https://dc.lft.to/lastmile_qr_scan", "ios": "https://dc.lft.to/lastmile_qr_scan"}, "name": "d5df0c5ac141c50f86c13af6c852e92f", "is_reserved": 0}, {"is_disabled": 0, "fusion_lon": 0.0, "fusion_lat": 0.0, "lat": 38.920810333333336, "type": "electric_bike", "lon": -77.003393, "bike_id": "4a634593d25f7b38cb2f4e7c871b92c0", "rental_uris": {"android": "https://dc.lft.to/lastmile_qr_scan", "ios": "https://dc.lft.to/lastmile_qr_scan"}, "name": "4a634593d25f7b38cb2f4e7c871b92c0", "is_reserved": 0}, {"is_disabled": 0, "fusion_lon": 0.0, "fusion_lat": 0.0, "lat": 38.827274333333335, "type": "electric_bike", "lon": -77.00861933333333, "bike_id": "04859d9abe01d96bd39970702201a985", "rental_uris": {"android": "https://dc.lft.to/lastmile_qr_scan", "ios": "https://dc.lft.to/lastmile_qr_scan"}, "name": "04859d9abe01d96bd39970702201a985", "is_reserved": 0}, {"is_disabled": 0, "fusion_lon": 0.0, "fusion_lat": 0.0, "lat": 38.90678966666667, "type": "electric_scooter", "lon": -77.02718316666666, "bike_id": "1a2a1aa2eedc9ef121ae82e86f118c03", "rental_uris": {"android": "https://dc.lft.to/lastmile_qr_scan", "ios": "https://dc.lft.to/lastmile_qr_scan"}, "name": "1a2a1aa2eedc9ef121ae82e86f118c03", "is_reserved": 0}, {"is_disabled": 0, "fusion_lon": 0.0, "fusion_lat": 0.0, "lat": 38.935328, "type": "electric_scooter", "lon": -77.02388716666667, "bike_id": "4f45ea111e09473feb341704972985d9", "rental_uris": {"android": "https://dc.lft.to/lastmile_qr_scan", "ios": "https://dc.lft.to/lastmile_qr_scan"}, "name": "4f45ea111e09473feb341704972985d9", "is_reserved": 0}, {"is_disabled": 0, "fusion_lon": 0.0, "fusion_lat": 0.0, "lat": 38.89366733333333, "type": "electric_scooter", "lon": -77.02266016666667, "bike_id": "40fcaa10ff6c1e5463f6bb85dce523c6", "rental_uris": {"android": "https://dc.lft.to/lastmile_qr_scan", "ios": "https://dc.lft.to/lastmile_qr_scan"}, "name": "40fcaa10ff6c1e5463f6bb85dce523c6", "is_reserved": 0}, {"is_disabled": 0, "fusion_lon": 0.0, "fusion_lat": 0.0, "lat": 38.907423, "type": "electric_scooter", "lon": -77.03079433333333, "bike_id": "7cbba55dc7ed76114dae4571565e6c09", "rental_uris": {"android": "https://dc.lft.to/lastmile_qr_scan", "ios": "https://dc.lft.to/lastmile_qr_scan"}, "name": "7cbba55dc7ed76114dae4571565e6c09", "is_reserved": 0}, {"is_disabled": 0, "fusion_lon": 0.0, "fusion_lat": 0.0, "lat": 38.905609, "type": "electric_scooter", "lon": -77.03012683333333, "bike_id": "225c46f587b4a3e1d7d16a9def976a5e", "rental_uris": {"android": "https://dc.lft.to/lastmile_qr_scan", "ios": "https://dc.lft.to/lastmile_qr_scan"}, "name": "225c46f587b4a3e1d7d16a9def976a5e", "is_reserved": 0}, {"is_disabled": 0, "fusion_lon": 0.0, "fusion_lat": 0.0, "lat": 38.888613, "type": "electric_scooter", "lon": -76.97736666666667, "bike_id": "71090c686d1f002783f43136e656bddc", "rental_uris": {"android": "https://dc.lft.to/lastmile_qr_scan", "ios": "https://dc.lft.to/lastmile_qr_scan"}, "name": "71090c686d1f002783f43136e656bddc", "is_reserved": 0}, {"is_disabled": 0, "fusion_lon": 0.0, "fusion_lat": 0.0, "lat": 38.931264, "type": "electric_scooter", "lon": -77.05706283333333, "bike_id": "2a87fe921abea8ed3bef828c30da74cf", "rental_uris": {"android": "https://dc.lft.to/lastmile_qr_scan", "ios": "https://dc.lft.to/lastmile_qr_scan"}, "name": "2a87fe921abea8ed3bef828c30da74cf", "is_reserved": 0}, {"is_disabled": 0, "fusion_lon": 0.0, "fusion_lat": 0.0, "lat": 38.921940166666666, "type": "electric_scooter", "lon": -77.02416683333334, "bike_id": "807765ead4d9773fc33df1567a4b8974", "rental_uris": {"android": "https://dc.lft.to/lastmile_qr_scan", "ios": "https://dc.lft.to/lastmile_qr_scan"}, "name": "807765ead4d9773fc33df1567a4b8974", "is_reserved": 0}, {"is_disabled": 0, "fusion_lon": 0.0, "fusion_lat": 0.0, "lat": 38.89642333333333, "type": "electric_scooter", "lon": -77.043262, "bike_id": "e533906e999ee04511233cd3507c0f76", "rental_uris": {"android": "https://dc.lft.to/lastmile_qr_scan", "ios": "https://dc.lft.to/lastmile_qr_scan"}, "name": "e533906e999ee04511233cd3507c0f76", "is_reserved": 0}, {"is_disabled": 0, "fusion_lon": 0.0, "fusion_lat": 0.0, "lat": 38.90151566666667, "type": "electric_scooter", "lon": -77.02939416666666, "bike_id": "04946a10d3febc681b6324c42b905df2", "rental_uris": {"android": "https://dc.lft.to/lastmile_qr_scan", "ios": "https://dc.lft.to/lastmile_qr_scan"}, "name": "04946a10d3febc681b6324c42b905df2", "is_reserved": 0}, {"is_disabled": 0, "fusion_lon": 0.0, "fusion_lat": 0.0, "lat": 38.90041466666667, "type": "electric_scooter", "lon": -76.922632, "bike_id": "d3435133d7588d9640bac7e5fb9ca928", "rental_uris": {"android": "https://dc.lft.to/lastmile_qr_scan", "ios": "https://dc.lft.to/lastmile_qr_scan"}, "name": "d3435133d7588d9640bac7e5fb9ca928", "is_reserved": 0}, {"is_disabled": 0, "fusion_lon": 0.0, "fusion_lat": 0.0, "lat": 38.8937065, "type": "electric_scooter", "lon": -76.94996716666667, "bike_id": "28f886dbe7457f85fc4921fd72f5f035", "rental_uris": {"android": "https://dc.lft.to/lastmile_qr_scan", "ios": "https://dc.lft.to/lastmile_qr_scan"}, "name": "28f886dbe7457f85fc4921fd72f5f035", "is_reserved": 0}, {"is_disabled": 0, "fusion_lon": 0.0, "fusion_lat": 0.0, "lat": 38.93679433333333, "type": "electric_scooter", "lon": -77.02451533333333, "bike_id": "0e8b3e42c33849a9c55e8b6744cd8c87", "rental_uris": {"android": "https://dc.lft.to/lastmile_qr_scan", "ios": "https://dc.lft.to/lastmile_qr_scan"}, "name": "0e8b3e42c33849a9c55e8b6744cd8c87", "is_reserved": 0}, {"is_disabled": 0, "fusion_lon": 0.0, "fusion_lat": 0.0, "lat": 38.92702583333333, "type": "electric_scooter", "lon": -77.02325533333334, "bike_id": "9b8aedaf064b2d0c4ad34b901fabc6b6", "rental_uris": {"android": "https://dc.lft.to/lastmile_qr_scan", "ios": "https://dc.lft.to/lastmile_qr_scan"}, "name": "9b8aedaf064b2d0c4ad34b901fabc6b6", "is_reserved": 0}, {"is_disabled": 0, "fusion_lon": 0.0, "fusion_lat": 0.0, "lat": 38.92731933333334, "type": "electric_scooter", "lon": -77.02242966666667, "bike_id": "7413423374fcc2126ff5dd0ef3520791", "rental_uris": {"android": "https://dc.lft.to/lastmile_qr_scan", "ios": "https://dc.lft.to/lastmile_qr_scan"}, "name": "7413423374fcc2126ff5dd0ef3520791", "is_reserved": 0}, {"is_disabled": 0, "fusion_lon": 0.0, "fusion_lat": 0.0, "lat": 38.897289, "type": "electric_scooter", "lon": -77.04939816666666, "bike_id": "dd9b771c9af596821cfc5a51df414086", "rental_uris": {"android": "https://dc.lft.to/lastmile_qr_scan", "ios": "https://dc.lft.to/lastmile_qr_scan"}, "name": "dd9b771c9af596821cfc5a51df414086", "is_reserved": 0}, {"is_disabled": 0, "fusion_lon": 0.0, "fusion_lat": 0.0, "lat": 38.861293833333335, "type": "electric_scooter", "lon": -76.98527766666666, "bike_id": "626fbf1582409fff867581d0b75ef45d", "rental_uris": {"android": "https://dc.lft.to/lastmile_qr_scan", "ios": "https://dc.lft.to/lastmile_qr_scan"}, "name": "626fbf1582409fff867581d0b75ef45d", "is_reserved": 0}, {"is_disabled": 0, "fusion_lon": 0.0, "fusion_lat": 0.0, "lat": 38.936206166666665, "type": "electric_scooter", "lon": -77.059076, "bike_id": "292a23ea0b8c55532eee8ea71bba05aa", "rental_uris": {"android": "https://dc.lft.to/lastmile_qr_scan", "ios": "https://dc.lft.to/lastmile_qr_scan"}, "name": "292a23ea0b8c55532eee8ea71bba05aa", "is_reserved": 0}, {"is_disabled": 0, "fusion_lon": 0.0, "fusion_lat": 0.0, "lat": 38.890424333333335, "type": "electric_scooter", "lon": -76.95246966666667, "bike_id": "518c2c7cf1161e0e561013429ce30259", "rental_uris": {"android": "https://dc.lft.to/lastmile_qr_scan", "ios": "https://dc.lft.to/lastmile_qr_scan"}, "name": "518c2c7cf1161e0e561013429ce30259", "is_reserved": 0}, {"is_disabled": 0, "fusion_lon": 0.0, "fusion_lat": 0.0, "lat": 38.89672816666667, "type": "electric_scooter", "lon": -76.99793916666667, "bike_id": "6c501bb43cd9639b573d82ebe385998d", "rental_uris": {"android": "https://dc.lft.to/lastmile_qr_scan", "ios": "https://dc.lft.to/lastmile_qr_scan"}, "name": "6c501bb43cd9639b573d82ebe385998d", "is_reserved": 0}, {"is_disabled": 0, "fusion_lon": 0.0, "fusion_lat": 0.0, "lat": 38.92834583333333, "type": "electric_scooter", "lon": -77.01409766666667, "bike_id": "491f67efbd3bcb662ea267b188db2f73", "rental_uris": {"android": "https://dc.lft.to/lastmile_qr_scan", "ios": "https://dc.lft.to/lastmile_qr_scan"}, "name": "491f67efbd3bcb662ea267b188db2f73", "is_reserved": 0}, {"is_disabled": 0, "fusion_lon": 0.0, "fusion_lat": 0.0, "lat": 38.9317955, "type": "electric_scooter", "lon": -77.02350933333334, "bike_id": "5d204db31b9520615f67e6bedc2c1deb", "rental_uris": {"android": "https://dc.lft.to/lastmile_qr_scan", "ios": "https://dc.lft.to/lastmile_qr_scan"}, "name": "5d204db31b9520615f67e6bedc2c1deb", "is_reserved": 0}, {"is_disabled": 0, "fusion_lon": 0.0, "fusion_lat": 0.0, "lat": 38.934719333333334, "type": "electric_scooter", "lon": -77.0721485, "bike_id": "50027ffbb660e264a3fced74be147faa", "rental_uris": {"android": "https://dc.lft.to/lastmile_qr_scan", "ios": "https://dc.lft.to/lastmile_qr_scan"}, "name": "50027ffbb660e264a3fced74be147faa", "is_reserved": 0}, {"is_disabled": 0, "fusion_lon": 0.0, "fusion_lat": 0.0, "lat": 38.94203566666667, "type": "electric_scooter", "lon": -77.0259315, "bike_id": "951d7f51629d67380017c1876eeeb00f", "rental_uris": {"android": "https://dc.lft.to/lastmile_qr_scan", "ios": "https://dc.lft.to/lastmile_qr_scan"}, "name": "951d7f51629d67380017c1876eeeb00f", "is_reserved": 0}, {"is_disabled": 0, "fusion_lon": 0.0, "fusion_lat": 0.0, "lat": 38.93529366666667, "type": "electric_scooter", "lon": -77.05442816666667, "bike_id": "249c22ac68091584d5707fd2cfdef647", "rental_uris": {"android": "https://dc.lft.to/lastmile_qr_scan", "ios": "https://dc.lft.to/lastmile_qr_scan"}, "name": "249c22ac68091584d5707fd2cfdef647", "is_reserved": 0}, {"is_disabled": 0, "fusion_lon": 0.0, "fusion_lat": 0.0, "lat": 38.858057333333335, "type": "electric_scooter", "lon": -76.98655516666666, "bike_id": "8cb72561f6dd249e8a0e8baccc6f90b9", "rental_uris": {"android": "https://dc.lft.to/lastmile_qr_scan", "ios": "https://dc.lft.to/lastmile_qr_scan"}, "name": "8cb72561f6dd249e8a0e8baccc6f90b9", "is_reserved": 0}, {"is_disabled": 0, "fusion_lon": 0.0, "fusion_lat": 0.0, "lat": 38.92610333333333, "type": "electric_scooter", "lon": -77.05707516666666, "bike_id": "799d97031b43eb78572cc7f01fa054dd", "rental_uris": {"android": "https://dc.lft.to/lastmile_qr_scan", "ios": "https://dc.lft.to/lastmile_qr_scan"}, "name": "799d97031b43eb78572cc7f01fa054dd", "is_reserved": 0}, {"is_disabled": 0, "fusion_lon": 0.0, "fusion_lat": 0.0, "lat": 38.96099, "type": "electric_scooter", "lon": -77.0689945, "bike_id": "716b6dfc7bd35ce3c750ee24f946b70f", "rental_uris": {"android": "https://dc.lft.to/lastmile_qr_scan", "ios": "https://dc.lft.to/lastmile_qr_scan"}, "name": "716b6dfc7bd35ce3c750ee24f946b70f", "is_reserved": 0}, {"is_disabled": 0, "fusion_lon": 0.0, "fusion_lat": 0.0, "lat": 38.9086395, "type": "electric_scooter", "lon": -77.03535683333334, "bike_id": "15fa7c452a173a8b6d0bbf63e622d877", "rental_uris": {"android": "https://dc.lft.to/lastmile_qr_scan", "ios": "https://dc.lft.to/lastmile_qr_scan"}, "name": "15fa7c452a173a8b6d0bbf63e622d877", "is_reserved": 0}, {"is_disabled": 0, "fusion_lon": 0.0, "fusion_lat": 0.0, "lat": 38.91185383333333, "type": "electric_scooter", "lon": -77.035026, "bike_id": "514f0b0c3f43ef576f05da40b6fe2be6", "rental_uris": {"android": "https://dc.lft.to/lastmile_qr_scan", "ios": "https://dc.lft.to/lastmile_qr_scan"}, "name": "514f0b0c3f43ef576f05da40b6fe2be6", "is_reserved": 0}, {"is_disabled": 0, "fusion_lon": 0.0, "fusion_lat": 0.0, "lat": 38.934007333333334, "type": "electric_scooter", "lon": -77.03258266666667, "bike_id": "81ce6abef32594e8e8c5b80968738426", "rental_uris": {"android": "https://dc.lft.to/lastmile_qr_scan", "ios": "https://dc.lft.to/lastmile_qr_scan"}, "name": "81ce6abef32594e8e8c5b80968738426", "is_reserved": 0}, {"is_disabled": 0, "fusion_lon": 0.0, "fusion_lat": 0.0, "lat": 38.911320833333335, "type": "electric_scooter", "lon": -77.04184633333334, "bike_id": "b691d92a0d0d1f8f5a7a069a1c5bd4c6", "rental_uris": {"android": "https://dc.lft.to/lastmile_qr_scan", "ios": "https://dc.lft.to/lastmile_qr_scan"}, "name": "b691d92a0d0d1f8f5a7a069a1c5bd4c6", "is_reserved": 0}, {"is_disabled": 0, "fusion_lon": 0.0, "fusion_lat": 0.0, "lat": 38.865225833333334, "type": "electric_scooter", "lon": -76.9896375, "bike_id": "b79647c8071bf10e3b0e201c4c41d85a", "rental_uris": {"android": "https://dc.lft.to/lastmile_qr_scan", "ios": "https://dc.lft.to/lastmile_qr_scan"}, "name": "b79647c8071bf10e3b0e201c4c41d85a", "is_reserved": 0}, {"is_disabled": 0, "fusion_lon": 0.0, "fusion_lat": 0.0, "lat": 38.9296955, "type": "electric_scooter", "lon": -77.0206765, "bike_id": "638e7079002a18f87e3ff4f2e4c4a848", "rental_uris": {"android": "https://dc.lft.to/lastmile_qr_scan", "ios": "https://dc.lft.to/lastmile_qr_scan"}, "name": "638e7079002a18f87e3ff4f2e4c4a848", "is_reserved": 0}, {"is_disabled": 0, "fusion_lon": 0.0, "fusion_lat": 0.0, "lat": 38.91609616666667, "type": "electric_scooter", "lon": -77.03116716666666, "bike_id": "f7f5228fcc69844e6be5b7124db6838d", "rental_uris": {"android": "https://dc.lft.to/lastmile_qr_scan", "ios": "https://dc.lft.to/lastmile_qr_scan"}, "name": "f7f5228fcc69844e6be5b7124db6838d", "is_reserved": 0}, {"is_disabled": 0, "fusion_lon": 0.0, "fusion_lat": 0.0, "lat": 38.9037805, "type": "electric_scooter", "lon": -77.01633683333333, "bike_id": "f0509fe0ba2071bfd713ee2a75fc14eb", "rental_uris": {"android": "https://dc.lft.to/lastmile_qr_scan", "ios": "https://dc.lft.to/lastmile_qr_scan"}, "name": "f0509fe0ba2071bfd713ee2a75fc14eb", "is_reserved": 0}, {"is_disabled": 0, "fusion_lon": 0.0, "fusion_lat": 0.0, "lat": 38.9347765, "type": "electric_scooter", "lon": -77.035769, "bike_id": "d236d4e8e3cf418ee71a20880566759e", "rental_uris": {"android": "https://dc.lft.to/lastmile_qr_scan", "ios": "https://dc.lft.to/lastmile_qr_scan"}, "name": "d236d4e8e3cf418ee71a20880566759e", "is_reserved": 0}, {"is_disabled": 0, "fusion_lon": 0.0, "fusion_lat": 0.0, "lat": 38.9013985, "type": "electric_scooter", "lon": -77.0226805, "bike_id": "f448c875089ec07f93a7ae63ed2c3b5b", "rental_uris": {"android": "https://dc.lft.to/lastmile_qr_scan", "ios": "https://dc.lft.to/lastmile_qr_scan"}, "name": "f448c875089ec07f93a7ae63ed2c3b5b", "is_reserved": 0}, {"is_disabled": 0, "fusion_lon": 0.0, "fusion_lat": 0.0, "lat": 38.90682616666667, "type": "electric_scooter", "lon": -76.9799845, "bike_id": "4b4176ba6443735411ff4450a5d7f9ac", "rental_uris": {"android": "https://dc.lft.to/lastmile_qr_scan", "ios": "https://dc.lft.to/lastmile_qr_scan"}, "name": "4b4176ba6443735411ff4450a5d7f9ac", "is_reserved": 0}, {"is_disabled": 0, "fusion_lon": 0.0, "fusion_lat": 0.0, "lat": 38.9103465, "type": "electric_scooter", "lon": -77.04010483333333, "bike_id": "471bbb9f3f274e0357b6ecbdfb662404", "rental_uris": {"android": "https://dc.lft.to/lastmile_qr_scan", "ios": "https://dc.lft.to/lastmile_qr_scan"}, "name": "471bbb9f3f274e0357b6ecbdfb662404", "is_reserved": 0}, {"is_disabled": 0, "fusion_lon": 0.0, "fusion_lat": 0.0, "lat": 38.896095, "type": "electric_scooter", "lon": -77.00929566666667, "bike_id": "f79ae17df404c365c8695748e9680604", "rental_uris": {"android": "https://dc.lft.to/lastmile_qr_scan", "ios": "https://dc.lft.to/lastmile_qr_scan"}, "name": "f79ae17df404c365c8695748e9680604", "is_reserved": 0}, {"is_disabled": 0, "fusion_lon": 0.0, "fusion_lat": 0.0, "lat": 38.85206433333333, "type": "electric_bike", "lon": -77.10123683333333, "bike_id": "0209e88c4babb4810ea7ed864a023916", "rental_uris": {"android": "https://dc.lft.to/lastmile_qr_scan", "ios": "https://dc.lft.to/lastmile_qr_scan"}, "name": "0209e88c4babb4810ea7ed864a023916", "is_reserved": 0}, {"is_disabled": 0, "fusion_lon": 0.0, "fusion_lat": 0.0, "lat": 38.90767916666667, "type": "electric_scooter", "lon": -77.0631425, "bike_id": "192eef9188b55be4f8db6a392cc9cdfc", "rental_uris": {"android": "https://dc.lft.to/lastmile_qr_scan", "ios": "https://dc.lft.to/lastmile_qr_scan"}, "name": "192eef9188b55be4f8db6a392cc9cdfc", "is_reserved": 0}, {"is_disabled": 0, "fusion_lon": 0.0, "fusion_lat": 0.0, "lat": 38.90507516666667, "type": "electric_bike", "lon": -76.9812785, "bike_id": "6d2177c960443a6777445d22d0d13c73", "rental_uris": {"android": "https://dc.lft.to/lastmile_qr_scan", "ios": "https://dc.lft.to/lastmile_qr_scan"}, "name": "6d2177c960443a6777445d22d0d13c73", "is_reserved": 0}, {"is_disabled": 0, "fusion_lon": 0.0, "fusion_lat": 0.0, "lat": 38.93276516666667, "type": "electric_scooter", "lon": -76.97420566666666, "bike_id": "2c82fe906ec301c7cfc2121030d337c5", "rental_uris": {"android": "https://dc.lft.to/lastmile_qr_scan", "ios": "https://dc.lft.to/lastmile_qr_scan"}, "name": "2c82fe906ec301c7cfc2121030d337c5", "is_reserved": 0}, {"is_disabled": 0, "fusion_lon": 0.0, "fusion_lat": 0.0, "lat": 38.895997, "type": "electric_scooter", "lon": -77.00917233333334, "bike_id": "1402d15b1fc65e2b9b0ebf40f93127b6", "rental_uris": {"android": "https://dc.lft.to/lastmile_qr_scan", "ios": "https://dc.lft.to/lastmile_qr_scan"}, "name": "1402d15b1fc65e2b9b0ebf40f93127b6", "is_reserved": 0}, {"is_disabled": 0, "fusion_lon": 0.0, "fusion_lat": 0.0, "lat": 38.92751616666666, "type": "electric_scooter", "lon": -77.005874, "bike_id": "da18b00bb2fd716b76c8727b9313c200", "rental_uris": {"android": "https://dc.lft.to/lastmile_qr_scan", "ios": "https://dc.lft.to/lastmile_qr_scan"}, "name": "da18b00bb2fd716b76c8727b9313c200", "is_reserved": 0}, {"is_disabled": 0, "fusion_lon": 0.0, "fusion_lat": 0.0, "lat": 38.9681725, "type": "electric_scooter", "lon": -77.00886616666666, "bike_id": "48ead348fcdf73e79b9dbfb03b7d37c0", "rental_uris": {"android": "https://dc.lft.to/lastmile_qr_scan", "ios": "https://dc.lft.to/lastmile_qr_scan"}, "name": "48ead348fcdf73e79b9dbfb03b7d37c0", "is_reserved": 0}, {"is_disabled": 0, "fusion_lon": 0.0, "fusion_lat": 0.0, "lat": 38.92753283333333, "type": "electric_bike", "lon": -76.99084883333333, "bike_id": "6446516b801b0ccdde3f6caf83469609", "rental_uris": {"android": "https://dc.lft.to/lastmile_qr_scan", "ios": "https://dc.lft.to/lastmile_qr_scan"}, "name": "6446516b801b0ccdde3f6caf83469609", "is_reserved": 0}, {"is_disabled": 0, "fusion_lon": 0.0, "fusion_lat": 0.0, "lat": 38.91656533333333, "type": "electric_scooter", "lon": -77.04649266666667, "bike_id": "51e455cf82add00c2b0843331d6699aa", "rental_uris": {"android": "https://dc.lft.to/lastmile_qr_scan", "ios": "https://dc.lft.to/lastmile_qr_scan"}, "name": "51e455cf82add00c2b0843331d6699aa", "is_reserved": 0}, {"is_disabled": 0, "fusion_lon": 0.0, "fusion_lat": 0.0, "lat": 38.929206666666666, "type": "electric_scooter", "lon": -77.02639866666667, "bike_id": "fd66de2e53017c35e404a37bc6c166a2", "rental_uris": {"android": "https://dc.lft.to/lastmile_qr_scan", "ios": "https://dc.lft.to/lastmile_qr_scan"}, "name": "fd66de2e53017c35e404a37bc6c166a2", "is_reserved": 0}, {"is_disabled": 0, "fusion_lon": 0.0, "fusion_lat": 0.0, "lat": 38.9016385, "type": "electric_scooter", "lon": -77.04974066666666, "bike_id": "e78f4ace77c113e12b26a53ebc28fc43", "rental_uris": {"android": "https://dc.lft.to/lastmile_qr_scan", "ios": "https://dc.lft.to/lastmile_qr_scan"}, "name": "e78f4ace77c113e12b26a53ebc28fc43", "is_reserved": 0}, {"is_disabled": 0, "fusion_lon": 0.0, "fusion_lat": 0.0, "lat": 38.939092, "type": "electric_scooter", "lon": -77.0779945, "bike_id": "abc0c60cbe25cffe790828363b24ecf0", "rental_uris": {"android": "https://dc.lft.to/lastmile_qr_scan", "ios": "https://dc.lft.to/lastmile_qr_scan"}, "name": "abc0c60cbe25cffe790828363b24ecf0", "is_reserved": 0}, {"is_disabled": 0, "fusion_lon": 0.0, "fusion_lat": 0.0, "lat": 38.88687183333333, "type": "electric_scooter", "lon": -77.01379233333333, "bike_id": "d6204460389c3c249f0391d391cbb0cc", "rental_uris": {"android": "https://dc.lft.to/lastmile_qr_scan", "ios": "https://dc.lft.to/lastmile_qr_scan"}, "name": "d6204460389c3c249f0391d391cbb0cc", "is_reserved": 0}, {"is_disabled": 0, "fusion_lon": 0.0, "fusion_lat": 0.0, "lat": 38.886722166666665, "type": "electric_scooter", "lon": -77.00360183333333, "bike_id": "3b1cd566b180e2e757f29e66ce690731", "rental_uris": {"android": "https://dc.lft.to/lastmile_qr_scan", "ios": "https://dc.lft.to/lastmile_qr_scan"}, "name": "3b1cd566b180e2e757f29e66ce690731", "is_reserved": 0}, {"is_disabled": 0, "fusion_lon": 0.0, "fusion_lat": 0.0, "lat": 38.92737533333333, "type": "electric_scooter", "lon": -77.02704816666666, "bike_id": "3ece28f11b011e633b86c921aedf9def", "rental_uris": {"android": "https://dc.lft.to/lastmile_qr_scan", "ios": "https://dc.lft.to/lastmile_qr_scan"}, "name": "3ece28f11b011e633b86c921aedf9def", "is_reserved": 0}, {"is_disabled": 0, "fusion_lon": 0.0, "fusion_lat": 0.0, "lat": 38.897306, "type": "electric_bike", "lon": -76.90536716666666, "bike_id": "ef91be0aba25b7ba0d288c20a7cc518a", "rental_uris": {"android": "https://dc.lft.to/lastmile_qr_scan", "ios": "https://dc.lft.to/lastmile_qr_scan"}, "name": "ef91be0aba25b7ba0d288c20a7cc518a", "is_reserved": 0}, {"is_disabled": 0, "fusion_lon": 0.0, "fusion_lat": 0.0, "lat": 39.05197866666666, "type": "electric_bike", "lon": -77.04402316666666, "bike_id": "8d16f3b8465f8a2f95f75d78a0f0b812", "rental_uris": {"android": "https://dc.lft.to/lastmile_qr_scan", "ios": "https://dc.lft.to/lastmile_qr_scan"}, "name": "8d16f3b8465f8a2f95f75d78a0f0b812", "is_reserved": 0}, {"is_disabled": 0, "fusion_lon": 0.0, "fusion_lat": 0.0, "lat": 38.903082833333336, "type": "electric_scooter", "lon": -76.979863, "bike_id": "7c76c31ec739a06ceaa7471d7a6ac904", "rental_uris": {"android": "https://dc.lft.to/lastmile_qr_scan", "ios": "https://dc.lft.to/lastmile_qr_scan"}, "name": "7c76c31ec739a06ceaa7471d7a6ac904", "is_reserved": 0}, {"is_disabled": 0, "fusion_lon": 0.0, "fusion_lat": 0.0, "lat": 38.9043235, "type": "electric_scooter", "lon": -77.031605, "bike_id": "a2f5f3260a7dafd780afb41f88bc58ba", "rental_uris": {"android": "https://dc.lft.to/lastmile_qr_scan", "ios": "https://dc.lft.to/lastmile_qr_scan"}, "name": "a2f5f3260a7dafd780afb41f88bc58ba", "is_reserved": 0}, {"is_disabled": 0, "fusion_lon": 0.0, "fusion_lat": 0.0, "lat": 38.85866433333333, "type": "electric_scooter", "lon": -76.99028383333334, "bike_id": "cfded38f08d35c61d93a74a0c84b7c27", "rental_uris": {"android": "https://dc.lft.to/lastmile_qr_scan", "ios": "https://dc.lft.to/lastmile_qr_scan"}, "name": "cfded38f08d35c61d93a74a0c84b7c27", "is_reserved": 0}, {"is_disabled": 0, "fusion_lon": 0.0, "fusion_lat": 0.0, "lat": 38.9070015, "type": "electric_scooter", "lon": -77.06318266666666, "bike_id": "80a413c17ebbd7eb7e463c4ee1b87321", "rental_uris": {"android": "https://dc.lft.to/lastmile_qr_scan", "ios": "https://dc.lft.to/lastmile_qr_scan"}, "name": "80a413c17ebbd7eb7e463c4ee1b87321", "is_reserved": 0}, {"is_disabled": 0, "fusion_lon": 0.0, "fusion_lat": 0.0, "lat": 38.95876283333333, "type": "electric_bike", "lon": -76.92479133333333, "bike_id": "856687a84507cc55dd8fb0e0ea182aed", "rental_uris": {"android": "https://dc.lft.to/lastmile_qr_scan", "ios": "https://dc.lft.to/lastmile_qr_scan"}, "name": "856687a84507cc55dd8fb0e0ea182aed", "is_reserved": 0}, {"is_disabled": 0, "fusion_lon": 0.0, "fusion_lat": 0.0, "lat": 38.897330333333336, "type": "electric_scooter", "lon": -77.0251015, "bike_id": "4652c9576cb774c0976c1304695d7a0a", "rental_uris": {"android": "https://dc.lft.to/lastmile_qr_scan", "ios": "https://dc.lft.to/lastmile_qr_scan"}, "name": "4652c9576cb774c0976c1304695d7a0a", "is_reserved": 0}, {"is_disabled": 0, "fusion_lon": 0.0, "fusion_lat": 0.0, "lat": 38.93097383333333, "type": "electric_scooter", "lon": -77.038168, "bike_id": "4953d3b1d9443607409f9ed77f95ca26", "rental_uris": {"android": "https://dc.lft.to/lastmile_qr_scan", "ios": "https://dc.lft.to/lastmile_qr_scan"}, "name": "4953d3b1d9443607409f9ed77f95ca26", "is_reserved": 0}, {"is_disabled": 0, "fusion_lon": 0.0, "fusion_lat": 0.0, "lat": 38.893714833333334, "type": "electric_scooter", "lon": -76.97816166666667, "bike_id": "515d41271f62122b9dbc09f12f76c3ae", "rental_uris": {"android": "https://dc.lft.to/lastmile_qr_scan", "ios": "https://dc.lft.to/lastmile_qr_scan"}, "name": "515d41271f62122b9dbc09f12f76c3ae", "is_reserved": 0}, {"is_disabled": 0, "fusion_lon": 0.0, "fusion_lat": 0.0, "lat": 38.89309883333333, "type": "electric_scooter", "lon": -77.02203366666667, "bike_id": "19c144b6eaf215855bbd81521951490d", "rental_uris": {"android": "https://dc.lft.to/lastmile_qr_scan", "ios": "https://dc.lft.to/lastmile_qr_scan"}, "name": "19c144b6eaf215855bbd81521951490d", "is_reserved": 0}, {"is_disabled": 0, "fusion_lon": 0.0, "fusion_lat": 0.0, "lat": 38.89736933333333, "type": "electric_scooter", "lon": -77.02504983333333, "bike_id": "6e286da3d72046f1934d4bcf3129e74e", "rental_uris": {"android": "https://dc.lft.to/lastmile_qr_scan", "ios": "https://dc.lft.to/lastmile_qr_scan"}, "name": "6e286da3d72046f1934d4bcf3129e74e", "is_reserved": 0}, {"is_disabled": 0, "fusion_lon": 0.0, "fusion_lat": 0.0, "lat": 38.885286666666666, "type": "electric_scooter", "lon": -76.997997, "bike_id": "874f8384bb0d59e9373f73067350711f", "rental_uris": {"android": "https://dc.lft.to/lastmile_qr_scan", "ios": "https://dc.lft.to/lastmile_qr_scan"}, "name": "874f8384bb0d59e9373f73067350711f", "is_reserved": 0}, {"is_disabled": 0, "fusion_lon": 0.0, "fusion_lat": 0.0, "lat": 38.91657883333333, "type": "electric_scooter", "lon": -77.04653216666667, "bike_id": "a17d36fe260506e821b42a025d2b5827", "rental_uris": {"android": "https://dc.lft.to/lastmile_qr_scan", "ios": "https://dc.lft.to/lastmile_qr_scan"}, "name": "a17d36fe260506e821b42a025d2b5827", "is_reserved": 0}, {"is_disabled": 0, "fusion_lon": 0.0, "fusion_lat": 0.0, "lat": 38.960354833333334, "type": "electric_bike", "lon": -76.92716433333334, "bike_id": "445cba5ad41785a1f547c712281c0db7", "rental_uris": {"android": "https://dc.lft.to/lastmile_qr_scan", "ios": "https://dc.lft.to/lastmile_qr_scan"}, "name": "445cba5ad41785a1f547c712281c0db7", "is_reserved": 0}, {"is_disabled": 0, "fusion_lon": 0.0, "fusion_lat": 0.0, "lat": 38.92015883333333, "type": "electric_scooter", "lon": -77.044187, "bike_id": "66a9cc119933049bced775294be895a8", "rental_uris": {"android": "https://dc.lft.to/lastmile_qr_scan", "ios": "https://dc.lft.to/lastmile_qr_scan"}, "name": "66a9cc119933049bced775294be895a8", "is_reserved": 0}, {"is_disabled": 0, "fusion_lon": 0.0, "fusion_lat": 0.0, "lat": 38.9430605, "type": "electric_scooter", "lon": -77.02350216666666, "bike_id": "1972402511c9463a0125c0ff21499ac7", "rental_uris": {"android": "https://dc.lft.to/lastmile_qr_scan", "ios": "https://dc.lft.to/lastmile_qr_scan"}, "name": "1972402511c9463a0125c0ff21499ac7", "is_reserved": 0}, {"is_disabled": 0, "fusion_lon": 0.0, "fusion_lat": 0.0, "lat": 38.93043133333333, "type": "electric_scooter", "lon": -77.00409416666666, "bike_id": "56dc587754bbf16c3221262efb0c4c71", "rental_uris": {"android": "https://dc.lft.to/lastmile_qr_scan", "ios": "https://dc.lft.to/lastmile_qr_scan"}, "name": "56dc587754bbf16c3221262efb0c4c71", "is_reserved": 0}, {"is_disabled": 0, "fusion_lon": 0.0, "fusion_lat": 0.0, "lat": 38.9925345, "type": "electric_bike", "lon": -77.04998, "bike_id": "61e45eab76b05130ef18691660868625", "rental_uris": {"android": "https://dc.lft.to/lastmile_qr_scan", "ios": "https://dc.lft.to/lastmile_qr_scan"}, "name": "61e45eab76b05130ef18691660868625", "is_reserved": 0}, {"is_disabled": 0, "fusion_lon": 0.0, "fusion_lat": 0.0, "lat": 38.9387915, "type": "electric_scooter", "lon": -77.03325216666667, "bike_id": "d8470d305514ac3621023b4c98d5155e", "rental_uris": {"android": "https://dc.lft.to/lastmile_qr_scan", "ios": "https://dc.lft.to/lastmile_qr_scan"}, "name": "d8470d305514ac3621023b4c98d5155e", "is_reserved": 0}, {"is_disabled": 0, "fusion_lon": 0.0, "fusion_lat": 0.0, "lat": 39.1151075, "type": "electric_bike", "lon": -77.19543683333333, "bike_id": "d3e72865ad95f624bfb8dfea1b2d83de", "rental_uris": {"android": "https://dc.lft.to/lastmile_qr_scan", "ios": "https://dc.lft.to/lastmile_qr_scan"}, "name": "d3e72865ad95f624bfb8dfea1b2d83de", "is_reserved": 0}, {"is_disabled": 0, "fusion_lon": 0.0, "fusion_lat": 0.0, "lat": 38.8381345, "type": "electric_scooter", "lon": -77.00433433333333, "bike_id": "5b74bcb04b4ad8387c9239aecec18416", "rental_uris": {"android": "https://dc.lft.to/lastmile_qr_scan", "ios": "https://dc.lft.to/lastmile_qr_scan"}, "name": "5b74bcb04b4ad8387c9239aecec18416", "is_reserved": 0}, {"is_disabled": 0, "fusion_lon": 0.0, "fusion_lat": 0.0, "lat": 38.990804, "type": "electric_bike", "lon": -77.001747, "bike_id": "d904c2f7a1c9c71b6b7c1c95dcdda701", "rental_uris": {"android": "https://dc.lft.to/lastmile_qr_scan", "ios": "https://dc.lft.to/lastmile_qr_scan"}, "name": "d904c2f7a1c9c71b6b7c1c95dcdda701", "is_reserved": 0}, {"is_disabled": 0, "fusion_lon": 0.0, "fusion_lat": 0.0, "lat": 38.85713833333333, "type": "electric_bike", "lon": -76.981134, "bike_id": "8b3cbfb9870c951c44fe1f2e23e87646", "rental_uris": {"android": "https://dc.lft.to/lastmile_qr_scan", "ios": "https://dc.lft.to/lastmile_qr_scan"}, "name": "8b3cbfb9870c951c44fe1f2e23e87646", "is_reserved": 0}, {"is_disabled": 0, "fusion_lon": 0.0, "fusion_lat": 0.0, "lat": 38.8311665, "type": "electric_bike", "lon": -77.04325566666667, "bike_id": "fd439a2e3b11717afd8a077dbb90eaca", "rental_uris": {"android": "https://dc.lft.to/lastmile_qr_scan", "ios": "https://dc.lft.to/lastmile_qr_scan"}, "name": "fd439a2e3b11717afd8a077dbb90eaca", "is_reserved": 0}, {"is_disabled": 0, "fusion_lon": 0.0, "fusion_lat": 0.0, "lat": 38.91411466666667, "type": "electric_scooter", "lon": -77.04290316666666, "bike_id": "d8955ea21ad8da22f5ec2e976dcd60d2", "rental_uris": {"android": "https://dc.lft.to/lastmile_qr_scan", "ios": "https://dc.lft.to/lastmile_qr_scan"}, "name": "d8955ea21ad8da22f5ec2e976dcd60d2", "is_reserved": 0}, {"is_disabled": 0, "fusion_lon": 0.0, "fusion_lat": 0.0, "lat": 38.889851166666666, "type": "electric_scooter", "lon": -77.00249716666667, "bike_id": "a4cd5864c408301f3d73a85af36eac14", "rental_uris": {"android": "https://dc.lft.to/lastmile_qr_scan", "ios": "https://dc.lft.to/lastmile_qr_scan"}, "name": "a4cd5864c408301f3d73a85af36eac14", "is_reserved": 0}, {"is_disabled": 0, "fusion_lon": 0.0, "fusion_lat": 0.0, "lat": 38.9059585, "type": "electric_scooter", "lon": -77.07066983333333, "bike_id": "4404025740349bdc6c4c8c917dfb8cf4", "rental_uris": {"android": "https://dc.lft.to/lastmile_qr_scan", "ios": "https://dc.lft.to/lastmile_qr_scan"}, "name": "4404025740349bdc6c4c8c917dfb8cf4", "is_reserved": 0}, {"is_disabled": 0, "fusion_lon": 0.0, "fusion_lat": 0.0, "lat": 38.9063285, "type": "electric_scooter", "lon": -76.98568116666667, "bike_id": "f0420432745042c9f3572dbaacbd783f", "rental_uris": {"android": "https://dc.lft.to/lastmile_qr_scan", "ios": "https://dc.lft.to/lastmile_qr_scan"}, "name": "f0420432745042c9f3572dbaacbd783f", "is_reserved": 0}, {"is_disabled": 0, "fusion_lon": 0.0, "fusion_lat": 0.0, "lat": 38.923355, "type": "electric_scooter", "lon": -77.0352455, "bike_id": "ab8e7d08042e34a62a479a940ae6e664", "rental_uris": {"android": "https://dc.lft.to/lastmile_qr_scan", "ios": "https://dc.lft.to/lastmile_qr_scan"}, "name": "ab8e7d08042e34a62a479a940ae6e664", "is_reserved": 0}, {"is_disabled": 0, "fusion_lon": 0.0, "fusion_lat": 0.0, "lat": 38.9013805, "type": "electric_scooter", "lon": -76.98962216666666, "bike_id": "1f18b2c70ec9219ae84b29d26844e594", "rental_uris": {"android": "https://dc.lft.to/lastmile_qr_scan", "ios": "https://dc.lft.to/lastmile_qr_scan"}, "name": "1f18b2c70ec9219ae84b29d26844e594", "is_reserved": 0}, {"is_disabled": 0, "fusion_lon": 0.0, "fusion_lat": 0.0, "lat": 38.917119, "type": "electric_scooter", "lon": -77.09807316666667, "bike_id": "0be11b6c1d83cb84e2dde2692ac86cb2", "rental_uris": {"android": "https://dc.lft.to/lastmile_qr_scan", "ios": "https://dc.lft.to/lastmile_qr_scan"}, "name": "0be11b6c1d83cb84e2dde2692ac86cb2", "is_reserved": 0}, {"is_disabled": 0, "fusion_lon": 0.0, "fusion_lat": 0.0, "lat": 39.0268515, "type": "electric_bike", "lon": -77.12595483333334, "bike_id": "c821e53e5e1f9a3d1e1d145cfde8bba2", "rental_uris": {"android": "https://dc.lft.to/lastmile_qr_scan", "ios": "https://dc.lft.to/lastmile_qr_scan"}, "name": "c821e53e5e1f9a3d1e1d145cfde8bba2", "is_reserved": 0}, {"is_disabled": 0, "fusion_lon": 0.0, "fusion_lat": 0.0, "lat": 38.92157983333333, "type": "electric_scooter", "lon": -77.0338925, "bike_id": "511483a498d3aa7bea9b5b217bdef0b0", "rental_uris": {"android": "https://dc.lft.to/lastmile_qr_scan", "ios": "https://dc.lft.to/lastmile_qr_scan"}, "name": "511483a498d3aa7bea9b5b217bdef0b0", "is_reserved": 0}, {"is_disabled": 0, "fusion_lon": 0.0, "fusion_lat": 0.0, "lat": 38.92159316666667, "type": "electric_scooter", "lon": -77.03406283333334, "bike_id": "fb9ff49c6f018caf21b9935148aad76f", "rental_uris": {"android": "https://dc.lft.to/lastmile_qr_scan", "ios": "https://dc.lft.to/lastmile_qr_scan"}, "name": "fb9ff49c6f018caf21b9935148aad76f", "is_reserved": 0}, {"is_disabled": 0, "fusion_lon": 0.0, "fusion_lat": 0.0, "lat": 38.902687, "type": "electric_scooter", "lon": -77.053131, "bike_id": "6253a1f183261f69b703c2c74b650533", "rental_uris": {"android": "https://dc.lft.to/lastmile_qr_scan", "ios": "https://dc.lft.to/lastmile_qr_scan"}, "name": "6253a1f183261f69b703c2c74b650533", "is_reserved": 0}, {"is_disabled": 0, "fusion_lon": 0.0, "fusion_lat": 0.0, "lat": 38.884873, "type": "electric_scooter", "lon": -76.92996316666667, "bike_id": "2dba73572dd8435e85d306a959e33bd9", "rental_uris": {"android": "https://dc.lft.to/lastmile_qr_scan", "ios": "https://dc.lft.to/lastmile_qr_scan"}, "name": "2dba73572dd8435e85d306a959e33bd9", "is_reserved": 0}, {"is_disabled": 0, "fusion_lon": 0.0, "fusion_lat": 0.0, "lat": 38.911274166666665, "type": "electric_scooter", "lon": -77.05935466666666, "bike_id": "5eb90392d3e3821e70ae393df9b5d917", "rental_uris": {"android": "https://dc.lft.to/lastmile_qr_scan", "ios": "https://dc.lft.to/lastmile_qr_scan"}, "name": "5eb90392d3e3821e70ae393df9b5d917", "is_reserved": 0}, {"is_disabled": 0, "fusion_lon": 0.0, "fusion_lat": 0.0, "lat": 38.87291333333334, "type": "electric_scooter", "lon": -77.00984933333334, "bike_id": "434f51399da30e1b53e75d77ab71de4e", "rental_uris": {"android": "https://dc.lft.to/lastmile_qr_scan", "ios": "https://dc.lft.to/lastmile_qr_scan"}, "name": "434f51399da30e1b53e75d77ab71de4e", "is_reserved": 0}, {"is_disabled": 0, "fusion_lon": 0.0, "fusion_lat": 0.0, "lat": 38.89671216666667, "type": "electric_scooter", "lon": -77.01178833333333, "bike_id": "36673b5595bb6254b192b2dcb5537138", "rental_uris": {"android": "https://dc.lft.to/lastmile_qr_scan", "ios": "https://dc.lft.to/lastmile_qr_scan"}, "name": "36673b5595bb6254b192b2dcb5537138", "is_reserved": 0}, {"is_disabled": 0, "fusion_lon": 0.0, "fusion_lat": 0.0, "lat": 38.90999333333333, "type": "electric_scooter", "lon": -77.03745516666666, "bike_id": "3a54463a2056bad517eea620e9c064ee", "rental_uris": {"android": "https://dc.lft.to/lastmile_qr_scan", "ios": "https://dc.lft.to/lastmile_qr_scan"}, "name": "3a54463a2056bad517eea620e9c064ee", "is_reserved": 0}, {"is_disabled": 0, "fusion_lon": 0.0, "fusion_lat": 0.0, "lat": 38.90401583333333, "type": "electric_scooter", "lon": -77.01749466666666, "bike_id": "435ec44c21281b0ef4c7f2eb41ba0790", "rental_uris": {"android": "https://dc.lft.to/lastmile_qr_scan", "ios": "https://dc.lft.to/lastmile_qr_scan"}, "name": "435ec44c21281b0ef4c7f2eb41ba0790", "is_reserved": 0}, {"is_disabled": 0, "fusion_lon": 0.0, "fusion_lat": 0.0, "lat": 38.852058666666665, "type": "electric_bike", "lon": -77.1012565, "bike_id": "3ec6e2378582cbb84004f7e5ffad5e26", "rental_uris": {"android": "https://dc.lft.to/lastmile_qr_scan", "ios": "https://dc.lft.to/lastmile_qr_scan"}, "name": "3ec6e2378582cbb84004f7e5ffad5e26", "is_reserved": 0}, {"is_disabled": 0, "fusion_lon": 0.0, "fusion_lat": 0.0, "lat": 38.90865333333333, "type": "electric_scooter", "lon": -77.0355195, "bike_id": "933ba1d1c182fb222e3265747b529d92", "rental_uris": {"android": "https://dc.lft.to/lastmile_qr_scan", "ios": "https://dc.lft.to/lastmile_qr_scan"}, "name": "933ba1d1c182fb222e3265747b529d92", "is_reserved": 0}, {"is_disabled": 0, "fusion_lon": 0.0, "fusion_lat": 0.0, "lat": 38.8761645, "type": "electric_scooter", "lon": -76.96535066666667, "bike_id": "4b1b316721f6f8f7faedf422171aa799", "rental_uris": {"android": "https://dc.lft.to/lastmile_qr_scan", "ios": "https://dc.lft.to/lastmile_qr_scan"}, "name": "4b1b316721f6f8f7faedf422171aa799", "is_reserved": 0}, {"is_disabled": 0, "fusion_lon": 0.0, "fusion_lat": 0.0, "lat": 38.92004716666667, "type": "electric_scooter", "lon": -76.98493283333333, "bike_id": "8a22cda69d8af905ed7ff1b5dba6d805", "rental_uris": {"android": "https://dc.lft.to/lastmile_qr_scan", "ios": "https://dc.lft.to/lastmile_qr_scan"}, "name": "8a22cda69d8af905ed7ff1b5dba6d805", "is_reserved": 0}, {"is_disabled": 0, "fusion_lon": 0.0, "fusion_lat": 0.0, "lat": 38.919075166666666, "type": "electric_scooter", "lon": -77.0480185, "bike_id": "e04d2865e0b96181a07c4bd4643b0846", "rental_uris": {"android": "https://dc.lft.to/lastmile_qr_scan", "ios": "https://dc.lft.to/lastmile_qr_scan"}, "name": "e04d2865e0b96181a07c4bd4643b0846", "is_reserved": 0}, {"is_disabled": 0, "fusion_lon": 0.0, "fusion_lat": 0.0, "lat": 38.8874425, "type": "electric_scooter", "lon": -77.014307, "bike_id": "16c2fc40156cc1f172b3836e2dbdb39a", "rental_uris": {"android": "https://dc.lft.to/lastmile_qr_scan", "ios": "https://dc.lft.to/lastmile_qr_scan"}, "name": "16c2fc40156cc1f172b3836e2dbdb39a", "is_reserved": 0}, {"is_disabled": 0, "fusion_lon": 0.0, "fusion_lat": 0.0, "lat": 38.884292333333335, "type": "electric_scooter", "lon": -77.0296655, "bike_id": "77553f7b926bcbde19d91b182e820e8f", "rental_uris": {"android": "https://dc.lft.to/lastmile_qr_scan", "ios": "https://dc.lft.to/lastmile_qr_scan"}, "name": "77553f7b926bcbde19d91b182e820e8f", "is_reserved": 0}, {"is_disabled": 0, "fusion_lon": 0.0, "fusion_lat": 0.0, "lat": 38.89222783333334, "type": "electric_scooter", "lon": -77.0334035, "bike_id": "16c0395e333fc0c3aef0a62f7b085e3a", "rental_uris": {"android": "https://dc.lft.to/lastmile_qr_scan", "ios": "https://dc.lft.to/lastmile_qr_scan"}, "name": "16c0395e333fc0c3aef0a62f7b085e3a", "is_reserved": 0}, {"is_disabled": 0, "fusion_lon": 0.0, "fusion_lat": 0.0, "lat": 38.905495333333334, "type": "electric_scooter", "lon": -76.981405, "bike_id": "80ea7b8500efbeb7d6a416ce995cdc7f", "rental_uris": {"android": "https://dc.lft.to/lastmile_qr_scan", "ios": "https://dc.lft.to/lastmile_qr_scan"}, "name": "80ea7b8500efbeb7d6a416ce995cdc7f", "is_reserved": 0}, {"is_disabled": 0, "fusion_lon": 0.0, "fusion_lat": 0.0, "lat": 38.94589116666667, "type": "electric_bike", "lon": -77.34406116666666, "bike_id": "12bd7a05bea7ca5dcccc293c1a91a153", "rental_uris": {"android": "https://dc.lft.to/lastmile_qr_scan", "ios": "https://dc.lft.to/lastmile_qr_scan"}, "name": "12bd7a05bea7ca5dcccc293c1a91a153", "is_reserved": 0}, {"is_disabled": 0, "fusion_lon": 0.0, "fusion_lat": 0.0, "lat": 39.054580333333334, "type": "electric_bike", "lon": -77.14326633333333, "bike_id": "f53c52e17348a4700451899ec1350cf4", "rental_uris": {"android": "https://dc.lft.to/lastmile_qr_scan", "ios": "https://dc.lft.to/lastmile_qr_scan"}, "name": "f53c52e17348a4700451899ec1350cf4", "is_reserved": 0}, {"is_disabled": 0, "fusion_lon": 0.0, "fusion_lat": 0.0, "lat": 38.893883, "type": "electric_scooter", "lon": -76.94991733333333, "bike_id": "867cc39165b433c379fbf91e457145bc", "rental_uris": {"android": "https://dc.lft.to/lastmile_qr_scan", "ios": "https://dc.lft.to/lastmile_qr_scan"}, "name": "867cc39165b433c379fbf91e457145bc", "is_reserved": 0}, {"is_disabled": 0, "fusion_lon": 0.0, "fusion_lat": 0.0, "lat": 38.92470133333333, "type": "electric_scooter", "lon": -77.03789333333333, "bike_id": "c718effa0220ce29971327b68ebb5f70", "rental_uris": {"android": "https://dc.lft.to/lastmile_qr_scan", "ios": "https://dc.lft.to/lastmile_qr_scan"}, "name": "c718effa0220ce29971327b68ebb5f70", "is_reserved": 0}, {"is_disabled": 0, "fusion_lon": 0.0, "fusion_lat": 0.0, "lat": 38.900254, "type": "electric_scooter", "lon": -77.04681216666667, "bike_id": "18cb8394610be5d71945b861f4b2eb53", "rental_uris": {"android": "https://dc.lft.to/lastmile_qr_scan", "ios": "https://dc.lft.to/lastmile_qr_scan"}, "name": "18cb8394610be5d71945b861f4b2eb53", "is_reserved": 0}, {"is_disabled": 0, "fusion_lon": 0.0, "fusion_lat": 0.0, "lat": 38.8884895, "type": "electric_bike", "lon": -76.97698966666667, "bike_id": "fc17054e9fda00dbcb933f0e21d9d3e7", "rental_uris": {"android": "https://dc.lft.to/lastmile_qr_scan", "ios": "https://dc.lft.to/lastmile_qr_scan"}, "name": "fc17054e9fda00dbcb933f0e21d9d3e7", "is_reserved": 0}, {"is_disabled": 0, "fusion_lon": 0.0, "fusion_lat": 0.0, "lat": 38.89620216666667, "type": "electric_scooter", "lon": -77.00924466666666, "bike_id": "303ca7e3ccd462fd5db8bba948ccf60c", "rental_uris": {"android": "https://dc.lft.to/lastmile_qr_scan", "ios": "https://dc.lft.to/lastmile_qr_scan"}, "name": "303ca7e3ccd462fd5db8bba948ccf60c", "is_reserved": 0}, {"is_disabled": 0, "fusion_lon": 0.0, "fusion_lat": 0.0, "lat": 38.9085055, "type": "electric_scooter", "lon": -77.055078, "bike_id": "d6ad9118f7f63a89f233256d9f9e68fe", "rental_uris": {"android": "https://dc.lft.to/lastmile_qr_scan", "ios": "https://dc.lft.to/lastmile_qr_scan"}, "name": "d6ad9118f7f63a89f233256d9f9e68fe", "is_reserved": 0}, {"is_disabled": 0, "fusion_lon": 0.0, "fusion_lat": 0.0, "lat": 38.9026075, "type": "electric_scooter", "lon": -77.0032605, "bike_id": "61d9389a185866c1cb3867c0333472b7", "rental_uris": {"android": "https://dc.lft.to/lastmile_qr_scan", "ios": "https://dc.lft.to/lastmile_qr_scan"}, "name": "61d9389a185866c1cb3867c0333472b7", "is_reserved": 0}, {"is_disabled": 0, "fusion_lon": 0.0, "fusion_lat": 0.0, "lat": 38.869564833333335, "type": "electric_scooter", "lon": -76.97938383333333, "bike_id": "7d36822100e90096b3f52e3f070198e3", "rental_uris": {"android": "https://dc.lft.to/lastmile_qr_scan", "ios": "https://dc.lft.to/lastmile_qr_scan"}, "name": "7d36822100e90096b3f52e3f070198e3", "is_reserved": 0}, {"is_disabled": 0, "fusion_lon": 0.0, "fusion_lat": 0.0, "lat": 38.895240666666666, "type": "electric_scooter", "lon": -77.00920783333333, "bike_id": "f0e458f5977cba334a9e917c06f04f23", "rental_uris": {"android": "https://dc.lft.to/lastmile_qr_scan", "ios": "https://dc.lft.to/lastmile_qr_scan"}, "name": "f0e458f5977cba334a9e917c06f04f23", "is_reserved": 0}, {"is_disabled": 0, "fusion_lon": 0.0, "fusion_lat": 0.0, "lat": 38.925504333333336, "type": "electric_scooter", "lon": -77.02561266666666, "bike_id": "9ddb98d910a0803879b80b5af5ee8777", "rental_uris": {"android": "https://dc.lft.to/lastmile_qr_scan", "ios": "https://dc.lft.to/lastmile_qr_scan"}, "name": "9ddb98d910a0803879b80b5af5ee8777", "is_reserved": 0}, {"is_disabled": 0, "fusion_lon": 0.0, "fusion_lat": 0.0, "lat": 38.90665033333333, "type": "electric_scooter", "lon": -77.02701683333333, "bike_id": "6edf3497e8d50de537fae337402d1fe9", "rental_uris": {"android": "https://dc.lft.to/lastmile_qr_scan", "ios": "https://dc.lft.to/lastmile_qr_scan"}, "name": "6edf3497e8d50de537fae337402d1fe9", "is_reserved": 0}, {"is_disabled": 0, "fusion_lon": 0.0, "fusion_lat": 0.0, "lat": 38.91807716666667, "type": "electric_scooter", "lon": -77.02396416666667, "bike_id": "a5d7efb105aff64ac2aa83d8fd60b08a", "rental_uris": {"android": "https://dc.lft.to/lastmile_qr_scan", "ios": "https://dc.lft.to/lastmile_qr_scan"}, "name": "a5d7efb105aff64ac2aa83d8fd60b08a", "is_reserved": 0}, {"is_disabled": 0, "fusion_lon": 0.0, "fusion_lat": 0.0, "lat": 38.9281875, "type": "electric_scooter", "lon": -77.02256166666666, "bike_id": "7ab38510b4af887dd50552af6afa9387", "rental_uris": {"android": "https://dc.lft.to/lastmile_qr_scan", "ios": "https://dc.lft.to/lastmile_qr_scan"}, "name": "7ab38510b4af887dd50552af6afa9387", "is_reserved": 0}, {"is_disabled": 0, "fusion_lon": 0.0, "fusion_lat": 0.0, "lat": 38.919156, "type": "electric_scooter", "lon": -77.03369433333333, "bike_id": "cbf0031c6a2a2aefd0e3602b22b2aee6", "rental_uris": {"android": "https://dc.lft.to/lastmile_qr_scan", "ios": "https://dc.lft.to/lastmile_qr_scan"}, "name": "cbf0031c6a2a2aefd0e3602b22b2aee6", "is_reserved": 0}, {"is_disabled": 0, "fusion_lon": 0.0, "fusion_lat": 0.0, "lat": 38.896127, "type": "electric_scooter", "lon": -76.99630116666667, "bike_id": "3bde2cbf4d20712315c80409a53d2e83", "rental_uris": {"android": "https://dc.lft.to/lastmile_qr_scan", "ios": "https://dc.lft.to/lastmile_qr_scan"}, "name": "3bde2cbf4d20712315c80409a53d2e83", "is_reserved": 0}, {"is_disabled": 0, "fusion_lon": 0.0, "fusion_lat": 0.0, "lat": 38.9187755, "type": "electric_scooter", "lon": -77.04425383333333, "bike_id": "c99ad42753d1aa08c68a79965d859bd8", "rental_uris": {"android": "https://dc.lft.to/lastmile_qr_scan", "ios": "https://dc.lft.to/lastmile_qr_scan"}, "name": "c99ad42753d1aa08c68a79965d859bd8", "is_reserved": 0}, {"is_disabled": 0, "fusion_lon": 0.0, "fusion_lat": 0.0, "lat": 38.9080425, "type": "electric_scooter", "lon": -77.03390266666666, "bike_id": "da007f46cc567330117177a4e0366ace", "rental_uris": {"android": "https://dc.lft.to/lastmile_qr_scan", "ios": "https://dc.lft.to/lastmile_qr_scan"}, "name": "da007f46cc567330117177a4e0366ace", "is_reserved": 0}, {"is_disabled": 0, "fusion_lon": 0.0, "fusion_lat": 0.0, "lat": 38.94785683333333, "type": "electric_scooter", "lon": -77.092728, "bike_id": "73cdf493df4acc5c143b8240f28d83bb", "rental_uris": {"android": "https://dc.lft.to/lastmile_qr_scan", "ios": "https://dc.lft.to/lastmile_qr_scan"}, "name": "73cdf493df4acc5c143b8240f28d83bb", "is_reserved": 0}, {"is_disabled": 0, "fusion_lon": 0.0, "fusion_lat": 0.0, "lat": 38.90004166666667, "type": "electric_scooter", "lon": -76.99273366666667, "bike_id": "275f426202372e094b172d8cbce4e96b", "rental_uris": {"android": "https://dc.lft.to/lastmile_qr_scan", "ios": "https://dc.lft.to/lastmile_qr_scan"}, "name": "275f426202372e094b172d8cbce4e96b", "is_reserved": 0}, {"is_disabled": 0, "fusion_lon": 0.0, "fusion_lat": 0.0, "lat": 38.90540433333334, "type": "electric_scooter", "lon": -77.04669966666667, "bike_id": "8cbc4faaa512244ce6c85888cd7c4748", "rental_uris": {"android": "https://dc.lft.to/lastmile_qr_scan", "ios": "https://dc.lft.to/lastmile_qr_scan"}, "name": "8cbc4faaa512244ce6c85888cd7c4748", "is_reserved": 0}, {"is_disabled": 0, "fusion_lon": 0.0, "fusion_lat": 0.0, "lat": 38.916712, "type": "electric_scooter", "lon": -77.02714816666666, "bike_id": "7a713782cb29816db2591f45b5a89a4c", "rental_uris": {"android": "https://dc.lft.to/lastmile_qr_scan", "ios": "https://dc.lft.to/lastmile_qr_scan"}, "name": "7a713782cb29816db2591f45b5a89a4c", "is_reserved": 0}, {"is_disabled": 0, "fusion_lon": 0.0, "fusion_lat": 0.0, "lat": 38.865830833333334, "type": "electric_scooter", "lon": -76.99032733333334, "bike_id": "456b295328679dd94e18f2631863bedd", "rental_uris": {"android": "https://dc.lft.to/lastmile_qr_scan", "ios": "https://dc.lft.to/lastmile_qr_scan"}, "name": "456b295328679dd94e18f2631863bedd", "is_reserved": 0}, {"is_disabled": 0, "fusion_lon": 0.0, "fusion_lat": 0.0, "lat": 38.901788333333336, "type": "electric_scooter", "lon": -76.92825466666666, "bike_id": "021f468201148a9f30e6de32e17d0694", "rental_uris": {"android": "https://dc.lft.to/lastmile_qr_scan", "ios": "https://dc.lft.to/lastmile_qr_scan"}, "name": "021f468201148a9f30e6de32e17d0694", "is_reserved": 0}, {"is_disabled": 0, "fusion_lon": 0.0, "fusion_lat": 0.0, "lat": 38.9187295, "type": "electric_bike", "lon": -76.961223, "bike_id": "8fbb0326e73d1faf9f9bdbea3a2c4887", "rental_uris": {"android": "https://dc.lft.to/lastmile_qr_scan", "ios": "https://dc.lft.to/lastmile_qr_scan"}, "name": "8fbb0326e73d1faf9f9bdbea3a2c4887", "is_reserved": 0}, {"is_disabled": 0, "fusion_lon": 0.0, "fusion_lat": 0.0, "lat": 38.9207915, "type": "electric_scooter", "lon": -77.018064, "bike_id": "2a02f1236c200a294d0d30421d023561", "rental_uris": {"android": "https://dc.lft.to/lastmile_qr_scan", "ios": "https://dc.lft.to/lastmile_qr_scan"}, "name": "2a02f1236c200a294d0d30421d023561", "is_reserved": 0}, {"is_disabled": 0, "fusion_lon": 0.0, "fusion_lat": 0.0, "lat": 38.9310755, "type": "electric_scooter", "lon": -77.03490116666667, "bike_id": "d97ffa6d6778eb7d62e2ab5c46e31fd7", "rental_uris": {"android": "https://dc.lft.to/lastmile_qr_scan", "ios": "https://dc.lft.to/lastmile_qr_scan"}, "name": "d97ffa6d6778eb7d62e2ab5c46e31fd7", "is_reserved": 0}, {"is_disabled": 0, "fusion_lon": 0.0, "fusion_lat": 0.0, "lat": 38.898330333333334, "type": "electric_scooter", "lon": -77.00733833333334, "bike_id": "ca6b15ee26f9d4b5e552da1c9e80b295", "rental_uris": {"android": "https://dc.lft.to/lastmile_qr_scan", "ios": "https://dc.lft.to/lastmile_qr_scan"}, "name": "ca6b15ee26f9d4b5e552da1c9e80b295", "is_reserved": 0}, {"is_disabled": 0, "fusion_lon": 0.0, "fusion_lat": 0.0, "lat": 38.9814045, "type": "electric_bike", "lon": -77.00771883333333, "bike_id": "74cf95f28b30b6ed53dbe51f11f72906", "rental_uris": {"android": "https://dc.lft.to/lastmile_qr_scan", "ios": "https://dc.lft.to/lastmile_qr_scan"}, "name": "74cf95f28b30b6ed53dbe51f11f72906", "is_reserved": 0}, {"is_disabled": 0, "fusion_lon": 0.0, "fusion_lat": 0.0, "lat": 38.903926, "type": "electric_scooter", "lon": -77.03442833333334, "bike_id": "d7aecf4b51d45f35c13d7b883f213267", "rental_uris": {"android": "https://dc.lft.to/lastmile_qr_scan", "ios": "https://dc.lft.to/lastmile_qr_scan"}, "name": "d7aecf4b51d45f35c13d7b883f213267", "is_reserved": 0}, {"is_disabled": 0, "fusion_lon": 0.0, "fusion_lat": 0.0, "lat": 38.848894666666666, "type": "electric_scooter", "lon": -77.0051025, "bike_id": "a5f5af5dad42a4ed192178bd2228c88c", "rental_uris": {"android": "https://dc.lft.to/lastmile_qr_scan", "ios": "https://dc.lft.to/lastmile_qr_scan"}, "name": "a5f5af5dad42a4ed192178bd2228c88c", "is_reserved": 0}, {"is_disabled": 0, "fusion_lon": 0.0, "fusion_lat": 0.0, "lat": 38.863549, "type": "electric_scooter", "lon": -76.9905825, "bike_id": "c55c21dd56645da739325d9a3bbcf7aa", "rental_uris": {"android": "https://dc.lft.to/lastmile_qr_scan", "ios": "https://dc.lft.to/lastmile_qr_scan"}, "name": "c55c21dd56645da739325d9a3bbcf7aa", "is_reserved": 0}, {"is_disabled": 0, "fusion_lon": 0.0, "fusion_lat": 0.0, "lat": 38.89911083333333, "type": "electric_scooter", "lon": -77.03903616666666, "bike_id": "abf6fbc207e4afd79cffe8315c63cc6b", "rental_uris": {"android": "https://dc.lft.to/lastmile_qr_scan", "ios": "https://dc.lft.to/lastmile_qr_scan"}, "name": "abf6fbc207e4afd79cffe8315c63cc6b", "is_reserved": 0}, {"is_disabled": 0, "fusion_lon": 0.0, "fusion_lat": 0.0, "lat": 38.931014, "type": "electric_scooter", "lon": -77.024717, "bike_id": "cc701c751d9f89de6384cfc92667bddb", "rental_uris": {"android": "https://dc.lft.to/lastmile_qr_scan", "ios": "https://dc.lft.to/lastmile_qr_scan"}, "name": "cc701c751d9f89de6384cfc92667bddb", "is_reserved": 0}, {"is_disabled": 0, "fusion_lon": 0.0, "fusion_lat": 0.0, "lat": 38.935471, "type": "electric_scooter", "lon": -77.05806466666667, "bike_id": "970e871f0c38712e9bd3f4a69d0d7976", "rental_uris": {"android": "https://dc.lft.to/lastmile_qr_scan", "ios": "https://dc.lft.to/lastmile_qr_scan"}, "name": "970e871f0c38712e9bd3f4a69d0d7976", "is_reserved": 0}, {"is_disabled": 0, "fusion_lon": 0.0, "fusion_lat": 0.0, "lat": 38.91418733333333, "type": "electric_scooter", "lon": -77.0358615, "bike_id": "14a4d3faccfde9d4e18f7f939e6805bc", "rental_uris": {"android": "https://dc.lft.to/lastmile_qr_scan", "ios": "https://dc.lft.to/lastmile_qr_scan"}, "name": "14a4d3faccfde9d4e18f7f939e6805bc", "is_reserved": 0}, {"is_disabled": 0, "fusion_lon": 0.0, "fusion_lat": 0.0, "lat": 38.905824833333334, "type": "electric_scooter", "lon": -77.05125966666667, "bike_id": "5618bc0493cf5de73f7c8bb89bb2ad0d", "rental_uris": {"android": "https://dc.lft.to/lastmile_qr_scan", "ios": "https://dc.lft.to/lastmile_qr_scan"}, "name": "5618bc0493cf5de73f7c8bb89bb2ad0d", "is_reserved": 0}, {"is_disabled": 0, "fusion_lon": 0.0, "fusion_lat": 0.0, "lat": 38.8777705, "type": "electric_scooter", "lon": -77.0143435, "bike_id": "3d0fb6ddfe30fd5fa6da8e9751d36019", "rental_uris": {"android": "https://dc.lft.to/lastmile_qr_scan", "ios": "https://dc.lft.to/lastmile_qr_scan"}, "name": "3d0fb6ddfe30fd5fa6da8e9751d36019", "is_reserved": 0}, {"is_disabled": 0, "fusion_lon": 0.0, "fusion_lat": 0.0, "lat": 38.92314483333333, "type": "electric_scooter", "lon": -77.04519783333333, "bike_id": "c3d2e260e70c02c58e70018d08189343", "rental_uris": {"android": "https://dc.lft.to/lastmile_qr_scan", "ios": "https://dc.lft.to/lastmile_qr_scan"}, "name": "c3d2e260e70c02c58e70018d08189343", "is_reserved": 0}, {"is_disabled": 0, "fusion_lon": 0.0, "fusion_lat": 0.0, "lat": 38.859198, "type": "electric_scooter", "lon": -76.9878185, "bike_id": "eec1abeea5d5a93237ec0236c3781774", "rental_uris": {"android": "https://dc.lft.to/lastmile_qr_scan", "ios": "https://dc.lft.to/lastmile_qr_scan"}, "name": "eec1abeea5d5a93237ec0236c3781774", "is_reserved": 0}, {"is_disabled": 0, "fusion_lon": 0.0, "fusion_lat": 0.0, "lat": 38.929785833333334, "type": "electric_scooter", "lon": -77.03469783333334, "bike_id": "c20cf40ad270cdbaac742f6c3a804879", "rental_uris": {"android": "https://dc.lft.to/lastmile_qr_scan", "ios": "https://dc.lft.to/lastmile_qr_scan"}, "name": "c20cf40ad270cdbaac742f6c3a804879", "is_reserved": 0}, {"is_disabled": 0, "fusion_lon": 0.0, "fusion_lat": 0.0, "lat": 38.92606266666667, "type": "electric_scooter", "lon": -77.02157483333333, "bike_id": "1098361d385ac84212396f82b2d3a55e", "rental_uris": {"android": "https://dc.lft.to/lastmile_qr_scan", "ios": "https://dc.lft.to/lastmile_qr_scan"}, "name": "1098361d385ac84212396f82b2d3a55e", "is_reserved": 0}, {"is_disabled": 0, "fusion_lon": 0.0, "fusion_lat": 0.0, "lat": 38.9103415, "type": "electric_scooter", "lon": -77.03833733333333, "bike_id": "e57c3c2a24629ae77d5c073bbac863bf", "rental_uris": {"android": "https://dc.lft.to/lastmile_qr_scan", "ios": "https://dc.lft.to/lastmile_qr_scan"}, "name": "e57c3c2a24629ae77d5c073bbac863bf", "is_reserved": 0}, {"is_disabled": 0, "fusion_lon": 0.0, "fusion_lat": 0.0, "lat": 38.9225325, "type": "electric_scooter", "lon": -77.0297715, "bike_id": "38e7a8be10b820348940974ec4e28b9a", "rental_uris": {"android": "https://dc.lft.to/lastmile_qr_scan", "ios": "https://dc.lft.to/lastmile_qr_scan"}, "name": "38e7a8be10b820348940974ec4e28b9a", "is_reserved": 0}, {"is_disabled": 0, "fusion_lon": 0.0, "fusion_lat": 0.0, "lat": 38.902514, "type": "electric_scooter", "lon": -77.01699166666667, "bike_id": "d2ef4acde3d13ed460e66d2218b03454", "rental_uris": {"android": "https://dc.lft.to/lastmile_qr_scan", "ios": "https://dc.lft.to/lastmile_qr_scan"}, "name": "d2ef4acde3d13ed460e66d2218b03454", "is_reserved": 0}, {"is_disabled": 0, "fusion_lon": 0.0, "fusion_lat": 0.0, "lat": 38.9280085, "type": "electric_scooter", "lon": -77.01412483333333, "bike_id": "bb0e9e758026dc36648d09b32ef844d9", "rental_uris": {"android": "https://dc.lft.to/lastmile_qr_scan", "ios": "https://dc.lft.to/lastmile_qr_scan"}, "name": "bb0e9e758026dc36648d09b32ef844d9", "is_reserved": 0}, {"is_disabled": 0, "fusion_lon": 0.0, "fusion_lat": 0.0, "lat": 38.88389816666667, "type": "electric_scooter", "lon": -77.01744166666667, "bike_id": "617ae85cfcb15f2827f2f7d6e9e699f4", "rental_uris": {"android": "https://dc.lft.to/lastmile_qr_scan", "ios": "https://dc.lft.to/lastmile_qr_scan"}, "name": "617ae85cfcb15f2827f2f7d6e9e699f4", "is_reserved": 0}, {"is_disabled": 0, "fusion_lon": 0.0, "fusion_lat": 0.0, "lat": 38.909548666666666, "type": "electric_scooter", "lon": -77.02308233333333, "bike_id": "671655d5a409d281f75871b10bbb115a", "rental_uris": {"android": "https://dc.lft.to/lastmile_qr_scan", "ios": "https://dc.lft.to/lastmile_qr_scan"}, "name": "671655d5a409d281f75871b10bbb115a", "is_reserved": 0}, {"is_disabled": 0, "fusion_lon": 0.0, "fusion_lat": 0.0, "lat": 38.949265, "type": "electric_scooter", "lon": -77.01944766666666, "bike_id": "b0cdc7df319b62c85d025eb177b85ddd", "rental_uris": {"android": "https://dc.lft.to/lastmile_qr_scan", "ios": "https://dc.lft.to/lastmile_qr_scan"}, "name": "b0cdc7df319b62c85d025eb177b85ddd", "is_reserved": 0}, {"is_disabled": 0, "fusion_lon": 0.0, "fusion_lat": 0.0, "lat": 38.908977166666666, "type": "electric_scooter", "lon": -76.99860516666666, "bike_id": "2a54444617e7a9bdf18c72847f28b2bd", "rental_uris": {"android": "https://dc.lft.to/lastmile_qr_scan", "ios": "https://dc.lft.to/lastmile_qr_scan"}, "name": "2a54444617e7a9bdf18c72847f28b2bd", "is_reserved": 0}, {"is_disabled": 0, "fusion_lon": 0.0, "fusion_lat": 0.0, "lat": 38.90702183333333, "type": "electric_scooter", "lon": -77.0269375, "bike_id": "849ff9c34fb4287a88ef25aee1d353fd", "rental_uris": {"android": "https://dc.lft.to/lastmile_qr_scan", "ios": "https://dc.lft.to/lastmile_qr_scan"}, "name": "849ff9c34fb4287a88ef25aee1d353fd", "is_reserved": 0}, {"is_disabled": 0, "fusion_lon": 0.0, "fusion_lat": 0.0, "lat": 38.98826316666667, "type": "electric_bike", "lon": -76.9874835, "bike_id": "8d382d534918c82073ddaa3cffaf1e15", "rental_uris": {"android": "https://dc.lft.to/lastmile_qr_scan", "ios": "https://dc.lft.to/lastmile_qr_scan"}, "name": "8d382d534918c82073ddaa3cffaf1e15", "is_reserved": 0}, {"is_disabled": 0, "fusion_lon": 0.0, "fusion_lat": 0.0, "lat": 38.92034233333333, "type": "electric_scooter", "lon": -77.02584966666667, "bike_id": "489ed518a908d20bf25a874c064bdc71", "rental_uris": {"android": "https://dc.lft.to/lastmile_qr_scan", "ios": "https://dc.lft.to/lastmile_qr_scan"}, "name": "489ed518a908d20bf25a874c064bdc71", "is_reserved": 0}, {"is_disabled": 0, "fusion_lon": 0.0, "fusion_lat": 0.0, "lat": 38.88512983333333, "type": "electric_scooter", "lon": -76.99847316666667, "bike_id": "dbed7fbfcb1f65214dc8030b10f63f41", "rental_uris": {"android": "https://dc.lft.to/lastmile_qr_scan", "ios": "https://dc.lft.to/lastmile_qr_scan"}, "name": "dbed7fbfcb1f65214dc8030b10f63f41", "is_reserved": 0}, {"is_disabled": 0, "fusion_lon": 0.0, "fusion_lat": 0.0, "lat": 38.879266333333334, "type": "electric_scooter", "lon": -77.01343533333333, "bike_id": "19bfdd301fd584bd4b8c56e2f75f129c", "rental_uris": {"android": "https://dc.lft.to/lastmile_qr_scan", "ios": "https://dc.lft.to/lastmile_qr_scan"}, "name": "19bfdd301fd584bd4b8c56e2f75f129c", "is_reserved": 0}, {"is_disabled": 0, "fusion_lon": 0.0, "fusion_lat": 0.0, "lat": 38.84292416666667, "type": "electric_scooter", "lon": -76.99947783333333, "bike_id": "792b5fe5234a262754870e68af9bf6f3", "rental_uris": {"android": "https://dc.lft.to/lastmile_qr_scan", "ios": "https://dc.lft.to/lastmile_qr_scan"}, "name": "792b5fe5234a262754870e68af9bf6f3", "is_reserved": 0}, {"is_disabled": 0, "fusion_lon": 0.0, "fusion_lat": 0.0, "lat": 38.966192166666666, "type": "electric_bike", "lon": -77.03432316666667, "bike_id": "eb2afe2e52567acf7a12d4e6b9224afa", "rental_uris": {"android": "https://dc.lft.to/lastmile_qr_scan", "ios": "https://dc.lft.to/lastmile_qr_scan"}, "name": "eb2afe2e52567acf7a12d4e6b9224afa", "is_reserved": 0}, {"is_disabled": 0, "fusion_lon": 0.0, "fusion_lat": 0.0, "lat": 38.897449, "type": "electric_scooter", "lon": -77.028316, "bike_id": "578eaca6ceb41d30812cfffb4b3a8fc6", "rental_uris": {"android": "https://dc.lft.to/lastmile_qr_scan", "ios": "https://dc.lft.to/lastmile_qr_scan"}, "name": "578eaca6ceb41d30812cfffb4b3a8fc6", "is_reserved": 0}, {"is_disabled": 0, "fusion_lon": 0.0, "fusion_lat": 0.0, "lat": 38.895196, "type": "electric_scooter", "lon": -77.01125083333334, "bike_id": "81bd6cc4219ab3a89950e2cb49960b6a", "rental_uris": {"android": "https://dc.lft.to/lastmile_qr_scan", "ios": "https://dc.lft.to/lastmile_qr_scan"}, "name": "81bd6cc4219ab3a89950e2cb49960b6a", "is_reserved": 0}, {"is_disabled": 0, "fusion_lon": 0.0, "fusion_lat": 0.0, "lat": 38.907956, "type": "electric_scooter", "lon": -77.0498525, "bike_id": "c5b09c80f0c3264b56266c101b375164", "rental_uris": {"android": "https://dc.lft.to/lastmile_qr_scan", "ios": "https://dc.lft.to/lastmile_qr_scan"}, "name": "c5b09c80f0c3264b56266c101b375164", "is_reserved": 0}, {"is_disabled": 0, "fusion_lon": 0.0, "fusion_lat": 0.0, "lat": 38.921584, "type": "electric_scooter", "lon": -77.03381533333334, "bike_id": "88d1902577cfb2fab48fbd39f3eae5fd", "rental_uris": {"android": "https://dc.lft.to/lastmile_qr_scan", "ios": "https://dc.lft.to/lastmile_qr_scan"}, "name": "88d1902577cfb2fab48fbd39f3eae5fd", "is_reserved": 0}, {"is_disabled": 0, "fusion_lon": 0.0, "fusion_lat": 0.0, "lat": 38.894699333333335, "type": "electric_scooter", "lon": -76.9949205, "bike_id": "b33a9c407b51852b58823003320308ae", "rental_uris": {"android": "https://dc.lft.to/lastmile_qr_scan", "ios": "https://dc.lft.to/lastmile_qr_scan"}, "name": "b33a9c407b51852b58823003320308ae", "is_reserved": 0}, {"is_disabled": 0, "fusion_lon": 0.0, "fusion_lat": 0.0, "lat": 39.099423, "type": "electric_bike", "lon": -77.18787866666666, "bike_id": "eaed4ced9a724b73a8e882cfdc80c4c7", "rental_uris": {"android": "https://dc.lft.to/lastmile_qr_scan", "ios": "https://dc.lft.to/lastmile_qr_scan"}, "name": "eaed4ced9a724b73a8e882cfdc80c4c7", "is_reserved": 0}, {"is_disabled": 0, "fusion_lon": 0.0, "fusion_lat": 0.0, "lat": 38.83811683333333, "type": "electric_scooter", "lon": -77.004317, "bike_id": "18e9ec7b4db6b70d023fd9652533d4e9", "rental_uris": {"android": "https://dc.lft.to/lastmile_qr_scan", "ios": "https://dc.lft.to/lastmile_qr_scan"}, "name": "18e9ec7b4db6b70d023fd9652533d4e9", "is_reserved": 0}, {"is_disabled": 0, "fusion_lon": 0.0, "fusion_lat": 0.0, "lat": 38.88628383333333, "type": "electric_scooter", "lon": -76.99849233333333, "bike_id": "7cbccdb279ec3745c3236b6be8100091", "rental_uris": {"android": "https://dc.lft.to/lastmile_qr_scan", "ios": "https://dc.lft.to/lastmile_qr_scan"}, "name": "7cbccdb279ec3745c3236b6be8100091", "is_reserved": 0}, {"is_disabled": 0, "fusion_lon": 0.0, "fusion_lat": 0.0, "lat": 38.935003, "type": "electric_bike", "lon": -76.94958516666667, "bike_id": "65e3a0c8d8a9b243fee571841f97a66a", "rental_uris": {"android": "https://dc.lft.to/lastmile_qr_scan", "ios": "https://dc.lft.to/lastmile_qr_scan"}, "name": "65e3a0c8d8a9b243fee571841f97a66a", "is_reserved": 0}, {"is_disabled": 0, "fusion_lon": 0.0, "fusion_lat": 0.0, "lat": 38.9465385, "type": "electric_scooter", "lon": -77.065326, "bike_id": "afd8f7d13fa5317e9edde7069980d160", "rental_uris": {"android": "https://dc.lft.to/lastmile_qr_scan", "ios": "https://dc.lft.to/lastmile_qr_scan"}, "name": "afd8f7d13fa5317e9edde7069980d160", "is_reserved": 0}, {"is_disabled": 0, "fusion_lon": 0.0, "fusion_lat": 0.0, "lat": 38.9999685, "type": "electric_bike", "lon": -76.91804833333333, "bike_id": "1e2e2fae029229b6583c991465f961f0", "rental_uris": {"android": "https://dc.lft.to/lastmile_qr_scan", "ios": "https://dc.lft.to/lastmile_qr_scan"}, "name": "1e2e2fae029229b6583c991465f961f0", "is_reserved": 0}, {"is_disabled": 0, "fusion_lon": 0.0, "fusion_lat": 0.0, "lat": 38.92403383333333, "type": "electric_scooter", "lon": -77.05164166666667, "bike_id": "55ba495a31bf1c414635b86d58d05590", "rental_uris": {"android": "https://dc.lft.to/lastmile_qr_scan", "ios": "https://dc.lft.to/lastmile_qr_scan"}, "name": "55ba495a31bf1c414635b86d58d05590", "is_reserved": 0}, {"is_disabled": 0, "fusion_lon": 0.0, "fusion_lat": 0.0, "lat": 38.93528883333333, "type": "electric_scooter", "lon": -77.020668, "bike_id": "08f2062ea11761d3fa983d0f1a6b2862", "rental_uris": {"android": "https://dc.lft.to/lastmile_qr_scan", "ios": "https://dc.lft.to/lastmile_qr_scan"}, "name": "08f2062ea11761d3fa983d0f1a6b2862", "is_reserved": 0}, {"is_disabled": 0, "fusion_lon": 0.0, "fusion_lat": 0.0, "lat": 38.91929733333333, "type": "electric_scooter", "lon": -77.02420433333333, "bike_id": "656f25bbeaf10bf96d183a4947f25e51", "rental_uris": {"android": "https://dc.lft.to/lastmile_qr_scan", "ios": "https://dc.lft.to/lastmile_qr_scan"}, "name": "656f25bbeaf10bf96d183a4947f25e51", "is_reserved": 0}, {"is_disabled": 0, "fusion_lon": 0.0, "fusion_lat": 0.0, "lat": 38.924552, "type": "electric_scooter", "lon": -76.99897216666666, "bike_id": "c2e9b21fa51beff97d17b9584c23511e", "rental_uris": {"android": "https://dc.lft.to/lastmile_qr_scan", "ios": "https://dc.lft.to/lastmile_qr_scan"}, "name": "c2e9b21fa51beff97d17b9584c23511e", "is_reserved": 0}, {"is_disabled": 0, "fusion_lon": 0.0, "fusion_lat": 0.0, "lat": 38.94195366666667, "type": "electric_scooter", "lon": -77.02571433333334, "bike_id": "69a87f4baccb98f217e0dde29e78585c", "rental_uris": {"android": "https://dc.lft.to/lastmile_qr_scan", "ios": "https://dc.lft.to/lastmile_qr_scan"}, "name": "69a87f4baccb98f217e0dde29e78585c", "is_reserved": 0}, {"is_disabled": 0, "fusion_lon": 0.0, "fusion_lat": 0.0, "lat": 38.91410116666667, "type": "electric_scooter", "lon": -77.0433055, "bike_id": "89530df676c5c2cb56fab3eb3862293a", "rental_uris": {"android": "https://dc.lft.to/lastmile_qr_scan", "ios": "https://dc.lft.to/lastmile_qr_scan"}, "name": "89530df676c5c2cb56fab3eb3862293a", "is_reserved": 0}, {"is_disabled": 0, "fusion_lon": 0.0, "fusion_lat": 0.0, "lat": 38.90843133333333, "type": "electric_scooter", "lon": -77.0269115, "bike_id": "1aae861db95bcd70137051936dd5ae33", "rental_uris": {"android": "https://dc.lft.to/lastmile_qr_scan", "ios": "https://dc.lft.to/lastmile_qr_scan"}, "name": "1aae861db95bcd70137051936dd5ae33", "is_reserved": 0}, {"is_disabled": 0, "fusion_lon": 0.0, "fusion_lat": 0.0, "lat": 38.9498385, "type": "electric_scooter", "lon": -77.06762616666667, "bike_id": "6f8a2a171609a01705fb934fb6f92782", "rental_uris": {"android": "https://dc.lft.to/lastmile_qr_scan", "ios": "https://dc.lft.to/lastmile_qr_scan"}, "name": "6f8a2a171609a01705fb934fb6f92782", "is_reserved": 0}, {"is_disabled": 0, "fusion_lon": 0.0, "fusion_lat": 0.0, "lat": 38.93319433333333, "type": "electric_scooter", "lon": -77.0293215, "bike_id": "c0481ff129244d3f6d63245dafd21974", "rental_uris": {"android": "https://dc.lft.to/lastmile_qr_scan", "ios": "https://dc.lft.to/lastmile_qr_scan"}, "name": "c0481ff129244d3f6d63245dafd21974", "is_reserved": 0}, {"is_disabled": 0, "fusion_lon": 0.0, "fusion_lat": 0.0, "lat": 38.968295, "type": "electric_scooter", "lon": -77.0151155, "bike_id": "1a34849fec0127c26427ba1947016e1a", "rental_uris": {"android": "https://dc.lft.to/lastmile_qr_scan", "ios": "https://dc.lft.to/lastmile_qr_scan"}, "name": "1a34849fec0127c26427ba1947016e1a", "is_reserved": 0}, {"is_disabled": 0, "fusion_lon": 0.0, "fusion_lat": 0.0, "lat": 38.89723866666667, "type": "electric_scooter", "lon": -77.027744, "bike_id": "6a0dc61052d10043de1e3bfaddbb7a5a", "rental_uris": {"android": "https://dc.lft.to/lastmile_qr_scan", "ios": "https://dc.lft.to/lastmile_qr_scan"}, "name": "6a0dc61052d10043de1e3bfaddbb7a5a", "is_reserved": 0}, {"is_disabled": 0, "fusion_lon": 0.0, "fusion_lat": 0.0, "lat": 38.910395666666666, "type": "electric_scooter", "lon": -77.03827116666666, "bike_id": "813599df8d884adf1d52c91046d760cd", "rental_uris": {"android": "https://dc.lft.to/lastmile_qr_scan", "ios": "https://dc.lft.to/lastmile_qr_scan"}, "name": "813599df8d884adf1d52c91046d760cd", "is_reserved": 0}, {"is_disabled": 0, "fusion_lon": 0.0, "fusion_lat": 0.0, "lat": 38.897320666666666, "type": "electric_scooter", "lon": -77.02473983333333, "bike_id": "773189217664e12f8c3445e45faffbdf", "rental_uris": {"android": "https://dc.lft.to/lastmile_qr_scan", "ios": "https://dc.lft.to/lastmile_qr_scan"}, "name": "773189217664e12f8c3445e45faffbdf", "is_reserved": 0}, {"is_disabled": 0, "fusion_lon": 0.0, "fusion_lat": 0.0, "lat": 38.90304033333334, "type": "electric_scooter", "lon": -77.03631333333334, "bike_id": "657a6dde06151f2169f346c8a13484d3", "rental_uris": {"android": "https://dc.lft.to/lastmile_qr_scan", "ios": "https://dc.lft.to/lastmile_qr_scan"}, "name": "657a6dde06151f2169f346c8a13484d3", "is_reserved": 0},