{"data": {"bikes": [{"lat": 38.921729, "is_disabled": 0, "type": "electric_scooter", "lon": -77.0423765, "bike_id": "493a3454685b1fc05edcd93b95dd5829", "fusion_lat": 0.0, "name": "493a3454685b1fc05edcd93b95dd5829", "is_reserved": 0, "rental_uris": {"android": "https://dc.lft.to/lastmile_qr_scan", "ios": "https://dc.lft.to/lastmile_qr_scan"}, "fusion_lon": 0.0}, {"lat": 38.9196555, "is_disabled": 0, "type": "electric_scooter", "lon": -77.03198983333333, "bike_id": "7ace6b719d821b9722ef04e6a664ea40", "fusion_lat": 0.0, "name": "7ace6b719d821b9722ef04e6a664ea40", "is_reserved": 0, "rental_uris": {"android": "https://dc.lft.to/lastmile_qr_scan", "ios": "https://dc.lft.to/lastmile_qr_scan"}, "fusion_lon": 0.0}, {"lat": 38.896458333333335, "is_disabled": 0, "type": "electric_scooter", "lon": -77.00783283333334, "bike_id": "58803e4e413972a8515de1d4d58928c4", "fusion_lat": 0.0, "name": "58803e4e413972a8515de1d4d58928c4", "is_reserved": 0, "rental_uris": {"android": "https://dc.lft.to/lastmile_qr_scan", "ios": "https://dc.lft.to/lastmile_qr_scan"}, "fusion_lon": 0.0}, {"lat": 38.935713166666666, "is_disabled": 0, "type": "electric_scooter", "lon": -77.03264933333334, "bike_id": "a4dafcd8d4bc9ccd37bbe08ded8cbe6c", "fusion_lat": 0.0, "name": "a4dafcd8d4bc9ccd37bbe08ded8cbe6c", "is_reserved": 0, "rental_uris": {"android": "https://dc.lft.to/lastmile_qr_scan", "ios": "https://dc.lft.to/lastmile_qr_scan"}, "fusion_lon": 0.0}, {"lat": 38.90486883333333, "is_disabled": 0, "type": "electric_scooter", "lon": -77.0573825, "bike_id": "4a52c6229daf3c7d409a436862eacb45", "fusion_lat": 0.0, "name": "4a52c6229daf3c7d409a436862eacb45", "is_reserved": 0, "rental_uris": {"android": "https://dc.lft.to/lastmile_qr_scan", "ios": "https://dc.lft.to/lastmile_qr_scan"}, "fusion_lon": 0.0}, {"lat": 38.905376833333335, "is_disabled": 0, "type": "electric_scooter", "lon": -77.00581833333334, "bike_id": "43efb747061b591436644bf1ee48ff6f", "fusion_lat": 0.0, "name": "43efb747061b591436644bf1ee48ff6f", "is_reserved": 0, "rental_uris": {"android": "https://dc.lft.to/lastmile_qr_scan", "ios": "https://dc.lft.to/lastmile_qr_scan"}, "fusion_lon": 0.0}, {"lat": 38.949414166666664, "is_disabled": 0, "type": "electric_scooter", "lon": -77.020196, "bike_id": "af0e8135141c748dcb1b97431648bdd7", "fusion_lat": 0.0, "name": "af0e8135141c748dcb1b97431648bdd7", "is_reserved": 0, "rental_uris": {"android": "https://dc.lft.to/lastmile_qr_scan", "ios": "https://dc.lft.to/lastmile_qr_scan"}, "fusion_lon": 0.0}, {"lat": 38.87212933333333, "is_disabled": 0, "type": "electric_bike", "lon": -77.0152715, "bike_id": "a3ebecc338dcddbfdc831323d598c9e3", "fusion_lat": 0.0, "name": "a3ebecc338dcddbfdc831323d598c9e3", "is_reserved": 0, "rental_uris": {"android": "https://dc.lft.to/lastmile_qr_scan", "ios": "https://dc.lft.to/lastmile_qr_scan"}, "fusion_lon": 0.0}, {"lat": 38.86276066666667, "is_disabled": 0, "type": "electric_scooter", "lon": -76.992372, "bike_id": "950593e174ade191b832a799b95212c0", "fusion_lat": 0.0, "name": "950593e174ade191b832a799b95212c0", "is_reserved": 0, "rental_uris": {"android": "https://dc.lft.to/lastmile_qr_scan", "ios": "https://dc.lft.to/lastmile_qr_scan"}, "fusion_lon": 0.0}, {"lat": 38.93138866666666, "is_disabled": 0, "type": "electric_scooter", "lon": -77.02826633333333, "bike_id": "667693314f35e08a1c8c8fe5d6d9b43b", "fusion_lat": 0.0, "name": "667693314f35e08a1c8c8fe5d6d9b43b", "is_reserved": 0, "rental_uris": {"android": "https://dc.lft.to/lastmile_qr_scan", "ios": "https://dc.lft.to/lastmile_qr_scan"}, "fusion_lon": 0.0}, {"lat": 38.810469166666664, "is_disabled": 0, "type": "electric_bike", "lon": -77.085074, "bike_id": "2a03c0f7a402ecdea768c8bd0831471e", "fusion_lat": 0.0, "name": "2a03c0f7a402ecdea768c8bd0831471e", "is_reserved": 0, "rental_uris": {"android": "https://dc.lft.to/lastmile_qr_scan", "ios": "https://dc.lft.to/lastmile_qr_scan"}, "fusion_lon": 0.0}, {"lat": 38.92608833333333, "is_disabled": 0, "type": "electric_scooter", "lon": -77.05691966666667, "bike_id": "acf2c07a2e5963a4a0b91aab29db1399", "fusion_lat": 0.0, "name": "acf2c07a2e5963a4a0b91aab29db1399", "is_reserved": 0, "rental_uris": {"android": "https://dc.lft.to/lastmile_qr_scan", "ios": "https://dc.lft.to/lastmile_qr_scan"}, "fusion_lon": 0.0}, {"lat": 38.945971666666665, "is_disabled": 0, "type": "electric_scooter", "lon": -77.07032283333334, "bike_id": "3c9bd57a80b2eaa26266d10da8526fa0", "fusion_lat": 0.0, "name": "3c9bd57a80b2eaa26266d10da8526fa0", "is_reserved": 0, "rental_uris": {"android": "https://dc.lft.to/lastmile_qr_scan", "ios": "https://dc.lft.to/lastmile_qr_scan"}, "fusion_lon": 0.0}, {"lat": 38.90398866666666, "is_disabled": 0, "type": "electric_scooter", "lon": -77.05327766666667, "bike_id": "e2110d873685fb4e83ca2dfeb3e34c91", "fusion_lat": 0.0, "name": "e2110d873685fb4e83ca2dfeb3e34c91", "is_reserved": 0, "rental_uris": {"android": "https://dc.lft.to/lastmile_qr_scan", "ios": "https://dc.lft.to/lastmile_qr_scan"}, "fusion_lon": 0.0}, {"lat": 38.893646333333336, "is_disabled": 0, "type": "electric_scooter", "lon": -76.99107966666666, "bike_id": "576bf03ded97e4437865d1eaeeede925", "fusion_lat": 0.0, "name": "576bf03ded97e4437865d1eaeeede925", "is_reserved": 0, "rental_uris": {"android": "https://dc.lft.to/lastmile_qr_scan", "ios": "https://dc.lft.to/lastmile_qr_scan"}, "fusion_lon": 0.0}, {"lat": 38.921110666666664, "is_disabled": 0, "type": "electric_scooter", "lon": -77.04210483333334, "bike_id": "83d35f2ba1aa9a04de7b1b8359d437c4", "fusion_lat": 0.0, "name": "83d35f2ba1aa9a04de7b1b8359d437c4", "is_reserved": 0, "rental_uris": {"android": "https://dc.lft.to/lastmile_qr_scan", "ios": "https://dc.lft.to/lastmile_qr_scan"}, "fusion_lon": 0.0}, {"lat": 38.9154695, "is_disabled": 0, "type": "electric_scooter", "lon": -77.00977383333333, "bike_id": "201672e73644ecc4322fc58d6f26f266", "fusion_lat": 0.0, "name": "201672e73644ecc4322fc58d6f26f266", "is_reserved": 0, "rental_uris": {"android": "https://dc.lft.to/lastmile_qr_scan", "ios": "https://dc.lft.to/lastmile_qr_scan"}, "fusion_lon": 0.0}, {"lat": 38.85427716666667, "is_disabled": 0, "type": "electric_bike", "lon": -76.909648, "bike_id": "7b861e7bdc981f4ff8964904aaa0e6eb", "fusion_lat": 0.0, "name": "7b861e7bdc981f4ff8964904aaa0e6eb", "is_reserved": 0, "rental_uris": {"android": "https://dc.lft.to/lastmile_qr_scan", "ios": "https://dc.lft.to/lastmile_qr_scan"}, "fusion_lon": 0.0}, {"lat": 38.904899666666665, "is_disabled": 0, "type": "electric_scooter", "lon": -76.99539966666667, "bike_id": "cff366c2562819d699e0870626479804", "fusion_lat": 0.0, "name": "cff366c2562819d699e0870626479804", "is_reserved": 0, "rental_uris": {"android": "https://dc.lft.to/lastmile_qr_scan", "ios": "https://dc.lft.to/lastmile_qr_scan"}, "fusion_lon": 0.0}, {"lat": 38.923876666666665, "is_disabled": 0, "type": "electric_scooter", "lon": -77.0276145, "bike_id": "6c5b884ba2480587240b65a368ca9d61", "fusion_lat": 0.0, "name": "6c5b884ba2480587240b65a368ca9d61", "is_reserved": 0, "rental_uris": {"android": "https://dc.lft.to/lastmile_qr_scan", "ios": "https://dc.lft.to/lastmile_qr_scan"}, "fusion_lon": 0.0}, {"lat": 38.918702833333334, "is_disabled": 0, "type": "electric_scooter", "lon": -77.03502166666667, "bike_id": "7e28edcace8af00bfac35e634d45be13", "fusion_lat": 0.0, "name": "7e28edcace8af00bfac35e634d45be13", "is_reserved": 0, "rental_uris": {"android": "https://dc.lft.to/lastmile_qr_scan", "ios": "https://dc.lft.to/lastmile_qr_scan"}, "fusion_lon": 0.0}, {"lat": 38.87750833333333, "is_disabled": 0, "type": "electric_bike", "lon": -76.9951705, "bike_id": "8322c9b1e904aebe19034a500eb0e233", "fusion_lat": 0.0, "name": "8322c9b1e904aebe19034a500eb0e233", "is_reserved": 0, "rental_uris": {"android": "https://dc.lft.to/lastmile_qr_scan", "ios": "https://dc.lft.to/lastmile_qr_scan"}, "fusion_lon": 0.0}, {"lat": 38.84427316666667, "is_disabled": 0, "type": "electric_scooter", "lon": -76.9977845, "bike_id": "eb2973c24abe51808f7a9838a461dbd7", "fusion_lat": 0.0, "name": "eb2973c24abe51808f7a9838a461dbd7", "is_reserved": 0, "rental_uris": {"android": "https://dc.lft.to/lastmile_qr_scan", "ios": "https://dc.lft.to/lastmile_qr_scan"}, "fusion_lon": 0.0}, {"lat": 38.8830165, "is_disabled": 0, "type": "electric_bike", "lon": -77.03158133333334, "bike_id": "c1542f85ada51ad658ce3eab849bcd51", "fusion_lat": 0.0, "name": "c1542f85ada51ad658ce3eab849bcd51", "is_reserved": 0, "rental_uris": {"android": "https://dc.lft.to/lastmile_qr_scan", "ios": "https://dc.lft.to/lastmile_qr_scan"}, "fusion_lon": 0.0}, {"lat": 38.926240666666665, "is_disabled": 0, "type": "electric_scooter", "lon": -77.03781633333334, "bike_id": "6faad2cf335da65a17b97dd1d30b7827", "fusion_lat": 0.0, "name": "6faad2cf335da65a17b97dd1d30b7827", "is_reserved": 0, "rental_uris": {"android": "https://dc.lft.to/lastmile_qr_scan", "ios": "https://dc.lft.to/lastmile_qr_scan"}, "fusion_lon": 0.0}, {"lat": 38.88362133333333, "is_disabled": 0, "type": "electric_scooter", "lon": -76.94155116666667, "bike_id": "8fc607483658c2f1a01edafc58c11528", "fusion_lat": 0.0, "name": "8fc607483658c2f1a01edafc58c11528", "is_reserved": 0, "rental_uris": {"android": "https://dc.lft.to/lastmile_qr_scan", "ios": "https://dc.lft.to/lastmile_qr_scan"}, "fusion_lon": 0.0}, {"lat": 38.958837333333335, "is_disabled": 0, "type": "electric_bike", "lon": -76.92484133333333, "bike_id": "5d8876ea8dfd57d81148d77dd96c28a1", "fusion_lat": 0.0, "name": "5d8876ea8dfd57d81148d77dd96c28a1", "is_reserved": 0, "rental_uris": {"android": "https://dc.lft.to/lastmile_qr_scan", "ios": "https://dc.lft.to/lastmile_qr_scan"}, "fusion_lon": 0.0}, {"lat": 38.923444, "is_disabled": 0, "type": "electric_scooter", "lon": -77.051121, "bike_id": "4715c73601eb628defd9531bef8691a3", "fusion_lat": 0.0, "name": "4715c73601eb628defd9531bef8691a3", "is_reserved": 0, "rental_uris": {"android": "https://dc.lft.to/lastmile_qr_scan", "ios": "https://dc.lft.to/lastmile_qr_scan"}, "fusion_lon": 0.0}, {"lat": 38.95744833333333, "is_disabled": 0, "type": "electric_scooter", "lon": -77.020745, "bike_id": "09b8a1db09a07077f4e485e4776f74d8", "fusion_lat": 0.0, "name": "09b8a1db09a07077f4e485e4776f74d8", "is_reserved": 0, "rental_uris": {"android": "https://dc.lft.to/lastmile_qr_scan", "ios": "https://dc.lft.to/lastmile_qr_scan"}, "fusion_lon": 0.0}, {"lat": 38.916833, "is_disabled": 0, "type": "electric_scooter", "lon": -77.00194416666666, "bike_id": "d1c9c7260ac3b560ff853dccf7cc95f7", "fusion_lat": 0.0, "name": "d1c9c7260ac3b560ff853dccf7cc95f7", "is_reserved": 0, "rental_uris": {"android": "https://dc.lft.to/lastmile_qr_scan", "ios": "https://dc.lft.to/lastmile_qr_scan"}, "fusion_lon": 0.0}, {"lat": 38.92200716666667, "is_disabled": 0, "type": "electric_scooter", "lon": -76.9836725, "bike_id": "d70e13221d3f606c37eeede669ec1ed8", "fusion_lat": 0.0, "name": "d70e13221d3f606c37eeede669ec1ed8", "is_reserved": 0, "rental_uris": {"android": "https://dc.lft.to/lastmile_qr_scan", "ios": "https://dc.lft.to/lastmile_qr_scan"}, "fusion_lon": 0.0}, {"lat": 38.973277, "is_disabled": 0, "type": "electric_bike", "lon": -77.02147633333334, "bike_id": "0582322375c38ab374ce5937e00feeb5", "fusion_lat": 0.0, "name": "0582322375c38ab374ce5937e00feeb5", "is_reserved": 0, "rental_uris": {"android": "https://dc.lft.to/lastmile_qr_scan", "ios": "https://dc.lft.to/lastmile_qr_scan"}, "fusion_lon": 0.0}, {"lat": 38.92734766666667, "is_disabled": 0, "type": "electric_scooter", "lon": -77.04278766666667, "bike_id": "764669a88421d05423ec47d65229ca3c", "fusion_lat": 0.0, "name": "764669a88421d05423ec47d65229ca3c", "is_reserved": 0, "rental_uris": {"android": "https://dc.lft.to/lastmile_qr_scan", "ios": "https://dc.lft.to/lastmile_qr_scan"}, "fusion_lon": 0.0}, {"lat": 38.9025345, "is_disabled": 0, "type": "electric_scooter", "lon": -77.01749466666666, "bike_id": "59e8a96f85838a4cfcc6ec84762131f0", "fusion_lat": 0.0, "name": "59e8a96f85838a4cfcc6ec84762131f0", "is_reserved": 0, "rental_uris": {"android": "https://dc.lft.to/lastmile_qr_scan", "ios": "https://dc.lft.to/lastmile_qr_scan"}, "fusion_lon": 0.0}, {"lat": 38.911913166666665, "is_disabled": 0, "type": "electric_scooter", "lon": -77.001989, "bike_id": "b00eb5baacecf349e1a0bc10ae0f2c3f", "fusion_lat": 0.0, "name": "b00eb5baacecf349e1a0bc10ae0f2c3f", "is_reserved": 0, "rental_uris": {"android": "https://dc.lft.to/lastmile_qr_scan", "ios": "https://dc.lft.to/lastmile_qr_scan"}, "fusion_lon": 0.0}, {"lat": 38.9165695, "is_disabled": 0, "type": "electric_scooter", "lon": -77.0227685, "bike_id": "fd1cd079daa32d91c3339805a6fb1dac", "fusion_lat": 0.0, "name": "fd1cd079daa32d91c3339805a6fb1dac", "is_reserved": 0, "rental_uris": {"android": "https://dc.lft.to/lastmile_qr_scan", "ios": "https://dc.lft.to/lastmile_qr_scan"}, "fusion_lon": 0.0}, {"lat": 38.901686, "is_disabled": 0, "type": "electric_scooter", "lon": -76.98053583333333, "bike_id": "7613c9d2de6e59921710328bf849a399", "fusion_lat": 0.0, "name": "7613c9d2de6e59921710328bf849a399", "is_reserved": 0, "rental_uris": {"android": "https://dc.lft.to/lastmile_qr_scan", "ios": "https://dc.lft.to/lastmile_qr_scan"}, "fusion_lon": 0.0}, {"lat": 38.920114833333336, "is_disabled": 0, "type": "electric_bike", "lon": -77.03861466666666, "bike_id": "994bfbe0b9d7a23e7c3d32263551151f", "fusion_lat": 0.0, "name": "994bfbe0b9d7a23e7c3d32263551151f", "is_reserved": 0, "rental_uris": {"android": "https://dc.lft.to/lastmile_qr_scan", "ios": "https://dc.lft.to/lastmile_qr_scan"}, "fusion_lon": 0.0}, {"lat": 38.9197665, "is_disabled": 0, "type": "electric_scooter", "lon": -77.03968483333334, "bike_id": "5435b0107f557c43faccfb9cd8f7dce8", "fusion_lat": 0.0, "name": "5435b0107f557c43faccfb9cd8f7dce8", "is_reserved": 0, "rental_uris": {"android": "https://dc.lft.to/lastmile_qr_scan", "ios": "https://dc.lft.to/lastmile_qr_scan"}, "fusion_lon": 0.0}, {"lat": 38.87662533333334, "is_disabled": 0, "type": "electric_scooter", "lon": -77.00406483333333, "bike_id": "006582f582fe48c24d59f0c782fd7a00", "fusion_lat": 0.0, "name": "006582f582fe48c24d59f0c782fd7a00", "is_reserved": 0, "rental_uris": {"android": "https://dc.lft.to/lastmile_qr_scan", "ios": "https://dc.lft.to/lastmile_qr_scan"}, "fusion_lon": 0.0}, {"lat": 38.842907833333335, "is_disabled": 0, "type": "electric_scooter", "lon": -76.999452, "bike_id": "3943eac839911d01219eda17314c2ce9", "fusion_lat": 0.0, "name": "3943eac839911d01219eda17314c2ce9", "is_reserved": 0, "rental_uris": {"android": "https://dc.lft.to/lastmile_qr_scan", "ios": "https://dc.lft.to/lastmile_qr_scan"}, "fusion_lon": 0.0}, {"lat": 38.916676, "is_disabled": 0, "type": "electric_scooter", "lon": -77.00664166666667, "bike_id": "e103aa6d1c00bcd9a8aa51151a3c8815", "fusion_lat": 0.0, "name": "e103aa6d1c00bcd9a8aa51151a3c8815", "is_reserved": 0, "rental_uris": {"android": "https://dc.lft.to/lastmile_qr_scan", "ios": "https://dc.lft.to/lastmile_qr_scan"}, "fusion_lon": 0.0}, {"lat": 38.909060333333336, "is_disabled": 0, "type": "electric_scooter", "lon": -77.0465815, "bike_id": "cf1cd3292d8104e403e506bc069f0d87", "fusion_lat": 0.0, "name": "cf1cd3292d8104e403e506bc069f0d87", "is_reserved": 0, "rental_uris": {"android": "https://dc.lft.to/lastmile_qr_scan", "ios": "https://dc.lft.to/lastmile_qr_scan"}, "fusion_lon": 0.0}, {"lat": 38.92525533333333, "is_disabled": 0, "type": "electric_scooter", "lon": -77.00755516666666, "bike_id": "5fd4892090e9f30ecb45fa6c3fb902a7", "fusion_lat": 0.0, "name": "5fd4892090e9f30ecb45fa6c3fb902a7", "is_reserved": 0, "rental_uris": {"android": "https://dc.lft.to/lastmile_qr_scan", "ios": "https://dc.lft.to/lastmile_qr_scan"}, "fusion_lon": 0.0}, {"lat": 38.922613166666665, "is_disabled": 0, "type": "electric_scooter", "lon": -77.0187035, "bike_id": "a639b00774168cc80dd043514618974e", "fusion_lat": 0.0, "name": "a639b00774168cc80dd043514618974e", "is_reserved": 0, "rental_uris": {"android": "https://dc.lft.to/lastmile_qr_scan", "ios": "https://dc.lft.to/lastmile_qr_scan"}, "fusion_lon": 0.0}, {"lat": 38.928484, "is_disabled": 0, "type": "electric_scooter", "lon": -77.03601616666667, "bike_id": "3e08ce67bf4a6b15cf0d46b5391e3620", "fusion_lat": 0.0, "name": "3e08ce67bf4a6b15cf0d46b5391e3620", "is_reserved": 0, "rental_uris": {"android": "https://dc.lft.to/lastmile_qr_scan", "ios": "https://dc.lft.to/lastmile_qr_scan"}, "fusion_lon": 0.0}, {"lat": 38.939600666666664, "is_disabled": 0, "type": "electric_scooter", "lon": -77.0275, "bike_id": "3b3f5e7078ba9bc6acfc917f3cfef6ea", "fusion_lat": 0.0, "name": "3b3f5e7078ba9bc6acfc917f3cfef6ea", "is_reserved": 0, "rental_uris": {"android": "https://dc.lft.to/lastmile_qr_scan", "ios": "https://dc.lft.to/lastmile_qr_scan"}, "fusion_lon": 0.0}, {"lat": 38.9104635, "is_disabled": 0, "type": "electric_scooter", "lon": -77.02810133333334, "bike_id": "9b9c7dea326e246966746f43ebf30f9a", "fusion_lat": 0.0, "name": "9b9c7dea326e246966746f43ebf30f9a", "is_reserved": 0, "rental_uris": {"android": "https://dc.lft.to/lastmile_qr_scan", "ios": "https://dc.lft.to/lastmile_qr_scan"}, "fusion_lon": 0.0}, {"lat": 38.9334725, "is_disabled": 0, "type": "electric_scooter", "lon": -77.07180766666667, "bike_id": "74c08dfca5ecad630a0d25f61f42e99c", "fusion_lat": 0.0, "name": "74c08dfca5ecad630a0d25f61f42e99c", "is_reserved": 0, "rental_uris": {"android": "https://dc.lft.to/lastmile_qr_scan", "ios": "https://dc.lft.to/lastmile_qr_scan"}, "fusion_lon": 0.0}, {"lat": 38.89989383333333, "is_disabled": 0, "type": "electric_bike", "lon": -76.98118283333334, "bike_id": "cef4fd50f021cbb5d2d3f798d14b4687", "fusion_lat": 0.0, "name": "cef4fd50f021cbb5d2d3f798d14b4687", "is_reserved": 0, "rental_uris": {"android": "https://dc.lft.to/lastmile_qr_scan", "ios": "https://dc.lft.to/lastmile_qr_scan"}, "fusion_lon": 0.0}, {"lat": 38.920757333333334, "is_disabled": 0, "type": "electric_scooter", "lon": -77.04558216666666, "bike_id": "fc824879c8f3efcc8b9a5ab8770e60f4", "fusion_lat": 0.0, "name": "fc824879c8f3efcc8b9a5ab8770e60f4", "is_reserved": 0, "rental_uris": {"android": "https://dc.lft.to/lastmile_qr_scan", "ios": "https://dc.lft.to/lastmile_qr_scan"}, "fusion_lon": 0.0}, {"lat": 38.880595, "is_disabled": 0, "type": "electric_scooter", "lon": -77.00584833333333, "bike_id": "86faca1a42aec56fb82d3cb2e5caa062", "fusion_lat": 0.0, "name": "86faca1a42aec56fb82d3cb2e5caa062", "is_reserved": 0, "rental_uris": {"android": "https://dc.lft.to/lastmile_qr_scan", "ios": "https://dc.lft.to/lastmile_qr_scan"}, "fusion_lon": 0.0}, {"lat": 38.92753283333333, "is_disabled": 0, "type": "electric_scooter", "lon": -77.00594133333334, "bike_id": "105e04ba8703f893db3b73cdf59532b7", "fusion_lat": 0.0, "name": "105e04ba8703f893db3b73cdf59532b7", "is_reserved": 0, "rental_uris": {"android": "https://dc.lft.to/lastmile_qr_scan", "ios": "https://dc.lft.to/lastmile_qr_scan"}, "fusion_lon": 0.0}, {"lat": 38.93316266666667, "is_disabled": 0, "type": "electric_scooter", "lon": -77.02928133333333, "bike_id": "e52569acac7bf108a269ff8367185338", "fusion_lat": 0.0, "name": "e52569acac7bf108a269ff8367185338", "is_reserved": 0, "rental_uris": {"android": "https://dc.lft.to/lastmile_qr_scan", "ios": "https://dc.lft.to/lastmile_qr_scan"}, "fusion_lon": 0.0}, {"lat": 38.90009333333333, "is_disabled": 0, "type": "electric_scooter", "lon": -76.92236216666667, "bike_id": "1c98d38659c9a388e6e95fadac1af0a5", "fusion_lat": 0.0, "name": "1c98d38659c9a388e6e95fadac1af0a5", "is_reserved": 0, "rental_uris": {"android": "https://dc.lft.to/lastmile_qr_scan", "ios": "https://dc.lft.to/lastmile_qr_scan"}, "fusion_lon": 0.0}, {"lat": 38.9206005, "is_disabled": 0, "type": "electric_scooter", "lon": -77.03284733333334, "bike_id": "3863df236efff271c6396e236d9a7067", "fusion_lat": 0.0, "name": "3863df236efff271c6396e236d9a7067", "is_reserved": 0, "rental_uris": {"android": "https://dc.lft.to/lastmile_qr_scan", "ios": "https://dc.lft.to/lastmile_qr_scan"}, "fusion_lon": 0.0}, {"lat": 38.96258516666666, "is_disabled": 0, "type": "electric_scooter", "lon": -77.0381715, "bike_id": "d080bb6e6d28cfe6b25fcb586a666cbb", "fusion_lat": 0.0, "name": "d080bb6e6d28cfe6b25fcb586a666cbb", "is_reserved": 0, "rental_uris": {"android": "https://dc.lft.to/lastmile_qr_scan", "ios": "https://dc.lft.to/lastmile_qr_scan"}, "fusion_lon": 0.0}, {"lat": 38.93498666666667, "is_disabled": 0, "type": "electric_scooter", "lon": -77.05802066666666, "bike_id": "2a9421f4ead7339c54499874d201b218", "fusion_lat": 0.0, "name": "2a9421f4ead7339c54499874d201b218", "is_reserved": 0, "rental_uris": {"android": "https://dc.lft.to/lastmile_qr_scan", "ios": "https://dc.lft.to/lastmile_qr_scan"}, "fusion_lon": 0.0}, {"lat": 38.87011, "is_disabled": 0, "type": "electric_bike", "lon": -76.96022583333334, "bike_id": "df7f7e346ba43425449555beb2978b14", "fusion_lat": 0.0, "name": "df7f7e346ba43425449555beb2978b14", "is_reserved": 0, "rental_uris": {"android": "https://dc.lft.to/lastmile_qr_scan", "ios": "https://dc.lft.to/lastmile_qr_scan"}, "fusion_lon": 0.0}, {"lat": 38.900383, "is_disabled": 0, "type": "electric_scooter", "lon": -76.9901175, "bike_id": "dbb12455d256439fdb01ed0e153f90ce", "fusion_lat": 0.0, "name": "dbb12455d256439fdb01ed0e153f90ce", "is_reserved": 0, "rental_uris": {"android": "https://dc.lft.to/lastmile_qr_scan", "ios": "https://dc.lft.to/lastmile_qr_scan"}, "fusion_lon": 0.0}, {"lat": 38.8857195, "is_disabled": 0, "type": "electric_scooter", "lon": -77.01997933333334, "bike_id": "e3800ee7d2f495b7231df77f17b5fd1c", "fusion_lat": 0.0, "name": "e3800ee7d2f495b7231df77f17b5fd1c", "is_reserved": 0, "rental_uris": {"android": "https://dc.lft.to/lastmile_qr_scan", "ios": "https://dc.lft.to/lastmile_qr_scan"}, "fusion_lon": 0.0}, {"lat": 38.93345633333333, "is_disabled": 0, "type": "electric_scooter", "lon": -77.05703683333333, "bike_id": "fdf8cf486d6485c7422de9f341efb2bd", "fusion_lat": 0.0, "name": "fdf8cf486d6485c7422de9f341efb2bd", "is_reserved": 0, "rental_uris": {"android": "https://dc.lft.to/lastmile_qr_scan", "ios": "https://dc.lft.to/lastmile_qr_scan"}, "fusion_lon": 0.0}, {"lat": 38.914134833333335, "is_disabled": 0, "type": "electric_scooter", "lon": -77.031742, "bike_id": "3cf83d07ce7e0bf2e9634ea4a292c225", "fusion_lat": 0.0, "name": "3cf83d07ce7e0bf2e9634ea4a292c225", "is_reserved": 0, "rental_uris": {"android": "https://dc.lft.to/lastmile_qr_scan", "ios": "https://dc.lft.to/lastmile_qr_scan"}, "fusion_lon": 0.0}, {"lat": 38.92381666666667, "is_disabled": 0, "type": "electric_scooter", "lon": -77.03652966666667, "bike_id": "d91790c4b20e6597aeadc97b57d34c0b", "fusion_lat": 0.0, "name": "d91790c4b20e6597aeadc97b57d34c0b", "is_reserved": 0, "rental_uris": {"android": "https://dc.lft.to/lastmile_qr_scan", "ios": "https://dc.lft.to/lastmile_qr_scan"}, "fusion_lon": 0.0}, {"lat": 38.92166, "is_disabled": 0, "type": "electric_scooter", "lon": -77.07700166666666, "bike_id": "7378f93bf874505b44b819314ed706a1", "fusion_lat": 0.0, "name": "7378f93bf874505b44b819314ed706a1", "is_reserved": 0, "rental_uris": {"android": "https://dc.lft.to/lastmile_qr_scan", "ios": "https://dc.lft.to/lastmile_qr_scan"}, "fusion_lon": 0.0}, {"lat": 38.8368025, "is_disabled": 0, "type": "electric_scooter", "lon": -77.00573583333333, "bike_id": "f33667684f737c05b78d856ce6892c2c", "fusion_lat": 0.0, "name": "f33667684f737c05b78d856ce6892c2c", "is_reserved": 0, "rental_uris": {"android": "https://dc.lft.to/lastmile_qr_scan", "ios": "https://dc.lft.to/lastmile_qr_scan"}, "fusion_lon": 0.0}, {"lat": 38.90419266666667, "is_disabled": 0, "type": "electric_scooter", "lon": -77.01842466666666, "bike_id": "cfb099355d6b1421a8f17adcffc59bbe", "fusion_lat": 0.0, "name": "cfb099355d6b1421a8f17adcffc59bbe", "is_reserved": 0, "rental_uris": {"android": "https://dc.lft.to/lastmile_qr_scan", "ios": "https://dc.lft.to/lastmile_qr_scan"}, "fusion_lon": 0.0}, {"lat": 38.908601, "is_disabled": 0, "type": "electric_scooter", "lon": -77.04587016666666, "bike_id": "c1645449d4bca581cef57f17e13c1732", "fusion_lat": 0.0, "name": "c1645449d4bca581cef57f17e13c1732", "is_reserved": 0, "rental_uris": {"android": "https://dc.lft.to/lastmile_qr_scan", "ios": "https://dc.lft.to/lastmile_qr_scan"}, "fusion_lon": 0.0}, {"lat": 38.921672, "is_disabled": 0, "type": "electric_scooter", "lon": -77.04013616666667, "bike_id": "741fc3682613307686c482274bfd0cb3", "fusion_lat": 0.0, "name": "741fc3682613307686c482274bfd0cb3", "is_reserved": 0, "rental_uris": {"android": "https://dc.lft.to/lastmile_qr_scan", "ios": "https://dc.lft.to/lastmile_qr_scan"}, "fusion_lon": 0.0}, {"lat": 38.91910433333334, "is_disabled": 0, "type": "electric_scooter", "lon": -77.0134445, "bike_id": "41df6c63758ef89888545adda50f8347", "fusion_lat": 0.0, "name": "41df6c63758ef89888545adda50f8347", "is_reserved": 0, "rental_uris": {"android": "https://dc.lft.to/lastmile_qr_scan", "ios": "https://dc.lft.to/lastmile_qr_scan"}, "fusion_lon": 0.0}, {"lat": 38.89223583333333, "is_disabled": 0, "type": "electric_scooter", "lon": -77.05006533333334, "bike_id": "814ee5539737feed4937fbb9e9b6e448", "fusion_lat": 0.0, "name": "814ee5539737feed4937fbb9e9b6e448", "is_reserved": 0, "rental_uris": {"android": "https://dc.lft.to/lastmile_qr_scan", "ios": "https://dc.lft.to/lastmile_qr_scan"}, "fusion_lon": 0.0}, {"lat": 38.897150833333335, "is_disabled": 0, "type": "electric_scooter", "lon": -77.024087, "bike_id": "7b5c2631736f919e6e0239c492bb2396", "fusion_lat": 0.0, "name": "7b5c2631736f919e6e0239c492bb2396", "is_reserved": 0, "rental_uris": {"android": "https://dc.lft.to/lastmile_qr_scan", "ios": "https://dc.lft.to/lastmile_qr_scan"}, "fusion_lon": 0.0}, {"lat": 38.89623816666667, "is_disabled": 0, "type": "electric_scooter", "lon": -77.044987, "bike_id": "c249b76b9099a9a2f2ebc080053ad937", "fusion_lat": 0.0, "name": "c249b76b9099a9a2f2ebc080053ad937", "is_reserved": 0, "rental_uris": {"android": "https://dc.lft.to/lastmile_qr_scan", "ios": "https://dc.lft.to/lastmile_qr_scan"}, "fusion_lon": 0.0}, {"lat": 38.86167416666667, "is_disabled": 0, "type": "electric_bike", "lon": -77.1314765, "bike_id": "852047951ccae342052982be1e523c36", "fusion_lat": 0.0, "name": "852047951ccae342052982be1e523c36", "is_reserved": 0, "rental_uris": {"android": "https://dc.lft.to/lastmile_qr_scan", "ios": "https://dc.lft.to/lastmile_qr_scan"}, "fusion_lon": 0.0}, {"lat": 38.92159216666667, "is_disabled": 0, "type": "electric_scooter", "lon": -77.0338185, "bike_id": "dde4f5791a42662e25b6832e88c22f14", "fusion_lat": 0.0, "name": "dde4f5791a42662e25b6832e88c22f14", "is_reserved": 0, "rental_uris": {"android": "https://dc.lft.to/lastmile_qr_scan", "ios": "https://dc.lft.to/lastmile_qr_scan"}, "fusion_lon": 0.0}, {"lat": 38.91377766666667, "is_disabled": 0, "type": "electric_scooter", "lon": -77.004479, "bike_id": "077ca45008673667b911d64cb54a6a0e", "fusion_lat": 0.0, "name": "077ca45008673667b911d64cb54a6a0e", "is_reserved": 0, "rental_uris": {"android": "https://dc.lft.to/lastmile_qr_scan", "ios": "https://dc.lft.to/lastmile_qr_scan"}, "fusion_lon": 0.0}, {"lat": 38.95094616666667, "is_disabled": 0, "type": "electric_scooter", "lon": -77.02337416666667, "bike_id": "8cf3f4f234ef64a28286b642ce4cae04", "fusion_lat": 0.0, "name": "8cf3f4f234ef64a28286b642ce4cae04", "is_reserved": 0, "rental_uris": {"android": "https://dc.lft.to/lastmile_qr_scan", "ios": "https://dc.lft.to/lastmile_qr_scan"}, "fusion_lon": 0.0}, {"lat": 38.90098416666667, "is_disabled": 0, "type": "electric_scooter", "lon": -77.00356666666667, "bike_id": "0883a6380d56c834fc00c0a8456377c6", "fusion_lat": 0.0, "name": "0883a6380d56c834fc00c0a8456377c6", "is_reserved": 0, "rental_uris": {"android": "https://dc.lft.to/lastmile_qr_scan", "ios": "https://dc.lft.to/lastmile_qr_scan"}, "fusion_lon": 0.0}, {"lat": 38.90312266666667, "is_disabled": 0, "type": "electric_scooter", "lon": -76.9780245, "bike_id": "628ac27c2e793ac143456ec094c797ac", "fusion_lat": 0.0, "name": "628ac27c2e793ac143456ec094c797ac", "is_reserved": 0, "rental_uris": {"android": "https://dc.lft.to/lastmile_qr_scan", "ios": "https://dc.lft.to/lastmile_qr_scan"}, "fusion_lon": 0.0}, {"lat": 38.899822666666665, "is_disabled": 0, "type": "electric_scooter", "lon": -77.029389, "bike_id": "51ae3ee831efeccea338df74a9f69bf1", "fusion_lat": 0.0, "name": "51ae3ee831efeccea338df74a9f69bf1", "is_reserved": 0, "rental_uris": {"android": "https://dc.lft.to/lastmile_qr_scan", "ios": "https://dc.lft.to/lastmile_qr_scan"}, "fusion_lon": 0.0}, {"lat": 38.91012966666667, "is_disabled": 0, "type": "electric_scooter", "lon": -77.0889615, "bike_id": "e97ad2502454d1ce3cb8665b531487a4", "fusion_lat": 0.0, "name": "e97ad2502454d1ce3cb8665b531487a4", "is_reserved": 0, "rental_uris": {"android": "https://dc.lft.to/lastmile_qr_scan", "ios": "https://dc.lft.to/lastmile_qr_scan"}, "fusion_lon": 0.0}, {"lat": 38.90002116666667, "is_disabled": 0, "type": "electric_scooter", "lon": -76.99841616666667, "bike_id": "b8413367e8eb3963949a20cf00a9dd55", "fusion_lat": 0.0, "name": "b8413367e8eb3963949a20cf00a9dd55", "is_reserved": 0, "rental_uris": {"android": "https://dc.lft.to/lastmile_qr_scan", "ios": "https://dc.lft.to/lastmile_qr_scan"}, "fusion_lon": 0.0}, {"lat": 38.92455433333333, "is_disabled": 0, "type": "electric_bike", "lon": -76.97556533333334, "bike_id": "b273cd773f7772196b0e3e71d8fc6eb2", "fusion_lat": 0.0, "name": "b273cd773f7772196b0e3e71d8fc6eb2", "is_reserved": 0, "rental_uris": {"android": "https://dc.lft.to/lastmile_qr_scan", "ios": "https://dc.lft.to/lastmile_qr_scan"}, "fusion_lon": 0.0}, {"lat": 38.8723045, "is_disabled": 0, "type": "electric_bike", "lon": -77.011773, "bike_id": "a89c9d6b554368ba5e8df25eaaa05837", "fusion_lat": 0.0, "name": "a89c9d6b554368ba5e8df25eaaa05837", "is_reserved": 0, "rental_uris": {"android": "https://dc.lft.to/lastmile_qr_scan", "ios": "https://dc.lft.to/lastmile_qr_scan"}, "fusion_lon": 0.0}, {"lat": 38.87134366666667, "is_disabled": 0, "type": "electric_scooter", "lon": -77.00781316666666, "bike_id": "cf8bfc33530254f8a63768333342dac2", "fusion_lat": 0.0, "name": "cf8bfc33530254f8a63768333342dac2", "is_reserved": 0, "rental_uris": {"android": "https://dc.lft.to/lastmile_qr_scan", "ios": "https://dc.lft.to/lastmile_qr_scan"}, "fusion_lon": 0.0}, {"lat": 38.999981, "is_disabled": 0, "type": "electric_bike", "lon": -76.91074166666667, "bike_id": "840432812821b1dd3d7435108bd46e8c", "fusion_lat": 0.0, "name": "840432812821b1dd3d7435108bd46e8c", "is_reserved": 0, "rental_uris": {"android": "https://dc.lft.to/lastmile_qr_scan", "ios": "https://dc.lft.to/lastmile_qr_scan"}, "fusion_lon": 0.0}, {"lat": 38.82872733333333, "is_disabled": 0, "type": "electric_bike", "lon": -77.11219433333333, "bike_id": "531c7982a1e863aeaf835d0fef8da0ed", "fusion_lat": 0.0, "name": "531c7982a1e863aeaf835d0fef8da0ed", "is_reserved": 0, "rental_uris": {"android": "https://dc.lft.to/lastmile_qr_scan", "ios": "https://dc.lft.to/lastmile_qr_scan"}, "fusion_lon": 0.0}, {"lat": 38.956132833333335, "is_disabled": 0, "type": "electric_scooter", "lon": -77.02780883333334, "bike_id": "96cd076dddba036a5b78cece320bab4c", "fusion_lat": 0.0, "name": "96cd076dddba036a5b78cece320bab4c", "is_reserved": 0, "rental_uris": {"android": "https://dc.lft.to/lastmile_qr_scan", "ios": "https://dc.lft.to/lastmile_qr_scan"}, "fusion_lon": 0.0}, {"lat": 38.9097385, "is_disabled": 0, "type": "electric_scooter", "lon": -76.997251, "bike_id": "43fcf2591b82095802b750c06235d25e", "fusion_lat": 0.0, "name": "43fcf2591b82095802b750c06235d25e", "is_reserved": 0, "rental_uris": {"android": "https://dc.lft.to/lastmile_qr_scan", "ios": "https://dc.lft.to/lastmile_qr_scan"}, "fusion_lon": 0.0}, {"lat": 38.9018105, "is_disabled": 0, "type": "electric_scooter", "lon": -77.02410166666667, "bike_id": "2c56bb0fc1e42213c05b5d7e560dff3f", "fusion_lat": 0.0, "name": "2c56bb0fc1e42213c05b5d7e560dff3f", "is_reserved": 0, "rental_uris": {"android": "https://dc.lft.to/lastmile_qr_scan", "ios": "https://dc.lft.to/lastmile_qr_scan"}, "fusion_lon": 0.0}, {"lat": 38.915525833333334, "is_disabled": 0, "type": "electric_scooter", "lon": -77.03866433333333, "bike_id": "22beb95318652ee578ff4030c2b2a982", "fusion_lat": 0.0, "name": "22beb95318652ee578ff4030c2b2a982", "is_reserved": 0, "rental_uris": {"android": "https://dc.lft.to/lastmile_qr_scan", "ios": "https://dc.lft.to/lastmile_qr_scan"}, "fusion_lon": 0.0}, {"lat": 38.9057255, "is_disabled": 0, "type": "electric_scooter", "lon": -77.00591, "bike_id": "f4f8308c44623b7cd268311d43536181", "fusion_lat": 0.0, "name": "f4f8308c44623b7cd268311d43536181", "is_reserved": 0, "rental_uris": {"android": "https://dc.lft.to/lastmile_qr_scan", "ios": "https://dc.lft.to/lastmile_qr_scan"}, "fusion_lon": 0.0}, {"lat": 38.86650383333333, "is_disabled": 0, "type": "electric_scooter", "lon": -76.9888055, "bike_id": "f543163c4b9e1435cd12e982e122a31e", "fusion_lat": 0.0, "name": "f543163c4b9e1435cd12e982e122a31e", "is_reserved": 0, "rental_uris": {"android": "https://dc.lft.to/lastmile_qr_scan", "ios": "https://dc.lft.to/lastmile_qr_scan"}, "fusion_lon": 0.0}, {"lat": 38.903926, "is_disabled": 0, "type": "electric_scooter", "lon": -77.02160733333334, "bike_id": "817161668e362cc1283884ea79dd8654", "fusion_lat": 0.0, "name": "817161668e362cc1283884ea79dd8654", "is_reserved": 0, "rental_uris": {"android": "https://dc.lft.to/lastmile_qr_scan", "ios": "https://dc.lft.to/lastmile_qr_scan"}, "fusion_lon": 0.0}, {"lat": 38.8226375, "is_disabled": 0, "type": "electric_bike", "lon": -77.0581885, "bike_id": "5fe44aa45aed2bcfce13d08c6ce80ad0", "fusion_lat": 0.0, "name": "5fe44aa45aed2bcfce13d08c6ce80ad0", "is_reserved": 0, "rental_uris": {"android": "https://dc.lft.to/lastmile_qr_scan", "ios": "https://dc.lft.to/lastmile_qr_scan"}, "fusion_lon": 0.0}, {"lat": 38.880961, "is_disabled": 0, "type": "electric_scooter", "lon": -77.01655, "bike_id": "49e90d7fc0dcacecccbda0b67f25acd8", "fusion_lat": 0.0, "name": "49e90d7fc0dcacecccbda0b67f25acd8", "is_reserved": 0, "rental_uris": {"android": "https://dc.lft.to/lastmile_qr_scan", "ios": "https://dc.lft.to/lastmile_qr_scan"}, "fusion_lon": 0.0}, {"lat": 38.90223433333333, "is_disabled": 0, "type": "electric_scooter", "lon": -77.05324466666667, "bike_id": "706a5881d71cb8291dfbc1ec46910c6a", "fusion_lat": 0.0, "name": "706a5881d71cb8291dfbc1ec46910c6a", "is_reserved": 0, "rental_uris": {"android": "https://dc.lft.to/lastmile_qr_scan", "ios": "https://dc.lft.to/lastmile_qr_scan"}, "fusion_lon": 0.0}, {"lat": 38.898291666666665, "is_disabled": 0, "type": "electric_scooter", "lon": -77.03158633333334, "bike_id": "78a285ac75545c7b3febaa9a0ae3bd84", "fusion_lat": 0.0, "name": "78a285ac75545c7b3febaa9a0ae3bd84", "is_reserved": 0, "rental_uris": {"android": "https://dc.lft.to/lastmile_qr_scan", "ios": "https://dc.lft.to/lastmile_qr_scan"}, "fusion_lon": 0.0}, {"lat": 38.938821, "is_disabled": 0, "type": "electric_scooter", "lon": -77.03284233333333, "bike_id": "41be3b9f22d88975305d05b3ea63ab14", "fusion_lat": 0.0, "name": "41be3b9f22d88975305d05b3ea63ab14", "is_reserved": 0, "rental_uris": {"android": "https://dc.lft.to/lastmile_qr_scan", "ios": "https://dc.lft.to/lastmile_qr_scan"}, "fusion_lon": 0.0}, {"lat": 38.9079585, "is_disabled": 0, "type": "electric_scooter", "lon": -77.0365535, "bike_id": "e3598a6bb6510760b82f09a9b3705b85", "fusion_lat": 0.0, "name": "e3598a6bb6510760b82f09a9b3705b85", "is_reserved": 0, "rental_uris": {"android": "https://dc.lft.to/lastmile_qr_scan", "ios": "https://dc.lft.to/lastmile_qr_scan"}, "fusion_lon": 0.0}, {"lat": 38.928267166666664, "is_disabled": 0, "type": "electric_scooter", "lon": -77.0219295, "bike_id": "3493166b5f2f35715d0782624f7cb5bc", "fusion_lat": 0.0, "name": "3493166b5f2f35715d0782624f7cb5bc", "is_reserved": 0, "rental_uris": {"android": "https://dc.lft.to/lastmile_qr_scan", "ios": "https://dc.lft.to/lastmile_qr_scan"}, "fusion_lon": 0.0}, {"lat": 38.922960333333336, "is_disabled": 0, "type": "electric_scooter", "lon": -77.03660016666667, "bike_id": "e5a275c8ac70f562f5c065ed77e92f11", "fusion_lat": 0.0, "name": "e5a275c8ac70f562f5c065ed77e92f11", "is_reserved": 0, "rental_uris": {"android": "https://dc.lft.to/lastmile_qr_scan", "ios": "https://dc.lft.to/lastmile_qr_scan"}, "fusion_lon": 0.0}, {"lat": 38.9323315, "is_disabled": 0, "type": "electric_bike", "lon": -76.97426966666667, "bike_id": "ef34770d5fac426131fbd534325ee370", "fusion_lat": 0.0, "name": "ef34770d5fac426131fbd534325ee370", "is_reserved": 0, "rental_uris": {"android": "https://dc.lft.to/lastmile_qr_scan", "ios": "https://dc.lft.to/lastmile_qr_scan"}, "fusion_lon": 0.0}, {"lat": 38.973125333333336, "is_disabled": 0, "type": "electric_scooter", "lon": -77.02702266666667, "bike_id": "bf6fc67a3c42ca5336dba655dc557173", "fusion_lat": 0.0, "name": "bf6fc67a3c42ca5336dba655dc557173", "is_reserved": 0, "rental_uris": {"android": "https://dc.lft.to/lastmile_qr_scan", "ios": "https://dc.lft.to/lastmile_qr_scan"}, "fusion_lon": 0.0}, {"lat": 38.895219833333336, "is_disabled": 0, "type": "electric_scooter", "lon": -77.011151, "bike_id": "cddf06d58d0f30586f870be7f2400f2f", "fusion_lat": 0.0, "name": "cddf06d58d0f30586f870be7f2400f2f", "is_reserved": 0, "rental_uris": {"android": "https://dc.lft.to/lastmile_qr_scan", "ios": "https://dc.lft.to/lastmile_qr_scan"}, "fusion_lon": 0.0}, {"lat": 38.869921166666664, "is_disabled": 0, "type": "electric_bike", "lon": -76.95984716666666, "bike_id": "10de27d19f97aa521dc8f6019abba5b1", "fusion_lat": 0.0, "name": "10de27d19f97aa521dc8f6019abba5b1", "is_reserved": 0, "rental_uris": {"android": "https://dc.lft.to/lastmile_qr_scan", "ios": "https://dc.lft.to/lastmile_qr_scan"}, "fusion_lon": 0.0}, {"lat": 38.8984415, "is_disabled": 0, "type": "electric_scooter", "lon": -77.03952483333333, "bike_id": "39cd0623d4d5ca7955fd59ea88cab70f", "fusion_lat": 0.0, "name": "39cd0623d4d5ca7955fd59ea88cab70f", "is_reserved": 0, "rental_uris": {"android": "https://dc.lft.to/lastmile_qr_scan", "ios": "https://dc.lft.to/lastmile_qr_scan"}, "fusion_lon": 0.0}, {"lat": 38.89967033333333, "is_disabled": 0, "type": "electric_scooter", "lon": -77.02107066666666, "bike_id": "35cb928bd195d3cbcd868d2ac281cb4d", "fusion_lat": 0.0, "name": "35cb928bd195d3cbcd868d2ac281cb4d", "is_reserved": 0, "rental_uris": {"android": "https://dc.lft.to/lastmile_qr_scan", "ios": "https://dc.lft.to/lastmile_qr_scan"}, "fusion_lon": 0.0}, {"lat": 38.9850945, "is_disabled": 0, "type": "electric_bike", "lon": -76.98205733333333, "bike_id": "9d67845dfd7a75f11b8a476943b91ac2", "fusion_lat": 0.0, "name": "9d67845dfd7a75f11b8a476943b91ac2", "is_reserved": 0, "rental_uris": {"android": "https://dc.lft.to/lastmile_qr_scan", "ios": "https://dc.lft.to/lastmile_qr_scan"}, "fusion_lon": 0.0}, {"lat": 38.85895716666667, "is_disabled": 0, "type": "electric_scooter", "lon": -76.99434083333334, "bike_id": "633f911f7af8d67c4b9bab813ef4225f", "fusion_lat": 0.0, "name": "633f911f7af8d67c4b9bab813ef4225f", "is_reserved": 0, "rental_uris": {"android": "https://dc.lft.to/lastmile_qr_scan", "ios": "https://dc.lft.to/lastmile_qr_scan"}, "fusion_lon": 0.0}, {"lat": 38.9093375, "is_disabled": 0, "type": "electric_scooter", "lon": -77.0385905, "bike_id": "1447f6d6e73eef3185c1a4a3ff7078bc", "fusion_lat": 0.0, "name": "1447f6d6e73eef3185c1a4a3ff7078bc", "is_reserved": 0, "rental_uris": {"android": "https://dc.lft.to/lastmile_qr_scan", "ios": "https://dc.lft.to/lastmile_qr_scan"}, "fusion_lon": 0.0}, {"lat": 38.944472833333336, "is_disabled": 0, "type": "electric_scooter", "lon": -77.02339983333333, "bike_id": "af872266be4d8f7830b2611c35156abb", "fusion_lat": 0.0, "name": "af872266be4d8f7830b2611c35156abb", "is_reserved": 0, "rental_uris": {"android": "https://dc.lft.to/lastmile_qr_scan", "ios": "https://dc.lft.to/lastmile_qr_scan"}, "fusion_lon": 0.0}, {"lat": 38.90967366666667, "is_disabled": 0, "type": "electric_scooter", "lon": -77.0478955, "bike_id": "557adcb657d10a451f18b3985946d2f7", "fusion_lat": 0.0, "name": "557adcb657d10a451f18b3985946d2f7", "is_reserved": 0, "rental_uris": {"android": "https://dc.lft.to/lastmile_qr_scan", "ios": "https://dc.lft.to/lastmile_qr_scan"}, "fusion_lon": 0.0}, {"lat": 38.92127716666667, "is_disabled": 0, "type": "electric_scooter", "lon": -77.04005366666667, "bike_id": "aa4c37bd523d09650742226335eeb935", "fusion_lat": 0.0, "name": "aa4c37bd523d09650742226335eeb935", "is_reserved": 0, "rental_uris": {"android": "https://dc.lft.to/lastmile_qr_scan", "ios": "https://dc.lft.to/lastmile_qr_scan"}, "fusion_lon": 0.0}, {"lat": 38.957394, "is_disabled": 0, "type": "electric_bike", "lon": -77.02320433333334, "bike_id": "56f828458ccf840109c01b7f432949d8", "fusion_lat": 0.0, "name": "56f828458ccf840109c01b7f432949d8", "is_reserved": 0, "rental_uris": {"android": "https://dc.lft.to/lastmile_qr_scan", "ios": "https://dc.lft.to/lastmile_qr_scan"}, "fusion_lon": 0.0}, {"lat": 38.85732816666667, "is_disabled": 0, "type": "electric_scooter", "lon": -76.994399, "bike_id": "6c9c1ec66d5d284b2117ce9667cd8581", "fusion_lat": 0.0, "name": "6c9c1ec66d5d284b2117ce9667cd8581", "is_reserved": 0, "rental_uris": {"android": "https://dc.lft.to/lastmile_qr_scan", "ios": "https://dc.lft.to/lastmile_qr_scan"}, "fusion_lon": 0.0}, {"lat": 38.901350666666666, "is_disabled": 0, "type": "electric_scooter", "lon": -77.04149466666667, "bike_id": "bbea0852f3c02005d37120d60022c2a5", "fusion_lat": 0.0, "name": "bbea0852f3c02005d37120d60022c2a5", "is_reserved": 0, "rental_uris": {"android": "https://dc.lft.to/lastmile_qr_scan", "ios": "https://dc.lft.to/lastmile_qr_scan"}, "fusion_lon": 0.0}, {"lat": 38.937406333333335, "is_disabled": 0, "type": "electric_scooter", "lon": -77.03614183333333, "bike_id": "e55f6659131944c23ec17805a2de9f8a", "fusion_lat": 0.0, "name": "e55f6659131944c23ec17805a2de9f8a", "is_reserved": 0, "rental_uris": {"android": "https://dc.lft.to/lastmile_qr_scan", "ios": "https://dc.lft.to/lastmile_qr_scan"}, "fusion_lon": 0.0}, {"lat": 38.89827833333333, "is_disabled": 0, "type": "electric_scooter", "lon": -77.03030383333333, "bike_id": "108be61daa823c00838613768c4f0e65", "fusion_lat": 0.0, "name": "108be61daa823c00838613768c4f0e65", "is_reserved": 0, "rental_uris": {"android": "https://dc.lft.to/lastmile_qr_scan", "ios": "https://dc.lft.to/lastmile_qr_scan"}, "fusion_lon": 0.0}, {"lat": 38.94086583333333, "is_disabled": 0, "type": "electric_scooter", "lon": -77.061347, "bike_id": "90ca20c8256c4f4d5de890db2700922f", "fusion_lat": 0.0, "name": "90ca20c8256c4f4d5de890db2700922f", "is_reserved": 0, "rental_uris": {"android": "https://dc.lft.to/lastmile_qr_scan", "ios": "https://dc.lft.to/lastmile_qr_scan"}, "fusion_lon": 0.0}, {"lat": 38.91636166666667, "is_disabled": 0, "type": "electric_scooter", "lon": -77.03132416666666, "bike_id": "c5993d40f0ceee016ef32b4b7ff19e54", "fusion_lat": 0.0, "name": "c5993d40f0ceee016ef32b4b7ff19e54", "is_reserved": 0, "rental_uris": {"android": "https://dc.lft.to/lastmile_qr_scan", "ios": "https://dc.lft.to/lastmile_qr_scan"}, "fusion_lon": 0.0}, {"lat": 38.9306975, "is_disabled": 0, "type": "electric_scooter", "lon": -77.03123333333333, "bike_id": "920e13b8f15c2fd0d1182511c67c4d1f", "fusion_lat": 0.0, "name": "920e13b8f15c2fd0d1182511c67c4d1f", "is_reserved": 0, "rental_uris": {"android": "https://dc.lft.to/lastmile_qr_scan", "ios": "https://dc.lft.to/lastmile_qr_scan"}, "fusion_lon": 0.0}, {"lat": 38.949024333333334, "is_disabled": 0, "type": "electric_bike", "lon": -76.97241133333333, "bike_id": "b4d659dc60216701bc9734effb0c434b", "fusion_lat": 0.0, "name": "b4d659dc60216701bc9734effb0c434b", "is_reserved": 0, "rental_uris": {"android": "https://dc.lft.to/lastmile_qr_scan", "ios": "https://dc.lft.to/lastmile_qr_scan"}, "fusion_lon": 0.0}, {"lat": 38.9398085, "is_disabled": 0, "type": "electric_scooter", "lon": -77.02894733333333, "bike_id": "9ccdd424e880d25a8e895305720ac54d", "fusion_lat": 0.0, "name": "9ccdd424e880d25a8e895305720ac54d", "is_reserved": 0, "rental_uris": {"android": "https://dc.lft.to/lastmile_qr_scan", "ios": "https://dc.lft.to/lastmile_qr_scan"}, "fusion_lon": 0.0}, {"lat": 38.924038333333336, "is_disabled": 0, "type": "electric_scooter", "lon": -77.02698133333334, "bike_id": "2f653b45a3c38092da88864584d391d1", "fusion_lat": 0.0, "name": "2f653b45a3c38092da88864584d391d1", "is_reserved": 0, "rental_uris": {"android": "https://dc.lft.to/lastmile_qr_scan", "ios": "https://dc.lft.to/lastmile_qr_scan"}, "fusion_lon": 0.0}, {"lat": 38.903682833333335, "is_disabled": 0, "type": "electric_scooter", "lon": -77.06277766666666, "bike_id": "2c93c48a9eefc28c202912028d02351d", "fusion_lat": 0.0, "name": "2c93c48a9eefc28c202912028d02351d", "is_reserved": 0, "rental_uris": {"android": "https://dc.lft.to/lastmile_qr_scan", "ios": "https://dc.lft.to/lastmile_qr_scan"}, "fusion_lon": 0.0}, {"lat": 38.9422755, "is_disabled": 0, "type": "electric_scooter", "lon": -77.0138685, "bike_id": "fe1fb4b681cb228531a9c05efacdfa64", "fusion_lat": 0.0, "name": "fe1fb4b681cb228531a9c05efacdfa64", "is_reserved": 0, "rental_uris": {"android": "https://dc.lft.to/lastmile_qr_scan", "ios": "https://dc.lft.to/lastmile_qr_scan"}, "fusion_lon": 0.0}, {"lat": 38.9041775, "is_disabled": 0, "type": "electric_scooter", "lon": -76.9907115, "bike_id": "dac958ae9e96e7005e6b5439a1d40c49", "fusion_lat": 0.0, "name": "dac958ae9e96e7005e6b5439a1d40c49", "is_reserved": 0, "rental_uris": {"android": "https://dc.lft.to/lastmile_qr_scan", "ios": "https://dc.lft.to/lastmile_qr_scan"}, "fusion_lon": 0.0}, {"lat": 38.91353266666667, "is_disabled": 0, "type": "electric_scooter", "lon": -77.01529116666667, "bike_id": "7ca9b5ce20c5fa9259c875cac933a9cc", "fusion_lat": 0.0, "name": "7ca9b5ce20c5fa9259c875cac933a9cc", "is_reserved": 0, "rental_uris": {"android": "https://dc.lft.to/lastmile_qr_scan", "ios": "https://dc.lft.to/lastmile_qr_scan"}, "fusion_lon": 0.0}, {"lat": 38.90470066666666, "is_disabled": 0, "type": "electric_scooter", "lon": -77.00712516666667, "bike_id": "0c31db274b7fbd7244fc211d7311538c", "fusion_lat": 0.0, "name": "0c31db274b7fbd7244fc211d7311538c", "is_reserved": 0, "rental_uris": {"android": "https://dc.lft.to/lastmile_qr_scan", "ios": "https://dc.lft.to/lastmile_qr_scan"}, "fusion_lon": 0.0}, {"lat": 38.9126955, "is_disabled": 0, "type": "electric_scooter", "lon": -77.004858, "bike_id": "0601a26a903c62efe7e6a95c84de5a93", "fusion_lat": 0.0, "name": "0601a26a903c62efe7e6a95c84de5a93", "is_reserved": 0, "rental_uris": {"android": "https://dc.lft.to/lastmile_qr_scan", "ios": "https://dc.lft.to/lastmile_qr_scan"}, "fusion_lon": 0.0}, {"lat": 38.908454166666665, "is_disabled": 0, "type": "electric_scooter", "lon": -77.03855833333333, "bike_id": "4bdc37273f181f8bd94b1e0fbb9135b1", "fusion_lat": 0.0, "name": "4bdc37273f181f8bd94b1e0fbb9135b1", "is_reserved": 0, "rental_uris": {"android": "https://dc.lft.to/lastmile_qr_scan", "ios": "https://dc.lft.to/lastmile_qr_scan"}, "fusion_lon": 0.0}, {"lat": 38.909567333333335, "is_disabled": 0, "type": "electric_scooter", "lon": -77.02683233333333, "bike_id": "16631c8c1bdd5fad49e6d914ea5866fd", "fusion_lat": 0.0, "name": "16631c8c1bdd5fad49e6d914ea5866fd", "is_reserved": 0, "rental_uris": {"android": "https://dc.lft.to/lastmile_qr_scan", "ios": "https://dc.lft.to/lastmile_qr_scan"}, "fusion_lon": 0.0}, {"lat": 38.91779183333333, "is_disabled": 0, "type": "electric_scooter", "lon": -77.023123, "bike_id": "3d855c4ac45f5fc63dd2b91e65802885", "fusion_lat": 0.0, "name": "3d855c4ac45f5fc63dd2b91e65802885", "is_reserved": 0, "rental_uris": {"android": "https://dc.lft.to/lastmile_qr_scan", "ios": "https://dc.lft.to/lastmile_qr_scan"}, "fusion_lon": 0.0}, {"lat": 38.9312485, "is_disabled": 0, "type": "electric_scooter", "lon": -77.0303075, "bike_id": "f4d6246fb422a1a6c2efe14bc3674e66", "fusion_lat": 0.0, "name": "f4d6246fb422a1a6c2efe14bc3674e66", "is_reserved": 0, "rental_uris": {"android": "https://dc.lft.to/lastmile_qr_scan", "ios": "https://dc.lft.to/lastmile_qr_scan"}, "fusion_lon": 0.0}, {"lat": 38.90141166666667, "is_disabled": 0, "type": "electric_scooter", "lon": -76.980543, "bike_id": "4617fcb116ba12bdbf243b099fcaa028", "fusion_lat": 0.0, "name": "4617fcb116ba12bdbf243b099fcaa028", "is_reserved": 0, "rental_uris": {"android": "https://dc.lft.to/lastmile_qr_scan", "ios": "https://dc.lft.to/lastmile_qr_scan"}, "fusion_lon": 0.0}, {"lat": 38.91972466666667, "is_disabled": 0, "type": "electric_scooter", "lon": -77.0002505, "bike_id": "4bbae072693bdf9d7c728289f703cdae", "fusion_lat": 0.0, "name": "4bbae072693bdf9d7c728289f703cdae", "is_reserved": 0, "rental_uris": {"android": "https://dc.lft.to/lastmile_qr_scan", "ios": "https://dc.lft.to/lastmile_qr_scan"}, "fusion_lon": 0.0}, {"lat": 38.926271666666665, "is_disabled": 0, "type": "electric_scooter", "lon": -77.03619666666667, "bike_id": "d96c7ad61acb50291c9cb4fe3b29ee0e", "fusion_lat": 0.0, "name": "d96c7ad61acb50291c9cb4fe3b29ee0e", "is_reserved": 0, "rental_uris": {"android": "https://dc.lft.to/lastmile_qr_scan", "ios": "https://dc.lft.to/lastmile_qr_scan"}, "fusion_lon": 0.0}, {"lat": 38.879793, "is_disabled": 0, "type": "electric_scooter", "lon": -77.00598333333333, "bike_id": "e8f683e9b53b73f55110d8b35c9b9809", "fusion_lat": 0.0, "name": "e8f683e9b53b73f55110d8b35c9b9809", "is_reserved": 0, "rental_uris": {"android": "https://dc.lft.to/lastmile_qr_scan", "ios": "https://dc.lft.to/lastmile_qr_scan"}, "fusion_lon": 0.0}, {"lat": 38.9197775, "is_disabled": 0, "type": "electric_scooter", "lon": -77.0002085, "bike_id": "38d053263d890ea421228508f31448d6", "fusion_lat": 0.0, "name": "38d053263d890ea421228508f31448d6", "is_reserved": 0, "rental_uris": {"android": "https://dc.lft.to/lastmile_qr_scan", "ios": "https://dc.lft.to/lastmile_qr_scan"}, "fusion_lon": 0.0}, {"lat": 38.934137, "is_disabled": 0, "type": "electric_bike", "lon": -77.02505916666667, "bike_id": "831341675cd2085476b18375af8543e1", "fusion_lat": 0.0, "name": "831341675cd2085476b18375af8543e1", "is_reserved": 0, "rental_uris": {"android": "https://dc.lft.to/lastmile_qr_scan", "ios": "https://dc.lft.to/lastmile_qr_scan"}, "fusion_lon": 0.0}, {"lat": 38.84611566666667, "is_disabled": 0, "type": "electric_bike", "lon": -76.96902883333334, "bike_id": "41625a78dbcac38a57bfb7365cb439dd", "fusion_lat": 0.0, "name": "41625a78dbcac38a57bfb7365cb439dd", "is_reserved": 0, "rental_uris": {"android": "https://dc.lft.to/lastmile_qr_scan", "ios": "https://dc.lft.to/lastmile_qr_scan"}, "fusion_lon": 0.0}, {"lat": 38.9073315, "is_disabled": 0, "type": "electric_scooter", "lon": -77.03444783333333, "bike_id": "676b9a9cf99cd09fcd6c670665bee1f0", "fusion_lat": 0.0, "name": "676b9a9cf99cd09fcd6c670665bee1f0", "is_reserved": 0, "rental_uris": {"android": "https://dc.lft.to/lastmile_qr_scan", "ios": "https://dc.lft.to/lastmile_qr_scan"}, "fusion_lon": 0.0}, {"lat": 38.939817166666664, "is_disabled": 0, "type": "electric_scooter", "lon": -77.03264166666666, "bike_id": "f63f40793b225c30dca54d0c59b5c04f", "fusion_lat": 0.0, "name": "f63f40793b225c30dca54d0c59b5c04f", "is_reserved": 0, "rental_uris": {"android": "https://dc.lft.to/lastmile_qr_scan", "ios": "https://dc.lft.to/lastmile_qr_scan"}, "fusion_lon": 0.0}, {"lat": 38.95184016666666, "is_disabled": 0, "type": "electric_bike", "lon": -76.9354425, "bike_id": "ab228a2361c273fa713e5cb5862dc35a", "fusion_lat": 0.0, "name": "ab228a2361c273fa713e5cb5862dc35a", "is_reserved": 0, "rental_uris": {"android": "https://dc.lft.to/lastmile_qr_scan", "ios": "https://dc.lft.to/lastmile_qr_scan"}, "fusion_lon": 0.0}, {"lat": 38.928878833333336, "is_disabled": 0, "type": "electric_scooter", "lon": -77.02584916666666, "bike_id": "8261ae53fa96738f80c2ddfe6d4e6d06", "fusion_lat": 0.0, "name": "8261ae53fa96738f80c2ddfe6d4e6d06", "is_reserved": 0, "rental_uris": {"android": "https://dc.lft.to/lastmile_qr_scan", "ios": "https://dc.lft.to/lastmile_qr_scan"}, "fusion_lon": 0.0}, {"lat": 38.87734483333333, "is_disabled": 0, "type": "electric_bike", "lon": -77.1184535, "bike_id": "041db040ee2dd1195aabfcd3ac6a6b12", "fusion_lat": 0.0, "name": "041db040ee2dd1195aabfcd3ac6a6b12", "is_reserved": 0, "rental_uris": {"android": "https://dc.lft.to/lastmile_qr_scan", "ios": "https://dc.lft.to/lastmile_qr_scan"}, "fusion_lon": 0.0}, {"lat": 38.863704166666665, "is_disabled": 0, "type": "electric_scooter", "lon": -76.99042216666666, "bike_id": "d58275b95a0a8436eb5dbfb40d7f47d4", "fusion_lat": 0.0, "name": "d58275b95a0a8436eb5dbfb40d7f47d4", "is_reserved": 0, "rental_uris": {"android": "https://dc.lft.to/lastmile_qr_scan", "ios": "https://dc.lft.to/lastmile_qr_scan"}, "fusion_lon": 0.0}, {"lat": 38.870802833333336, "is_disabled": 0, "type": "electric_scooter", "lon": -77.01186183333333, "bike_id": "c51c3adc214cfa34687ded69d74560bb", "fusion_lat": 0.0, "name": "c51c3adc214cfa34687ded69d74560bb", "is_reserved": 0, "rental_uris": {"android": "https://dc.lft.to/lastmile_qr_scan", "ios": "https://dc.lft.to/lastmile_qr_scan"}, "fusion_lon": 0.0}, {"lat": 38.88299166666667, "is_disabled": 0, "type": "electric_scooter", "lon": -76.98215766666667, "bike_id": "17687ac6d802fd874ef9d7814c8d22d1", "fusion_lat": 0.0, "name": "17687ac6d802fd874ef9d7814c8d22d1", "is_reserved": 0, "rental_uris": {"android": "https://dc.lft.to/lastmile_qr_scan", "ios": "https://dc.lft.to/lastmile_qr_scan"}, "fusion_lon": 0.0}, {"lat": 38.939340666666666, "is_disabled": 0, "type": "electric_scooter", "lon": -77.02219133333334, "bike_id": "549f524c0d9d2d50d63769f0cedae8b0", "fusion_lat": 0.0, "name": "549f524c0d9d2d50d63769f0cedae8b0", "is_reserved": 0, "rental_uris": {"android": "https://dc.lft.to/lastmile_qr_scan", "ios": "https://dc.lft.to/lastmile_qr_scan"}, "fusion_lon": 0.0}, {"lat": 38.91267033333333, "is_disabled": 0, "type": "electric_scooter", "lon": -77.01310633333334, "bike_id": "b6ece4c719cf0bdae1f31fa63c3c706d", "fusion_lat": 0.0, "name": "b6ece4c719cf0bdae1f31fa63c3c706d", "is_reserved": 0, "rental_uris": {"android": "https://dc.lft.to/lastmile_qr_scan", "ios": "https://dc.lft.to/lastmile_qr_scan"}, "fusion_lon": 0.0}, {"lat": 38.89919666666667, "is_disabled": 0, "type": "electric_scooter", "lon": -76.93380116666667, "bike_id": "43487a2262d12fd7f9dc9a4061a80596", "fusion_lat": 0.0, "name": "43487a2262d12fd7f9dc9a4061a80596", "is_reserved": 0, "rental_uris": {"android": "https://dc.lft.to/lastmile_qr_scan", "ios": "https://dc.lft.to/lastmile_qr_scan"}, "fusion_lon": 0.0}, {"lat": 38.93201883333333, "is_disabled": 0, "type": "electric_bike", "lon": -77.078301, "bike_id": "c11d730e233a5401ef49259f2815e943", "fusion_lat": 0.0, "name": "c11d730e233a5401ef49259f2815e943", "is_reserved": 0, "rental_uris": {"android": "https://dc.lft.to/lastmile_qr_scan", "ios": "https://dc.lft.to/lastmile_qr_scan"}, "fusion_lon": 0.0}, {"lat": 38.926775166666665, "is_disabled": 0, "type": "electric_scooter", "lon": -77.05110233333333, "bike_id": "95719213b70bf50b349b700680a68dda", "fusion_lat": 0.0, "name": "95719213b70bf50b349b700680a68dda", "is_reserved": 0, "rental_uris": {"android": "https://dc.lft.to/lastmile_qr_scan", "ios": "https://dc.lft.to/lastmile_qr_scan"}, "fusion_lon": 0.0}, {"lat": 38.95553016666667, "is_disabled": 0, "type": "electric_bike", "lon": -76.93545016666667, "bike_id": "f9559c6a120554c879402a0bce4d7749", "fusion_lat": 0.0, "name": "f9559c6a120554c879402a0bce4d7749", "is_reserved": 0, "rental_uris": {"android": "https://dc.lft.to/lastmile_qr_scan", "ios": "https://dc.lft.to/lastmile_qr_scan"}, "fusion_lon": 0.0}, {"lat": 38.95782083333334, "is_disabled": 0, "type": "electric_scooter", "lon": -77.02468516666667, "bike_id": "05429c72b8098017dbd8d0fc53e88442", "fusion_lat": 0.0, "name": "05429c72b8098017dbd8d0fc53e88442", "is_reserved": 0, "rental_uris": {"android": "https://dc.lft.to/lastmile_qr_scan", "ios": "https://dc.lft.to/lastmile_qr_scan"}, "fusion_lon": 0.0}, {"lat": 38.88050883333333, "is_disabled": 0, "type": "electric_scooter", "lon": -77.0177065, "bike_id": "a56909920f91428877d82e36358e551e", "fusion_lat": 0.0, "name": "a56909920f91428877d82e36358e551e", "is_reserved": 0, "rental_uris": {"android": "https://dc.lft.to/lastmile_qr_scan", "ios": "https://dc.lft.to/lastmile_qr_scan"}, "fusion_lon": 0.0}, {"lat": 38.90238383333333, "is_disabled": 0, "type": "electric_scooter", "lon": -77.01634016666667, "bike_id": "cdce7a5ad41a95a6f0e0c7408503d2f2", "fusion_lat": 0.0, "name": "cdce7a5ad41a95a6f0e0c7408503d2f2", "is_reserved": 0, "rental_uris": {"android": "https://dc.lft.to/lastmile_qr_scan", "ios": "https://dc.lft.to/lastmile_qr_scan"}, "fusion_lon": 0.0}, {"lat": 38.86346483333333, "is_disabled": 0, "type": "electric_scooter", "lon": -76.98998083333333, "bike_id": "66fc48433d4ffd3adfaaa6df93d65ac0", "fusion_lat": 0.0, "name": "66fc48433d4ffd3adfaaa6df93d65ac0", "is_reserved": 0, "rental_uris": {"android": "https://dc.lft.to/lastmile_qr_scan", "ios": "https://dc.lft.to/lastmile_qr_scan"}, "fusion_lon": 0.0}, {"lat": 38.842935, "is_disabled": 0, "type": "electric_scooter", "lon": -76.99947533333334, "bike_id": "0c317869f2fc05cf61445d581b376322", "fusion_lat": 0.0, "name": "0c317869f2fc05cf61445d581b376322", "is_reserved": 0, "rental_uris": {"android": "https://dc.lft.to/lastmile_qr_scan", "ios": "https://dc.lft.to/lastmile_qr_scan"}, "fusion_lon": 0.0}, {"lat": 38.9319355, "is_disabled": 0, "type": "electric_scooter", "lon": -77.0256575, "bike_id": "7fcd9b03826055b6012fa8d889cfe4a3", "fusion_lat": 0.0, "name": "7fcd9b03826055b6012fa8d889cfe4a3", "is_reserved": 0, "rental_uris": {"android": "https://dc.lft.to/lastmile_qr_scan", "ios": "https://dc.lft.to/lastmile_qr_scan"}, "fusion_lon": 0.0}, {"lat": 38.95662733333333, "is_disabled": 0, "type": "electric_bike", "lon": -77.0115845, "bike_id": "c462595b3236721391e1a36c8402a911", "fusion_lat": 0.0, "name": "c462595b3236721391e1a36c8402a911", "is_reserved": 0, "rental_uris": {"android": "https://dc.lft.to/lastmile_qr_scan", "ios": "https://dc.lft.to/lastmile_qr_scan"}, "fusion_lon": 0.0}, {"lat": 38.89627183333333, "is_disabled": 0, "type": "electric_scooter", "lon": -77.03303066666666, "bike_id": "613f425a86a6ce7efb9e6f7006b17a88", "fusion_lat": 0.0, "name": "613f425a86a6ce7efb9e6f7006b17a88", "is_reserved": 0, "rental_uris": {"android": "https://dc.lft.to/lastmile_qr_scan", "ios": "https://dc.lft.to/lastmile_qr_scan"}, "fusion_lon": 0.0}, {"lat": 38.897155166666664, "is_disabled": 0, "type": "electric_scooter", "lon": -77.027926, "bike_id": "3cca8690789c3fcccddc6008ce6e8a86", "fusion_lat": 0.0, "name": "3cca8690789c3fcccddc6008ce6e8a86", "is_reserved": 0, "rental_uris": {"android": "https://dc.lft.to/lastmile_qr_scan", "ios": "https://dc.lft.to/lastmile_qr_scan"}, "fusion_lon": 0.0}, {"lat": 38.8836935, "is_disabled": 0, "type": "electric_scooter", "lon": -76.99506, "bike_id": "9b5408fa4bca2d3493a8c059b1287d7e", "fusion_lat": 0.0, "name": "9b5408fa4bca2d3493a8c059b1287d7e", "is_reserved": 0, "rental_uris": {"android": "https://dc.lft.to/lastmile_qr_scan", "ios": "https://dc.lft.to/lastmile_qr_scan"}, "fusion_lon": 0.0}, {"lat": 38.88799183333333, "is_disabled": 0, "type": "electric_scooter", "lon": -76.93362283333333, "bike_id": "05bf8a4c4d9f9f99cbb86bb3c4234493", "fusion_lat": 0.0, "name": "05bf8a4c4d9f9f99cbb86bb3c4234493", "is_reserved": 0, "rental_uris": {"android": "https://dc.lft.to/lastmile_qr_scan", "ios": "https://dc.lft.to/lastmile_qr_scan"}, "fusion_lon": 0.0}, {"lat": 38.96610016666666, "is_disabled": 0, "type": "electric_scooter", "lon": -77.02322683333334, "bike_id": "44c21e361ea9f4f88b445fcb7b398eca", "fusion_lat": 0.0, "name": "44c21e361ea9f4f88b445fcb7b398eca", "is_reserved": 0, "rental_uris": {"android": "https://dc.lft.to/lastmile_qr_scan", "ios": "https://dc.lft.to/lastmile_qr_scan"}, "fusion_lon": 0.0}, {"lat": 38.827830666666664, "is_disabled": 0, "type": "electric_bike", "lon": -77.0091595, "bike_id": "24fb59a2d5c3dc050c51c6105c20ba3e", "fusion_lat": 0.0, "name": "24fb59a2d5c3dc050c51c6105c20ba3e", "is_reserved": 0, "rental_uris": {"android": "https://dc.lft.to/lastmile_qr_scan", "ios": "https://dc.lft.to/lastmile_qr_scan"}, "fusion_lon": 0.0}, {"lat": 38.8809155, "is_disabled": 0, "type": "electric_scooter", "lon": -76.99245916666666, "bike_id": "9652c74544bf2a6a7a30489b77f9ab7d", "fusion_lat": 0.0, "name": "9652c74544bf2a6a7a30489b77f9ab7d", "is_reserved": 0, "rental_uris": {"android": "https://dc.lft.to/lastmile_qr_scan", "ios": "https://dc.lft.to/lastmile_qr_scan"}, "fusion_lon": 0.0}, {"lat": 38.92253616666667, "is_disabled": 0, "type": "electric_scooter", "lon": -77.0197295, "bike_id": "1c746917f233a53ea295c8ac9f3c4970", "fusion_lat": 0.0, "name": "1c746917f233a53ea295c8ac9f3c4970", "is_reserved": 0, "rental_uris": {"android": "https://dc.lft.to/lastmile_qr_scan", "ios": "https://dc.lft.to/lastmile_qr_scan"}, "fusion_lon": 0.0}, {"lat": 38.93888966666667, "is_disabled": 0, "type": "electric_scooter", "lon": -77.03337083333334, "bike_id": "1f82c818a702735506101a76a3a9e500", "fusion_lat": 0.0, "name": "1f82c818a702735506101a76a3a9e500", "is_reserved": 0, "rental_uris": {"android": "https://dc.lft.to/lastmile_qr_scan", "ios": "https://dc.lft.to/lastmile_qr_scan"}, "fusion_lon": 0.0}, {"lat": 38.900636166666665, "is_disabled": 0, "type": "electric_scooter", "lon": -77.0075315, "bike_id": "0c84e649e92ebb6390b5af78238d536b", "fusion_lat": 0.0, "name": "0c84e649e92ebb6390b5af78238d536b", "is_reserved": 0, "rental_uris": {"android": "https://dc.lft.to/lastmile_qr_scan", "ios": "https://dc.lft.to/lastmile_qr_scan"}, "fusion_lon": 0.0}, {"lat": 38.9272115, "is_disabled": 0, "type": "electric_bike", "lon": -77.01343216666666, "bike_id": "7aae1b81308a6200241799cc8599c1fa", "fusion_lat": 0.0, "name": "7aae1b81308a6200241799cc8599c1fa", "is_reserved": 0, "rental_uris": {"android": "https://dc.lft.to/lastmile_qr_scan", "ios": "https://dc.lft.to/lastmile_qr_scan"}, "fusion_lon": 0.0}, {"lat": 38.9842675, "is_disabled": 0, "type": "electric_scooter", "lon": -77.02671166666667, "bike_id": "0f7700bf5116e3387dd3250d1c322397", "fusion_lat": 0.0, "name": "0f7700bf5116e3387dd3250d1c322397", "is_reserved": 0, "rental_uris": {"android": "https://dc.lft.to/lastmile_qr_scan", "ios": "https://dc.lft.to/lastmile_qr_scan"}, "fusion_lon": 0.0}, {"lat": 38.90971733333333, "is_disabled": 0, "type": "electric_scooter", "lon": -77.04804283333333, "bike_id": "cbeae226bdfb29d1b0147fff51e53d44", "fusion_lat": 0.0, "name": "cbeae226bdfb29d1b0147fff51e53d44", "is_reserved": 0, "rental_uris": {"android": "https://dc.lft.to/lastmile_qr_scan", "ios": "https://dc.lft.to/lastmile_qr_scan"}, "fusion_lon": 0.0}, {"lat": 38.90628533333334, "is_disabled": 0, "type": "electric_scooter", "lon": -77.0137145, "bike_id": "c6a0e9a7382fbf57d472932008490317", "fusion_lat": 0.0, "name": "c6a0e9a7382fbf57d472932008490317", "is_reserved": 0, "rental_uris": {"android": "https://dc.lft.to/lastmile_qr_scan", "ios": "https://dc.lft.to/lastmile_qr_scan"}, "fusion_lon": 0.0}, {"lat": 38.93202216666667, "is_disabled": 0, "type": "electric_bike", "lon": -77.03876133333333, "bike_id": "eb734f6da923e9a5f6a534b8ecd59590", "fusion_lat": 0.0, "name": "eb734f6da923e9a5f6a534b8ecd59590", "is_reserved": 0, "rental_uris": {"android": "https://dc.lft.to/lastmile_qr_scan", "ios": "https://dc.lft.to/lastmile_qr_scan"}, "fusion_lon": 0.0}, {"lat": 38.940372333333336, "is_disabled": 0, "type": "electric_scooter", "lon": -77.0290685, "bike_id": "9331a49c89a966da47cc819cc3b3a3fc", "fusion_lat": 0.0, "name": "9331a49c89a966da47cc819cc3b3a3fc", "is_reserved": 0, "rental_uris": {"android": "https://dc.lft.to/lastmile_qr_scan", "ios": "https://dc.lft.to/lastmile_qr_scan"}, "fusion_lon": 0.0}, {"lat": 38.812209833333334, "is_disabled": 0, "type": "electric_bike", "lon": -77.10982333333334, "bike_id": "6d7931d0fb4840f5c241fe5fb9db7dc9", "fusion_lat": 0.0, "name": "6d7931d0fb4840f5c241fe5fb9db7dc9", "is_reserved": 0, "rental_uris": {"android": "https://dc.lft.to/lastmile_qr_scan", "ios": "https://dc.lft.to/lastmile_qr_scan"}, "fusion_lon": 0.0}, {"lat": 38.907721, "is_disabled": 0, "type": "electric_scooter", "lon": -77.00108566666667, "bike_id": "73579bb572af2e66276d859ae9af5646", "fusion_lat": 0.0, "name": "73579bb572af2e66276d859ae9af5646", "is_reserved": 0, "rental_uris": {"android": "https://dc.lft.to/lastmile_qr_scan", "ios": "https://dc.lft.to/lastmile_qr_scan"}, "fusion_lon": 0.0}, {"lat": 38.87678833333333, "is_disabled": 0, "type": "electric_scooter", "lon": -77.00403033333333, "bike_id": "fc03b196f58a8b74420c1563753b0091", "fusion_lat": 0.0, "name": "fc03b196f58a8b74420c1563753b0091", "is_reserved": 0, "rental_uris": {"android": "https://dc.lft.to/lastmile_qr_scan", "ios": "https://dc.lft.to/lastmile_qr_scan"}, "fusion_lon": 0.0}, {"lat": 38.86620883333333, "is_disabled": 0, "type": "electric_scooter", "lon": -76.98666033333333, "bike_id": "00c9f4d049d93a75dcb3bc94a8dc4a93", "fusion_lat": 0.0, "name": "00c9f4d049d93a75dcb3bc94a8dc4a93", "is_reserved": 0, "rental_uris": {"android": "https://dc.lft.to/lastmile_qr_scan", "ios": "https://dc.lft.to/lastmile_qr_scan"}, "fusion_lon": 0.0}, {"lat": 38.84592083333333, "is_disabled": 0, "type": "electric_bike", "lon": -77.07680266666667, "bike_id": "261d530018f0e5f437ae6a1c4797d959", "fusion_lat": 0.0, "name": "261d530018f0e5f437ae6a1c4797d959", "is_reserved": 0, "rental_uris": {"android": "https://dc.lft.to/lastmile_qr_scan", "ios": "https://dc.lft.to/lastmile_qr_scan"}, "fusion_lon": 0.0}, {"lat": 38.880483166666664, "is_disabled": 0, "type": "electric_scooter", "lon": -77.0056305, "bike_id": "601a02a0f93f868b54a7b320151b26ba", "fusion_lat": 0.0, "name": "601a02a0f93f868b54a7b320151b26ba", "is_reserved": 0, "rental_uris": {"android": "https://dc.lft.to/lastmile_qr_scan", "ios": "https://dc.lft.to/lastmile_qr_scan"}, "fusion_lon": 0.0}, {"lat": 38.90837583333333, "is_disabled": 0, "type": "electric_scooter", "lon": -77.02952633333334, "bike_id": "71ba3eb37e767de11708a2a0ac4074b8", "fusion_lat": 0.0, "name": "71ba3eb37e767de11708a2a0ac4074b8", "is_reserved": 0, "rental_uris": {"android": "https://dc.lft.to/lastmile_qr_scan", "ios": "https://dc.lft.to/lastmile_qr_scan"}, "fusion_lon": 0.0}, {"lat": 38.9230895, "is_disabled": 0, "type": "electric_scooter", "lon": -77.039555, "bike_id": "e2d3db7df34aac1f230f8fc9edc25faa", "fusion_lat": 0.0, "name": "e2d3db7df34aac1f230f8fc9edc25faa", "is_reserved": 0, "rental_uris": {"android": "https://dc.lft.to/lastmile_qr_scan", "ios": "https://dc.lft.to/lastmile_qr_scan"}, "fusion_lon": 0.0}, {"lat": 38.92426433333333, "is_disabled": 0, "type": "electric_scooter", "lon": -77.042438, "bike_id": "19f86bd8e56c1d7b1f2cedad98c78991", "fusion_lat": 0.0, "name": "19f86bd8e56c1d7b1f2cedad98c78991", "is_reserved": 0, "rental_uris": {"android": "https://dc.lft.to/lastmile_qr_scan", "ios": "https://dc.lft.to/lastmile_qr_scan"}, "fusion_lon": 0.0}, {"lat": 38.924873166666664, "is_disabled": 0, "type": "electric_scooter", "lon": -77.05217833333333, "bike_id": "69480be2ed033de0894a1e362ac87960", "fusion_lat": 0.0, "name": "69480be2ed033de0894a1e362ac87960", "is_reserved": 0, "rental_uris": {"android": "https://dc.lft.to/lastmile_qr_scan", "ios": "https://dc.lft.to/lastmile_qr_scan"}, "fusion_lon": 0.0}, {"lat": 38.90571416666667, "is_disabled": 0, "type": "electric_scooter", "lon": -76.98870483333333, "bike_id": "821da77b35a472d44996eff274053c14", "fusion_lat": 0.0, "name": "821da77b35a472d44996eff274053c14", "is_reserved": 0, "rental_uris": {"android": "https://dc.lft.to/lastmile_qr_scan", "ios": "https://dc.lft.to/lastmile_qr_scan"}, "fusion_lon": 0.0}, {"lat": 38.91169083333333, "is_disabled": 0, "type": "electric_scooter", "lon": -77.03865166666667, "bike_id": "6690396e7642ee244d413c705a542210", "fusion_lat": 0.0, "name": "6690396e7642ee244d413c705a542210", "is_reserved": 0, "rental_uris": {"android": "https://dc.lft.to/lastmile_qr_scan", "ios": "https://dc.lft.to/lastmile_qr_scan"}, "fusion_lon": 0.0}, {"lat": 38.899201166666664, "is_disabled": 0, "type": "electric_scooter", "lon": -77.02172783333333, "bike_id": "332ac6054fd74945d6f69602721286c2", "fusion_lat": 0.0, "name": "332ac6054fd74945d6f69602721286c2", "is_reserved": 0, "rental_uris": {"android": "https://dc.lft.to/lastmile_qr_scan", "ios": "https://dc.lft.to/lastmile_qr_scan"}, "fusion_lon": 0.0}, {"lat": 38.86651233333333, "is_disabled": 0, "type": "electric_scooter", "lon": -76.98882266666666, "bike_id": "75e623c683e8cfffe88f24a450d6d4f9", "fusion_lat": 0.0, "name": "75e623c683e8cfffe88f24a450d6d4f9", "is_reserved": 0, "rental_uris": {"android": "https://dc.lft.to/lastmile_qr_scan", "ios": "https://dc.lft.to/lastmile_qr_scan"}, "fusion_lon": 0.0}, {"lat": 38.917096666666666, "is_disabled": 0, "type": "electric_scooter", "lon": -77.03856166666667, "bike_id": "4b0da927ca58aaac50d5679ed2dfc4f5", "fusion_lat": 0.0, "name": "4b0da927ca58aaac50d5679ed2dfc4f5", "is_reserved": 0, "rental_uris": {"android": "https://dc.lft.to/lastmile_qr_scan", "ios": "https://dc.lft.to/lastmile_qr_scan"}, "fusion_lon": 0.0}, {"lat": 38.933505833333335, "is_disabled": 0, "type": "electric_scooter", "lon": -77.05866466666667, "bike_id": "4845ead112d8856ecad104e07bc8e803", "fusion_lat": 0.0, "name": "4845ead112d8856ecad104e07bc8e803", "is_reserved": 0, "rental_uris": {"android": "https://dc.lft.to/lastmile_qr_scan", "ios": "https://dc.lft.to/lastmile_qr_scan"}, "fusion_lon": 0.0}, {"lat": 38.897763833333336, "is_disabled": 0, "type": "electric_scooter", "lon": -77.05157766666666, "bike_id": "49f65eacbb6747925627ac89e1c05016", "fusion_lat": 0.0, "name": "49f65eacbb6747925627ac89e1c05016", "is_reserved": 0, "rental_uris": {"android": "https://dc.lft.to/lastmile_qr_scan", "ios": "https://dc.lft.to/lastmile_qr_scan"}, "fusion_lon": 0.0}, {"lat": 38.92299666666667, "is_disabled": 0, "type": "electric_scooter", "lon": -77.04141233333333, "bike_id": "caf88ff7159c084cda41020e0d14d63b", "fusion_lat": 0.0, "name": "caf88ff7159c084cda41020e0d14d63b", "is_reserved": 0, "rental_uris": {"android": "https://dc.lft.to/lastmile_qr_scan", "ios": "https://dc.lft.to/lastmile_qr_scan"}, "fusion_lon": 0.0}, {"lat": 38.8871235, "is_disabled": 0, "type": "electric_scooter", "lon": -77.03211533333334, "bike_id": "697edf42058020052286e761d75b4e97", "fusion_lat": 0.0, "name": "697edf42058020052286e761d75b4e97", "is_reserved": 0, "rental_uris": {"android": "https://dc.lft.to/lastmile_qr_scan", "ios": "https://dc.lft.to/lastmile_qr_scan"}, "fusion_lon": 0.0}, {"lat": 38.94506716666667, "is_disabled": 0, "type": "electric_bike", "lon": -77.00673766666667, "bike_id": "1f2d590ef19607f77967ee58c7c78e4d", "fusion_lat": 0.0, "name": "1f2d590ef19607f77967ee58c7c78e4d", "is_reserved": 0, "rental_uris": {"android": "https://dc.lft.to/lastmile_qr_scan", "ios": "https://dc.lft.to/lastmile_qr_scan"}, "fusion_lon": 0.0}, {"lat": 38.92689433333334, "is_disabled": 0, "type": "electric_scooter", "lon": -77.02574916666667, "bike_id": "32b9510b5fcf6c26e00c2edc8b76e4ce", "fusion_lat": 0.0, "name": "32b9510b5fcf6c26e00c2edc8b76e4ce", "is_reserved": 0, "rental_uris": {"android": "https://dc.lft.to/lastmile_qr_scan", "ios": "https://dc.lft.to/lastmile_qr_scan"}, "fusion_lon": 0.0}, {"lat": 38.928365166666666, "is_disabled": 0, "type": "electric_scooter", "lon": -76.9985, "bike_id": "b3ad3499a95f2722903a39fc99aa8200", "fusion_lat": 0.0, "name": "b3ad3499a95f2722903a39fc99aa8200", "is_reserved": 0, "rental_uris": {"android": "https://dc.lft.to/lastmile_qr_scan", "ios": "https://dc.lft.to/lastmile_qr_scan"}, "fusion_lon": 0.0}, {"lat": 38.93616866666667, "is_disabled": 0, "type": "electric_scooter", "lon": -77.0575405, "bike_id": "cc5e47796ac0823edb6749a3915b7746", "fusion_lat": 0.0, "name": "cc5e47796ac0823edb6749a3915b7746", "is_reserved": 0, "rental_uris": {"android": "https://dc.lft.to/lastmile_qr_scan", "ios": "https://dc.lft.to/lastmile_qr_scan"}, "fusion_lon": 0.0}, {"lat": 38.905703833333334, "is_disabled": 0, "type": "electric_scooter", "lon": -77.03460183333334, "bike_id": "0206729bc14646865652dfa285821c4d", "fusion_lat": 0.0, "name": "0206729bc14646865652dfa285821c4d", "is_reserved": 0, "rental_uris": {"android": "https://dc.lft.to/lastmile_qr_scan", "ios": "https://dc.lft.to/lastmile_qr_scan"}, "fusion_lon": 0.0}, {"lat": 38.899213833333334, "is_disabled": 0, "type": "electric_scooter", "lon": -77.05421516666667, "bike_id": "7eef9fd7b94098073ebae7bb8aa0c960", "fusion_lat": 0.0, "name": "7eef9fd7b94098073ebae7bb8aa0c960", "is_reserved": 0, "rental_uris": {"android": "https://dc.lft.to/lastmile_qr_scan", "ios": "https://dc.lft.to/lastmile_qr_scan"}, "fusion_lon": 0.0}, {"lat": 38.893899166666664, "is_disabled": 0, "type": "electric_scooter", "lon": -77.021595, "bike_id": "4a180ac8eb06d40116849ff7671c4c8f", "fusion_lat": 0.0, "name": "4a180ac8eb06d40116849ff7671c4c8f", "is_reserved": 0, "rental_uris": {"android": "https://dc.lft.to/lastmile_qr_scan", "ios": "https://dc.lft.to/lastmile_qr_scan"}, "fusion_lon": 0.0}, {"lat": 38.94321333333333, "is_disabled": 0, "type": "electric_scooter", "lon": -77.07383383333334, "bike_id": "2c7faa97c9c0ac6ed647479ec161c79a", "fusion_lat": 0.0, "name": "2c7faa97c9c0ac6ed647479ec161c79a", "is_reserved": 0, "rental_uris": {"android": "https://dc.lft.to/lastmile_qr_scan", "ios": "https://dc.lft.to/lastmile_qr_scan"}, "fusion_lon": 0.0}, {"lat": 38.9155945, "is_disabled": 0, "type": "electric_scooter", "lon": -77.0097295, "bike_id": "f29ea7329e54238a4ab25ff557189c37", "fusion_lat": 0.0, "name": "f29ea7329e54238a4ab25ff557189c37", "is_reserved": 0, "rental_uris": {"android": "https://dc.lft.to/lastmile_qr_scan", "ios": "https://dc.lft.to/lastmile_qr_scan"}, "fusion_lon": 0.0}, {"lat": 38.898782, "is_disabled": 0, "type": "electric_scooter", "lon": -77.0295815, "bike_id": "05d09ba91102165256fd3993cf55cd46", "fusion_lat": 0.0, "name": "05d09ba91102165256fd3993cf55cd46", "is_reserved": 0, "rental_uris": {"android": "https://dc.lft.to/lastmile_qr_scan", "ios": "https://dc.lft.to/lastmile_qr_scan"}, "fusion_lon": 0.0}, {"lat": 38.912561, "is_disabled": 0, "type": "electric_scooter", "lon": -77.03500133333333, "bike_id": "4f4765ce2838d546fad000703d2d8780", "fusion_lat": 0.0, "name": "4f4765ce2838d546fad000703d2d8780", "is_reserved": 0, "rental_uris": {"android": "https://dc.lft.to/lastmile_qr_scan", "ios": "https://dc.lft.to/lastmile_qr_scan"}, "fusion_lon": 0.0}, {"lat": 38.908824833333334, "is_disabled": 0, "type": "electric_scooter", "lon": -77.03660933333333, "bike_id": "10d11a7785e5a1918a0b6172e8dec9c7", "fusion_lat": 0.0, "name": "10d11a7785e5a1918a0b6172e8dec9c7", "is_reserved": 0, "rental_uris": {"android": "https://dc.lft.to/lastmile_qr_scan", "ios": "https://dc.lft.to/lastmile_qr_scan"}, "fusion_lon": 0.0}, {"lat": 38.96149183333333, "is_disabled": 0, "type": "electric_bike", "lon": -77.0323055, "bike_id": "e4e1d58606367218f76c872bf6b09df6", "fusion_lat": 0.0, "name": "e4e1d58606367218f76c872bf6b09df6", "is_reserved": 0, "rental_uris": {"android": "https://dc.lft.to/lastmile_qr_scan", "ios": "https://dc.lft.to/lastmile_qr_scan"}, "fusion_lon": 0.0}, {"lat": 38.916877666666664, "is_disabled": 0, "type": "electric_scooter", "lon": -77.02945433333333, "bike_id": "c545d114b10899e4adbcd4821094a9e8", "fusion_lat": 0.0, "name": "c545d114b10899e4adbcd4821094a9e8", "is_reserved": 0, "rental_uris": {"android": "https://dc.lft.to/lastmile_qr_scan", "ios": "https://dc.lft.to/lastmile_qr_scan"}, "fusion_lon": 0.0}, {"lat": 38.922416, "is_disabled": 0, "type": "electric_scooter", "lon": -77.029127, "bike_id": "03623ac3c8ba596cdc1327a4d4dcc906", "fusion_lat": 0.0, "name": "03623ac3c8ba596cdc1327a4d4dcc906", "is_reserved": 0, "rental_uris": {"android": "https://dc.lft.to/lastmile_qr_scan", "ios": "https://dc.lft.to/lastmile_qr_scan"}, "fusion_lon": 0.0}, {"lat": 38.90563066666667, "is_disabled": 0, "type": "electric_scooter", "lon": -77.05697016666667, "bike_id": "7d45eca6e13c0bb92f260931b5c0136e", "fusion_lat": 0.0, "name": "7d45eca6e13c0bb92f260931b5c0136e", "is_reserved": 0, "rental_uris": {"android": "https://dc.lft.to/lastmile_qr_scan", "ios": "https://dc.lft.to/lastmile_qr_scan"}, "fusion_lon": 0.0}, {"lat": 38.961631, "is_disabled": 0, "type": "electric_scooter", "lon": -77.02782266666667, "bike_id": "942323e06819d46ae463643c26129ea6", "fusion_lat": 0.0, "name": "942323e06819d46ae463643c26129ea6", "is_reserved": 0, "rental_uris": {"android": "https://dc.lft.to/lastmile_qr_scan", "ios": "https://dc.lft.to/lastmile_qr_scan"}, "fusion_lon": 0.0}, {"lat": 38.86221116666667, "is_disabled": 0, "type": "electric_scooter", "lon": -76.983686, "bike_id": "3505e3f2eb6cd8fa701107c5fc404f26", "fusion_lat": 0.0, "name": "3505e3f2eb6cd8fa701107c5fc404f26", "is_reserved": 0, "rental_uris": {"android": "https://dc.lft.to/lastmile_qr_scan", "ios": "https://dc.lft.to/lastmile_qr_scan"}, "fusion_lon": 0.0}, {"lat": 38.93570533333333, "is_disabled": 0, "type": "electric_scooter", "lon": -77.037301, "bike_id": "2226f182381db62acfddcb50e214e6a4", "fusion_lat": 0.0, "name": "2226f182381db62acfddcb50e214e6a4", "is_reserved": 0, "rental_uris": {"android": "https://dc.lft.to/lastmile_qr_scan", "ios": "https://dc.lft.to/lastmile_qr_scan"}, "fusion_lon": 0.0}, {"lat": 38.89481516666667, "is_disabled": 0, "type": "electric_scooter", "lon": -76.94953, "bike_id": "c8c37e31ec1838c7d0326d56770ae0c0", "fusion_lat": 0.0, "name": "c8c37e31ec1838c7d0326d56770ae0c0", "is_reserved": 0, "rental_uris": {"android": "https://dc.lft.to/lastmile_qr_scan", "ios": "https://dc.lft.to/lastmile_qr_scan"}, "fusion_lon": 0.0}, {"lat": 38.9101075, "is_disabled": 0, "type": "electric_scooter", "lon": -76.99390033333333, "bike_id": "315169d87ef0781ac68a1e940d994b3e", "fusion_lat": 0.0, "name": "315169d87ef0781ac68a1e940d994b3e", "is_reserved": 0, "rental_uris": {"android": "https://dc.lft.to/lastmile_qr_scan", "ios": "https://dc.lft.to/lastmile_qr_scan"}, "fusion_lon": 0.0}, {"lat": 38.91692883333333, "is_disabled": 0, "type": "electric_scooter", "lon": -77.0298805, "bike_id": "8412b5b80c03ba023dca855eecea56d5", "fusion_lat": 0.0, "name": "8412b5b80c03ba023dca855eecea56d5", "is_reserved": 0, "rental_uris": {"android": "https://dc.lft.to/lastmile_qr_scan", "ios": "https://dc.lft.to/lastmile_qr_scan"}, "fusion_lon": 0.0}, {"lat": 38.882744333333335, "is_disabled": 0, "type": "electric_bike", "lon": -76.93236516666667, "bike_id": "ebea07251dc170d2ea50b7e3900d2a03", "fusion_lat": 0.0, "name": "ebea07251dc170d2ea50b7e3900d2a03", "is_reserved": 0, "rental_uris": {"android": "https://dc.lft.to/lastmile_qr_scan", "ios": "https://dc.lft.to/lastmile_qr_scan"}, "fusion_lon": 0.0}, {"lat": 38.86620716666667, "is_disabled": 0, "type": "electric_scooter", "lon": -76.98662983333334, "bike_id": "2f12e5e466be3b5dfe4bfabc9d90aba1", "fusion_lat": 0.0, "name": "2f12e5e466be3b5dfe4bfabc9d90aba1", "is_reserved": 0, "rental_uris": {"android": "https://dc.lft.to/lastmile_qr_scan", "ios": "https://dc.lft.to/lastmile_qr_scan"}, "fusion_lon": 0.0}, {"lat": 38.903330833333335, "is_disabled": 0, "type": "electric_scooter", "lon": -76.97057, "bike_id": "72f2b0f060f65058d1de00e9cd0493d5", "fusion_lat": 0.0, "name": "72f2b0f060f65058d1de00e9cd0493d5", "is_reserved": 0, "rental_uris": {"android": "https://dc.lft.to/lastmile_qr_scan", "ios": "https://dc.lft.to/lastmile_qr_scan"}, "fusion_lon": 0.0}, {"lat": 38.91988383333333, "is_disabled": 0, "type": "electric_scooter", "lon": -77.02383166666667, "bike_id": "2cb7a8a69c765604c44b8803a83c5f97", "fusion_lat": 0.0, "name": "2cb7a8a69c765604c44b8803a83c5f97", "is_reserved": 0, "rental_uris": {"android": "https://dc.lft.to/lastmile_qr_scan", "ios": "https://dc.lft.to/lastmile_qr_scan"}, "fusion_lon": 0.0}, {"lat": 38.892199833333336, "is_disabled": 0, "type": "electric_scooter", "lon": -77.0486585, "bike_id": "e875ac477e502c90ded75ad7fa9c81b4", "fusion_lat": 0.0, "name": "e875ac477e502c90ded75ad7fa9c81b4", "is_reserved": 0, "rental_uris": {"android": "https://dc.lft.to/lastmile_qr_scan", "ios": "https://dc.lft.to/lastmile_qr_scan"}, "fusion_lon": 0.0}, {"lat": 38.87917066666667, "is_disabled": 0, "type": "electric_scooter", "lon": -77.007083, "bike_id": "1810a30ad1ac9e31d61d82e41755fd06", "fusion_lat": 0.0, "name": "1810a30ad1ac9e31d61d82e41755fd06", "is_reserved": 0, "rental_uris": {"android": "https://dc.lft.to/lastmile_qr_scan", "ios": "https://dc.lft.to/lastmile_qr_scan"}, "fusion_lon": 0.0}, {"lat": 38.93100183333333, "is_disabled": 0, "type": "electric_scooter", "lon": -77.02473116666667, "bike_id": "70c96d5e29065170bc2d8e8c7774687e", "fusion_lat": 0.0, "name": "70c96d5e29065170bc2d8e8c7774687e", "is_reserved": 0, "rental_uris": {"android": "https://dc.lft.to/lastmile_qr_scan", "ios": "https://dc.lft.to/lastmile_qr_scan"}, "fusion_lon": 0.0}, {"lat": 38.916769, "is_disabled": 0, "type": "electric_scooter", "lon": -77.02278766666667, "bike_id": "7bbbcc135bb1897a45d8b6fc66d2b7a7", "fusion_lat": 0.0, "name": "7bbbcc135bb1897a45d8b6fc66d2b7a7", "is_reserved": 0, "rental_uris": {"android": "https://dc.lft.to/lastmile_qr_scan", "ios": "https://dc.lft.to/lastmile_qr_scan"}, "fusion_lon": 0.0}, {"lat": 38.87960283333334, "is_disabled": 0, "type": "electric_scooter", "lon": -76.98334566666666, "bike_id": "3815558e6329c09518d38841509a0be9", "fusion_lat": 0.0, "name": "3815558e6329c09518d38841509a0be9", "is_reserved": 0, "rental_uris": {"android": "https://dc.lft.to/lastmile_qr_scan", "ios": "https://dc.lft.to/lastmile_qr_scan"}, "fusion_lon": 0.0}, {"lat": 38.893698, "is_disabled": 0, "type": "electric_scooter", "lon": -76.949984, "bike_id": "1886d01feffa9bcf1e8edee521bdd15d", "fusion_lat": 0.0, "name": "1886d01feffa9bcf1e8edee521bdd15d", "is_reserved": 0, "rental_uris": {"android": "https://dc.lft.to/lastmile_qr_scan", "ios": "https://dc.lft.to/lastmile_qr_scan"}, "fusion_lon": 0.0}, {"lat": 38.899621, "is_disabled": 0, "type": "electric_scooter", "lon": -77.016016, "bike_id": "40ea8526d64b62eb033cf4a0b28314ed", "fusion_lat": 0.0, "name": "40ea8526d64b62eb033cf4a0b28314ed", "is_reserved": 0, "rental_uris": {"android": "https://dc.lft.to/lastmile_qr_scan", "ios": "https://dc.lft.to/lastmile_qr_scan"}, "fusion_lon": 0.0}, {"lat": 38.902393333333336, "is_disabled": 0, "type": "electric_scooter", "lon": -77.00199133333334, "bike_id": "7c9fec95ecb2aeb35fbafb39c4bf6d38", "fusion_lat": 0.0, "name": "7c9fec95ecb2aeb35fbafb39c4bf6d38", "is_reserved": 0, "rental_uris": {"android": "https://dc.lft.to/lastmile_qr_scan", "ios": "https://dc.lft.to/lastmile_qr_scan"}, "fusion_lon": 0.0}, {"lat": 38.88082, "is_disabled": 0, "type": "electric_scooter", "lon": -76.92717066666667, "bike_id": "0e2ef289fa79397c2cdc4dbf525ca134", "fusion_lat": 0.0, "name": "0e2ef289fa79397c2cdc4dbf525ca134", "is_reserved": 0, "rental_uris": {"android": "https://dc.lft.to/lastmile_qr_scan", "ios": "https://dc.lft.to/lastmile_qr_scan"}, "fusion_lon": 0.0}, {"lat": 38.89835133333333, "is_disabled": 0, "type": "electric_scooter", "lon": -77.02531116666667, "bike_id": "2ce92b4bc5f168b1f1126e59e0056ef4", "fusion_lat": 0.0, "name": "2ce92b4bc5f168b1f1126e59e0056ef4", "is_reserved": 0, "rental_uris": {"android": "https://dc.lft.to/lastmile_qr_scan", "ios": "https://dc.lft.to/lastmile_qr_scan"}, "fusion_lon": 0.0}, {"lat": 38.924973, "is_disabled": 0, "type": "electric_scooter", "lon": -77.00889683333334, "bike_id": "3fc0b626dabf0ef564a11e0cc416c49b", "fusion_lat": 0.0, "name": "3fc0b626dabf0ef564a11e0cc416c49b", "is_reserved": 0, "rental_uris": {"android": "https://dc.lft.to/lastmile_qr_scan", "ios": "https://dc.lft.to/lastmile_qr_scan"}, "fusion_lon": 0.0}, {"lat": 38.839316, "is_disabled": 0, "type": "electric_bike", "lon": -77.07906366666667, "bike_id": "0b1090054917d48783a6995e5278e72d", "fusion_lat": 0.0, "name": "0b1090054917d48783a6995e5278e72d", "is_reserved": 0, "rental_uris": {"android": "https://dc.lft.to/lastmile_qr_scan", "ios": "https://dc.lft.to/lastmile_qr_scan"}, "fusion_lon": 0.0}, {"lat": 38.9049985, "is_disabled": 0, "type": "electric_scooter", "lon": -77.0432945, "bike_id": "87364275fc14adb61f4edd08423fc789", "fusion_lat": 0.0, "name": "87364275fc14adb61f4edd08423fc789", "is_reserved": 0, "rental_uris": {"android": "https://dc.lft.to/lastmile_qr_scan", "ios": "https://dc.lft.to/lastmile_qr_scan"}, "fusion_lon": 0.0}, {"lat": 38.90258266666667, "is_disabled": 0, "type": "electric_bike", "lon": -77.0057235, "bike_id": "f21b82656aa17a45552c988df0f5a2eb", "fusion_lat": 0.0, "name": "f21b82656aa17a45552c988df0f5a2eb", "is_reserved": 0, "rental_uris": {"android": "https://dc.lft.to/lastmile_qr_scan", "ios": "https://dc.lft.to/lastmile_qr_scan"}, "fusion_lon": 0.0}, {"lat": 38.92602433333333, "is_disabled": 0, "type": "electric_scooter", "lon": -77.02441483333334, "bike_id": "c5437137f700ebb15fcf17fecd962b20", "fusion_lat": 0.0, "name": "c5437137f700ebb15fcf17fecd962b20", "is_reserved": 0, "rental_uris": {"android": "https://dc.lft.to/lastmile_qr_scan", "ios": "https://dc.lft.to/lastmile_qr_scan"}, "fusion_lon": 0.0}, {"lat": 38.98367366666667, "is_disabled": 0, "type": "electric_scooter", "lon": -77.02646916666667, "bike_id": "6497c3a3cb5e5c181ae2242866099e36", "fusion_lat": 0.0, "name": "6497c3a3cb5e5c181ae2242866099e36", "is_reserved": 0, "rental_uris": {"android": "https://dc.lft.to/lastmile_qr_scan", "ios": "https://dc.lft.to/lastmile_qr_scan"}, "fusion_lon": 0.0}, {"lat": 38.87639583333333, "is_disabled": 0, "type": "electric_scooter", "lon": -76.99319783333334, "bike_id": "0aac1aa8a78b52162abac719a68626a1", "fusion_lat": 0.0, "name": "0aac1aa8a78b52162abac719a68626a1", "is_reserved": 0, "rental_uris": {"android": "https://dc.lft.to/lastmile_qr_scan", "ios": "https://dc.lft.to/lastmile_qr_scan"}, "fusion_lon": 0.0}, {"lat": 38.927318166666666, "is_disabled": 0, "type": "electric_bike", "lon": -76.9936205, "bike_id": "da88c2465330b3c7a15d1437585b8e8e", "fusion_lat": 0.0, "name": "da88c2465330b3c7a15d1437585b8e8e", "is_reserved": 0, "rental_uris": {"android": "https://dc.lft.to/lastmile_qr_scan", "ios": "https://dc.lft.to/lastmile_qr_scan"}, "fusion_lon": 0.0}, {"lat": 38.8960225, "is_disabled": 0, "type": "electric_scooter", "lon": -77.0291315, "bike_id": "9a00ab5de2b52307036d5dccd0303882", "fusion_lat": 0.0, "name": "9a00ab5de2b52307036d5dccd0303882", "is_reserved": 0, "rental_uris": {"android": "https://dc.lft.to/lastmile_qr_scan", "ios": "https://dc.lft.to/lastmile_qr_scan"}, "fusion_lon": 0.0}, {"lat": 38.928582666666664, "is_disabled": 0, "type": "electric_bike", "lon": -77.22202883333334, "bike_id": "20366428fcd6f8258a20712d1c4010a5", "fusion_lat": 0.0, "name": "20366428fcd6f8258a20712d1c4010a5", "is_reserved": 0, "rental_uris": {"android": "https://dc.lft.to/lastmile_qr_scan", "ios": "https://dc.lft.to/lastmile_qr_scan"}, "fusion_lon": 0.0}, {"lat": 38.906516333333336, "is_disabled": 0, "type": "electric_scooter", "lon": -77.0086275, "bike_id": "5c1e5fa3c19ed9a2d7a307312acc71c2", "fusion_lat": 0.0, "name": "5c1e5fa3c19ed9a2d7a307312acc71c2", "is_reserved": 0, "rental_uris": {"android": "https://dc.lft.to/lastmile_qr_scan", "ios": "https://dc.lft.to/lastmile_qr_scan"}, "fusion_lon": 0.0}, {"lat": 38.903665333333336, "is_disabled": 0, "type": "electric_scooter", "lon": -77.01767933333333, "bike_id": "369f6fb8fed682ca4e59782a92c05b7a", "fusion_lat": 0.0, "name": "369f6fb8fed682ca4e59782a92c05b7a", "is_reserved": 0, "rental_uris": {"android": "https://dc.lft.to/lastmile_qr_scan", "ios": "https://dc.lft.to/lastmile_qr_scan"}, "fusion_lon": 0.0}, {"lat": 38.9234095, "is_disabled": 0, "type": "electric_scooter", "lon": -77.05111616666667, "bike_id": "7c01073a199f204d3bd1a509645c83f5", "fusion_lat": 0.0, "name": "7c01073a199f204d3bd1a509645c83f5", "is_reserved": 0, "rental_uris": {"android": "https://dc.lft.to/lastmile_qr_scan", "ios": "https://dc.lft.to/lastmile_qr_scan"}, "fusion_lon": 0.0}, {"lat": 38.91772783333333, "is_disabled": 0, "type": "electric_scooter", "lon": -77.02877316666667, "bike_id": "6e20d3d56ae23bfc9767e5e5909f7eac", "fusion_lat": 0.0, "name": "6e20d3d56ae23bfc9767e5e5909f7eac", "is_reserved": 0, "rental_uris": {"android": "https://dc.lft.to/lastmile_qr_scan", "ios": "https://dc.lft.to/lastmile_qr_scan"}, "fusion_lon": 0.0}, {"lat": 38.95921233333333, "is_disabled": 0, "type": "electric_bike", "lon": -77.03119383333333, "bike_id": "1714ff8faeaabf72c71a28474c21a882", "fusion_lat": 0.0, "name": "1714ff8faeaabf72c71a28474c21a882", "is_reserved": 0, "rental_uris": {"android": "https://dc.lft.to/lastmile_qr_scan", "ios": "https://dc.lft.to/lastmile_qr_scan"}, "fusion_lon": 0.0}, {"lat": 38.965008166666664, "is_disabled": 0, "type": "electric_bike", "lon": -77.0282445, "bike_id": "5776856e01f184fe4a47865788d6e0b6", "fusion_lat": 0.0, "name": "5776856e01f184fe4a47865788d6e0b6", "is_reserved": 0, "rental_uris": {"android": "https://dc.lft.to/lastmile_qr_scan", "ios": "https://dc.lft.to/lastmile_qr_scan"}, "fusion_lon": 0.0}, {"lat": 39.0885575, "is_disabled": 0, "type": "electric_bike", "lon": -77.17843583333334, "bike_id": "b2d488ec443340abdee09211b78daba9", "fusion_lat": 0.0, "name": "b2d488ec443340abdee09211b78daba9", "is_reserved": 0, "rental_uris": {"android": "https://dc.lft.to/lastmile_qr_scan", "ios": "https://dc.lft.to/lastmile_qr_scan"}, "fusion_lon": 0.0}, {"lat": 38.87880116666667, "is_disabled": 0, "type": "electric_scooter", "lon": -77.022791, "bike_id": "7f3d89b7d6016aff69c3b2327b0dcdb0", "fusion_lat": 0.0, "name": "7f3d89b7d6016aff69c3b2327b0dcdb0", "is_reserved": 0, "rental_uris": {"android": "https://dc.lft.to/lastmile_qr_scan", "ios": "https://dc.lft.to/lastmile_qr_scan"}, "fusion_lon": 0.0}, {"lat": 38.939856666666664, "is_disabled": 0, "type": "electric_scooter", "lon": -77.03265766666667, "bike_id": "afe0737b0dfde28df7ddaa42c5576f8d", "fusion_lat": 0.0, "name": "afe0737b0dfde28df7ddaa42c5576f8d", "is_reserved": 0, "rental_uris": {"android": "https://dc.lft.to/lastmile_qr_scan", "ios": "https://dc.lft.to/lastmile_qr_scan"}, "fusion_lon": 0.0}, {"lat": 38.924781, "is_disabled": 0, "type": "electric_scooter", "lon": -77.02628483333334, "bike_id": "2cdb9af972b937ef4deabd5b566effea", "fusion_lat": 0.0, "name": "2cdb9af972b937ef4deabd5b566effea", "is_reserved": 0, "rental_uris": {"android": "https://dc.lft.to/lastmile_qr_scan", "ios": "https://dc.lft.to/lastmile_qr_scan"}, "fusion_lon": 0.0}, {"lat": 38.87682483333333, "is_disabled": 0, "type": "electric_scooter", "lon": -77.01788133333334, "bike_id": "2e57c1791f02a4161793a5a87e8e368b", "fusion_lat": 0.0, "name": "2e57c1791f02a4161793a5a87e8e368b", "is_reserved": 0, "rental_uris": {"android": "https://dc.lft.to/lastmile_qr_scan", "ios": "https://dc.lft.to/lastmile_qr_scan"}, "fusion_lon": 0.0}, {"lat": 38.91692416666667, "is_disabled": 0, "type": "electric_scooter", "lon": -77.0459545, "bike_id": "8078d3a5a6be93c43a7dfdbdf8816844", "fusion_lat": 0.0, "name": "8078d3a5a6be93c43a7dfdbdf8816844", "is_reserved": 0, "rental_uris": {"android": "https://dc.lft.to/lastmile_qr_scan", "ios": "https://dc.lft.to/lastmile_qr_scan"}, "fusion_lon": 0.0}, {"lat": 38.93264, "is_disabled": 0, "type": "electric_scooter", "lon": -77.03263933333334, "bike_id": "5e29cf65f3d1e289ae98c1f1706ebf2a", "fusion_lat": 0.0, "name": "5e29cf65f3d1e289ae98c1f1706ebf2a", "is_reserved": 0, "rental_uris": {"android": "https://dc.lft.to/lastmile_qr_scan", "ios": "https://dc.lft.to/lastmile_qr_scan"}, "fusion_lon": 0.0}, {"lat": 38.867179666666665, "is_disabled": 0, "type": "electric_scooter", "lon": -77.01015383333333, "bike_id": "61dcabb5558b9417a9abfb986bd7a36a", "fusion_lat": 0.0, "name": "61dcabb5558b9417a9abfb986bd7a36a", "is_reserved": 0, "rental_uris": {"android": "https://dc.lft.to/lastmile_qr_scan", "ios": "https://dc.lft.to/lastmile_qr_scan"}, "fusion_lon": 0.0}, {"lat": 38.9322275, "is_disabled": 0, "type": "electric_scooter", "lon": -77.038657, "bike_id": "6a02e9479229f0cf559b424a642ca78d", "fusion_lat": 0.0, "name": "6a02e9479229f0cf559b424a642ca78d", "is_reserved": 0, "rental_uris": {"android": "https://dc.lft.to/lastmile_qr_scan", "ios": "https://dc.lft.to/lastmile_qr_scan"}, "fusion_lon": 0.0}, {"lat": 38.939885333333336, "is_disabled": 0, "type": "electric_scooter", "lon": -77.028872, "bike_id": "d35279a6e15cfc5baca2ea03eb6a895f", "fusion_lat": 0.0, "name": "d35279a6e15cfc5baca2ea03eb6a895f", "is_reserved": 0, "rental_uris": {"android": "https://dc.lft.to/lastmile_qr_scan", "ios": "https://dc.lft.to/lastmile_qr_scan"}, "fusion_lon": 0.0}, {"lat": 38.9236345, "is_disabled": 0, "type": "electric_scooter", "lon": -77.05099333333334, "bike_id": "da5e75690ca1c98370249c54dad5649e", "fusion_lat": 0.0, "name": "da5e75690ca1c98370249c54dad5649e", "is_reserved": 0, "rental_uris": {"android": "https://dc.lft.to/lastmile_qr_scan", "ios": "https://dc.lft.to/lastmile_qr_scan"}, "fusion_lon": 0.0}, {"lat": 38.857911666666666, "is_disabled": 0, "type": "electric_bike", "lon": -77.09964, "bike_id": "a11878f8e9891ff201856da522555056", "fusion_lat": 0.0, "name": "a11878f8e9891ff201856da522555056", "is_reserved": 0, "rental_uris": {"android": "https://dc.lft.to/lastmile_qr_scan", "ios": "https://dc.lft.to/lastmile_qr_scan"}, "fusion_lon": 0.0}, {"lat": 38.9168795, "is_disabled": 0, "type": "electric_scooter", "lon": -77.022984, "bike_id": "ae8e9338470450aad21dc7f18ab902c0", "fusion_lat": 0.0, "name": "ae8e9338470450aad21dc7f18ab902c0", "is_reserved": 0, "rental_uris": {"android": "https://dc.lft.to/lastmile_qr_scan", "ios": "https://dc.lft.to/lastmile_qr_scan"}, "fusion_lon": 0.0}, {"lat": 38.946252333333334, "is_disabled": 0, "type": "electric_scooter", "lon": -77.01846116666667, "bike_id": "ce9d60bb5dff6db3a71185731a3d0044", "fusion_lat": 0.0, "name": "ce9d60bb5dff6db3a71185731a3d0044", "is_reserved": 0, "rental_uris": {"android": "https://dc.lft.to/lastmile_qr_scan", "ios": "https://dc.lft.to/lastmile_qr_scan"}, "fusion_lon": 0.0}, {"lat": 38.92202566666667, "is_disabled": 0, "type": "electric_scooter", "lon": -77.04252333333334, "bike_id": "e00a92b8e1cf74693717ef6a26ce6006", "fusion_lat": 0.0, "name": "e00a92b8e1cf74693717ef6a26ce6006", "is_reserved": 0, "rental_uris": {"android": "https://dc.lft.to/lastmile_qr_scan", "ios": "https://dc.lft.to/lastmile_qr_scan"}, "fusion_lon": 0.0}, {"lat": 38.895149333333336, "is_disabled": 0, "type": "electric_scooter", "lon": -77.04358183333333, "bike_id": "aedffae6d223f5f2ca7895fde796bacb", "fusion_lat": 0.0, "name": "aedffae6d223f5f2ca7895fde796bacb", "is_reserved": 0, "rental_uris": {"android": "https://dc.lft.to/lastmile_qr_scan", "ios": "https://dc.lft.to/lastmile_qr_scan"}, "fusion_lon": 0.0}, {"lat": 38.951739, "is_disabled": 0, "type": "electric_scooter", "lon": -77.00984333333334, "bike_id": "daff12b48531614abe7140f5fce9fe3e", "fusion_lat": 0.0, "name": "daff12b48531614abe7140f5fce9fe3e", "is_reserved": 0, "rental_uris": {"android": "https://dc.lft.to/lastmile_qr_scan", "ios": "https://dc.lft.to/lastmile_qr_scan"}, "fusion_lon": 0.0}, {"lat": 38.928961666666666, "is_disabled": 0, "type": "electric_scooter", "lon": -77.0324405, "bike_id": "c44c43af0134a7977c791edb790c2dd3", "fusion_lat": 0.0, "name": "c44c43af0134a7977c791edb790c2dd3", "is_reserved": 0, "rental_uris": {"android": "https://dc.lft.to/lastmile_qr_scan", "ios": "https://dc.lft.to/lastmile_qr_scan"}, "fusion_lon": 0.0}, {"lat": 38.909729666666664, "is_disabled": 0, "type": "electric_scooter", "lon": -77.0451685, "bike_id": "7bae8ec35de7cc34846779a2787d0fe9", "fusion_lat": 0.0, "name": "7bae8ec35de7cc34846779a2787d0fe9", "is_reserved": 0, "rental_uris": {"android": "https://dc.lft.to/lastmile_qr_scan", "ios": "https://dc.lft.to/lastmile_qr_scan"}, "fusion_lon": 0.0}, {"lat": 38.923289, "is_disabled": 0, "type": "electric_scooter", "lon": -77.03909633333333, "bike_id": "f4ebcae7f05e84dee4e50090503d89d5", "fusion_lat": 0.0, "name": "f4ebcae7f05e84dee4e50090503d89d5", "is_reserved": 0, "rental_uris": {"android": "https://dc.lft.to/lastmile_qr_scan", "ios": "https://dc.lft.to/lastmile_qr_scan"}, "fusion_lon": 0.0}, {"lat": 38.90137766666667, "is_disabled": 0, "type": "electric_scooter", "lon": -77.0006725, "bike_id": "008a4c3336b857a11d8baded5bfc38fd", "fusion_lat": 0.0, "name": "008a4c3336b857a11d8baded5bfc38fd", "is_reserved": 0, "rental_uris": {"android": "https://dc.lft.to/lastmile_qr_scan", "ios": "https://dc.lft.to/lastmile_qr_scan"}, "fusion_lon": 0.0}, {"lat": 38.92181883333333, "is_disabled": 0, "type": "electric_scooter", "lon": -77.04230733333333, "bike_id": "7a540385dbc5d46dc51bbdc575669134", "fusion_lat": 0.0, "name": "7a540385dbc5d46dc51bbdc575669134", "is_reserved": 0, "rental_uris": {"android": "https://dc.lft.to/lastmile_qr_scan", "ios": "https://dc.lft.to/lastmile_qr_scan"}, "fusion_lon": 0.0}, {"lat": 38.907261166666665, "is_disabled": 0, "type": "electric_scooter", "lon": -77.0482595, "bike_id": "62b2792abd54563e92f24407a2b7ac59", "fusion_lat": 0.0, "name": "62b2792abd54563e92f24407a2b7ac59", "is_reserved": 0, "rental_uris": {"android": "https://dc.lft.to/lastmile_qr_scan", "ios": "https://dc.lft.to/lastmile_qr_scan"}, "fusion_lon": 0.0}, {"lat": 39.030499, "is_disabled": 0, "type": "electric_bike", "lon": -77.094826, "bike_id": "cf8ed0fbebe01d2a2e8f1c2d64749d3b", "fusion_lat": 0.0, "name": "cf8ed0fbebe01d2a2e8f1c2d64749d3b", "is_reserved": 0, "rental_uris": {"android": "https://dc.lft.to/lastmile_qr_scan", "ios": "https://dc.lft.to/lastmile_qr_scan"}, "fusion_lon": 0.0}, {"lat": 38.9289945, "is_disabled": 0, "type": "electric_scooter", "lon": -77.03242666666667, "bike_id": "edb9b49b713b759accda3fc619311f56", "fusion_lat": 0.0, "name": "edb9b49b713b759accda3fc619311f56", "is_reserved": 0, "rental_uris": {"android": "https://dc.lft.to/lastmile_qr_scan", "ios": "https://dc.lft.to/lastmile_qr_scan"}, "fusion_lon": 0.0}, {"lat": 38.9007495, "is_disabled": 0, "type": "electric_scooter", "lon": -77.0531055, "bike_id": "281dfdf15e3755e785f6cab438d1672c", "fusion_lat": 0.0, "name": "281dfdf15e3755e785f6cab438d1672c", "is_reserved": 0, "rental_uris": {"android": "https://dc.lft.to/lastmile_qr_scan", "ios": "https://dc.lft.to/lastmile_qr_scan"}, "fusion_lon": 0.0}, {"lat": 38.936773333333335, "is_disabled": 0, "type": "electric_scooter", "lon": -77.03576533333333, "bike_id": "2808ab44c8024e16cd6bf3bf3b1fd3cf", "fusion_lat": 0.0, "name": "2808ab44c8024e16cd6bf3bf3b1fd3cf", "is_reserved": 0, "rental_uris": {"android": "https://dc.lft.to/lastmile_qr_scan", "ios": "https://dc.lft.to/lastmile_qr_scan"}, "fusion_lon": 0.0}, {"lat": 38.88705316666667, "is_disabled": 0, "type": "electric_scooter", "lon": -77.00156316666667, "bike_id": "6eb34cce89a74db6515611b9566addbd", "fusion_lat": 0.0, "name": "6eb34cce89a74db6515611b9566addbd", "is_reserved": 0, "rental_uris": {"android": "https://dc.lft.to/lastmile_qr_scan", "ios": "https://dc.lft.to/lastmile_qr_scan"}, "fusion_lon": 0.0}, {"lat": 38.9169365, "is_disabled": 0, "type": "electric_scooter", "lon": -77.00808033333334, "bike_id": "42741ca717576def68aeec111575a90e", "fusion_lat": 0.0, "name": "42741ca717576def68aeec111575a90e", "is_reserved": 0, "rental_uris": {"android": "https://dc.lft.to/lastmile_qr_scan", "ios": "https://dc.lft.to/lastmile_qr_scan"}, "fusion_lon": 0.0}, {"lat": 38.907729333333336, "is_disabled": 0, "type": "electric_scooter", "lon": -77.06809483333333, "bike_id": "a87a474c1eb6d74754ce2d0548f9a78d", "fusion_lat": 0.0, "name": "a87a474c1eb6d74754ce2d0548f9a78d", "is_reserved": 0, "rental_uris": {"android": "https://dc.lft.to/lastmile_qr_scan", "ios": "https://dc.lft.to/lastmile_qr_scan"}, "fusion_lon": 0.0}, {"lat": 38.93211316666667, "is_disabled": 0, "type": "electric_scooter", "lon": -77.03650916666666, "bike_id": "285f98e9e34e343cfe890cc3e55494c2", "fusion_lat": 0.0, "name": "285f98e9e34e343cfe890cc3e55494c2", "is_reserved": 0, "rental_uris": {"android": "https://dc.lft.to/lastmile_qr_scan", "ios": "https://dc.lft.to/lastmile_qr_scan"}, "fusion_lon": 0.0}, {"lat": 38.93059683333333, "is_disabled": 0, "type": "electric_scooter", "lon": -77.04177266666666, "bike_id": "5b6df1747cd191a35aad0515518e8278", "fusion_lat": 0.0, "name": "5b6df1747cd191a35aad0515518e8278", "is_reserved": 0, "rental_uris": {"android": "https://dc.lft.to/lastmile_qr_scan", "ios": "https://dc.lft.to/lastmile_qr_scan"}, "fusion_lon": 0.0},