{"data": {"bikes": [{"name": "dcbe48c165a1d7075173592a0b454ff8", "fusion_lon": 0.0, "lat": 38.90257866666666, "is_reserved": 0, "type": "electric_scooter", "bike_id": "dcbe48c165a1d7075173592a0b454ff8", "is_disabled": 0, "rental_uris": {"android": "https://dc.lft.to/lastmile_qr_scan", "ios": "https://dc.lft.to/lastmile_qr_scan"}, "lon": -77.028224, "fusion_lat": 0.0}, {"name": "5cb270954f78fc9b5b534f1ec5b6f878", "fusion_lon": 0.0, "lat": 38.9036805, "is_reserved": 0, "type": "electric_scooter", "bike_id": "5cb270954f78fc9b5b534f1ec5b6f878", "is_disabled": 0, "rental_uris": {"android": "https://dc.lft.to/lastmile_qr_scan", "ios": "https://dc.lft.to/lastmile_qr_scan"}, "lon": -77.04494866666667, "fusion_lat": 0.0}, {"name": "ce93195c9bba8bc8f6a1f52549b65e97", "fusion_lon": 0.0, "lat": 38.884875, "is_reserved": 0, "type": "electric_bike", "bike_id": "ce93195c9bba8bc8f6a1f52549b65e97", "is_disabled": 0, "rental_uris": {"android": "https://dc.lft.to/lastmile_qr_scan", "ios": "https://dc.lft.to/lastmile_qr_scan"}, "lon": -77.127698, "fusion_lat": 0.0}, {"name": "3d95cb414d9fa045c6e993ad55a32a12", "fusion_lon": 0.0, "lat": 38.90389966666667, "is_reserved": 0, "type": "electric_scooter", "bike_id": "3d95cb414d9fa045c6e993ad55a32a12", "is_disabled": 0, "rental_uris": {"android": "https://dc.lft.to/lastmile_qr_scan", "ios": "https://dc.lft.to/lastmile_qr_scan"}, "lon": -77.02004933333333, "fusion_lat": 0.0}, {"name": "0b94ddb2a136a6e5f1542313e1adcbe2", "fusion_lon": 0.0, "lat": 38.93363, "is_reserved": 0, "type": "electric_scooter", "bike_id": "0b94ddb2a136a6e5f1542313e1adcbe2", "is_disabled": 0, "rental_uris": {"android": "https://dc.lft.to/lastmile_qr_scan", "ios": "https://dc.lft.to/lastmile_qr_scan"}, "lon": -77.08857333333333, "fusion_lat": 0.0}, {"name": "a16889d40082997e75a3290eadae796c", "fusion_lon": 0.0, "lat": 38.893608666666665, "is_reserved": 0, "type": "electric_scooter", "bike_id": "a16889d40082997e75a3290eadae796c", "is_disabled": 0, "rental_uris": {"android": "https://dc.lft.to/lastmile_qr_scan", "ios": "https://dc.lft.to/lastmile_qr_scan"}, "lon": -77.0033495, "fusion_lat": 0.0}, {"name": "623f67d3c46968709cc4e86e528a2bca", "fusion_lon": 0.0, "lat": 38.907821, "is_reserved": 0, "type": "electric_scooter", "bike_id": "623f67d3c46968709cc4e86e528a2bca", "is_disabled": 0, "rental_uris": {"android": "https://dc.lft.to/lastmile_qr_scan", "ios": "https://dc.lft.to/lastmile_qr_scan"}, "lon": -77.01108133333334, "fusion_lat": 0.0}, {"name": "7c9360193ff3b5bff7e6425cc022f6c1", "fusion_lon": 0.0, "lat": 38.91199316666667, "is_reserved": 0, "type": "electric_scooter", "bike_id": "7c9360193ff3b5bff7e6425cc022f6c1", "is_disabled": 0, "rental_uris": {"android": "https://dc.lft.to/lastmile_qr_scan", "ios": "https://dc.lft.to/lastmile_qr_scan"}, "lon": -77.00210316666667, "fusion_lat": 0.0}, {"name": "c02cb5c70cf55d2f51cb3e269a36ebad", "fusion_lon": 0.0, "lat": 38.897665333333336, "is_reserved": 0, "type": "electric_scooter", "bike_id": "c02cb5c70cf55d2f51cb3e269a36ebad", "is_disabled": 0, "rental_uris": {"android": "https://dc.lft.to/lastmile_qr_scan", "ios": "https://dc.lft.to/lastmile_qr_scan"}, "lon": -77.026935, "fusion_lat": 0.0}, {"name": "5cd94bee24e0729cc7c82c5cb1a7d21e", "fusion_lon": 0.0, "lat": 38.9375865, "is_reserved": 0, "type": "electric_scooter", "bike_id": "5cd94bee24e0729cc7c82c5cb1a7d21e", "is_disabled": 0, "rental_uris": {"android": "https://dc.lft.to/lastmile_qr_scan", "ios": "https://dc.lft.to/lastmile_qr_scan"}, "lon": -77.0249795, "fusion_lat": 0.0}, {"name": "dd6131ef8546ee4df98fcefb9977aca7", "fusion_lon": 0.0, "lat": 38.90565183333333, "is_reserved": 0, "type": "electric_scooter", "bike_id": "dd6131ef8546ee4df98fcefb9977aca7", "is_disabled": 0, "rental_uris": {"android": "https://dc.lft.to/lastmile_qr_scan", "ios": "https://dc.lft.to/lastmile_qr_scan"}, "lon": -77.03440566666667, "fusion_lat": 0.0}, {"name": "00ceb917bba072ab8f45d4aee87b7bba", "fusion_lon": 0.0, "lat": 38.9338775, "is_reserved": 0, "type": "electric_scooter", "bike_id": "00ceb917bba072ab8f45d4aee87b7bba", "is_disabled": 0, "rental_uris": {"android": "https://dc.lft.to/lastmile_qr_scan", "ios": "https://dc.lft.to/lastmile_qr_scan"}, "lon": -77.03093283333334, "fusion_lat": 0.0}, {"name": "34a59e62d637daf9170aef5d216a6c32", "fusion_lon": 0.0, "lat": 38.903995, "is_reserved": 0, "type": "electric_bike", "bike_id": "34a59e62d637daf9170aef5d216a6c32", "is_disabled": 0, "rental_uris": {"android": "https://dc.lft.to/lastmile_qr_scan", "ios": "https://dc.lft.to/lastmile_qr_scan"}, "lon": -77.04474483333334, "fusion_lat": 0.0}, {"name": "97350494acef2121c95fa8821c84fc6b", "fusion_lon": 0.0, "lat": 38.90265733333333, "is_reserved": 0, "type": "electric_scooter", "bike_id": "97350494acef2121c95fa8821c84fc6b", "is_disabled": 0, "rental_uris": {"android": "https://dc.lft.to/lastmile_qr_scan", "ios": "https://dc.lft.to/lastmile_qr_scan"}, "lon": -77.0173425, "fusion_lat": 0.0}, {"name": "bd2fc4681c9ac37e153ed6c4985234d9", "fusion_lon": 0.0, "lat": 38.905451166666666, "is_reserved": 0, "type": "electric_scooter", "bike_id": "bd2fc4681c9ac37e153ed6c4985234d9", "is_disabled": 0, "rental_uris": {"android": "https://dc.lft.to/lastmile_qr_scan", "ios": "https://dc.lft.to/lastmile_qr_scan"}, "lon": -77.0417975, "fusion_lat": 0.0}, {"name": "fef745754b447ea510da58cb98d1877e", "fusion_lon": 0.0, "lat": 38.9126345, "is_reserved": 0, "type": "electric_scooter", "bike_id": "fef745754b447ea510da58cb98d1877e", "is_disabled": 0, "rental_uris": {"android": "https://dc.lft.to/lastmile_qr_scan", "ios": "https://dc.lft.to/lastmile_qr_scan"}, "lon": -77.03862066666667, "fusion_lat": 0.0}, {"name": "6fdbf638a9217f550d760866e8d81320", "fusion_lon": 0.0, "lat": 38.903645166666664, "is_reserved": 0, "type": "electric_scooter", "bike_id": "6fdbf638a9217f550d760866e8d81320", "is_disabled": 0, "rental_uris": {"android": "https://dc.lft.to/lastmile_qr_scan", "ios": "https://dc.lft.to/lastmile_qr_scan"}, "lon": -77.04481566666666, "fusion_lat": 0.0}, {"name": "bbfa3eebe6f8f06b79f9b5e465b75988", "fusion_lon": 0.0, "lat": 38.91921833333333, "is_reserved": 0, "type": "electric_scooter", "bike_id": "bbfa3eebe6f8f06b79f9b5e465b75988", "is_disabled": 0, "rental_uris": {"android": "https://dc.lft.to/lastmile_qr_scan", "ios": "https://dc.lft.to/lastmile_qr_scan"}, "lon": -77.031822, "fusion_lat": 0.0}, {"name": "a3d3328aa1bf679c5c7b655079d02125", "fusion_lon": 0.0, "lat": 38.8972135, "is_reserved": 0, "type": "electric_scooter", "bike_id": "a3d3328aa1bf679c5c7b655079d02125", "is_disabled": 0, "rental_uris": {"android": "https://dc.lft.to/lastmile_qr_scan", "ios": "https://dc.lft.to/lastmile_qr_scan"}, "lon": -77.04400216666667, "fusion_lat": 0.0}, {"name": "bd70df99d8049d7733b0edc587f3c7b9", "fusion_lon": 0.0, "lat": 38.944424, "is_reserved": 0, "type": "electric_scooter", "bike_id": "bd70df99d8049d7733b0edc587f3c7b9", "is_disabled": 0, "rental_uris": {"android": "https://dc.lft.to/lastmile_qr_scan", "ios": "https://dc.lft.to/lastmile_qr_scan"}, "lon": -77.063484, "fusion_lat": 0.0}, {"name": "a6f6b5512a37eebe89a1fd775c5e4aa2", "fusion_lon": 0.0, "lat": 38.936216333333334, "is_reserved": 0, "type": "electric_scooter", "bike_id": "a6f6b5512a37eebe89a1fd775c5e4aa2", "is_disabled": 0, "rental_uris": {"android": "https://dc.lft.to/lastmile_qr_scan", "ios": "https://dc.lft.to/lastmile_qr_scan"}, "lon": -77.06760916666667, "fusion_lat": 0.0}, {"name": "d7ee742e75215b141a14be7fbc5906c0", "fusion_lon": 0.0, "lat": 38.93676466666667, "is_reserved": 0, "type": "electric_scooter", "bike_id": "d7ee742e75215b141a14be7fbc5906c0", "is_disabled": 0, "rental_uris": {"android": "https://dc.lft.to/lastmile_qr_scan", "ios": "https://dc.lft.to/lastmile_qr_scan"}, "lon": -77.03588716666667, "fusion_lat": 0.0}, {"name": "a3dd162f9ee2cd9b919179608f2c45dc", "fusion_lon": 0.0, "lat": 38.9174145, "is_reserved": 0, "type": "electric_scooter", "bike_id": "a3dd162f9ee2cd9b919179608f2c45dc", "is_disabled": 0, "rental_uris": {"android": "https://dc.lft.to/lastmile_qr_scan", "ios": "https://dc.lft.to/lastmile_qr_scan"}, "lon": -77.03450633333334, "fusion_lat": 0.0}, {"name": "5408eb04aaf8a3dbd62a10826e959156", "fusion_lon": 0.0, "lat": 38.93684733333333, "is_reserved": 0, "type": "electric_scooter", "bike_id": "5408eb04aaf8a3dbd62a10826e959156", "is_disabled": 0, "rental_uris": {"android": "https://dc.lft.to/lastmile_qr_scan", "ios": "https://dc.lft.to/lastmile_qr_scan"}, "lon": -77.02428766666667, "fusion_lat": 0.0}, {"name": "002067ff753a0b3a3194c398863e4702", "fusion_lon": 0.0, "lat": 38.90265866666667, "is_reserved": 0, "type": "electric_scooter", "bike_id": "002067ff753a0b3a3194c398863e4702", "is_disabled": 0, "rental_uris": {"android": "https://dc.lft.to/lastmile_qr_scan", "ios": "https://dc.lft.to/lastmile_qr_scan"}, "lon": -77.039638, "fusion_lat": 0.0}, {"name": "b8730482e10e0af6a04af7d0a6d4aca4", "fusion_lon": 0.0, "lat": 38.872989, "is_reserved": 0, "type": "electric_bike", "bike_id": "b8730482e10e0af6a04af7d0a6d4aca4", "is_disabled": 0, "rental_uris": {"android": "https://dc.lft.to/lastmile_qr_scan", "ios": "https://dc.lft.to/lastmile_qr_scan"}, "lon": -77.13927783333334, "fusion_lat": 0.0}, {"name": "a94ed54d3c3baf2f337aafacd3c1dd97", "fusion_lon": 0.0, "lat": 38.912765666666665, "is_reserved": 0, "type": "electric_scooter", "bike_id": "a94ed54d3c3baf2f337aafacd3c1dd97", "is_disabled": 0, "rental_uris": {"android": "https://dc.lft.to/lastmile_qr_scan", "ios": "https://dc.lft.to/lastmile_qr_scan"}, "lon": -77.02689466666666, "fusion_lat": 0.0}, {"name": "6ddd697219e11a22a393565d02e0fe0e", "fusion_lon": 0.0, "lat": 38.917720333333335, "is_reserved": 0, "type": "electric_scooter", "bike_id": "6ddd697219e11a22a393565d02e0fe0e", "is_disabled": 0, "rental_uris": {"android": "https://dc.lft.to/lastmile_qr_scan", "ios": "https://dc.lft.to/lastmile_qr_scan"}, "lon": -77.036526, "fusion_lat": 0.0}, {"name": "a67cabdb2b979a7f4b8eaaa8e0786e79", "fusion_lon": 0.0, "lat": 38.91095133333334, "is_reserved": 0, "type": "electric_scooter", "bike_id": "a67cabdb2b979a7f4b8eaaa8e0786e79", "is_disabled": 0, "rental_uris": {"android": "https://dc.lft.to/lastmile_qr_scan", "ios": "https://dc.lft.to/lastmile_qr_scan"}, "lon": -77.044891, "fusion_lat": 0.0}, {"name": "4bb0aed9c03023e09bd5caeb12f5df0b", "fusion_lon": 0.0, "lat": 38.88505283333333, "is_reserved": 0, "type": "electric_scooter", "bike_id": "4bb0aed9c03023e09bd5caeb12f5df0b", "is_disabled": 0, "rental_uris": {"android": "https://dc.lft.to/lastmile_qr_scan", "ios": "https://dc.lft.to/lastmile_qr_scan"}, "lon": -77.00569633333333, "fusion_lat": 0.0}, {"name": "05d0a2f70a6c23c86e0e5ea780878e6e", "fusion_lon": 0.0, "lat": 38.90371783333333, "is_reserved": 0, "type": "electric_scooter", "bike_id": "05d0a2f70a6c23c86e0e5ea780878e6e", "is_disabled": 0, "rental_uris": {"android": "https://dc.lft.to/lastmile_qr_scan", "ios": "https://dc.lft.to/lastmile_qr_scan"}, "lon": -77.03647233333334, "fusion_lat": 0.0}, {"name": "4bba49105200ef29a9a0622892acc570", "fusion_lon": 0.0, "lat": 38.9108495, "is_reserved": 0, "type": "electric_scooter", "bike_id": "4bba49105200ef29a9a0622892acc570", "is_disabled": 0, "rental_uris": {"android": "https://dc.lft.to/lastmile_qr_scan", "ios": "https://dc.lft.to/lastmile_qr_scan"}, "lon": -76.99268366666666, "fusion_lat": 0.0}, {"name": "46980560b6d13b4ee38c599ea3561024", "fusion_lon": 0.0, "lat": 38.801272833333336, "is_reserved": 0, "type": "electric_bike", "bike_id": "46980560b6d13b4ee38c599ea3561024", "is_disabled": 0, "rental_uris": {"android": "https://dc.lft.to/lastmile_qr_scan", "ios": "https://dc.lft.to/lastmile_qr_scan"}, "lon": -77.070521, "fusion_lat": 0.0}, {"name": "cd972513126fa0b781cc774c8aa031ba", "fusion_lon": 0.0, "lat": 38.927684166666666, "is_reserved": 0, "type": "electric_bike", "bike_id": "cd972513126fa0b781cc774c8aa031ba", "is_disabled": 0, "rental_uris": {"android": "https://dc.lft.to/lastmile_qr_scan", "ios": "https://dc.lft.to/lastmile_qr_scan"}, "lon": -77.070117, "fusion_lat": 0.0}, {"name": "7ed9f4ec8f71cd00f0d9d18e6ef8db8c", "fusion_lon": 0.0, "lat": 38.899666, "is_reserved": 0, "type": "electric_bike", "bike_id": "7ed9f4ec8f71cd00f0d9d18e6ef8db8c", "is_disabled": 0, "rental_uris": {"android": "https://dc.lft.to/lastmile_qr_scan", "ios": "https://dc.lft.to/lastmile_qr_scan"}, "lon": -76.98678766666667, "fusion_lat": 0.0}, {"name": "a377697660f2526968e0fcac1d8a7c51", "fusion_lon": 0.0, "lat": 38.83146416666666, "is_reserved": 0, "type": "electric_scooter", "bike_id": "a377697660f2526968e0fcac1d8a7c51", "is_disabled": 0, "rental_uris": {"android": "https://dc.lft.to/lastmile_qr_scan", "ios": "https://dc.lft.to/lastmile_qr_scan"}, "lon": -77.05123933333333, "fusion_lat": 0.0}, {"name": "5b9778a00e268c0bd0704aeccaf83b71", "fusion_lon": 0.0, "lat": 38.92814583333333, "is_reserved": 0, "type": "electric_scooter", "bike_id": "5b9778a00e268c0bd0704aeccaf83b71", "is_disabled": 0, "rental_uris": {"android": "https://dc.lft.to/lastmile_qr_scan", "ios": "https://dc.lft.to/lastmile_qr_scan"}, "lon": -77.014062, "fusion_lat": 0.0}, {"name": "283585e7c0b39fa3a411a95658b5b286", "fusion_lon": 0.0, "lat": 38.91051616666667, "is_reserved": 0, "type": "electric_scooter", "bike_id": "283585e7c0b39fa3a411a95658b5b286", "is_disabled": 0, "rental_uris": {"android": "https://dc.lft.to/lastmile_qr_scan", "ios": "https://dc.lft.to/lastmile_qr_scan"}, "lon": -77.04356516666667, "fusion_lat": 0.0}, {"name": "bc5bfa243f18731ac84c7a8a104021f0", "fusion_lon": 0.0, "lat": 38.936306, "is_reserved": 0, "type": "electric_bike", "bike_id": "bc5bfa243f18731ac84c7a8a104021f0", "is_disabled": 0, "rental_uris": {"android": "https://dc.lft.to/lastmile_qr_scan", "ios": "https://dc.lft.to/lastmile_qr_scan"}, "lon": -77.09017733333333, "fusion_lat": 0.0}, {"name": "5176f5ab9414084bf3ff2a3adad4fa0c", "fusion_lon": 0.0, "lat": 38.879417833333335, "is_reserved": 0, "type": "electric_scooter", "bike_id": "5176f5ab9414084bf3ff2a3adad4fa0c", "is_disabled": 0, "rental_uris": {"android": "https://dc.lft.to/lastmile_qr_scan", "ios": "https://dc.lft.to/lastmile_qr_scan"}, "lon": -77.00064283333333, "fusion_lat": 0.0}, {"name": "21e79821f472117f6eca7082724aae0a", "fusion_lon": 0.0, "lat": 38.90610916666667, "is_reserved": 0, "type": "electric_scooter", "bike_id": "21e79821f472117f6eca7082724aae0a", "is_disabled": 0, "rental_uris": {"android": "https://dc.lft.to/lastmile_qr_scan", "ios": "https://dc.lft.to/lastmile_qr_scan"}, "lon": -77.04122333333333, "fusion_lat": 0.0}, {"name": "fe8f58254999951185366deb9e1fd61f", "fusion_lon": 0.0, "lat": 38.9005655, "is_reserved": 0, "type": "electric_scooter", "bike_id": "fe8f58254999951185366deb9e1fd61f", "is_disabled": 0, "rental_uris": {"android": "https://dc.lft.to/lastmile_qr_scan", "ios": "https://dc.lft.to/lastmile_qr_scan"}, "lon": -76.91935883333333, "fusion_lat": 0.0}, {"name": "4682a82082346f659118c6a9db258f64", "fusion_lon": 0.0, "lat": 38.90961583333333, "is_reserved": 0, "type": "electric_scooter", "bike_id": "4682a82082346f659118c6a9db258f64", "is_disabled": 0, "rental_uris": {"android": "https://dc.lft.to/lastmile_qr_scan", "ios": "https://dc.lft.to/lastmile_qr_scan"}, "lon": -77.02686966666667, "fusion_lat": 0.0}, {"name": "2a741f39373a55f8ca221d7dc1044cb8", "fusion_lon": 0.0, "lat": 38.86387466666667, "is_reserved": 0, "type": "electric_scooter", "bike_id": "2a741f39373a55f8ca221d7dc1044cb8", "is_disabled": 0, "rental_uris": {"android": "https://dc.lft.to/lastmile_qr_scan", "ios": "https://dc.lft.to/lastmile_qr_scan"}, "lon": -76.99044683333334, "fusion_lat": 0.0}, {"name": "95d62ee62e495b48ee38eb5c84166df3", "fusion_lon": 0.0, "lat": 38.914825666666665, "is_reserved": 0, "type": "electric_scooter", "bike_id": "95d62ee62e495b48ee38eb5c84166df3", "is_disabled": 0, "rental_uris": {"android": "https://dc.lft.to/lastmile_qr_scan", "ios": "https://dc.lft.to/lastmile_qr_scan"}, "lon": -77.03186283333334, "fusion_lat": 0.0}, {"name": "3928ba548c77ce7d51e4f5d0c5a15065", "fusion_lon": 0.0, "lat": 38.963052166666664, "is_reserved": 0, "type": "electric_bike", "bike_id": "3928ba548c77ce7d51e4f5d0c5a15065", "is_disabled": 0, "rental_uris": {"android": "https://dc.lft.to/lastmile_qr_scan", "ios": "https://dc.lft.to/lastmile_qr_scan"}, "lon": -77.01108933333333, "fusion_lat": 0.0}, {"name": "ce258daa4e01c8c9470d94c7c8b8cb08", "fusion_lon": 0.0, "lat": 38.9190845, "is_reserved": 0, "type": "electric_scooter", "bike_id": "ce258daa4e01c8c9470d94c7c8b8cb08", "is_disabled": 0, "rental_uris": {"android": "https://dc.lft.to/lastmile_qr_scan", "ios": "https://dc.lft.to/lastmile_qr_scan"}, "lon": -77.01536116666666, "fusion_lat": 0.0}, {"name": "037a336e6efd40c89e57778edd47d7a8", "fusion_lon": 0.0, "lat": 38.9632425, "is_reserved": 0, "type": "electric_bike", "bike_id": "037a336e6efd40c89e57778edd47d7a8", "is_disabled": 0, "rental_uris": {"android": "https://dc.lft.to/lastmile_qr_scan", "ios": "https://dc.lft.to/lastmile_qr_scan"}, "lon": -76.97364533333334, "fusion_lat": 0.0}, {"name": "fe566c217cda67afb049c2ea4f3dd282", "fusion_lon": 0.0, "lat": 38.929754833333334, "is_reserved": 0, "type": "electric_scooter", "bike_id": "fe566c217cda67afb049c2ea4f3dd282", "is_disabled": 0, "rental_uris": {"android": "https://dc.lft.to/lastmile_qr_scan", "ios": "https://dc.lft.to/lastmile_qr_scan"}, "lon": -77.01690683333334, "fusion_lat": 0.0}, {"name": "2eaa1804d02ca2c2cb5e51286ff65bce", "fusion_lon": 0.0, "lat": 38.9239885, "is_reserved": 0, "type": "electric_scooter", "bike_id": "2eaa1804d02ca2c2cb5e51286ff65bce", "is_disabled": 0, "rental_uris": {"android": "https://dc.lft.to/lastmile_qr_scan", "ios": "https://dc.lft.to/lastmile_qr_scan"}, "lon": -77.0356005, "fusion_lat": 0.0}, {"name": "0b99624aab0912cba9c8087713087cac", "fusion_lon": 0.0, "lat": 38.9285335, "is_reserved": 0, "type": "electric_scooter", "bike_id": "0b99624aab0912cba9c8087713087cac", "is_disabled": 0, "rental_uris": {"android": "https://dc.lft.to/lastmile_qr_scan", "ios": "https://dc.lft.to/lastmile_qr_scan"}, "lon": -77.036153, "fusion_lat": 0.0}, {"name": "51fc019014a8ce7392de3dfd5032ef46", "fusion_lon": 0.0, "lat": 38.90509616666667, "is_reserved": 0, "type": "electric_scooter", "bike_id": "51fc019014a8ce7392de3dfd5032ef46", "is_disabled": 0, "rental_uris": {"android": "https://dc.lft.to/lastmile_qr_scan", "ios": "https://dc.lft.to/lastmile_qr_scan"}, "lon": -77.07020133333333, "fusion_lat": 0.0}, {"name": "a91f0f3a6fbb026cb7aae30621c321ef", "fusion_lon": 0.0, "lat": 38.95358216666666, "is_reserved": 0, "type": "electric_bike", "bike_id": "a91f0f3a6fbb026cb7aae30621c321ef", "is_disabled": 0, "rental_uris": {"android": "https://dc.lft.to/lastmile_qr_scan", "ios": "https://dc.lft.to/lastmile_qr_scan"}, "lon": -76.98090633333334, "fusion_lat": 0.0}, {"name": "4e535d65f011af4b300829ad2a45d7b0", "fusion_lon": 0.0, "lat": 38.91814216666667, "is_reserved": 0, "type": "electric_scooter", "bike_id": "4e535d65f011af4b300829ad2a45d7b0", "is_disabled": 0, "rental_uris": {"android": "https://dc.lft.to/lastmile_qr_scan", "ios": "https://dc.lft.to/lastmile_qr_scan"}, "lon": -77.0896075, "fusion_lat": 0.0}, {"name": "fbfa6d0efaeb11180e5037dbfcc9700d", "fusion_lon": 0.0, "lat": 38.8961085, "is_reserved": 0, "type": "electric_scooter", "bike_id": "fbfa6d0efaeb11180e5037dbfcc9700d", "is_disabled": 0, "rental_uris": {"android": "https://dc.lft.to/lastmile_qr_scan", "ios": "https://dc.lft.to/lastmile_qr_scan"}, "lon": -77.02211366666667, "fusion_lat": 0.0}, {"name": "3ea672aa815b89cce0167eb63468cb03", "fusion_lon": 0.0, "lat": 38.9046955, "is_reserved": 0, "type": "electric_scooter", "bike_id": "3ea672aa815b89cce0167eb63468cb03", "is_disabled": 0, "rental_uris": {"android": "https://dc.lft.to/lastmile_qr_scan", "ios": "https://dc.lft.to/lastmile_qr_scan"}, "lon": -77.04185416666667, "fusion_lat": 0.0}, {"name": "baab0644334b00d1b82eb0a4374f96cb", "fusion_lon": 0.0, "lat": 38.907372333333335, "is_reserved": 0, "type": "electric_scooter", "bike_id": "baab0644334b00d1b82eb0a4374f96cb", "is_disabled": 0, "rental_uris": {"android": "https://dc.lft.to/lastmile_qr_scan", "ios": "https://dc.lft.to/lastmile_qr_scan"}, "lon": -77.04340733333333, "fusion_lat": 0.0}, {"name": "e72a2e907cedd46dbe0b1d7878e05b52", "fusion_lon": 0.0, "lat": 38.912736333333335, "is_reserved": 0, "type": "electric_scooter", "bike_id": "e72a2e907cedd46dbe0b1d7878e05b52", "is_disabled": 0, "rental_uris": {"android": "https://dc.lft.to/lastmile_qr_scan", "ios": "https://dc.lft.to/lastmile_qr_scan"}, "lon": -77.02227066666667, "fusion_lat": 0.0}, {"name": "9bfe1d4fbd648b1ba897a5c9404dbfa3", "fusion_lon": 0.0, "lat": 38.938696666666665, "is_reserved": 0, "type": "electric_scooter", "bike_id": "9bfe1d4fbd648b1ba897a5c9404dbfa3", "is_disabled": 0, "rental_uris": {"android": "https://dc.lft.to/lastmile_qr_scan", "ios": "https://dc.lft.to/lastmile_qr_scan"}, "lon": -77.02596216666667, "fusion_lat": 0.0}, {"name": "d557e72fdb930e1d49dd1486a6f0591f", "fusion_lon": 0.0, "lat": 38.89199883333333, "is_reserved": 0, "type": "electric_scooter", "bike_id": "d557e72fdb930e1d49dd1486a6f0591f", "is_disabled": 0, "rental_uris": {"android": "https://dc.lft.to/lastmile_qr_scan", "ios": "https://dc.lft.to/lastmile_qr_scan"}, "lon": -77.00297283333333, "fusion_lat": 0.0}, {"name": "281849741618c411ce85fffe7e1db527", "fusion_lon": 0.0, "lat": 38.8669125, "is_reserved": 0, "type": "electric_scooter", "bike_id": "281849741618c411ce85fffe7e1db527", "is_disabled": 0, "rental_uris": {"android": "https://dc.lft.to/lastmile_qr_scan", "ios": "https://dc.lft.to/lastmile_qr_scan"}, "lon": -76.98558816666667, "fusion_lat": 0.0}, {"name": "9292f898a298ab866a76cd3f2e853020", "fusion_lon": 0.0, "lat": 38.93186633333333, "is_reserved": 0, "type": "electric_scooter", "bike_id": "9292f898a298ab866a76cd3f2e853020", "is_disabled": 0, "rental_uris": {"android": "https://dc.lft.to/lastmile_qr_scan", "ios": "https://dc.lft.to/lastmile_qr_scan"}, "lon": -77.03879033333334, "fusion_lat": 0.0}, {"name": "39853ca6323db355330b8f3ebae3e5e7", "fusion_lon": 0.0, "lat": 38.902568, "is_reserved": 0, "type": "electric_scooter", "bike_id": "39853ca6323db355330b8f3ebae3e5e7", "is_disabled": 0, "rental_uris": {"android": "https://dc.lft.to/lastmile_qr_scan", "ios": "https://dc.lft.to/lastmile_qr_scan"}, "lon": -77.03972233333333, "fusion_lat": 0.0}, {"name": "70aafa02ac458cfb09f4f9670907a914", "fusion_lon": 0.0, "lat": 38.9106035, "is_reserved": 0, "type": "electric_scooter", "bike_id": "70aafa02ac458cfb09f4f9670907a914", "is_disabled": 0, "rental_uris": {"android": "https://dc.lft.to/lastmile_qr_scan", "ios": "https://dc.lft.to/lastmile_qr_scan"}, "lon": -77.0539125, "fusion_lat": 0.0}, {"name": "73dad0ee872aa7f9c23a18de509a5c79", "fusion_lon": 0.0, "lat": 38.911704666666665, "is_reserved": 0, "type": "electric_scooter", "bike_id": "73dad0ee872aa7f9c23a18de509a5c79", "is_disabled": 0, "rental_uris": {"android": "https://dc.lft.to/lastmile_qr_scan", "ios": "https://dc.lft.to/lastmile_qr_scan"}, "lon": -77.01127283333334, "fusion_lat": 0.0}, {"name": "6778e268f020fb708696bea2ef558d10", "fusion_lon": 0.0, "lat": 38.86376716666667, "is_reserved": 0, "type": "electric_scooter", "bike_id": "6778e268f020fb708696bea2ef558d10", "is_disabled": 0, "rental_uris": {"android": "https://dc.lft.to/lastmile_qr_scan", "ios": "https://dc.lft.to/lastmile_qr_scan"}, "lon": -76.990626, "fusion_lat": 0.0}, {"name": "4651a91a3e3e1174ea4a7742fd01941f", "fusion_lon": 0.0, "lat": 38.941764166666665, "is_reserved": 0, "type": "electric_scooter", "bike_id": "4651a91a3e3e1174ea4a7742fd01941f", "is_disabled": 0, "rental_uris": {"android": "https://dc.lft.to/lastmile_qr_scan", "ios": "https://dc.lft.to/lastmile_qr_scan"}, "lon": -77.02557766666666, "fusion_lat": 0.0}, {"name": "a866e35b82350cbf6524cfe97c173a87", "fusion_lon": 0.0, "lat": 38.9131675, "is_reserved": 0, "type": "electric_bike", "bike_id": "a866e35b82350cbf6524cfe97c173a87", "is_disabled": 0, "rental_uris": {"android": "https://dc.lft.to/lastmile_qr_scan", "ios": "https://dc.lft.to/lastmile_qr_scan"}, "lon": -77.22301983333334, "fusion_lat": 0.0}, {"name": "00e6ca035f2b2615bbde1997710b2d8c", "fusion_lon": 0.0, "lat": 38.91733283333333, "is_reserved": 0, "type": "electric_scooter", "bike_id": "00e6ca035f2b2615bbde1997710b2d8c", "is_disabled": 0, "rental_uris": {"android": "https://dc.lft.to/lastmile_qr_scan", "ios": "https://dc.lft.to/lastmile_qr_scan"}, "lon": -77.03213016666666, "fusion_lat": 0.0}, {"name": "06b48aeb25583f31b328d4f34fbbc2f0", "fusion_lon": 0.0, "lat": 38.8837475, "is_reserved": 0, "type": "electric_scooter", "bike_id": "06b48aeb25583f31b328d4f34fbbc2f0", "is_disabled": 0, "rental_uris": {"android": "https://dc.lft.to/lastmile_qr_scan", "ios": "https://dc.lft.to/lastmile_qr_scan"}, "lon": -76.99517783333333, "fusion_lat": 0.0}, {"name": "d730260e57f4087432825a1ae45502cc", "fusion_lon": 0.0, "lat": 38.919895333333336, "is_reserved": 0, "type": "electric_scooter", "bike_id": "d730260e57f4087432825a1ae45502cc", "is_disabled": 0, "rental_uris": {"android": "https://dc.lft.to/lastmile_qr_scan", "ios": "https://dc.lft.to/lastmile_qr_scan"}, "lon": -77.04168266666667, "fusion_lat": 0.0}, {"name": "75b4ae76ec32fae73ca3f462088bcd77", "fusion_lon": 0.0, "lat": 38.882508, "is_reserved": 0, "type": "electric_scooter", "bike_id": "75b4ae76ec32fae73ca3f462088bcd77", "is_disabled": 0, "rental_uris": {"android": "https://dc.lft.to/lastmile_qr_scan", "ios": "https://dc.lft.to/lastmile_qr_scan"}, "lon": -76.99118883333334, "fusion_lat": 0.0}, {"name": "752b948162bbb1562e8d949ee22d162e", "fusion_lon": 0.0, "lat": 38.908013833333335, "is_reserved": 0, "type": "electric_scooter", "bike_id": "752b948162bbb1562e8d949ee22d162e", "is_disabled": 0, "rental_uris": {"android": "https://dc.lft.to/lastmile_qr_scan", "ios": "https://dc.lft.to/lastmile_qr_scan"}, "lon": -77.0341725, "fusion_lat": 0.0}, {"name": "0df84cc716cbe62ddd120e924de4eef0", "fusion_lon": 0.0, "lat": 38.918725, "is_reserved": 0, "type": "electric_scooter", "bike_id": "0df84cc716cbe62ddd120e924de4eef0", "is_disabled": 0, "rental_uris": {"android": "https://dc.lft.to/lastmile_qr_scan", "ios": "https://dc.lft.to/lastmile_qr_scan"}, "lon": -77.04759283333334, "fusion_lat": 0.0}, {"name": "bdee1da454f5fe2f740277730d2b58ec", "fusion_lon": 0.0, "lat": 38.89608483333333, "is_reserved": 0, "type": "electric_scooter", "bike_id": "bdee1da454f5fe2f740277730d2b58ec", "is_disabled": 0, "rental_uris": {"android": "https://dc.lft.to/lastmile_qr_scan", "ios": "https://dc.lft.to/lastmile_qr_scan"}, "lon": -77.04558866666666, "fusion_lat": 0.0}, {"name": "4ce9f9c0e081de2d4526082b55b77196", "fusion_lon": 0.0, "lat": 38.925106166666666, "is_reserved": 0, "type": "electric_scooter", "bike_id": "4ce9f9c0e081de2d4526082b55b77196", "is_disabled": 0, "rental_uris": {"android": "https://dc.lft.to/lastmile_qr_scan", "ios": "https://dc.lft.to/lastmile_qr_scan"}, "lon": -77.03882766666666, "fusion_lat": 0.0}, {"name": "03d0e6cfd37fa972e6fa5463d448688e", "fusion_lon": 0.0, "lat": 38.90598633333333, "is_reserved": 0, "type": "electric_scooter", "bike_id": "03d0e6cfd37fa972e6fa5463d448688e", "is_disabled": 0, "rental_uris": {"android": "https://dc.lft.to/lastmile_qr_scan", "ios": "https://dc.lft.to/lastmile_qr_scan"}, "lon": -77.02203, "fusion_lat": 0.0}, {"name": "1e1ed4138f900bfd68a262d81759785d", "fusion_lon": 0.0, "lat": 38.903883666666665, "is_reserved": 0, "type": "electric_scooter", "bike_id": "1e1ed4138f900bfd68a262d81759785d", "is_disabled": 0, "rental_uris": {"android": "https://dc.lft.to/lastmile_qr_scan", "ios": "https://dc.lft.to/lastmile_qr_scan"}, "lon": -77.0399025, "fusion_lat": 0.0}, {"name": "507bf6d95ae160b1d6041197a27367a0", "fusion_lon": 0.0, "lat": 38.915561833333335, "is_reserved": 0, "type": "electric_scooter", "bike_id": "507bf6d95ae160b1d6041197a27367a0", "is_disabled": 0, "rental_uris": {"android": "https://dc.lft.to/lastmile_qr_scan", "ios": "https://dc.lft.to/lastmile_qr_scan"}, "lon": -77.041771, "fusion_lat": 0.0}, {"name": "78ee8982e4c78614364b445c35cc7491", "fusion_lon": 0.0, "lat": 38.90631316666666, "is_reserved": 0, "type": "electric_scooter", "bike_id": "78ee8982e4c78614364b445c35cc7491", "is_disabled": 0, "rental_uris": {"android": "https://dc.lft.to/lastmile_qr_scan", "ios": "https://dc.lft.to/lastmile_qr_scan"}, "lon": -77.0413815, "fusion_lat": 0.0}, {"name": "524ecc82ed54a9ebdf39b5c313515401", "fusion_lon": 0.0, "lat": 38.88521883333333, "is_reserved": 0, "type": "electric_scooter", "bike_id": "524ecc82ed54a9ebdf39b5c313515401", "is_disabled": 0, "rental_uris": {"android": "https://dc.lft.to/lastmile_qr_scan", "ios": "https://dc.lft.to/lastmile_qr_scan"}, "lon": -76.99607466666667, "fusion_lat": 0.0}, {"name": "8015bf66eed70b6883e474615ba2bc75", "fusion_lon": 0.0, "lat": 38.95734733333333, "is_reserved": 0, "type": "electric_scooter", "bike_id": "8015bf66eed70b6883e474615ba2bc75", "is_disabled": 0, "rental_uris": {"android": "https://dc.lft.to/lastmile_qr_scan", "ios": "https://dc.lft.to/lastmile_qr_scan"}, "lon": -77.0240515, "fusion_lat": 0.0}, {"name": "8a8cb74b58ca7f0932f63d83ef0d7da7", "fusion_lon": 0.0, "lat": 38.908221, "is_reserved": 0, "type": "electric_scooter", "bike_id": "8a8cb74b58ca7f0932f63d83ef0d7da7", "is_disabled": 0, "rental_uris": {"android": "https://dc.lft.to/lastmile_qr_scan", "ios": "https://dc.lft.to/lastmile_qr_scan"}, "lon": -77.0386415, "fusion_lat": 0.0}, {"name": "be5f4441fb17ca7873188438f8a3857c", "fusion_lon": 0.0, "lat": 38.920889333333335, "is_reserved": 0, "type": "electric_scooter", "bike_id": "be5f4441fb17ca7873188438f8a3857c", "is_disabled": 0, "rental_uris": {"android": "https://dc.lft.to/lastmile_qr_scan", "ios": "https://dc.lft.to/lastmile_qr_scan"}, "lon": -77.022854, "fusion_lat": 0.0}, {"name": "0df484d2b176f8312877bbd5be3cf21a", "fusion_lon": 0.0, "lat": 38.93377316666667, "is_reserved": 0, "type": "electric_scooter", "bike_id": "0df484d2b176f8312877bbd5be3cf21a", "is_disabled": 0, "rental_uris": {"android": "https://dc.lft.to/lastmile_qr_scan", "ios": "https://dc.lft.to/lastmile_qr_scan"}, "lon": -77.032565, "fusion_lat": 0.0}, {"name": "8c17ab552884c0023f8aede0e6ebd0d2", "fusion_lon": 0.0, "lat": 38.907198666666666, "is_reserved": 0, "type": "electric_scooter", "bike_id": "8c17ab552884c0023f8aede0e6ebd0d2", "is_disabled": 0, "rental_uris": {"android": "https://dc.lft.to/lastmile_qr_scan", "ios": "https://dc.lft.to/lastmile_qr_scan"}, "lon": -77.0761965, "fusion_lat": 0.0}, {"name": "e4fd1ad540f3be06281d4777fd8b5caf", "fusion_lon": 0.0, "lat": 38.9102875, "is_reserved": 0, "type": "electric_scooter", "bike_id": "e4fd1ad540f3be06281d4777fd8b5caf", "is_disabled": 0, "rental_uris": {"android": "https://dc.lft.to/lastmile_qr_scan", "ios": "https://dc.lft.to/lastmile_qr_scan"}, "lon": -77.00758166666667, "fusion_lat": 0.0}, {"name": "58b4184e968a2d7b9b264178f3f83f6f", "fusion_lon": 0.0, "lat": 38.796127, "is_reserved": 0, "type": "electric_bike", "bike_id": "58b4184e968a2d7b9b264178f3f83f6f", "is_disabled": 0, "rental_uris": {"android": "https://dc.lft.to/lastmile_qr_scan", "ios": "https://dc.lft.to/lastmile_qr_scan"}, "lon": -76.99741966666667, "fusion_lat": 0.0}, {"name": "4d8717ce63fa5aa6eb95fcc72119f17d", "fusion_lon": 0.0, "lat": 38.91694733333333, "is_reserved": 0, "type": "electric_scooter", "bike_id": "4d8717ce63fa5aa6eb95fcc72119f17d", "is_disabled": 0, "rental_uris": {"android": "https://dc.lft.to/lastmile_qr_scan", "ios": "https://dc.lft.to/lastmile_qr_scan"}, "lon": -77.02593716666667, "fusion_lat": 0.0}, {"name": "339ad34239e253413a88fc8bcecf6b9a", "fusion_lon": 0.0, "lat": 38.932293666666666, "is_reserved": 0, "type": "electric_scooter", "bike_id": "339ad34239e253413a88fc8bcecf6b9a", "is_disabled": 0, "rental_uris": {"android": "https://dc.lft.to/lastmile_qr_scan", "ios": "https://dc.lft.to/lastmile_qr_scan"}, "lon": -77.03870566666667, "fusion_lat": 0.0}, {"name": "60af43139140f389ae6c7c775ea561df", "fusion_lon": 0.0, "lat": 38.907895833333335, "is_reserved": 0, "type": "electric_scooter", "bike_id": "60af43139140f389ae6c7c775ea561df", "is_disabled": 0, "rental_uris": {"android": "https://dc.lft.to/lastmile_qr_scan", "ios": "https://dc.lft.to/lastmile_qr_scan"}, "lon": -77.00201116666666, "fusion_lat": 0.0}, {"name": "70c45c5c9ca278d4b2564b60346ef1e7", "fusion_lon": 0.0, "lat": 38.893216833333334, "is_reserved": 0, "type": "electric_scooter", "bike_id": "70c45c5c9ca278d4b2564b60346ef1e7", "is_disabled": 0, "rental_uris": {"android": "https://dc.lft.to/lastmile_qr_scan", "ios": "https://dc.lft.to/lastmile_qr_scan"}, "lon": -77.0179655, "fusion_lat": 0.0}, {"name": "39028afc34ed575617255eda0cdc5de6", "fusion_lon": 0.0, "lat": 38.884886, "is_reserved": 0, "type": "electric_scooter", "bike_id": "39028afc34ed575617255eda0cdc5de6", "is_disabled": 0, "rental_uris": {"android": "https://dc.lft.to/lastmile_qr_scan", "ios": "https://dc.lft.to/lastmile_qr_scan"}, "lon": -77.0091705, "fusion_lat": 0.0}, {"name": "7b45578d1ac31555bb3bbd432fcccd42", "fusion_lon": 0.0, "lat": 38.9242075, "is_reserved": 0, "type": "electric_scooter", "bike_id": "7b45578d1ac31555bb3bbd432fcccd42", "is_disabled": 0, "rental_uris": {"android": "https://dc.lft.to/lastmile_qr_scan", "ios": "https://dc.lft.to/lastmile_qr_scan"}, "lon": -77.05067683333333, "fusion_lat": 0.0}, {"name": "0e379719b689e6a48601dbe8fb99964c", "fusion_lon": 0.0, "lat": 38.88893266666667, "is_reserved": 0, "type": "electric_scooter", "bike_id": "0e379719b689e6a48601dbe8fb99964c", "is_disabled": 0, "rental_uris": {"android": "https://dc.lft.to/lastmile_qr_scan", "ios": "https://dc.lft.to/lastmile_qr_scan"}, "lon": -76.94775433333334, "fusion_lat": 0.0}, {"name": "b6dc377b8c60b4bf82811e8b7568f11c", "fusion_lon": 0.0, "lat": 38.9059775, "is_reserved": 0, "type": "electric_scooter", "bike_id": "b6dc377b8c60b4bf82811e8b7568f11c", "is_disabled": 0, "rental_uris": {"android": "https://dc.lft.to/lastmile_qr_scan", "ios": "https://dc.lft.to/lastmile_qr_scan"}, "lon": -77.0468115, "fusion_lat": 0.0}, {"name": "f3976a0643870a428be1b97b0ef18988", "fusion_lon": 0.0, "lat": 38.94278283333333, "is_reserved": 0, "type": "electric_bike", "bike_id": "f3976a0643870a428be1b97b0ef18988", "is_disabled": 0, "rental_uris": {"android": "https://dc.lft.to/lastmile_qr_scan", "ios": "https://dc.lft.to/lastmile_qr_scan"}, "lon": -77.02770833333334, "fusion_lat": 0.0}, {"name": "80e08847c2c0f5d25b7d263346c9f275", "fusion_lon": 0.0, "lat": 38.900887833333336, "is_reserved": 0, "type": "electric_scooter", "bike_id": "80e08847c2c0f5d25b7d263346c9f275", "is_disabled": 0, "rental_uris": {"android": "https://dc.lft.to/lastmile_qr_scan", "ios": "https://dc.lft.to/lastmile_qr_scan"}, "lon": -76.983372, "fusion_lat": 0.0}, {"name": "ffa58b743b41d7d12b62f7656c4afbe0", "fusion_lon": 0.0, "lat": 38.92517766666667, "is_reserved": 0, "type": "electric_scooter", "bike_id": "ffa58b743b41d7d12b62f7656c4afbe0", "is_disabled": 0, "rental_uris": {"android": "https://dc.lft.to/lastmile_qr_scan", "ios": "https://dc.lft.to/lastmile_qr_scan"}, "lon": -77.02339466666666, "fusion_lat": 0.0}, {"name": "8ad3ffcb9f04f980a7e320dde6950705", "fusion_lon": 0.0, "lat": 38.89815483333334, "is_reserved": 0, "type": "electric_bike", "bike_id": "8ad3ffcb9f04f980a7e320dde6950705", "is_disabled": 0, "rental_uris": {"android": "https://dc.lft.to/lastmile_qr_scan", "ios": "https://dc.lft.to/lastmile_qr_scan"}, "lon": -76.9906465, "fusion_lat": 0.0}, {"name": "8873750326d382a81ff3da209a363c99", "fusion_lon": 0.0, "lat": 38.918460833333334, "is_reserved": 0, "type": "electric_scooter", "bike_id": "8873750326d382a81ff3da209a363c99", "is_disabled": 0, "rental_uris": {"android": "https://dc.lft.to/lastmile_qr_scan", "ios": "https://dc.lft.to/lastmile_qr_scan"}, "lon": -77.0595265, "fusion_lat": 0.0}, {"name": "f31272b112b70553c411339d80feb925", "fusion_lon": 0.0, "lat": 38.90190366666667, "is_reserved": 0, "type": "electric_scooter", "bike_id": "f31272b112b70553c411339d80feb925", "is_disabled": 0, "rental_uris": {"android": "https://dc.lft.to/lastmile_qr_scan", "ios": "https://dc.lft.to/lastmile_qr_scan"}, "lon": -77.04817416666667, "fusion_lat": 0.0}, {"name": "cdbcf6d886be23567923ec9e6eae9e9b", "fusion_lon": 0.0, "lat": 38.902717833333334, "is_reserved": 0, "type": "electric_scooter", "bike_id": "cdbcf6d886be23567923ec9e6eae9e9b", "is_disabled": 0, "rental_uris": {"android": "https://dc.lft.to/lastmile_qr_scan", "ios": "https://dc.lft.to/lastmile_qr_scan"}, "lon": -77.03951816666667, "fusion_lat": 0.0}, {"name": "636d5413dc2cbe833d682d8aaa970326", "fusion_lon": 0.0, "lat": 38.897582166666666, "is_reserved": 0, "type": "electric_scooter", "bike_id": "636d5413dc2cbe833d682d8aaa970326", "is_disabled": 0, "rental_uris": {"android": "https://dc.lft.to/lastmile_qr_scan", "ios": "https://dc.lft.to/lastmile_qr_scan"}, "lon": -77.02690233333334, "fusion_lat": 0.0}, {"name": "699e84e9ce03b4757a4338a3b27c4343", "fusion_lon": 0.0, "lat": 38.904128166666666, "is_reserved": 0, "type": "electric_scooter", "bike_id": "699e84e9ce03b4757a4338a3b27c4343", "is_disabled": 0, "rental_uris": {"android": "https://dc.lft.to/lastmile_qr_scan", "ios": "https://dc.lft.to/lastmile_qr_scan"}, "lon": -76.97332616666667, "fusion_lat": 0.0}, {"name": "5e241176c20ae2a4f5fc9e59fd09d1e1", "fusion_lon": 0.0, "lat": 38.879269, "is_reserved": 0, "type": "electric_scooter", "bike_id": "5e241176c20ae2a4f5fc9e59fd09d1e1", "is_disabled": 0, "rental_uris": {"android": "https://dc.lft.to/lastmile_qr_scan", "ios": "https://dc.lft.to/lastmile_qr_scan"}, "lon": -76.999824, "fusion_lat": 0.0}, {"name": "f5e373f9701a8b2dd5bdd70579d17ca7", "fusion_lon": 0.0, "lat": 38.906794833333336, "is_reserved": 0, "type": "electric_scooter", "bike_id": "f5e373f9701a8b2dd5bdd70579d17ca7", "is_disabled": 0, "rental_uris": {"android": "https://dc.lft.to/lastmile_qr_scan", "ios": "https://dc.lft.to/lastmile_qr_scan"}, "lon": -77.02973833333333, "fusion_lat": 0.0}, {"name": "5d6a61730e61926816fc8a3ef2edd2e7", "fusion_lon": 0.0, "lat": 38.9063995, "is_reserved": 0, "type": "electric_scooter", "bike_id": "5d6a61730e61926816fc8a3ef2edd2e7", "is_disabled": 0, "rental_uris": {"android": "https://dc.lft.to/lastmile_qr_scan", "ios": "https://dc.lft.to/lastmile_qr_scan"}, "lon": -77.03852883333333, "fusion_lat": 0.0}, {"name": "4f3e29e73b509fc212b3436fc072b172", "fusion_lon": 0.0, "lat": 38.8923245, "is_reserved": 0, "type": "electric_scooter", "bike_id": "4f3e29e73b509fc212b3436fc072b172", "is_disabled": 0, "rental_uris": {"android": "https://dc.lft.to/lastmile_qr_scan", "ios": "https://dc.lft.to/lastmile_qr_scan"}, "lon": -77.0172715, "fusion_lat": 0.0}, {"name": "79e62d610c9a599622174c0d03302438", "fusion_lon": 0.0, "lat": 39.050509166666664, "is_reserved": 0, "type": "electric_bike", "bike_id": "79e62d610c9a599622174c0d03302438", "is_disabled": 0, "rental_uris": {"android": "https://dc.lft.to/lastmile_qr_scan", "ios": "https://dc.lft.to/lastmile_qr_scan"}, "lon": -77.05151783333334, "fusion_lat": 0.0}, {"name": "c073fd3f0ac6c5c0dbb498baaf6f72b8", "fusion_lon": 0.0, "lat": 38.8324275, "is_reserved": 0, "type": "electric_bike", "bike_id": "c073fd3f0ac6c5c0dbb498baaf6f72b8", "is_disabled": 0, "rental_uris": {"android": "https://dc.lft.to/lastmile_qr_scan", "ios": "https://dc.lft.to/lastmile_qr_scan"}, "lon": -76.9461685, "fusion_lat": 0.0}, {"name": "a320e01f590015bdbf3e3acc7664b613", "fusion_lon": 0.0, "lat": 38.92739316666667, "is_reserved": 0, "type": "electric_scooter", "bike_id": "a320e01f590015bdbf3e3acc7664b613", "is_disabled": 0, "rental_uris": {"android": "https://dc.lft.to/lastmile_qr_scan", "ios": "https://dc.lft.to/lastmile_qr_scan"}, "lon": -77.05254566666666, "fusion_lat": 0.0}, {"name": "6bba2ff7c1e263c433110e4f9b51eb54", "fusion_lon": 0.0, "lat": 38.93029, "is_reserved": 0, "type": "electric_scooter", "bike_id": "6bba2ff7c1e263c433110e4f9b51eb54", "is_disabled": 0, "rental_uris": {"android": "https://dc.lft.to/lastmile_qr_scan", "ios": "https://dc.lft.to/lastmile_qr_scan"}, "lon": -77.06309616666667, "fusion_lat": 0.0}, {"name": "fd688071fe3ae2dd2d0c0ca1b1a9ebd1", "fusion_lon": 0.0, "lat": 38.92315766666667, "is_reserved": 0, "type": "electric_scooter", "bike_id": "fd688071fe3ae2dd2d0c0ca1b1a9ebd1", "is_disabled": 0, "rental_uris": {"android": "https://dc.lft.to/lastmile_qr_scan", "ios": "https://dc.lft.to/lastmile_qr_scan"}, "lon": -77.029794, "fusion_lat": 0.0}, {"name": "91da844964756dcf4e45bc0b662e97ed", "fusion_lon": 0.0, "lat": 38.932428333333334, "is_reserved": 0, "type": "electric_scooter", "bike_id": "91da844964756dcf4e45bc0b662e97ed", "is_disabled": 0, "rental_uris": {"android": "https://dc.lft.to/lastmile_qr_scan", "ios": "https://dc.lft.to/lastmile_qr_scan"}, "lon": -77.038519, "fusion_lat": 0.0}, {"name": "139e74dc83c7c8afcd914deb1f89273d", "fusion_lon": 0.0, "lat": 38.893803166666665, "is_reserved": 0, "type": "electric_scooter", "bike_id": "139e74dc83c7c8afcd914deb1f89273d", "is_disabled": 0, "rental_uris": {"android": "https://dc.lft.to/lastmile_qr_scan", "ios": "https://dc.lft.to/lastmile_qr_scan"}, "lon": -77.0280265, "fusion_lat": 0.0}, {"name": "141526d31de4cc51c21755f3e0056aaf", "fusion_lon": 0.0, "lat": 38.923462, "is_reserved": 0, "type": "electric_scooter", "bike_id": "141526d31de4cc51c21755f3e0056aaf", "is_disabled": 0, "rental_uris": {"android": "https://dc.lft.to/lastmile_qr_scan", "ios": "https://dc.lft.to/lastmile_qr_scan"}, "lon": -77.05082033333333, "fusion_lat": 0.0}, {"name": "a0fb143da08c38e25b27c802cb1d281f", "fusion_lon": 0.0, "lat": 38.865185333333336, "is_reserved": 0, "type": "electric_scooter", "bike_id": "a0fb143da08c38e25b27c802cb1d281f", "is_disabled": 0, "rental_uris": {"android": "https://dc.lft.to/lastmile_qr_scan", "ios": "https://dc.lft.to/lastmile_qr_scan"}, "lon": -76.99015916666667, "fusion_lat": 0.0}, {"name": "6eed9d26b91fd95a05b9c2d95ff00a59", "fusion_lon": 0.0, "lat": 38.80709933333333, "is_reserved": 0, "type": "electric_bike", "bike_id": "6eed9d26b91fd95a05b9c2d95ff00a59", "is_disabled": 0, "rental_uris": {"android": "https://dc.lft.to/lastmile_qr_scan", "ios": "https://dc.lft.to/lastmile_qr_scan"}, "lon": -77.06172516666666, "fusion_lat": 0.0}, {"name": "14614a181b35ebccc40134b6958b799b", "fusion_lon": 0.0, "lat": 38.92225533333333, "is_reserved": 0, "type": "electric_scooter", "bike_id": "14614a181b35ebccc40134b6958b799b", "is_disabled": 0, "rental_uris": {"android": "https://dc.lft.to/lastmile_qr_scan", "ios": "https://dc.lft.to/lastmile_qr_scan"}, "lon": -77.03458133333334, "fusion_lat": 0.0}, {"name": "b9f6df440cb7d171d10abf5e9f997a81", "fusion_lon": 0.0, "lat": 38.917326833333334, "is_reserved": 0, "type": "electric_scooter", "bike_id": "b9f6df440cb7d171d10abf5e9f997a81", "is_disabled": 0, "rental_uris": {"android": "https://dc.lft.to/lastmile_qr_scan", "ios": "https://dc.lft.to/lastmile_qr_scan"}, "lon": -77.03660833333333, "fusion_lat": 0.0}, {"name": "3807e63f47aca6d465dc87ae1e8784b0", "fusion_lon": 0.0, "lat": 38.863919833333334, "is_reserved": 0, "type": "electric_scooter", "bike_id": "3807e63f47aca6d465dc87ae1e8784b0", "is_disabled": 0, "rental_uris": {"android": "https://dc.lft.to/lastmile_qr_scan", "ios": "https://dc.lft.to/lastmile_qr_scan"}, "lon": -76.990368, "fusion_lat": 0.0}, {"name": "c5f29b2ea115fc6fa4452b820951e8a2", "fusion_lon": 0.0, "lat": 38.92814383333334, "is_reserved": 0, "type": "electric_scooter", "bike_id": "c5f29b2ea115fc6fa4452b820951e8a2", "is_disabled": 0, "rental_uris": {"android": "https://dc.lft.to/lastmile_qr_scan", "ios": "https://dc.lft.to/lastmile_qr_scan"}, "lon": -77.01418166666667, "fusion_lat": 0.0}, {"name": "de35573a52772509622fb3edac98db35", "fusion_lon": 0.0, "lat": 38.88622, "is_reserved": 0, "type": "electric_scooter", "bike_id": "de35573a52772509622fb3edac98db35", "is_disabled": 0, "rental_uris": {"android": "https://dc.lft.to/lastmile_qr_scan", "ios": "https://dc.lft.to/lastmile_qr_scan"}, "lon": -76.9558275, "fusion_lat": 0.0}, {"name": "6a7da4d213dc7eeed3c870fb4e3093c6", "fusion_lon": 0.0, "lat": 38.924453, "is_reserved": 0, "type": "electric_scooter", "bike_id": "6a7da4d213dc7eeed3c870fb4e3093c6", "is_disabled": 0, "rental_uris": {"android": "https://dc.lft.to/lastmile_qr_scan", "ios": "https://dc.lft.to/lastmile_qr_scan"}, "lon": -77.052145, "fusion_lat": 0.0}, {"name": "c5dc26bf772943cddc41e0cb7788ac14", "fusion_lon": 0.0, "lat": 38.9002095, "is_reserved": 0, "type": "electric_scooter", "bike_id": "c5dc26bf772943cddc41e0cb7788ac14", "is_disabled": 0, "rental_uris": {"android": "https://dc.lft.to/lastmile_qr_scan", "ios": "https://dc.lft.to/lastmile_qr_scan"}, "lon": -77.0450535, "fusion_lat": 0.0}, {"name": "562ab0cf6dc5f16755234ab482afbb7f", "fusion_lon": 0.0, "lat": 38.90326483333333, "is_reserved": 0, "type": "electric_scooter", "bike_id": "562ab0cf6dc5f16755234ab482afbb7f", "is_disabled": 0, "rental_uris": {"android": "https://dc.lft.to/lastmile_qr_scan", "ios": "https://dc.lft.to/lastmile_qr_scan"}, "lon": -76.97549366666667, "fusion_lat": 0.0}, {"name": "005d270e3420a233f43a12ea8c27742d", "fusion_lon": 0.0, "lat": 38.8847665, "is_reserved": 0, "type": "electric_scooter", "bike_id": "005d270e3420a233f43a12ea8c27742d", "is_disabled": 0, "rental_uris": {"android": "https://dc.lft.to/lastmile_qr_scan", "ios": "https://dc.lft.to/lastmile_qr_scan"}, "lon": -77.03201483333333, "fusion_lat": 0.0}, {"name": "3f70bd227e884c6fa383d0f7a63d891f", "fusion_lon": 0.0, "lat": 38.88749633333333, "is_reserved": 0, "type": "electric_scooter", "bike_id": "3f70bd227e884c6fa383d0f7a63d891f", "is_disabled": 0, "rental_uris": {"android": "https://dc.lft.to/lastmile_qr_scan", "ios": "https://dc.lft.to/lastmile_qr_scan"}, "lon": -77.027268, "fusion_lat": 0.0}, {"name": "a19cda0cf5456e4b6322295b4a316fbc", "fusion_lon": 0.0, "lat": 38.80907416666667, "is_reserved": 0, "type": "electric_bike", "bike_id": "a19cda0cf5456e4b6322295b4a316fbc", "is_disabled": 0, "rental_uris": {"android": "https://dc.lft.to/lastmile_qr_scan", "ios": "https://dc.lft.to/lastmile_qr_scan"}, "lon": -77.0866155, "fusion_lat": 0.0}, {"name": "bc5c820fb4b5bb72ad24d8b2f0ba2c9f", "fusion_lon": 0.0, "lat": 38.898564666666665, "is_reserved": 0, "type": "electric_scooter", "bike_id": "bc5c820fb4b5bb72ad24d8b2f0ba2c9f", "is_disabled": 0, "rental_uris": {"android": "https://dc.lft.to/lastmile_qr_scan", "ios": "https://dc.lft.to/lastmile_qr_scan"}, "lon": -76.98173916666667, "fusion_lat": 0.0}, {"name": "9d9581518ece4b68159b45ec210feeb1", "fusion_lon": 0.0, "lat": 38.90793466666667, "is_reserved": 0, "type": "electric_scooter", "bike_id": "9d9581518ece4b68159b45ec210feeb1", "is_disabled": 0, "rental_uris": {"android": "https://dc.lft.to/lastmile_qr_scan", "ios": "https://dc.lft.to/lastmile_qr_scan"}, "lon": -77.03866783333334, "fusion_lat": 0.0}, {"name": "8add40393b3f6182fad5bededba5eee3", "fusion_lon": 0.0, "lat": 38.91126116666667, "is_reserved": 0, "type": "electric_scooter", "bike_id": "8add40393b3f6182fad5bededba5eee3", "is_disabled": 0, "rental_uris": {"android": "https://dc.lft.to/lastmile_qr_scan", "ios": "https://dc.lft.to/lastmile_qr_scan"}, "lon": -77.04426016666666, "fusion_lat": 0.0}, {"name": "4b846881c59c1d8f7d27617aa958c11a", "fusion_lon": 0.0, "lat": 38.90080116666667, "is_reserved": 0, "type": "electric_scooter", "bike_id": "4b846881c59c1d8f7d27617aa958c11a", "is_disabled": 0, "rental_uris": {"android": "https://dc.lft.to/lastmile_qr_scan", "ios": "https://dc.lft.to/lastmile_qr_scan"}, "lon": -77.04703216666667, "fusion_lat": 0.0}, {"name": "9c895336a42a13618bc8459ca7a4401d", "fusion_lon": 0.0, "lat": 38.933060833333336, "is_reserved": 0, "type": "electric_scooter", "bike_id": "9c895336a42a13618bc8459ca7a4401d", "is_disabled": 0, "rental_uris": {"android": "https://dc.lft.to/lastmile_qr_scan", "ios": "https://dc.lft.to/lastmile_qr_scan"}, "lon": -77.07260066666667, "fusion_lat": 0.0}, {"name": "bfd228462922b49b6d90ccf517d406ac", "fusion_lon": 0.0, "lat": 38.89220566666667, "is_reserved": 0, "type": "electric_scooter", "bike_id": "bfd228462922b49b6d90ccf517d406ac", "is_disabled": 0, "rental_uris": {"android": "https://dc.lft.to/lastmile_qr_scan", "ios": "https://dc.lft.to/lastmile_qr_scan"}, "lon": -77.032212, "fusion_lat": 0.0}, {"name": "06532e226f3b10f3d57cbf4c61798687", "fusion_lon": 0.0, "lat": 38.93403133333333, "is_reserved": 0, "type": "electric_scooter", "bike_id": "06532e226f3b10f3d57cbf4c61798687", "is_disabled": 0, "rental_uris": {"android": "https://dc.lft.to/lastmile_qr_scan", "ios": "https://dc.lft.to/lastmile_qr_scan"}, "lon": -77.02738666666667, "fusion_lat": 0.0}, {"name": "08dbd506434ab1dc8f3abf611c36d880", "fusion_lon": 0.0, "lat": 38.914157, "is_reserved": 0, "type": "electric_scooter", "bike_id": "08dbd506434ab1dc8f3abf611c36d880", "is_disabled": 0, "rental_uris": {"android": "https://dc.lft.to/lastmile_qr_scan", "ios": "https://dc.lft.to/lastmile_qr_scan"}, "lon": -77.02250116666667, "fusion_lat": 0.0}, {"name": "9e2f4ebdfab5417a34045620ea82fc02", "fusion_lon": 0.0, "lat": 38.89224333333333, "is_reserved": 0, "type": "electric_scooter", "bike_id": "9e2f4ebdfab5417a34045620ea82fc02", "is_disabled": 0, "rental_uris": {"android": "https://dc.lft.to/lastmile_qr_scan", "ios": "https://dc.lft.to/lastmile_qr_scan"}, "lon": -77.0431075, "fusion_lat": 0.0}, {"name": "af55fb58833b23c9734544aff357f9bb", "fusion_lon": 0.0, "lat": 38.909203166666664, "is_reserved": 0, "type": "electric_scooter", "bike_id": "af55fb58833b23c9734544aff357f9bb", "is_disabled": 0, "rental_uris": {"android": "https://dc.lft.to/lastmile_qr_scan", "ios": "https://dc.lft.to/lastmile_qr_scan"}, "lon": -77.03099483333334, "fusion_lat": 0.0}, {"name": "e6247aa1d5b99e77a63d5c39064a3841", "fusion_lon": 0.0, "lat": 38.8711645, "is_reserved": 0, "type": "electric_scooter", "bike_id": "e6247aa1d5b99e77a63d5c39064a3841", "is_disabled": 0, "rental_uris": {"android": "https://dc.lft.to/lastmile_qr_scan", "ios": "https://dc.lft.to/lastmile_qr_scan"}, "lon": -77.00762766666666, "fusion_lat": 0.0}, {"name": "5efc3a5405f51e4a2e8a75fd50ce1838", "fusion_lon": 0.0, "lat": 38.90800333333333, "is_reserved": 0, "type": "electric_scooter", "bike_id": "5efc3a5405f51e4a2e8a75fd50ce1838", "is_disabled": 0, "rental_uris": {"android": "https://dc.lft.to/lastmile_qr_scan", "ios": "https://dc.lft.to/lastmile_qr_scan"}, "lon": -77.03129566666667, "fusion_lat": 0.0}, {"name": "acab1bb8263834d4dd72b15f93814b53", "fusion_lon": 0.0, "lat": 38.902285166666665, "is_reserved": 0, "type": "electric_scooter", "bike_id": "acab1bb8263834d4dd72b15f93814b53", "is_disabled": 0, "rental_uris": {"android": "https://dc.lft.to/lastmile_qr_scan", "ios": "https://dc.lft.to/lastmile_qr_scan"}, "lon": -76.98942033333333, "fusion_lat": 0.0}, {"name": "24f8ee45ed9d70999cf29a7bc6f62325", "fusion_lon": 0.0, "lat": 38.8849165, "is_reserved": 0, "type": "electric_scooter", "bike_id": "24f8ee45ed9d70999cf29a7bc6f62325", "is_disabled": 0, "rental_uris": {"android": "https://dc.lft.to/lastmile_qr_scan", "ios": "https://dc.lft.to/lastmile_qr_scan"}, "lon": -77.00713233333333, "fusion_lat": 0.0}, {"name": "ebdb2412327c72e3a8faa3973c5bfe42", "fusion_lon": 0.0, "lat": 38.89968433333333, "is_reserved": 0, "type": "electric_scooter", "bike_id": "ebdb2412327c72e3a8faa3973c5bfe42", "is_disabled": 0, "rental_uris": {"android": "https://dc.lft.to/lastmile_qr_scan", "ios": "https://dc.lft.to/lastmile_qr_scan"}, "lon": -77.04721683333334, "fusion_lat": 0.0}, {"name": "1e7f835eaad96c3412a78d67c2bd92f1", "fusion_lon": 0.0, "lat": 38.91722, "is_reserved": 0, "type": "electric_scooter", "bike_id": "1e7f835eaad96c3412a78d67c2bd92f1", "is_disabled": 0, "rental_uris": {"android": "https://dc.lft.to/lastmile_qr_scan", "ios": "https://dc.lft.to/lastmile_qr_scan"}, "lon": -77.02592883333334, "fusion_lat": 0.0}, {"name": "8e73be63480a61df850e6387b3992d71", "fusion_lon": 0.0, "lat": 38.90010566666667, "is_reserved": 0, "type": "electric_scooter", "bike_id": "8e73be63480a61df850e6387b3992d71", "is_disabled": 0, "rental_uris": {"android": "https://dc.lft.to/lastmile_qr_scan", "ios": "https://dc.lft.to/lastmile_qr_scan"}, "lon": -77.00305166666666, "fusion_lat": 0.0}, {"name": "138738cb76d84f12e676939cffee5f0b", "fusion_lon": 0.0, "lat": 38.92026666666667, "is_reserved": 0, "type": "electric_scooter", "bike_id": "138738cb76d84f12e676939cffee5f0b", "is_disabled": 0, "rental_uris": {"android": "https://dc.lft.to/lastmile_qr_scan", "ios": "https://dc.lft.to/lastmile_qr_scan"}, "lon": -77.04188716666667, "fusion_lat": 0.0}, {"name": "f0de639c5823cf9807b982d7860374af", "fusion_lon": 0.0, "lat": 38.90941083333333, "is_reserved": 0, "type": "electric_scooter", "bike_id": "f0de639c5823cf9807b982d7860374af", "is_disabled": 0, "rental_uris": {"android": "https://dc.lft.to/lastmile_qr_scan", "ios": "https://dc.lft.to/lastmile_qr_scan"}, "lon": -77.02694766666667, "fusion_lat": 0.0}, {"name": "4218154a4967ad69d03290b8ec7636f4", "fusion_lon": 0.0, "lat": 38.905223166666666, "is_reserved": 0, "type": "electric_scooter", "bike_id": "4218154a4967ad69d03290b8ec7636f4", "is_disabled": 0, "rental_uris": {"android": "https://dc.lft.to/lastmile_qr_scan", "ios": "https://dc.lft.to/lastmile_qr_scan"}, "lon": -76.98092516666667, "fusion_lat": 0.0}, {"name": "75eb19a1f18ff39e156afd5982cded1b", "fusion_lon": 0.0, "lat": 38.935151, "is_reserved": 0, "type": "electric_scooter", "bike_id": "75eb19a1f18ff39e156afd5982cded1b", "is_disabled": 0, "rental_uris": {"android": "https://dc.lft.to/lastmile_qr_scan", "ios": "https://dc.lft.to/lastmile_qr_scan"}, "lon": -77.03284716666667, "fusion_lat": 0.0}, {"name": "a208b2b66b3480dfaccae3bbb1c0fd47", "fusion_lon": 0.0, "lat": 38.91650216666667, "is_reserved": 0, "type": "electric_scooter", "bike_id": "a208b2b66b3480dfaccae3bbb1c0fd47", "is_disabled": 0, "rental_uris": {"android": "https://dc.lft.to/lastmile_qr_scan", "ios": "https://dc.lft.to/lastmile_qr_scan"}, "lon": -77.02459383333333, "fusion_lat": 0.0}, {"name": "fb6bd955126ec57f6bca698d47db0e72", "fusion_lon": 0.0, "lat": 38.857892, "is_reserved": 0, "type": "electric_bike", "bike_id": "fb6bd955126ec57f6bca698d47db0e72", "is_disabled": 0, "rental_uris": {"android": "https://dc.lft.to/lastmile_qr_scan", "ios": "https://dc.lft.to/lastmile_qr_scan"}, "lon": -77.12017766666666, "fusion_lat": 0.0}, {"name": "e38aa2ef7a314d9139bebd43f67079ac", "fusion_lon": 0.0, "lat": 38.862661833333334, "is_reserved": 0, "type": "electric_bike", "bike_id": "e38aa2ef7a314d9139bebd43f67079ac", "is_disabled": 0, "rental_uris": {"android": "https://dc.lft.to/lastmile_qr_scan", "ios": "https://dc.lft.to/lastmile_qr_scan"}, "lon": -76.98347133333333, "fusion_lat": 0.0}, {"name": "fc9d7af35a20f266070d88a032d4b14d", "fusion_lon": 0.0, "lat": 38.92319533333333, "is_reserved": 0, "type": "electric_scooter", "bike_id": "fc9d7af35a20f266070d88a032d4b14d", "is_disabled": 0, "rental_uris": {"android": "https://dc.lft.to/lastmile_qr_scan", "ios": "https://dc.lft.to/lastmile_qr_scan"}, "lon": -77.04176166666667, "fusion_lat": 0.0}, {"name": "cd76895b34a06d004992482c27e32371", "fusion_lon": 0.0, "lat": 38.9168745, "is_reserved": 0, "type": "electric_scooter", "bike_id": "cd76895b34a06d004992482c27e32371", "is_disabled": 0, "rental_uris": {"android": "https://dc.lft.to/lastmile_qr_scan", "ios": "https://dc.lft.to/lastmile_qr_scan"}, "lon": -77.0233135, "fusion_lat": 0.0}, {"name": "cc561ba4e2d89467c7a94feb9f6b4d5a", "fusion_lon": 0.0, "lat": 38.89543, "is_reserved": 0, "type": "electric_scooter", "bike_id": "cc561ba4e2d89467c7a94feb9f6b4d5a", "is_disabled": 0, "rental_uris": {"android": "https://dc.lft.to/lastmile_qr_scan", "ios": "https://dc.lft.to/lastmile_qr_scan"}, "lon": -76.9295105, "fusion_lat": 0.0}, {"name": "5a138b6d916200ed5bcbc0fa6754ccd4", "fusion_lon": 0.0, "lat": 38.907894666666664, "is_reserved": 0, "type": "electric_scooter", "bike_id": "5a138b6d916200ed5bcbc0fa6754ccd4", "is_disabled": 0, "rental_uris": {"android": "https://dc.lft.to/lastmile_qr_scan", "ios": "https://dc.lft.to/lastmile_qr_scan"}, "lon": -77.03864183333333, "fusion_lat": 0.0}, {"name": "c36b0cc97376a81472489fbdf4fb3049", "fusion_lon": 0.0, "lat": 38.90012333333333, "is_reserved": 0, "type": "electric_scooter", "bike_id": "c36b0cc97376a81472489fbdf4fb3049", "is_disabled": 0, "rental_uris": {"android": "https://dc.lft.to/lastmile_qr_scan", "ios": "https://dc.lft.to/lastmile_qr_scan"}, "lon": -77.02619833333334, "fusion_lat": 0.0}, {"name": "f4311d9007ab9cb238eb02ac60d6f293", "fusion_lon": 0.0, "lat": 38.89925683333333, "is_reserved": 0, "type": "electric_scooter", "bike_id": "f4311d9007ab9cb238eb02ac60d6f293", "is_disabled": 0, "rental_uris": {"android": "https://dc.lft.to/lastmile_qr_scan", "ios": "https://dc.lft.to/lastmile_qr_scan"}, "lon": -77.00363866666666, "fusion_lat": 0.0}, {"name": "7302234f437ea51f1cbc0cb13eb3025f", "fusion_lon": 0.0, "lat": 38.9297205, "is_reserved": 0, "type": "electric_scooter", "bike_id": "7302234f437ea51f1cbc0cb13eb3025f", "is_disabled": 0, "rental_uris": {"android": "https://dc.lft.to/lastmile_qr_scan", "ios": "https://dc.lft.to/lastmile_qr_scan"}, "lon": -77.05514483333333, "fusion_lat": 0.0}, {"name": "56749a76b798551435773a9ee7c9d21c", "fusion_lon": 0.0, "lat": 38.903861166666665, "is_reserved": 0, "type": "electric_scooter", "bike_id": "56749a76b798551435773a9ee7c9d21c", "is_disabled": 0, "rental_uris": {"android": "https://dc.lft.to/lastmile_qr_scan", "ios": "https://dc.lft.to/lastmile_qr_scan"}, "lon": -77.04017383333333, "fusion_lat": 0.0}, {"name": "3e915f53f5712cf5185c75c4ed6c3196", "fusion_lon": 0.0, "lat": 38.9000545, "is_reserved": 0, "type": "electric_scooter", "bike_id": "3e915f53f5712cf5185c75c4ed6c3196", "is_disabled": 0, "rental_uris": {"android": "https://dc.lft.to/lastmile_qr_scan", "ios": "https://dc.lft.to/lastmile_qr_scan"}, "lon": -77.0013105, "fusion_lat": 0.0}, {"name": "631160251dc910d55c65ebf8b6fa83af", "fusion_lon": 0.0, "lat": 38.904233166666664, "is_reserved": 0, "type": "electric_scooter", "bike_id": "631160251dc910d55c65ebf8b6fa83af", "is_disabled": 0, "rental_uris": {"android": "https://dc.lft.to/lastmile_qr_scan", "ios": "https://dc.lft.to/lastmile_qr_scan"}, "lon": -77.0435615, "fusion_lat": 0.0}, {"name": "b7bfc7dcccc6d494cdd01f68ef91de03", "fusion_lon": 0.0, "lat": 38.897086, "is_reserved": 0, "type": "electric_scooter", "bike_id": "b7bfc7dcccc6d494cdd01f68ef91de03", "is_disabled": 0, "rental_uris": {"android": "https://dc.lft.to/lastmile_qr_scan", "ios": "https://dc.lft.to/lastmile_qr_scan"}, "lon": -77.021479, "fusion_lat": 0.0}, {"name": "802cf0c59408a6a9188e212093c34768", "fusion_lon": 0.0, "lat": 38.89949166666667, "is_reserved": 0, "type": "electric_scooter", "bike_id": "802cf0c59408a6a9188e212093c34768", "is_disabled": 0, "rental_uris": {"android": "https://dc.lft.to/lastmile_qr_scan", "ios": "https://dc.lft.to/lastmile_qr_scan"}, "lon": -77.0479945, "fusion_lat": 0.0}, {"name": "fe6186d8a668af58b5a148cb10bed533", "fusion_lon": 0.0, "lat": 38.90146683333333, "is_reserved": 0, "type": "electric_scooter", "bike_id": "fe6186d8a668af58b5a148cb10bed533", "is_disabled": 0, "rental_uris": {"android": "https://dc.lft.to/lastmile_qr_scan", "ios": "https://dc.lft.to/lastmile_qr_scan"}, "lon": -77.0198715, "fusion_lat": 0.0}, {"name": "2aba717093668ab384617facd818a2af", "fusion_lon": 0.0, "lat": 38.8708355, "is_reserved": 0, "type": "electric_bike", "bike_id": "2aba717093668ab384617facd818a2af", "is_disabled": 0, "rental_uris": {"android": "https://dc.lft.to/lastmile_qr_scan", "ios": "https://dc.lft.to/lastmile_qr_scan"}, "lon": -77.01208283333334, "fusion_lat": 0.0}, {"name": "32c305349d77bee894e17ac762d59c5e", "fusion_lon": 0.0, "lat": 38.930687166666665, "is_reserved": 0, "type": "electric_scooter", "bike_id": "32c305349d77bee894e17ac762d59c5e", "is_disabled": 0, "rental_uris": {"android": "https://dc.lft.to/lastmile_qr_scan", "ios": "https://dc.lft.to/lastmile_qr_scan"}, "lon": -77.02190116666667, "fusion_lat": 0.0}, {"name": "839ad9d7623f8794753415ada17cd769", "fusion_lon": 0.0, "lat": 38.9027435, "is_reserved": 0, "type": "electric_scooter", "bike_id": "839ad9d7623f8794753415ada17cd769", "is_disabled": 0, "rental_uris": {"android": "https://dc.lft.to/lastmile_qr_scan", "ios": "https://dc.lft.to/lastmile_qr_scan"}, "lon": -77.05920133333333, "fusion_lat": 0.0}, {"name": "9d3f05c4d8a5e6bad24fd2c4f551a030", "fusion_lon": 0.0, "lat": 38.897483333333334, "is_reserved": 0, "type": "electric_scooter", "bike_id": "9d3f05c4d8a5e6bad24fd2c4f551a030", "is_disabled": 0, "rental_uris": {"android": "https://dc.lft.to/lastmile_qr_scan", "ios": "https://dc.lft.to/lastmile_qr_scan"}, "lon": -77.007776, "fusion_lat": 0.0}, {"name": "5fb8086a7bdf214377f5c43d744b08d1", "fusion_lon": 0.0, "lat": 38.907551166666664, "is_reserved": 0, "type": "electric_scooter", "bike_id": "5fb8086a7bdf214377f5c43d744b08d1", "is_disabled": 0, "rental_uris": {"android": "https://dc.lft.to/lastmile_qr_scan", "ios": "https://dc.lft.to/lastmile_qr_scan"}, "lon": -77.04350683333334, "fusion_lat": 0.0}, {"name": "b13eb18cec55a4cc2e33f663c4665f60", "fusion_lon": 0.0, "lat": 38.869518666666664, "is_reserved": 0, "type": "electric_scooter", "bike_id": "b13eb18cec55a4cc2e33f663c4665f60", "is_disabled": 0, "rental_uris": {"android": "https://dc.lft.to/lastmile_qr_scan", "ios": "https://dc.lft.to/lastmile_qr_scan"}, "lon": -76.98168416666667, "fusion_lat": 0.0}, {"name": "dabf93c3c07088c77336b9249e17dcbe", "fusion_lon": 0.0, "lat": 38.94605933333333, "is_reserved": 0, "type": "electric_bike", "bike_id": "dabf93c3c07088c77336b9249e17dcbe", "is_disabled": 0, "rental_uris": {"android": "https://dc.lft.to/lastmile_qr_scan", "ios": "https://dc.lft.to/lastmile_qr_scan"}, "lon": -77.007119, "fusion_lat": 0.0}, {"name": "1fe7c4e102e9ac3a1ba5d78dbbc14939", "fusion_lon": 0.0, "lat": 38.952530833333334, "is_reserved": 0, "type": "electric_bike", "bike_id": "1fe7c4e102e9ac3a1ba5d78dbbc14939", "is_disabled": 0, "rental_uris": {"android": "https://dc.lft.to/lastmile_qr_scan", "ios": "https://dc.lft.to/lastmile_qr_scan"}, "lon": -76.976738, "fusion_lat": 0.0}, {"name": "5647031c0c88dbf45a694768713068bc", "fusion_lon": 0.0, "lat": 38.9189475, "is_reserved": 0, "type": "electric_scooter", "bike_id": "5647031c0c88dbf45a694768713068bc", "is_disabled": 0, "rental_uris": {"android": "https://dc.lft.to/lastmile_qr_scan", "ios": "https://dc.lft.to/lastmile_qr_scan"}, "lon": -77.04829933333333, "fusion_lat": 0.0}, {"name": "76406af5eb89f69ee59ed1957c1603e6", "fusion_lon": 0.0, "lat": 38.90665633333333, "is_reserved": 0, "type": "electric_scooter", "bike_id": "76406af5eb89f69ee59ed1957c1603e6", "is_disabled": 0, "rental_uris": {"android": "https://dc.lft.to/lastmile_qr_scan", "ios": "https://dc.lft.to/lastmile_qr_scan"}, "lon": -77.01025516666667, "fusion_lat": 0.0}, {"name": "1b92d33517ba4b61d235b55f8f8f4d1c", "fusion_lon": 0.0, "lat": 38.92173366666667, "is_reserved": 0, "type": "electric_scooter", "bike_id": "1b92d33517ba4b61d235b55f8f8f4d1c", "is_disabled": 0, "rental_uris": {"android": "https://dc.lft.to/lastmile_qr_scan", "ios": "https://dc.lft.to/lastmile_qr_scan"}, "lon": -77.02223133333334, "fusion_lat": 0.0}, {"name": "6cb9e3677fdca668fd9795a637dd6f45", "fusion_lon": 0.0, "lat": 38.92696, "is_reserved": 0, "type": "electric_scooter", "bike_id": "6cb9e3677fdca668fd9795a637dd6f45", "is_disabled": 0, "rental_uris": {"android": "https://dc.lft.to/lastmile_qr_scan", "ios": "https://dc.lft.to/lastmile_qr_scan"}, "lon": -77.020658, "fusion_lat": 0.0}, {"name": "1c9351d72173a014d4ab8f15dce72fb2", "fusion_lon": 0.0, "lat": 38.9289665, "is_reserved": 0, "type": "electric_bike", "bike_id": "1c9351d72173a014d4ab8f15dce72fb2", "is_disabled": 0, "rental_uris": {"android": "https://dc.lft.to/lastmile_qr_scan", "ios": "https://dc.lft.to/lastmile_qr_scan"}, "lon": -77.084003, "fusion_lat": 0.0}, {"name": "978ea85a110a779ac79a6c8683729166", "fusion_lon": 0.0, "lat": 38.9020905, "is_reserved": 0, "type": "electric_scooter", "bike_id": "978ea85a110a779ac79a6c8683729166", "is_disabled": 0, "rental_uris": {"android": "https://dc.lft.to/lastmile_qr_scan", "ios": "https://dc.lft.to/lastmile_qr_scan"}, "lon": -77.0236845, "fusion_lat": 0.0}, {"name": "ebd9212fe4b4de8d78595d497167b255", "fusion_lon": 0.0, "lat": 38.9052625, "is_reserved": 0, "type": "electric_scooter", "bike_id": "ebd9212fe4b4de8d78595d497167b255", "is_disabled": 0, "rental_uris": {"android": "https://dc.lft.to/lastmile_qr_scan", "ios": "https://dc.lft.to/lastmile_qr_scan"}, "lon": -77.00203866666666, "fusion_lat": 0.0}, {"name": "62b488651b2b5ad9dce94383659ebed8", "fusion_lon": 0.0, "lat": 38.886630333333336, "is_reserved": 0, "type": "electric_scooter", "bike_id": "62b488651b2b5ad9dce94383659ebed8", "is_disabled": 0, "rental_uris": {"android": "https://dc.lft.to/lastmile_qr_scan", "ios": "https://dc.lft.to/lastmile_qr_scan"}, "lon": -76.99988166666667, "fusion_lat": 0.0}, {"name": "69e043d3dc30af8717ef133cdc496a5e", "fusion_lon": 0.0, "lat": 38.924647, "is_reserved": 0, "type": "electric_scooter", "bike_id": "69e043d3dc30af8717ef133cdc496a5e", "is_disabled": 0, "rental_uris": {"android": "https://dc.lft.to/lastmile_qr_scan", "ios": "https://dc.lft.to/lastmile_qr_scan"}, "lon": -77.02710683333333, "fusion_lat": 0.0}, {"name": "9ed767c7c78c3ae56236901acbc17ec8", "fusion_lon": 0.0, "lat": 38.87561616666667, "is_reserved": 0, "type": "electric_scooter", "bike_id": "9ed767c7c78c3ae56236901acbc17ec8", "is_disabled": 0, "rental_uris": {"android": "https://dc.lft.to/lastmile_qr_scan", "ios": "https://dc.lft.to/lastmile_qr_scan"}, "lon": -77.00568466666667, "fusion_lat": 0.0}, {"name": "5cc1b9495f0f4ee490b8756ef8e8c505", "fusion_lon": 0.0, "lat": 38.903749833333336, "is_reserved": 0, "type": "electric_scooter", "bike_id": "5cc1b9495f0f4ee490b8756ef8e8c505", "is_disabled": 0, "rental_uris": {"android": "https://dc.lft.to/lastmile_qr_scan", "ios": "https://dc.lft.to/lastmile_qr_scan"}, "lon": -77.03647066666667, "fusion_lat": 0.0}, {"name": "c24b43fe5e2a0125a2a066a700651841", "fusion_lon": 0.0, "lat": 38.88409516666667, "is_reserved": 0, "type": "electric_scooter", "bike_id": "c24b43fe5e2a0125a2a066a700651841", "is_disabled": 0, "rental_uris": {"android": "https://dc.lft.to/lastmile_qr_scan", "ios": "https://dc.lft.to/lastmile_qr_scan"}, "lon": -76.95396983333333, "fusion_lat": 0.0}, {"name": "94f3ed9eebed71da386df14da1a7303e", "fusion_lon": 0.0, "lat": 38.92973083333333, "is_reserved": 0, "type": "electric_scooter", "bike_id": "94f3ed9eebed71da386df14da1a7303e", "is_disabled": 0, "rental_uris": {"android": "https://dc.lft.to/lastmile_qr_scan", "ios": "https://dc.lft.to/lastmile_qr_scan"}, "lon": -77.02824, "fusion_lat": 0.0}, {"name": "e07bb348fc20ab3aa9726cc461871785", "fusion_lon": 0.0, "lat": 38.94040016666667, "is_reserved": 0, "type": "electric_scooter", "bike_id": "e07bb348fc20ab3aa9726cc461871785", "is_disabled": 0, "rental_uris": {"android": "https://dc.lft.to/lastmile_qr_scan", "ios": "https://dc.lft.to/lastmile_qr_scan"}, "lon": -77.02907833333333, "fusion_lat": 0.0}, {"name": "dd4ee3a081107a6a3b6ef7e67914ac2c", "fusion_lon": 0.0, "lat": 38.83828883333334, "is_reserved": 0, "type": "electric_bike", "bike_id": "dd4ee3a081107a6a3b6ef7e67914ac2c", "is_disabled": 0, "rental_uris": {"android": "https://dc.lft.to/lastmile_qr_scan", "ios": "https://dc.lft.to/lastmile_qr_scan"}, "lon": -77.07918116666667, "fusion_lat": 0.0}, {"name": "f67c5df4840a631ac68572938d48882e", "fusion_lon": 0.0, "lat": 38.91075416666666, "is_reserved": 0, "type": "electric_scooter", "bike_id": "f67c5df4840a631ac68572938d48882e", "is_disabled": 0, "rental_uris": {"android": "https://dc.lft.to/lastmile_qr_scan", "ios": "https://dc.lft.to/lastmile_qr_scan"}, "lon": -77.03841533333333, "fusion_lat": 0.0}, {"name": "ae4cd9f15265e700d24d7a1f9e2ebfe2", "fusion_lon": 0.0, "lat": 38.9613715, "is_reserved": 0, "type": "electric_bike", "bike_id": "ae4cd9f15265e700d24d7a1f9e2ebfe2", "is_disabled": 0, "rental_uris": {"android": "https://dc.lft.to/lastmile_qr_scan", "ios": "https://dc.lft.to/lastmile_qr_scan"}, "lon": -77.01363283333333, "fusion_lat": 0.0}, {"name": "b190fe1d8aaca94a7c146b5d05750949", "fusion_lon": 0.0, "lat": 38.9142095, "is_reserved": 0, "type": "electric_scooter", "bike_id": "b190fe1d8aaca94a7c146b5d05750949", "is_disabled": 0, "rental_uris": {"android": "https://dc.lft.to/lastmile_qr_scan", "ios": "https://dc.lft.to/lastmile_qr_scan"}, "lon": -77.0222715, "fusion_lat": 0.0}, {"name": "374436c2eac0ba0c0cdbc4fb8af09fc1", "fusion_lon": 0.0, "lat": 38.90794266666666, "is_reserved": 0, "type": "electric_scooter", "bike_id": "374436c2eac0ba0c0cdbc4fb8af09fc1", "is_disabled": 0, "rental_uris": {"android": "https://dc.lft.to/lastmile_qr_scan", "ios": "https://dc.lft.to/lastmile_qr_scan"}, "lon": -77.03864633333333, "fusion_lat": 0.0}, {"name": "7f0092e34b5d861d2800b15d47d1df58", "fusion_lon": 0.0, "lat": 38.908367166666665, "is_reserved": 0, "type": "electric_bike", "bike_id": "7f0092e34b5d861d2800b15d47d1df58", "is_disabled": 0, "rental_uris": {"android": "https://dc.lft.to/lastmile_qr_scan", "ios": "https://dc.lft.to/lastmile_qr_scan"}, "lon": -76.93307966666667, "fusion_lat": 0.0}, {"name": "2aed351631cbf758f8173f134afb52ee", "fusion_lon": 0.0, "lat": 38.9224515, "is_reserved": 0, "type": "electric_scooter", "bike_id": "2aed351631cbf758f8173f134afb52ee", "is_disabled": 0, "rental_uris": {"android": "https://dc.lft.to/lastmile_qr_scan", "ios": "https://dc.lft.to/lastmile_qr_scan"}, "lon": -77.03898666666667, "fusion_lat": 0.0}, {"name": "69e0fd2bf0062b0feb760ef8f760a350", "fusion_lon": 0.0, "lat": 38.9289715, "is_reserved": 0, "type": "electric_scooter", "bike_id": "69e0fd2bf0062b0feb760ef8f760a350", "is_disabled": 0, "rental_uris": {"android": "https://dc.lft.to/lastmile_qr_scan", "ios": "https://dc.lft.to/lastmile_qr_scan"}, "lon": -77.0276195, "fusion_lat": 0.0}, {"name": "480518ecf751a3d2eb3abaacabd03274", "fusion_lon": 0.0, "lat": 38.928287, "is_reserved": 0, "type": "electric_scooter", "bike_id": "480518ecf751a3d2eb3abaacabd03274", "is_disabled": 0, "rental_uris": {"android": "https://dc.lft.to/lastmile_qr_scan", "ios": "https://dc.lft.to/lastmile_qr_scan"}, "lon": -77.02626383333333, "fusion_lat": 0.0}, {"name": "8240864d415fda27c11cd84cca9b2fcd", "fusion_lon": 0.0, "lat": 38.92037783333333, "is_reserved": 0, "type": "electric_scooter", "bike_id": "8240864d415fda27c11cd84cca9b2fcd", "is_disabled": 0, "rental_uris": {"android": "https://dc.lft.to/lastmile_qr_scan", "ios": "https://dc.lft.to/lastmile_qr_scan"}, "lon": -77.025891, "fusion_lat": 0.0}, {"name": "155a0fc5ebf18d93237419df225f474a", "fusion_lon": 0.0, "lat": 38.898096833333334, "is_reserved": 0, "type": "electric_scooter", "bike_id": "155a0fc5ebf18d93237419df225f474a", "is_disabled": 0, "rental_uris": {"android": "https://dc.lft.to/lastmile_qr_scan", "ios": "https://dc.lft.to/lastmile_qr_scan"}, "lon": -77.05455833333333, "fusion_lat": 0.0}, {"name": "4940d2397f6dfa7f62939aaa68faa44b", "fusion_lon": 0.0, "lat": 38.90336116666667, "is_reserved": 0, "type": "electric_scooter", "bike_id": "4940d2397f6dfa7f62939aaa68faa44b", "is_disabled": 0, "rental_uris": {"android": "https://dc.lft.to/lastmile_qr_scan", "ios": "https://dc.lft.to/lastmile_qr_scan"}, "lon": -76.97589716666667, "fusion_lat": 0.0}, {"name": "bf2da48dcea15e35cbc36e240559cffa", "fusion_lon": 0.0, "lat": 38.87077816666667, "is_reserved": 0, "type": "electric_scooter", "bike_id": "bf2da48dcea15e35cbc36e240559cffa", "is_disabled": 0, "rental_uris": {"android": "https://dc.lft.to/lastmile_qr_scan", "ios": "https://dc.lft.to/lastmile_qr_scan"}, "lon": -76.98910916666667, "fusion_lat": 0.0}, {"name": "c744f95f25ea1e15c5d7dcb6411f8e84", "fusion_lon": 0.0, "lat": 38.9068685, "is_reserved": 0, "type": "electric_scooter", "bike_id": "c744f95f25ea1e15c5d7dcb6411f8e84", "is_disabled": 0, "rental_uris": {"android": "https://dc.lft.to/lastmile_qr_scan", "ios": "https://dc.lft.to/lastmile_qr_scan"}, "lon": -77.07169466666667, "fusion_lat": 0.0}, {"name": "1122b854001265977306b9d75cc7597b", "fusion_lon": 0.0, "lat": 38.96396516666667, "is_reserved": 0, "type": "electric_scooter", "bike_id": "1122b854001265977306b9d75cc7597b", "is_disabled": 0, "rental_uris": {"android": "https://dc.lft.to/lastmile_qr_scan", "ios": "https://dc.lft.to/lastmile_qr_scan"}, "lon": -77.02592166666666, "fusion_lat": 0.0}, {"name": "cf985277f1bc54062f606f135c3fcc63", "fusion_lon": 0.0, "lat": 38.92310033333333, "is_reserved": 0, "type": "electric_scooter", "bike_id": "cf985277f1bc54062f606f135c3fcc63", "is_disabled": 0, "rental_uris": {"android": "https://dc.lft.to/lastmile_qr_scan", "ios": "https://dc.lft.to/lastmile_qr_scan"}, "lon": -77.02967883333334, "fusion_lat": 0.0}, {"name": "9bb99c312f3eb528adbab54481eb28f1", "fusion_lon": 0.0, "lat": 38.8995725, "is_reserved": 0, "type": "electric_scooter", "bike_id": "9bb99c312f3eb528adbab54481eb28f1", "is_disabled": 0, "rental_uris": {"android": "https://dc.lft.to/lastmile_qr_scan", "ios": "https://dc.lft.to/lastmile_qr_scan"}, "lon": -77.01608916666666, "fusion_lat": 0.0}, {"name": "ca11c6e248ce0fae17a9a9e45fb3e027", "fusion_lon": 0.0, "lat": 38.917718, "is_reserved": 0, "type": "electric_scooter", "bike_id": "ca11c6e248ce0fae17a9a9e45fb3e027", "is_disabled": 0, "rental_uris": {"android": "https://dc.lft.to/lastmile_qr_scan", "ios": "https://dc.lft.to/lastmile_qr_scan"}, "lon": -77.04057966666667, "fusion_lat": 0.0}, {"name": "d5da63dff2ad845e1274774d74325560", "fusion_lon": 0.0, "lat": 38.92310783333333, "is_reserved": 0, "type": "electric_scooter", "bike_id": "d5da63dff2ad845e1274774d74325560", "is_disabled": 0, "rental_uris": {"android": "https://dc.lft.to/lastmile_qr_scan", "ios": "https://dc.lft.to/lastmile_qr_scan"}, "lon": -77.03120283333334, "fusion_lat": 0.0}, {"name": "e1db15893c2a2330924a9f656a6d65ed", "fusion_lon": 0.0, "lat": 38.91627233333333, "is_reserved": 0, "type": "electric_scooter", "bike_id": "e1db15893c2a2330924a9f656a6d65ed", "is_disabled": 0, "rental_uris": {"android": "https://dc.lft.to/lastmile_qr_scan", "ios": "https://dc.lft.to/lastmile_qr_scan"}, "lon": -77.03852583333334, "fusion_lat": 0.0}, {"name": "1e4246864b82ab57b1f136899d033c82", "fusion_lon": 0.0, "lat": 38.9211615, "is_reserved": 0, "type": "electric_scooter", "bike_id": "1e4246864b82ab57b1f136899d033c82", "is_disabled": 0, "rental_uris": {"android": "https://dc.lft.to/lastmile_qr_scan", "ios": "https://dc.lft.to/lastmile_qr_scan"}, "lon": -77.03177983333333, "fusion_lat": 0.0}, {"name": "691b030edfdd7c9d69102ddafb1bc2aa", "fusion_lon": 0.0, "lat": 38.896696666666664, "is_reserved": 0, "type": "electric_scooter", "bike_id": "691b030edfdd7c9d69102ddafb1bc2aa", "is_disabled": 0, "rental_uris": {"android": "https://dc.lft.to/lastmile_qr_scan", "ios": "https://dc.lft.to/lastmile_qr_scan"}, "lon": -76.98813766666666, "fusion_lat": 0.0}, {"name": "fa46d3283fec09f57cedca984fc5a610", "fusion_lon": 0.0, "lat": 38.89771533333333, "is_reserved": 0, "type": "electric_scooter", "bike_id": "fa46d3283fec09f57cedca984fc5a610", "is_disabled": 0, "rental_uris": {"android": "https://dc.lft.to/lastmile_qr_scan", "ios": "https://dc.lft.to/lastmile_qr_scan"}, "lon": -77.02697666666667, "fusion_lat": 0.0}, {"name": "d94b31ed7366e2de5d48526fd348c058", "fusion_lon": 0.0, "lat": 38.90419083333333, "is_reserved": 0, "type": "electric_scooter", "bike_id": "d94b31ed7366e2de5d48526fd348c058", "is_disabled": 0, "rental_uris": {"android": "https://dc.lft.to/lastmile_qr_scan", "ios": "https://dc.lft.to/lastmile_qr_scan"}, "lon": -77.03278483333334, "fusion_lat": 0.0}, {"name": "425b798108ab3c53edf2b9a34b60b948", "fusion_lon": 0.0, "lat": 38.941576, "is_reserved": 0, "type": "electric_bike", "bike_id": "425b798108ab3c53edf2b9a34b60b948", "is_disabled": 0, "rental_uris": {"android": "https://dc.lft.to/lastmile_qr_scan", "ios": "https://dc.lft.to/lastmile_qr_scan"}, "lon": -77.00197683333333, "fusion_lat": 0.0}, {"name": "f375bd5e88d4845674bdc9bcc1f2e10e", "fusion_lon": 0.0, "lat": 38.9141005, "is_reserved": 0, "type": "electric_scooter", "bike_id": "f375bd5e88d4845674bdc9bcc1f2e10e", "is_disabled": 0, "rental_uris": {"android": "https://dc.lft.to/lastmile_qr_scan", "ios": "https://dc.lft.to/lastmile_qr_scan"}, "lon": -77.043729, "fusion_lat": 0.0}, {"name": "021c15fd65c30566702c7fd96f1cf9dd", "fusion_lon": 0.0, "lat": 38.90831266666667, "is_reserved": 0, "type": "electric_bike", "bike_id": "021c15fd65c30566702c7fd96f1cf9dd", "is_disabled": 0, "rental_uris": {"android": "https://dc.lft.to/lastmile_qr_scan", "ios": "https://dc.lft.to/lastmile_qr_scan"}, "lon": -76.94156133333334, "fusion_lat": 0.0}, {"name": "2519230ce0e110a656aefa2612970a66", "fusion_lon": 0.0, "lat": 38.9192105, "is_reserved": 0, "type": "electric_scooter", "bike_id": "2519230ce0e110a656aefa2612970a66", "is_disabled": 0, "rental_uris": {"android": "https://dc.lft.to/lastmile_qr_scan", "ios": "https://dc.lft.to/lastmile_qr_scan"}, "lon": -77.03262633333334, "fusion_lat": 0.0}, {"name": "21bb62846098c7386b35fed155798be1", "fusion_lon": 0.0, "lat": 38.8922715, "is_reserved": 0, "type": "electric_scooter", "bike_id": "21bb62846098c7386b35fed155798be1", "is_disabled": 0, "rental_uris": {"android": "https://dc.lft.to/lastmile_qr_scan", "ios": "https://dc.lft.to/lastmile_qr_scan"}, "lon": -77.0222905, "fusion_lat": 0.0}, {"name": "ef7380dacfdb32ad0cf2f0ab8f3607b2", "fusion_lon": 0.0, "lat": 38.9172985, "is_reserved": 0, "type": "electric_scooter", "bike_id": "ef7380dacfdb32ad0cf2f0ab8f3607b2", "is_disabled": 0, "rental_uris": {"android": "https://dc.lft.to/lastmile_qr_scan", "ios": "https://dc.lft.to/lastmile_qr_scan"}, "lon": -77.02504916666666, "fusion_lat": 0.0}, {"name": "b5f04bd294176745f9e72d9018d239ff", "fusion_lon": 0.0, "lat": 38.9172795, "is_reserved": 0, "type": "electric_scooter", "bike_id": "b5f04bd294176745f9e72d9018d239ff", "is_disabled": 0, "rental_uris": {"android": "https://dc.lft.to/lastmile_qr_scan", "ios": "https://dc.lft.to/lastmile_qr_scan"}, "lon": -77.03199866666667, "fusion_lat": 0.0}, {"name": "e54490fb5aa1546880e43a037e472b1e", "fusion_lon": 0.0, "lat": 38.90644783333333, "is_reserved": 0, "type": "electric_scooter", "bike_id": "e54490fb5aa1546880e43a037e472b1e", "is_disabled": 0, "rental_uris": {"android": "https://dc.lft.to/lastmile_qr_scan", "ios": "https://dc.lft.to/lastmile_qr_scan"}, "lon": -77.05329516666667, "fusion_lat": 0.0}, {"name": "01122b0ef79aef97a947a538aa376d1d", "fusion_lon": 0.0, "lat": 38.9071755, "is_reserved": 0, "type": "electric_scooter", "bike_id": "01122b0ef79aef97a947a538aa376d1d", "is_disabled": 0, "rental_uris": {"android": "https://dc.lft.to/lastmile_qr_scan", "ios": "https://dc.lft.to/lastmile_qr_scan"}, "lon": -77.01481266666667, "fusion_lat": 0.0}, {"name": "d1b571232d8bf3a50f66fcaf13692ee3", "fusion_lon": 0.0, "lat": 38.92106583333333, "is_reserved": 0, "type": "electric_scooter", "bike_id": "d1b571232d8bf3a50f66fcaf13692ee3", "is_disabled": 0, "rental_uris": {"android": "https://dc.lft.to/lastmile_qr_scan", "ios": "https://dc.lft.to/lastmile_qr_scan"}, "lon": -77.03183316666667, "fusion_lat": 0.0}, {"name": "273c272d64407beb58b3e0d58032fa20", "fusion_lon": 0.0, "lat": 38.892231, "is_reserved": 0, "type": "electric_scooter", "bike_id": "273c272d64407beb58b3e0d58032fa20", "is_disabled": 0, "rental_uris": {"android": "https://dc.lft.to/lastmile_qr_scan", "ios": "https://dc.lft.to/lastmile_qr_scan"}, "lon": -77.03342616666667, "fusion_lat": 0.0}, {"name": "8ff3ab68d6203eeb9e727d9fc6f81564", "fusion_lon": 0.0, "lat": 38.9005905, "is_reserved": 0, "type": "electric_scooter", "bike_id": "8ff3ab68d6203eeb9e727d9fc6f81564", "is_disabled": 0, "rental_uris": {"android": "https://dc.lft.to/lastmile_qr_scan", "ios": "https://dc.lft.to/lastmile_qr_scan"}, "lon": -77.048429, "fusion_lat": 0.0}, {"name": "32f1f5853d305ff2dc3cd600fa2ed8f5", "fusion_lon": 0.0, "lat": 38.885066, "is_reserved": 0, "type": "electric_scooter", "bike_id": "32f1f5853d305ff2dc3cd600fa2ed8f5", "is_disabled": 0, "rental_uris": {"android": "https://dc.lft.to/lastmile_qr_scan", "ios": "https://dc.lft.to/lastmile_qr_scan"}, "lon": -76.97713083333333, "fusion_lat": 0.0}, {"name": "fafeb5a2fd60e28582a39725a69a76ed", "fusion_lon": 0.0, "lat": 38.9232425, "is_reserved": 0, "type": "electric_scooter", "bike_id": "fafeb5a2fd60e28582a39725a69a76ed", "is_disabled": 0, "rental_uris": {"android": "https://dc.lft.to/lastmile_qr_scan", "ios": "https://dc.lft.to/lastmile_qr_scan"}, "lon": -77.0357155, "fusion_lat": 0.0}, {"name": "5f79a416d51052fe9025b6e9af00af28", "fusion_lon": 0.0, "lat": 38.9150115, "is_reserved": 0, "type": "electric_scooter", "bike_id": "5f79a416d51052fe9025b6e9af00af28", "is_disabled": 0, "rental_uris": {"android": "https://dc.lft.to/lastmile_qr_scan", "ios": "https://dc.lft.to/lastmile_qr_scan"}, "lon": -77.03208833333333, "fusion_lat": 0.0}, {"name": "124a68fc273188f487cfe8fb21329d45", "fusion_lon": 0.0, "lat": 38.9026445, "is_reserved": 0, "type": "electric_scooter", "bike_id": "124a68fc273188f487cfe8fb21329d45", "is_disabled": 0, "rental_uris": {"android": "https://dc.lft.to/lastmile_qr_scan", "ios": "https://dc.lft.to/lastmile_qr_scan"}, "lon": -77.03406433333333, "fusion_lat": 0.0}, {"name": "6e15b4cdc64842e66aa7bf4d6657c2c6", "fusion_lon": 0.0, "lat": 38.89563183333333, "is_reserved": 0, "type": "electric_bike", "bike_id": "6e15b4cdc64842e66aa7bf4d6657c2c6", "is_disabled": 0, "rental_uris": {"android": "https://dc.lft.to/lastmile_qr_scan", "ios": "https://dc.lft.to/lastmile_qr_scan"}, "lon": -77.12732683333333, "fusion_lat": 0.0}, {"name": "54713b532ec86949782dac1f47d6dbf4", "fusion_lon": 0.0, "lat": 38.911344166666666, "is_reserved": 0, "type": "electric_scooter", "bike_id": "54713b532ec86949782dac1f47d6dbf4", "is_disabled": 0, "rental_uris": {"android": "https://dc.lft.to/lastmile_qr_scan", "ios": "https://dc.lft.to/lastmile_qr_scan"}, "lon": -77.028138, "fusion_lat": 0.0}, {"name": "83e4b30acd5b2d9f375e9466f71c0b23", "fusion_lon": 0.0, "lat": 38.866996, "is_reserved": 0, "type": "electric_scooter", "bike_id": "83e4b30acd5b2d9f375e9466f71c0b23", "is_disabled": 0, "rental_uris": {"android": "https://dc.lft.to/lastmile_qr_scan", "ios": "https://dc.lft.to/lastmile_qr_scan"}, "lon": -76.98712583333334, "fusion_lat": 0.0}, {"name": "ff3cb20a423cb7b62886680da56624fc", "fusion_lon": 0.0, "lat": 38.90184933333333, "is_reserved": 0, "type": "electric_scooter", "bike_id": "ff3cb20a423cb7b62886680da56624fc", "is_disabled": 0, "rental_uris": {"android": "https://dc.lft.to/lastmile_qr_scan", "ios": "https://dc.lft.to/lastmile_qr_scan"}, "lon": -77.01619783333334, "fusion_lat": 0.0}, {"name": "63a4a4abf6d7929a67a53f07c3d97d5b", "fusion_lon": 0.0, "lat": 38.91026733333333, "is_reserved": 0, "type": "electric_scooter", "bike_id": "63a4a4abf6d7929a67a53f07c3d97d5b", "is_disabled": 0, "rental_uris": {"android": "https://dc.lft.to/lastmile_qr_scan", "ios": "https://dc.lft.to/lastmile_qr_scan"}, "lon": -77.0075625, "fusion_lat": 0.0}, {"name": "77ad783a7081f7bf641d71cb640eed1f", "fusion_lon": 0.0, "lat": 38.9224685, "is_reserved": 0, "type": "electric_scooter", "bike_id": "77ad783a7081f7bf641d71cb640eed1f", "is_disabled": 0, "rental_uris": {"android": "https://dc.lft.to/lastmile_qr_scan", "ios": "https://dc.lft.to/lastmile_qr_scan"}, "lon": -77.03909733333333, "fusion_lat": 0.0}, {"name": "57f94b50724e0b39a8551398a2978ea6", "fusion_lon": 0.0, "lat": 38.92100833333333, "is_reserved": 0, "type": "electric_scooter", "bike_id": "57f94b50724e0b39a8551398a2978ea6", "is_disabled": 0, "rental_uris": {"android": "https://dc.lft.to/lastmile_qr_scan", "ios": "https://dc.lft.to/lastmile_qr_scan"}, "lon": -77.02399016666666, "fusion_lat": 0.0}, {"name": "3326dcb1f4950fe387dc861f3aad1ff1", "fusion_lon": 0.0, "lat": 38.9018835, "is_reserved": 0, "type": "electric_scooter", "bike_id": "3326dcb1f4950fe387dc861f3aad1ff1", "is_disabled": 0, "rental_uris": {"android": "https://dc.lft.to/lastmile_qr_scan", "ios": "https://dc.lft.to/lastmile_qr_scan"}, "lon": -77.02372333333334, "fusion_lat": 0.0}, {"name": "8ce6833d4b40aae8c7ecff79579584fe", "fusion_lon": 0.0, "lat": 38.89517766666667, "is_reserved": 0, "type": "electric_scooter", "bike_id": "8ce6833d4b40aae8c7ecff79579584fe", "is_disabled": 0, "rental_uris": {"android": "https://dc.lft.to/lastmile_qr_scan", "ios": "https://dc.lft.to/lastmile_qr_scan"}, "lon": -76.9882275, "fusion_lat": 0.0}, {"name": "97417f44f5c112f469661f77d544dade", "fusion_lon": 0.0, "lat": 38.874628666666666, "is_reserved": 0, "type": "electric_scooter", "bike_id": "97417f44f5c112f469661f77d544dade", "is_disabled": 0, "rental_uris": {"android": "https://dc.lft.to/lastmile_qr_scan", "ios": "https://dc.lft.to/lastmile_qr_scan"}, "lon": -77.00547133333333, "fusion_lat": 0.0}, {"name": "af62e75cd9238d1a944ad2cb9cba468d", "fusion_lon": 0.0, "lat": 38.906550833333334, "is_reserved": 0, "type": "electric_scooter", "bike_id": "af62e75cd9238d1a944ad2cb9cba468d", "is_disabled": 0, "rental_uris": {"android": "https://dc.lft.to/lastmile_qr_scan", "ios": "https://dc.lft.to/lastmile_qr_scan"}, "lon": -77.02496266666667, "fusion_lat": 0.0}, {"name": "b4f8d899fe0d07c8af50265f8ac5f76e", "fusion_lon": 0.0, "lat": 38.9149285, "is_reserved": 0, "type": "electric_scooter", "bike_id": "b4f8d899fe0d07c8af50265f8ac5f76e", "is_disabled": 0, "rental_uris": {"android": "https://dc.lft.to/lastmile_qr_scan", "ios": "https://dc.lft.to/lastmile_qr_scan"}, "lon": -76.98582433333333, "fusion_lat": 0.0}, {"name": "1a507a993cb3282a8c1773e6f68f7c81", "fusion_lon": 0.0, "lat": 38.923628, "is_reserved": 0, "type": "electric_scooter", "bike_id": "1a507a993cb3282a8c1773e6f68f7c81", "is_disabled": 0, "rental_uris": {"android": "https://dc.lft.to/lastmile_qr_scan", "ios": "https://dc.lft.to/lastmile_qr_scan"}, "lon": -77.0508025, "fusion_lat": 0.0}, {"name": "85cfce462568c293b4282b1f50a7feb1", "fusion_lon": 0.0, "lat": 38.90796666666667, "is_reserved": 0, "type": "electric_scooter", "bike_id": "85cfce462568c293b4282b1f50a7feb1", "is_disabled": 0, "rental_uris": {"android": "https://dc.lft.to/lastmile_qr_scan", "ios": "https://dc.lft.to/lastmile_qr_scan"}, "lon": -77.0382605, "fusion_lat": 0.0}, {"name": "2842ecb58e18bf319ff2b6810f2e0633", "fusion_lon": 0.0, "lat": 38.925065000000004, "is_reserved": 0, "type": "electric_scooter", "bike_id": "2842ecb58e18bf319ff2b6810f2e0633", "is_disabled": 0, "rental_uris": {"android": "https://dc.lft.to/lastmile_qr_scan", "ios": "https://dc.lft.to/lastmile_qr_scan"}, "lon": -77.00889416666666, "fusion_lat": 0.0}, {"name": "c395a43ebaa6fc62d050e61d24e023b6", "fusion_lon": 0.0, "lat": 38.90788216666667, "is_reserved": 0, "type": "electric_scooter", "bike_id": "c395a43ebaa6fc62d050e61d24e023b6", "is_disabled": 0, "rental_uris": {"android": "https://dc.lft.to/lastmile_qr_scan", "ios": "https://dc.lft.to/lastmile_qr_scan"}, "lon": -77.03827416666667, "fusion_lat": 0.0}, {"name": "051092ac64c1b8f271e70fb9607569b5", "fusion_lon": 0.0, "lat": 38.91992333333334, "is_reserved": 0, "type": "electric_scooter", "bike_id": "051092ac64c1b8f271e70fb9607569b5", "is_disabled": 0, "rental_uris": {"android": "https://dc.lft.to/lastmile_qr_scan", "ios": "https://dc.lft.to/lastmile_qr_scan"}, "lon": -76.973067, "fusion_lat": 0.0}, {"name": "4775911b47dbc47aa72e2f0ee5ad5dc1", "fusion_lon": 0.0, "lat": 38.90237916666667, "is_reserved": 0, "type": "electric_scooter", "bike_id": "4775911b47dbc47aa72e2f0ee5ad5dc1", "is_disabled": 0, "rental_uris": {"android": "https://dc.lft.to/lastmile_qr_scan", "ios": "https://dc.lft.to/lastmile_qr_scan"}, "lon": -76.97411116666666, "fusion_lat": 0.0}, {"name": "33d032bd537163fc8ce0a8a9b2f54c0d", "fusion_lon": 0.0, "lat": 38.92119616666667, "is_reserved": 0, "type": "electric_scooter", "bike_id": "33d032bd537163fc8ce0a8a9b2f54c0d", "is_disabled": 0, "rental_uris": {"android": "https://dc.lft.to/lastmile_qr_scan", "ios": "https://dc.lft.to/lastmile_qr_scan"}, "lon": -77.0333985, "fusion_lat": 0.0}, {"name": "b70fd14eb6a8c697a823241e177213eb", "fusion_lon": 0.0, "lat": 38.85179216666667, "is_reserved": 0, "type": "electric_scooter", "bike_id": "b70fd14eb6a8c697a823241e177213eb", "is_disabled": 0, "rental_uris": {"android": "https://dc.lft.to/lastmile_qr_scan", "ios": "https://dc.lft.to/lastmile_qr_scan"}, "lon": -76.99582816666667, "fusion_lat": 0.0}, {"name": "677f0661093f7200353d3b7a9f485974", "fusion_lon": 0.0, "lat": 38.917833333333334, "is_reserved": 0, "type": "electric_scooter", "bike_id": "677f0661093f7200353d3b7a9f485974", "is_disabled": 0, "rental_uris": {"android": "https://dc.lft.to/lastmile_qr_scan", "ios": "https://dc.lft.to/lastmile_qr_scan"}, "lon": -77.03204233333334, "fusion_lat": 0.0}, {"name": "2f12919497c6674b60ff5b5af68fd4b6", "fusion_lon": 0.0, "lat": 38.911939, "is_reserved": 0, "type": "electric_scooter", "bike_id": "2f12919497c6674b60ff5b5af68fd4b6", "is_disabled": 0, "rental_uris": {"android": "https://dc.lft.to/lastmile_qr_scan", "ios": "https://dc.lft.to/lastmile_qr_scan"}, "lon": -77.03834033333334, "fusion_lat": 0.0}, {"name": "05c8a12bcd491ddef1173b2386f59df1", "fusion_lon": 0.0, "lat": 38.93532366666667, "is_reserved": 0, "type": "electric_scooter", "bike_id": "05c8a12bcd491ddef1173b2386f59df1", "is_disabled": 0, "rental_uris": {"android": "https://dc.lft.to/lastmile_qr_scan", "ios": "https://dc.lft.to/lastmile_qr_scan"}, "lon": -77.05448416666667, "fusion_lat": 0.0}, {"name": "c7b70ec9433926ec76aa29e7d3f8ba81", "fusion_lon": 0.0, "lat": 38.89228266666667, "is_reserved": 0, "type": "electric_scooter", "bike_id": "c7b70ec9433926ec76aa29e7d3f8ba81", "is_disabled": 0, "rental_uris": {"android": "https://dc.lft.to/lastmile_qr_scan", "ios": "https://dc.lft.to/lastmile_qr_scan"}, "lon": -77.04371216666667, "fusion_lat": 0.0}, {"name": "fdcae166619f86fd0de863aab01ca901", "fusion_lon": 0.0, "lat": 38.928709, "is_reserved": 0, "type": "electric_scooter", "bike_id": "fdcae166619f86fd0de863aab01ca901", "is_disabled": 0, "rental_uris": {"android": "https://dc.lft.to/lastmile_qr_scan", "ios": "https://dc.lft.to/lastmile_qr_scan"}, "lon": -77.02726783333334, "fusion_lat": 0.0}, {"name": "cc3f58bd6ed4189c8eb7ca37382e41fe", "fusion_lon": 0.0, "lat": 38.9296005, "is_reserved": 0, "type": "electric_scooter", "bike_id": "cc3f58bd6ed4189c8eb7ca37382e41fe", "is_disabled": 0, "rental_uris": {"android": "https://dc.lft.to/lastmile_qr_scan", "ios": "https://dc.lft.to/lastmile_qr_scan"}, "lon": -77.03282433333334, "fusion_lat": 0.0}, {"name": "695a1a864b8cdfa9bc8743de150dd141", "fusion_lon": 0.0, "lat": 38.855529833333335, "is_reserved": 0, "type": "electric_bike", "bike_id": "695a1a864b8cdfa9bc8743de150dd141", "is_disabled": 0, "rental_uris": {"android": "https://dc.lft.to/lastmile_qr_scan", "ios": "https://dc.lft.to/lastmile_qr_scan"}, "lon": -77.12032333333333, "fusion_lat": 0.0}, {"name": "bd13d0e08377e95d154c95ec03631c4d", "fusion_lon": 0.0, "lat": 38.993287, "is_reserved": 0, "type": "electric_bike", "bike_id": "bd13d0e08377e95d154c95ec03631c4d", "is_disabled": 0, "rental_uris": {"android": "https://dc.lft.to/lastmile_qr_scan", "ios": "https://dc.lft.to/lastmile_qr_scan"}, "lon": -76.94614416666667, "fusion_lat": 0.0}, {"name": "2589596ad6bc639000a646c24621d8fa", "fusion_lon": 0.0, "lat": 38.9191105, "is_reserved": 0, "type": "electric_scooter", "bike_id": "2589596ad6bc639000a646c24621d8fa", "is_disabled": 0, "rental_uris": {"android": "https://dc.lft.to/lastmile_qr_scan", "ios": "https://dc.lft.to/lastmile_qr_scan"}, "lon": -77.04467533333333, "fusion_lat": 0.0}, {"name": "82c0058216cce8c64e4ef5c35817a362", "fusion_lon": 0.0, "lat": 38.922465, "is_reserved": 0, "type": "electric_scooter", "bike_id": "82c0058216cce8c64e4ef5c35817a362", "is_disabled": 0, "rental_uris": {"android": "https://dc.lft.to/lastmile_qr_scan", "ios": "https://dc.lft.to/lastmile_qr_scan"}, "lon": -77.04269583333334, "fusion_lat": 0.0}, {"name": "e63cf50230fa1bf84c6a45009fad93d5", "fusion_lon": 0.0, "lat": 38.91760166666667, "is_reserved": 0, "type": "electric_scooter", "bike_id": "e63cf50230fa1bf84c6a45009fad93d5", "is_disabled": 0, "rental_uris": {"android": "https://dc.lft.to/lastmile_qr_scan", "ios": "https://dc.lft.to/lastmile_qr_scan"}, "lon": -77.01607516666667, "fusion_lat": 0.0}, {"name": "bffed39d455a591988143838af151de3", "fusion_lon": 0.0, "lat": 38.939394, "is_reserved": 0, "type": "electric_scooter", "bike_id": "bffed39d455a591988143838af151de3", "is_disabled": 0, "rental_uris": {"android": "https://dc.lft.to/lastmile_qr_scan", "ios": "https://dc.lft.to/lastmile_qr_scan"}, "lon": -77.02484333333334, "fusion_lat": 0.0}, {"name": "80eeaccaf2089746869989c6e1492e9e", "fusion_lon": 0.0, "lat": 38.90293833333333, "is_reserved": 0, "type": "electric_scooter", "bike_id": "80eeaccaf2089746869989c6e1492e9e", "is_disabled": 0, "rental_uris": {"android": "https://dc.lft.to/lastmile_qr_scan", "ios": "https://dc.lft.to/lastmile_qr_scan"}, "lon": -77.04886516666667, "fusion_lat": 0.0}, {"name": "8f808592499c3fbb131ee9ee8a64c75e", "fusion_lon": 0.0, "lat": 38.886097, "is_reserved": 0, "type": "electric_scooter", "bike_id": "8f808592499c3fbb131ee9ee8a64c75e", "is_disabled": 0, "rental_uris": {"android": "https://dc.lft.to/lastmile_qr_scan", "ios": "https://dc.lft.to/lastmile_qr_scan"}, "lon": -76.99511633333333, "fusion_lat": 0.0}, {"name": "7f74f3ca932b9fc42e49abdec39c4a26", "fusion_lon": 0.0, "lat": 38.908697333333336, "is_reserved": 0, "type": "electric_scooter", "bike_id": "7f74f3ca932b9fc42e49abdec39c4a26", "is_disabled": 0, "rental_uris": {"android": "https://dc.lft.to/lastmile_qr_scan", "ios": "https://dc.lft.to/lastmile_qr_scan"}, "lon": -77.02422933333334, "fusion_lat": 0.0}, {"name": "8ac4b6ee3c840152453a989bf0022332", "fusion_lon": 0.0, "lat": 38.91795283333333, "is_reserved": 0, "type": "electric_scooter", "bike_id": "8ac4b6ee3c840152453a989bf0022332", "is_disabled": 0, "rental_uris": {"android": "https://dc.lft.to/lastmile_qr_scan", "ios": "https://dc.lft.to/lastmile_qr_scan"}, "lon": -77.03447016666667, "fusion_lat": 0.0}, {"name": "d7358d42a24a7cb809eacc74bd7abfc1", "fusion_lon": 0.0, "lat": 38.9055375, "is_reserved": 0, "type": "electric_scooter", "bike_id": "d7358d42a24a7cb809eacc74bd7abfc1", "is_disabled": 0, "rental_uris": {"android": "https://dc.lft.to/lastmile_qr_scan", "ios": "https://dc.lft.to/lastmile_qr_scan"}, "lon": -77.0059005, "fusion_lat": 0.0}, {"name": "d24ee8b65e73ee424a74ee9fd464d693", "fusion_lon": 0.0, "lat": 38.862269833333336, "is_reserved": 0, "type": "electric_bike", "bike_id": "d24ee8b65e73ee424a74ee9fd464d693", "is_disabled": 0, "rental_uris": {"android": "https://dc.lft.to/lastmile_qr_scan", "ios": "https://dc.lft.to/lastmile_qr_scan"}, "lon": -76.99566216666666, "fusion_lat": 0.0}, {"name": "d775d74a09551eb638cf02ee46c1ea54", "fusion_lon": 0.0, "lat": 38.91572383333333, "is_reserved": 0, "type": "electric_scooter", "bike_id": "d775d74a09551eb638cf02ee46c1ea54", "is_disabled": 0, "rental_uris": {"android": "https://dc.lft.to/lastmile_qr_scan", "ios": "https://dc.lft.to/lastmile_qr_scan"}, "lon": -77.02384566666667, "fusion_lat": 0.0}, {"name": "222d18895cf6c202a41101d1b1c8a4b5", "fusion_lon": 0.0, "lat": 38.917006, "is_reserved": 0, "type": "electric_scooter", "bike_id": "222d18895cf6c202a41101d1b1c8a4b5", "is_disabled": 0, "rental_uris": {"android": "https://dc.lft.to/lastmile_qr_scan", "ios": "https://dc.lft.to/lastmile_qr_scan"}, "lon": -77.03150683333334, "fusion_lat": 0.0}, {"name": "3477da1603b29abbb665ff7c55c7c1c4", "fusion_lon": 0.0, "lat": 38.906032, "is_reserved": 0, "type": "electric_scooter", "bike_id": "3477da1603b29abbb665ff7c55c7c1c4", "is_disabled": 0, "rental_uris": {"android": "https://dc.lft.to/lastmile_qr_scan", "ios": "https://dc.lft.to/lastmile_qr_scan"}, "lon": -77.0220495, "fusion_lat": 0.0}, {"name": "6b14af8e3b1bdb8fc0eab93115a67185", "fusion_lon": 0.0, "lat": 38.90268616666667, "is_reserved": 0, "type": "electric_scooter", "bike_id": "6b14af8e3b1bdb8fc0eab93115a67185", "is_disabled": 0, "rental_uris": {"android": "https://dc.lft.to/lastmile_qr_scan", "ios": "https://dc.lft.to/lastmile_qr_scan"}, "lon": -77.01748566666667, "fusion_lat": 0.0}, {"name": "dc8beb51853a3a7ab42f62ef53f37f76", "fusion_lon": 0.0, "lat": 38.92938816666667, "is_reserved": 0, "type": "electric_scooter", "bike_id": "dc8beb51853a3a7ab42f62ef53f37f76", "is_disabled": 0, "rental_uris": {"android": "https://dc.lft.to/lastmile_qr_scan", "ios": "https://dc.lft.to/lastmile_qr_scan"}, "lon": -77.03286233333333, "fusion_lat": 0.0}, {"name": "093289427ad5e0f018ccd2ed1f31967d", "fusion_lon": 0.0, "lat": 38.905715666666666, "is_reserved": 0, "type": "electric_scooter", "bike_id": "093289427ad5e0f018ccd2ed1f31967d", "is_disabled": 0, "rental_uris": {"android": "https://dc.lft.to/lastmile_qr_scan", "ios": "https://dc.lft.to/lastmile_qr_scan"}, "lon": -77.00582816666666, "fusion_lat": 0.0}, {"name": "f514c6c42522c817653d77cda99d297f", "fusion_lon": 0.0, "lat": 38.9082485, "is_reserved": 0, "type": "electric_scooter", "bike_id": "f514c6c42522c817653d77cda99d297f", "is_disabled": 0, "rental_uris": {"android": "https://dc.lft.to/lastmile_qr_scan", "ios": "https://dc.lft.to/lastmile_qr_scan"}, "lon": -77.03865316666666, "fusion_lat": 0.0}, {"name": "e8c44ed2d1b6064da4ba6389f2ccb840", "fusion_lon": 0.0, "lat": 38.875809333333336, "is_reserved": 0, "type": "electric_scooter", "bike_id": "e8c44ed2d1b6064da4ba6389f2ccb840", "is_disabled": 0, "rental_uris": {"android": "https://dc.lft.to/lastmile_qr_scan", "ios": "https://dc.lft.to/lastmile_qr_scan"}, "lon": -77.00610383333333, "fusion_lat": 0.0}, {"name": "9e111f26aa74ede9bfab1c77c72a782a", "fusion_lon": 0.0, "lat": 38.884993333333334, "is_reserved": 0, "type": "electric_scooter", "bike_id": "9e111f26aa74ede9bfab1c77c72a782a", "is_disabled": 0, "rental_uris": {"android": "https://dc.lft.to/lastmile_qr_scan", "ios": "https://dc.lft.to/lastmile_qr_scan"}, "lon": -77.00876016666666, "fusion_lat": 0.0}, {"name": "ec4a1fbeb43254e59146c52d6eab2ec2", "fusion_lon": 0.0, "lat": 38.94293116666667, "is_reserved": 0, "type": "electric_scooter", "bike_id": "ec4a1fbeb43254e59146c52d6eab2ec2", "is_disabled": 0, "rental_uris": {"android": "https://dc.lft.to/lastmile_qr_scan", "ios": "https://dc.lft.to/lastmile_qr_scan"}, "lon": -77.02171066666666, "fusion_lat": 0.0}, {"name": "61e73290f663a181f5f845a12973092e", "fusion_lon": 0.0, "lat": 38.90820633333333, "is_reserved": 0, "type": "electric_scooter", "bike_id": "61e73290f663a181f5f845a12973092e", "is_disabled": 0, "rental_uris": {"android": "https://dc.lft.to/lastmile_qr_scan", "ios": "https://dc.lft.to/lastmile_qr_scan"}, "lon": -77.03945466666667, "fusion_lat": 0.0}, {"name": "e04b4fdf9c97bf2f636c9ab97b8fd946", "fusion_lon": 0.0, "lat": 38.900686, "is_reserved": 0, "type": "electric_scooter", "bike_id": "e04b4fdf9c97bf2f636c9ab97b8fd946", "is_disabled": 0, "rental_uris": {"android": "https://dc.lft.to/lastmile_qr_scan", "ios": "https://dc.lft.to/lastmile_qr_scan"}, "lon": -76.9274395, "fusion_lat": 0.0}, {"name": "3cdb031eeff85bd8071daa005cd8e37d", "fusion_lon": 0.0, "lat": 38.91410166666667, "is_reserved": 0, "type": "electric_scooter", "bike_id": "3cdb031eeff85bd8071daa005cd8e37d", "is_disabled": 0, "rental_uris": {"android": "https://dc.lft.to/lastmile_qr_scan", "ios": "https://dc.lft.to/lastmile_qr_scan"}, "lon": -77.02660283333333, "fusion_lat": 0.0}, {"name": "680b0f74907108b8c703260175db4613", "fusion_lon": 0.0, "lat": 38.916788833333335, "is_reserved": 0, "type": "electric_scooter", "bike_id": "680b0f74907108b8c703260175db4613", "is_disabled": 0, "rental_uris": {"android": "https://dc.lft.to/lastmile_qr_scan", "ios": "https://dc.lft.to/lastmile_qr_scan"}, "lon": -77.0295205, "fusion_lat": 0.0}, {"name": "8beaeca6d438dfda27d3adfd35320958", "fusion_lon": 0.0, "lat": 38.93181916666666, "is_reserved": 0, "type": "electric_scooter", "bike_id": "8beaeca6d438dfda27d3adfd35320958", "is_disabled": 0, "rental_uris": {"android": "https://dc.lft.to/lastmile_qr_scan", "ios": "https://dc.lft.to/lastmile_qr_scan"}, "lon": -77.03655916666666, "fusion_lat": 0.0},