{"data": {"bikes": [{"lat": 38.89922683333333, "fusion_lat": 0.0, "type": "electric_scooter", "bike_id": "4b139fc7db8e01402f15cfa4c616b746", "rental_uris": {"ios": "https://dc.lft.to/lastmile_qr_scan", "android": "https://dc.lft.to/lastmile_qr_scan"}, "fusion_lon": 0.0, "lon": -77.019259, "name": "4b139fc7db8e01402f15cfa4c616b746", "is_reserved": 0, "is_disabled": 0}, {"lat": 38.905669333333336, "fusion_lat": 0.0, "type": "electric_scooter", "bike_id": "eb9262aa7bfda3aa30f344f8a97e60b9", "rental_uris": {"ios": "https://dc.lft.to/lastmile_qr_scan", "android": "https://dc.lft.to/lastmile_qr_scan"}, "fusion_lon": 0.0, "lon": -76.9762445, "name": "eb9262aa7bfda3aa30f344f8a97e60b9", "is_reserved": 0, "is_disabled": 0}, {"lat": 38.90299816666667, "fusion_lat": 0.0, "type": "electric_scooter", "bike_id": "9c21088e74111ed01c51e20434d25366", "rental_uris": {"ios": "https://dc.lft.to/lastmile_qr_scan", "android": "https://dc.lft.to/lastmile_qr_scan"}, "fusion_lon": 0.0, "lon": -76.99260233333334, "name": "9c21088e74111ed01c51e20434d25366", "is_reserved": 0, "is_disabled": 0}, {"lat": 38.911355666666665, "fusion_lat": 0.0, "type": "electric_scooter", "bike_id": "0a49600d0a8a9ed703a3137db073a602", "rental_uris": {"ios": "https://dc.lft.to/lastmile_qr_scan", "android": "https://dc.lft.to/lastmile_qr_scan"}, "fusion_lon": 0.0, "lon": -77.02184116666666, "name": "0a49600d0a8a9ed703a3137db073a602", "is_reserved": 0, "is_disabled": 0}, {"lat": 38.902945, "fusion_lat": 0.0, "type": "electric_scooter", "bike_id": "9f4961399612c985259ab40696a487ba", "rental_uris": {"ios": "https://dc.lft.to/lastmile_qr_scan", "android": "https://dc.lft.to/lastmile_qr_scan"}, "fusion_lon": 0.0, "lon": -77.054703, "name": "9f4961399612c985259ab40696a487ba", "is_reserved": 0, "is_disabled": 0}, {"lat": 38.91814333333333, "fusion_lat": 0.0, "type": "electric_scooter", "bike_id": "bd7eed5417feb4352c99d6347323d6fa", "rental_uris": {"ios": "https://dc.lft.to/lastmile_qr_scan", "android": "https://dc.lft.to/lastmile_qr_scan"}, "fusion_lon": 0.0, "lon": -77.037806, "name": "bd7eed5417feb4352c99d6347323d6fa", "is_reserved": 0, "is_disabled": 0}, {"lat": 38.87184833333333, "fusion_lat": 0.0, "type": "electric_scooter", "bike_id": "dfdcdf9a440103b6b41b1563a504d17a", "rental_uris": {"ios": "https://dc.lft.to/lastmile_qr_scan", "android": "https://dc.lft.to/lastmile_qr_scan"}, "fusion_lon": 0.0, "lon": -77.00643883333333, "name": "dfdcdf9a440103b6b41b1563a504d17a", "is_reserved": 0, "is_disabled": 0}, {"lat": 38.922327, "fusion_lat": 0.0, "type": "electric_scooter", "bike_id": "e20280a7630926610ca6d0ae3d054058", "rental_uris": {"ios": "https://dc.lft.to/lastmile_qr_scan", "android": "https://dc.lft.to/lastmile_qr_scan"}, "fusion_lon": 0.0, "lon": -77.072859, "name": "e20280a7630926610ca6d0ae3d054058", "is_reserved": 0, "is_disabled": 0}, {"lat": 38.89357233333333, "fusion_lat": 0.0, "type": "electric_scooter", "bike_id": "21e02de0e60e11aad8d864f37ac469fb", "rental_uris": {"ios": "https://dc.lft.to/lastmile_qr_scan", "android": "https://dc.lft.to/lastmile_qr_scan"}, "fusion_lon": 0.0, "lon": -77.00335133333333, "name": "21e02de0e60e11aad8d864f37ac469fb", "is_reserved": 0, "is_disabled": 0}, {"lat": 38.9145345, "fusion_lat": 0.0, "type": "electric_scooter", "bike_id": "19dbce3c8ec8495d786baa4a5a705012", "rental_uris": {"ios": "https://dc.lft.to/lastmile_qr_scan", "android": "https://dc.lft.to/lastmile_qr_scan"}, "fusion_lon": 0.0, "lon": -77.0228235, "name": "19dbce3c8ec8495d786baa4a5a705012", "is_reserved": 0, "is_disabled": 0}, {"lat": 38.89343683333333, "fusion_lat": 0.0, "type": "electric_scooter", "bike_id": "ee70384861d2170788ae95e745ade914", "rental_uris": {"ios": "https://dc.lft.to/lastmile_qr_scan", "android": "https://dc.lft.to/lastmile_qr_scan"}, "fusion_lon": 0.0, "lon": -76.95226066666666, "name": "ee70384861d2170788ae95e745ade914", "is_reserved": 0, "is_disabled": 0}, {"lat": 38.9092715, "fusion_lat": 0.0, "type": "electric_scooter", "bike_id": "693a08933c669bffc11b8b22d25d9d8f", "rental_uris": {"ios": "https://dc.lft.to/lastmile_qr_scan", "android": "https://dc.lft.to/lastmile_qr_scan"}, "fusion_lon": 0.0, "lon": -76.99967133333334, "name": "693a08933c669bffc11b8b22d25d9d8f", "is_reserved": 0, "is_disabled": 0}, {"lat": 38.9721515, "fusion_lat": 0.0, "type": "electric_scooter", "bike_id": "bd411e179e5a1274136b7b851436dcbb", "rental_uris": {"ios": "https://dc.lft.to/lastmile_qr_scan", "android": "https://dc.lft.to/lastmile_qr_scan"}, "fusion_lon": 0.0, "lon": -77.03334933333333, "name": "bd411e179e5a1274136b7b851436dcbb", "is_reserved": 0, "is_disabled": 0}, {"lat": 38.9323595, "fusion_lat": 0.0, "type": "electric_bike", "bike_id": "5808a953f25b9001c5ae6604a01273f2", "rental_uris": {"ios": "https://dc.lft.to/lastmile_qr_scan", "android": "https://dc.lft.to/lastmile_qr_scan"}, "fusion_lon": 0.0, "lon": -76.97416366666667, "name": "5808a953f25b9001c5ae6604a01273f2", "is_reserved": 0, "is_disabled": 0}, {"lat": 38.908531333333336, "fusion_lat": 0.0, "type": "electric_scooter", "bike_id": "feb747feab0e32caa7ce6d38b0996c17", "rental_uris": {"ios": "https://dc.lft.to/lastmile_qr_scan", "android": "https://dc.lft.to/lastmile_qr_scan"}, "fusion_lon": 0.0, "lon": -77.01969216666667, "name": "feb747feab0e32caa7ce6d38b0996c17", "is_reserved": 0, "is_disabled": 0}, {"lat": 38.900626, "fusion_lat": 0.0, "type": "electric_scooter", "bike_id": "b0aed806b7113fea5580d29716e2c14e", "rental_uris": {"ios": "https://dc.lft.to/lastmile_qr_scan", "android": "https://dc.lft.to/lastmile_qr_scan"}, "fusion_lon": 0.0, "lon": -77.02822033333334, "name": "b0aed806b7113fea5580d29716e2c14e", "is_reserved": 0, "is_disabled": 0}, {"lat": 38.90032866666667, "fusion_lat": 0.0, "type": "electric_scooter", "bike_id": "6dc0e37354aa73511f2a71c8865b625e", "rental_uris": {"ios": "https://dc.lft.to/lastmile_qr_scan", "android": "https://dc.lft.to/lastmile_qr_scan"}, "fusion_lon": 0.0, "lon": -77.001971, "name": "6dc0e37354aa73511f2a71c8865b625e", "is_reserved": 0, "is_disabled": 0}, {"lat": 38.88841583333333, "fusion_lat": 0.0, "type": "electric_bike", "bike_id": "adbcde72cb1d72ba023f367cb1e6b14b", "rental_uris": {"ios": "https://dc.lft.to/lastmile_qr_scan", "android": "https://dc.lft.to/lastmile_qr_scan"}, "fusion_lon": 0.0, "lon": -76.957373, "name": "adbcde72cb1d72ba023f367cb1e6b14b", "is_reserved": 0, "is_disabled": 0}, {"lat": 38.91851583333333, "fusion_lat": 0.0, "type": "electric_scooter", "bike_id": "7f92d1f4136bb2bc37a0709e0f530316", "rental_uris": {"ios": "https://dc.lft.to/lastmile_qr_scan", "android": "https://dc.lft.to/lastmile_qr_scan"}, "fusion_lon": 0.0, "lon": -77.01663216666667, "name": "7f92d1f4136bb2bc37a0709e0f530316", "is_reserved": 0, "is_disabled": 0}, {"lat": 38.876622166666664, "fusion_lat": 0.0, "type": "electric_scooter", "bike_id": "c7641cbfab196203eef314aad250c2f5", "rental_uris": {"ios": "https://dc.lft.to/lastmile_qr_scan", "android": "https://dc.lft.to/lastmile_qr_scan"}, "fusion_lon": 0.0, "lon": -77.0029715, "name": "c7641cbfab196203eef314aad250c2f5", "is_reserved": 0, "is_disabled": 0}, {"lat": 38.915979666666665, "fusion_lat": 0.0, "type": "electric_scooter", "bike_id": "0193edeb9319b8542768377caaaf6b3a", "rental_uris": {"ios": "https://dc.lft.to/lastmile_qr_scan", "android": "https://dc.lft.to/lastmile_qr_scan"}, "fusion_lon": 0.0, "lon": -77.01438566666667, "name": "0193edeb9319b8542768377caaaf6b3a", "is_reserved": 0, "is_disabled": 0}, {"lat": 38.923436333333335, "fusion_lat": 0.0, "type": "electric_scooter", "bike_id": "2581525732024b2118cf3b3bb64dcc2a", "rental_uris": {"ios": "https://dc.lft.to/lastmile_qr_scan", "android": "https://dc.lft.to/lastmile_qr_scan"}, "fusion_lon": 0.0, "lon": -77.0243215, "name": "2581525732024b2118cf3b3bb64dcc2a", "is_reserved": 0, "is_disabled": 0}, {"lat": 38.91775066666667, "fusion_lat": 0.0, "type": "electric_scooter", "bike_id": "82342208ceda1dea0087073d47f7dd70", "rental_uris": {"ios": "https://dc.lft.to/lastmile_qr_scan", "android": "https://dc.lft.to/lastmile_qr_scan"}, "fusion_lon": 0.0, "lon": -77.035686, "name": "82342208ceda1dea0087073d47f7dd70", "is_reserved": 0, "is_disabled": 0}, {"lat": 38.91060083333333, "fusion_lat": 0.0, "type": "electric_scooter", "bike_id": "b5b02646d440ea3ff328f0eb616d82fd", "rental_uris": {"ios": "https://dc.lft.to/lastmile_qr_scan", "android": "https://dc.lft.to/lastmile_qr_scan"}, "fusion_lon": 0.0, "lon": -77.03083783333334, "name": "b5b02646d440ea3ff328f0eb616d82fd", "is_reserved": 0, "is_disabled": 0}, {"lat": 38.9184545, "fusion_lat": 0.0, "type": "electric_scooter", "bike_id": "8f57afe9a93acf7ed4592b67408eeac6", "rental_uris": {"ios": "https://dc.lft.to/lastmile_qr_scan", "android": "https://dc.lft.to/lastmile_qr_scan"}, "fusion_lon": 0.0, "lon": -77.03549316666667, "name": "8f57afe9a93acf7ed4592b67408eeac6", "is_reserved": 0, "is_disabled": 0}, {"lat": 38.907376666666664, "fusion_lat": 0.0, "type": "electric_scooter", "bike_id": "5c2645c5570f18f962b0e8ad7097a5b5", "rental_uris": {"ios": "https://dc.lft.to/lastmile_qr_scan", "android": "https://dc.lft.to/lastmile_qr_scan"}, "fusion_lon": 0.0, "lon": -76.97986883333333, "name": "5c2645c5570f18f962b0e8ad7097a5b5", "is_reserved": 0, "is_disabled": 0}, {"lat": 38.913312166666664, "fusion_lat": 0.0, "type": "electric_scooter", "bike_id": "266b925129eb7950ca550a0495046324", "rental_uris": {"ios": "https://dc.lft.to/lastmile_qr_scan", "android": "https://dc.lft.to/lastmile_qr_scan"}, "fusion_lon": 0.0, "lon": -77.0486155, "name": "266b925129eb7950ca550a0495046324", "is_reserved": 0, "is_disabled": 0}, {"lat": 38.89981483333333, "fusion_lat": 0.0, "type": "electric_scooter", "bike_id": "d1c6c97cdf3ea3daa252903f97d2dd57", "rental_uris": {"ios": "https://dc.lft.to/lastmile_qr_scan", "android": "https://dc.lft.to/lastmile_qr_scan"}, "fusion_lon": 0.0, "lon": -77.01902483333333, "name": "d1c6c97cdf3ea3daa252903f97d2dd57", "is_reserved": 0, "is_disabled": 0}, {"lat": 38.9006525, "fusion_lat": 0.0, "type": "electric_scooter", "bike_id": "460c46172b7751e0fdfd0718768e8efa", "rental_uris": {"ios": "https://dc.lft.to/lastmile_qr_scan", "android": "https://dc.lft.to/lastmile_qr_scan"}, "fusion_lon": 0.0, "lon": -77.01322266666666, "name": "460c46172b7751e0fdfd0718768e8efa", "is_reserved": 0, "is_disabled": 0}, {"lat": 38.87661083333333, "fusion_lat": 0.0, "type": "electric_scooter", "bike_id": "5ca24f71e49161d2c0214bcacc9427fd", "rental_uris": {"ios": "https://dc.lft.to/lastmile_qr_scan", "android": "https://dc.lft.to/lastmile_qr_scan"}, "fusion_lon": 0.0, "lon": -77.00112166666666, "name": "5ca24f71e49161d2c0214bcacc9427fd", "is_reserved": 0, "is_disabled": 0}, {"lat": 38.905626166666664, "fusion_lat": 0.0, "type": "electric_scooter", "bike_id": "fd14df8218ce556f084f1733a58de4a0", "rental_uris": {"ios": "https://dc.lft.to/lastmile_qr_scan", "android": "https://dc.lft.to/lastmile_qr_scan"}, "fusion_lon": 0.0, "lon": -77.02494766666666, "name": "fd14df8218ce556f084f1733a58de4a0", "is_reserved": 0, "is_disabled": 0}, {"lat": 38.897269333333334, "fusion_lat": 0.0, "type": "electric_scooter", "bike_id": "b6f92b87842c4d301c6793422dc72e65", "rental_uris": {"ios": "https://dc.lft.to/lastmile_qr_scan", "android": "https://dc.lft.to/lastmile_qr_scan"}, "fusion_lon": 0.0, "lon": -77.04677216666667, "name": "b6f92b87842c4d301c6793422dc72e65", "is_reserved": 0, "is_disabled": 0}, {"lat": 38.900119333333336, "fusion_lat": 0.0, "type": "electric_scooter", "bike_id": "a146255c61f15a902060bd4c333c9ed4", "rental_uris": {"ios": "https://dc.lft.to/lastmile_qr_scan", "android": "https://dc.lft.to/lastmile_qr_scan"}, "fusion_lon": 0.0, "lon": -77.01257666666666, "name": "a146255c61f15a902060bd4c333c9ed4", "is_reserved": 0, "is_disabled": 0}, {"lat": 38.89223333333333, "fusion_lat": 0.0, "type": "electric_scooter", "bike_id": "3113a590bc0f1e63d23a3f177ce76f1c", "rental_uris": {"ios": "https://dc.lft.to/lastmile_qr_scan", "android": "https://dc.lft.to/lastmile_qr_scan"}, "fusion_lon": 0.0, "lon": -77.0419805, "name": "3113a590bc0f1e63d23a3f177ce76f1c", "is_reserved": 0, "is_disabled": 0}, {"lat": 38.91827766666667, "fusion_lat": 0.0, "type": "electric_scooter", "bike_id": "3ef206fbe7fc89fdcb5ace07271c2ba8", "rental_uris": {"ios": "https://dc.lft.to/lastmile_qr_scan", "android": "https://dc.lft.to/lastmile_qr_scan"}, "fusion_lon": 0.0, "lon": -77.04515433333333, "name": "3ef206fbe7fc89fdcb5ace07271c2ba8", "is_reserved": 0, "is_disabled": 0}, {"lat": 39.00289466666667, "fusion_lat": 0.0, "type": "electric_bike", "bike_id": "ac55624a22e8ad8e62a1a0316c051637", "rental_uris": {"ios": "https://dc.lft.to/lastmile_qr_scan", "android": "https://dc.lft.to/lastmile_qr_scan"}, "fusion_lon": 0.0, "lon": -76.90305616666667, "name": "ac55624a22e8ad8e62a1a0316c051637", "is_reserved": 0, "is_disabled": 0}, {"lat": 38.891922666666666, "fusion_lat": 0.0, "type": "electric_scooter", "bike_id": "ec03add76952d3a1c9bd7ccf3a0e7c3a", "rental_uris": {"ios": "https://dc.lft.to/lastmile_qr_scan", "android": "https://dc.lft.to/lastmile_qr_scan"}, "fusion_lon": 0.0, "lon": -76.99386066666666, "name": "ec03add76952d3a1c9bd7ccf3a0e7c3a", "is_reserved": 0, "is_disabled": 0}, {"lat": 38.913781, "fusion_lat": 0.0, "type": "electric_scooter", "bike_id": "86f4f81ade36c86a147646bc1ed4bde5", "rental_uris": {"ios": "https://dc.lft.to/lastmile_qr_scan", "android": "https://dc.lft.to/lastmile_qr_scan"}, "fusion_lon": 0.0, "lon": -77.01566783333334, "name": "86f4f81ade36c86a147646bc1ed4bde5", "is_reserved": 0, "is_disabled": 0}, {"lat": 38.950841, "fusion_lat": 0.0, "type": "electric_bike", "bike_id": "72f37f6c63dd4b25b4fc6640fce3a835", "rental_uris": {"ios": "https://dc.lft.to/lastmile_qr_scan", "android": "https://dc.lft.to/lastmile_qr_scan"}, "fusion_lon": 0.0, "lon": -77.012248, "name": "72f37f6c63dd4b25b4fc6640fce3a835", "is_reserved": 0, "is_disabled": 0}, {"lat": 38.813322666666664, "fusion_lat": 0.0, "type": "electric_bike", "bike_id": "8fe0e3e4dcaf05940791199bd2425612", "rental_uris": {"ios": "https://dc.lft.to/lastmile_qr_scan", "android": "https://dc.lft.to/lastmile_qr_scan"}, "fusion_lon": 0.0, "lon": -77.05090766666666, "name": "8fe0e3e4dcaf05940791199bd2425612", "is_reserved": 0, "is_disabled": 0}, {"lat": 38.91763866666667, "fusion_lat": 0.0, "type": "electric_scooter", "bike_id": "b02278b04bbedda10b6feab88109d7f3", "rental_uris": {"ios": "https://dc.lft.to/lastmile_qr_scan", "android": "https://dc.lft.to/lastmile_qr_scan"}, "fusion_lon": 0.0, "lon": -77.04757916666667, "name": "b02278b04bbedda10b6feab88109d7f3", "is_reserved": 0, "is_disabled": 0}, {"lat": 38.88735066666667, "fusion_lat": 0.0, "type": "electric_scooter", "bike_id": "057c41bd52ee87797c62698b071cf7a6", "rental_uris": {"ios": "https://dc.lft.to/lastmile_qr_scan", "android": "https://dc.lft.to/lastmile_qr_scan"}, "fusion_lon": 0.0, "lon": -77.02822533333334, "name": "057c41bd52ee87797c62698b071cf7a6", "is_reserved": 0, "is_disabled": 0}, {"lat": 38.8973685, "fusion_lat": 0.0, "type": "electric_scooter", "bike_id": "db6a526a4d8435286a6ef1aa9872da0f", "rental_uris": {"ios": "https://dc.lft.to/lastmile_qr_scan", "android": "https://dc.lft.to/lastmile_qr_scan"}, "fusion_lon": 0.0, "lon": -77.05523283333333, "name": "db6a526a4d8435286a6ef1aa9872da0f", "is_reserved": 0, "is_disabled": 0}, {"lat": 38.876469166666666, "fusion_lat": 0.0, "type": "electric_scooter", "bike_id": "cf4eb05fd8deb2a97be0f777f881d4f3", "rental_uris": {"ios": "https://dc.lft.to/lastmile_qr_scan", "android": "https://dc.lft.to/lastmile_qr_scan"}, "fusion_lon": 0.0, "lon": -77.002913, "name": "cf4eb05fd8deb2a97be0f777f881d4f3", "is_reserved": 0, "is_disabled": 0}, {"lat": 38.847554333333335, "fusion_lat": 0.0, "type": "electric_scooter", "bike_id": "1d3082b9b9d350c339109569a7bc6117", "rental_uris": {"ios": "https://dc.lft.to/lastmile_qr_scan", "android": "https://dc.lft.to/lastmile_qr_scan"}, "fusion_lon": 0.0, "lon": -76.9950175, "name": "1d3082b9b9d350c339109569a7bc6117", "is_reserved": 0, "is_disabled": 0}, {"lat": 38.92315583333333, "fusion_lat": 0.0, "type": "electric_scooter", "bike_id": "c457fdc24eab8276cb96d050b8b4930b", "rental_uris": {"ios": "https://dc.lft.to/lastmile_qr_scan", "android": "https://dc.lft.to/lastmile_qr_scan"}, "fusion_lon": 0.0, "lon": -77.03803016666667, "name": "c457fdc24eab8276cb96d050b8b4930b", "is_reserved": 0, "is_disabled": 0}, {"lat": 38.95836083333333, "fusion_lat": 0.0, "type": "electric_scooter", "bike_id": "427ec6bd31c0d36045d163b857697525", "rental_uris": {"ios": "https://dc.lft.to/lastmile_qr_scan", "android": "https://dc.lft.to/lastmile_qr_scan"}, "fusion_lon": 0.0, "lon": -77.00167116666667, "name": "427ec6bd31c0d36045d163b857697525", "is_reserved": 0, "is_disabled": 0}, {"lat": 38.879280666666666, "fusion_lat": 0.0, "type": "electric_scooter", "bike_id": "1f285b03566519efbe61a1118a6bfcd8", "rental_uris": {"ios": "https://dc.lft.to/lastmile_qr_scan", "android": "https://dc.lft.to/lastmile_qr_scan"}, "fusion_lon": 0.0, "lon": -77.00537366666667, "name": "1f285b03566519efbe61a1118a6bfcd8", "is_reserved": 0, "is_disabled": 0}, {"lat": 38.91885083333333, "fusion_lat": 0.0, "type": "electric_scooter", "bike_id": "e06c250afcab67c2b0a260d0fa0d5e5a", "rental_uris": {"ios": "https://dc.lft.to/lastmile_qr_scan", "android": "https://dc.lft.to/lastmile_qr_scan"}, "fusion_lon": 0.0, "lon": -77.02188466666666, "name": "e06c250afcab67c2b0a260d0fa0d5e5a", "is_reserved": 0, "is_disabled": 0}, {"lat": 38.9166445, "fusion_lat": 0.0, "type": "electric_scooter", "bike_id": "b5a9b2ebf101300630f51cbf96011050", "rental_uris": {"ios": "https://dc.lft.to/lastmile_qr_scan", "android": "https://dc.lft.to/lastmile_qr_scan"}, "fusion_lon": 0.0, "lon": -77.03006066666667, "name": "b5a9b2ebf101300630f51cbf96011050", "is_reserved": 0, "is_disabled": 0}, {"lat": 38.916638166666665, "fusion_lat": 0.0, "type": "electric_scooter", "bike_id": "cc207632a03849180455886a0d672c88", "rental_uris": {"ios": "https://dc.lft.to/lastmile_qr_scan", "android": "https://dc.lft.to/lastmile_qr_scan"}, "fusion_lon": 0.0, "lon": -77.03848366666666, "name": "cc207632a03849180455886a0d672c88", "is_reserved": 0, "is_disabled": 0}, {"lat": 38.85985683333333, "fusion_lat": 0.0, "type": "electric_scooter", "bike_id": "0c8b888315ca445780ef94bb57c8b86f", "rental_uris": {"ios": "https://dc.lft.to/lastmile_qr_scan", "android": "https://dc.lft.to/lastmile_qr_scan"}, "fusion_lon": 0.0, "lon": -76.99655183333333, "name": "0c8b888315ca445780ef94bb57c8b86f", "is_reserved": 0, "is_disabled": 0}, {"lat": 38.89809666666667, "fusion_lat": 0.0, "type": "electric_scooter", "bike_id": "e7e536a25ba467fafcd18041e3975050", "rental_uris": {"ios": "https://dc.lft.to/lastmile_qr_scan", "android": "https://dc.lft.to/lastmile_qr_scan"}, "fusion_lon": 0.0, "lon": -77.03343633333333, "name": "e7e536a25ba467fafcd18041e3975050", "is_reserved": 0, "is_disabled": 0}, {"lat": 38.933753833333334, "fusion_lat": 0.0, "type": "electric_scooter", "bike_id": "0d7cccfd4416a74bd9b7a6a5d95787a3", "rental_uris": {"ios": "https://dc.lft.to/lastmile_qr_scan", "android": "https://dc.lft.to/lastmile_qr_scan"}, "fusion_lon": 0.0, "lon": -77.05750466666667, "name": "0d7cccfd4416a74bd9b7a6a5d95787a3", "is_reserved": 0, "is_disabled": 0}, {"lat": 38.92655383333334, "fusion_lat": 0.0, "type": "electric_scooter", "bike_id": "efcb31b539ba8569058f3599be5c016d", "rental_uris": {"ios": "https://dc.lft.to/lastmile_qr_scan", "android": "https://dc.lft.to/lastmile_qr_scan"}, "fusion_lon": 0.0, "lon": -77.0432085, "name": "efcb31b539ba8569058f3599be5c016d", "is_reserved": 0, "is_disabled": 0}, {"lat": 38.934249, "fusion_lat": 0.0, "type": "electric_scooter", "bike_id": "a0f1d0691c7939e6e7e752e98bc58e0a", "rental_uris": {"ios": "https://dc.lft.to/lastmile_qr_scan", "android": "https://dc.lft.to/lastmile_qr_scan"}, "fusion_lon": 0.0, "lon": -77.040025, "name": "a0f1d0691c7939e6e7e752e98bc58e0a", "is_reserved": 0, "is_disabled": 0}, {"lat": 38.9127455, "fusion_lat": 0.0, "type": "electric_scooter", "bike_id": "5e50d241a22386badabc6e4a54fe09ff", "rental_uris": {"ios": "https://dc.lft.to/lastmile_qr_scan", "android": "https://dc.lft.to/lastmile_qr_scan"}, "fusion_lon": 0.0, "lon": -77.03858883333334, "name": "5e50d241a22386badabc6e4a54fe09ff", "is_reserved": 0, "is_disabled": 0}, {"lat": 38.949802, "fusion_lat": 0.0, "type": "electric_scooter", "bike_id": "34795b5924c6552b3dc24be330b86c43", "rental_uris": {"ios": "https://dc.lft.to/lastmile_qr_scan", "android": "https://dc.lft.to/lastmile_qr_scan"}, "fusion_lon": 0.0, "lon": -77.0996455, "name": "34795b5924c6552b3dc24be330b86c43", "is_reserved": 0, "is_disabled": 0}, {"lat": 38.8924465, "fusion_lat": 0.0, "type": "electric_scooter", "bike_id": "b462c6dd4903e4a8f6161625c28d9a41", "rental_uris": {"ios": "https://dc.lft.to/lastmile_qr_scan", "android": "https://dc.lft.to/lastmile_qr_scan"}, "fusion_lon": 0.0, "lon": -77.04487383333333, "name": "b462c6dd4903e4a8f6161625c28d9a41", "is_reserved": 0, "is_disabled": 0}, {"lat": 38.8475625, "fusion_lat": 0.0, "type": "electric_scooter", "bike_id": "c29063bfeaee00f3fdcf4ba26531102c", "rental_uris": {"ios": "https://dc.lft.to/lastmile_qr_scan", "android": "https://dc.lft.to/lastmile_qr_scan"}, "fusion_lon": 0.0, "lon": -76.99500583333334, "name": "c29063bfeaee00f3fdcf4ba26531102c", "is_reserved": 0, "is_disabled": 0}, {"lat": 38.9236785, "fusion_lat": 0.0, "type": "electric_scooter", "bike_id": "1b6b69a5dfd150703d6543df2ddc9d0e", "rental_uris": {"ios": "https://dc.lft.to/lastmile_qr_scan", "android": "https://dc.lft.to/lastmile_qr_scan"}, "fusion_lon": 0.0, "lon": -77.05049766666667, "name": "1b6b69a5dfd150703d6543df2ddc9d0e", "is_reserved": 0, "is_disabled": 0}, {"lat": 38.99436083333333, "fusion_lat": 0.0, "type": "electric_bike", "bike_id": "c9a3d8d1a4abff95df3ae6d90bf1e85a", "rental_uris": {"ios": "https://dc.lft.to/lastmile_qr_scan", "android": "https://dc.lft.to/lastmile_qr_scan"}, "fusion_lon": 0.0, "lon": -77.02661083333334, "name": "c9a3d8d1a4abff95df3ae6d90bf1e85a", "is_reserved": 0, "is_disabled": 0}, {"lat": 38.89978216666667, "fusion_lat": 0.0, "type": "electric_scooter", "bike_id": "4e1c4b550f8201a4c88ab01eb7eb36c1", "rental_uris": {"ios": "https://dc.lft.to/lastmile_qr_scan", "android": "https://dc.lft.to/lastmile_qr_scan"}, "fusion_lon": 0.0, "lon": -76.985492, "name": "4e1c4b550f8201a4c88ab01eb7eb36c1", "is_reserved": 0, "is_disabled": 0}, {"lat": 38.904380833333335, "fusion_lat": 0.0, "type": "electric_scooter", "bike_id": "034df44cf757fe48b45b9e2c56303e40", "rental_uris": {"ios": "https://dc.lft.to/lastmile_qr_scan", "android": "https://dc.lft.to/lastmile_qr_scan"}, "fusion_lon": 0.0, "lon": -77.0258335, "name": "034df44cf757fe48b45b9e2c56303e40", "is_reserved": 0, "is_disabled": 0}, {"lat": 38.906310833333336, "fusion_lat": 0.0, "type": "electric_scooter", "bike_id": "3ab47ea049272472ed64a3b8dee578b1", "rental_uris": {"ios": "https://dc.lft.to/lastmile_qr_scan", "android": "https://dc.lft.to/lastmile_qr_scan"}, "fusion_lon": 0.0, "lon": -77.0343675, "name": "3ab47ea049272472ed64a3b8dee578b1", "is_reserved": 0, "is_disabled": 0}, {"lat": 38.91694183333333, "fusion_lat": 0.0, "type": "electric_scooter", "bike_id": "d037c78c3f783129ce6fa2fd592249de", "rental_uris": {"ios": "https://dc.lft.to/lastmile_qr_scan", "android": "https://dc.lft.to/lastmile_qr_scan"}, "fusion_lon": 0.0, "lon": -77.01223583333334, "name": "d037c78c3f783129ce6fa2fd592249de", "is_reserved": 0, "is_disabled": 0}, {"lat": 38.905756, "fusion_lat": 0.0, "type": "electric_scooter", "bike_id": "300be11bb90c5d1c67ae70cece67a633", "rental_uris": {"ios": "https://dc.lft.to/lastmile_qr_scan", "android": "https://dc.lft.to/lastmile_qr_scan"}, "fusion_lon": 0.0, "lon": -77.01853533333333, "name": "300be11bb90c5d1c67ae70cece67a633", "is_reserved": 0, "is_disabled": 0}, {"lat": 38.8930515, "fusion_lat": 0.0, "type": "electric_scooter", "bike_id": "e43adede0ea2673a362edc862314f626", "rental_uris": {"ios": "https://dc.lft.to/lastmile_qr_scan", "android": "https://dc.lft.to/lastmile_qr_scan"}, "fusion_lon": 0.0, "lon": -77.07869633333334, "name": "e43adede0ea2673a362edc862314f626", "is_reserved": 0, "is_disabled": 0}, {"lat": 38.907606, "fusion_lat": 0.0, "type": "electric_scooter", "bike_id": "5caaea6a82aa288f0c25b966eb08893f", "rental_uris": {"ios": "https://dc.lft.to/lastmile_qr_scan", "android": "https://dc.lft.to/lastmile_qr_scan"}, "fusion_lon": 0.0, "lon": -77.03829916666666, "name": "5caaea6a82aa288f0c25b966eb08893f", "is_reserved": 0, "is_disabled": 0}, {"lat": 39.05251466666667, "fusion_lat": 0.0, "type": "electric_bike", "bike_id": "11eb696df6454af7a759e432a6a8bdee", "rental_uris": {"ios": "https://dc.lft.to/lastmile_qr_scan", "android": "https://dc.lft.to/lastmile_qr_scan"}, "fusion_lon": 0.0, "lon": -77.08062583333333, "name": "11eb696df6454af7a759e432a6a8bdee", "is_reserved": 0, "is_disabled": 0}, {"lat": 38.893880333333335, "fusion_lat": 0.0, "type": "electric_scooter", "bike_id": "997e3ae563cd350ac1fd7fde51e950fc", "rental_uris": {"ios": "https://dc.lft.to/lastmile_qr_scan", "android": "https://dc.lft.to/lastmile_qr_scan"}, "fusion_lon": 0.0, "lon": -76.923018, "name": "997e3ae563cd350ac1fd7fde51e950fc", "is_reserved": 0, "is_disabled": 0}, {"lat": 38.868922833333336, "fusion_lat": 0.0, "type": "electric_bike", "bike_id": "c7f644e1c5f561b87a31e0424447a898", "rental_uris": {"ios": "https://dc.lft.to/lastmile_qr_scan", "android": "https://dc.lft.to/lastmile_qr_scan"}, "fusion_lon": 0.0, "lon": -76.98519283333333, "name": "c7f644e1c5f561b87a31e0424447a898", "is_reserved": 0, "is_disabled": 0}, {"lat": 38.92794283333333, "fusion_lat": 0.0, "type": "electric_scooter", "bike_id": "ad0fb385eab11ddb3d4040c6b748bf91", "rental_uris": {"ios": "https://dc.lft.to/lastmile_qr_scan", "android": "https://dc.lft.to/lastmile_qr_scan"}, "fusion_lon": 0.0, "lon": -77.01555216666667, "name": "ad0fb385eab11ddb3d4040c6b748bf91", "is_reserved": 0, "is_disabled": 0}, {"lat": 38.892329, "fusion_lat": 0.0, "type": "electric_scooter", "bike_id": "4f1d4708e438435e379b9bc7b58da31f", "rental_uris": {"ios": "https://dc.lft.to/lastmile_qr_scan", "android": "https://dc.lft.to/lastmile_qr_scan"}, "fusion_lon": 0.0, "lon": -77.050052, "name": "4f1d4708e438435e379b9bc7b58da31f", "is_reserved": 0, "is_disabled": 0}, {"lat": 38.91099116666667, "fusion_lat": 0.0, "type": "electric_scooter", "bike_id": "eb4f85875a71f8ee5e281eda273d90a7", "rental_uris": {"ios": "https://dc.lft.to/lastmile_qr_scan", "android": "https://dc.lft.to/lastmile_qr_scan"}, "fusion_lon": 0.0, "lon": -77.04494133333333, "name": "eb4f85875a71f8ee5e281eda273d90a7", "is_reserved": 0, "is_disabled": 0}, {"lat": 38.902834666666664, "fusion_lat": 0.0, "type": "electric_scooter", "bike_id": "15e6cf1422ae92b0a66b126059a79c18", "rental_uris": {"ios": "https://dc.lft.to/lastmile_qr_scan", "android": "https://dc.lft.to/lastmile_qr_scan"}, "fusion_lon": 0.0, "lon": -77.03597833333333, "name": "15e6cf1422ae92b0a66b126059a79c18", "is_reserved": 0, "is_disabled": 0}, {"lat": 38.90526666666667, "fusion_lat": 0.0, "type": "electric_scooter", "bike_id": "559b4a8ab509530b0987a7007701d85b", "rental_uris": {"ios": "https://dc.lft.to/lastmile_qr_scan", "android": "https://dc.lft.to/lastmile_qr_scan"}, "fusion_lon": 0.0, "lon": -77.064723, "name": "559b4a8ab509530b0987a7007701d85b", "is_reserved": 0, "is_disabled": 0}, {"lat": 38.9211485, "fusion_lat": 0.0, "type": "electric_scooter", "bike_id": "9cb2cc2d59dc31997219f158d93246f4", "rental_uris": {"ios": "https://dc.lft.to/lastmile_qr_scan", "android": "https://dc.lft.to/lastmile_qr_scan"}, "fusion_lon": 0.0, "lon": -77.02187083333334, "name": "9cb2cc2d59dc31997219f158d93246f4", "is_reserved": 0, "is_disabled": 0}, {"lat": 38.92121983333333, "fusion_lat": 0.0, "type": "electric_bike", "bike_id": "ce33ac76480f38e9d0251a0c8cf91aa8", "rental_uris": {"ios": "https://dc.lft.to/lastmile_qr_scan", "android": "https://dc.lft.to/lastmile_qr_scan"}, "fusion_lon": 0.0, "lon": -77.01209966666667, "name": "ce33ac76480f38e9d0251a0c8cf91aa8", "is_reserved": 0, "is_disabled": 0}, {"lat": 38.908568333333335, "fusion_lat": 0.0, "type": "electric_scooter", "bike_id": "4a62b9d69fbedb64ba101ebf8c70ec4a", "rental_uris": {"ios": "https://dc.lft.to/lastmile_qr_scan", "android": "https://dc.lft.to/lastmile_qr_scan"}, "fusion_lon": 0.0, "lon": -77.02693216666667, "name": "4a62b9d69fbedb64ba101ebf8c70ec4a", "is_reserved": 0, "is_disabled": 0}, {"lat": 38.956437333333334, "fusion_lat": 0.0, "type": "electric_bike", "bike_id": "081ee0d0309b5510ac3efca6a0c407ae", "rental_uris": {"ios": "https://dc.lft.to/lastmile_qr_scan", "android": "https://dc.lft.to/lastmile_qr_scan"}, "fusion_lon": 0.0, "lon": -76.93873733333334, "name": "081ee0d0309b5510ac3efca6a0c407ae", "is_reserved": 0, "is_disabled": 0}, {"lat": 38.932957333333334, "fusion_lat": 0.0, "type": "electric_scooter", "bike_id": "39914a2fc8703e863930ccd01ea682ab", "rental_uris": {"ios": "https://dc.lft.to/lastmile_qr_scan", "android": "https://dc.lft.to/lastmile_qr_scan"}, "fusion_lon": 0.0, "lon": -77.0354555, "name": "39914a2fc8703e863930ccd01ea682ab", "is_reserved": 0, "is_disabled": 0}, {"lat": 38.908618833333335, "fusion_lat": 0.0, "type": "electric_scooter", "bike_id": "59633d4c697cfd0c741bb39ea8328842", "rental_uris": {"ios": "https://dc.lft.to/lastmile_qr_scan", "android": "https://dc.lft.to/lastmile_qr_scan"}, "fusion_lon": 0.0, "lon": -77.001863, "name": "59633d4c697cfd0c741bb39ea8328842", "is_reserved": 0, "is_disabled": 0}, {"lat": 38.8976565, "fusion_lat": 0.0, "type": "electric_scooter", "bike_id": "4bd43ef32bd5f8dfb9083c40e4cd06c0", "rental_uris": {"ios": "https://dc.lft.to/lastmile_qr_scan", "android": "https://dc.lft.to/lastmile_qr_scan"}, "fusion_lon": 0.0, "lon": -77.04767383333333, "name": "4bd43ef32bd5f8dfb9083c40e4cd06c0", "is_reserved": 0, "is_disabled": 0}, {"lat": 38.93895233333333, "fusion_lat": 0.0, "type": "electric_scooter", "bike_id": "9e32fbe2feaba62527f54f6fb72137dc", "rental_uris": {"ios": "https://dc.lft.to/lastmile_qr_scan", "android": "https://dc.lft.to/lastmile_qr_scan"}, "fusion_lon": 0.0, "lon": -77.0176385, "name": "9e32fbe2feaba62527f54f6fb72137dc", "is_reserved": 0, "is_disabled": 0}, {"lat": 38.8623335, "fusion_lat": 0.0, "type": "electric_scooter", "bike_id": "1f859bc6eaf9dbf7abd745195c997e59", "rental_uris": {"ios": "https://dc.lft.to/lastmile_qr_scan", "android": "https://dc.lft.to/lastmile_qr_scan"}, "fusion_lon": 0.0, "lon": -76.99553133333333, "name": "1f859bc6eaf9dbf7abd745195c997e59", "is_reserved": 0, "is_disabled": 0}, {"lat": 38.912377666666664, "fusion_lat": 0.0, "type": "electric_scooter", "bike_id": "243fb30595c07fa8e3e006963e3f2061", "rental_uris": {"ios": "https://dc.lft.to/lastmile_qr_scan", "android": "https://dc.lft.to/lastmile_qr_scan"}, "fusion_lon": 0.0, "lon": -77.04874766666667, "name": "243fb30595c07fa8e3e006963e3f2061", "is_reserved": 0, "is_disabled": 0}, {"lat": 38.89891183333334, "fusion_lat": 0.0, "type": "electric_scooter", "bike_id": "a6900a362d6e4ec13b64b3907cda7dee", "rental_uris": {"ios": "https://dc.lft.to/lastmile_qr_scan", "android": "https://dc.lft.to/lastmile_qr_scan"}, "fusion_lon": 0.0, "lon": -77.04860616666667, "name": "a6900a362d6e4ec13b64b3907cda7dee", "is_reserved": 0, "is_disabled": 0}, {"lat": 38.813324, "fusion_lat": 0.0, "type": "electric_bike", "bike_id": "6620e022a051718963a53d20be0b4234", "rental_uris": {"ios": "https://dc.lft.to/lastmile_qr_scan", "android": "https://dc.lft.to/lastmile_qr_scan"}, "fusion_lon": 0.0, "lon": -77.05112566666666, "name": "6620e022a051718963a53d20be0b4234", "is_reserved": 0, "is_disabled": 0}, {"lat": 38.95710416666667, "fusion_lat": 0.0, "type": "electric_scooter", "bike_id": "22aaf4380503271b7dd6eee953043255", "rental_uris": {"ios": "https://dc.lft.to/lastmile_qr_scan", "android": "https://dc.lft.to/lastmile_qr_scan"}, "fusion_lon": 0.0, "lon": -77.02404716666666, "name": "22aaf4380503271b7dd6eee953043255", "is_reserved": 0, "is_disabled": 0}, {"lat": 38.9065475, "fusion_lat": 0.0, "type": "electric_scooter", "bike_id": "3ddce4f5fc0d897da3edd16dafc3ba24", "rental_uris": {"ios": "https://dc.lft.to/lastmile_qr_scan", "android": "https://dc.lft.to/lastmile_qr_scan"}, "fusion_lon": 0.0, "lon": -77.01431033333333, "name": "3ddce4f5fc0d897da3edd16dafc3ba24", "is_reserved": 0, "is_disabled": 0}, {"lat": 38.90412166666667, "fusion_lat": 0.0, "type": "electric_scooter", "bike_id": "54add6383218d65b59b334887144f653", "rental_uris": {"ios": "https://dc.lft.to/lastmile_qr_scan", "android": "https://dc.lft.to/lastmile_qr_scan"}, "fusion_lon": 0.0, "lon": -76.97331666666666, "name": "54add6383218d65b59b334887144f653", "is_reserved": 0, "is_disabled": 0}, {"lat": 38.91270983333333, "fusion_lat": 0.0, "type": "electric_scooter", "bike_id": "d8af5d98c8be9742a3673779f83f28fc", "rental_uris": {"ios": "https://dc.lft.to/lastmile_qr_scan", "android": "https://dc.lft.to/lastmile_qr_scan"}, "fusion_lon": 0.0, "lon": -77.03261516666667, "name": "d8af5d98c8be9742a3673779f83f28fc", "is_reserved": 0, "is_disabled": 0}, {"lat": 38.919019666666664, "fusion_lat": 0.0, "type": "electric_scooter", "bike_id": "8fdf11c7699e66d805e5ba258c7714ab", "rental_uris": {"ios": "https://dc.lft.to/lastmile_qr_scan", "android": "https://dc.lft.to/lastmile_qr_scan"}, "fusion_lon": 0.0, "lon": -77.04717083333334, "name": "8fdf11c7699e66d805e5ba258c7714ab", "is_reserved": 0, "is_disabled": 0}, {"lat": 39.070592166666664, "fusion_lat": 0.0, "type": "electric_bike", "bike_id": "27894438c60c0ffa530cc232a65a1f01", "rental_uris": {"ios": "https://dc.lft.to/lastmile_qr_scan", "android": "https://dc.lft.to/lastmile_qr_scan"}, "fusion_lon": 0.0, "lon": -77.11519516666667, "name": "27894438c60c0ffa530cc232a65a1f01", "is_reserved": 0, "is_disabled": 0}, {"lat": 38.892245833333334, "fusion_lat": 0.0, "type": "electric_scooter", "bike_id": "118ee42574271934a170e4e4df55184e", "rental_uris": {"ios": "https://dc.lft.to/lastmile_qr_scan", "android": "https://dc.lft.to/lastmile_qr_scan"}, "fusion_lon": 0.0, "lon": -77.04331083333334, "name": "118ee42574271934a170e4e4df55184e", "is_reserved": 0, "is_disabled": 0}, {"lat": 38.90385766666667, "fusion_lat": 0.0, "type": "electric_scooter", "bike_id": "05a7a6f1f4a1cb54072d60871beb7e36", "rental_uris": {"ios": "https://dc.lft.to/lastmile_qr_scan", "android": "https://dc.lft.to/lastmile_qr_scan"}, "fusion_lon": 0.0, "lon": -77.00760666666666, "name": "05a7a6f1f4a1cb54072d60871beb7e36", "is_reserved": 0, "is_disabled": 0}, {"lat": 38.94504383333334, "fusion_lat": 0.0, "type": "electric_scooter", "bike_id": "ea5cb0396d3bb4605f7f621bbcbc3b96", "rental_uris": {"ios": "https://dc.lft.to/lastmile_qr_scan", "android": "https://dc.lft.to/lastmile_qr_scan"}, "fusion_lon": 0.0, "lon": -77.03830383333333, "name": "ea5cb0396d3bb4605f7f621bbcbc3b96", "is_reserved": 0, "is_disabled": 0}, {"lat": 38.93565516666666, "fusion_lat": 0.0, "type": "electric_scooter", "bike_id": "16a8bdda8b4a49ce34cc35beeb57576d", "rental_uris": {"ios": "https://dc.lft.to/lastmile_qr_scan", "android": "https://dc.lft.to/lastmile_qr_scan"}, "fusion_lon": 0.0, "lon": -77.05831766666667, "name": "16a8bdda8b4a49ce34cc35beeb57576d", "is_reserved": 0, "is_disabled": 0}, {"lat": 38.90211033333333, "fusion_lat": 0.0, "type": "electric_scooter", "bike_id": "961e53e3a017374bfa8789133837945b", "rental_uris": {"ios": "https://dc.lft.to/lastmile_qr_scan", "android": "https://dc.lft.to/lastmile_qr_scan"}, "fusion_lon": 0.0, "lon": -77.02382333333334, "name": "961e53e3a017374bfa8789133837945b", "is_reserved": 0, "is_disabled": 0}, {"lat": 38.97680166666667, "fusion_lat": 0.0, "type": "electric_bike", "bike_id": "ea6bb81b949b18d07087cc182737b9d0", "rental_uris": {"ios": "https://dc.lft.to/lastmile_qr_scan", "android": "https://dc.lft.to/lastmile_qr_scan"}, "fusion_lon": 0.0, "lon": -77.01917433333334, "name": "ea6bb81b949b18d07087cc182737b9d0", "is_reserved": 0, "is_disabled": 0}, {"lat": 38.899666833333335, "fusion_lat": 0.0, "type": "electric_scooter", "bike_id": "0db84f5ae22a4c0444bb030814b26434", "rental_uris": {"ios": "https://dc.lft.to/lastmile_qr_scan", "android": "https://dc.lft.to/lastmile_qr_scan"}, "fusion_lon": 0.0, "lon": -77.04716333333333, "name": "0db84f5ae22a4c0444bb030814b26434", "is_reserved": 0, "is_disabled": 0}, {"lat": 38.924633166666666, "fusion_lat": 0.0, "type": "electric_scooter", "bike_id": "2043bf2f52bb909b0a48ddd55053ab35", "rental_uris": {"ios": "https://dc.lft.to/lastmile_qr_scan", "android": "https://dc.lft.to/lastmile_qr_scan"}, "fusion_lon": 0.0, "lon": -77.02156233333334, "name": "2043bf2f52bb909b0a48ddd55053ab35", "is_reserved": 0, "is_disabled": 0}, {"lat": 38.909654, "fusion_lat": 0.0, "type": "electric_scooter", "bike_id": "f1ed2c4aa0f5da77a6917df4da8a7a90", "rental_uris": {"ios": "https://dc.lft.to/lastmile_qr_scan", "android": "https://dc.lft.to/lastmile_qr_scan"}, "fusion_lon": 0.0, "lon": -76.98463933333333, "name": "f1ed2c4aa0f5da77a6917df4da8a7a90", "is_reserved": 0, "is_disabled": 0}, {"lat": 38.923842666666665, "fusion_lat": 0.0, "type": "electric_scooter", "bike_id": "78abbaa4de48ac87e4e75b0567e1531c", "rental_uris": {"ios": "https://dc.lft.to/lastmile_qr_scan", "android": "https://dc.lft.to/lastmile_qr_scan"}, "fusion_lon": 0.0, "lon": -77.03196166666666, "name": "78abbaa4de48ac87e4e75b0567e1531c", "is_reserved": 0, "is_disabled": 0}, {"lat": 38.905995833333336, "fusion_lat": 0.0, "type": "electric_scooter", "bike_id": "30d6c0743cf09a26363c71cf81c4d1fa", "rental_uris": {"ios": "https://dc.lft.to/lastmile_qr_scan", "android": "https://dc.lft.to/lastmile_qr_scan"}, "fusion_lon": 0.0, "lon": -77.01322916666666, "name": "30d6c0743cf09a26363c71cf81c4d1fa", "is_reserved": 0, "is_disabled": 0}, {"lat": 38.91778733333334, "fusion_lat": 0.0, "type": "electric_scooter", "bike_id": "4e6da368fecc950d73f3d5280ddd1fd7", "rental_uris": {"ios": "https://dc.lft.to/lastmile_qr_scan", "android": "https://dc.lft.to/lastmile_qr_scan"}, "fusion_lon": 0.0, "lon": -77.03202983333334, "name": "4e6da368fecc950d73f3d5280ddd1fd7", "is_reserved": 0, "is_disabled": 0}, {"lat": 38.932028333333335, "fusion_lat": 0.0, "type": "electric_scooter", "bike_id": "80f6044d9f4290b05934c9fbfdfc93a5", "rental_uris": {"ios": "https://dc.lft.to/lastmile_qr_scan", "android": "https://dc.lft.to/lastmile_qr_scan"}, "fusion_lon": 0.0, "lon": -77.0365865, "name": "80f6044d9f4290b05934c9fbfdfc93a5", "is_reserved": 0, "is_disabled": 0}, {"lat": 38.90612816666667, "fusion_lat": 0.0, "type": "electric_scooter", "bike_id": "78bc983b22695a4ea13b5389f7d3cdb6", "rental_uris": {"ios": "https://dc.lft.to/lastmile_qr_scan", "android": "https://dc.lft.to/lastmile_qr_scan"}, "fusion_lon": 0.0, "lon": -77.00705866666667, "name": "78bc983b22695a4ea13b5389f7d3cdb6", "is_reserved": 0, "is_disabled": 0}, {"lat": 38.930006666666664, "fusion_lat": 0.0, "type": "electric_bike", "bike_id": "5cc3e0ef424e3dd36fb50023dbcecf77", "rental_uris": {"ios": "https://dc.lft.to/lastmile_qr_scan", "android": "https://dc.lft.to/lastmile_qr_scan"}, "fusion_lon": 0.0, "lon": -77.0230735, "name": "5cc3e0ef424e3dd36fb50023dbcecf77", "is_reserved": 0, "is_disabled": 0}, {"lat": 38.90977783333334, "fusion_lat": 0.0, "type": "electric_scooter", "bike_id": "552cc97d457416d729c26026ef4610de", "rental_uris": {"ios": "https://dc.lft.to/lastmile_qr_scan", "android": "https://dc.lft.to/lastmile_qr_scan"}, "fusion_lon": 0.0, "lon": -77.03864466666667, "name": "552cc97d457416d729c26026ef4610de", "is_reserved": 0, "is_disabled": 0}, {"lat": 38.93249566666667, "fusion_lat": 0.0, "type": "electric_scooter", "bike_id": "ae72977a221f1d880ba3b84a2b8dc9ce", "rental_uris": {"ios": "https://dc.lft.to/lastmile_qr_scan", "android": "https://dc.lft.to/lastmile_qr_scan"}, "fusion_lon": 0.0, "lon": -77.03278416666667, "name": "ae72977a221f1d880ba3b84a2b8dc9ce", "is_reserved": 0, "is_disabled": 0}, {"lat": 38.973516833333335, "fusion_lat": 0.0, "type": "electric_scooter", "bike_id": "fedbe06d46c5c8b8cf0ccd47ca1ae02f", "rental_uris": {"ios": "https://dc.lft.to/lastmile_qr_scan", "android": "https://dc.lft.to/lastmile_qr_scan"}, "fusion_lon": 0.0, "lon": -77.02783116666667, "name": "fedbe06d46c5c8b8cf0ccd47ca1ae02f", "is_reserved": 0, "is_disabled": 0}, {"lat": 38.9268255, "fusion_lat": 0.0, "type": "electric_scooter", "bike_id": "baeffe86967d2380b61a1c81db6ae40b", "rental_uris": {"ios": "https://dc.lft.to/lastmile_qr_scan", "android": "https://dc.lft.to/lastmile_qr_scan"}, "fusion_lon": 0.0, "lon": -77.02572416666666, "name": "baeffe86967d2380b61a1c81db6ae40b", "is_reserved": 0, "is_disabled": 0}, {"lat": 38.892216833333336, "fusion_lat": 0.0, "type": "electric_scooter", "bike_id": "01a69dfa49f8cc0b8ef97d9560824235", "rental_uris": {"ios": "https://dc.lft.to/lastmile_qr_scan", "android": "https://dc.lft.to/lastmile_qr_scan"}, "fusion_lon": 0.0, "lon": -77.02372533333333, "name": "01a69dfa49f8cc0b8ef97d9560824235", "is_reserved": 0, "is_disabled": 0}, {"lat": 38.907913666666666, "fusion_lat": 0.0, "type": "electric_scooter", "bike_id": "76afb46ce2e8da9ec364bca0f4d3f520", "rental_uris": {"ios": "https://dc.lft.to/lastmile_qr_scan", "android": "https://dc.lft.to/lastmile_qr_scan"}, "fusion_lon": 0.0, "lon": -77.04335483333334, "name": "76afb46ce2e8da9ec364bca0f4d3f520", "is_reserved": 0, "is_disabled": 0}, {"lat": 38.978850666666666, "fusion_lat": 0.0, "type": "electric_bike", "bike_id": "81eee555f07d41e6d53192fce0fe2278", "rental_uris": {"ios": "https://dc.lft.to/lastmile_qr_scan", "android": "https://dc.lft.to/lastmile_qr_scan"}, "fusion_lon": 0.0, "lon": -77.0602955, "name": "81eee555f07d41e6d53192fce0fe2278", "is_reserved": 0, "is_disabled": 0}, {"lat": 38.873347, "fusion_lat": 0.0, "type": "electric_scooter", "bike_id": "da0684b15a8897b9029acaf9b7694785", "rental_uris": {"ios": "https://dc.lft.to/lastmile_qr_scan", "android": "https://dc.lft.to/lastmile_qr_scan"}, "fusion_lon": 0.0, "lon": -76.96784133333334, "name": "da0684b15a8897b9029acaf9b7694785", "is_reserved": 0, "is_disabled": 0}, {"lat": 38.98822933333334, "fusion_lat": 0.0, "type": "electric_bike", "bike_id": "50aceca16f72224df3efd50483207f6a", "rental_uris": {"ios": "https://dc.lft.to/lastmile_qr_scan", "android": "https://dc.lft.to/lastmile_qr_scan"}, "fusion_lon": 0.0, "lon": -76.996451, "name": "50aceca16f72224df3efd50483207f6a", "is_reserved": 0, "is_disabled": 0}, {"lat": 38.90451183333333, "fusion_lat": 0.0, "type": "electric_scooter", "bike_id": "bb252c52d7640a1d66ad837d11e8d6e6", "rental_uris": {"ios": "https://dc.lft.to/lastmile_qr_scan", "android": "https://dc.lft.to/lastmile_qr_scan"}, "fusion_lon": 0.0, "lon": -77.01858216666666, "name": "bb252c52d7640a1d66ad837d11e8d6e6", "is_reserved": 0, "is_disabled": 0}, {"lat": 38.842560166666665, "fusion_lat": 0.0, "type": "electric_bike", "bike_id": "d3fe55ed5e6632ea2ac7fd0124758b45", "rental_uris": {"ios": "https://dc.lft.to/lastmile_qr_scan", "android": "https://dc.lft.to/lastmile_qr_scan"}, "fusion_lon": 0.0, "lon": -76.98847666666667, "name": "d3fe55ed5e6632ea2ac7fd0124758b45", "is_reserved": 0, "is_disabled": 0}, {"lat": 38.897227666666666, "fusion_lat": 0.0, "type": "electric_scooter", "bike_id": "34dd35de32f9a6a902fc7cc8637d5331", "rental_uris": {"ios": "https://dc.lft.to/lastmile_qr_scan", "android": "https://dc.lft.to/lastmile_qr_scan"}, "fusion_lon": 0.0, "lon": -77.028018, "name": "34dd35de32f9a6a902fc7cc8637d5331", "is_reserved": 0, "is_disabled": 0}, {"lat": 38.920587, "fusion_lat": 0.0, "type": "electric_scooter", "bike_id": "7b92d9e56ba1193be7236f0700837976", "rental_uris": {"ios": "https://dc.lft.to/lastmile_qr_scan", "android": "https://dc.lft.to/lastmile_qr_scan"}, "fusion_lon": 0.0, "lon": -77.02508833333333, "name": "7b92d9e56ba1193be7236f0700837976", "is_reserved": 0, "is_disabled": 0}, {"lat": 38.83811383333333, "fusion_lat": 0.0, "type": "electric_bike", "bike_id": "f9574d0a107726f34b8c31428dd80064", "rental_uris": {"ios": "https://dc.lft.to/lastmile_qr_scan", "android": "https://dc.lft.to/lastmile_qr_scan"}, "fusion_lon": 0.0, "lon": -77.09522216666667, "name": "f9574d0a107726f34b8c31428dd80064", "is_reserved": 0, "is_disabled": 0}, {"lat": 38.906736333333335, "fusion_lat": 0.0, "type": "electric_scooter", "bike_id": "744ba529a57be9fb95acf1a56ef65974", "rental_uris": {"ios": "https://dc.lft.to/lastmile_qr_scan", "android": "https://dc.lft.to/lastmile_qr_scan"}, "fusion_lon": 0.0, "lon": -77.04463416666667, "name": "744ba529a57be9fb95acf1a56ef65974", "is_reserved": 0, "is_disabled": 0}, {"lat": 38.91496933333333, "fusion_lat": 0.0, "type": "electric_scooter", "bike_id": "eb1da3231ee484c75f3571731ef71ffb", "rental_uris": {"ios": "https://dc.lft.to/lastmile_qr_scan", "android": "https://dc.lft.to/lastmile_qr_scan"}, "fusion_lon": 0.0, "lon": -77.04539166666666, "name": "eb1da3231ee484c75f3571731ef71ffb", "is_reserved": 0, "is_disabled": 0}, {"lat": 38.9347225, "fusion_lat": 0.0, "type": "electric_scooter", "bike_id": "6eccfb03e568f4f56265c052a25bd693", "rental_uris": {"ios": "https://dc.lft.to/lastmile_qr_scan", "android": "https://dc.lft.to/lastmile_qr_scan"}, "fusion_lon": 0.0, "lon": -77.0357535, "name": "6eccfb03e568f4f56265c052a25bd693", "is_reserved": 0, "is_disabled": 0}, {"lat": 38.9174795, "fusion_lat": 0.0, "type": "electric_scooter", "bike_id": "adcd5c624d7582e51346a687dc5bfdfe", "rental_uris": {"ios": "https://dc.lft.to/lastmile_qr_scan", "android": "https://dc.lft.to/lastmile_qr_scan"}, "fusion_lon": 0.0, "lon": -77.0694315, "name": "adcd5c624d7582e51346a687dc5bfdfe", "is_reserved": 0, "is_disabled": 0}, {"lat": 38.91685116666667, "fusion_lat": 0.0, "type": "electric_scooter", "bike_id": "afb8cd0be32c0e65b68b750efd8af4e1", "rental_uris": {"ios": "https://dc.lft.to/lastmile_qr_scan", "android": "https://dc.lft.to/lastmile_qr_scan"}, "fusion_lon": 0.0, "lon": -77.03864916666667, "name": "afb8cd0be32c0e65b68b750efd8af4e1", "is_reserved": 0, "is_disabled": 0}, {"lat": 38.891717, "fusion_lat": 0.0, "type": "electric_scooter", "bike_id": "42744ded0b789d12194a5149901d8fa1", "rental_uris": {"ios": "https://dc.lft.to/lastmile_qr_scan", "android": "https://dc.lft.to/lastmile_qr_scan"}, "fusion_lon": 0.0, "lon": -77.01551266666667, "name": "42744ded0b789d12194a5149901d8fa1", "is_reserved": 0, "is_disabled": 0}, {"lat": 38.908466833333335, "fusion_lat": 0.0, "type": "electric_scooter", "bike_id": "3ba5ff6b149a52a61791f0a971dce3b2", "rental_uris": {"ios": "https://dc.lft.to/lastmile_qr_scan", "android": "https://dc.lft.to/lastmile_qr_scan"}, "fusion_lon": 0.0, "lon": -77.07306016666666, "name": "3ba5ff6b149a52a61791f0a971dce3b2", "is_reserved": 0, "is_disabled": 0}, {"lat": 38.8921865, "fusion_lat": 0.0, "type": "electric_scooter", "bike_id": "e3c46073789d66008c1476e5f104c7e8", "rental_uris": {"ios": "https://dc.lft.to/lastmile_qr_scan", "android": "https://dc.lft.to/lastmile_qr_scan"}, "fusion_lon": 0.0, "lon": -77.0446695, "name": "e3c46073789d66008c1476e5f104c7e8", "is_reserved": 0, "is_disabled": 0}, {"lat": 38.92105083333333, "fusion_lat": 0.0, "type": "electric_scooter", "bike_id": "8e2593921ada7843bd1ba08d5e35f8ad", "rental_uris": {"ios": "https://dc.lft.to/lastmile_qr_scan", "android": "https://dc.lft.to/lastmile_qr_scan"}, "fusion_lon": 0.0, "lon": -77.04685166666667, "name": "8e2593921ada7843bd1ba08d5e35f8ad", "is_reserved": 0, "is_disabled": 0}, {"lat": 38.91794316666667, "fusion_lat": 0.0, "type": "electric_scooter", "bike_id": "d5993bce5672f455ffe40ad236b52acb", "rental_uris": {"ios": "https://dc.lft.to/lastmile_qr_scan", "android": "https://dc.lft.to/lastmile_qr_scan"}, "fusion_lon": 0.0, "lon": -77.03643333333333, "name": "d5993bce5672f455ffe40ad236b52acb", "is_reserved": 0, "is_disabled": 0}, {"lat": 38.96680083333333, "fusion_lat": 0.0, "type": "electric_bike", "bike_id": "6893336d6559c4745e8f4c262d21bc36", "rental_uris": {"ios": "https://dc.lft.to/lastmile_qr_scan", "android": "https://dc.lft.to/lastmile_qr_scan"}, "fusion_lon": 0.0, "lon": -77.022624, "name": "6893336d6559c4745e8f4c262d21bc36", "is_reserved": 0, "is_disabled": 0}, {"lat": 38.928, "fusion_lat": 0.0, "type": "electric_scooter", "bike_id": "2bb09e63c4f2d3d4e4dc5a1481adea6b", "rental_uris": {"ios": "https://dc.lft.to/lastmile_qr_scan", "android": "https://dc.lft.to/lastmile_qr_scan"}, "fusion_lon": 0.0, "lon": -77.05356616666667, "name": "2bb09e63c4f2d3d4e4dc5a1481adea6b", "is_reserved": 0, "is_disabled": 0}, {"lat": 38.93512583333333, "fusion_lat": 0.0, "type": "electric_scooter", "bike_id": "97f02336d53d4dfe06c931fd0bec4911", "rental_uris": {"ios": "https://dc.lft.to/lastmile_qr_scan", "android": "https://dc.lft.to/lastmile_qr_scan"}, "fusion_lon": 0.0, "lon": -77.032854, "name": "97f02336d53d4dfe06c931fd0bec4911", "is_reserved": 0, "is_disabled": 0}, {"lat": 38.901026, "fusion_lat": 0.0, "type": "electric_scooter", "bike_id": "8e29a4b3d290403c23fd8ce2d617ed9a", "rental_uris": {"ios": "https://dc.lft.to/lastmile_qr_scan", "android": "https://dc.lft.to/lastmile_qr_scan"}, "fusion_lon": 0.0, "lon": -77.0066235, "name": "8e29a4b3d290403c23fd8ce2d617ed9a", "is_reserved": 0, "is_disabled": 0}, {"lat": 38.915512, "fusion_lat": 0.0, "type": "electric_scooter", "bike_id": "8dc78ce9ceed2ed77a889eafb1cefe16", "rental_uris": {"ios": "https://dc.lft.to/lastmile_qr_scan", "android": "https://dc.lft.to/lastmile_qr_scan"}, "fusion_lon": 0.0, "lon": -77.006958, "name": "8dc78ce9ceed2ed77a889eafb1cefe16", "is_reserved": 0, "is_disabled": 0}, {"lat": 38.92798033333333, "fusion_lat": 0.0, "type": "electric_scooter", "bike_id": "6eb11530db5923440c38ae56c51f14b1", "rental_uris": {"ios": "https://dc.lft.to/lastmile_qr_scan", "android": "https://dc.lft.to/lastmile_qr_scan"}, "fusion_lon": 0.0, "lon": -77.04050466666666, "name": "6eb11530db5923440c38ae56c51f14b1", "is_reserved": 0, "is_disabled": 0}, {"lat": 38.9002615, "fusion_lat": 0.0, "type": "electric_scooter", "bike_id": "abc57cbf418f109781a90c58c6e520fd", "rental_uris": {"ios": "https://dc.lft.to/lastmile_qr_scan", "android": "https://dc.lft.to/lastmile_qr_scan"}, "fusion_lon": 0.0, "lon": -77.02948116666667, "name": "abc57cbf418f109781a90c58c6e520fd", "is_reserved": 0, "is_disabled": 0}, {"lat": 38.931026, "fusion_lat": 0.0, "type": "electric_scooter", "bike_id": "450d14e53437bda5929ae7068139b99e", "rental_uris": {"ios": "https://dc.lft.to/lastmile_qr_scan", "android": "https://dc.lft.to/lastmile_qr_scan"}, "fusion_lon": 0.0, "lon": -77.024523, "name": "450d14e53437bda5929ae7068139b99e", "is_reserved": 0, "is_disabled": 0}, {"lat": 38.917722, "fusion_lat": 0.0, "type": "electric_scooter", "bike_id": "e51d44a149c452341704e67f643e7a76", "rental_uris": {"ios": "https://dc.lft.to/lastmile_qr_scan", "android": "https://dc.lft.to/lastmile_qr_scan"}, "fusion_lon": 0.0, "lon": -77.01486733333333, "name": "e51d44a149c452341704e67f643e7a76", "is_reserved": 0, "is_disabled": 0}, {"lat": 38.900423833333335, "fusion_lat": 0.0, "type": "electric_scooter", "bike_id": "3eabaf1f549e085253bd3e67c8f83f26", "rental_uris": {"ios": "https://dc.lft.to/lastmile_qr_scan", "android": "https://dc.lft.to/lastmile_qr_scan"}, "fusion_lon": 0.0, "lon": -77.04877383333333, "name": "3eabaf1f549e085253bd3e67c8f83f26", "is_reserved": 0, "is_disabled": 0}, {"lat": 38.899540333333334, "fusion_lat": 0.0, "type": "electric_scooter", "bike_id": "80a5d7ebac09e65c0471a733db459ddb", "rental_uris": {"ios": "https://dc.lft.to/lastmile_qr_scan", "android": "https://dc.lft.to/lastmile_qr_scan"}, "fusion_lon": 0.0, "lon": -77.04647866666667, "name": "80a5d7ebac09e65c0471a733db459ddb", "is_reserved": 0, "is_disabled": 0}, {"lat": 38.9181215, "fusion_lat": 0.0, "type": "electric_scooter", "bike_id": "797e6956b9b59b9f8ece3fd01b62e462", "rental_uris": {"ios": "https://dc.lft.to/lastmile_qr_scan", "android": "https://dc.lft.to/lastmile_qr_scan"}, "fusion_lon": 0.0, "lon": -77.03209183333334, "name": "797e6956b9b59b9f8ece3fd01b62e462", "is_reserved": 0, "is_disabled": 0}, {"lat": 38.922349833333335, "fusion_lat": 0.0, "type": "electric_scooter", "bike_id": "b2dda7f9ab63ae9b4d527850f8e228ed", "rental_uris": {"ios": "https://dc.lft.to/lastmile_qr_scan", "android": "https://dc.lft.to/lastmile_qr_scan"}, "fusion_lon": 0.0, "lon": -77.01820116666667, "name": "b2dda7f9ab63ae9b4d527850f8e228ed", "is_reserved": 0, "is_disabled": 0}, {"lat": 38.9019785, "fusion_lat": 0.0, "type": "electric_scooter", "bike_id": "26046d4a27b3e79adbdc8c0c8ebe343f", "rental_uris": {"ios": "https://dc.lft.to/lastmile_qr_scan", "android": "https://dc.lft.to/lastmile_qr_scan"}, "fusion_lon": 0.0, "lon": -76.98202966666666, "name": "26046d4a27b3e79adbdc8c0c8ebe343f", "is_reserved": 0, "is_disabled": 0}, {"lat": 38.9220415, "fusion_lat": 0.0, "type": "electric_scooter", "bike_id": "5d9c1e485be8a30610d4ba36e0df0395", "rental_uris": {"ios": "https://dc.lft.to/lastmile_qr_scan", "android": "https://dc.lft.to/lastmile_qr_scan"}, "fusion_lon": 0.0, "lon": -77.03650466666667, "name": "5d9c1e485be8a30610d4ba36e0df0395", "is_reserved": 0, "is_disabled": 0}, {"lat": 38.89238833333334, "fusion_lat": 0.0, "type": "electric_scooter", "bike_id": "c10d9f4ecf40215b4eafaf391acd1c8e", "rental_uris": {"ios": "https://dc.lft.to/lastmile_qr_scan", "android": "https://dc.lft.to/lastmile_qr_scan"}, "fusion_lon": 0.0, "lon": -77.04658833333333, "name": "c10d9f4ecf40215b4eafaf391acd1c8e", "is_reserved": 0, "is_disabled": 0}, {"lat": 38.90142383333333, "fusion_lat": 0.0, "type": "electric_scooter", "bike_id": "43bc79e41a23c59eb14e448a33e1256a", "rental_uris": {"ios": "https://dc.lft.to/lastmile_qr_scan", "android": "https://dc.lft.to/lastmile_qr_scan"}, "fusion_lon": 0.0, "lon": -77.01668233333334, "name": "43bc79e41a23c59eb14e448a33e1256a", "is_reserved": 0, "is_disabled": 0}, {"lat": 38.9213415, "fusion_lat": 0.0, "type": "electric_scooter", "bike_id": "f9b39b22f74e951691fb23c0d61fefa0", "rental_uris": {"ios": "https://dc.lft.to/lastmile_qr_scan", "android": "https://dc.lft.to/lastmile_qr_scan"}, "fusion_lon": 0.0, "lon": -77.04126433333333, "name": "f9b39b22f74e951691fb23c0d61fefa0", "is_reserved": 0, "is_disabled": 0}, {"lat": 38.90866666666667, "fusion_lat": 0.0, "type": "electric_scooter", "bike_id": "6c33eefa678081af5684ee48c8fa0769", "rental_uris": {"ios": "https://dc.lft.to/lastmile_qr_scan", "android": "https://dc.lft.to/lastmile_qr_scan"}, "fusion_lon": 0.0, "lon": -77.032223, "name": "6c33eefa678081af5684ee48c8fa0769", "is_reserved": 0, "is_disabled": 0}, {"lat": 38.90395933333333, "fusion_lat": 0.0, "type": "electric_scooter", "bike_id": "b8dbe16c73ff69216c9b5c8ab6873fb1", "rental_uris": {"ios": "https://dc.lft.to/lastmile_qr_scan", "android": "https://dc.lft.to/lastmile_qr_scan"}, "fusion_lon": 0.0, "lon": -77.062981, "name": "b8dbe16c73ff69216c9b5c8ab6873fb1", "is_reserved": 0, "is_disabled": 0}, {"lat": 38.905373833333336, "fusion_lat": 0.0, "type": "electric_scooter", "bike_id": "17d2b63ab9ca3fda8ef89716ca39c584", "rental_uris": {"ios": "https://dc.lft.to/lastmile_qr_scan", "android": "https://dc.lft.to/lastmile_qr_scan"}, "fusion_lon": 0.0, "lon": -77.04990883333333, "name": "17d2b63ab9ca3fda8ef89716ca39c584", "is_reserved": 0, "is_disabled": 0}, {"lat": 38.935578666666665, "fusion_lat": 0.0, "type": "electric_scooter", "bike_id": "e6a8456ba3cb1eb9d20be8cfffa06e58", "rental_uris": {"ios": "https://dc.lft.to/lastmile_qr_scan", "android": "https://dc.lft.to/lastmile_qr_scan"}, "fusion_lon": 0.0, "lon": -77.07462383333333, "name": "e6a8456ba3cb1eb9d20be8cfffa06e58", "is_reserved": 0, "is_disabled": 0}, {"lat": 38.89008533333333, "fusion_lat": 0.0, "type": "electric_scooter", "bike_id": "556c32811c9fd143a58afddf19452bbc", "rental_uris": {"ios": "https://dc.lft.to/lastmile_qr_scan", "android": "https://dc.lft.to/lastmile_qr_scan"}, "fusion_lon": 0.0, "lon": -76.97732716666667, "name": "556c32811c9fd143a58afddf19452bbc", "is_reserved": 0, "is_disabled": 0}, {"lat": 38.936170833333335, "fusion_lat": 0.0, "type": "electric_scooter", "bike_id": "ab74b45a750f7a95d2122aa58657e609", "rental_uris": {"ios": "https://dc.lft.to/lastmile_qr_scan", "android": "https://dc.lft.to/lastmile_qr_scan"}, "fusion_lon": 0.0, "lon": -77.031809, "name": "ab74b45a750f7a95d2122aa58657e609", "is_reserved": 0, "is_disabled": 0}, {"lat": 38.89987466666667, "fusion_lat": 0.0, "type": "electric_scooter", "bike_id": "985a919cf8933c89739aedcc5adf4dce", "rental_uris": {"ios": "https://dc.lft.to/lastmile_qr_scan", "android": "https://dc.lft.to/lastmile_qr_scan"}, "fusion_lon": 0.0, "lon": -77.0507565, "name": "985a919cf8933c89739aedcc5adf4dce", "is_reserved": 0, "is_disabled": 0}, {"lat": 38.90029766666667, "fusion_lat": 0.0, "type": "electric_scooter", "bike_id": "8b4a73267155aaa943c8b1a618544847", "rental_uris": {"ios": "https://dc.lft.to/lastmile_qr_scan", "android": "https://dc.lft.to/lastmile_qr_scan"}, "fusion_lon": 0.0, "lon": -77.00202866666666, "name": "8b4a73267155aaa943c8b1a618544847", "is_reserved": 0, "is_disabled": 0}, {"lat": 38.92380816666667, "fusion_lat": 0.0, "type": "electric_scooter", "bike_id": "62e43fc759dffb27848a8dd4342e22d4", "rental_uris": {"ios": "https://dc.lft.to/lastmile_qr_scan", "android": "https://dc.lft.to/lastmile_qr_scan"}, "fusion_lon": 0.0, "lon": -77.030556, "name": "62e43fc759dffb27848a8dd4342e22d4", "is_reserved": 0, "is_disabled": 0}, {"lat": 38.90235083333334, "fusion_lat": 0.0, "type": "electric_scooter", "bike_id": "21dd7633383978730ec5e40d547070aa", "rental_uris": {"ios": "https://dc.lft.to/lastmile_qr_scan", "android": "https://dc.lft.to/lastmile_qr_scan"}, "fusion_lon": 0.0, "lon": -77.01505083333333, "name": "21dd7633383978730ec5e40d547070aa", "is_reserved": 0, "is_disabled": 0}, {"lat": 38.89841233333333, "fusion_lat": 0.0, "type": "electric_scooter", "bike_id": "f1adb26af6a3145019c9cfaecdb3adc6", "rental_uris": {"ios": "https://dc.lft.to/lastmile_qr_scan", "android": "https://dc.lft.to/lastmile_qr_scan"}, "fusion_lon": 0.0, "lon": -77.03952933333333, "name": "f1adb26af6a3145019c9cfaecdb3adc6", "is_reserved": 0, "is_disabled": 0}, {"lat": 38.84429016666667, "fusion_lat": 0.0, "type": "electric_scooter", "bike_id": "bd73e4a6ed555cdc70c936a75cd42087", "rental_uris": {"ios": "https://dc.lft.to/lastmile_qr_scan", "android": "https://dc.lft.to/lastmile_qr_scan"}, "fusion_lon": 0.0, "lon": -76.9977945, "name": "bd73e4a6ed555cdc70c936a75cd42087", "is_reserved": 0, "is_disabled": 0}, {"lat": 38.9661925, "fusion_lat": 0.0, "type": "electric_bike", "bike_id": "dded9b3018becdba328adf1933cfade8", "rental_uris": {"ios": "https://dc.lft.to/lastmile_qr_scan", "android": "https://dc.lft.to/lastmile_qr_scan"}, "fusion_lon": 0.0, "lon": -77.03429366666667, "name": "dded9b3018becdba328adf1933cfade8", "is_reserved": 0, "is_disabled": 0}, {"lat": 38.88488516666666, "fusion_lat": 0.0, "type": "electric_scooter", "bike_id": "dfa10f73740747ea3dc1b439ca6131e1", "rental_uris": {"ios": "https://dc.lft.to/lastmile_qr_scan", "android": "https://dc.lft.to/lastmile_qr_scan"}, "fusion_lon": 0.0, "lon": -77.0347495, "name": "dfa10f73740747ea3dc1b439ca6131e1", "is_reserved": 0, "is_disabled": 0}, {"lat": 38.8848605, "fusion_lat": 0.0, "type": "electric_scooter", "bike_id": "ec8200ff938de9497b3b6884fcbd720a", "rental_uris": {"ios": "https://dc.lft.to/lastmile_qr_scan", "android": "https://dc.lft.to/lastmile_qr_scan"}, "fusion_lon": 0.0, "lon": -77.0070855, "name": "ec8200ff938de9497b3b6884fcbd720a", "is_reserved": 0, "is_disabled": 0}, {"lat": 38.91575016666667, "fusion_lat": 0.0, "type": "electric_scooter", "bike_id": "e5781a01df4263b165355f5b4ca39706", "rental_uris": {"ios": "https://dc.lft.to/lastmile_qr_scan", "android": "https://dc.lft.to/lastmile_qr_scan"}, "fusion_lon": 0.0, "lon": -77.03851033333333, "name": "e5781a01df4263b165355f5b4ca39706", "is_reserved": 0, "is_disabled": 0}, {"lat": 38.85625116666667, "fusion_lat": 0.0, "type": "electric_bike", "bike_id": "ab02b9ce992acd86b1b2e1663e3f1a33", "rental_uris": {"ios": "https://dc.lft.to/lastmile_qr_scan", "android": "https://dc.lft.to/lastmile_qr_scan"}, "fusion_lon": 0.0, "lon": -76.961501, "name": "ab02b9ce992acd86b1b2e1663e3f1a33", "is_reserved": 0, "is_disabled": 0}, {"lat": 38.9093615, "fusion_lat": 0.0, "type": "electric_scooter", "bike_id": "45ed498dfd0eb90c6bfeccff5d62b503", "rental_uris": {"ios": "https://dc.lft.to/lastmile_qr_scan", "android": "https://dc.lft.to/lastmile_qr_scan"}, "fusion_lon": 0.0, "lon": -76.99971233333333, "name": "45ed498dfd0eb90c6bfeccff5d62b503", "is_reserved": 0, "is_disabled": 0}, {"lat": 38.927691833333334, "fusion_lat": 0.0, "type": "electric_bike", "bike_id": "2014bfc2c2a3b659c2193be9218daf20", "rental_uris": {"ios": "https://dc.lft.to/lastmile_qr_scan", "android": "https://dc.lft.to/lastmile_qr_scan"}, "fusion_lon": 0.0, "lon": -77.07011166666666, "name": "2014bfc2c2a3b659c2193be9218daf20", "is_reserved": 0, "is_disabled": 0}, {"lat": 38.907283666666665, "fusion_lat": 0.0, "type": "electric_scooter", "bike_id": "4b6f8492f84f9566488e1d9a903a9bb9", "rental_uris": {"ios": "https://dc.lft.to/lastmile_qr_scan", "android": "https://dc.lft.to/lastmile_qr_scan"}, "fusion_lon": 0.0, "lon": -77.02546666666667, "name": "4b6f8492f84f9566488e1d9a903a9bb9", "is_reserved": 0, "is_disabled": 0}, {"lat": 38.9110515, "fusion_lat": 0.0, "type": "electric_scooter", "bike_id": "1995657c24758daf9d600e1313ae289b", "rental_uris": {"ios": "https://dc.lft.to/lastmile_qr_scan", "android": "https://dc.lft.to/lastmile_qr_scan"}, "fusion_lon": 0.0, "lon": -77.00212533333334, "name": "1995657c24758daf9d600e1313ae289b", "is_reserved": 0, "is_disabled": 0}, {"lat": 38.92434083333333, "fusion_lat": 0.0, "type": "electric_scooter", "bike_id": "b24fef9a921b4fbf04d9839b25454118", "rental_uris": {"ios": "https://dc.lft.to/lastmile_qr_scan", "android": "https://dc.lft.to/lastmile_qr_scan"}, "fusion_lon": 0.0, "lon": -77.00063433333334, "name": "b24fef9a921b4fbf04d9839b25454118", "is_reserved": 0, "is_disabled": 0}, {"lat": 38.920585, "fusion_lat": 0.0, "type": "electric_scooter", "bike_id": "2bd78048d610b4393ff21796eb00dd34", "rental_uris": {"ios": "https://dc.lft.to/lastmile_qr_scan", "android": "https://dc.lft.to/lastmile_qr_scan"}, "fusion_lon": 0.0, "lon": -77.02450266666666, "name": "2bd78048d610b4393ff21796eb00dd34", "is_reserved": 0, "is_disabled": 0}, {"lat": 38.92389033333333, "fusion_lat": 0.0, "type": "electric_scooter", "bike_id": "935c818c6f138976805376c118cbd935", "rental_uris": {"ios": "https://dc.lft.to/lastmile_qr_scan", "android": "https://dc.lft.to/lastmile_qr_scan"}, "fusion_lon": 0.0, "lon": -77.0365595, "name": "935c818c6f138976805376c118cbd935", "is_reserved": 0, "is_disabled": 0}, {"lat": 38.8922095, "fusion_lat": 0.0, "type": "electric_scooter", "bike_id": "fdac3f75b3ef916a5fc6742ae920c70e", "rental_uris": {"ios": "https://dc.lft.to/lastmile_qr_scan", "android": "https://dc.lft.to/lastmile_qr_scan"}, "fusion_lon": 0.0, "lon": -77.02373, "name": "fdac3f75b3ef916a5fc6742ae920c70e", "is_reserved": 0, "is_disabled": 0}, {"lat": 38.87703316666666, "fusion_lat": 0.0, "type": "electric_scooter", "bike_id": "4436d128c92ea9983ee34f52e0694aa4", "rental_uris": {"ios": "https://dc.lft.to/lastmile_qr_scan", "android": "https://dc.lft.to/lastmile_qr_scan"}, "fusion_lon": 0.0, "lon": -76.99692666666667, "name": "4436d128c92ea9983ee34f52e0694aa4", "is_reserved": 0, "is_disabled": 0}, {"lat": 38.941056, "fusion_lat": 0.0, "type": "electric_scooter", "bike_id": "923080c2029463dc6f40b212f7b414aa", "rental_uris": {"ios": "https://dc.lft.to/lastmile_qr_scan", "android": "https://dc.lft.to/lastmile_qr_scan"}, "fusion_lon": 0.0, "lon": -77.02642516666667, "name": "923080c2029463dc6f40b212f7b414aa", "is_reserved": 0, "is_disabled": 0}, {"lat": 38.922536666666666, "fusion_lat": 0.0, "type": "electric_scooter", "bike_id": "f627ee8aa471b4e829486358834af51d", "rental_uris": {"ios": "https://dc.lft.to/lastmile_qr_scan", "android": "https://dc.lft.to/lastmile_qr_scan"}, "fusion_lon": 0.0, "lon": -77.01911566666666, "name": "f627ee8aa471b4e829486358834af51d", "is_reserved": 0, "is_disabled": 0}, {"lat": 38.920337833333335, "fusion_lat": 0.0, "type": "electric_scooter", "bike_id": "fe632c806c781f84aff2e5abaa68a3cd", "rental_uris": {"ios": "https://dc.lft.to/lastmile_qr_scan", "android": "https://dc.lft.to/lastmile_qr_scan"}, "fusion_lon": 0.0, "lon": -77.0713915, "name": "fe632c806c781f84aff2e5abaa68a3cd", "is_reserved": 0, "is_disabled": 0}, {"lat": 38.87713133333333, "fusion_lat": 0.0, "type": "electric_scooter", "bike_id": "4dc150b4d80ad9f8bb068d3a0ce27cb3", "rental_uris": {"ios": "https://dc.lft.to/lastmile_qr_scan", "android": "https://dc.lft.to/lastmile_qr_scan"}, "fusion_lon": 0.0, "lon": -77.0175745, "name": "4dc150b4d80ad9f8bb068d3a0ce27cb3", "is_reserved": 0, "is_disabled": 0}, {"lat": 38.90310366666667, "fusion_lat": 0.0, "type": "electric_scooter", "bike_id": "e87fcb43b3a5c1d8de6a0d973eb9ecf6", "rental_uris": {"ios": "https://dc.lft.to/lastmile_qr_scan", "android": "https://dc.lft.to/lastmile_qr_scan"}, "fusion_lon": 0.0, "lon": -76.97798133333333, "name": "e87fcb43b3a5c1d8de6a0d973eb9ecf6", "is_reserved": 0, "is_disabled": 0}, {"lat": 38.89221, "fusion_lat": 0.0, "type": "electric_scooter", "bike_id": "edf85bf3ead605c77ab6b723bcd7e341", "rental_uris": {"ios": "https://dc.lft.to/lastmile_qr_scan", "android": "https://dc.lft.to/lastmile_qr_scan"}, "fusion_lon": 0.0, "lon": -77.026295, "name": "edf85bf3ead605c77ab6b723bcd7e341", "is_reserved": 0, "is_disabled": 0}, {"lat": 38.903986833333335, "fusion_lat": 0.0, "type": "electric_scooter", "bike_id": "2f1bcdec1edeea60ad771bd5225b5b8e", "rental_uris": {"ios": "https://dc.lft.to/lastmile_qr_scan", "android": "https://dc.lft.to/lastmile_qr_scan"}, "fusion_lon": 0.0, "lon": -77.06811033333334, "name": "2f1bcdec1edeea60ad771bd5225b5b8e", "is_reserved": 0, "is_disabled": 0}, {"lat": 38.9044425, "fusion_lat": 0.0, "type": "electric_scooter", "bike_id": "89f172b06bc157c3c6e034ddae58f45e", "rental_uris": {"ios": "https://dc.lft.to/lastmile_qr_scan", "android": "https://dc.lft.to/lastmile_qr_scan"}, "fusion_lon": 0.0, "lon": -77.05852333333333, "name": "89f172b06bc157c3c6e034ddae58f45e", "is_reserved": 0, "is_disabled": 0}, {"lat": 38.917858, "fusion_lat": 0.0, "type": "electric_scooter", "bike_id": "d421d56383d57a831f3658d7df591dbe", "rental_uris": {"ios": "https://dc.lft.to/lastmile_qr_scan", "android": "https://dc.lft.to/lastmile_qr_scan"}, "fusion_lon": 0.0, "lon": -77.02311166666667, "name": "d421d56383d57a831f3658d7df591dbe", "is_reserved": 0, "is_disabled": 0}, {"lat": 38.91028333333333, "fusion_lat": 0.0, "type": "electric_scooter", "bike_id": "5da8967b484a12fb747c45a13cda12d6", "rental_uris": {"ios": "https://dc.lft.to/lastmile_qr_scan", "android": "https://dc.lft.to/lastmile_qr_scan"}, "fusion_lon": 0.0, "lon": -77.04652416666667, "name": "5da8967b484a12fb747c45a13cda12d6", "is_reserved": 0, "is_disabled": 0}, {"lat": 38.91056416666667, "fusion_lat": 0.0, "type": "electric_scooter", "bike_id": "600d12814e1ff739629ff9ae6bde9d9a", "rental_uris": {"ios": "https://dc.lft.to/lastmile_qr_scan", "android": "https://dc.lft.to/lastmile_qr_scan"}, "fusion_lon": 0.0, "lon": -77.02199883333333, "name": "600d12814e1ff739629ff9ae6bde9d9a", "is_reserved": 0, "is_disabled": 0}, {"lat": 38.920552666666666, "fusion_lat": 0.0, "type": "electric_scooter", "bike_id": "2f41a62cd9376528927f7d6eea258d9f", "rental_uris": {"ios": "https://dc.lft.to/lastmile_qr_scan", "android": "https://dc.lft.to/lastmile_qr_scan"}, "fusion_lon": 0.0, "lon": -77.04335333333333, "name": "2f41a62cd9376528927f7d6eea258d9f", "is_reserved": 0, "is_disabled": 0}, {"lat": 38.9143545, "fusion_lat": 0.0, "type": "electric_scooter", "bike_id": "781db749ad34c26341b67d2c7947a4ff", "rental_uris": {"ios": "https://dc.lft.to/lastmile_qr_scan", "android": "https://dc.lft.to/lastmile_qr_scan"}, "fusion_lon": 0.0, "lon": -76.9844275, "name": "781db749ad34c26341b67d2c7947a4ff", "is_reserved": 0, "is_disabled": 0}, {"lat": 38.9174955, "fusion_lat": 0.0, "type": "electric_scooter", "bike_id": "c98f3774e8274296321e807c979f5431", "rental_uris": {"ios": "https://dc.lft.to/lastmile_qr_scan", "android": "https://dc.lft.to/lastmile_qr_scan"}, "fusion_lon": 0.0, "lon": -77.0122455, "name": "c98f3774e8274296321e807c979f5431", "is_reserved": 0, "is_disabled": 0}, {"lat": 38.892331666666664, "fusion_lat": 0.0, "type": "electric_scooter", "bike_id": "c197ba9bf4d7a31f43ffa9bc58820e7e", "rental_uris": {"ios": "https://dc.lft.to/lastmile_qr_scan", "android": "https://dc.lft.to/lastmile_qr_scan"}, "fusion_lon": 0.0, "lon": -77.00290083333333, "name": "c197ba9bf4d7a31f43ffa9bc58820e7e", "is_reserved": 0, "is_disabled": 0}, {"lat": 38.9196535, "fusion_lat": 0.0, "type": "electric_scooter", "bike_id": "c1b6876ee42edbd3894dcaad7725f671", "rental_uris": {"ios": "https://dc.lft.to/lastmile_qr_scan", "android": "https://dc.lft.to/lastmile_qr_scan"}, "fusion_lon": 0.0, "lon": -77.01488583333334, "name": "c1b6876ee42edbd3894dcaad7725f671", "is_reserved": 0, "is_disabled": 0}, {"lat": 38.997825166666665, "fusion_lat": 0.0, "type": "electric_bike", "bike_id": "4e4635fd84e89f9a9f051ce3a1e21dd1", "rental_uris": {"ios": "https://dc.lft.to/lastmile_qr_scan", "android": "https://dc.lft.to/lastmile_qr_scan"}, "fusion_lon": 0.0, "lon": -77.04719383333334, "name": "4e4635fd84e89f9a9f051ce3a1e21dd1", "is_reserved": 0, "is_disabled": 0}, {"lat": 38.920253333333335, "fusion_lat": 0.0, "type": "electric_scooter", "bike_id": "ec2dd26206fcf5a640da6cf737d39496", "rental_uris": {"ios": "https://dc.lft.to/lastmile_qr_scan", "android": "https://dc.lft.to/lastmile_qr_scan"}, "fusion_lon": 0.0, "lon": -77.07161583333334, "name": "ec2dd26206fcf5a640da6cf737d39496", "is_reserved": 0, "is_disabled": 0}, {"lat": 38.887378, "fusion_lat": 0.0, "type": "electric_scooter", "bike_id": "95d7899c1030eb5a6ae4297ad8109596", "rental_uris": {"ios": "https://dc.lft.to/lastmile_qr_scan", "android": "https://dc.lft.to/lastmile_qr_scan"}, "fusion_lon": 0.0, "lon": -77.03182083333333, "name": "95d7899c1030eb5a6ae4297ad8109596", "is_reserved": 0, "is_disabled": 0}, {"lat": 38.89189616666667, "fusion_lat": 0.0, "type": "electric_scooter", "bike_id": "9ec3da9770b7966748e71ffab38e4c30", "rental_uris": {"ios": "https://dc.lft.to/lastmile_qr_scan", "android": "https://dc.lft.to/lastmile_qr_scan"}, "fusion_lon": 0.0, "lon": -77.03184016666667, "name": "9ec3da9770b7966748e71ffab38e4c30", "is_reserved": 0, "is_disabled": 0}, {"lat": 38.91270633333333, "fusion_lat": 0.0, "type": "electric_scooter", "bike_id": "553a86a49c0a47bc7d5fd944f574416c", "rental_uris": {"ios": "https://dc.lft.to/lastmile_qr_scan", "android": "https://dc.lft.to/lastmile_qr_scan"}, "fusion_lon": 0.0, "lon": -77.02209733333333, "name": "553a86a49c0a47bc7d5fd944f574416c", "is_reserved": 0, "is_disabled": 0}, {"lat": 38.92422083333334, "fusion_lat": 0.0, "type": "electric_bike", "bike_id": "649badf4b62fe7dc858b7be39fdfef68", "rental_uris": {"ios": "https://dc.lft.to/lastmile_qr_scan", "android": "https://dc.lft.to/lastmile_qr_scan"}, "fusion_lon": 0.0, "lon": -77.05038366666666, "name": "649badf4b62fe7dc858b7be39fdfef68", "is_reserved": 0, "is_disabled": 0}, {"lat": 38.9327935, "fusion_lat": 0.0, "type": "electric_scooter", "bike_id": "9af3a9d140f129c8cf6f71959445c478", "rental_uris": {"ios": "https://dc.lft.to/lastmile_qr_scan", "android": "https://dc.lft.to/lastmile_qr_scan"}, "fusion_lon": 0.0, "lon": -77.04081433333333, "name": "9af3a9d140f129c8cf6f71959445c478", "is_reserved": 0, "is_disabled": 0}, {"lat": 38.92702533333333, "fusion_lat": 0.0, "type": "electric_scooter", "bike_id": "e28d6182f7a64a6f5af906e3b792ca43", "rental_uris": {"ios": "https://dc.lft.to/lastmile_qr_scan", "android": "https://dc.lft.to/lastmile_qr_scan"}, "fusion_lon": 0.0, "lon": -77.0357475, "name": "e28d6182f7a64a6f5af906e3b792ca43", "is_reserved": 0, "is_disabled": 0}, {"lat": 38.94417833333333, "fusion_lat": 0.0, "type": "electric_bike", "bike_id": "6c152b906fa07cbb51eb9043fe9414c9", "rental_uris": {"ios": "https://dc.lft.to/lastmile_qr_scan", "android": "https://dc.lft.to/lastmile_qr_scan"}, "fusion_lon": 0.0, "lon": -77.05520883333334, "name": "6c152b906fa07cbb51eb9043fe9414c9", "is_reserved": 0, "is_disabled": 0}, {"lat": 38.94280966666667, "fusion_lat": 0.0, "type": "electric_scooter", "bike_id": "823121c00e435192a2379012773c7170", "rental_uris": {"ios": "https://dc.lft.to/lastmile_qr_scan", "android": "https://dc.lft.to/lastmile_qr_scan"}, "fusion_lon": 0.0, "lon": -77.02936433333333, "name": "823121c00e435192a2379012773c7170", "is_reserved": 0, "is_disabled": 0}, {"lat": 38.88632883333333, "fusion_lat": 0.0, "type": "electric_scooter", "bike_id": "ebdbcf9692402e52418fff9aa2ea47a4", "rental_uris": {"ios": "https://dc.lft.to/lastmile_qr_scan", "android": "https://dc.lft.to/lastmile_qr_scan"}, "fusion_lon": 0.0, "lon": -77.028303, "name": "ebdbcf9692402e52418fff9aa2ea47a4", "is_reserved": 0, "is_disabled": 0}, {"lat": 38.94979166666667, "fusion_lat": 0.0, "type": "electric_scooter", "bike_id": "af742067e1e1d2f5f98a503848fe2d5b", "rental_uris": {"ios": "https://dc.lft.to/lastmile_qr_scan", "android": "https://dc.lft.to/lastmile_qr_scan"}, "fusion_lon": 0.0, "lon": -77.02983383333333, "name": "af742067e1e1d2f5f98a503848fe2d5b", "is_reserved": 0, "is_disabled": 0}, {"lat": 38.90739083333333, "fusion_lat": 0.0, "type": "electric_scooter", "bike_id": "155274f4bc6706ef7ccead3972bb260d", "rental_uris": {"ios": "https://dc.lft.to/lastmile_qr_scan", "android": "https://dc.lft.to/lastmile_qr_scan"}, "fusion_lon": 0.0, "lon": -77.041683, "name": "155274f4bc6706ef7ccead3972bb260d", "is_reserved": 0, "is_disabled": 0}, {"lat": 38.9074615, "fusion_lat": 0.0, "type": "electric_scooter", "bike_id": "fc66b762466b352f1987b4f10f0e2c29", "rental_uris": {"ios": "https://dc.lft.to/lastmile_qr_scan", "android": "https://dc.lft.to/lastmile_qr_scan"}, "fusion_lon": 0.0, "lon": -77.00132416666666, "name": "fc66b762466b352f1987b4f10f0e2c29", "is_reserved": 0, "is_disabled": 0}, {"lat": 38.89992633333333, "fusion_lat": 0.0, "type": "electric_scooter", "bike_id": "8d2bcdf49e6c38989d77cb428b8d8ec7", "rental_uris": {"ios": "https://dc.lft.to/lastmile_qr_scan", "android": "https://dc.lft.to/lastmile_qr_scan"}, "fusion_lon": 0.0, "lon": -77.00665416666666, "name": "8d2bcdf49e6c38989d77cb428b8d8ec7", "is_reserved": 0, "is_disabled": 0}, {"lat": 38.912065, "fusion_lat": 0.0, "type": "electric_scooter", "bike_id": "95bb5d07bf5ce21559a3c7b231f02b5c", "rental_uris": {"ios": "https://dc.lft.to/lastmile_qr_scan", "android": "https://dc.lft.to/lastmile_qr_scan"}, "fusion_lon": 0.0, "lon": -77.04544233333333, "name": "95bb5d07bf5ce21559a3c7b231f02b5c", "is_reserved": 0, "is_disabled": 0}, {"lat": 38.905996333333334, "fusion_lat": 0.0, "type": "electric_scooter", "bike_id": "95efa818eb3866e1fcd2fbb20ff37680", "rental_uris": {"ios": "https://dc.lft.to/lastmile_qr_scan", "android": "https://dc.lft.to/lastmile_qr_scan"}, "fusion_lon": 0.0, "lon": -77.02604333333333, "name": "95efa818eb3866e1fcd2fbb20ff37680", "is_reserved": 0, "is_disabled": 0}, {"lat": 38.872977166666665, "fusion_lat": 0.0, "type": "electric_scooter", "bike_id": "a9cece7707d57b207d0ad2db124cc289", "rental_uris": {"ios": "https://dc.lft.to/lastmile_qr_scan", "android": "https://dc.lft.to/lastmile_qr_scan"}, "fusion_lon": 0.0, "lon": -77.009909, "name": "a9cece7707d57b207d0ad2db124cc289", "is_reserved": 0, "is_disabled": 0}, {"lat": 38.8971785, "fusion_lat": 0.0, "type": "electric_scooter", "bike_id": "df55b44a955b1b29097673003c61c61d", "rental_uris": {"ios": "https://dc.lft.to/lastmile_qr_scan", "android": "https://dc.lft.to/lastmile_qr_scan"}, "fusion_lon": 0.0, "lon": -77.00798533333334, "name": "df55b44a955b1b29097673003c61c61d", "is_reserved": 0, "is_disabled": 0}, {"lat": 38.941932, "fusion_lat": 0.0, "type": "electric_scooter", "bike_id": "444982f5bd87e794eb6bbdc623cc2247", "rental_uris": {"ios": "https://dc.lft.to/lastmile_qr_scan", "android": "https://dc.lft.to/lastmile_qr_scan"}, "fusion_lon": 0.0, "lon": -77.024755, "name": "444982f5bd87e794eb6bbdc623cc2247", "is_reserved": 0, "is_disabled": 0}, {"lat": 38.916421166666666, "fusion_lat": 0.0, "type": "electric_scooter", "bike_id": "908ff2f0a3c66f3628f10c341cd907a3", "rental_uris": {"ios": "https://dc.lft.to/lastmile_qr_scan", "android": "https://dc.lft.to/lastmile_qr_scan"}, "fusion_lon": 0.0, "lon": -77.01588783333334, "name": "908ff2f0a3c66f3628f10c341cd907a3", "is_reserved": 0, "is_disabled": 0}, {"lat": 38.90835916666666, "fusion_lat": 0.0, "type": "electric_scooter", "bike_id": "f5cce394c98feb076310a70a716c776e", "rental_uris": {"ios": "https://dc.lft.to/lastmile_qr_scan", "android": "https://dc.lft.to/lastmile_qr_scan"}, "fusion_lon": 0.0, "lon": -77.0239345, "name": "f5cce394c98feb076310a70a716c776e", "is_reserved": 0, "is_disabled": 0}, {"lat": 38.92012866666666, "fusion_lat": 0.0, "type": "electric_scooter", "bike_id": "bc883aa667c24fa83772783b3748bb57", "rental_uris": {"ios": "https://dc.lft.to/lastmile_qr_scan", "android": "https://dc.lft.to/lastmile_qr_scan"}, "fusion_lon": 0.0, "lon": -77.02190133333333, "name": "bc883aa667c24fa83772783b3748bb57", "is_reserved": 0, "is_disabled": 0}, {"lat": 38.9225255, "fusion_lat": 0.0, "type": "electric_scooter", "bike_id": "ddd13338127a17934628a2122fe25050", "rental_uris": {"ios": "https://dc.lft.to/lastmile_qr_scan", "android": "https://dc.lft.to/lastmile_qr_scan"}, "fusion_lon": 0.0, "lon": -77.03061233333334, "name": "ddd13338127a17934628a2122fe25050", "is_reserved": 0, "is_disabled": 0}, {"lat": 38.90156016666667, "fusion_lat": 0.0, "type": "electric_scooter", "bike_id": "5291a72ff72c35f1027f3a542af3ab41", "rental_uris": {"ios": "https://dc.lft.to/lastmile_qr_scan", "android": "https://dc.lft.to/lastmile_qr_scan"}, "fusion_lon": 0.0, "lon": -77.0256595, "name": "5291a72ff72c35f1027f3a542af3ab41", "is_reserved": 0, "is_disabled": 0}, {"lat": 38.93776016666666, "fusion_lat": 0.0, "type": "electric_scooter", "bike_id": "b69c90c8062a3106bfdcd53270d75eea", "rental_uris": {"ios": "https://dc.lft.to/lastmile_qr_scan", "android": "https://dc.lft.to/lastmile_qr_scan"}, "fusion_lon": 0.0, "lon": -77.03281833333334, "name": "b69c90c8062a3106bfdcd53270d75eea", "is_reserved": 0, "is_disabled": 0}, {"lat": 38.919225833333336, "fusion_lat": 0.0, "type": "electric_scooter", "bike_id": "d8d3f0a13496b2334b0ad8f52127a783", "rental_uris": {"ios": "https://dc.lft.to/lastmile_qr_scan", "android": "https://dc.lft.to/lastmile_qr_scan"}, "fusion_lon": 0.0, "lon": -77.0261885, "name": "d8d3f0a13496b2334b0ad8f52127a783", "is_reserved": 0, "is_disabled": 0}, {"lat": 38.89763283333333, "fusion_lat": 0.0, "type": "electric_scooter", "bike_id": "469bc93afe6c123cffcc5d96793c1ad4", "rental_uris": {"ios": "https://dc.lft.to/lastmile_qr_scan", "android": "https://dc.lft.to/lastmile_qr_scan"}, "fusion_lon": 0.0, "lon": -76.986489, "name": "469bc93afe6c123cffcc5d96793c1ad4", "is_reserved": 0, "is_disabled": 0}, {"lat": 38.899600166666666, "fusion_lat": 0.0, "type": "electric_scooter", "bike_id": "7975e28dfe00d171a905a527b5cb032e", "rental_uris": {"ios": "https://dc.lft.to/lastmile_qr_scan", "android": "https://dc.lft.to/lastmile_qr_scan"}, "fusion_lon": 0.0, "lon": -77.01607566666667, "name": "7975e28dfe00d171a905a527b5cb032e", "is_reserved": 0, "is_disabled": 0}, {"lat": 38.904972666666666, "fusion_lat": 0.0, "type": "electric_scooter", "bike_id": "bdd42895b5c09ce1fec5404792da9849", "rental_uris": {"ios": "https://dc.lft.to/lastmile_qr_scan", "android": "https://dc.lft.to/lastmile_qr_scan"}, "fusion_lon": 0.0, "lon": -77.0300935, "name": "bdd42895b5c09ce1fec5404792da9849", "is_reserved": 0, "is_disabled": 0}, {"lat": 38.88755183333333, "fusion_lat": 0.0, "type": "electric_scooter", "bike_id": "8f11eb45e7859a5588d6febc6458face", "rental_uris": {"ios": "https://dc.lft.to/lastmile_qr_scan", "android": "https://dc.lft.to/lastmile_qr_scan"}, "fusion_lon": 0.0, "lon": -76.9868745, "name": "8f11eb45e7859a5588d6febc6458face", "is_reserved": 0, "is_disabled": 0}, {"lat": 38.906665833333335, "fusion_lat": 0.0, "type": "electric_scooter", "bike_id": "06f2b800060ca0228c8aaa88ca3987e6", "rental_uris": {"ios": "https://dc.lft.to/lastmile_qr_scan", "android": "https://dc.lft.to/lastmile_qr_scan"}, "fusion_lon": 0.0, "lon": -77.02701433333333, "name": "06f2b800060ca0228c8aaa88ca3987e6", "is_reserved": 0, "is_disabled": 0}, {"lat": 38.93708733333333, "fusion_lat": 0.0, "type": "electric_scooter", "bike_id": "fefbb460fefe22f9d4326802a13c4470", "rental_uris": {"ios": "https://dc.lft.to/lastmile_qr_scan", "android": "https://dc.lft.to/lastmile_qr_scan"}, "fusion_lon": 0.0, "lon": -77.03632466666667, "name": "fefbb460fefe22f9d4326802a13c4470", "is_reserved": 0, "is_disabled": 0}, {"lat": 38.93598866666667, "fusion_lat": 0.0, "type": "electric_scooter", "bike_id": "290596b53560826b859fbb1e9c440007", "rental_uris": {"ios": "https://dc.lft.to/lastmile_qr_scan", "android": "https://dc.lft.to/lastmile_qr_scan"}, "fusion_lon": 0.0, "lon": -77.0379845, "name": "290596b53560826b859fbb1e9c440007", "is_reserved": 0, "is_disabled": 0}, {"lat": 38.8900215, "fusion_lat": 0.0, "type": "electric_scooter", "bike_id": "12d3f73bab226eda5fe4eb4748896aad", "rental_uris": {"ios": "https://dc.lft.to/lastmile_qr_scan", "android": "https://dc.lft.to/lastmile_qr_scan"}, "fusion_lon": 0.0, "lon": -76.95431033333334, "name": "12d3f73bab226eda5fe4eb4748896aad", "is_reserved": 0, "is_disabled": 0}, {"lat": 38.8794155, "fusion_lat": 0.0, "type": "electric_scooter", "bike_id": "c4fd8c650883bfb226122394e39cda8c", "rental_uris": {"ios": "https://dc.lft.to/lastmile_qr_scan", "android": "https://dc.lft.to/lastmile_qr_scan"}, "fusion_lon": 0.0, "lon": -77.00747633333333, "name": "c4fd8c650883bfb226122394e39cda8c", "is_reserved": 0, "is_disabled": 0}, {"lat": 38.910075666666664, "fusion_lat": 0.0, "type": "electric_scooter", "bike_id": "680b573cd688da13151cc029f604ba6b", "rental_uris": {"ios": "https://dc.lft.to/lastmile_qr_scan", "android": "https://dc.lft.to/lastmile_qr_scan"}, "fusion_lon": 0.0, "lon": -77.02090916666667, "name": "680b573cd688da13151cc029f604ba6b", "is_reserved": 0, "is_disabled": 0}, {"lat": 38.90719766666667, "fusion_lat": 0.0, "type": "electric_scooter", "bike_id": "f8629e2f689233d162a5c9878686c34d", "rental_uris": {"ios": "https://dc.lft.to/lastmile_qr_scan", "android": "https://dc.lft.to/lastmile_qr_scan"}, "fusion_lon": 0.0, "lon": -77.02731416666667, "name": "f8629e2f689233d162a5c9878686c34d", "is_reserved": 0, "is_disabled": 0}, {"lat": 38.925261166666665, "fusion_lat": 0.0, "type": "electric_scooter", "bike_id": "b29c2675a4cc0a59df28264dabfe53f9", "rental_uris": {"ios": "https://dc.lft.to/lastmile_qr_scan", "android": "https://dc.lft.to/lastmile_qr_scan"}, "fusion_lon": 0.0, "lon": -77.0212945, "name": "b29c2675a4cc0a59df28264dabfe53f9", "is_reserved": 0, "is_disabled": 0}, {"lat": 38.920817666666665, "fusion_lat": 0.0, "type": "electric_scooter", "bike_id": "3c299fec2abd69ada7fd8bdc5e97b548", "rental_uris": {"ios": "https://dc.lft.to/lastmile_qr_scan", "android": "https://dc.lft.to/lastmile_qr_scan"}, "fusion_lon": 0.0, "lon": -77.024995, "name": "3c299fec2abd69ada7fd8bdc5e97b548", "is_reserved": 0, "is_disabled": 0}, {"lat": 38.835164, "fusion_lat": 0.0, "type": "electric_bike", "bike_id": "52828c662b4d44ce902d4fc9b62042d5", "rental_uris": {"ios": "https://dc.lft.to/lastmile_qr_scan", "android": "https://dc.lft.to/lastmile_qr_scan"}, "fusion_lon": 0.0, "lon": -76.9867655, "name": "52828c662b4d44ce902d4fc9b62042d5", "is_reserved": 0, "is_disabled": 0}, {"lat": 38.914192666666665, "fusion_lat": 0.0, "type": "electric_scooter", "bike_id": "624882f9f16cd560e3c123d55fb6073c", "rental_uris": {"ios": "https://dc.lft.to/lastmile_qr_scan", "android": "https://dc.lft.to/lastmile_qr_scan"}, "fusion_lon": 0.0, "lon": -77.03169266666667, "name": "624882f9f16cd560e3c123d55fb6073c", "is_reserved": 0, "is_disabled": 0}, {"lat": 38.9101975, "fusion_lat": 0.0, "type": "electric_scooter", "bike_id": "fc34bf958a6b19fbcac15dc3aa7c9b56", "rental_uris": {"ios": "https://dc.lft.to/lastmile_qr_scan", "android": "https://dc.lft.to/lastmile_qr_scan"}, "fusion_lon": 0.0, "lon": -77.03448616666667, "name": "fc34bf958a6b19fbcac15dc3aa7c9b56", "is_reserved": 0, "is_disabled": 0}, {"lat": 38.93409, "fusion_lat": 0.0, "type": "electric_scooter", "bike_id": "f54f6f66e36185e6fb1761283c74f0e2", "rental_uris": {"ios": "https://dc.lft.to/lastmile_qr_scan", "android": "https://dc.lft.to/lastmile_qr_scan"}, "fusion_lon": 0.0, "lon": -77.01974333333334, "name": "f54f6f66e36185e6fb1761283c74f0e2", "is_reserved": 0, "is_disabled": 0}, {"lat": 38.916907333333334, "fusion_lat": 0.0, "type": "electric_scooter", "bike_id": "4a55b185c959b22d719005f660ebcd19", "rental_uris": {"ios": "https://dc.lft.to/lastmile_qr_scan", "android": "https://dc.lft.to/lastmile_qr_scan"}, "fusion_lon": 0.0, "lon": -77.00919016666667, "name": "4a55b185c959b22d719005f660ebcd19", "is_reserved": 0, "is_disabled": 0}, {"lat": 38.912689666666665, "fusion_lat": 0.0, "type": "electric_scooter", "bike_id": "b538a52be1e92f907fa2bc7daf65e47f", "rental_uris": {"ios": "https://dc.lft.to/lastmile_qr_scan", "android": "https://dc.lft.to/lastmile_qr_scan"}, "fusion_lon": 0.0, "lon": -77.0168025, "name": "b538a52be1e92f907fa2bc7daf65e47f", "is_reserved": 0, "is_disabled": 0}, {"lat": 38.90910783333333, "fusion_lat": 0.0, "type": "electric_scooter", "bike_id": "35bf69538008d64714a57b96cbed38ca", "rental_uris": {"ios": "https://dc.lft.to/lastmile_qr_scan", "android": "https://dc.lft.to/lastmile_qr_scan"}, "fusion_lon": 0.0, "lon": -77.0725645, "name": "35bf69538008d64714a57b96cbed38ca", "is_reserved": 0, "is_disabled": 0}, {"lat": 38.919234833333334, "fusion_lat": 0.0, "type": "electric_scooter", "bike_id": "92c759e9309e198f529fae89f93f7794", "rental_uris": {"ios": "https://dc.lft.to/lastmile_qr_scan", "android": "https://dc.lft.to/lastmile_qr_scan"}, "fusion_lon": 0.0, "lon": -77.02506216666667, "name": "92c759e9309e198f529fae89f93f7794", "is_reserved": 0, "is_disabled": 0}, {"lat": 38.9224495, "fusion_lat": 0.0, "type": "electric_scooter", "bike_id": "3c5ebe4ca4bf3a9d5ed4dc53ca8e2615", "rental_uris": {"ios": "https://dc.lft.to/lastmile_qr_scan", "android": "https://dc.lft.to/lastmile_qr_scan"}, "fusion_lon": 0.0, "lon": -77.03887766666666, "name": "3c5ebe4ca4bf3a9d5ed4dc53ca8e2615", "is_reserved": 0, "is_disabled": 0}, {"lat": 38.90272216666666, "fusion_lat": 0.0, "type": "electric_scooter", "bike_id": "71a0e672c9c17044dd47267e07fca616", "rental_uris": {"ios": "https://dc.lft.to/lastmile_qr_scan", "android": "https://dc.lft.to/lastmile_qr_scan"}, "fusion_lon": 0.0, "lon": -77.05311483333334, "name": "71a0e672c9c17044dd47267e07fca616", "is_reserved": 0, "is_disabled": 0}, {"lat": 38.892251, "fusion_lat": 0.0, "type": "electric_scooter", "bike_id": "6caa5dab3ffed0f4150dcdda9bc98b5f", "rental_uris": {"ios": "https://dc.lft.to/lastmile_qr_scan", "android": "https://dc.lft.to/lastmile_qr_scan"}, "fusion_lon": 0.0, "lon": -77.04891083333334, "name": "6caa5dab3ffed0f4150dcdda9bc98b5f", "is_reserved": 0, "is_disabled": 0}, {"lat": 38.90571633333333, "fusion_lat": 0.0, "type": "electric_scooter", "bike_id": "c7f2db895ca7c1b530a4aab81ccba9fc", "rental_uris": {"ios": "https://dc.lft.to/lastmile_qr_scan", "android": "https://dc.lft.to/lastmile_qr_scan"}, "fusion_lon": 0.0, "lon": -77.03475033333333, "name": "c7f2db895ca7c1b530a4aab81ccba9fc", "is_reserved": 0, "is_disabled": 0}, {"lat": 38.93836983333333, "fusion_lat": 0.0, "type": "electric_scooter", "bike_id": "f193461a16703e5b7e715f7226a59667", "rental_uris": {"ios": "https://dc.lft.to/lastmile_qr_scan", "android": "https://dc.lft.to/lastmile_qr_scan"}, "fusion_lon": 0.0, "lon": -77.03374983333333, "name": "f193461a16703e5b7e715f7226a59667", "is_reserved": 0, "is_disabled": 0}, {"lat": 38.94397433333334, "fusion_lat": 0.0, "type": "electric_scooter", "bike_id": "72d1bad4088a6efdac6b08a7e9895599", "rental_uris": {"ios": "https://dc.lft.to/lastmile_qr_scan", "android": "https://dc.lft.to/lastmile_qr_scan"}, "fusion_lon": 0.0, "lon": -77.035817, "name": "72d1bad4088a6efdac6b08a7e9895599", "is_reserved": 0, "is_disabled": 0}, {"lat": 38.901455166666665, "fusion_lat": 0.0, "type": "electric_scooter", "bike_id": "19be16d29755f8b0119447692e3a3775", "rental_uris": {"ios": "https://dc.lft.to/lastmile_qr_scan", "android": "https://dc.lft.to/lastmile_qr_scan"}, "fusion_lon": 0.0, "lon": -77.02566016666667, "name": "19be16d29755f8b0119447692e3a3775", "is_reserved": 0, "is_disabled": 0}, {"lat": 38.9211965, "fusion_lat": 0.0, "type": "electric_bike", "bike_id": "e55d8ca5ce443d90ac8af822a5655f1f", "rental_uris": {"ios": "https://dc.lft.to/lastmile_qr_scan", "android": "https://dc.lft.to/lastmile_qr_scan"}, "fusion_lon": 0.0, "lon": -77.23675833333333, "name": "e55d8ca5ce443d90ac8af822a5655f1f", "is_reserved": 0, "is_disabled": 0}, {"lat": 38.87663533333333, "fusion_lat": 0.0, "type": "electric_scooter", "bike_id": "0eaf6a2290e97e710becff6a7a630d56", "rental_uris": {"ios": "https://dc.lft.to/lastmile_qr_scan", "android": "https://dc.lft.to/lastmile_qr_scan"}, "fusion_lon": 0.0, "lon": -77.00297, "name": "0eaf6a2290e97e710becff6a7a630d56", "is_reserved": 0, "is_disabled": 0}, {"lat": 38.863345833333334, "fusion_lat": 0.0, "type": "electric_bike", "bike_id": "a9545f565fe0c8c3695c76c8aea56627", "rental_uris": {"ios": "https://dc.lft.to/lastmile_qr_scan", "android": "https://dc.lft.to/lastmile_qr_scan"}, "fusion_lon": 0.0, "lon": -76.987235, "name": "a9545f565fe0c8c3695c76c8aea56627", "is_reserved": 0, "is_disabled": 0}, {"lat": 38.956352333333335, "fusion_lat": 0.0, "type": "electric_scooter", "bike_id": "9034d11867aa0586ab691873e1c60c53", "rental_uris": {"ios": "https://dc.lft.to/lastmile_qr_scan", "android": "https://dc.lft.to/lastmile_qr_scan"}, "fusion_lon": 0.0, "lon": -77.024353, "name": "9034d11867aa0586ab691873e1c60c53", "is_reserved": 0, "is_disabled": 0}, {"lat": 38.90367966666667, "fusion_lat": 0.0, "type": "electric_scooter", "bike_id": "bac62ed8e534bb32f63875dc9f76f643", "rental_uris": {"ios": "https://dc.lft.to/lastmile_qr_scan", "android": "https://dc.lft.to/lastmile_qr_scan"}, "fusion_lon": 0.0, "lon": -77.0173095, "name": "bac62ed8e534bb32f63875dc9f76f643", "is_reserved": 0, "is_disabled": 0}, {"lat": 38.918623833333335, "fusion_lat": 0.0, "type": "electric_scooter", "bike_id": "6e9af9265ee300477444d297bc934a42", "rental_uris": {"ios": "https://dc.lft.to/lastmile_qr_scan", "android": "https://dc.lft.to/lastmile_qr_scan"}, "fusion_lon": 0.0, "lon": -77.013502, "name": "6e9af9265ee300477444d297bc934a42", "is_reserved": 0, "is_disabled": 0}, {"lat": 38.903564333333335, "fusion_lat": 0.0, "type": "electric_scooter", "bike_id": "3c962a8a2319254db013f53e10e77523", "rental_uris": {"ios": "https://dc.lft.to/lastmile_qr_scan", "android": "https://dc.lft.to/lastmile_qr_scan"}, "fusion_lon": 0.0, "lon": -77.02182333333333, "name": "3c962a8a2319254db013f53e10e77523", "is_reserved": 0, "is_disabled": 0}, {"lat": 38.94194316666667, "fusion_lat": 0.0, "type": "electric_scooter", "bike_id": "d1475060faf302d77fdf033d47cb3208", "rental_uris": {"ios": "https://dc.lft.to/lastmile_qr_scan", "android": "https://dc.lft.to/lastmile_qr_scan"}, "fusion_lon": 0.0, "lon": -77.02479816666667, "name": "d1475060faf302d77fdf033d47cb3208", "is_reserved": 0, "is_disabled": 0}, {"lat": 38.90760983333333, "fusion_lat": 0.0, "type": "electric_scooter", "bike_id": "6bffe35567ac8cb053ef47c6dbeb446a", "rental_uris": {"ios": "https://dc.lft.to/lastmile_qr_scan", "android": "https://dc.lft.to/lastmile_qr_scan"}, "fusion_lon": 0.0, "lon": -77.03836366666667, "name": "6bffe35567ac8cb053ef47c6dbeb446a", "is_reserved": 0, "is_disabled": 0}, {"lat": 38.92337166666667, "fusion_lat": 0.0, "type": "electric_scooter", "bike_id": "2517c49d4b8c7061064bc693e1ce5a31", "rental_uris": {"ios": "https://dc.lft.to/lastmile_qr_scan", "android": "https://dc.lft.to/lastmile_qr_scan"}, "fusion_lon": 0.0, "lon": -77.0353265, "name": "2517c49d4b8c7061064bc693e1ce5a31", "is_reserved": 0, "is_disabled": 0}, {"lat": 38.917964166666664, "fusion_lat": 0.0, "type": "electric_scooter", "bike_id": "3a94e210e926be4841416a61af248865", "rental_uris": {"ios": "https://dc.lft.to/lastmile_qr_scan", "android": "https://dc.lft.to/lastmile_qr_scan"}, "fusion_lon": 0.0, "lon": -77.03438783333333, "name": "3a94e210e926be4841416a61af248865", "is_reserved": 0, "is_disabled": 0}, {"lat": 38.907349833333335, "fusion_lat": 0.0, "type": "electric_scooter", "bike_id": "5cc5f6a7b81af41cd451fc995f4758d3", "rental_uris": {"ios": "https://dc.lft.to/lastmile_qr_scan", "android": "https://dc.lft.to/lastmile_qr_scan"}, "fusion_lon": 0.0, "lon": -77.04485483333333, "name": "5cc5f6a7b81af41cd451fc995f4758d3", "is_reserved": 0, "is_disabled": 0}, {"lat": 38.920008, "fusion_lat": 0.0, "type": "electric_scooter", "bike_id": "e819302cf9a80ea6b1f1dcdd9a956450", "rental_uris": {"ios": "https://dc.lft.to/lastmile_qr_scan", "android": "https://dc.lft.to/lastmile_qr_scan"}, "fusion_lon": 0.0, "lon": -77.04755433333334, "name": "e819302cf9a80ea6b1f1dcdd9a956450", "is_reserved": 0, "is_disabled": 0}, {"lat": 38.917021166666665, "fusion_lat": 0.0, "type": "electric_scooter", "bike_id": "945a51804fac63674fa7ba7f726a98da", "rental_uris": {"ios": "https://dc.lft.to/lastmile_qr_scan", "android": "https://dc.lft.to/lastmile_qr_scan"}, "fusion_lon": 0.0, "lon": -77.024311, "name": "945a51804fac63674fa7ba7f726a98da", "is_reserved": 0, "is_disabled": 0}, {"lat": 38.8904785, "fusion_lat": 0.0, "type": "electric_scooter", "bike_id": "6884e3994c5be5265871b7b1b7952630", "rental_uris": {"ios": "https://dc.lft.to/lastmile_qr_scan", "android": "https://dc.lft.to/lastmile_qr_scan"}, "fusion_lon": 0.0, "lon": -76.93756483333334, "name": "6884e3994c5be5265871b7b1b7952630", "is_reserved": 0, "is_disabled": 0}, {"lat": 38.99002683333333, "fusion_lat": 0.0, "type": "electric_bike", "bike_id": "f5c8708e697b90f638069cecc051048c", "rental_uris": {"ios": "https://dc.lft.to/lastmile_qr_scan", "android": "https://dc.lft.to/lastmile_qr_scan"}, "fusion_lon": 0.0, "lon": -77.004359, "name": "f5c8708e697b90f638069cecc051048c", "is_reserved": 0, "is_disabled": 0}, {"lat": 38.86382, "fusion_lat": 0.0, "type": "electric_scooter", "bike_id": "553235515425c6cbbda458f18b371eb0", "rental_uris": {"ios": "https://dc.lft.to/lastmile_qr_scan", "android": "https://dc.lft.to/lastmile_qr_scan"}, "fusion_lon": 0.0, "lon": -76.99122966666667, "name": "553235515425c6cbbda458f18b371eb0", "is_reserved": 0, "is_disabled": 0}, {"lat": 38.939657833333335, "fusion_lat": 0.0, "type": "electric_scooter", "bike_id": "739fe72e49d388c301e6cff7c611053f", "rental_uris": {"ios": "https://dc.lft.to/lastmile_qr_scan", "android": "https://dc.lft.to/lastmile_qr_scan"}, "fusion_lon": 0.0, "lon": -77.03282216666666, "name": "739fe72e49d388c301e6cff7c611053f", "is_reserved": 0, "is_disabled": 0}, {"lat": 38.914101333333335, "fusion_lat": 0.0, "type": "electric_scooter", "bike_id": "58eba858af6cb37811bc9e5df72a45d2", "rental_uris": {"ios": "https://dc.lft.to/lastmile_qr_scan", "android": "https://dc.lft.to/lastmile_qr_scan"}, "fusion_lon": 0.0, "lon": -77.0321665, "name": "58eba858af6cb37811bc9e5df72a45d2", "is_reserved": 0, "is_disabled": 0}, {"lat": 38.924722833333334, "fusion_lat": 0.0, "type": "electric_scooter", "bike_id": "e50bc61e82fae3a4b2ee641c5a8a05ef", "rental_uris": {"ios": "https://dc.lft.to/lastmile_qr_scan", "android": "https://dc.lft.to/lastmile_qr_scan"}, "fusion_lon": 0.0, "lon": -77.0391195, "name": "e50bc61e82fae3a4b2ee641c5a8a05ef", "is_reserved": 0, "is_disabled": 0}, {"lat": 38.87736783333333, "fusion_lat": 0.0, "type": "electric_scooter", "bike_id": "0f6dab58325e5c92dedd3687f685175f", "rental_uris": {"ios": "https://dc.lft.to/lastmile_qr_scan", "android": "https://dc.lft.to/lastmile_qr_scan"}, "fusion_lon": 0.0, "lon": -76.99487733333333, "name": "0f6dab58325e5c92dedd3687f685175f", "is_reserved": 0, "is_disabled": 0}, {"lat": 38.905080833333336, "fusion_lat": 0.0, "type": "electric_scooter", "bike_id": "216387c5079a28fc6ada412981e0f159", "rental_uris": {"ios": "https://dc.lft.to/lastmile_qr_scan", "android": "https://dc.lft.to/lastmile_qr_scan"}, "fusion_lon": 0.0, "lon": -77.03010416666666, "name": "216387c5079a28fc6ada412981e0f159", "is_reserved": 0, "is_disabled": 0}, {"lat": 38.8859325, "fusion_lat": 0.0, "type": "electric_scooter", "bike_id": "6c9ca9e5b3b861141efdd731a6795a10", "rental_uris": {"ios": "https://dc.lft.to/lastmile_qr_scan", "android": "https://dc.lft.to/lastmile_qr_scan"}, "fusion_lon": 0.0, "lon": -77.02178166666667, "name": "6c9ca9e5b3b861141efdd731a6795a10", "is_reserved": 0, "is_disabled": 0}, {"lat": 38.934749833333335, "fusion_lat": 0.0, "type": "electric_scooter", "bike_id": "7473cd947ede3ba38dc47f6b3c38847a", "rental_uris": {"ios": "https://dc.lft.to/lastmile_qr_scan", "android": "https://dc.lft.to/lastmile_qr_scan"}, "fusion_lon": 0.0, "lon": -77.072723, "name": "7473cd947ede3ba38dc47f6b3c38847a", "is_reserved": 0, "is_disabled": 0}, {"lat": 38.87560883333333, "fusion_lat": 0.0, "type": "electric_scooter", "bike_id": "7f67f961a130586698f5b97026fe14db", "rental_uris": {"ios": "https://dc.lft.to/lastmile_qr_scan", "android": "https://dc.lft.to/lastmile_qr_scan"}, "fusion_lon": 0.0, "lon": -77.00556816666666, "name": "7f67f961a130586698f5b97026fe14db", "is_reserved": 0, "is_disabled": 0}, {"lat": 38.93485866666666, "fusion_lat": 0.0, "type": "electric_scooter", "bike_id": "2b9b3399a7fb2bb09af012addcd543a4", "rental_uris": {"ios": "https://dc.lft.to/lastmile_qr_scan", "android": "https://dc.lft.to/lastmile_qr_scan"}, "fusion_lon": 0.0, "lon": -77.03603983333333, "name": "2b9b3399a7fb2bb09af012addcd543a4", "is_reserved": 0, "is_disabled": 0}, {"lat": 38.922858833333336, "fusion_lat": 0.0, "type": "electric_scooter", "bike_id": "aa8c275ae04258fd83c6724dc9daa0c6", "rental_uris": {"ios": "https://dc.lft.to/lastmile_qr_scan", "android": "https://dc.lft.to/lastmile_qr_scan"}, "fusion_lon": 0.0, "lon": -77.03655933333333, "name": "aa8c275ae04258fd83c6724dc9daa0c6", "is_reserved": 0, "is_disabled": 0}, {"lat": 38.908579333333336, "fusion_lat": 0.0, "type": "electric_scooter", "bike_id": "e70d5dcfd095cde4ae2b329d40947a6f", "rental_uris": {"ios": "https://dc.lft.to/lastmile_qr_scan", "android": "https://dc.lft.to/lastmile_qr_scan"}, "fusion_lon": 0.0, "lon": -77.02694433333333, "name": "e70d5dcfd095cde4ae2b329d40947a6f", "is_reserved": 0, "is_disabled": 0}, {"lat": 38.839673, "fusion_lat": 0.0, "type": "electric_scooter", "bike_id": "f941337c61e6895df2dffbc55d7b6c23", "rental_uris": {"ios": "https://dc.lft.to/lastmile_qr_scan", "android": "https://dc.lft.to/lastmile_qr_scan"}, "fusion_lon": 0.0, "lon": -76.998399, "name": "f941337c61e6895df2dffbc55d7b6c23", "is_reserved": 0, "is_disabled": 0}, {"lat": 38.90808233333333, "fusion_lat": 0.0, "type": "electric_scooter", "bike_id": "63334150b4ac3bb2b34bc32e89e80233", "rental_uris": {"ios": "https://dc.lft.to/lastmile_qr_scan", "android": "https://dc.lft.to/lastmile_qr_scan"}, "fusion_lon": 0.0, "lon": -77.0447695, "name": "63334150b4ac3bb2b34bc32e89e80233", "is_reserved": 0, "is_disabled": 0}, {"lat": 38.911160833333334, "fusion_lat": 0.0, "type": "electric_scooter", "bike_id": "989e41c9082a0be99babb7121f30c330", "rental_uris": {"ios": "https://dc.lft.to/lastmile_qr_scan", "android": "https://dc.lft.to/lastmile_qr_scan"}, "fusion_lon": 0.0, "lon": -77.04542483333333, "name": "989e41c9082a0be99babb7121f30c330", "is_reserved": 0, "is_disabled": 0}, {"lat": 38.9001165, "fusion_lat": 0.0, "type": "electric_scooter", "bike_id": "2cf021a9e6f7344275c0055e240fcb94", "rental_uris": {"ios": "https://dc.lft.to/lastmile_qr_scan", "android": "https://dc.lft.to/lastmile_qr_scan"}, "fusion_lon": 0.0, "lon": -77.01134833333333, "name": "2cf021a9e6f7344275c0055e240fcb94", "is_reserved": 0, "is_disabled": 0}, {"lat": 38.93132766666667, "fusion_lat": 0.0, "type": "electric_bike", "bike_id": "4b03f390bf974e803c3eb6dc8692681f", "rental_uris": {"ios": "https://dc.lft.to/lastmile_qr_scan", "android": "https://dc.lft.to/lastmile_qr_scan"}, "fusion_lon": 0.0, "lon": -77.01970316666667, "name": "4b03f390bf974e803c3eb6dc8692681f", "is_reserved": 0, "is_disabled": 0},