{"data": {"bikes": [{"name": "da3a6e4d2b8c3fafb95e4982f1b319fa", "fusion_lat": 0.0, "type": "electric_scooter", "lat": 38.90699383333333, "is_reserved": 0, "is_disabled": 0, "fusion_lon": 0.0, "bike_id": "da3a6e4d2b8c3fafb95e4982f1b319fa", "lon": -77.03206516666667, "rental_uris": {"ios": "https://dc.lft.to/lastmile_qr_scan", "android": "https://dc.lft.to/lastmile_qr_scan"}}, {"name": "1ff7cb46a3c50b7194f05b9f6e552260", "fusion_lat": 0.0, "type": "electric_scooter", "lat": 38.917001666666664, "is_reserved": 0, "is_disabled": 0, "fusion_lon": 0.0, "bike_id": "1ff7cb46a3c50b7194f05b9f6e552260", "lon": -77.00813216666667, "rental_uris": {"ios": "https://dc.lft.to/lastmile_qr_scan", "android": "https://dc.lft.to/lastmile_qr_scan"}}, {"name": "1e115990f71288036285235ac6f7631b", "fusion_lat": 0.0, "type": "electric_bike", "lat": 38.902297833333336, "is_reserved": 0, "is_disabled": 0, "fusion_lon": 0.0, "bike_id": "1e115990f71288036285235ac6f7631b", "lon": -77.0623005, "rental_uris": {"ios": "https://dc.lft.to/lastmile_qr_scan", "android": "https://dc.lft.to/lastmile_qr_scan"}}, {"name": "0b171417169bfcd710321376d01bcf02", "fusion_lat": 0.0, "type": "electric_scooter", "lat": 38.8947575, "is_reserved": 0, "is_disabled": 0, "fusion_lon": 0.0, "bike_id": "0b171417169bfcd710321376d01bcf02", "lon": -76.98600516666667, "rental_uris": {"ios": "https://dc.lft.to/lastmile_qr_scan", "android": "https://dc.lft.to/lastmile_qr_scan"}}, {"name": "efb74bb2f949d394cd320cc818964e21", "fusion_lat": 0.0, "type": "electric_scooter", "lat": 38.89991633333333, "is_reserved": 0, "is_disabled": 0, "fusion_lon": 0.0, "bike_id": "efb74bb2f949d394cd320cc818964e21", "lon": -77.02292483333333, "rental_uris": {"ios": "https://dc.lft.to/lastmile_qr_scan", "android": "https://dc.lft.to/lastmile_qr_scan"}}, {"name": "4e68584f5dfe7372f3477cad9d3137a0", "fusion_lat": 0.0, "type": "electric_scooter", "lat": 38.90388083333333, "is_reserved": 0, "is_disabled": 0, "fusion_lon": 0.0, "bike_id": "4e68584f5dfe7372f3477cad9d3137a0", "lon": -77.04020833333334, "rental_uris": {"ios": "https://dc.lft.to/lastmile_qr_scan", "android": "https://dc.lft.to/lastmile_qr_scan"}}, {"name": "3ad07c7e741ae96ded2b21424e86057b", "fusion_lat": 0.0, "type": "electric_scooter", "lat": 38.9253455, "is_reserved": 0, "is_disabled": 0, "fusion_lon": 0.0, "bike_id": "3ad07c7e741ae96ded2b21424e86057b", "lon": -77.026366, "rental_uris": {"ios": "https://dc.lft.to/lastmile_qr_scan", "android": "https://dc.lft.to/lastmile_qr_scan"}}, {"name": "37c8a2e1291c728597392447d43fe583", "fusion_lat": 0.0, "type": "electric_scooter", "lat": 38.89617116666667, "is_reserved": 0, "is_disabled": 0, "fusion_lon": 0.0, "bike_id": "37c8a2e1291c728597392447d43fe583", "lon": -77.02809216666667, "rental_uris": {"ios": "https://dc.lft.to/lastmile_qr_scan", "android": "https://dc.lft.to/lastmile_qr_scan"}}, {"name": "4d4fcfff33d46333fcc6cb9b58dd55bf", "fusion_lat": 0.0, "type": "electric_scooter", "lat": 38.949896833333334, "is_reserved": 0, "is_disabled": 0, "fusion_lon": 0.0, "bike_id": "4d4fcfff33d46333fcc6cb9b58dd55bf", "lon": -77.06688116666666, "rental_uris": {"ios": "https://dc.lft.to/lastmile_qr_scan", "android": "https://dc.lft.to/lastmile_qr_scan"}}, {"name": "5fb7c4542cc5a30eaac9833da615d117", "fusion_lat": 0.0, "type": "electric_scooter", "lat": 38.93770133333334, "is_reserved": 0, "is_disabled": 0, "fusion_lon": 0.0, "bike_id": "5fb7c4542cc5a30eaac9833da615d117", "lon": -77.03263716666666, "rental_uris": {"ios": "https://dc.lft.to/lastmile_qr_scan", "android": "https://dc.lft.to/lastmile_qr_scan"}}, {"name": "41e2ae3adab8b966efa2159e0f9fa541", "fusion_lat": 0.0, "type": "electric_scooter", "lat": 38.903180666666664, "is_reserved": 0, "is_disabled": 0, "fusion_lon": 0.0, "bike_id": "41e2ae3adab8b966efa2159e0f9fa541", "lon": -77.0344225, "rental_uris": {"ios": "https://dc.lft.to/lastmile_qr_scan", "android": "https://dc.lft.to/lastmile_qr_scan"}}, {"name": "27abfa5017d58cda6c2a10e5b2fc79ed", "fusion_lat": 0.0, "type": "electric_scooter", "lat": 38.90338216666667, "is_reserved": 0, "is_disabled": 0, "fusion_lon": 0.0, "bike_id": "27abfa5017d58cda6c2a10e5b2fc79ed", "lon": -77.0363245, "rental_uris": {"ios": "https://dc.lft.to/lastmile_qr_scan", "android": "https://dc.lft.to/lastmile_qr_scan"}}, {"name": "d69548e141ba2f04ef555912abcddf21", "fusion_lat": 0.0, "type": "electric_bike", "lat": 38.850564, "is_reserved": 0, "is_disabled": 0, "fusion_lon": 0.0, "bike_id": "d69548e141ba2f04ef555912abcddf21", "lon": -76.973353, "rental_uris": {"ios": "https://dc.lft.to/lastmile_qr_scan", "android": "https://dc.lft.to/lastmile_qr_scan"}}, {"name": "4e3a36c5f96d647a270f294e737b3418", "fusion_lat": 0.0, "type": "electric_scooter", "lat": 38.9072185, "is_reserved": 0, "is_disabled": 0, "fusion_lon": 0.0, "bike_id": "4e3a36c5f96d647a270f294e737b3418", "lon": -76.98603166666666, "rental_uris": {"ios": "https://dc.lft.to/lastmile_qr_scan", "android": "https://dc.lft.to/lastmile_qr_scan"}}, {"name": "54dcce72563cabd3645a95fbc88b353f", "fusion_lat": 0.0, "type": "electric_scooter", "lat": 38.931954166666664, "is_reserved": 0, "is_disabled": 0, "fusion_lon": 0.0, "bike_id": "54dcce72563cabd3645a95fbc88b353f", "lon": -77.03854466666667, "rental_uris": {"ios": "https://dc.lft.to/lastmile_qr_scan", "android": "https://dc.lft.to/lastmile_qr_scan"}}, {"name": "5898071a67808ef0db6864c386e03354", "fusion_lat": 0.0, "type": "electric_bike", "lat": 38.90080016666667, "is_reserved": 0, "is_disabled": 0, "fusion_lon": 0.0, "bike_id": "5898071a67808ef0db6864c386e03354", "lon": -77.059079, "rental_uris": {"ios": "https://dc.lft.to/lastmile_qr_scan", "android": "https://dc.lft.to/lastmile_qr_scan"}}, {"name": "84bc7612281ec3d67c9bbb12fd021d97", "fusion_lat": 0.0, "type": "electric_scooter", "lat": 38.906658666666665, "is_reserved": 0, "is_disabled": 0, "fusion_lon": 0.0, "bike_id": "84bc7612281ec3d67c9bbb12fd021d97", "lon": -77.03862083333334, "rental_uris": {"ios": "https://dc.lft.to/lastmile_qr_scan", "android": "https://dc.lft.to/lastmile_qr_scan"}}, {"name": "b8df0af47d74d97291e7faec93505169", "fusion_lat": 0.0, "type": "electric_scooter", "lat": 38.909857833333334, "is_reserved": 0, "is_disabled": 0, "fusion_lon": 0.0, "bike_id": "b8df0af47d74d97291e7faec93505169", "lon": -77.03186366666667, "rental_uris": {"ios": "https://dc.lft.to/lastmile_qr_scan", "android": "https://dc.lft.to/lastmile_qr_scan"}}, {"name": "a0aff00bce75af36e1a35f6c0d29d86c", "fusion_lat": 0.0, "type": "electric_scooter", "lat": 38.91070416666667, "is_reserved": 0, "is_disabled": 0, "fusion_lon": 0.0, "bike_id": "a0aff00bce75af36e1a35f6c0d29d86c", "lon": -77.03022783333333, "rental_uris": {"ios": "https://dc.lft.to/lastmile_qr_scan", "android": "https://dc.lft.to/lastmile_qr_scan"}}, {"name": "a8ff297fae4ffe937ef86b8671b647bc", "fusion_lat": 0.0, "type": "electric_scooter", "lat": 38.93497033333333, "is_reserved": 0, "is_disabled": 0, "fusion_lon": 0.0, "bike_id": "a8ff297fae4ffe937ef86b8671b647bc", "lon": -77.02852633333333, "rental_uris": {"ios": "https://dc.lft.to/lastmile_qr_scan", "android": "https://dc.lft.to/lastmile_qr_scan"}}, {"name": "e2e71041c44273cff8443fdeb89fe93e", "fusion_lat": 0.0, "type": "electric_bike", "lat": 38.8543595, "is_reserved": 0, "is_disabled": 0, "fusion_lon": 0.0, "bike_id": "e2e71041c44273cff8443fdeb89fe93e", "lon": -77.117057, "rental_uris": {"ios": "https://dc.lft.to/lastmile_qr_scan", "android": "https://dc.lft.to/lastmile_qr_scan"}}, {"name": "c9a4823686c05af4ccf3f03b33df142b", "fusion_lat": 0.0, "type": "electric_scooter", "lat": 38.906467666666664, "is_reserved": 0, "is_disabled": 0, "fusion_lon": 0.0, "bike_id": "c9a4823686c05af4ccf3f03b33df142b", "lon": -77.00610683333333, "rental_uris": {"ios": "https://dc.lft.to/lastmile_qr_scan", "android": "https://dc.lft.to/lastmile_qr_scan"}}, {"name": "8bbd1c6e1fc2b9ed5045adabe62ad24e", "fusion_lat": 0.0, "type": "electric_scooter", "lat": 38.9072165, "is_reserved": 0, "is_disabled": 0, "fusion_lon": 0.0, "bike_id": "8bbd1c6e1fc2b9ed5045adabe62ad24e", "lon": -77.02507833333334, "rental_uris": {"ios": "https://dc.lft.to/lastmile_qr_scan", "android": "https://dc.lft.to/lastmile_qr_scan"}}, {"name": "96ac2705a912fc06f1599c0058e044be", "fusion_lat": 0.0, "type": "electric_scooter", "lat": 38.88724066666666, "is_reserved": 0, "is_disabled": 0, "fusion_lon": 0.0, "bike_id": "96ac2705a912fc06f1599c0058e044be", "lon": -77.02199283333333, "rental_uris": {"ios": "https://dc.lft.to/lastmile_qr_scan", "android": "https://dc.lft.to/lastmile_qr_scan"}}, {"name": "d7bac8ba1325e0df861e45606e9c7158", "fusion_lat": 0.0, "type": "electric_scooter", "lat": 38.8952345, "is_reserved": 0, "is_disabled": 0, "fusion_lon": 0.0, "bike_id": "d7bac8ba1325e0df861e45606e9c7158", "lon": -77.016085, "rental_uris": {"ios": "https://dc.lft.to/lastmile_qr_scan", "android": "https://dc.lft.to/lastmile_qr_scan"}}, {"name": "3b689d5d754e46a3e67a2b8770e2011d", "fusion_lat": 0.0, "type": "electric_scooter", "lat": 38.89997833333334, "is_reserved": 0, "is_disabled": 0, "fusion_lon": 0.0, "bike_id": "3b689d5d754e46a3e67a2b8770e2011d", "lon": -76.998356, "rental_uris": {"ios": "https://dc.lft.to/lastmile_qr_scan", "android": "https://dc.lft.to/lastmile_qr_scan"}}, {"name": "858d8ee10420a753d45c587a9f10be7a", "fusion_lat": 0.0, "type": "electric_bike", "lat": 38.9106495, "is_reserved": 0, "is_disabled": 0, "fusion_lon": 0.0, "bike_id": "858d8ee10420a753d45c587a9f10be7a", "lon": -77.00463716666667, "rental_uris": {"ios": "https://dc.lft.to/lastmile_qr_scan", "android": "https://dc.lft.to/lastmile_qr_scan"}}, {"name": "febc14470f1c0f6537ceeb4eaf052154", "fusion_lat": 0.0, "type": "electric_scooter", "lat": 38.923424, "is_reserved": 0, "is_disabled": 0, "fusion_lon": 0.0, "bike_id": "febc14470f1c0f6537ceeb4eaf052154", "lon": -77.05099266666667, "rental_uris": {"ios": "https://dc.lft.to/lastmile_qr_scan", "android": "https://dc.lft.to/lastmile_qr_scan"}}, {"name": "c0b88dc3afc9eea81a5d281960c9666b", "fusion_lat": 0.0, "type": "electric_scooter", "lat": 38.932410833333336, "is_reserved": 0, "is_disabled": 0, "fusion_lon": 0.0, "bike_id": "c0b88dc3afc9eea81a5d281960c9666b", "lon": -77.03251, "rental_uris": {"ios": "https://dc.lft.to/lastmile_qr_scan", "android": "https://dc.lft.to/lastmile_qr_scan"}}, {"name": "e6992a3d5ae1a708293c28908d040d7e", "fusion_lat": 0.0, "type": "electric_scooter", "lat": 38.941750166666665, "is_reserved": 0, "is_disabled": 0, "fusion_lon": 0.0, "bike_id": "e6992a3d5ae1a708293c28908d040d7e", "lon": -77.03092966666667, "rental_uris": {"ios": "https://dc.lft.to/lastmile_qr_scan", "android": "https://dc.lft.to/lastmile_qr_scan"}}, {"name": "dfc5cf16afb7cdc156329fc728b8c1f1", "fusion_lat": 0.0, "type": "electric_bike", "lat": 38.88040566666667, "is_reserved": 0, "is_disabled": 0, "fusion_lon": 0.0, "bike_id": "dfc5cf16afb7cdc156329fc728b8c1f1", "lon": -77.01324333333334, "rental_uris": {"ios": "https://dc.lft.to/lastmile_qr_scan", "android": "https://dc.lft.to/lastmile_qr_scan"}}, {"name": "f7867dcc6ea282f1abffc15dfe0e2731", "fusion_lat": 0.0, "type": "electric_scooter", "lat": 38.91113816666667, "is_reserved": 0, "is_disabled": 0, "fusion_lon": 0.0, "bike_id": "f7867dcc6ea282f1abffc15dfe0e2731", "lon": -77.04357083333333, "rental_uris": {"ios": "https://dc.lft.to/lastmile_qr_scan", "android": "https://dc.lft.to/lastmile_qr_scan"}}, {"name": "0fb04cd17728c644c8b922c46e5dc5aa", "fusion_lat": 0.0, "type": "electric_scooter", "lat": 38.91117933333334, "is_reserved": 0, "is_disabled": 0, "fusion_lon": 0.0, "bike_id": "0fb04cd17728c644c8b922c46e5dc5aa", "lon": -77.04531833333333, "rental_uris": {"ios": "https://dc.lft.to/lastmile_qr_scan", "android": "https://dc.lft.to/lastmile_qr_scan"}}, {"name": "2152f430686a7bbeb4ea21e30852483d", "fusion_lat": 0.0, "type": "electric_scooter", "lat": 38.902667, "is_reserved": 0, "is_disabled": 0, "fusion_lon": 0.0, "bike_id": "2152f430686a7bbeb4ea21e30852483d", "lon": -77.03400066666667, "rental_uris": {"ios": "https://dc.lft.to/lastmile_qr_scan", "android": "https://dc.lft.to/lastmile_qr_scan"}}, {"name": "99a1a6f5a28327b39e1970e94bf6976e", "fusion_lat": 0.0, "type": "electric_scooter", "lat": 38.898537833333336, "is_reserved": 0, "is_disabled": 0, "fusion_lon": 0.0, "bike_id": "99a1a6f5a28327b39e1970e94bf6976e", "lon": -77.031739, "rental_uris": {"ios": "https://dc.lft.to/lastmile_qr_scan", "android": "https://dc.lft.to/lastmile_qr_scan"}}, {"name": "9656491a6e28934c3ec907c8029e48a7", "fusion_lat": 0.0, "type": "electric_scooter", "lat": 38.9016035, "is_reserved": 0, "is_disabled": 0, "fusion_lon": 0.0, "bike_id": "9656491a6e28934c3ec907c8029e48a7", "lon": -77.031858, "rental_uris": {"ios": "https://dc.lft.to/lastmile_qr_scan", "android": "https://dc.lft.to/lastmile_qr_scan"}}, {"name": "331c04fdbb115fab3c41792006845e45", "fusion_lat": 0.0, "type": "electric_scooter", "lat": 38.94955816666667, "is_reserved": 0, "is_disabled": 0, "fusion_lon": 0.0, "bike_id": "331c04fdbb115fab3c41792006845e45", "lon": -77.0272545, "rental_uris": {"ios": "https://dc.lft.to/lastmile_qr_scan", "android": "https://dc.lft.to/lastmile_qr_scan"}}, {"name": "3c80e3c5d8833a5b1a6a5909f1b397e4", "fusion_lat": 0.0, "type": "electric_scooter", "lat": 38.8988065, "is_reserved": 0, "is_disabled": 0, "fusion_lon": 0.0, "bike_id": "3c80e3c5d8833a5b1a6a5909f1b397e4", "lon": -77.033368, "rental_uris": {"ios": "https://dc.lft.to/lastmile_qr_scan", "android": "https://dc.lft.to/lastmile_qr_scan"}}, {"name": "dc3400070543d0bc68966dd8d50e2e0e", "fusion_lat": 0.0, "type": "electric_scooter", "lat": 38.92434016666667, "is_reserved": 0, "is_disabled": 0, "fusion_lon": 0.0, "bike_id": "dc3400070543d0bc68966dd8d50e2e0e", "lon": -77.02978233333333, "rental_uris": {"ios": "https://dc.lft.to/lastmile_qr_scan", "android": "https://dc.lft.to/lastmile_qr_scan"}}, {"name": "184007a65cebc6b0ee2bd795f67957d0", "fusion_lat": 0.0, "type": "electric_scooter", "lat": 38.93699216666667, "is_reserved": 0, "is_disabled": 0, "fusion_lon": 0.0, "bike_id": "184007a65cebc6b0ee2bd795f67957d0", "lon": -77.06102966666667, "rental_uris": {"ios": "https://dc.lft.to/lastmile_qr_scan", "android": "https://dc.lft.to/lastmile_qr_scan"}}, {"name": "d3bd6b6dc87c78f4cf8c6b64eab93a48", "fusion_lat": 0.0, "type": "electric_scooter", "lat": 38.87390533333333, "is_reserved": 0, "is_disabled": 0, "fusion_lon": 0.0, "bike_id": "d3bd6b6dc87c78f4cf8c6b64eab93a48", "lon": -77.00029183333334, "rental_uris": {"ios": "https://dc.lft.to/lastmile_qr_scan", "android": "https://dc.lft.to/lastmile_qr_scan"}}, {"name": "e4d3e2eb930a52ae36cb75410ad8febd", "fusion_lat": 0.0, "type": "electric_scooter", "lat": 38.930179333333335, "is_reserved": 0, "is_disabled": 0, "fusion_lon": 0.0, "bike_id": "e4d3e2eb930a52ae36cb75410ad8febd", "lon": -77.02339583333334, "rental_uris": {"ios": "https://dc.lft.to/lastmile_qr_scan", "android": "https://dc.lft.to/lastmile_qr_scan"}}, {"name": "e1e8e4a5b6b11357eab55b5f763396f8", "fusion_lat": 0.0, "type": "electric_bike", "lat": 38.8456935, "is_reserved": 0, "is_disabled": 0, "fusion_lon": 0.0, "bike_id": "e1e8e4a5b6b11357eab55b5f763396f8", "lon": -77.0962535, "rental_uris": {"ios": "https://dc.lft.to/lastmile_qr_scan", "android": "https://dc.lft.to/lastmile_qr_scan"}}, {"name": "9d6f2ceddd6bb247886359e26977992a", "fusion_lat": 0.0, "type": "electric_scooter", "lat": 38.924276666666664, "is_reserved": 0, "is_disabled": 0, "fusion_lon": 0.0, "bike_id": "9d6f2ceddd6bb247886359e26977992a", "lon": -77.05213583333334, "rental_uris": {"ios": "https://dc.lft.to/lastmile_qr_scan", "android": "https://dc.lft.to/lastmile_qr_scan"}}, {"name": "0470bd493cb7ab8060d7afcb9ea5cddc", "fusion_lat": 0.0, "type": "electric_bike", "lat": 38.9991065, "is_reserved": 0, "is_disabled": 0, "fusion_lon": 0.0, "bike_id": "0470bd493cb7ab8060d7afcb9ea5cddc", "lon": -77.04624716666666, "rental_uris": {"ios": "https://dc.lft.to/lastmile_qr_scan", "android": "https://dc.lft.to/lastmile_qr_scan"}}, {"name": "310edf93164383aae39d2dc9000af239", "fusion_lat": 0.0, "type": "electric_scooter", "lat": 38.90496916666667, "is_reserved": 0, "is_disabled": 0, "fusion_lon": 0.0, "bike_id": "310edf93164383aae39d2dc9000af239", "lon": -77.009328, "rental_uris": {"ios": "https://dc.lft.to/lastmile_qr_scan", "android": "https://dc.lft.to/lastmile_qr_scan"}}, {"name": "6905ee55cbef5896d92682a03a118e84", "fusion_lat": 0.0, "type": "electric_scooter", "lat": 38.96111883333333, "is_reserved": 0, "is_disabled": 0, "fusion_lon": 0.0, "bike_id": "6905ee55cbef5896d92682a03a118e84", "lon": -77.02810316666667, "rental_uris": {"ios": "https://dc.lft.to/lastmile_qr_scan", "android": "https://dc.lft.to/lastmile_qr_scan"}}, {"name": "64273cfb2eac26da5968cfee61c979d8", "fusion_lat": 0.0, "type": "electric_scooter", "lat": 38.88716383333333, "is_reserved": 0, "is_disabled": 0, "fusion_lon": 0.0, "bike_id": "64273cfb2eac26da5968cfee61c979d8", "lon": -77.022069, "rental_uris": {"ios": "https://dc.lft.to/lastmile_qr_scan", "android": "https://dc.lft.to/lastmile_qr_scan"}}, {"name": "c55fd60d1ce9da0dc9838ff7e5412164", "fusion_lat": 0.0, "type": "electric_scooter", "lat": 38.8745495, "is_reserved": 0, "is_disabled": 0, "fusion_lon": 0.0, "bike_id": "c55fd60d1ce9da0dc9838ff7e5412164", "lon": -77.00762283333333, "rental_uris": {"ios": "https://dc.lft.to/lastmile_qr_scan", "android": "https://dc.lft.to/lastmile_qr_scan"}}, {"name": "f930f4fe131ad4ef43fa8e9b82884973", "fusion_lat": 0.0, "type": "electric_scooter", "lat": 38.907337, "is_reserved": 0, "is_disabled": 0, "fusion_lon": 0.0, "bike_id": "f930f4fe131ad4ef43fa8e9b82884973", "lon": -77.04155366666667, "rental_uris": {"ios": "https://dc.lft.to/lastmile_qr_scan", "android": "https://dc.lft.to/lastmile_qr_scan"}}, {"name": "8f2a110469e72a7b70eee04fddc6206f", "fusion_lat": 0.0, "type": "electric_scooter", "lat": 38.916961, "is_reserved": 0, "is_disabled": 0, "fusion_lon": 0.0, "bike_id": "8f2a110469e72a7b70eee04fddc6206f", "lon": -77.0318515, "rental_uris": {"ios": "https://dc.lft.to/lastmile_qr_scan", "android": "https://dc.lft.to/lastmile_qr_scan"}}, {"name": "71517a1394ec1cd4927d3247c51ae5f5", "fusion_lat": 0.0, "type": "electric_scooter", "lat": 38.91108116666667, "is_reserved": 0, "is_disabled": 0, "fusion_lon": 0.0, "bike_id": "71517a1394ec1cd4927d3247c51ae5f5", "lon": -77.04230483333333, "rental_uris": {"ios": "https://dc.lft.to/lastmile_qr_scan", "android": "https://dc.lft.to/lastmile_qr_scan"}}, {"name": "a45fee2133b348b8b80b53b47a903908", "fusion_lat": 0.0, "type": "electric_scooter", "lat": 38.89295516666667, "is_reserved": 0, "is_disabled": 0, "fusion_lon": 0.0, "bike_id": "a45fee2133b348b8b80b53b47a903908", "lon": -77.02014716666666, "rental_uris": {"ios": "https://dc.lft.to/lastmile_qr_scan", "android": "https://dc.lft.to/lastmile_qr_scan"}}, {"name": "b59f3b4e6747a3630a52b384588e14d2", "fusion_lat": 0.0, "type": "electric_scooter", "lat": 38.90284233333333, "is_reserved": 0, "is_disabled": 0, "fusion_lon": 0.0, "bike_id": "b59f3b4e6747a3630a52b384588e14d2", "lon": -77.03630116666666, "rental_uris": {"ios": "https://dc.lft.to/lastmile_qr_scan", "android": "https://dc.lft.to/lastmile_qr_scan"}}, {"name": "eab776038364dd46e818c3dc3e8fd0c3", "fusion_lat": 0.0, "type": "electric_scooter", "lat": 38.90273716666667, "is_reserved": 0, "is_disabled": 0, "fusion_lon": 0.0, "bike_id": "eab776038364dd46e818c3dc3e8fd0c3", "lon": -77.03833833333333, "rental_uris": {"ios": "https://dc.lft.to/lastmile_qr_scan", "android": "https://dc.lft.to/lastmile_qr_scan"}}, {"name": "0d74105bf4c38f870ea836e041ed878d", "fusion_lat": 0.0, "type": "electric_scooter", "lat": 38.915705833333334, "is_reserved": 0, "is_disabled": 0, "fusion_lon": 0.0, "bike_id": "0d74105bf4c38f870ea836e041ed878d", "lon": -77.031737, "rental_uris": {"ios": "https://dc.lft.to/lastmile_qr_scan", "android": "https://dc.lft.to/lastmile_qr_scan"}}, {"name": "a46f84c26e660535f234a4a69789824a", "fusion_lat": 0.0, "type": "electric_scooter", "lat": 38.903097, "is_reserved": 0, "is_disabled": 0, "fusion_lon": 0.0, "bike_id": "a46f84c26e660535f234a4a69789824a", "lon": -77.02369133333333, "rental_uris": {"ios": "https://dc.lft.to/lastmile_qr_scan", "android": "https://dc.lft.to/lastmile_qr_scan"}}, {"name": "bb53dc1700a462595cfdb802da1d3173", "fusion_lat": 0.0, "type": "electric_scooter", "lat": 38.89425833333333, "is_reserved": 0, "is_disabled": 0, "fusion_lon": 0.0, "bike_id": "bb53dc1700a462595cfdb802da1d3173", "lon": -76.93261816666667, "rental_uris": {"ios": "https://dc.lft.to/lastmile_qr_scan", "android": "https://dc.lft.to/lastmile_qr_scan"}}, {"name": "61543eb8f7642c7571eb80b11e5fb725", "fusion_lat": 0.0, "type": "electric_scooter", "lat": 38.909678, "is_reserved": 0, "is_disabled": 0, "fusion_lon": 0.0, "bike_id": "61543eb8f7642c7571eb80b11e5fb725", "lon": -77.03816083333334, "rental_uris": {"ios": "https://dc.lft.to/lastmile_qr_scan", "android": "https://dc.lft.to/lastmile_qr_scan"}}, {"name": "b8238f4d3f93a20a66b628924ad5d1a8", "fusion_lat": 0.0, "type": "electric_bike", "lat": 39.003813, "is_reserved": 0, "is_disabled": 0, "fusion_lon": 0.0, "bike_id": "b8238f4d3f93a20a66b628924ad5d1a8", "lon": -77.01293533333333, "rental_uris": {"ios": "https://dc.lft.to/lastmile_qr_scan", "android": "https://dc.lft.to/lastmile_qr_scan"}}, {"name": "b8a1f4f7ba4bb24973d2a022f4615bc9", "fusion_lat": 0.0, "type": "electric_scooter", "lat": 38.9247005, "is_reserved": 0, "is_disabled": 0, "fusion_lon": 0.0, "bike_id": "b8a1f4f7ba4bb24973d2a022f4615bc9", "lon": -77.0521975, "rental_uris": {"ios": "https://dc.lft.to/lastmile_qr_scan", "android": "https://dc.lft.to/lastmile_qr_scan"}}, {"name": "ac2d0cff99543e823ca5d588e0d5be47", "fusion_lat": 0.0, "type": "electric_scooter", "lat": 38.857986333333336, "is_reserved": 0, "is_disabled": 0, "fusion_lon": 0.0, "bike_id": "ac2d0cff99543e823ca5d588e0d5be47", "lon": -76.99123466666667, "rental_uris": {"ios": "https://dc.lft.to/lastmile_qr_scan", "android": "https://dc.lft.to/lastmile_qr_scan"}}, {"name": "f7dc075e9fcbd61e2e22756a8676f338", "fusion_lat": 0.0, "type": "electric_scooter", "lat": 38.95641033333333, "is_reserved": 0, "is_disabled": 0, "fusion_lon": 0.0, "bike_id": "f7dc075e9fcbd61e2e22756a8676f338", "lon": -77.0328675, "rental_uris": {"ios": "https://dc.lft.to/lastmile_qr_scan", "android": "https://dc.lft.to/lastmile_qr_scan"}}, {"name": "01cc3c13fb5419a7bb2b6d1d1d17e7d7", "fusion_lat": 0.0, "type": "electric_scooter", "lat": 38.908615166666664, "is_reserved": 0, "is_disabled": 0, "fusion_lon": 0.0, "bike_id": "01cc3c13fb5419a7bb2b6d1d1d17e7d7", "lon": -76.98616583333333, "rental_uris": {"ios": "https://dc.lft.to/lastmile_qr_scan", "android": "https://dc.lft.to/lastmile_qr_scan"}}, {"name": "4ea4b353a0775ca026def63e46a18a84", "fusion_lat": 0.0, "type": "electric_scooter", "lat": 38.91805516666667, "is_reserved": 0, "is_disabled": 0, "fusion_lon": 0.0, "bike_id": "4ea4b353a0775ca026def63e46a18a84", "lon": -77.01457733333334, "rental_uris": {"ios": "https://dc.lft.to/lastmile_qr_scan", "android": "https://dc.lft.to/lastmile_qr_scan"}}, {"name": "99b11372208a271ad4625017275c72b0", "fusion_lat": 0.0, "type": "electric_scooter", "lat": 38.94040866666667, "is_reserved": 0, "is_disabled": 0, "fusion_lon": 0.0, "bike_id": "99b11372208a271ad4625017275c72b0", "lon": -77.02978883333333, "rental_uris": {"ios": "https://dc.lft.to/lastmile_qr_scan", "android": "https://dc.lft.to/lastmile_qr_scan"}}, {"name": "19081ff1c8438a479f71ff50b20ce112", "fusion_lat": 0.0, "type": "electric_scooter", "lat": 38.965586, "is_reserved": 0, "is_disabled": 0, "fusion_lon": 0.0, "bike_id": "19081ff1c8438a479f71ff50b20ce112", "lon": -77.01621483333334, "rental_uris": {"ios": "https://dc.lft.to/lastmile_qr_scan", "android": "https://dc.lft.to/lastmile_qr_scan"}}, {"name": "3770f481e5cef5e2301feada76f3a332", "fusion_lat": 0.0, "type": "electric_scooter", "lat": 38.90031533333333, "is_reserved": 0, "is_disabled": 0, "fusion_lon": 0.0, "bike_id": "3770f481e5cef5e2301feada76f3a332", "lon": -77.01151216666666, "rental_uris": {"ios": "https://dc.lft.to/lastmile_qr_scan", "android": "https://dc.lft.to/lastmile_qr_scan"}}, {"name": "446a33f2b59f42a418bb8140c4d81b95", "fusion_lat": 0.0, "type": "electric_bike", "lat": 38.92865666666667, "is_reserved": 0, "is_disabled": 0, "fusion_lon": 0.0, "bike_id": "446a33f2b59f42a418bb8140c4d81b95", "lon": -76.96110666666667, "rental_uris": {"ios": "https://dc.lft.to/lastmile_qr_scan", "android": "https://dc.lft.to/lastmile_qr_scan"}}, {"name": "33207ebb5ec88a0a0a750ea4e75d6265", "fusion_lat": 0.0, "type": "electric_scooter", "lat": 38.88469333333333, "is_reserved": 0, "is_disabled": 0, "fusion_lon": 0.0, "bike_id": "33207ebb5ec88a0a0a750ea4e75d6265", "lon": -77.02848733333333, "rental_uris": {"ios": "https://dc.lft.to/lastmile_qr_scan", "android": "https://dc.lft.to/lastmile_qr_scan"}}, {"name": "ef64929cbd65751119f85ff4a1236f48", "fusion_lat": 0.0, "type": "electric_scooter", "lat": 38.938657166666665, "is_reserved": 0, "is_disabled": 0, "fusion_lon": 0.0, "bike_id": "ef64929cbd65751119f85ff4a1236f48", "lon": -77.0265175, "rental_uris": {"ios": "https://dc.lft.to/lastmile_qr_scan", "android": "https://dc.lft.to/lastmile_qr_scan"}}, {"name": "b0531fb2914e9c3cf48ec67b139050c7", "fusion_lat": 0.0, "type": "electric_bike", "lat": 38.929986166666666, "is_reserved": 0, "is_disabled": 0, "fusion_lon": 0.0, "bike_id": "b0531fb2914e9c3cf48ec67b139050c7", "lon": -77.010882, "rental_uris": {"ios": "https://dc.lft.to/lastmile_qr_scan", "android": "https://dc.lft.to/lastmile_qr_scan"}}, {"name": "95d81613922d9f43f1fb74cc0280747d", "fusion_lat": 0.0, "type": "electric_scooter", "lat": 38.897567, "is_reserved": 0, "is_disabled": 0, "fusion_lon": 0.0, "bike_id": "95d81613922d9f43f1fb74cc0280747d", "lon": -77.03260283333333, "rental_uris": {"ios": "https://dc.lft.to/lastmile_qr_scan", "android": "https://dc.lft.to/lastmile_qr_scan"}}, {"name": "89e428dddb1eb343c75f5bbceb2235b5", "fusion_lat": 0.0, "type": "electric_scooter", "lat": 38.90775, "is_reserved": 0, "is_disabled": 0, "fusion_lon": 0.0, "bike_id": "89e428dddb1eb343c75f5bbceb2235b5", "lon": -77.071681, "rental_uris": {"ios": "https://dc.lft.to/lastmile_qr_scan", "android": "https://dc.lft.to/lastmile_qr_scan"}}, {"name": "66d0d63a6e0b66315e13198fd7127df9", "fusion_lat": 0.0, "type": "electric_bike", "lat": 38.89349, "is_reserved": 0, "is_disabled": 0, "fusion_lon": 0.0, "bike_id": "66d0d63a6e0b66315e13198fd7127df9", "lon": -77.18741833333333, "rental_uris": {"ios": "https://dc.lft.to/lastmile_qr_scan", "android": "https://dc.lft.to/lastmile_qr_scan"}}, {"name": "3853fc65e28dc7498fe2e32f2e32f23d", "fusion_lat": 0.0, "type": "electric_scooter", "lat": 38.87396783333333, "is_reserved": 0, "is_disabled": 0, "fusion_lon": 0.0, "bike_id": "3853fc65e28dc7498fe2e32f2e32f23d", "lon": -77.00069366666666, "rental_uris": {"ios": "https://dc.lft.to/lastmile_qr_scan", "android": "https://dc.lft.to/lastmile_qr_scan"}}, {"name": "d2f3c7da9d01935f7197d3b88b05bd7b", "fusion_lat": 0.0, "type": "electric_scooter", "lat": 38.892204666666665, "is_reserved": 0, "is_disabled": 0, "fusion_lon": 0.0, "bike_id": "d2f3c7da9d01935f7197d3b88b05bd7b", "lon": -77.04328166666667, "rental_uris": {"ios": "https://dc.lft.to/lastmile_qr_scan", "android": "https://dc.lft.to/lastmile_qr_scan"}}, {"name": "e915d0185f7c23c131d6ed484e498767", "fusion_lat": 0.0, "type": "electric_scooter", "lat": 38.899762833333334, "is_reserved": 0, "is_disabled": 0, "fusion_lon": 0.0, "bike_id": "e915d0185f7c23c131d6ed484e498767", "lon": -77.00928516666667, "rental_uris": {"ios": "https://dc.lft.to/lastmile_qr_scan", "android": "https://dc.lft.to/lastmile_qr_scan"}}, {"name": "cc1db503a97ef3d974769b09ead7bcc8", "fusion_lat": 0.0, "type": "electric_scooter", "lat": 38.88363233333333, "is_reserved": 0, "is_disabled": 0, "fusion_lon": 0.0, "bike_id": "cc1db503a97ef3d974769b09ead7bcc8", "lon": -77.03175516666667, "rental_uris": {"ios": "https://dc.lft.to/lastmile_qr_scan", "android": "https://dc.lft.to/lastmile_qr_scan"}}, {"name": "c217f75bb0bb07d2675b5145b79d9d18", "fusion_lat": 0.0, "type": "electric_scooter", "lat": 38.90570316666667, "is_reserved": 0, "is_disabled": 0, "fusion_lon": 0.0, "bike_id": "c217f75bb0bb07d2675b5145b79d9d18", "lon": -77.07250333333333, "rental_uris": {"ios": "https://dc.lft.to/lastmile_qr_scan", "android": "https://dc.lft.to/lastmile_qr_scan"}}, {"name": "c002280dd14a7928b12337da2cf65b39", "fusion_lat": 0.0, "type": "electric_bike", "lat": 38.8990695, "is_reserved": 0, "is_disabled": 0, "fusion_lon": 0.0, "bike_id": "c002280dd14a7928b12337da2cf65b39", "lon": -76.98577233333333, "rental_uris": {"ios": "https://dc.lft.to/lastmile_qr_scan", "android": "https://dc.lft.to/lastmile_qr_scan"}}, {"name": "c6dd73e8b1f7814777bf393cbd45464b", "fusion_lat": 0.0, "type": "electric_scooter", "lat": 38.93527183333333, "is_reserved": 0, "is_disabled": 0, "fusion_lon": 0.0, "bike_id": "c6dd73e8b1f7814777bf393cbd45464b", "lon": -77.028543, "rental_uris": {"ios": "https://dc.lft.to/lastmile_qr_scan", "android": "https://dc.lft.to/lastmile_qr_scan"}}, {"name": "e05058571b2bc538dd9c84d3b58b473b", "fusion_lat": 0.0, "type": "electric_scooter", "lat": 38.89234316666667, "is_reserved": 0, "is_disabled": 0, "fusion_lon": 0.0, "bike_id": "e05058571b2bc538dd9c84d3b58b473b", "lon": -77.02809083333334, "rental_uris": {"ios": "https://dc.lft.to/lastmile_qr_scan", "android": "https://dc.lft.to/lastmile_qr_scan"}}, {"name": "24ddfe8269ec53518ee84d0bd65e6fd3", "fusion_lat": 0.0, "type": "electric_scooter", "lat": 38.91255483333333, "is_reserved": 0, "is_disabled": 0, "fusion_lon": 0.0, "bike_id": "24ddfe8269ec53518ee84d0bd65e6fd3", "lon": -77.00958133333333, "rental_uris": {"ios": "https://dc.lft.to/lastmile_qr_scan", "android": "https://dc.lft.to/lastmile_qr_scan"}}, {"name": "3b87a999cb92017e611340913390cb7b", "fusion_lat": 0.0, "type": "electric_scooter", "lat": 38.9368395, "is_reserved": 0, "is_disabled": 0, "fusion_lon": 0.0, "bike_id": "3b87a999cb92017e611340913390cb7b", "lon": -77.031604, "rental_uris": {"ios": "https://dc.lft.to/lastmile_qr_scan", "android": "https://dc.lft.to/lastmile_qr_scan"}}, {"name": "20c56ee9d9a1c022d98fd923829417e8", "fusion_lat": 0.0, "type": "electric_scooter", "lat": 38.892284333333336, "is_reserved": 0, "is_disabled": 0, "fusion_lon": 0.0, "bike_id": "20c56ee9d9a1c022d98fd923829417e8", "lon": -77.05005466666667, "rental_uris": {"ios": "https://dc.lft.to/lastmile_qr_scan", "android": "https://dc.lft.to/lastmile_qr_scan"}}, {"name": "1c7dce5addb5420c79b527e4efe0f28b", "fusion_lat": 0.0, "type": "electric_scooter", "lat": 38.919065, "is_reserved": 0, "is_disabled": 0, "fusion_lon": 0.0, "bike_id": "1c7dce5addb5420c79b527e4efe0f28b", "lon": -77.0213595, "rental_uris": {"ios": "https://dc.lft.to/lastmile_qr_scan", "android": "https://dc.lft.to/lastmile_qr_scan"}}, {"name": "8919782281a323c506528ed1e54d0579", "fusion_lat": 0.0, "type": "electric_scooter", "lat": 38.91745933333333, "is_reserved": 0, "is_disabled": 0, "fusion_lon": 0.0, "bike_id": "8919782281a323c506528ed1e54d0579", "lon": -77.03643216666667, "rental_uris": {"ios": "https://dc.lft.to/lastmile_qr_scan", "android": "https://dc.lft.to/lastmile_qr_scan"}}, {"name": "1d5f8c893038d9e97a7ae5475c7274ef", "fusion_lat": 0.0, "type": "electric_scooter", "lat": 38.9110795, "is_reserved": 0, "is_disabled": 0, "fusion_lon": 0.0, "bike_id": "1d5f8c893038d9e97a7ae5475c7274ef", "lon": -77.03147333333334, "rental_uris": {"ios": "https://dc.lft.to/lastmile_qr_scan", "android": "https://dc.lft.to/lastmile_qr_scan"}}, {"name": "aa533b0caf98b695411f543374522a63", "fusion_lat": 0.0, "type": "electric_scooter", "lat": 38.903441, "is_reserved": 0, "is_disabled": 0, "fusion_lon": 0.0, "bike_id": "aa533b0caf98b695411f543374522a63", "lon": -76.97566516666667, "rental_uris": {"ios": "https://dc.lft.to/lastmile_qr_scan", "android": "https://dc.lft.to/lastmile_qr_scan"}}, {"name": "94fa49911e4c8272238f82b70fa21119", "fusion_lat": 0.0, "type": "electric_scooter", "lat": 38.87999833333333, "is_reserved": 0, "is_disabled": 0, "fusion_lon": 0.0, "bike_id": "94fa49911e4c8272238f82b70fa21119", "lon": -76.98543183333334, "rental_uris": {"ios": "https://dc.lft.to/lastmile_qr_scan", "android": "https://dc.lft.to/lastmile_qr_scan"}}, {"name": "845e1e954e925e7c129bdc1fc23a0703", "fusion_lat": 0.0, "type": "electric_scooter", "lat": 38.88516666666666, "is_reserved": 0, "is_disabled": 0, "fusion_lon": 0.0, "bike_id": "845e1e954e925e7c129bdc1fc23a0703", "lon": -77.03346783333333, "rental_uris": {"ios": "https://dc.lft.to/lastmile_qr_scan", "android": "https://dc.lft.to/lastmile_qr_scan"}}, {"name": "b8f4fce005e536ad4068395c8756a89b", "fusion_lat": 0.0, "type": "electric_scooter", "lat": 38.921504, "is_reserved": 0, "is_disabled": 0, "fusion_lon": 0.0, "bike_id": "b8f4fce005e536ad4068395c8756a89b", "lon": -77.042234, "rental_uris": {"ios": "https://dc.lft.to/lastmile_qr_scan", "android": "https://dc.lft.to/lastmile_qr_scan"}}, {"name": "8b6c6117374698398b9ef60e7c9450fa", "fusion_lat": 0.0, "type": "electric_scooter", "lat": 38.91779866666667, "is_reserved": 0, "is_disabled": 0, "fusion_lon": 0.0, "bike_id": "8b6c6117374698398b9ef60e7c9450fa", "lon": -77.02306883333334, "rental_uris": {"ios": "https://dc.lft.to/lastmile_qr_scan", "android": "https://dc.lft.to/lastmile_qr_scan"}}, {"name": "c9a0dcf776ffe6b0b2f355f6a9632807", "fusion_lat": 0.0, "type": "electric_scooter", "lat": 38.90538083333333, "is_reserved": 0, "is_disabled": 0, "fusion_lon": 0.0, "bike_id": "c9a0dcf776ffe6b0b2f355f6a9632807", "lon": -77.05230866666666, "rental_uris": {"ios": "https://dc.lft.to/lastmile_qr_scan", "android": "https://dc.lft.to/lastmile_qr_scan"}}, {"name": "f56319eaeb21588dc01ca526404e94d9", "fusion_lat": 0.0, "type": "electric_scooter", "lat": 38.90650733333333, "is_reserved": 0, "is_disabled": 0, "fusion_lon": 0.0, "bike_id": "f56319eaeb21588dc01ca526404e94d9", "lon": -77.04327216666667, "rental_uris": {"ios": "https://dc.lft.to/lastmile_qr_scan", "android": "https://dc.lft.to/lastmile_qr_scan"}}, {"name": "85539021d67804d6db74b32e013beba1", "fusion_lat": 0.0, "type": "electric_bike", "lat": 38.8524515, "is_reserved": 0, "is_disabled": 0, "fusion_lon": 0.0, "bike_id": "85539021d67804d6db74b32e013beba1", "lon": -77.1142935, "rental_uris": {"ios": "https://dc.lft.to/lastmile_qr_scan", "android": "https://dc.lft.to/lastmile_qr_scan"}}, {"name": "eb54327fc8fe1b086172d997cb3abee5", "fusion_lat": 0.0, "type": "electric_scooter", "lat": 38.902727166666665, "is_reserved": 0, "is_disabled": 0, "fusion_lon": 0.0, "bike_id": "eb54327fc8fe1b086172d997cb3abee5", "lon": -77.0382875, "rental_uris": {"ios": "https://dc.lft.to/lastmile_qr_scan", "android": "https://dc.lft.to/lastmile_qr_scan"}}, {"name": "d2d66f785ac947249ae2493f6215a6c5", "fusion_lat": 0.0, "type": "electric_scooter", "lat": 38.9048065, "is_reserved": 0, "is_disabled": 0, "fusion_lon": 0.0, "bike_id": "d2d66f785ac947249ae2493f6215a6c5", "lon": -77.04178233333333, "rental_uris": {"ios": "https://dc.lft.to/lastmile_qr_scan", "android": "https://dc.lft.to/lastmile_qr_scan"}}, {"name": "77f61ebe87543203ea040ee3ce1d9c2b", "fusion_lat": 0.0, "type": "electric_scooter", "lat": 38.90966566666667, "is_reserved": 0, "is_disabled": 0, "fusion_lon": 0.0, "bike_id": "77f61ebe87543203ea040ee3ce1d9c2b", "lon": -77.04130766666667, "rental_uris": {"ios": "https://dc.lft.to/lastmile_qr_scan", "android": "https://dc.lft.to/lastmile_qr_scan"}}, {"name": "fd6a1262e73ca1f59d90cb0126df0106", "fusion_lat": 0.0, "type": "electric_scooter", "lat": 38.842921, "is_reserved": 0, "is_disabled": 0, "fusion_lon": 0.0, "bike_id": "fd6a1262e73ca1f59d90cb0126df0106", "lon": -76.99948499999999, "rental_uris": {"ios": "https://dc.lft.to/lastmile_qr_scan", "android": "https://dc.lft.to/lastmile_qr_scan"}}, {"name": "883d809f69abb1f2ffb295e0e9ddb909", "fusion_lat": 0.0, "type": "electric_scooter", "lat": 38.922331, "is_reserved": 0, "is_disabled": 0, "fusion_lon": 0.0, "bike_id": "883d809f69abb1f2ffb295e0e9ddb909", "lon": -77.04249816666666, "rental_uris": {"ios": "https://dc.lft.to/lastmile_qr_scan", "android": "https://dc.lft.to/lastmile_qr_scan"}}, {"name": "cb22a680743725e4d5e950debbe52216", "fusion_lat": 0.0, "type": "electric_scooter", "lat": 38.8936165, "is_reserved": 0, "is_disabled": 0, "fusion_lon": 0.0, "bike_id": "cb22a680743725e4d5e950debbe52216", "lon": -77.00332683333333, "rental_uris": {"ios": "https://dc.lft.to/lastmile_qr_scan", "android": "https://dc.lft.to/lastmile_qr_scan"}}, {"name": "34e7966513cf0b5b1f865171f613178d", "fusion_lat": 0.0, "type": "electric_scooter", "lat": 38.90380416666667, "is_reserved": 0, "is_disabled": 0, "fusion_lon": 0.0, "bike_id": "34e7966513cf0b5b1f865171f613178d", "lon": -77.04354766666667, "rental_uris": {"ios": "https://dc.lft.to/lastmile_qr_scan", "android": "https://dc.lft.to/lastmile_qr_scan"}}, {"name": "62921484b33912fd705524758f07aa50", "fusion_lat": 0.0, "type": "electric_scooter", "lat": 38.90422683333333, "is_reserved": 0, "is_disabled": 0, "fusion_lon": 0.0, "bike_id": "62921484b33912fd705524758f07aa50", "lon": -77.05346566666667, "rental_uris": {"ios": "https://dc.lft.to/lastmile_qr_scan", "android": "https://dc.lft.to/lastmile_qr_scan"}}, {"name": "cd8ed0972ba8ed5f4f9fb43e5e61af17", "fusion_lat": 0.0, "type": "electric_scooter", "lat": 38.874582333333336, "is_reserved": 0, "is_disabled": 0, "fusion_lon": 0.0, "bike_id": "cd8ed0972ba8ed5f4f9fb43e5e61af17", "lon": -77.00765233333334, "rental_uris": {"ios": "https://dc.lft.to/lastmile_qr_scan", "android": "https://dc.lft.to/lastmile_qr_scan"}}, {"name": "ebefa98fd1b8b4cd77df9d6b4804c8e8", "fusion_lat": 0.0, "type": "electric_scooter", "lat": 38.90140016666667, "is_reserved": 0, "is_disabled": 0, "fusion_lon": 0.0, "bike_id": "ebefa98fd1b8b4cd77df9d6b4804c8e8", "lon": -77.043874, "rental_uris": {"ios": "https://dc.lft.to/lastmile_qr_scan", "android": "https://dc.lft.to/lastmile_qr_scan"}}, {"name": "ef67ce480e74d694956dfe5fae7af376", "fusion_lat": 0.0, "type": "electric_scooter", "lat": 38.900888, "is_reserved": 0, "is_disabled": 0, "fusion_lon": 0.0, "bike_id": "ef67ce480e74d694956dfe5fae7af376", "lon": -77.04876483333334, "rental_uris": {"ios": "https://dc.lft.to/lastmile_qr_scan", "android": "https://dc.lft.to/lastmile_qr_scan"}}, {"name": "254ed2a063946df8bc8e1c27265b7f44", "fusion_lat": 0.0, "type": "electric_scooter", "lat": 38.919140666666664, "is_reserved": 0, "is_disabled": 0, "fusion_lon": 0.0, "bike_id": "254ed2a063946df8bc8e1c27265b7f44", "lon": -77.03011366666667, "rental_uris": {"ios": "https://dc.lft.to/lastmile_qr_scan", "android": "https://dc.lft.to/lastmile_qr_scan"}}, {"name": "848c9af07d634031c8afde85206d954e", "fusion_lat": 0.0, "type": "electric_scooter", "lat": 38.9687185, "is_reserved": 0, "is_disabled": 0, "fusion_lon": 0.0, "bike_id": "848c9af07d634031c8afde85206d954e", "lon": -77.027248, "rental_uris": {"ios": "https://dc.lft.to/lastmile_qr_scan", "android": "https://dc.lft.to/lastmile_qr_scan"}}, {"name": "36e98d014cda924bcd8d66accc3f308d", "fusion_lat": 0.0, "type": "electric_scooter", "lat": 38.92456283333333, "is_reserved": 0, "is_disabled": 0, "fusion_lon": 0.0, "bike_id": "36e98d014cda924bcd8d66accc3f308d", "lon": -77.02158183333333, "rental_uris": {"ios": "https://dc.lft.to/lastmile_qr_scan", "android": "https://dc.lft.to/lastmile_qr_scan"}}, {"name": "0ed60ca36df29800d26375d0e993d32b", "fusion_lat": 0.0, "type": "electric_scooter", "lat": 38.92311333333333, "is_reserved": 0, "is_disabled": 0, "fusion_lon": 0.0, "bike_id": "0ed60ca36df29800d26375d0e993d32b", "lon": -77.02974183333333, "rental_uris": {"ios": "https://dc.lft.to/lastmile_qr_scan", "android": "https://dc.lft.to/lastmile_qr_scan"}}, {"name": "d32080f0bd5fe774f564749753baf99e", "fusion_lat": 0.0, "type": "electric_scooter", "lat": 38.917186, "is_reserved": 0, "is_disabled": 0, "fusion_lon": 0.0, "bike_id": "d32080f0bd5fe774f564749753baf99e", "lon": -77.038394, "rental_uris": {"ios": "https://dc.lft.to/lastmile_qr_scan", "android": "https://dc.lft.to/lastmile_qr_scan"}}, {"name": "82a641d88cfcdc5d6ef14fe0f12f8ebf", "fusion_lat": 0.0, "type": "electric_scooter", "lat": 38.89913416666667, "is_reserved": 0, "is_disabled": 0, "fusion_lon": 0.0, "bike_id": "82a641d88cfcdc5d6ef14fe0f12f8ebf", "lon": -76.93385383333333, "rental_uris": {"ios": "https://dc.lft.to/lastmile_qr_scan", "android": "https://dc.lft.to/lastmile_qr_scan"}}, {"name": "f99b00fc32da0adaf1da6bc988160f91", "fusion_lat": 0.0, "type": "electric_bike", "lat": 38.92642416666666, "is_reserved": 0, "is_disabled": 0, "fusion_lon": 0.0, "bike_id": "f99b00fc32da0adaf1da6bc988160f91", "lon": -77.028409, "rental_uris": {"ios": "https://dc.lft.to/lastmile_qr_scan", "android": "https://dc.lft.to/lastmile_qr_scan"}}, {"name": "34ae82a1b9a97bd0e8fcb52857ba22d3", "fusion_lat": 0.0, "type": "electric_scooter", "lat": 38.8873995, "is_reserved": 0, "is_disabled": 0, "fusion_lon": 0.0, "bike_id": "34ae82a1b9a97bd0e8fcb52857ba22d3", "lon": -77.02833183333334, "rental_uris": {"ios": "https://dc.lft.to/lastmile_qr_scan", "android": "https://dc.lft.to/lastmile_qr_scan"}}, {"name": "91b87b164d7556a1d6274da6b81c2e05", "fusion_lat": 0.0, "type": "electric_scooter", "lat": 38.92047, "is_reserved": 0, "is_disabled": 0, "fusion_lon": 0.0, "bike_id": "91b87b164d7556a1d6274da6b81c2e05", "lon": -77.03474433333334, "rental_uris": {"ios": "https://dc.lft.to/lastmile_qr_scan", "android": "https://dc.lft.to/lastmile_qr_scan"}}, {"name": "edb7a50a43386ab5b4a7d6c3de459c06", "fusion_lat": 0.0, "type": "electric_scooter", "lat": 38.89245533333333, "is_reserved": 0, "is_disabled": 0, "fusion_lon": 0.0, "bike_id": "edb7a50a43386ab5b4a7d6c3de459c06", "lon": -77.03199633333334, "rental_uris": {"ios": "https://dc.lft.to/lastmile_qr_scan", "android": "https://dc.lft.to/lastmile_qr_scan"}}, {"name": "057e98f90f1f2b3854479de32c2e67d7", "fusion_lat": 0.0, "type": "electric_bike", "lat": 38.918585666666665, "is_reserved": 0, "is_disabled": 0, "fusion_lon": 0.0, "bike_id": "057e98f90f1f2b3854479de32c2e67d7", "lon": -76.96093316666666, "rental_uris": {"ios": "https://dc.lft.to/lastmile_qr_scan", "android": "https://dc.lft.to/lastmile_qr_scan"}}, {"name": "e9173d41f5c7f1fb623e9351931ceffb", "fusion_lat": 0.0, "type": "electric_scooter", "lat": 38.90022316666666, "is_reserved": 0, "is_disabled": 0, "fusion_lon": 0.0, "bike_id": "e9173d41f5c7f1fb623e9351931ceffb", "lon": -76.99748016666666, "rental_uris": {"ios": "https://dc.lft.to/lastmile_qr_scan", "android": "https://dc.lft.to/lastmile_qr_scan"}}, {"name": "30ea8eb25af7352a017aea765d33d8bc", "fusion_lat": 0.0, "type": "electric_scooter", "lat": 38.90023133333333, "is_reserved": 0, "is_disabled": 0, "fusion_lon": 0.0, "bike_id": "30ea8eb25af7352a017aea765d33d8bc", "lon": -77.03716733333333, "rental_uris": {"ios": "https://dc.lft.to/lastmile_qr_scan", "android": "https://dc.lft.to/lastmile_qr_scan"}}, {"name": "92a8e6ef5d2d1ddbe3a945996ebf3b1e", "fusion_lat": 0.0, "type": "electric_bike", "lat": 38.82444483333333, "is_reserved": 0, "is_disabled": 0, "fusion_lon": 0.0, "bike_id": "92a8e6ef5d2d1ddbe3a945996ebf3b1e", "lon": -77.07046316666667, "rental_uris": {"ios": "https://dc.lft.to/lastmile_qr_scan", "android": "https://dc.lft.to/lastmile_qr_scan"}}, {"name": "0255bb7dcc3c65e0783e04a14535529c", "fusion_lat": 0.0, "type": "electric_scooter", "lat": 38.8961935, "is_reserved": 0, "is_disabled": 0, "fusion_lon": 0.0, "bike_id": "0255bb7dcc3c65e0783e04a14535529c", "lon": -77.02947283333333, "rental_uris": {"ios": "https://dc.lft.to/lastmile_qr_scan", "android": "https://dc.lft.to/lastmile_qr_scan"}}, {"name": "50b8f9e2cfda92bf2704a91dcf7705eb", "fusion_lat": 0.0, "type": "electric_scooter", "lat": 38.9050545, "is_reserved": 0, "is_disabled": 0, "fusion_lon": 0.0, "bike_id": "50b8f9e2cfda92bf2704a91dcf7705eb", "lon": -77.065003, "rental_uris": {"ios": "https://dc.lft.to/lastmile_qr_scan", "android": "https://dc.lft.to/lastmile_qr_scan"}}, {"name": "04a3bf469d9f7b89e2f1eff46557e35d", "fusion_lat": 0.0, "type": "electric_scooter", "lat": 38.8973415, "is_reserved": 0, "is_disabled": 0, "fusion_lon": 0.0, "bike_id": "04a3bf469d9f7b89e2f1eff46557e35d", "lon": -77.03113933333333, "rental_uris": {"ios": "https://dc.lft.to/lastmile_qr_scan", "android": "https://dc.lft.to/lastmile_qr_scan"}}, {"name": "893b543baa2bb97aa4c6ffd99d767759", "fusion_lat": 0.0, "type": "electric_scooter", "lat": 38.94441966666667, "is_reserved": 0, "is_disabled": 0, "fusion_lon": 0.0, "bike_id": "893b543baa2bb97aa4c6ffd99d767759", "lon": -77.06355366666666, "rental_uris": {"ios": "https://dc.lft.to/lastmile_qr_scan", "android": "https://dc.lft.to/lastmile_qr_scan"}}, {"name": "d1006d6173755fc10b81e080a602a6c1", "fusion_lat": 0.0, "type": "electric_bike", "lat": 38.9068915, "is_reserved": 0, "is_disabled": 0, "fusion_lon": 0.0, "bike_id": "d1006d6173755fc10b81e080a602a6c1", "lon": -76.95187733333333, "rental_uris": {"ios": "https://dc.lft.to/lastmile_qr_scan", "android": "https://dc.lft.to/lastmile_qr_scan"}}, {"name": "f79fbfa42822c92f478020c259dcd2e6", "fusion_lat": 0.0, "type": "electric_scooter", "lat": 38.904566, "is_reserved": 0, "is_disabled": 0, "fusion_lon": 0.0, "bike_id": "f79fbfa42822c92f478020c259dcd2e6", "lon": -77.04649216666667, "rental_uris": {"ios": "https://dc.lft.to/lastmile_qr_scan", "android": "https://dc.lft.to/lastmile_qr_scan"}}, {"name": "7b763ccc26bec2c8daf22878f94e61ec", "fusion_lat": 0.0, "type": "electric_scooter", "lat": 38.912476, "is_reserved": 0, "is_disabled": 0, "fusion_lon": 0.0, "bike_id": "7b763ccc26bec2c8daf22878f94e61ec", "lon": -77.03844566666666, "rental_uris": {"ios": "https://dc.lft.to/lastmile_qr_scan", "android": "https://dc.lft.to/lastmile_qr_scan"}}, {"name": "3f5aa1dc07eb643019a7c4a97e7c35b7", "fusion_lat": 0.0, "type": "electric_scooter", "lat": 38.903706666666665, "is_reserved": 0, "is_disabled": 0, "fusion_lon": 0.0, "bike_id": "3f5aa1dc07eb643019a7c4a97e7c35b7", "lon": -77.011075, "rental_uris": {"ios": "https://dc.lft.to/lastmile_qr_scan", "android": "https://dc.lft.to/lastmile_qr_scan"}}, {"name": "384612d2049a02a9e677d2e1c4d7fd28", "fusion_lat": 0.0, "type": "electric_scooter", "lat": 38.907440666666666, "is_reserved": 0, "is_disabled": 0, "fusion_lon": 0.0, "bike_id": "384612d2049a02a9e677d2e1c4d7fd28", "lon": -77.03212516666666, "rental_uris": {"ios": "https://dc.lft.to/lastmile_qr_scan", "android": "https://dc.lft.to/lastmile_qr_scan"}}, {"name": "acb8655b5e07c3fd8ce91649d1bfbea9", "fusion_lat": 0.0, "type": "electric_scooter", "lat": 38.903322333333335, "is_reserved": 0, "is_disabled": 0, "fusion_lon": 0.0, "bike_id": "acb8655b5e07c3fd8ce91649d1bfbea9", "lon": -76.9984785, "rental_uris": {"ios": "https://dc.lft.to/lastmile_qr_scan", "android": "https://dc.lft.to/lastmile_qr_scan"}}, {"name": "6a10a6cfcc5293f4b4258fab48dcb557", "fusion_lat": 0.0, "type": "electric_scooter", "lat": 38.9064605, "is_reserved": 0, "is_disabled": 0, "fusion_lon": 0.0, "bike_id": "6a10a6cfcc5293f4b4258fab48dcb557", "lon": -77.02494716666666, "rental_uris": {"ios": "https://dc.lft.to/lastmile_qr_scan", "android": "https://dc.lft.to/lastmile_qr_scan"}}, {"name": "b0644fc62abd2dbe1b7bcad86a6849ba", "fusion_lat": 0.0, "type": "electric_scooter", "lat": 38.89897, "is_reserved": 0, "is_disabled": 0, "fusion_lon": 0.0, "bike_id": "b0644fc62abd2dbe1b7bcad86a6849ba", "lon": -77.0317195, "rental_uris": {"ios": "https://dc.lft.to/lastmile_qr_scan", "android": "https://dc.lft.to/lastmile_qr_scan"}}, {"name": "3e8ce06b52648f59497db334ce6a5d09", "fusion_lat": 0.0, "type": "electric_scooter", "lat": 38.895354166666664, "is_reserved": 0, "is_disabled": 0, "fusion_lon": 0.0, "bike_id": "3e8ce06b52648f59497db334ce6a5d09", "lon": -77.042904, "rental_uris": {"ios": "https://dc.lft.to/lastmile_qr_scan", "android": "https://dc.lft.to/lastmile_qr_scan"}}, {"name": "835082939509b79b7cb89165abdcefc8", "fusion_lat": 0.0, "type": "electric_scooter", "lat": 38.90559, "is_reserved": 0, "is_disabled": 0, "fusion_lon": 0.0, "bike_id": "835082939509b79b7cb89165abdcefc8", "lon": -77.03083566666666, "rental_uris": {"ios": "https://dc.lft.to/lastmile_qr_scan", "android": "https://dc.lft.to/lastmile_qr_scan"}}, {"name": "d45b41bb9766e6f5419c67bbe8314896", "fusion_lat": 0.0, "type": "electric_scooter", "lat": 38.93885783333333, "is_reserved": 0, "is_disabled": 0, "fusion_lon": 0.0, "bike_id": "d45b41bb9766e6f5419c67bbe8314896", "lon": -77.024641, "rental_uris": {"ios": "https://dc.lft.to/lastmile_qr_scan", "android": "https://dc.lft.to/lastmile_qr_scan"}}, {"name": "d605f41c1e2893ca6440a3ef47561b3d", "fusion_lat": 0.0, "type": "electric_scooter", "lat": 38.934133, "is_reserved": 0, "is_disabled": 0, "fusion_lon": 0.0, "bike_id": "d605f41c1e2893ca6440a3ef47561b3d", "lon": -77.07238183333334, "rental_uris": {"ios": "https://dc.lft.to/lastmile_qr_scan", "android": "https://dc.lft.to/lastmile_qr_scan"}}, {"name": "cde633cc2a71a2d3ed5769b3731ad94e", "fusion_lat": 0.0, "type": "electric_scooter", "lat": 38.8922025, "is_reserved": 0, "is_disabled": 0, "fusion_lon": 0.0, "bike_id": "cde633cc2a71a2d3ed5769b3731ad94e", "lon": -77.030921, "rental_uris": {"ios": "https://dc.lft.to/lastmile_qr_scan", "android": "https://dc.lft.to/lastmile_qr_scan"}}, {"name": "d641c5bb2427ec558afacbeab54cec21", "fusion_lat": 0.0, "type": "electric_bike", "lat": 38.80227766666667, "is_reserved": 0, "is_disabled": 0, "fusion_lon": 0.0, "bike_id": "d641c5bb2427ec558afacbeab54cec21", "lon": -77.0791805, "rental_uris": {"ios": "https://dc.lft.to/lastmile_qr_scan", "android": "https://dc.lft.to/lastmile_qr_scan"}}, {"name": "1073feae732a1670636409b3c30f6196", "fusion_lat": 0.0, "type": "electric_scooter", "lat": 38.90307266666667, "is_reserved": 0, "is_disabled": 0, "fusion_lon": 0.0, "bike_id": "1073feae732a1670636409b3c30f6196", "lon": -77.02319283333334, "rental_uris": {"ios": "https://dc.lft.to/lastmile_qr_scan", "android": "https://dc.lft.to/lastmile_qr_scan"}}, {"name": "4e5030148bf1a44369cefda34afab869", "fusion_lat": 0.0, "type": "electric_scooter", "lat": 38.885916, "is_reserved": 0, "is_disabled": 0, "fusion_lon": 0.0, "bike_id": "4e5030148bf1a44369cefda34afab869", "lon": -77.0176695, "rental_uris": {"ios": "https://dc.lft.to/lastmile_qr_scan", "android": "https://dc.lft.to/lastmile_qr_scan"}}, {"name": "5e24bf648da22cb3e96e2d3138515f8f", "fusion_lat": 0.0, "type": "electric_scooter", "lat": 38.89970316666667, "is_reserved": 0, "is_disabled": 0, "fusion_lon": 0.0, "bike_id": "5e24bf648da22cb3e96e2d3138515f8f", "lon": -77.031366, "rental_uris": {"ios": "https://dc.lft.to/lastmile_qr_scan", "android": "https://dc.lft.to/lastmile_qr_scan"}}, {"name": "9c5716e2b10287f61aa3d0ecc6c577e0", "fusion_lat": 0.0, "type": "electric_scooter", "lat": 38.8934335, "is_reserved": 0, "is_disabled": 0, "fusion_lon": 0.0, "bike_id": "9c5716e2b10287f61aa3d0ecc6c577e0", "lon": -76.949477, "rental_uris": {"ios": "https://dc.lft.to/lastmile_qr_scan", "android": "https://dc.lft.to/lastmile_qr_scan"}}, {"name": "88d8e95827274172d02a515156a33a06", "fusion_lat": 0.0, "type": "electric_scooter", "lat": 38.897281666666665, "is_reserved": 0, "is_disabled": 0, "fusion_lon": 0.0, "bike_id": "88d8e95827274172d02a515156a33a06", "lon": -77.03281233333334, "rental_uris": {"ios": "https://dc.lft.to/lastmile_qr_scan", "android": "https://dc.lft.to/lastmile_qr_scan"}}, {"name": "d25f65ac8ebc601c41cb96dce3372181", "fusion_lat": 0.0, "type": "electric_scooter", "lat": 38.937119333333335, "is_reserved": 0, "is_disabled": 0, "fusion_lon": 0.0, "bike_id": "d25f65ac8ebc601c41cb96dce3372181", "lon": -77.03653033333333, "rental_uris": {"ios": "https://dc.lft.to/lastmile_qr_scan", "android": "https://dc.lft.to/lastmile_qr_scan"}}, {"name": "151882a61e06fa229e4ed8ebd2d12f00", "fusion_lat": 0.0, "type": "electric_scooter", "lat": 38.914862, "is_reserved": 0, "is_disabled": 0, "fusion_lon": 0.0, "bike_id": "151882a61e06fa229e4ed8ebd2d12f00", "lon": -77.03241933333334, "rental_uris": {"ios": "https://dc.lft.to/lastmile_qr_scan", "android": "https://dc.lft.to/lastmile_qr_scan"}}, {"name": "740b4877bde889912436346a23ad2989", "fusion_lat": 0.0, "type": "electric_bike", "lat": 38.959072166666665, "is_reserved": 0, "is_disabled": 0, "fusion_lon": 0.0, "bike_id": "740b4877bde889912436346a23ad2989", "lon": -77.00156116666666, "rental_uris": {"ios": "https://dc.lft.to/lastmile_qr_scan", "android": "https://dc.lft.to/lastmile_qr_scan"}}, {"name": "a33b9240c83ad821144de5c0e88c2132", "fusion_lat": 0.0, "type": "electric_scooter", "lat": 38.9012535, "is_reserved": 0, "is_disabled": 0, "fusion_lon": 0.0, "bike_id": "a33b9240c83ad821144de5c0e88c2132", "lon": -77.04027016666667, "rental_uris": {"ios": "https://dc.lft.to/lastmile_qr_scan", "android": "https://dc.lft.to/lastmile_qr_scan"}}, {"name": "6fda549210d0a365a32be9b96d8f6a53", "fusion_lat": 0.0, "type": "electric_scooter", "lat": 38.92732866666667, "is_reserved": 0, "is_disabled": 0, "fusion_lon": 0.0, "bike_id": "6fda549210d0a365a32be9b96d8f6a53", "lon": -77.03440466666666, "rental_uris": {"ios": "https://dc.lft.to/lastmile_qr_scan", "android": "https://dc.lft.to/lastmile_qr_scan"}}, {"name": "ad23be245d3234e38cc650fd7962fed1", "fusion_lat": 0.0, "type": "electric_scooter", "lat": 38.9180235, "is_reserved": 0, "is_disabled": 0, "fusion_lon": 0.0, "bike_id": "ad23be245d3234e38cc650fd7962fed1", "lon": -77.032059, "rental_uris": {"ios": "https://dc.lft.to/lastmile_qr_scan", "android": "https://dc.lft.to/lastmile_qr_scan"}}, {"name": "65cbe46e634115d221c61478e25ff60e", "fusion_lat": 0.0, "type": "electric_scooter", "lat": 38.918687, "is_reserved": 0, "is_disabled": 0, "fusion_lon": 0.0, "bike_id": "65cbe46e634115d221c61478e25ff60e", "lon": -77.04354666666667, "rental_uris": {"ios": "https://dc.lft.to/lastmile_qr_scan", "android": "https://dc.lft.to/lastmile_qr_scan"}}, {"name": "5f05f15bb5ef03e92aa8114de22ea394", "fusion_lat": 0.0, "type": "electric_bike", "lat": 38.968632166666666, "is_reserved": 0, "is_disabled": 0, "fusion_lon": 0.0, "bike_id": "5f05f15bb5ef03e92aa8114de22ea394", "lon": -77.03336666666667, "rental_uris": {"ios": "https://dc.lft.to/lastmile_qr_scan", "android": "https://dc.lft.to/lastmile_qr_scan"}}, {"name": "52eaab5927ff3b71aaaec03ca4895f53", "fusion_lat": 0.0, "type": "electric_scooter", "lat": 38.88705916666667, "is_reserved": 0, "is_disabled": 0, "fusion_lon": 0.0, "bike_id": "52eaab5927ff3b71aaaec03ca4895f53", "lon": -77.02827983333333, "rental_uris": {"ios": "https://dc.lft.to/lastmile_qr_scan", "android": "https://dc.lft.to/lastmile_qr_scan"}}, {"name": "31cea38ad1e9a88fe99006ff91606012", "fusion_lat": 0.0, "type": "electric_scooter", "lat": 38.936055333333336, "is_reserved": 0, "is_disabled": 0, "fusion_lon": 0.0, "bike_id": "31cea38ad1e9a88fe99006ff91606012", "lon": -77.05863966666666, "rental_uris": {"ios": "https://dc.lft.to/lastmile_qr_scan", "android": "https://dc.lft.to/lastmile_qr_scan"}}, {"name": "17d9f5412587c04b30feb7729bd2a72d", "fusion_lat": 0.0, "type": "electric_scooter", "lat": 38.898596833333336, "is_reserved": 0, "is_disabled": 0, "fusion_lon": 0.0, "bike_id": "17d9f5412587c04b30feb7729bd2a72d", "lon": -77.04273383333333, "rental_uris": {"ios": "https://dc.lft.to/lastmile_qr_scan", "android": "https://dc.lft.to/lastmile_qr_scan"}}, {"name": "6252c3b9b42ff833e1b706bf0879c7d4", "fusion_lat": 0.0, "type": "electric_scooter", "lat": 38.968197833333335, "is_reserved": 0, "is_disabled": 0, "fusion_lon": 0.0, "bike_id": "6252c3b9b42ff833e1b706bf0879c7d4", "lon": -77.01786683333333, "rental_uris": {"ios": "https://dc.lft.to/lastmile_qr_scan", "android": "https://dc.lft.to/lastmile_qr_scan"}}, {"name": "9f9ec90ca9a9e350d8b8c1aa40bc3585", "fusion_lat": 0.0, "type": "electric_scooter", "lat": 38.91004066666667, "is_reserved": 0, "is_disabled": 0, "fusion_lon": 0.0, "bike_id": "9f9ec90ca9a9e350d8b8c1aa40bc3585", "lon": -77.04423683333333, "rental_uris": {"ios": "https://dc.lft.to/lastmile_qr_scan", "android": "https://dc.lft.to/lastmile_qr_scan"}}, {"name": "db45eb0a80d73a77a45e852ba5147e2a", "fusion_lat": 0.0, "type": "electric_scooter", "lat": 38.9290385, "is_reserved": 0, "is_disabled": 0, "fusion_lon": 0.0, "bike_id": "db45eb0a80d73a77a45e852ba5147e2a", "lon": -77.03255116666666, "rental_uris": {"ios": "https://dc.lft.to/lastmile_qr_scan", "android": "https://dc.lft.to/lastmile_qr_scan"}}, {"name": "92ddd24a5901454f9a74c6b285ea53f3", "fusion_lat": 0.0, "type": "electric_bike", "lat": 39.03343366666667, "is_reserved": 0, "is_disabled": 0, "fusion_lon": 0.0, "bike_id": "92ddd24a5901454f9a74c6b285ea53f3", "lon": -77.04906833333334, "rental_uris": {"ios": "https://dc.lft.to/lastmile_qr_scan", "android": "https://dc.lft.to/lastmile_qr_scan"}}, {"name": "dcf245ed922d33106cd20914aabd934e", "fusion_lat": 0.0, "type": "electric_scooter", "lat": 38.93307433333333, "is_reserved": 0, "is_disabled": 0, "fusion_lon": 0.0, "bike_id": "dcf245ed922d33106cd20914aabd934e", "lon": -77.03765116666666, "rental_uris": {"ios": "https://dc.lft.to/lastmile_qr_scan", "android": "https://dc.lft.to/lastmile_qr_scan"}}, {"name": "9b4de427ef9ef68fe1ba534c441e9b67", "fusion_lat": 0.0, "type": "electric_scooter", "lat": 38.906344833333335, "is_reserved": 0, "is_disabled": 0, "fusion_lon": 0.0, "bike_id": "9b4de427ef9ef68fe1ba534c441e9b67", "lon": -77.05144233333333, "rental_uris": {"ios": "https://dc.lft.to/lastmile_qr_scan", "android": "https://dc.lft.to/lastmile_qr_scan"}}, {"name": "5efce30984970855e7cd9e60ad454c3d", "fusion_lat": 0.0, "type": "electric_scooter", "lat": 38.917611666666666, "is_reserved": 0, "is_disabled": 0, "fusion_lon": 0.0, "bike_id": "5efce30984970855e7cd9e60ad454c3d", "lon": -77.01518733333333, "rental_uris": {"ios": "https://dc.lft.to/lastmile_qr_scan", "android": "https://dc.lft.to/lastmile_qr_scan"}}, {"name": "8871bd296ab49b3dbe8f0509cec6cb0b", "fusion_lat": 0.0, "type": "electric_scooter", "lat": 38.89603866666667, "is_reserved": 0, "is_disabled": 0, "fusion_lon": 0.0, "bike_id": "8871bd296ab49b3dbe8f0509cec6cb0b", "lon": -77.04469583333334, "rental_uris": {"ios": "https://dc.lft.to/lastmile_qr_scan", "android": "https://dc.lft.to/lastmile_qr_scan"}}, {"name": "7619da90063174ede691009dab754f4a", "fusion_lat": 0.0, "type": "electric_scooter", "lat": 38.89501116666667, "is_reserved": 0, "is_disabled": 0, "fusion_lon": 0.0, "bike_id": "7619da90063174ede691009dab754f4a", "lon": -77.01099616666667, "rental_uris": {"ios": "https://dc.lft.to/lastmile_qr_scan", "android": "https://dc.lft.to/lastmile_qr_scan"}}, {"name": "f9a7bbf45302bdab90aacdd0e6d1553e", "fusion_lat": 0.0, "type": "electric_scooter", "lat": 38.92313033333333, "is_reserved": 0, "is_disabled": 0, "fusion_lon": 0.0, "bike_id": "f9a7bbf45302bdab90aacdd0e6d1553e", "lon": -77.04763566666666, "rental_uris": {"ios": "https://dc.lft.to/lastmile_qr_scan", "android": "https://dc.lft.to/lastmile_qr_scan"}}, {"name": "5eaf8e3c5e05fd1a587c08783595f224", "fusion_lat": 0.0, "type": "electric_bike", "lat": 38.92849116666667, "is_reserved": 0, "is_disabled": 0, "fusion_lon": 0.0, "bike_id": "5eaf8e3c5e05fd1a587c08783595f224", "lon": -77.10678983333334, "rental_uris": {"ios": "https://dc.lft.to/lastmile_qr_scan", "android": "https://dc.lft.to/lastmile_qr_scan"}}, {"name": "9cbc00ed1539413a2d9616d03994c4cf", "fusion_lat": 0.0, "type": "electric_scooter", "lat": 38.912517, "is_reserved": 0, "is_disabled": 0, "fusion_lon": 0.0, "bike_id": "9cbc00ed1539413a2d9616d03994c4cf", "lon": -77.0076545, "rental_uris": {"ios": "https://dc.lft.to/lastmile_qr_scan", "android": "https://dc.lft.to/lastmile_qr_scan"}}, {"name": "9bf72977869bad79745de8181e71e80b", "fusion_lat": 0.0, "type": "electric_scooter", "lat": 38.92212816666667, "is_reserved": 0, "is_disabled": 0, "fusion_lon": 0.0, "bike_id": "9bf72977869bad79745de8181e71e80b", "lon": -77.04236816666666, "rental_uris": {"ios": "https://dc.lft.to/lastmile_qr_scan", "android": "https://dc.lft.to/lastmile_qr_scan"}}, {"name": "566503ade2deb1ec1bdb46a60257649b", "fusion_lat": 0.0, "type": "electric_scooter", "lat": 38.901328166666666, "is_reserved": 0, "is_disabled": 0, "fusion_lon": 0.0, "bike_id": "566503ade2deb1ec1bdb46a60257649b", "lon": -77.04489633333333, "rental_uris": {"ios": "https://dc.lft.to/lastmile_qr_scan", "android": "https://dc.lft.to/lastmile_qr_scan"}}, {"name": "87e6eb7f99778406703442aae4cb0ac4", "fusion_lat": 0.0, "type": "electric_scooter", "lat": 38.93154633333333, "is_reserved": 0, "is_disabled": 0, "fusion_lon": 0.0, "bike_id": "87e6eb7f99778406703442aae4cb0ac4", "lon": -77.03892233333333, "rental_uris": {"ios": "https://dc.lft.to/lastmile_qr_scan", "android": "https://dc.lft.to/lastmile_qr_scan"}}, {"name": "3dd4d68d5a57b7f7fbb465bc3c9fba57", "fusion_lat": 0.0, "type": "electric_scooter", "lat": 38.89486483333334, "is_reserved": 0, "is_disabled": 0, "fusion_lon": 0.0, "bike_id": "3dd4d68d5a57b7f7fbb465bc3c9fba57", "lon": -77.0107775, "rental_uris": {"ios": "https://dc.lft.to/lastmile_qr_scan", "android": "https://dc.lft.to/lastmile_qr_scan"}}, {"name": "039484e1301837e0bf2c65055b3d388a", "fusion_lat": 0.0, "type": "electric_scooter", "lat": 38.863613, "is_reserved": 0, "is_disabled": 0, "fusion_lon": 0.0, "bike_id": "039484e1301837e0bf2c65055b3d388a", "lon": -77.01365966666667, "rental_uris": {"ios": "https://dc.lft.to/lastmile_qr_scan", "android": "https://dc.lft.to/lastmile_qr_scan"}}, {"name": "a0db529bd72b3d31c1b89fe91c540a74", "fusion_lat": 0.0, "type": "electric_scooter", "lat": 38.93058466666667, "is_reserved": 0, "is_disabled": 0, "fusion_lon": 0.0, "bike_id": "a0db529bd72b3d31c1b89fe91c540a74", "lon": -77.02325783333333, "rental_uris": {"ios": "https://dc.lft.to/lastmile_qr_scan", "android": "https://dc.lft.to/lastmile_qr_scan"}}, {"name": "665adbec40d2275ecdbc575c96da10f5", "fusion_lat": 0.0, "type": "electric_scooter", "lat": 38.9244645, "is_reserved": 0, "is_disabled": 0, "fusion_lon": 0.0, "bike_id": "665adbec40d2275ecdbc575c96da10f5", "lon": -77.02981233333334, "rental_uris": {"ios": "https://dc.lft.to/lastmile_qr_scan", "android": "https://dc.lft.to/lastmile_qr_scan"}}, {"name": "0e5b77eaf83808b31b24186793932846", "fusion_lat": 0.0, "type": "electric_scooter", "lat": 38.883480666666664, "is_reserved": 0, "is_disabled": 0, "fusion_lon": 0.0, "bike_id": "0e5b77eaf83808b31b24186793932846", "lon": -76.949313, "rental_uris": {"ios": "https://dc.lft.to/lastmile_qr_scan", "android": "https://dc.lft.to/lastmile_qr_scan"}}, {"name": "283c19a6db2fe916fcba5ba19c8cf48d", "fusion_lat": 0.0, "type": "electric_scooter", "lat": 38.927662, "is_reserved": 0, "is_disabled": 0, "fusion_lon": 0.0, "bike_id": "283c19a6db2fe916fcba5ba19c8cf48d", "lon": -77.02712516666666, "rental_uris": {"ios": "https://dc.lft.to/lastmile_qr_scan", "android": "https://dc.lft.to/lastmile_qr_scan"}}, {"name": "d4f2648b212949e99b2d75881f73b997", "fusion_lat": 0.0, "type": "electric_scooter", "lat": 38.925563333333336, "is_reserved": 0, "is_disabled": 0, "fusion_lon": 0.0, "bike_id": "d4f2648b212949e99b2d75881f73b997", "lon": -77.06282083333333, "rental_uris": {"ios": "https://dc.lft.to/lastmile_qr_scan", "android": "https://dc.lft.to/lastmile_qr_scan"}}, {"name": "a7d82d54d55b5d7bff9f98a82a1452df", "fusion_lat": 0.0, "type": "electric_scooter", "lat": 38.938461833333335, "is_reserved": 0, "is_disabled": 0, "fusion_lon": 0.0, "bike_id": "a7d82d54d55b5d7bff9f98a82a1452df", "lon": -77.0249015, "rental_uris": {"ios": "https://dc.lft.to/lastmile_qr_scan", "android": "https://dc.lft.to/lastmile_qr_scan"}}, {"name": "349c5e932d140fcfc39161cde3e12382", "fusion_lat": 0.0, "type": "electric_scooter", "lat": 38.90000416666667, "is_reserved": 0, "is_disabled": 0, "fusion_lon": 0.0, "bike_id": "349c5e932d140fcfc39161cde3e12382", "lon": -77.02726633333333, "rental_uris": {"ios": "https://dc.lft.to/lastmile_qr_scan", "android": "https://dc.lft.to/lastmile_qr_scan"}}, {"name": "f520d63201843b9b6e65d68954564b7a", "fusion_lat": 0.0, "type": "electric_scooter", "lat": 38.939473666666665, "is_reserved": 0, "is_disabled": 0, "fusion_lon": 0.0, "bike_id": "f520d63201843b9b6e65d68954564b7a", "lon": -77.0326075, "rental_uris": {"ios": "https://dc.lft.to/lastmile_qr_scan", "android": "https://dc.lft.to/lastmile_qr_scan"}}, {"name": "d2508073933686dccd687395964aa897", "fusion_lat": 0.0, "type": "electric_scooter", "lat": 38.90681766666667, "is_reserved": 0, "is_disabled": 0, "fusion_lon": 0.0, "bike_id": "d2508073933686dccd687395964aa897", "lon": -77.03840916666667, "rental_uris": {"ios": "https://dc.lft.to/lastmile_qr_scan", "android": "https://dc.lft.to/lastmile_qr_scan"}}, {"name": "c3ac8cd598164e7f8340b2a2a7224950", "fusion_lat": 0.0, "type": "electric_scooter", "lat": 38.88490933333333, "is_reserved": 0, "is_disabled": 0, "fusion_lon": 0.0, "bike_id": "c3ac8cd598164e7f8340b2a2a7224950", "lon": -77.00714433333333, "rental_uris": {"ios": "https://dc.lft.to/lastmile_qr_scan", "android": "https://dc.lft.to/lastmile_qr_scan"}}, {"name": "8a7583941062ae0be35b6f4304c28a52", "fusion_lat": 0.0, "type": "electric_scooter", "lat": 38.87643633333333, "is_reserved": 0, "is_disabled": 0, "fusion_lon": 0.0, "bike_id": "8a7583941062ae0be35b6f4304c28a52", "lon": -76.96507533333333, "rental_uris": {"ios": "https://dc.lft.to/lastmile_qr_scan", "android": "https://dc.lft.to/lastmile_qr_scan"}}, {"name": "08668a21c296ff7b3dd54f1e136239a4", "fusion_lat": 0.0, "type": "electric_scooter", "lat": 38.92944166666667, "is_reserved": 0, "is_disabled": 0, "fusion_lon": 0.0, "bike_id": "08668a21c296ff7b3dd54f1e136239a4", "lon": -77.03467483333333, "rental_uris": {"ios": "https://dc.lft.to/lastmile_qr_scan", "android": "https://dc.lft.to/lastmile_qr_scan"}}, {"name": "4e1364442aa9d6064d96a62dc299b18e", "fusion_lat": 0.0, "type": "electric_bike", "lat": 38.99062283333333, "is_reserved": 0, "is_disabled": 0, "fusion_lon": 0.0, "bike_id": "4e1364442aa9d6064d96a62dc299b18e", "lon": -77.10031583333334, "rental_uris": {"ios": "https://dc.lft.to/lastmile_qr_scan", "android": "https://dc.lft.to/lastmile_qr_scan"}}, {"name": "4b8150e85e188c68e9d856169503c20b", "fusion_lat": 0.0, "type": "electric_scooter", "lat": 38.9110945, "is_reserved": 0, "is_disabled": 0, "fusion_lon": 0.0, "bike_id": "4b8150e85e188c68e9d856169503c20b", "lon": -77.03712366666667, "rental_uris": {"ios": "https://dc.lft.to/lastmile_qr_scan", "android": "https://dc.lft.to/lastmile_qr_scan"}}, {"name": "b25910f04cf86233e6568fcb822ccabd", "fusion_lat": 0.0, "type": "electric_scooter", "lat": 38.90264766666667, "is_reserved": 0, "is_disabled": 0, "fusion_lon": 0.0, "bike_id": "b25910f04cf86233e6568fcb822ccabd", "lon": -77.04364233333334, "rental_uris": {"ios": "https://dc.lft.to/lastmile_qr_scan", "android": "https://dc.lft.to/lastmile_qr_scan"}}, {"name": "7bd50133082104d9192899f080ea3903", "fusion_lat": 0.0, "type": "electric_scooter", "lat": 38.922023333333335, "is_reserved": 0, "is_disabled": 0, "fusion_lon": 0.0, "bike_id": "7bd50133082104d9192899f080ea3903", "lon": -77.04239916666667, "rental_uris": {"ios": "https://dc.lft.to/lastmile_qr_scan", "android": "https://dc.lft.to/lastmile_qr_scan"}}, {"name": "9c1a1e88c4fc1d549e6d5861fc09020e", "fusion_lat": 0.0, "type": "electric_scooter", "lat": 38.937828833333334, "is_reserved": 0, "is_disabled": 0, "fusion_lon": 0.0, "bike_id": "9c1a1e88c4fc1d549e6d5861fc09020e", "lon": -77.05990116666666, "rental_uris": {"ios": "https://dc.lft.to/lastmile_qr_scan", "android": "https://dc.lft.to/lastmile_qr_scan"}}, {"name": "2344da12c66a149faa09d780ebfeea5a", "fusion_lat": 0.0, "type": "electric_scooter", "lat": 38.90467783333333, "is_reserved": 0, "is_disabled": 0, "fusion_lon": 0.0, "bike_id": "2344da12c66a149faa09d780ebfeea5a", "lon": -77.04363583333334, "rental_uris": {"ios": "https://dc.lft.to/lastmile_qr_scan", "android": "https://dc.lft.to/lastmile_qr_scan"}}, {"name": "dbf5e772fe7b47e624ac83523ded1b49", "fusion_lat": 0.0, "type": "electric_scooter", "lat": 38.906547333333336, "is_reserved": 0, "is_disabled": 0, "fusion_lon": 0.0, "bike_id": "dbf5e772fe7b47e624ac83523ded1b49", "lon": -77.03868983333334, "rental_uris": {"ios": "https://dc.lft.to/lastmile_qr_scan", "android": "https://dc.lft.to/lastmile_qr_scan"}}, {"name": "3316cebe1149daf8040bfff882a94d70", "fusion_lat": 0.0, "type": "electric_scooter", "lat": 38.906571166666666, "is_reserved": 0, "is_disabled": 0, "fusion_lon": 0.0, "bike_id": "3316cebe1149daf8040bfff882a94d70", "lon": -77.038743, "rental_uris": {"ios": "https://dc.lft.to/lastmile_qr_scan", "android": "https://dc.lft.to/lastmile_qr_scan"}}, {"name": "3c39168509e4f2470744ecaa9999eb7c", "fusion_lat": 0.0, "type": "electric_scooter", "lat": 38.89221916666666, "is_reserved": 0, "is_disabled": 0, "fusion_lon": 0.0, "bike_id": "3c39168509e4f2470744ecaa9999eb7c", "lon": -77.03089883333334, "rental_uris": {"ios": "https://dc.lft.to/lastmile_qr_scan", "android": "https://dc.lft.to/lastmile_qr_scan"}}, {"name": "f21c378e5a3847c4fd41f78badf88ee6", "fusion_lat": 0.0, "type": "electric_scooter", "lat": 38.91412916666667, "is_reserved": 0, "is_disabled": 0, "fusion_lon": 0.0, "bike_id": "f21c378e5a3847c4fd41f78badf88ee6", "lon": -77.0400015, "rental_uris": {"ios": "https://dc.lft.to/lastmile_qr_scan", "android": "https://dc.lft.to/lastmile_qr_scan"}}, {"name": "24c2030b0431ab06a590a223677b5788", "fusion_lat": 0.0, "type": "electric_bike", "lat": 38.990883833333335, "is_reserved": 0, "is_disabled": 0, "fusion_lon": 0.0, "bike_id": "24c2030b0431ab06a590a223677b5788", "lon": -76.874958, "rental_uris": {"ios": "https://dc.lft.to/lastmile_qr_scan", "android": "https://dc.lft.to/lastmile_qr_scan"}}, {"name": "7657630756fb258cc5613aaceda8794c", "fusion_lat": 0.0, "type": "electric_scooter", "lat": 38.88403133333333, "is_reserved": 0, "is_disabled": 0, "fusion_lon": 0.0, "bike_id": "7657630756fb258cc5613aaceda8794c", "lon": -77.01518116666666, "rental_uris": {"ios": "https://dc.lft.to/lastmile_qr_scan", "android": "https://dc.lft.to/lastmile_qr_scan"}}, {"name": "d7820bb0953549856a697812b112f141", "fusion_lat": 0.0, "type": "electric_scooter", "lat": 38.866767, "is_reserved": 0, "is_disabled": 0, "fusion_lon": 0.0, "bike_id": "d7820bb0953549856a697812b112f141", "lon": -76.9845215, "rental_uris": {"ios": "https://dc.lft.to/lastmile_qr_scan", "android": "https://dc.lft.to/lastmile_qr_scan"}}, {"name": "1fab345dac406960cdb96d0c9410568d", "fusion_lat": 0.0, "type": "electric_bike", "lat": 38.8286795, "is_reserved": 0, "is_disabled": 0, "fusion_lon": 0.0, "bike_id": "1fab345dac406960cdb96d0c9410568d", "lon": -77.11223666666666, "rental_uris": {"ios": "https://dc.lft.to/lastmile_qr_scan", "android": "https://dc.lft.to/lastmile_qr_scan"}}, {"name": "53469567e15c45c0385d66b49584787b", "fusion_lat": 0.0, "type": "electric_scooter", "lat": 38.8767375, "is_reserved": 0, "is_disabled": 0, "fusion_lon": 0.0, "bike_id": "53469567e15c45c0385d66b49584787b", "lon": -77.017851, "rental_uris": {"ios": "https://dc.lft.to/lastmile_qr_scan", "android": "https://dc.lft.to/lastmile_qr_scan"}}, {"name": "74a7945c182dd0bc6a5fceea36a06159", "fusion_lat": 0.0, "type": "electric_scooter", "lat": 38.92435966666667, "is_reserved": 0, "is_disabled": 0, "fusion_lon": 0.0, "bike_id": "74a7945c182dd0bc6a5fceea36a06159", "lon": -77.03352483333333, "rental_uris": {"ios": "https://dc.lft.to/lastmile_qr_scan", "android": "https://dc.lft.to/lastmile_qr_scan"}}, {"name": "1442356193840e473dae193c6f8d2dda", "fusion_lat": 0.0, "type": "electric_scooter", "lat": 38.936067, "is_reserved": 0, "is_disabled": 0, "fusion_lon": 0.0, "bike_id": "1442356193840e473dae193c6f8d2dda", "lon": -77.05856883333334, "rental_uris": {"ios": "https://dc.lft.to/lastmile_qr_scan", "android": "https://dc.lft.to/lastmile_qr_scan"}}, {"name": "c3df7746f9ad662c86dd0a0cf09f89e9", "fusion_lat": 0.0, "type": "electric_scooter", "lat": 38.8996825, "is_reserved": 0, "is_disabled": 0, "fusion_lon": 0.0, "bike_id": "c3df7746f9ad662c86dd0a0cf09f89e9", "lon": -77.05704816666666, "rental_uris": {"ios": "https://dc.lft.to/lastmile_qr_scan", "android": "https://dc.lft.to/lastmile_qr_scan"}}, {"name": "af1b17028517ba2fdb613994e30f2c56", "fusion_lat": 0.0, "type": "electric_scooter", "lat": 38.953272166666665, "is_reserved": 0, "is_disabled": 0, "fusion_lon": 0.0, "bike_id": "af1b17028517ba2fdb613994e30f2c56", "lon": -76.99973266666667, "rental_uris": {"ios": "https://dc.lft.to/lastmile_qr_scan", "android": "https://dc.lft.to/lastmile_qr_scan"}}, {"name": "67e01e21951da33ab811aa276f2e41a3", "fusion_lat": 0.0, "type": "electric_scooter", "lat": 38.885292666666665, "is_reserved": 0, "is_disabled": 0, "fusion_lon": 0.0, "bike_id": "67e01e21951da33ab811aa276f2e41a3", "lon": -77.00580333333333, "rental_uris": {"ios": "https://dc.lft.to/lastmile_qr_scan", "android": "https://dc.lft.to/lastmile_qr_scan"}}, {"name": "005e65342afdab6a4a307a39b169f26a", "fusion_lat": 0.0, "type": "electric_scooter", "lat": 38.904332, "is_reserved": 0, "is_disabled": 0, "fusion_lon": 0.0, "bike_id": "005e65342afdab6a4a307a39b169f26a", "lon": -77.02849016666667, "rental_uris": {"ios": "https://dc.lft.to/lastmile_qr_scan", "android": "https://dc.lft.to/lastmile_qr_scan"}}, {"name": "189a409c0ba1cf73210450956d1a3999", "fusion_lat": 0.0, "type": "electric_scooter", "lat": 38.91690533333333, "is_reserved": 0, "is_disabled": 0, "fusion_lon": 0.0, "bike_id": "189a409c0ba1cf73210450956d1a3999", "lon": -77.02595283333333, "rental_uris": {"ios": "https://dc.lft.to/lastmile_qr_scan", "android": "https://dc.lft.to/lastmile_qr_scan"}}, {"name": "6db7c7847d45202f355efbbbdeeffb6b", "fusion_lat": 0.0, "type": "electric_bike", "lat": 39.03045783333334, "is_reserved": 0, "is_disabled": 0, "fusion_lon": 0.0, "bike_id": "6db7c7847d45202f355efbbbdeeffb6b", "lon": -77.09482783333333, "rental_uris": {"ios": "https://dc.lft.to/lastmile_qr_scan", "android": "https://dc.lft.to/lastmile_qr_scan"}}, {"name": "425211cd0ac59f2ebfe4b790bce7a3b1", "fusion_lat": 0.0, "type": "electric_scooter", "lat": 38.91844833333333, "is_reserved": 0, "is_disabled": 0, "fusion_lon": 0.0, "bike_id": "425211cd0ac59f2ebfe4b790bce7a3b1", "lon": -77.06151433333334, "rental_uris": {"ios": "https://dc.lft.to/lastmile_qr_scan", "android": "https://dc.lft.to/lastmile_qr_scan"}}, {"name": "7aa776b80759cc85ed0025a0b8ff7031", "fusion_lat": 0.0, "type": "electric_scooter", "lat": 38.920499, "is_reserved": 0, "is_disabled": 0, "fusion_lon": 0.0, "bike_id": "7aa776b80759cc85ed0025a0b8ff7031", "lon": -77.03391766666667, "rental_uris": {"ios": "https://dc.lft.to/lastmile_qr_scan", "android": "https://dc.lft.to/lastmile_qr_scan"}}, {"name": "9047ce17cc6745f7fcbe519e103d454b", "fusion_lat": 0.0, "type": "electric_bike", "lat": 38.970670166666665, "is_reserved": 0, "is_disabled": 0, "fusion_lon": 0.0, "bike_id": "9047ce17cc6745f7fcbe519e103d454b", "lon": -76.93606966666667, "rental_uris": {"ios": "https://dc.lft.to/lastmile_qr_scan", "android": "https://dc.lft.to/lastmile_qr_scan"}}, {"name": "c2ff70a7f65470c35e419c4dc7d3a562", "fusion_lat": 0.0, "type": "electric_scooter", "lat": 38.92313083333333, "is_reserved": 0, "is_disabled": 0, "fusion_lon": 0.0, "bike_id": "c2ff70a7f65470c35e419c4dc7d3a562", "lon": -77.0297155, "rental_uris": {"ios": "https://dc.lft.to/lastmile_qr_scan", "android": "https://dc.lft.to/lastmile_qr_scan"}}, {"name": "b2f230af770c10abf4f5791f651096f4", "fusion_lat": 0.0, "type": "electric_bike", "lat": 38.89650266666666, "is_reserved": 0, "is_disabled": 0, "fusion_lon": 0.0, "bike_id": "b2f230af770c10abf4f5791f651096f4", "lon": -77.02581366666666, "rental_uris": {"ios": "https://dc.lft.to/lastmile_qr_scan", "android": "https://dc.lft.to/lastmile_qr_scan"}}, {"name": "086788b3364ca2c9cf72c1033fd88b16", "fusion_lat": 0.0, "type": "electric_scooter", "lat": 38.90536, "is_reserved": 0, "is_disabled": 0, "fusion_lon": 0.0, "bike_id": "086788b3364ca2c9cf72c1033fd88b16", "lon": -77.05197483333333, "rental_uris": {"ios": "https://dc.lft.to/lastmile_qr_scan", "android": "https://dc.lft.to/lastmile_qr_scan"}}, {"name": "5a127d3964321740ac3d46554aa30302", "fusion_lat": 0.0, "type": "electric_scooter", "lat": 38.95401433333333, "is_reserved": 0, "is_disabled": 0, "fusion_lon": 0.0, "bike_id": "5a127d3964321740ac3d46554aa30302", "lon": -77.02749966666667, "rental_uris": {"ios": "https://dc.lft.to/lastmile_qr_scan", "android": "https://dc.lft.to/lastmile_qr_scan"}}, {"name": "e19d0208d102089249f02faafdaa0fb8", "fusion_lat": 0.0, "type": "electric_scooter", "lat": 38.93713016666667, "is_reserved": 0, "is_disabled": 0, "fusion_lon": 0.0, "bike_id": "e19d0208d102089249f02faafdaa0fb8", "lon": -77.03652816666667, "rental_uris": {"ios": "https://dc.lft.to/lastmile_qr_scan", "android": "https://dc.lft.to/lastmile_qr_scan"}}, {"name": "5399ef321e80ee2d8942bae4ea45661e", "fusion_lat": 0.0, "type": "electric_scooter", "lat": 38.89940433333334, "is_reserved": 0, "is_disabled": 0, "fusion_lon": 0.0, "bike_id": "5399ef321e80ee2d8942bae4ea45661e", "lon": -77.0320855, "rental_uris": {"ios": "https://dc.lft.to/lastmile_qr_scan", "android": "https://dc.lft.to/lastmile_qr_scan"}}, {"name": "9941fa12a001106a0e77867fac7bcc41", "fusion_lat": 0.0, "type": "electric_scooter", "lat": 38.896054, "is_reserved": 0, "is_disabled": 0, "fusion_lon": 0.0, "bike_id": "9941fa12a001106a0e77867fac7bcc41", "lon": -77.05073116666667, "rental_uris": {"ios": "https://dc.lft.to/lastmile_qr_scan", "android": "https://dc.lft.to/lastmile_qr_scan"}}, {"name": "d91089cac3fe07908918f043d078be69", "fusion_lat": 0.0, "type": "electric_scooter", "lat": 38.87287583333333, "is_reserved": 0, "is_disabled": 0, "fusion_lon": 0.0, "bike_id": "d91089cac3fe07908918f043d078be69", "lon": -77.00985333333334, "rental_uris": {"ios": "https://dc.lft.to/lastmile_qr_scan", "android": "https://dc.lft.to/lastmile_qr_scan"}}, {"name": "528550177962977c1cc99ee42dd1114e", "fusion_lat": 0.0, "type": "electric_scooter", "lat": 38.932435166666664, "is_reserved": 0, "is_disabled": 0, "fusion_lon": 0.0, "bike_id": "528550177962977c1cc99ee42dd1114e", "lon": -77.03249283333334, "rental_uris": {"ios": "https://dc.lft.to/lastmile_qr_scan", "android": "https://dc.lft.to/lastmile_qr_scan"}}, {"name": "d745ec9f2d381b5d43570087fe5e5085", "fusion_lat": 0.0, "type": "electric_bike", "lat": 38.89772933333333, "is_reserved": 0, "is_disabled": 0, "fusion_lon": 0.0, "bike_id": "d745ec9f2d381b5d43570087fe5e5085", "lon": -76.90441983333334, "rental_uris": {"ios": "https://dc.lft.to/lastmile_qr_scan", "android": "https://dc.lft.to/lastmile_qr_scan"}}, {"name": "b54e1bb5fe0f9cb94bfa54295eb59718", "fusion_lat": 0.0, "type": "electric_scooter", "lat": 38.90276, "is_reserved": 0, "is_disabled": 0, "fusion_lon": 0.0, "bike_id": "b54e1bb5fe0f9cb94bfa54295eb59718", "lon": -77.03840333333333, "rental_uris": {"ios": "https://dc.lft.to/lastmile_qr_scan", "android": "https://dc.lft.to/lastmile_qr_scan"}}, {"name": "918fa9e0c8aad736abc2916c59b59997", "fusion_lat": 0.0, "type": "electric_bike", "lat": 38.946229333333335, "is_reserved": 0, "is_disabled": 0, "fusion_lon": 0.0, "bike_id": "918fa9e0c8aad736abc2916c59b59997", "lon": -76.94630866666667, "rental_uris": {"ios": "https://dc.lft.to/lastmile_qr_scan", "android": "https://dc.lft.to/lastmile_qr_scan"}}, {"name": "1d8197eda2b2a8ca9330b0fd14b67051", "fusion_lat": 0.0, "type": "electric_scooter", "lat": 38.93115866666667, "is_reserved": 0, "is_disabled": 0, "fusion_lon": 0.0, "bike_id": "1d8197eda2b2a8ca9330b0fd14b67051", "lon": -77.02088516666667, "rental_uris": {"ios": "https://dc.lft.to/lastmile_qr_scan", "android": "https://dc.lft.to/lastmile_qr_scan"}}, {"name": "92f37ee7c86bb4b9229f00df3e511191", "fusion_lat": 0.0, "type": "electric_scooter", "lat": 38.93700166666667, "is_reserved": 0, "is_disabled": 0, "fusion_lon": 0.0, "bike_id": "92f37ee7c86bb4b9229f00df3e511191", "lon": -77.02394416666667, "rental_uris": {"ios": "https://dc.lft.to/lastmile_qr_scan", "android": "https://dc.lft.to/lastmile_qr_scan"}}, {"name": "88a2f1bdfd4febdce86dc15dc100ec33", "fusion_lat": 0.0, "type": "electric_scooter", "lat": 38.90579283333334, "is_reserved": 0, "is_disabled": 0, "fusion_lon": 0.0, "bike_id": "88a2f1bdfd4febdce86dc15dc100ec33", "lon": -77.043863, "rental_uris": {"ios": "https://dc.lft.to/lastmile_qr_scan", "android": "https://dc.lft.to/lastmile_qr_scan"}}, {"name": "0fa55794fe7052062567b70e4d0c90e6", "fusion_lat": 0.0, "type": "electric_scooter", "lat": 38.926656333333334, "is_reserved": 0, "is_disabled": 0, "fusion_lon": 0.0, "bike_id": "0fa55794fe7052062567b70e4d0c90e6", "lon": -77.01500983333334, "rental_uris": {"ios": "https://dc.lft.to/lastmile_qr_scan", "android": "https://dc.lft.to/lastmile_qr_scan"}}, {"name": "f4a18c6b591e27729b9e016a5ec68aa8", "fusion_lat": 0.0, "type": "electric_scooter", "lat": 38.89754216666667, "is_reserved": 0, "is_disabled": 0, "fusion_lon": 0.0, "bike_id": "f4a18c6b591e27729b9e016a5ec68aa8", "lon": -77.00756583333333, "rental_uris": {"ios": "https://dc.lft.to/lastmile_qr_scan", "android": "https://dc.lft.to/lastmile_qr_scan"}}, {"name": "21d0631f27d5651a0ec5517e265f22c6", "fusion_lat": 0.0, "type": "electric_bike", "lat": 38.9085855, "is_reserved": 0, "is_disabled": 0, "fusion_lon": 0.0, "bike_id": "21d0631f27d5651a0ec5517e265f22c6", "lon": -77.0229515, "rental_uris": {"ios": "https://dc.lft.to/lastmile_qr_scan", "android": "https://dc.lft.to/lastmile_qr_scan"}}, {"name": "843c2e58cd0c0ba4ff0820a024d1c42b", "fusion_lat": 0.0, "type": "electric_scooter", "lat": 38.93121383333333, "is_reserved": 0, "is_disabled": 0, "fusion_lon": 0.0, "bike_id": "843c2e58cd0c0ba4ff0820a024d1c42b", "lon": -77.03603633333333, "rental_uris": {"ios": "https://dc.lft.to/lastmile_qr_scan", "android": "https://dc.lft.to/lastmile_qr_scan"}}, {"name": "15ae87808edafa787d8b47272665e801", "fusion_lat": 0.0, "type": "electric_scooter", "lat": 38.93896683333333, "is_reserved": 0, "is_disabled": 0, "fusion_lon": 0.0, "bike_id": "15ae87808edafa787d8b47272665e801", "lon": -77.03288933333333, "rental_uris": {"ios": "https://dc.lft.to/lastmile_qr_scan", "android": "https://dc.lft.to/lastmile_qr_scan"}}, {"name": "ec74762f1fd8db1a3a91c06c466869fe", "fusion_lat": 0.0, "type": "electric_scooter", "lat": 38.898734166666664, "is_reserved": 0, "is_disabled": 0, "fusion_lon": 0.0, "bike_id": "ec74762f1fd8db1a3a91c06c466869fe", "lon": -77.033337, "rental_uris": {"ios": "https://dc.lft.to/lastmile_qr_scan", "android": "https://dc.lft.to/lastmile_qr_scan"}}, {"name": "dced1f73b53463e5872cb8ee4557cba4", "fusion_lat": 0.0, "type": "electric_scooter", "lat": 38.923437666666665, "is_reserved": 0, "is_disabled": 0, "fusion_lon": 0.0, "bike_id": "dced1f73b53463e5872cb8ee4557cba4", "lon": -77.03417283333333, "rental_uris": {"ios": "https://dc.lft.to/lastmile_qr_scan", "android": "https://dc.lft.to/lastmile_qr_scan"}}, {"name": "74e446619de92873673527a5d247cbe7", "fusion_lat": 0.0, "type": "electric_scooter", "lat": 38.91409133333333, "is_reserved": 0, "is_disabled": 0, "fusion_lon": 0.0, "bike_id": "74e446619de92873673527a5d247cbe7", "lon": -77.039072, "rental_uris": {"ios": "https://dc.lft.to/lastmile_qr_scan", "android": "https://dc.lft.to/lastmile_qr_scan"}}, {"name": "81066187827e2c618402fee2f1527b74", "fusion_lat": 0.0, "type": "electric_bike", "lat": 38.88825383333333, "is_reserved": 0, "is_disabled": 0, "fusion_lon": 0.0, "bike_id": "81066187827e2c618402fee2f1527b74", "lon": -77.04941266666667, "rental_uris": {"ios": "https://dc.lft.to/lastmile_qr_scan", "android": "https://dc.lft.to/lastmile_qr_scan"}}, {"name": "bf8e379448f9be8ce6633cea6eadef87", "fusion_lat": 0.0, "type": "electric_scooter", "lat": 38.891931, "is_reserved": 0, "is_disabled": 0, "fusion_lon": 0.0, "bike_id": "bf8e379448f9be8ce6633cea6eadef87", "lon": -77.00294716666667, "rental_uris": {"ios": "https://dc.lft.to/lastmile_qr_scan", "android": "https://dc.lft.to/lastmile_qr_scan"}}, {"name": "1d867523a8e2b883fc41f54b42c212bd", "fusion_lat": 0.0, "type": "electric_scooter", "lat": 38.884468166666665, "is_reserved": 0, "is_disabled": 0, "fusion_lon": 0.0, "bike_id": "1d867523a8e2b883fc41f54b42c212bd", "lon": -77.026116, "rental_uris": {"ios": "https://dc.lft.to/lastmile_qr_scan", "android": "https://dc.lft.to/lastmile_qr_scan"}}, {"name": "10e91dd1a453aed54227fc8a00944bfa", "fusion_lat": 0.0, "type": "electric_scooter", "lat": 38.91267933333334, "is_reserved": 0, "is_disabled": 0, "fusion_lon": 0.0, "bike_id": "10e91dd1a453aed54227fc8a00944bfa", "lon": -77.03148316666666, "rental_uris": {"ios": "https://dc.lft.to/lastmile_qr_scan", "android": "https://dc.lft.to/lastmile_qr_scan"}}, {"name": "71fc6b034b9d414d2f2a278ce9ade616", "fusion_lat": 0.0, "type": "electric_scooter", "lat": 38.899945, "is_reserved": 0, "is_disabled": 0, "fusion_lon": 0.0, "bike_id": "71fc6b034b9d414d2f2a278ce9ade616", "lon": -76.98557166666667, "rental_uris": {"ios": "https://dc.lft.to/lastmile_qr_scan", "android": "https://dc.lft.to/lastmile_qr_scan"}}, {"name": "f6d867b16809699cadc289e3748204bf", "fusion_lat": 0.0, "type": "electric_scooter", "lat": 38.8984285, "is_reserved": 0, "is_disabled": 0, "fusion_lon": 0.0, "bike_id": "f6d867b16809699cadc289e3748204bf", "lon": -77.03956766666667, "rental_uris": {"ios": "https://dc.lft.to/lastmile_qr_scan", "android": "https://dc.lft.to/lastmile_qr_scan"}}, {"name": "04a2fa09a2cd9be1767e063b27770991", "fusion_lat": 0.0, "type": "electric_scooter", "lat": 38.91186916666667, "is_reserved": 0, "is_disabled": 0, "fusion_lon": 0.0, "bike_id": "04a2fa09a2cd9be1767e063b27770991", "lon": -77.0400965, "rental_uris": {"ios": "https://dc.lft.to/lastmile_qr_scan", "android": "https://dc.lft.to/lastmile_qr_scan"}}, {"name": "162e9a5ed04befa26eeaebcc3528b6c2", "fusion_lat": 0.0, "type": "electric_scooter", "lat": 38.91757233333333, "is_reserved": 0, "is_disabled": 0, "fusion_lon": 0.0, "bike_id": "162e9a5ed04befa26eeaebcc3528b6c2", "lon": -77.02716766666667, "rental_uris": {"ios": "https://dc.lft.to/lastmile_qr_scan", "android": "https://dc.lft.to/lastmile_qr_scan"}}, {"name": "b827dc6a5cc346e1842c2065b2195f45", "fusion_lat": 0.0, "type": "electric_bike", "lat": 38.896748, "is_reserved": 0, "is_disabled": 0, "fusion_lon": 0.0, "bike_id": "b827dc6a5cc346e1842c2065b2195f45", "lon": -77.05023133333333, "rental_uris": {"ios": "https://dc.lft.to/lastmile_qr_scan", "android": "https://dc.lft.to/lastmile_qr_scan"}}, {"name": "90e0df7cd5b81e59806ca0309eaa1653", "fusion_lat": 0.0, "type": "electric_scooter", "lat": 38.89854366666667, "is_reserved": 0, "is_disabled": 0, "fusion_lon": 0.0, "bike_id": "90e0df7cd5b81e59806ca0309eaa1653", "lon": -77.03173716666667, "rental_uris": {"ios": "https://dc.lft.to/lastmile_qr_scan", "android": "https://dc.lft.to/lastmile_qr_scan"}}, {"name": "6b728ac5ae1334ca9d06884dfd2eac20", "fusion_lat": 0.0, "type": "electric_scooter", "lat": 38.903729, "is_reserved": 0, "is_disabled": 0, "fusion_lon": 0.0, "bike_id": "6b728ac5ae1334ca9d06884dfd2eac20", "lon": -77.03410433333333, "rental_uris": {"ios": "https://dc.lft.to/lastmile_qr_scan", "android": "https://dc.lft.to/lastmile_qr_scan"}}, {"name": "09592f3ed3c162080f5d8954aec8f883", "fusion_lat": 0.0, "type": "electric_scooter", "lat": 38.874315833333334, "is_reserved": 0, "is_disabled": 0, "fusion_lon": 0.0, "bike_id": "09592f3ed3c162080f5d8954aec8f883", "lon": -77.0206345, "rental_uris": {"ios": "https://dc.lft.to/lastmile_qr_scan", "android": "https://dc.lft.to/lastmile_qr_scan"}}, {"name": "4fc8b54cc8870e6f3319ab3bc88bcc29", "fusion_lat": 0.0, "type": "electric_bike", "lat": 38.96384416666667, "is_reserved": 0, "is_disabled": 0, "fusion_lon": 0.0, "bike_id": "4fc8b54cc8870e6f3319ab3bc88bcc29", "lon": -76.98309216666667, "rental_uris": {"ios": "https://dc.lft.to/lastmile_qr_scan", "android": "https://dc.lft.to/lastmile_qr_scan"}}, {"name": "4a90d4b6b2aecb87447e96384d180bc6", "fusion_lat": 0.0, "type": "electric_scooter", "lat": 38.895280166666666, "is_reserved": 0, "is_disabled": 0, "fusion_lon": 0.0, "bike_id": "4a90d4b6b2aecb87447e96384d180bc6", "lon": -77.04851433333333, "rental_uris": {"ios": "https://dc.lft.to/lastmile_qr_scan", "android": "https://dc.lft.to/lastmile_qr_scan"}}, {"name": "dfc2dc9ba44609da317f257feb6597fb", "fusion_lat": 0.0, "type": "electric_scooter", "lat": 38.89098283333333, "is_reserved": 0, "is_disabled": 0, "fusion_lon": 0.0, "bike_id": "dfc2dc9ba44609da317f257feb6597fb", "lon": -76.98205933333334, "rental_uris": {"ios": "https://dc.lft.to/lastmile_qr_scan", "android": "https://dc.lft.to/lastmile_qr_scan"}}, {"name": "e09a823984b14570e1e8f6411f0ed649", "fusion_lat": 0.0, "type": "electric_scooter", "lat": 38.91815166666667, "is_reserved": 0, "is_disabled": 0, "fusion_lon": 0.0, "bike_id": "e09a823984b14570e1e8f6411f0ed649", "lon": -77.0345665, "rental_uris": {"ios": "https://dc.lft.to/lastmile_qr_scan", "android": "https://dc.lft.to/lastmile_qr_scan"}}, {"name": "6f72aa96b09f07464f27d80756223106", "fusion_lat": 0.0, "type": "electric_scooter", "lat": 38.901173166666666, "is_reserved": 0, "is_disabled": 0, "fusion_lon": 0.0, "bike_id": "6f72aa96b09f07464f27d80756223106", "lon": -77.049832, "rental_uris": {"ios": "https://dc.lft.to/lastmile_qr_scan", "android": "https://dc.lft.to/lastmile_qr_scan"}}, {"name": "417eb8c10d6e4705450c0bd99ff25ae5", "fusion_lat": 0.0, "type": "electric_scooter", "lat": 38.929645666666666, "is_reserved": 0, "is_disabled": 0, "fusion_lon": 0.0, "bike_id": "417eb8c10d6e4705450c0bd99ff25ae5", "lon": -77.00539983333333, "rental_uris": {"ios": "https://dc.lft.to/lastmile_qr_scan", "android": "https://dc.lft.to/lastmile_qr_scan"}}, {"name": "81266309e5f7b9fb7adbbaa178a76410", "fusion_lat": 0.0, "type": "electric_scooter", "lat": 38.9224525, "is_reserved": 0, "is_disabled": 0, "fusion_lon": 0.0, "bike_id": "81266309e5f7b9fb7adbbaa178a76410", "lon": -77.03476816666667, "rental_uris": {"ios": "https://dc.lft.to/lastmile_qr_scan", "android": "https://dc.lft.to/lastmile_qr_scan"}}, {"name": "7a04410c5f9925ac317976e61754593c", "fusion_lat": 0.0, "type": "electric_scooter", "lat": 38.887721, "is_reserved": 0, "is_disabled": 0, "fusion_lon": 0.0, "bike_id": "7a04410c5f9925ac317976e61754593c", "lon": -76.932643, "rental_uris": {"ios": "https://dc.lft.to/lastmile_qr_scan", "android": "https://dc.lft.to/lastmile_qr_scan"}}, {"name": "5969309ae34f2353b61dab31fed6d1d1", "fusion_lat": 0.0, "type": "electric_scooter", "lat": 38.90660166666667, "is_reserved": 0, "is_disabled": 0, "fusion_lon": 0.0, "bike_id": "5969309ae34f2353b61dab31fed6d1d1", "lon": -77.03864733333333, "rental_uris": {"ios": "https://dc.lft.to/lastmile_qr_scan", "android": "https://dc.lft.to/lastmile_qr_scan"}}, {"name": "2232810896e865f7ae422d5698ad7d0c", "fusion_lat": 0.0, "type": "electric_scooter", "lat": 38.926359166666664, "is_reserved": 0, "is_disabled": 0, "fusion_lon": 0.0, "bike_id": "2232810896e865f7ae422d5698ad7d0c", "lon": -77.034706, "rental_uris": {"ios": "https://dc.lft.to/lastmile_qr_scan", "android": "https://dc.lft.to/lastmile_qr_scan"}}, {"name": "e5b7b849cc5714469153be98f99d8a72", "fusion_lat": 0.0, "type": "electric_scooter", "lat": 38.89674816666667, "is_reserved": 0, "is_disabled": 0, "fusion_lon": 0.0, "bike_id": "e5b7b849cc5714469153be98f99d8a72", "lon": -77.02615966666667, "rental_uris": {"ios": "https://dc.lft.to/lastmile_qr_scan", "android": "https://dc.lft.to/lastmile_qr_scan"}}, {"name": "c977204277426550fd5d3361232c3a27", "fusion_lat": 0.0, "type": "electric_scooter", "lat": 38.90213, "is_reserved": 0, "is_disabled": 0, "fusion_lon": 0.0, "bike_id": "c977204277426550fd5d3361232c3a27", "lon": -77.0225965, "rental_uris": {"ios": "https://dc.lft.to/lastmile_qr_scan", "android": "https://dc.lft.to/lastmile_qr_scan"}}, {"name": "f34ebaefb2f12d95747fea2b0b669473", "fusion_lat": 0.0, "type": "electric_scooter", "lat": 38.92899116666667, "is_reserved": 0, "is_disabled": 0, "fusion_lon": 0.0, "bike_id": "f34ebaefb2f12d95747fea2b0b669473", "lon": -77.01671516666667, "rental_uris": {"ios": "https://dc.lft.to/lastmile_qr_scan", "android": "https://dc.lft.to/lastmile_qr_scan"}}, {"name": "fd1d466f4aa6d98e1b1fce6b7c9efbe8", "fusion_lat": 0.0, "type": "electric_scooter", "lat": 38.8922705, "is_reserved": 0, "is_disabled": 0, "fusion_lon": 0.0, "bike_id": "fd1d466f4aa6d98e1b1fce6b7c9efbe8", "lon": -77.05004, "rental_uris": {"ios": "https://dc.lft.to/lastmile_qr_scan", "android": "https://dc.lft.to/lastmile_qr_scan"}}, {"name": "547e3f425391bcc008912774bb201829", "fusion_lat": 0.0, "type": "electric_scooter", "lat": 38.93616933333333, "is_reserved": 0, "is_disabled": 0, "fusion_lon": 0.0, "bike_id": "547e3f425391bcc008912774bb201829", "lon": -77.03208416666666, "rental_uris": {"ios": "https://dc.lft.to/lastmile_qr_scan", "android": "https://dc.lft.to/lastmile_qr_scan"}}, {"name": "7ecbad7dd9da96746e7334e05cd86d23", "fusion_lat": 0.0, "type": "electric_scooter", "lat": 38.892184, "is_reserved": 0, "is_disabled": 0, "fusion_lon": 0.0, "bike_id": "7ecbad7dd9da96746e7334e05cd86d23", "lon": -77.0262485, "rental_uris": {"ios": "https://dc.lft.to/lastmile_qr_scan", "android": "https://dc.lft.to/lastmile_qr_scan"}}, {"name": "ba99648ab24e42324ebe20d928c26ba4", "fusion_lat": 0.0, "type": "electric_scooter", "lat": 38.911311, "is_reserved": 0, "is_disabled": 0, "fusion_lon": 0.0, "bike_id": "ba99648ab24e42324ebe20d928c26ba4", "lon": -77.04351283333334, "rental_uris": {"ios": "https://dc.lft.to/lastmile_qr_scan", "android": "https://dc.lft.to/lastmile_qr_scan"}}, {"name": "9c89ec0f2f8fa0092b9398b96999a109", "fusion_lat": 0.0, "type": "electric_scooter", "lat": 38.92943116666667, "is_reserved": 0, "is_disabled": 0, "fusion_lon": 0.0, "bike_id": "9c89ec0f2f8fa0092b9398b96999a109", "lon": -76.997432, "rental_uris": {"ios": "https://dc.lft.to/lastmile_qr_scan", "android": "https://dc.lft.to/lastmile_qr_scan"}}, {"name": "990a767a71feb58f60f9b9f4b2d328ae", "fusion_lat": 0.0, "type": "electric_scooter", "lat": 38.89544316666667, "is_reserved": 0, "is_disabled": 0, "fusion_lon": 0.0, "bike_id": "990a767a71feb58f60f9b9f4b2d328ae", "lon": -77.024236, "rental_uris": {"ios": "https://dc.lft.to/lastmile_qr_scan", "android": "https://dc.lft.to/lastmile_qr_scan"}}, {"name": "0c46f44493ba49312e9e6561033f22f0", "fusion_lat": 0.0, "type": "electric_scooter", "lat": 38.88012166666667, "is_reserved": 0, "is_disabled": 0, "fusion_lon": 0.0, "bike_id": "0c46f44493ba49312e9e6561033f22f0", "lon": -77.02490783333333, "rental_uris": {"ios": "https://dc.lft.to/lastmile_qr_scan", "android": "https://dc.lft.to/lastmile_qr_scan"}}, {"name": "de26d7910706431e4ce9702000a7e34d", "fusion_lat": 0.0, "type": "electric_scooter", "lat": 38.9180475, "is_reserved": 0, "is_disabled": 0, "fusion_lon": 0.0, "bike_id": "de26d7910706431e4ce9702000a7e34d", "lon": -77.02429716666667, "rental_uris": {"ios": "https://dc.lft.to/lastmile_qr_scan", "android": "https://dc.lft.to/lastmile_qr_scan"}}, {"name": "7f7eeb8128c3bb7b1931c48a6fd8e71b", "fusion_lat": 0.0, "type": "electric_bike", "lat": 38.948963666666664, "is_reserved": 0, "is_disabled": 0, "fusion_lon": 0.0, "bike_id": "7f7eeb8128c3bb7b1931c48a6fd8e71b", "lon": -76.9637465, "rental_uris": {"ios": "https://dc.lft.to/lastmile_qr_scan", "android": "https://dc.lft.to/lastmile_qr_scan"}}, {"name": "cab47cf5cc8931ee0b8d9be320ce22a9", "fusion_lat": 0.0, "type": "electric_scooter", "lat": 38.9270695, "is_reserved": 0, "is_disabled": 0, "fusion_lon": 0.0, "bike_id": "cab47cf5cc8931ee0b8d9be320ce22a9", "lon": -77.02080233333334, "rental_uris": {"ios": "https://dc.lft.to/lastmile_qr_scan", "android": "https://dc.lft.to/lastmile_qr_scan"}}, {"name": "afc8ec34a54b6918db896f9e5f83f56b", "fusion_lat": 0.0, "type": "electric_scooter", "lat": 38.906639166666665, "is_reserved": 0, "is_disabled": 0, "fusion_lon": 0.0, "bike_id": "afc8ec34a54b6918db896f9e5f83f56b", "lon": -77.03862183333334, "rental_uris": {"ios": "https://dc.lft.to/lastmile_qr_scan", "android": "https://dc.lft.to/lastmile_qr_scan"}}, {"name": "c1e0f0209acc433be3e748f427ce466e", "fusion_lat": 0.0, "type": "electric_bike", "lat": 38.90898416666667, "is_reserved": 0, "is_disabled": 0, "fusion_lon": 0.0, "bike_id": "c1e0f0209acc433be3e748f427ce466e", "lon": -77.03165816666667, "rental_uris": {"ios": "https://dc.lft.to/lastmile_qr_scan", "android": "https://dc.lft.to/lastmile_qr_scan"}}, {"name": "3c4b13759bf779e2d7986341d73b6f9f", "fusion_lat": 0.0, "type": "electric_scooter", "lat": 38.923285, "is_reserved": 0, "is_disabled": 0, "fusion_lon": 0.0, "bike_id": "3c4b13759bf779e2d7986341d73b6f9f", "lon": -77.03553166666667, "rental_uris": {"ios": "https://dc.lft.to/lastmile_qr_scan", "android": "https://dc.lft.to/lastmile_qr_scan"}}, {"name": "2a9d41c19fc0c95ab006958b040f8fa9", "fusion_lat": 0.0, "type": "electric_scooter", "lat": 38.923146, "is_reserved": 0, "is_disabled": 0, "fusion_lon": 0.0, "bike_id": "2a9d41c19fc0c95ab006958b040f8fa9", "lon": -77.039548, "rental_uris": {"ios": "https://dc.lft.to/lastmile_qr_scan", "android": "https://dc.lft.to/lastmile_qr_scan"}}, {"name": "9e6a2b52c926622f10c119e65befb8dd", "fusion_lat": 0.0, "type": "electric_scooter", "lat": 38.9508525, "is_reserved": 0, "is_disabled": 0, "fusion_lon": 0.0, "bike_id": "9e6a2b52c926622f10c119e65befb8dd", "lon": -77.02843033333333, "rental_uris": {"ios": "https://dc.lft.to/lastmile_qr_scan", "android": "https://dc.lft.to/lastmile_qr_scan"}}, {"name": "9e3f3371d196d29e261bf05884839472", "fusion_lat": 0.0, "type": "electric_scooter", "lat": 38.90723033333333, "is_reserved": 0, "is_disabled": 0, "fusion_lon": 0.0, "bike_id": "9e3f3371d196d29e261bf05884839472", "lon": -77.04795783333333, "rental_uris": {"ios": "https://dc.lft.to/lastmile_qr_scan", "android": "https://dc.lft.to/lastmile_qr_scan"}}, {"name": "655b763ba8f472250868da9fa0ce4ce4", "fusion_lat": 0.0, "type": "electric_scooter", "lat": 38.9056055, "is_reserved": 0, "is_disabled": 0, "fusion_lon": 0.0, "bike_id": "655b763ba8f472250868da9fa0ce4ce4", "lon": -77.03803066666667, "rental_uris": {"ios": "https://dc.lft.to/lastmile_qr_scan", "android": "https://dc.lft.to/lastmile_qr_scan"}}, {"name": "4b4e5fb5686d28242680416522e1670b", "fusion_lat": 0.0, "type": "electric_scooter", "lat": 38.92237216666667, "is_reserved": 0, "is_disabled": 0, "fusion_lon": 0.0, "bike_id": "4b4e5fb5686d28242680416522e1670b", "lon": -77.03091083333334, "rental_uris": {"ios": "https://dc.lft.to/lastmile_qr_scan", "android": "https://dc.lft.to/lastmile_qr_scan"}}, {"name": "f5a06ac3d23a3052088377439fbf58d7", "fusion_lat": 0.0, "type": "electric_scooter", "lat": 38.90256383333333, "is_reserved": 0, "is_disabled": 0, "fusion_lon": 0.0, "bike_id": "f5a06ac3d23a3052088377439fbf58d7", "lon": -77.01541716666667, "rental_uris": {"ios": "https://dc.lft.to/lastmile_qr_scan", "android": "https://dc.lft.to/lastmile_qr_scan"}}, {"name": "151b3d231daecd3fa6949ed57503d18e", "fusion_lat": 0.0, "type": "electric_scooter", "lat": 38.905168333333336, "is_reserved": 0, "is_disabled": 0, "fusion_lon": 0.0, "bike_id": "151b3d231daecd3fa6949ed57503d18e", "lon": -77.06934633333333, "rental_uris": {"ios": "https://dc.lft.to/lastmile_qr_scan", "android": "https://dc.lft.to/lastmile_qr_scan"}}, {"name": "68508e20c900af208958c29c74aa0280", "fusion_lat": 0.0, "type": "electric_scooter", "lat": 38.89996216666667, "is_reserved": 0, "is_disabled": 0, "fusion_lon": 0.0, "bike_id": "68508e20c900af208958c29c74aa0280", "lon": -77.02723516666667, "rental_uris": {"ios": "https://dc.lft.to/lastmile_qr_scan", "android": "https://dc.lft.to/lastmile_qr_scan"}}, {"name": "9d7037d5e96d41458f9e411762bc908f", "fusion_lat": 0.0, "type": "electric_scooter", "lat": 38.920400666666666, "is_reserved": 0, "is_disabled": 0, "fusion_lon": 0.0, "bike_id": "9d7037d5e96d41458f9e411762bc908f", "lon": -77.03431383333333, "rental_uris": {"ios": "https://dc.lft.to/lastmile_qr_scan", "android": "https://dc.lft.to/lastmile_qr_scan"}}, {"name": "65cb31d895729e23d1fee06beb7b3f2e", "fusion_lat": 0.0, "type": "electric_scooter", "lat": 38.905314, "is_reserved": 0, "is_disabled": 0, "fusion_lon": 0.0, "bike_id": "65cb31d895729e23d1fee06beb7b3f2e", "lon": -77.0651055, "rental_uris": {"ios": "https://dc.lft.to/lastmile_qr_scan", "android": "https://dc.lft.to/lastmile_qr_scan"}},