{"data": {"bikes": [{"rental_uris": {"android": "https://dc.lft.to/lastmile_qr_scan", "ios": "https://dc.lft.to/lastmile_qr_scan"}, "type": "electric_scooter", "lon": -77.03715166666667, "name": "30d626dd203b53d344a99777ae189ab2", "bike_id": "30d626dd203b53d344a99777ae189ab2", "fusion_lat": 0.0, "is_reserved": 0, "lat": 38.918085833333336, "fusion_lon": 0.0, "is_disabled": 0}, {"rental_uris": {"android": "https://dc.lft.to/lastmile_qr_scan", "ios": "https://dc.lft.to/lastmile_qr_scan"}, "type": "electric_bike", "lon": -76.99031916666667, "name": "08c6c930d81c3f0d6584b8a7b3385102", "bike_id": "08c6c930d81c3f0d6584b8a7b3385102", "fusion_lat": 0.0, "is_reserved": 0, "lat": 38.89811433333333, "fusion_lon": 0.0, "is_disabled": 0}, {"rental_uris": {"android": "https://dc.lft.to/lastmile_qr_scan", "ios": "https://dc.lft.to/lastmile_qr_scan"}, "type": "electric_scooter", "lon": -77.03197983333334, "name": "3fa4900cc4d822ec5f0cbe285badb291", "bike_id": "3fa4900cc4d822ec5f0cbe285badb291", "fusion_lat": 0.0, "is_reserved": 0, "lat": 38.90753216666667, "fusion_lon": 0.0, "is_disabled": 0}, {"rental_uris": {"android": "https://dc.lft.to/lastmile_qr_scan", "ios": "https://dc.lft.to/lastmile_qr_scan"}, "type": "electric_scooter", "lon": -76.9957645, "name": "654daabbc7a0dff39844458d0469e21e", "bike_id": "654daabbc7a0dff39844458d0469e21e", "fusion_lat": 0.0, "is_reserved": 0, "lat": 38.94950333333333, "fusion_lon": 0.0, "is_disabled": 0}, {"rental_uris": {"android": "https://dc.lft.to/lastmile_qr_scan", "ios": "https://dc.lft.to/lastmile_qr_scan"}, "type": "electric_bike", "lon": -76.952086, "name": "3138febfeac248aad68c539cd4e7354c", "bike_id": "3138febfeac248aad68c539cd4e7354c", "fusion_lat": 0.0, "is_reserved": 0, "lat": 38.9366945, "fusion_lon": 0.0, "is_disabled": 0}, {"rental_uris": {"android": "https://dc.lft.to/lastmile_qr_scan", "ios": "https://dc.lft.to/lastmile_qr_scan"}, "type": "electric_scooter", "lon": -77.04333116666666, "name": "f098f001c40a1d104f7cfe09377213ac", "bike_id": "f098f001c40a1d104f7cfe09377213ac", "fusion_lat": 0.0, "is_reserved": 0, "lat": 38.904336, "fusion_lon": 0.0, "is_disabled": 0}, {"rental_uris": {"android": "https://dc.lft.to/lastmile_qr_scan", "ios": "https://dc.lft.to/lastmile_qr_scan"}, "type": "electric_scooter", "lon": -77.086164, "name": "8cdfa19c6915a71bcc98710a8c9115a4", "bike_id": "8cdfa19c6915a71bcc98710a8c9115a4", "fusion_lat": 0.0, "is_reserved": 0, "lat": 38.95870083333333, "fusion_lon": 0.0, "is_disabled": 0}, {"rental_uris": {"android": "https://dc.lft.to/lastmile_qr_scan", "ios": "https://dc.lft.to/lastmile_qr_scan"}, "type": "electric_scooter", "lon": -77.01883366666667, "name": "9fadb7dc86e7d182ad25b3ea32b6dfe7", "bike_id": "9fadb7dc86e7d182ad25b3ea32b6dfe7", "fusion_lat": 0.0, "is_reserved": 0, "lat": 38.90014216666667, "fusion_lon": 0.0, "is_disabled": 0}, {"rental_uris": {"android": "https://dc.lft.to/lastmile_qr_scan", "ios": "https://dc.lft.to/lastmile_qr_scan"}, "type": "electric_bike", "lon": -76.9649215, "name": "1578660f1e6ba0b4e1c1099123fd2d18", "bike_id": "1578660f1e6ba0b4e1c1099123fd2d18", "fusion_lat": 0.0, "is_reserved": 0, "lat": 38.87549666666666, "fusion_lon": 0.0, "is_disabled": 0}, {"rental_uris": {"android": "https://dc.lft.to/lastmile_qr_scan", "ios": "https://dc.lft.to/lastmile_qr_scan"}, "type": "electric_scooter", "lon": -77.0288605, "name": "50b51e9ff8630c3e86e4bd3a12394cf9", "bike_id": "50b51e9ff8630c3e86e4bd3a12394cf9", "fusion_lat": 0.0, "is_reserved": 0, "lat": 38.9042565, "fusion_lon": 0.0, "is_disabled": 0}, {"rental_uris": {"android": "https://dc.lft.to/lastmile_qr_scan", "ios": "https://dc.lft.to/lastmile_qr_scan"}, "type": "electric_scooter", "lon": -77.02148383333333, "name": "82a4e07911ab8b39099b3c82c9ec9e4b", "bike_id": "82a4e07911ab8b39099b3c82c9ec9e4b", "fusion_lat": 0.0, "is_reserved": 0, "lat": 38.87917516666667, "fusion_lon": 0.0, "is_disabled": 0}, {"rental_uris": {"android": "https://dc.lft.to/lastmile_qr_scan", "ios": "https://dc.lft.to/lastmile_qr_scan"}, "type": "electric_scooter", "lon": -77.02340266666667, "name": "592675a459050b8892d7add7e3e4f82a", "bike_id": "592675a459050b8892d7add7e3e4f82a", "fusion_lat": 0.0, "is_reserved": 0, "lat": 38.92981616666667, "fusion_lon": 0.0, "is_disabled": 0}, {"rental_uris": {"android": "https://dc.lft.to/lastmile_qr_scan", "ios": "https://dc.lft.to/lastmile_qr_scan"}, "type": "electric_scooter", "lon": -77.0161645, "name": "3ea675fa4c4ebca10ab42ad4199de9ef", "bike_id": "3ea675fa4c4ebca10ab42ad4199de9ef", "fusion_lat": 0.0, "is_reserved": 0, "lat": 38.899727166666665, "fusion_lon": 0.0, "is_disabled": 0}, {"rental_uris": {"android": "https://dc.lft.to/lastmile_qr_scan", "ios": "https://dc.lft.to/lastmile_qr_scan"}, "type": "electric_scooter", "lon": -77.06975966666667, "name": "5d325c3918f444f0fe53ca1470b46bb2", "bike_id": "5d325c3918f444f0fe53ca1470b46bb2", "fusion_lat": 0.0, "is_reserved": 0, "lat": 38.952881, "fusion_lon": 0.0, "is_disabled": 0}, {"rental_uris": {"android": "https://dc.lft.to/lastmile_qr_scan", "ios": "https://dc.lft.to/lastmile_qr_scan"}, "type": "electric_scooter", "lon": -77.04008666666667, "name": "9d3c9e9e9c75f1753e761c53a1c315a7", "bike_id": "9d3c9e9e9c75f1753e761c53a1c315a7", "fusion_lat": 0.0, "is_reserved": 0, "lat": 38.903492666666665, "fusion_lon": 0.0, "is_disabled": 0}, {"rental_uris": {"android": "https://dc.lft.to/lastmile_qr_scan", "ios": "https://dc.lft.to/lastmile_qr_scan"}, "type": "electric_scooter", "lon": -77.00227166666667, "name": "4ed9e4bda898e6c663fd48a4c4c3c813", "bike_id": "4ed9e4bda898e6c663fd48a4c4c3c813", "fusion_lat": 0.0, "is_reserved": 0, "lat": 38.90830616666667, "fusion_lon": 0.0, "is_disabled": 0}, {"rental_uris": {"android": "https://dc.lft.to/lastmile_qr_scan", "ios": "https://dc.lft.to/lastmile_qr_scan"}, "type": "electric_scooter", "lon": -77.03856933333333, "name": "f53332d86182b654b611c00710b460a6", "bike_id": "f53332d86182b654b611c00710b460a6", "fusion_lat": 0.0, "is_reserved": 0, "lat": 38.917114, "fusion_lon": 0.0, "is_disabled": 0}, {"rental_uris": {"android": "https://dc.lft.to/lastmile_qr_scan", "ios": "https://dc.lft.to/lastmile_qr_scan"}, "type": "electric_scooter", "lon": -77.01991283333334, "name": "e057759dc7812a957be8d0681273d668", "bike_id": "e057759dc7812a957be8d0681273d668", "fusion_lat": 0.0, "is_reserved": 0, "lat": 38.883833333333335, "fusion_lon": 0.0, "is_disabled": 0}, {"rental_uris": {"android": "https://dc.lft.to/lastmile_qr_scan", "ios": "https://dc.lft.to/lastmile_qr_scan"}, "type": "electric_scooter", "lon": -77.0116365, "name": "c156e2e0a3191b7daf29d9a2607093dc", "bike_id": "c156e2e0a3191b7daf29d9a2607093dc", "fusion_lat": 0.0, "is_reserved": 0, "lat": 38.91263283333333, "fusion_lon": 0.0, "is_disabled": 0}, {"rental_uris": {"android": "https://dc.lft.to/lastmile_qr_scan", "ios": "https://dc.lft.to/lastmile_qr_scan"}, "type": "electric_scooter", "lon": -77.04135833333333, "name": "4f4a8ca7af36d3214e020cef4ea76f3c", "bike_id": "4f4a8ca7af36d3214e020cef4ea76f3c", "fusion_lat": 0.0, "is_reserved": 0, "lat": 38.92128533333333, "fusion_lon": 0.0, "is_disabled": 0}, {"rental_uris": {"android": "https://dc.lft.to/lastmile_qr_scan", "ios": "https://dc.lft.to/lastmile_qr_scan"}, "type": "electric_scooter", "lon": -77.03870583333334, "name": "d096eec5cf3b52212ac5953a5fb7e2cf", "bike_id": "d096eec5cf3b52212ac5953a5fb7e2cf", "fusion_lat": 0.0, "is_reserved": 0, "lat": 38.909727333333336, "fusion_lon": 0.0, "is_disabled": 0}, {"rental_uris": {"android": "https://dc.lft.to/lastmile_qr_scan", "ios": "https://dc.lft.to/lastmile_qr_scan"}, "type": "electric_scooter", "lon": -77.02110116666667, "name": "0e74a1ad2182c91f3c1e515e9ed5e225", "bike_id": "0e74a1ad2182c91f3c1e515e9ed5e225", "fusion_lat": 0.0, "is_reserved": 0, "lat": 38.9409835, "fusion_lon": 0.0, "is_disabled": 0}, {"rental_uris": {"android": "https://dc.lft.to/lastmile_qr_scan", "ios": "https://dc.lft.to/lastmile_qr_scan"}, "type": "electric_scooter", "lon": -77.04041766666667, "name": "352cda65630782b6c2fc136d0d9ccd80", "bike_id": "352cda65630782b6c2fc136d0d9ccd80", "fusion_lat": 0.0, "is_reserved": 0, "lat": 38.90590233333333, "fusion_lon": 0.0, "is_disabled": 0}, {"rental_uris": {"android": "https://dc.lft.to/lastmile_qr_scan", "ios": "https://dc.lft.to/lastmile_qr_scan"}, "type": "electric_scooter", "lon": -77.0208995, "name": "0e69b22b0aaa7584d3ecc39612c0700d", "bike_id": "0e69b22b0aaa7584d3ecc39612c0700d", "fusion_lat": 0.0, "is_reserved": 0, "lat": 38.9290865, "fusion_lon": 0.0, "is_disabled": 0}, {"rental_uris": {"android": "https://dc.lft.to/lastmile_qr_scan", "ios": "https://dc.lft.to/lastmile_qr_scan"}, "type": "electric_scooter", "lon": -77.01760383333334, "name": "e4169c625ffaeaea49a3c4c721d9a28c", "bike_id": "e4169c625ffaeaea49a3c4c721d9a28c", "fusion_lat": 0.0, "is_reserved": 0, "lat": 38.92104533333333, "fusion_lon": 0.0, "is_disabled": 0}, {"rental_uris": {"android": "https://dc.lft.to/lastmile_qr_scan", "ios": "https://dc.lft.to/lastmile_qr_scan"}, "type": "electric_scooter", "lon": -76.99950533333333, "name": "f5ed1800b787309d13762d142c01865e", "bike_id": "f5ed1800b787309d13762d142c01865e", "fusion_lat": 0.0, "is_reserved": 0, "lat": 38.842920166666666, "fusion_lon": 0.0, "is_disabled": 0}, {"rental_uris": {"android": "https://dc.lft.to/lastmile_qr_scan", "ios": "https://dc.lft.to/lastmile_qr_scan"}, "type": "electric_scooter", "lon": -77.06531966666667, "name": "b62783948d68c7287288a3dc8c753797", "bike_id": "b62783948d68c7287288a3dc8c753797", "fusion_lat": 0.0, "is_reserved": 0, "lat": 38.905258833333335, "fusion_lon": 0.0, "is_disabled": 0}, {"rental_uris": {"android": "https://dc.lft.to/lastmile_qr_scan", "ios": "https://dc.lft.to/lastmile_qr_scan"}, "type": "electric_scooter", "lon": -77.02695533333333, "name": "f1d512d43b2e2fb6cc3fa6a87a345ed7", "bike_id": "f1d512d43b2e2fb6cc3fa6a87a345ed7", "fusion_lat": 0.0, "is_reserved": 0, "lat": 38.908438, "fusion_lon": 0.0, "is_disabled": 0}, {"rental_uris": {"android": "https://dc.lft.to/lastmile_qr_scan", "ios": "https://dc.lft.to/lastmile_qr_scan"}, "type": "electric_scooter", "lon": -77.01856266666667, "name": "db7685f2d247de03b3b731ffb062aad5", "bike_id": "db7685f2d247de03b3b731ffb062aad5", "fusion_lat": 0.0, "is_reserved": 0, "lat": 38.877109, "fusion_lon": 0.0, "is_disabled": 0}, {"rental_uris": {"android": "https://dc.lft.to/lastmile_qr_scan", "ios": "https://dc.lft.to/lastmile_qr_scan"}, "type": "electric_scooter", "lon": -77.0064385, "name": "8406d6189fbeeffc77629f8abcb2d072", "bike_id": "8406d6189fbeeffc77629f8abcb2d072", "fusion_lat": 0.0, "is_reserved": 0, "lat": 38.88339216666667, "fusion_lon": 0.0, "is_disabled": 0}, {"rental_uris": {"android": "https://dc.lft.to/lastmile_qr_scan", "ios": "https://dc.lft.to/lastmile_qr_scan"}, "type": "electric_scooter", "lon": -77.01210533333334, "name": "f4a79594c42ba5135a6232ef41f940cb", "bike_id": "f4a79594c42ba5135a6232ef41f940cb", "fusion_lat": 0.0, "is_reserved": 0, "lat": 38.87090966666667, "fusion_lon": 0.0, "is_disabled": 0}, {"rental_uris": {"android": "https://dc.lft.to/lastmile_qr_scan", "ios": "https://dc.lft.to/lastmile_qr_scan"}, "type": "electric_scooter", "lon": -77.014694, "name": "f87c7ff7d701158b3d82a843b879c227", "bike_id": "f87c7ff7d701158b3d82a843b879c227", "fusion_lat": 0.0, "is_reserved": 0, "lat": 38.926829166666664, "fusion_lon": 0.0, "is_disabled": 0}, {"rental_uris": {"android": "https://dc.lft.to/lastmile_qr_scan", "ios": "https://dc.lft.to/lastmile_qr_scan"}, "type": "electric_scooter", "lon": -77.03184016666667, "name": "52cafd3c0518967ab0f46c757245d672", "bike_id": "52cafd3c0518967ab0f46c757245d672", "fusion_lat": 0.0, "is_reserved": 0, "lat": 38.929796, "fusion_lon": 0.0, "is_disabled": 0}, {"rental_uris": {"android": "https://dc.lft.to/lastmile_qr_scan", "ios": "https://dc.lft.to/lastmile_qr_scan"}, "type": "electric_scooter", "lon": -77.02209483333333, "name": "d75f9e356aa19cb3506e6a26e74f190e", "bike_id": "d75f9e356aa19cb3506e6a26e74f190e", "fusion_lat": 0.0, "is_reserved": 0, "lat": 38.912702, "fusion_lon": 0.0, "is_disabled": 0}, {"rental_uris": {"android": "https://dc.lft.to/lastmile_qr_scan", "ios": "https://dc.lft.to/lastmile_qr_scan"}, "type": "electric_scooter", "lon": -77.033854, "name": "e3c5f886348b8e9495bfe2a2c5481b10", "bike_id": "e3c5f886348b8e9495bfe2a2c5481b10", "fusion_lat": 0.0, "is_reserved": 0, "lat": 38.919116333333335, "fusion_lon": 0.0, "is_disabled": 0}, {"rental_uris": {"android": "https://dc.lft.to/lastmile_qr_scan", "ios": "https://dc.lft.to/lastmile_qr_scan"}, "type": "electric_bike", "lon": -76.94616566666667, "name": "dd19aebf4c3a6a2ef4a8c97d3a1cd9f3", "bike_id": "dd19aebf4c3a6a2ef4a8c97d3a1cd9f3", "fusion_lat": 0.0, "is_reserved": 0, "lat": 38.83236016666667, "fusion_lon": 0.0, "is_disabled": 0}, {"rental_uris": {"android": "https://dc.lft.to/lastmile_qr_scan", "ios": "https://dc.lft.to/lastmile_qr_scan"}, "type": "electric_scooter", "lon": -77.05328566666667, "name": "92b7ac2b5d066b03b168876a5af416a6", "bike_id": "92b7ac2b5d066b03b168876a5af416a6", "fusion_lat": 0.0, "is_reserved": 0, "lat": 38.90673616666667, "fusion_lon": 0.0, "is_disabled": 0}, {"rental_uris": {"android": "https://dc.lft.to/lastmile_qr_scan", "ios": "https://dc.lft.to/lastmile_qr_scan"}, "type": "electric_scooter", "lon": -77.02724116666667, "name": "fe5c809e83acd4ee03a05b85b4b93b13", "bike_id": "fe5c809e83acd4ee03a05b85b4b93b13", "fusion_lat": 0.0, "is_reserved": 0, "lat": 38.95130833333333, "fusion_lon": 0.0, "is_disabled": 0}, {"rental_uris": {"android": "https://dc.lft.to/lastmile_qr_scan", "ios": "https://dc.lft.to/lastmile_qr_scan"}, "type": "electric_scooter", "lon": -77.03795533333333, "name": "0d5fc67b68e77063b5836dca68929bcc", "bike_id": "0d5fc67b68e77063b5836dca68929bcc", "fusion_lat": 0.0, "is_reserved": 0, "lat": 38.93323733333333, "fusion_lon": 0.0, "is_disabled": 0}, {"rental_uris": {"android": "https://dc.lft.to/lastmile_qr_scan", "ios": "https://dc.lft.to/lastmile_qr_scan"}, "type": "electric_scooter", "lon": -77.02578133333333, "name": "3623d9ec0ce64114361dec3301e1a3d0", "bike_id": "3623d9ec0ce64114361dec3301e1a3d0", "fusion_lat": 0.0, "is_reserved": 0, "lat": 38.925073, "fusion_lon": 0.0, "is_disabled": 0}, {"rental_uris": {"android": "https://dc.lft.to/lastmile_qr_scan", "ios": "https://dc.lft.to/lastmile_qr_scan"}, "type": "electric_scooter", "lon": -76.98768916666667, "name": "970fd263e32aab0889f115bcb65157d2", "bike_id": "970fd263e32aab0889f115bcb65157d2", "fusion_lat": 0.0, "is_reserved": 0, "lat": 38.88311183333333, "fusion_lon": 0.0, "is_disabled": 0}, {"rental_uris": {"android": "https://dc.lft.to/lastmile_qr_scan", "ios": "https://dc.lft.to/lastmile_qr_scan"}, "type": "electric_scooter", "lon": -77.01361783333333, "name": "0ee0327fb829fa2686d9979c2ba26ce2", "bike_id": "0ee0327fb829fa2686d9979c2ba26ce2", "fusion_lat": 0.0, "is_reserved": 0, "lat": 38.919266666666665, "fusion_lon": 0.0, "is_disabled": 0}, {"rental_uris": {"android": "https://dc.lft.to/lastmile_qr_scan", "ios": "https://dc.lft.to/lastmile_qr_scan"}, "type": "electric_bike", "lon": -77.00585483333333, "name": "77dad4787d7beb9e637c2de8b0a7cbef", "bike_id": "77dad4787d7beb9e637c2de8b0a7cbef", "fusion_lat": 0.0, "is_reserved": 0, "lat": 38.87885583333333, "fusion_lon": 0.0, "is_disabled": 0}, {"rental_uris": {"android": "https://dc.lft.to/lastmile_qr_scan", "ios": "https://dc.lft.to/lastmile_qr_scan"}, "type": "electric_scooter", "lon": -76.99456033333334, "name": "fc4f2602009e40306d572e4862dc4efd", "bike_id": "fc4f2602009e40306d572e4862dc4efd", "fusion_lat": 0.0, "is_reserved": 0, "lat": 38.92275516666667, "fusion_lon": 0.0, "is_disabled": 0}, {"rental_uris": {"android": "https://dc.lft.to/lastmile_qr_scan", "ios": "https://dc.lft.to/lastmile_qr_scan"}, "type": "electric_scooter", "lon": -77.048744, "name": "a5f2c4097e41ea577c8cd8530c2d199d", "bike_id": "a5f2c4097e41ea577c8cd8530c2d199d", "fusion_lat": 0.0, "is_reserved": 0, "lat": 38.90295616666667, "fusion_lon": 0.0, "is_disabled": 0}, {"rental_uris": {"android": "https://dc.lft.to/lastmile_qr_scan", "ios": "https://dc.lft.to/lastmile_qr_scan"}, "type": "electric_scooter", "lon": -77.03930566666666, "name": "ccc642e259bc0d9ded05c8b7d22c22cd", "bike_id": "ccc642e259bc0d9ded05c8b7d22c22cd", "fusion_lat": 0.0, "is_reserved": 0, "lat": 38.90824283333333, "fusion_lon": 0.0, "is_disabled": 0}, {"rental_uris": {"android": "https://dc.lft.to/lastmile_qr_scan", "ios": "https://dc.lft.to/lastmile_qr_scan"}, "type": "electric_scooter", "lon": -77.03274483333334, "name": "8dc28ea500d6397ad307cd98a886dc1f", "bike_id": "8dc28ea500d6397ad307cd98a886dc1f", "fusion_lat": 0.0, "is_reserved": 0, "lat": 38.92832883333333, "fusion_lon": 0.0, "is_disabled": 0}, {"rental_uris": {"android": "https://dc.lft.to/lastmile_qr_scan", "ios": "https://dc.lft.to/lastmile_qr_scan"}, "type": "electric_scooter", "lon": -77.0211675, "name": "56b54a96e24622831b6acac64a7b74b7", "bike_id": "56b54a96e24622831b6acac64a7b74b7", "fusion_lat": 0.0, "is_reserved": 0, "lat": 38.917374833333334, "fusion_lon": 0.0, "is_disabled": 0}, {"rental_uris": {"android": "https://dc.lft.to/lastmile_qr_scan", "ios": "https://dc.lft.to/lastmile_qr_scan"}, "type": "electric_scooter", "lon": -77.04978316666667, "name": "78ab3c13d237f353361d394b88b8683d", "bike_id": "78ab3c13d237f353361d394b88b8683d", "fusion_lat": 0.0, "is_reserved": 0, "lat": 38.900739333333334, "fusion_lon": 0.0, "is_disabled": 0}, {"rental_uris": {"android": "https://dc.lft.to/lastmile_qr_scan", "ios": "https://dc.lft.to/lastmile_qr_scan"}, "type": "electric_scooter", "lon": -77.0319765, "name": "dae9ec0cb1e31e37e4cfebd990b86e1e", "bike_id": "dae9ec0cb1e31e37e4cfebd990b86e1e", "fusion_lat": 0.0, "is_reserved": 0, "lat": 38.90743883333333, "fusion_lon": 0.0, "is_disabled": 0}, {"rental_uris": {"android": "https://dc.lft.to/lastmile_qr_scan", "ios": "https://dc.lft.to/lastmile_qr_scan"}, "type": "electric_scooter", "lon": -77.03195883333333, "name": "835709405b9f0eb2b5ae72c3a2df07ae", "bike_id": "835709405b9f0eb2b5ae72c3a2df07ae", "fusion_lat": 0.0, "is_reserved": 0, "lat": 38.916756666666664, "fusion_lon": 0.0, "is_disabled": 0}, {"rental_uris": {"android": "https://dc.lft.to/lastmile_qr_scan", "ios": "https://dc.lft.to/lastmile_qr_scan"}, "type": "electric_scooter", "lon": -76.99630816666667, "name": "f3e366dbbe15f79623d0046fc2b4e29e", "bike_id": "f3e366dbbe15f79623d0046fc2b4e29e", "fusion_lat": 0.0, "is_reserved": 0, "lat": 38.84619283333333, "fusion_lon": 0.0, "is_disabled": 0}, {"rental_uris": {"android": "https://dc.lft.to/lastmile_qr_scan", "ios": "https://dc.lft.to/lastmile_qr_scan"}, "type": "electric_bike", "lon": -77.12405133333333, "name": "7100f1e9a7874c70898dc2c82c0f905d", "bike_id": "7100f1e9a7874c70898dc2c82c0f905d", "fusion_lat": 0.0, "is_reserved": 0, "lat": 38.89332666666667, "fusion_lon": 0.0, "is_disabled": 0}, {"rental_uris": {"android": "https://dc.lft.to/lastmile_qr_scan", "ios": "https://dc.lft.to/lastmile_qr_scan"}, "type": "electric_scooter", "lon": -77.007955, "name": "e15be7d44f72fb43c8bacc4713878333", "bike_id": "e15be7d44f72fb43c8bacc4713878333", "fusion_lat": 0.0, "is_reserved": 0, "lat": 38.896850666666666, "fusion_lon": 0.0, "is_disabled": 0}, {"rental_uris": {"android": "https://dc.lft.to/lastmile_qr_scan", "ios": "https://dc.lft.to/lastmile_qr_scan"}, "type": "electric_bike", "lon": -77.02061533333334, "name": "0c0ba84d84d7d566123e4c876c73bbd6", "bike_id": "0c0ba84d84d7d566123e4c876c73bbd6", "fusion_lat": 0.0, "is_reserved": 0, "lat": 38.928435666666665, "fusion_lon": 0.0, "is_disabled": 0}, {"rental_uris": {"android": "https://dc.lft.to/lastmile_qr_scan", "ios": "https://dc.lft.to/lastmile_qr_scan"}, "type": "electric_scooter", "lon": -77.05878366666667, "name": "0857b1d1a2be0c2a9b8bd40f5a8eb54c", "bike_id": "0857b1d1a2be0c2a9b8bd40f5a8eb54c", "fusion_lat": 0.0, "is_reserved": 0, "lat": 38.93630533333334, "fusion_lon": 0.0, "is_disabled": 0}, {"rental_uris": {"android": "https://dc.lft.to/lastmile_qr_scan", "ios": "https://dc.lft.to/lastmile_qr_scan"}, "type": "electric_scooter", "lon": -76.936721, "name": "96b2ad43f25412c0dfb7a634710d6317", "bike_id": "96b2ad43f25412c0dfb7a634710d6317", "fusion_lat": 0.0, "is_reserved": 0, "lat": 38.887516, "fusion_lon": 0.0, "is_disabled": 0}, {"rental_uris": {"android": "https://dc.lft.to/lastmile_qr_scan", "ios": "https://dc.lft.to/lastmile_qr_scan"}, "type": "electric_scooter", "lon": -77.04992116666666, "name": "df03510f0c303cf4c7f3a0d5ef679471", "bike_id": "df03510f0c303cf4c7f3a0d5ef679471", "fusion_lat": 0.0, "is_reserved": 0, "lat": 38.90517633333333, "fusion_lon": 0.0, "is_disabled": 0}, {"rental_uris": {"android": "https://dc.lft.to/lastmile_qr_scan", "ios": "https://dc.lft.to/lastmile_qr_scan"}, "type": "electric_scooter", "lon": -76.9650725, "name": "2890964f3a1cbb2ce489287f173424e6", "bike_id": "2890964f3a1cbb2ce489287f173424e6", "fusion_lat": 0.0, "is_reserved": 0, "lat": 38.8764715, "fusion_lon": 0.0, "is_disabled": 0}, {"rental_uris": {"android": "https://dc.lft.to/lastmile_qr_scan", "ios": "https://dc.lft.to/lastmile_qr_scan"}, "type": "electric_bike", "lon": -76.983277, "name": "d9bb3b448ece9ca47ccb9011642cf2e7", "bike_id": "d9bb3b448ece9ca47ccb9011642cf2e7", "fusion_lat": 0.0, "is_reserved": 0, "lat": 38.88989483333334, "fusion_lon": 0.0, "is_disabled": 0}, {"rental_uris": {"android": "https://dc.lft.to/lastmile_qr_scan", "ios": "https://dc.lft.to/lastmile_qr_scan"}, "type": "electric_scooter", "lon": -77.02925383333333, "name": "25bdb71c8648552fbc79fa89c56aa882", "bike_id": "25bdb71c8648552fbc79fa89c56aa882", "fusion_lat": 0.0, "is_reserved": 0, "lat": 38.911157333333335, "fusion_lon": 0.0, "is_disabled": 0}, {"rental_uris": {"android": "https://dc.lft.to/lastmile_qr_scan", "ios": "https://dc.lft.to/lastmile_qr_scan"}, "type": "electric_scooter", "lon": -77.01885333333334, "name": "f781a029be662f0fef1c2128b7a569d1", "bike_id": "f781a029be662f0fef1c2128b7a569d1", "fusion_lat": 0.0, "is_reserved": 0, "lat": 38.929405333333335, "fusion_lon": 0.0, "is_disabled": 0}, {"rental_uris": {"android": "https://dc.lft.to/lastmile_qr_scan", "ios": "https://dc.lft.to/lastmile_qr_scan"}, "type": "electric_scooter", "lon": -77.03648883333334, "name": "5114e976d6916346eec4b0a5b63cf205", "bike_id": "5114e976d6916346eec4b0a5b63cf205", "fusion_lat": 0.0, "is_reserved": 0, "lat": 38.91223016666667, "fusion_lon": 0.0, "is_disabled": 0}, {"rental_uris": {"android": "https://dc.lft.to/lastmile_qr_scan", "ios": "https://dc.lft.to/lastmile_qr_scan"}, "type": "electric_scooter", "lon": -77.00196783333334, "name": "4420eb1daca69b325d47ca5299f52629", "bike_id": "4420eb1daca69b325d47ca5299f52629", "fusion_lat": 0.0, "is_reserved": 0, "lat": 38.90236816666667, "fusion_lon": 0.0, "is_disabled": 0}, {"rental_uris": {"android": "https://dc.lft.to/lastmile_qr_scan", "ios": "https://dc.lft.to/lastmile_qr_scan"}, "type": "electric_bike", "lon": -77.01074483333333, "name": "da0a1159da0aecfd58e0c8812a0d50a7", "bike_id": "da0a1159da0aecfd58e0c8812a0d50a7", "fusion_lat": 0.0, "is_reserved": 0, "lat": 38.96262733333333, "fusion_lon": 0.0, "is_disabled": 0}, {"rental_uris": {"android": "https://dc.lft.to/lastmile_qr_scan", "ios": "https://dc.lft.to/lastmile_qr_scan"}, "type": "electric_bike", "lon": -76.9983625, "name": "95fb8c9d464829627d7dd6938252cb17", "bike_id": "95fb8c9d464829627d7dd6938252cb17", "fusion_lat": 0.0, "is_reserved": 0, "lat": 38.8391365, "fusion_lon": 0.0, "is_disabled": 0}, {"rental_uris": {"android": "https://dc.lft.to/lastmile_qr_scan", "ios": "https://dc.lft.to/lastmile_qr_scan"}, "type": "electric_scooter", "lon": -76.97767066666667, "name": "4ae5b653e0b0f0b19312d667d780ff09", "bike_id": "4ae5b653e0b0f0b19312d667d780ff09", "fusion_lat": 0.0, "is_reserved": 0, "lat": 38.870125, "fusion_lon": 0.0, "is_disabled": 0}, {"rental_uris": {"android": "https://dc.lft.to/lastmile_qr_scan", "ios": "https://dc.lft.to/lastmile_qr_scan"}, "type": "electric_bike", "lon": -77.02341033333333, "name": "01cdc2ce631aa139a64c98e09ae121c5", "bike_id": "01cdc2ce631aa139a64c98e09ae121c5", "fusion_lat": 0.0, "is_reserved": 0, "lat": 38.92975633333333, "fusion_lon": 0.0, "is_disabled": 0}, {"rental_uris": {"android": "https://dc.lft.to/lastmile_qr_scan", "ios": "https://dc.lft.to/lastmile_qr_scan"}, "type": "electric_scooter", "lon": -77.04349233333333, "name": "ed7698b9faacea9fbbdd3cfa3ea5bf23", "bike_id": "ed7698b9faacea9fbbdd3cfa3ea5bf23", "fusion_lat": 0.0, "is_reserved": 0, "lat": 38.92184616666667, "fusion_lon": 0.0, "is_disabled": 0}, {"rental_uris": {"android": "https://dc.lft.to/lastmile_qr_scan", "ios": "https://dc.lft.to/lastmile_qr_scan"}, "type": "electric_scooter", "lon": -77.01255433333333, "name": "cd20c5a1cce578f1ce3738f492a96f0c", "bike_id": "cd20c5a1cce578f1ce3738f492a96f0c", "fusion_lat": 0.0, "is_reserved": 0, "lat": 38.90848483333333, "fusion_lon": 0.0, "is_disabled": 0}, {"rental_uris": {"android": "https://dc.lft.to/lastmile_qr_scan", "ios": "https://dc.lft.to/lastmile_qr_scan"}, "type": "electric_scooter", "lon": -77.02251733333334, "name": "bc3d4be4309c10f9a125a1d38e689bb4", "bike_id": "bc3d4be4309c10f9a125a1d38e689bb4", "fusion_lat": 0.0, "is_reserved": 0, "lat": 38.91267716666667, "fusion_lon": 0.0, "is_disabled": 0}, {"rental_uris": {"android": "https://dc.lft.to/lastmile_qr_scan", "ios": "https://dc.lft.to/lastmile_qr_scan"}, "type": "electric_bike", "lon": -76.91598516666667, "name": "d540d2e736071676dc2374f7f1d049e8", "bike_id": "d540d2e736071676dc2374f7f1d049e8", "fusion_lat": 0.0, "is_reserved": 0, "lat": 38.879859, "fusion_lon": 0.0, "is_disabled": 0}, {"rental_uris": {"android": "https://dc.lft.to/lastmile_qr_scan", "ios": "https://dc.lft.to/lastmile_qr_scan"}, "type": "electric_bike", "lon": -77.0120525, "name": "2c7f32e699c3e2e733b6e615446fe2f5", "bike_id": "2c7f32e699c3e2e733b6e615446fe2f5", "fusion_lat": 0.0, "is_reserved": 0, "lat": 38.870994333333336, "fusion_lon": 0.0, "is_disabled": 0}, {"rental_uris": {"android": "https://dc.lft.to/lastmile_qr_scan", "ios": "https://dc.lft.to/lastmile_qr_scan"}, "type": "electric_scooter", "lon": -77.01945983333333, "name": "78174edd2b128b83da4b2a3c9c5e8553", "bike_id": "78174edd2b128b83da4b2a3c9c5e8553", "fusion_lat": 0.0, "is_reserved": 0, "lat": 38.90968816666667, "fusion_lon": 0.0, "is_disabled": 0}, {"rental_uris": {"android": "https://dc.lft.to/lastmile_qr_scan", "ios": "https://dc.lft.to/lastmile_qr_scan"}, "type": "electric_bike", "lon": -77.12815433333333, "name": "39c42f07397fb551160fc29e2c4d3903", "bike_id": "39c42f07397fb551160fc29e2c4d3903", "fusion_lat": 0.0, "is_reserved": 0, "lat": 38.86529733333333, "fusion_lon": 0.0, "is_disabled": 0}, {"rental_uris": {"android": "https://dc.lft.to/lastmile_qr_scan", "ios": "https://dc.lft.to/lastmile_qr_scan"}, "type": "electric_scooter", "lon": -76.99445183333333, "name": "d9875f4fd8bda4226e3d599d217fece0", "bike_id": "d9875f4fd8bda4226e3d599d217fece0", "fusion_lat": 0.0, "is_reserved": 0, "lat": 38.9050105, "fusion_lon": 0.0, "is_disabled": 0}, {"rental_uris": {"android": "https://dc.lft.to/lastmile_qr_scan", "ios": "https://dc.lft.to/lastmile_qr_scan"}, "type": "electric_scooter", "lon": -77.06387333333333, "name": "d3866f1bd93a34dd2d84ccb72853b992", "bike_id": "d3866f1bd93a34dd2d84ccb72853b992", "fusion_lat": 0.0, "is_reserved": 0, "lat": 38.92902133333333, "fusion_lon": 0.0, "is_disabled": 0}, {"rental_uris": {"android": "https://dc.lft.to/lastmile_qr_scan", "ios": "https://dc.lft.to/lastmile_qr_scan"}, "type": "electric_scooter", "lon": -76.987064, "name": "8494a78464afe88e98689699470d6c35", "bike_id": "8494a78464afe88e98689699470d6c35", "fusion_lat": 0.0, "is_reserved": 0, "lat": 38.865355, "fusion_lon": 0.0, "is_disabled": 0}, {"rental_uris": {"android": "https://dc.lft.to/lastmile_qr_scan", "ios": "https://dc.lft.to/lastmile_qr_scan"}, "type": "electric_scooter", "lon": -77.02214766666667, "name": "9fa96021a72461abb1339ba0a3f7b1d5", "bike_id": "9fa96021a72461abb1339ba0a3f7b1d5", "fusion_lat": 0.0, "is_reserved": 0, "lat": 38.905757, "fusion_lon": 0.0, "is_disabled": 0}, {"rental_uris": {"android": "https://dc.lft.to/lastmile_qr_scan", "ios": "https://dc.lft.to/lastmile_qr_scan"}, "type": "electric_scooter", "lon": -76.9472055, "name": "5965c510f13266abeef6c0f764dd8394", "bike_id": "5965c510f13266abeef6c0f764dd8394", "fusion_lat": 0.0, "is_reserved": 0, "lat": 38.89681916666667, "fusion_lon": 0.0, "is_disabled": 0}, {"rental_uris": {"android": "https://dc.lft.to/lastmile_qr_scan", "ios": "https://dc.lft.to/lastmile_qr_scan"}, "type": "electric_scooter", "lon": -77.04103866666667, "name": "feb36a38b4b275972a01c09bab2d833b", "bike_id": "feb36a38b4b275972a01c09bab2d833b", "fusion_lat": 0.0, "is_reserved": 0, "lat": 38.900188666666665, "fusion_lon": 0.0, "is_disabled": 0}, {"rental_uris": {"android": "https://dc.lft.to/lastmile_qr_scan", "ios": "https://dc.lft.to/lastmile_qr_scan"}, "type": "electric_scooter", "lon": -77.03284083333334, "name": "aa807e0cb5974b2f4c5125c05818619f", "bike_id": "aa807e0cb5974b2f4c5125c05818619f", "fusion_lat": 0.0, "is_reserved": 0, "lat": 38.92824183333333, "fusion_lon": 0.0, "is_disabled": 0}, {"rental_uris": {"android": "https://dc.lft.to/lastmile_qr_scan", "ios": "https://dc.lft.to/lastmile_qr_scan"}, "type": "electric_scooter", "lon": -77.050535, "name": "594952124ae4d5f050ae234a287aa451", "bike_id": "594952124ae4d5f050ae234a287aa451", "fusion_lat": 0.0, "is_reserved": 0, "lat": 38.923616, "fusion_lon": 0.0, "is_disabled": 0}, {"rental_uris": {"android": "https://dc.lft.to/lastmile_qr_scan", "ios": "https://dc.lft.to/lastmile_qr_scan"}, "type": "electric_scooter", "lon": -77.01210083333334, "name": "3edccae10b050924054af2d30af158d8", "bike_id": "3edccae10b050924054af2d30af158d8", "fusion_lat": 0.0, "is_reserved": 0, "lat": 38.893166, "fusion_lon": 0.0, "is_disabled": 0}, {"rental_uris": {"android": "https://dc.lft.to/lastmile_qr_scan", "ios": "https://dc.lft.to/lastmile_qr_scan"}, "type": "electric_scooter", "lon": -77.0225555, "name": "12c90a54c7833e1ef513348593c13416", "bike_id": "12c90a54c7833e1ef513348593c13416", "fusion_lat": 0.0, "is_reserved": 0, "lat": 38.92822433333333, "fusion_lon": 0.0, "is_disabled": 0}, {"rental_uris": {"android": "https://dc.lft.to/lastmile_qr_scan", "ios": "https://dc.lft.to/lastmile_qr_scan"}, "type": "electric_bike", "lon": -77.1298615, "name": "9c466ac3f20f913351bb1b84524ddcaa", "bike_id": "9c466ac3f20f913351bb1b84524ddcaa", "fusion_lat": 0.0, "is_reserved": 0, "lat": 38.79986316666667, "fusion_lon": 0.0, "is_disabled": 0}, {"rental_uris": {"android": "https://dc.lft.to/lastmile_qr_scan", "ios": "https://dc.lft.to/lastmile_qr_scan"}, "type": "electric_scooter", "lon": -76.97628616666667, "name": "780d3932bc95d2d21630a6ee383f9857", "bike_id": "780d3932bc95d2d21630a6ee383f9857", "fusion_lat": 0.0, "is_reserved": 0, "lat": 38.905715, "fusion_lon": 0.0, "is_disabled": 0}, {"rental_uris": {"android": "https://dc.lft.to/lastmile_qr_scan", "ios": "https://dc.lft.to/lastmile_qr_scan"}, "type": "electric_bike", "lon": -77.07049683333334, "name": "29588331305943380fb3d02bb527cecf", "bike_id": "29588331305943380fb3d02bb527cecf", "fusion_lat": 0.0, "is_reserved": 0, "lat": 38.82441566666667, "fusion_lon": 0.0, "is_disabled": 0}, {"rental_uris": {"android": "https://dc.lft.to/lastmile_qr_scan", "ios": "https://dc.lft.to/lastmile_qr_scan"}, "type": "electric_scooter", "lon": -76.99544366666666, "name": "4ef1286ee0ef925260dfbd44e91d2f48", "bike_id": "4ef1286ee0ef925260dfbd44e91d2f48", "fusion_lat": 0.0, "is_reserved": 0, "lat": 38.884201833333336, "fusion_lon": 0.0, "is_disabled": 0}, {"rental_uris": {"android": "https://dc.lft.to/lastmile_qr_scan", "ios": "https://dc.lft.to/lastmile_qr_scan"}, "type": "electric_scooter", "lon": -77.03646333333333, "name": "a87140a9614dd209edd1fa868de9f4dc", "bike_id": "a87140a9614dd209edd1fa868de9f4dc", "fusion_lat": 0.0, "is_reserved": 0, "lat": 38.902657833333336, "fusion_lon": 0.0, "is_disabled": 0}, {"rental_uris": {"android": "https://dc.lft.to/lastmile_qr_scan", "ios": "https://dc.lft.to/lastmile_qr_scan"}, "type": "electric_scooter", "lon": -77.03461116666666, "name": "0d0c5353b147ec34f66ef9944530b5d4", "bike_id": "0d0c5353b147ec34f66ef9944530b5d4", "fusion_lat": 0.0, "is_reserved": 0, "lat": 38.91468483333333, "fusion_lon": 0.0, "is_disabled": 0}, {"rental_uris": {"android": "https://dc.lft.to/lastmile_qr_scan", "ios": "https://dc.lft.to/lastmile_qr_scan"}, "type": "electric_scooter", "lon": -76.9885175, "name": "8c30e5f0050fa2fd97897e6637430a57", "bike_id": "8c30e5f0050fa2fd97897e6637430a57", "fusion_lat": 0.0, "is_reserved": 0, "lat": 38.900305, "fusion_lon": 0.0, "is_disabled": 0}, {"rental_uris": {"android": "https://dc.lft.to/lastmile_qr_scan", "ios": "https://dc.lft.to/lastmile_qr_scan"}, "type": "electric_scooter", "lon": -77.042134, "name": "5b5857f32fa0fc281993d475f9e934d8", "bike_id": "5b5857f32fa0fc281993d475f9e934d8", "fusion_lat": 0.0, "is_reserved": 0, "lat": 38.921258, "fusion_lon": 0.0, "is_disabled": 0}, {"rental_uris": {"android": "https://dc.lft.to/lastmile_qr_scan", "ios": "https://dc.lft.to/lastmile_qr_scan"}, "type": "electric_scooter", "lon": -77.04587716666667, "name": "d766151c944373ef407feb27a10970b9", "bike_id": "d766151c944373ef407feb27a10970b9", "fusion_lat": 0.0, "is_reserved": 0, "lat": 38.92136033333333, "fusion_lon": 0.0, "is_disabled": 0}, {"rental_uris": {"android": "https://dc.lft.to/lastmile_qr_scan", "ios": "https://dc.lft.to/lastmile_qr_scan"}, "type": "electric_bike", "lon": -77.09520733333333, "name": "7a78a53a413621c22742d1a7af3a59c9", "bike_id": "7a78a53a413621c22742d1a7af3a59c9", "fusion_lat": 0.0, "is_reserved": 0, "lat": 38.838105166666665, "fusion_lon": 0.0, "is_disabled": 0}, {"rental_uris": {"android": "https://dc.lft.to/lastmile_qr_scan", "ios": "https://dc.lft.to/lastmile_qr_scan"}, "type": "electric_scooter", "lon": -77.05467283333333, "name": "c22afd698e45856c32d176a4eac8852f", "bike_id": "c22afd698e45856c32d176a4eac8852f", "fusion_lat": 0.0, "is_reserved": 0, "lat": 38.928422166666664, "fusion_lon": 0.0, "is_disabled": 0}, {"rental_uris": {"android": "https://dc.lft.to/lastmile_qr_scan", "ios": "https://dc.lft.to/lastmile_qr_scan"}, "type": "electric_scooter", "lon": -77.02177716666667, "name": "8b45fc6c3b8fd3b4a33df76e1d32f6c0", "bike_id": "8b45fc6c3b8fd3b4a33df76e1d32f6c0", "fusion_lat": 0.0, "is_reserved": 0, "lat": 38.94310383333333, "fusion_lon": 0.0, "is_disabled": 0}, {"rental_uris": {"android": "https://dc.lft.to/lastmile_qr_scan", "ios": "https://dc.lft.to/lastmile_qr_scan"}, "type": "electric_scooter", "lon": -77.05457, "name": "5cae33b7ac2dba3be91053d5f78cbb2b", "bike_id": "5cae33b7ac2dba3be91053d5f78cbb2b", "fusion_lat": 0.0, "is_reserved": 0, "lat": 38.9284795, "fusion_lon": 0.0, "is_disabled": 0}, {"rental_uris": {"android": "https://dc.lft.to/lastmile_qr_scan", "ios": "https://dc.lft.to/lastmile_qr_scan"}, "type": "electric_scooter", "lon": -77.05286916666667, "name": "d65f537734a029732d4d8027b53ddb24", "bike_id": "d65f537734a029732d4d8027b53ddb24", "fusion_lat": 0.0, "is_reserved": 0, "lat": 38.91061966666667, "fusion_lon": 0.0, "is_disabled": 0}, {"rental_uris": {"android": "https://dc.lft.to/lastmile_qr_scan", "ios": "https://dc.lft.to/lastmile_qr_scan"}, "type": "electric_scooter", "lon": -77.06278183333333, "name": "16f6bb5d3aae934c49d3348c49b14165", "bike_id": "16f6bb5d3aae934c49d3348c49b14165", "fusion_lat": 0.0, "is_reserved": 0, "lat": 38.90617833333334, "fusion_lon": 0.0, "is_disabled": 0}, {"rental_uris": {"android": "https://dc.lft.to/lastmile_qr_scan", "ios": "https://dc.lft.to/lastmile_qr_scan"}, "type": "electric_scooter", "lon": -77.0384625, "name": "dd054b325c632d291243ee72718d9fe6", "bike_id": "dd054b325c632d291243ee72718d9fe6", "fusion_lat": 0.0, "is_reserved": 0, "lat": 38.91211783333333, "fusion_lon": 0.0, "is_disabled": 0}, {"rental_uris": {"android": "https://dc.lft.to/lastmile_qr_scan", "ios": "https://dc.lft.to/lastmile_qr_scan"}, "type": "electric_scooter", "lon": -77.0194975, "name": "54648c3df6f5872ad95134460f74b570", "bike_id": "54648c3df6f5872ad95134460f74b570", "fusion_lat": 0.0, "is_reserved": 0, "lat": 38.922452166666666, "fusion_lon": 0.0, "is_disabled": 0}, {"rental_uris": {"android": "https://dc.lft.to/lastmile_qr_scan", "ios": "https://dc.lft.to/lastmile_qr_scan"}, "type": "electric_scooter", "lon": -77.04161166666667, "name": "014b6236f295441ae32058c143036bdb", "bike_id": "014b6236f295441ae32058c143036bdb", "fusion_lat": 0.0, "is_reserved": 0, "lat": 38.892680166666665, "fusion_lon": 0.0, "is_disabled": 0}, {"rental_uris": {"android": "https://dc.lft.to/lastmile_qr_scan", "ios": "https://dc.lft.to/lastmile_qr_scan"}, "type": "electric_scooter", "lon": -77.02190666666667, "name": "350cf3fb43fca7414412a7aab1378585", "bike_id": "350cf3fb43fca7414412a7aab1378585", "fusion_lat": 0.0, "is_reserved": 0, "lat": 38.895002166666664, "fusion_lon": 0.0, "is_disabled": 0}, {"rental_uris": {"android": "https://dc.lft.to/lastmile_qr_scan", "ios": "https://dc.lft.to/lastmile_qr_scan"}, "type": "electric_scooter", "lon": -76.9859835, "name": "021250889d73c5ca2ecd8103256eeef8", "bike_id": "021250889d73c5ca2ecd8103256eeef8", "fusion_lat": 0.0, "is_reserved": 0, "lat": 38.90016116666666, "fusion_lon": 0.0, "is_disabled": 0}, {"rental_uris": {"android": "https://dc.lft.to/lastmile_qr_scan", "ios": "https://dc.lft.to/lastmile_qr_scan"}, "type": "electric_scooter", "lon": -77.0318435, "name": "9775c3bb8ce439f2a7a687cc079540ed", "bike_id": "9775c3bb8ce439f2a7a687cc079540ed", "fusion_lat": 0.0, "is_reserved": 0, "lat": 38.9210685, "fusion_lon": 0.0, "is_disabled": 0}, {"rental_uris": {"android": "https://dc.lft.to/lastmile_qr_scan", "ios": "https://dc.lft.to/lastmile_qr_scan"}, "type": "electric_scooter", "lon": -77.038594, "name": "15d563b60adccc9073ccdc57fe87bc9e", "bike_id": "15d563b60adccc9073ccdc57fe87bc9e", "fusion_lat": 0.0, "is_reserved": 0, "lat": 38.917183333333334, "fusion_lon": 0.0, "is_disabled": 0}, {"rental_uris": {"android": "https://dc.lft.to/lastmile_qr_scan", "ios": "https://dc.lft.to/lastmile_qr_scan"}, "type": "electric_scooter", "lon": -77.02686583333333, "name": "e5e5c71cc13b00071b96f092d2426dcd", "bike_id": "e5e5c71cc13b00071b96f092d2426dcd", "fusion_lat": 0.0, "is_reserved": 0, "lat": 38.909623833333335, "fusion_lon": 0.0, "is_disabled": 0}, {"rental_uris": {"android": "https://dc.lft.to/lastmile_qr_scan", "ios": "https://dc.lft.to/lastmile_qr_scan"}, "type": "electric_scooter", "lon": -77.04601383333333, "name": "3bdf0af818fcdde2a3cd7a136365f9ac", "bike_id": "3bdf0af818fcdde2a3cd7a136365f9ac", "fusion_lat": 0.0, "is_reserved": 0, "lat": 38.906787666666666, "fusion_lon": 0.0, "is_disabled": 0}, {"rental_uris": {"android": "https://dc.lft.to/lastmile_qr_scan", "ios": "https://dc.lft.to/lastmile_qr_scan"}, "type": "electric_scooter", "lon": -77.0241585, "name": "1874551e086680aed97ad812d8480162", "bike_id": "1874551e086680aed97ad812d8480162", "fusion_lat": 0.0, "is_reserved": 0, "lat": 38.9573235, "fusion_lon": 0.0, "is_disabled": 0}, {"rental_uris": {"android": "https://dc.lft.to/lastmile_qr_scan", "ios": "https://dc.lft.to/lastmile_qr_scan"}, "type": "electric_scooter", "lon": -77.02464633333334, "name": "8e1536b690497c4e7cc796f64e731f16", "bike_id": "8e1536b690497c4e7cc796f64e731f16", "fusion_lat": 0.0, "is_reserved": 0, "lat": 38.938558666666665, "fusion_lon": 0.0, "is_disabled": 0}, {"rental_uris": {"android": "https://dc.lft.to/lastmile_qr_scan", "ios": "https://dc.lft.to/lastmile_qr_scan"}, "type": "electric_scooter", "lon": -76.94824483333333, "name": "69f2df9ad81be0f54aa948221d0b1b91", "bike_id": "69f2df9ad81be0f54aa948221d0b1b91", "fusion_lat": 0.0, "is_reserved": 0, "lat": 38.885139333333335, "fusion_lon": 0.0, "is_disabled": 0}, {"rental_uris": {"android": "https://dc.lft.to/lastmile_qr_scan", "ios": "https://dc.lft.to/lastmile_qr_scan"}, "type": "electric_bike", "lon": -77.02879816666666, "name": "d7b634ffd2d7302c4afcbbbad5d9a0da", "bike_id": "d7b634ffd2d7302c4afcbbbad5d9a0da", "fusion_lat": 0.0, "is_reserved": 0, "lat": 38.9794425, "fusion_lon": 0.0, "is_disabled": 0}, {"rental_uris": {"android": "https://dc.lft.to/lastmile_qr_scan", "ios": "https://dc.lft.to/lastmile_qr_scan"}, "type": "electric_scooter", "lon": -77.0151525, "name": "bf5ee60459e32af7a7a4a74bcb3fbd72", "bike_id": "bf5ee60459e32af7a7a4a74bcb3fbd72", "fusion_lat": 0.0, "is_reserved": 0, "lat": 38.900443333333335, "fusion_lon": 0.0, "is_disabled": 0}, {"rental_uris": {"android": "https://dc.lft.to/lastmile_qr_scan", "ios": "https://dc.lft.to/lastmile_qr_scan"}, "type": "electric_scooter", "lon": -77.04340783333333, "name": "66a83a9fa1e2afe844c30bbde36b9f2c", "bike_id": "66a83a9fa1e2afe844c30bbde36b9f2c", "fusion_lat": 0.0, "is_reserved": 0, "lat": 38.9085835, "fusion_lon": 0.0, "is_disabled": 0}, {"rental_uris": {"android": "https://dc.lft.to/lastmile_qr_scan", "ios": "https://dc.lft.to/lastmile_qr_scan"}, "type": "electric_scooter", "lon": -76.999446, "name": "be95591355d68275bd57c963936d1155", "bike_id": "be95591355d68275bd57c963936d1155", "fusion_lat": 0.0, "is_reserved": 0, "lat": 38.843177833333336, "fusion_lon": 0.0, "is_disabled": 0}, {"rental_uris": {"android": "https://dc.lft.to/lastmile_qr_scan", "ios": "https://dc.lft.to/lastmile_qr_scan"}, "type": "electric_scooter", "lon": -77.01993933333334, "name": "14bc80b869cda5243a0b069e14a3d387", "bike_id": "14bc80b869cda5243a0b069e14a3d387", "fusion_lat": 0.0, "is_reserved": 0, "lat": 38.966375666666664, "fusion_lon": 0.0, "is_disabled": 0}, {"rental_uris": {"android": "https://dc.lft.to/lastmile_qr_scan", "ios": "https://dc.lft.to/lastmile_qr_scan"}, "type": "electric_scooter", "lon": -77.04653133333333, "name": "29ec991cf5f299a9a8b6fed72899f269", "bike_id": "29ec991cf5f299a9a8b6fed72899f269", "fusion_lat": 0.0, "is_reserved": 0, "lat": 38.90010066666667, "fusion_lon": 0.0, "is_disabled": 0}, {"rental_uris": {"android": "https://dc.lft.to/lastmile_qr_scan", "ios": "https://dc.lft.to/lastmile_qr_scan"}, "type": "electric_scooter", "lon": -76.99006783333333, "name": "80ddf0acf7b1fe75c0169fbc68e00c2d", "bike_id": "80ddf0acf7b1fe75c0169fbc68e00c2d", "fusion_lat": 0.0, "is_reserved": 0, "lat": 38.86506, "fusion_lon": 0.0, "is_disabled": 0}, {"rental_uris": {"android": "https://dc.lft.to/lastmile_qr_scan", "ios": "https://dc.lft.to/lastmile_qr_scan"}, "type": "electric_scooter", "lon": -77.0298135, "name": "d58076672012573b7dc74a944d1ec1e9", "bike_id": "d58076672012573b7dc74a944d1ec1e9", "fusion_lat": 0.0, "is_reserved": 0, "lat": 38.939822166666666, "fusion_lon": 0.0, "is_disabled": 0}, {"rental_uris": {"android": "https://dc.lft.to/lastmile_qr_scan", "ios": "https://dc.lft.to/lastmile_qr_scan"}, "type": "electric_scooter", "lon": -77.0450095, "name": "c0c9130cb9e832cd74e84bd15af93ac9", "bike_id": "c0c9130cb9e832cd74e84bd15af93ac9", "fusion_lat": 0.0, "is_reserved": 0, "lat": 38.91851483333333, "fusion_lon": 0.0, "is_disabled": 0}, {"rental_uris": {"android": "https://dc.lft.to/lastmile_qr_scan", "ios": "https://dc.lft.to/lastmile_qr_scan"}, "type": "electric_scooter", "lon": -77.0345715, "name": "a781f0e14ba2c069c406f4ff4b5c0804", "bike_id": "a781f0e14ba2c069c406f4ff4b5c0804", "fusion_lat": 0.0, "is_reserved": 0, "lat": 38.907283666666665, "fusion_lon": 0.0, "is_disabled": 0}, {"rental_uris": {"android": "https://dc.lft.to/lastmile_qr_scan", "ios": "https://dc.lft.to/lastmile_qr_scan"}, "type": "electric_scooter", "lon": -76.9937305, "name": "b51ce519cc6b771e441cd5f3944714f2", "bike_id": "b51ce519cc6b771e441cd5f3944714f2", "fusion_lat": 0.0, "is_reserved": 0, "lat": 38.92838783333333, "fusion_lon": 0.0, "is_disabled": 0}, {"rental_uris": {"android": "https://dc.lft.to/lastmile_qr_scan", "ios": "https://dc.lft.to/lastmile_qr_scan"}, "type": "electric_bike", "lon": -76.95805633333333, "name": "3e04380392bf104f6f30533b8617725e", "bike_id": "3e04380392bf104f6f30533b8617725e", "fusion_lat": 0.0, "is_reserved": 0, "lat": 38.9805145, "fusion_lon": 0.0, "is_disabled": 0}, {"rental_uris": {"android": "https://dc.lft.to/lastmile_qr_scan", "ios": "https://dc.lft.to/lastmile_qr_scan"}, "type": "electric_scooter", "lon": -76.99394483333333, "name": "ed079665ca31caed09a003f33c49fc8d", "bike_id": "ed079665ca31caed09a003f33c49fc8d", "fusion_lat": 0.0, "is_reserved": 0, "lat": 38.92272633333333, "fusion_lon": 0.0, "is_disabled": 0}, {"rental_uris": {"android": "https://dc.lft.to/lastmile_qr_scan", "ios": "https://dc.lft.to/lastmile_qr_scan"}, "type": "electric_scooter", "lon": -76.99072583333333, "name": "4723d729a965c988666d59daf203ad0c", "bike_id": "4723d729a965c988666d59daf203ad0c", "fusion_lat": 0.0, "is_reserved": 0, "lat": 38.860495, "fusion_lon": 0.0, "is_disabled": 0}, {"rental_uris": {"android": "https://dc.lft.to/lastmile_qr_scan", "ios": "https://dc.lft.to/lastmile_qr_scan"}, "type": "electric_scooter", "lon": -77.002834, "name": "81c5572828d937ebeae68ef785e83766", "bike_id": "81c5572828d937ebeae68ef785e83766", "fusion_lat": 0.0, "is_reserved": 0, "lat": 38.93918933333333, "fusion_lon": 0.0, "is_disabled": 0}, {"rental_uris": {"android": "https://dc.lft.to/lastmile_qr_scan", "ios": "https://dc.lft.to/lastmile_qr_scan"}, "type": "electric_scooter", "lon": -76.93740166666667, "name": "23cff18f815fe8e59310d56f2f18704e", "bike_id": "23cff18f815fe8e59310d56f2f18704e", "fusion_lat": 0.0, "is_reserved": 0, "lat": 38.890158166666666, "fusion_lon": 0.0, "is_disabled": 0}, {"rental_uris": {"android": "https://dc.lft.to/lastmile_qr_scan", "ios": "https://dc.lft.to/lastmile_qr_scan"}, "type": "electric_bike", "lon": -76.93186616666667, "name": "67e00ea7d7ad6d789ca6ef05622dc95e", "bike_id": "67e00ea7d7ad6d789ca6ef05622dc95e", "fusion_lat": 0.0, "is_reserved": 0, "lat": 38.898500166666665, "fusion_lon": 0.0, "is_disabled": 0}, {"rental_uris": {"android": "https://dc.lft.to/lastmile_qr_scan", "ios": "https://dc.lft.to/lastmile_qr_scan"}, "type": "electric_scooter", "lon": -76.97413016666667, "name": "366b05491fe4f7c2a747803484da18a6", "bike_id": "366b05491fe4f7c2a747803484da18a6", "fusion_lat": 0.0, "is_reserved": 0, "lat": 38.86555933333333, "fusion_lon": 0.0, "is_disabled": 0}, {"rental_uris": {"android": "https://dc.lft.to/lastmile_qr_scan", "ios": "https://dc.lft.to/lastmile_qr_scan"}, "type": "electric_scooter", "lon": -76.99084533333334, "name": "c8d2157e60d5ccfdc92be1003c96d8d8", "bike_id": "c8d2157e60d5ccfdc92be1003c96d8d8", "fusion_lat": 0.0, "is_reserved": 0, "lat": 38.90016133333334, "fusion_lon": 0.0, "is_disabled": 0}, {"rental_uris": {"android": "https://dc.lft.to/lastmile_qr_scan", "ios": "https://dc.lft.to/lastmile_qr_scan"}, "type": "electric_scooter", "lon": -77.03298, "name": "1f58ff3c75d7fc4765f2dd5b4d2d5e68", "bike_id": "1f58ff3c75d7fc4765f2dd5b4d2d5e68", "fusion_lat": 0.0, "is_reserved": 0, "lat": 38.908454166666665, "fusion_lon": 0.0, "is_disabled": 0}, {"rental_uris": {"android": "https://dc.lft.to/lastmile_qr_scan", "ios": "https://dc.lft.to/lastmile_qr_scan"}, "type": "electric_scooter", "lon": -77.03340833333333, "name": "dee253ca34d8fd4b452b2bd9bf87c5f1", "bike_id": "dee253ca34d8fd4b452b2bd9bf87c5f1", "fusion_lat": 0.0, "is_reserved": 0, "lat": 38.92054983333333, "fusion_lon": 0.0, "is_disabled": 0}, {"rental_uris": {"android": "https://dc.lft.to/lastmile_qr_scan", "ios": "https://dc.lft.to/lastmile_qr_scan"}, "type": "electric_scooter", "lon": -77.04233683333334, "name": "0c84c6c671540f725405fd34cbc5ce8b", "bike_id": "0c84c6c671540f725405fd34cbc5ce8b", "fusion_lat": 0.0, "is_reserved": 0, "lat": 38.917912, "fusion_lon": 0.0, "is_disabled": 0}, {"rental_uris": {"android": "https://dc.lft.to/lastmile_qr_scan", "ios": "https://dc.lft.to/lastmile_qr_scan"}, "type": "electric_scooter", "lon": -77.0418, "name": "9722121dc36c17999a5fe49d096fd2a8", "bike_id": "9722121dc36c17999a5fe49d096fd2a8", "fusion_lat": 0.0, "is_reserved": 0, "lat": 38.91977766666667, "fusion_lon": 0.0, "is_disabled": 0}, {"rental_uris": {"android": "https://dc.lft.to/lastmile_qr_scan", "ios": "https://dc.lft.to/lastmile_qr_scan"}, "type": "electric_scooter", "lon": -77.03878383333333, "name": "0ce5a454de15083dbddd34cb7e543b5e", "bike_id": "0ce5a454de15083dbddd34cb7e543b5e", "fusion_lat": 0.0, "is_reserved": 0, "lat": 38.91480333333333, "fusion_lon": 0.0, "is_disabled": 0}, {"rental_uris": {"android": "https://dc.lft.to/lastmile_qr_scan", "ios": "https://dc.lft.to/lastmile_qr_scan"}, "type": "electric_scooter", "lon": -76.99155583333334, "name": "bb273899b5fad50d4b803e2554c0d449", "bike_id": "bb273899b5fad50d4b803e2554c0d449", "fusion_lat": 0.0, "is_reserved": 0, "lat": 38.873142333333334, "fusion_lon": 0.0, "is_disabled": 0}, {"rental_uris": {"android": "https://dc.lft.to/lastmile_qr_scan", "ios": "https://dc.lft.to/lastmile_qr_scan"}, "type": "electric_scooter", "lon": -77.02726116666666, "name": "71ee7435acc49760391a503245b8ee33", "bike_id": "71ee7435acc49760391a503245b8ee33", "fusion_lat": 0.0, "is_reserved": 0, "lat": 38.934461, "fusion_lon": 0.0, "is_disabled": 0}, {"rental_uris": {"android": "https://dc.lft.to/lastmile_qr_scan", "ios": "https://dc.lft.to/lastmile_qr_scan"}, "type": "electric_scooter", "lon": -77.0121005, "name": "6ce956d0afef32be58b9b0b0fca31d50", "bike_id": "6ce956d0afef32be58b9b0b0fca31d50", "fusion_lat": 0.0, "is_reserved": 0, "lat": 38.91821316666667, "fusion_lon": 0.0, "is_disabled": 0}, {"rental_uris": {"android": "https://dc.lft.to/lastmile_qr_scan", "ios": "https://dc.lft.to/lastmile_qr_scan"}, "type": "electric_scooter", "lon": -77.03058216666666, "name": "7bbb3a13b4b47046a5131e211374f219", "bike_id": "7bbb3a13b4b47046a5131e211374f219", "fusion_lat": 0.0, "is_reserved": 0, "lat": 38.919261, "fusion_lon": 0.0, "is_disabled": 0}, {"rental_uris": {"android": "https://dc.lft.to/lastmile_qr_scan", "ios": "https://dc.lft.to/lastmile_qr_scan"}, "type": "electric_scooter", "lon": -77.08220866666667, "name": "bd05bef8b30eaaaa3ab2e0cea256c2bb", "bike_id": "bd05bef8b30eaaaa3ab2e0cea256c2bb", "fusion_lat": 0.0, "is_reserved": 0, "lat": 38.935543833333334, "fusion_lon": 0.0, "is_disabled": 0}, {"rental_uris": {"android": "https://dc.lft.to/lastmile_qr_scan", "ios": "https://dc.lft.to/lastmile_qr_scan"}, "type": "electric_scooter", "lon": -77.00339266666667, "name": "7969c0df498f8b1399d192c34c91d03d", "bike_id": "7969c0df498f8b1399d192c34c91d03d", "fusion_lat": 0.0, "is_reserved": 0, "lat": 38.91346716666666, "fusion_lon": 0.0, "is_disabled": 0}, {"rental_uris": {"android": "https://dc.lft.to/lastmile_qr_scan", "ios": "https://dc.lft.to/lastmile_qr_scan"}, "type": "electric_scooter", "lon": -76.94840433333333, "name": "af395d87205fc631491d9fd3c61b43ef", "bike_id": "af395d87205fc631491d9fd3c61b43ef", "fusion_lat": 0.0, "is_reserved": 0, "lat": 38.89484816666667, "fusion_lon": 0.0, "is_disabled": 0}, {"rental_uris": {"android": "https://dc.lft.to/lastmile_qr_scan", "ios": "https://dc.lft.to/lastmile_qr_scan"}, "type": "electric_scooter", "lon": -76.992156, "name": "7dfefe3d805b01fd91f48e80a92f929c", "bike_id": "7dfefe3d805b01fd91f48e80a92f929c", "fusion_lat": 0.0, "is_reserved": 0, "lat": 38.904708, "fusion_lon": 0.0, "is_disabled": 0}, {"rental_uris": {"android": "https://dc.lft.to/lastmile_qr_scan", "ios": "https://dc.lft.to/lastmile_qr_scan"}, "type": "electric_scooter", "lon": -76.99470666666667, "name": "861b2097def13c38bf97a8ea1a503494", "bike_id": "861b2097def13c38bf97a8ea1a503494", "fusion_lat": 0.0, "is_reserved": 0, "lat": 38.89616433333333, "fusion_lon": 0.0, "is_disabled": 0}, {"rental_uris": {"android": "https://dc.lft.to/lastmile_qr_scan", "ios": "https://dc.lft.to/lastmile_qr_scan"}, "type": "electric_scooter", "lon": -77.06151516666667, "name": "652e9f58d2579a0b835ef15c5dad3c74", "bike_id": "652e9f58d2579a0b835ef15c5dad3c74", "fusion_lat": 0.0, "is_reserved": 0, "lat": 38.910552333333335, "fusion_lon": 0.0, "is_disabled": 0}, {"rental_uris": {"android": "https://dc.lft.to/lastmile_qr_scan", "ios": "https://dc.lft.to/lastmile_qr_scan"}, "type": "electric_scooter", "lon": -76.98416533333334, "name": "1d931f3c7637411191615721b3a4e0d7", "bike_id": "1d931f3c7637411191615721b3a4e0d7", "fusion_lat": 0.0, "is_reserved": 0, "lat": 38.913917833333336, "fusion_lon": 0.0, "is_disabled": 0}, {"rental_uris": {"android": "https://dc.lft.to/lastmile_qr_scan", "ios": "https://dc.lft.to/lastmile_qr_scan"}, "type": "electric_scooter", "lon": -77.0410025, "name": "0c70637427ba5fb9bc60ae445d7d5282", "bike_id": "0c70637427ba5fb9bc60ae445d7d5282", "fusion_lat": 0.0, "is_reserved": 0, "lat": 38.91775783333333, "fusion_lon": 0.0, "is_disabled": 0}, {"rental_uris": {"android": "https://dc.lft.to/lastmile_qr_scan", "ios": "https://dc.lft.to/lastmile_qr_scan"}, "type": "electric_scooter", "lon": -76.93839733333333, "name": "1bb577eb5b37a4686ae4ed56827b4354", "bike_id": "1bb577eb5b37a4686ae4ed56827b4354", "fusion_lat": 0.0, "is_reserved": 0, "lat": 38.89756366666667, "fusion_lon": 0.0, "is_disabled": 0}, {"rental_uris": {"android": "https://dc.lft.to/lastmile_qr_scan", "ios": "https://dc.lft.to/lastmile_qr_scan"}, "type": "electric_scooter", "lon": -77.00921533333333, "name": "28d31bf1a595025156e63116a27d8462", "bike_id": "28d31bf1a595025156e63116a27d8462", "fusion_lat": 0.0, "is_reserved": 0, "lat": 38.9105235, "fusion_lon": 0.0, "is_disabled": 0}, {"rental_uris": {"android": "https://dc.lft.to/lastmile_qr_scan", "ios": "https://dc.lft.to/lastmile_qr_scan"}, "type": "electric_scooter", "lon": -77.01953266666666, "name": "8137a6baf6f6805c8813fece7c1b24ee", "bike_id": "8137a6baf6f6805c8813fece7c1b24ee", "fusion_lat": 0.0, "is_reserved": 0, "lat": 38.947503, "fusion_lon": 0.0, "is_disabled": 0}, {"rental_uris": {"android": "https://dc.lft.to/lastmile_qr_scan", "ios": "https://dc.lft.to/lastmile_qr_scan"}, "type": "electric_scooter", "lon": -77.03281483333333, "name": "d3a3b80d4ee4ed35483059b460537aa3", "bike_id": "d3a3b80d4ee4ed35483059b460537aa3", "fusion_lat": 0.0, "is_reserved": 0, "lat": 38.93983466666667, "fusion_lon": 0.0, "is_disabled": 0}, {"rental_uris": {"android": "https://dc.lft.to/lastmile_qr_scan", "ios": "https://dc.lft.to/lastmile_qr_scan"}, "type": "electric_scooter", "lon": -77.02802516666667, "name": "df13aef614bc21e3e8cb7339f31df047", "bike_id": "df13aef614bc21e3e8cb7339f31df047", "fusion_lat": 0.0, "is_reserved": 0, "lat": 38.9612995, "fusion_lon": 0.0, "is_disabled": 0}, {"rental_uris": {"android": "https://dc.lft.to/lastmile_qr_scan", "ios": "https://dc.lft.to/lastmile_qr_scan"}, "type": "electric_scooter", "lon": -76.9901155, "name": "f11b0f7cb836a454bed26e9c9b48066d", "bike_id": "f11b0f7cb836a454bed26e9c9b48066d", "fusion_lat": 0.0, "is_reserved": 0, "lat": 38.903963, "fusion_lon": 0.0, "is_disabled": 0}, {"rental_uris": {"android": "https://dc.lft.to/lastmile_qr_scan", "ios": "https://dc.lft.to/lastmile_qr_scan"}, "type": "electric_scooter", "lon": -76.9949265, "name": "df2be1d9188d7f205ce4644e353165fa", "bike_id": "df2be1d9188d7f205ce4644e353165fa", "fusion_lat": 0.0, "is_reserved": 0, "lat": 38.862424833333336, "fusion_lon": 0.0, "is_disabled": 0}, {"rental_uris": {"android": "https://dc.lft.to/lastmile_qr_scan", "ios": "https://dc.lft.to/lastmile_qr_scan"}, "type": "electric_scooter", "lon": -77.029628, "name": "348d9246b26e62c97e35ba43db62e5f3", "bike_id": "348d9246b26e62c97e35ba43db62e5f3", "fusion_lat": 0.0, "is_reserved": 0, "lat": 38.921480833333334, "fusion_lon": 0.0, "is_disabled": 0}, {"rental_uris": {"android": "https://dc.lft.to/lastmile_qr_scan", "ios": "https://dc.lft.to/lastmile_qr_scan"}, "type": "electric_scooter", "lon": -77.0327355, "name": "8fb61f79c73a5f56d4b4d4acbe6b9280", "bike_id": "8fb61f79c73a5f56d4b4d4acbe6b9280", "fusion_lat": 0.0, "is_reserved": 0, "lat": 38.9103695, "fusion_lon": 0.0, "is_disabled": 0}, {"rental_uris": {"android": "https://dc.lft.to/lastmile_qr_scan", "ios": "https://dc.lft.to/lastmile_qr_scan"}, "type": "electric_scooter", "lon": -76.9869355, "name": "66addda7657350266c2ca1b262032864", "bike_id": "66addda7657350266c2ca1b262032864", "fusion_lat": 0.0, "is_reserved": 0, "lat": 38.882114333333334, "fusion_lon": 0.0, "is_disabled": 0}, {"rental_uris": {"android": "https://dc.lft.to/lastmile_qr_scan", "ios": "https://dc.lft.to/lastmile_qr_scan"}, "type": "electric_scooter", "lon": -77.04819666666667, "name": "b21018f74f6cfce51da8a3326b901fa4", "bike_id": "b21018f74f6cfce51da8a3326b901fa4", "fusion_lat": 0.0, "is_reserved": 0, "lat": 38.9148825, "fusion_lon": 0.0, "is_disabled": 0}, {"rental_uris": {"android": "https://dc.lft.to/lastmile_qr_scan", "ios": "https://dc.lft.to/lastmile_qr_scan"}, "type": "electric_scooter", "lon": -77.0067035, "name": "691d219cedf081b2880dd98a3b41464a", "bike_id": "691d219cedf081b2880dd98a3b41464a", "fusion_lat": 0.0, "is_reserved": 0, "lat": 38.9499565, "fusion_lon": 0.0, "is_disabled": 0}, {"rental_uris": {"android": "https://dc.lft.to/lastmile_qr_scan", "ios": "https://dc.lft.to/lastmile_qr_scan"}, "type": "electric_scooter", "lon": -77.018076, "name": "8f9cce4c4ce36f7363e9889592560ea8", "bike_id": "8f9cce4c4ce36f7363e9889592560ea8", "fusion_lat": 0.0, "is_reserved": 0, "lat": 38.921654833333335, "fusion_lon": 0.0, "is_disabled": 0}, {"rental_uris": {"android": "https://dc.lft.to/lastmile_qr_scan", "ios": "https://dc.lft.to/lastmile_qr_scan"}, "type": "electric_bike", "lon": -77.09566283333334, "name": "86cadb50d9b5dd3225580c347ad2df74", "bike_id": "86cadb50d9b5dd3225580c347ad2df74", "fusion_lat": 0.0, "is_reserved": 0, "lat": 38.91702216666667, "fusion_lon": 0.0, "is_disabled": 0}, {"rental_uris": {"android": "https://dc.lft.to/lastmile_qr_scan", "ios": "https://dc.lft.to/lastmile_qr_scan"}, "type": "electric_scooter", "lon": -77.039427, "name": "40d24b78ff9e708a8e3ca7be6fc3f762", "bike_id": "40d24b78ff9e708a8e3ca7be6fc3f762", "fusion_lat": 0.0, "is_reserved": 0, "lat": 38.9010915, "fusion_lon": 0.0, "is_disabled": 0}, {"rental_uris": {"android": "https://dc.lft.to/lastmile_qr_scan", "ios": "https://dc.lft.to/lastmile_qr_scan"}, "type": "electric_scooter", "lon": -76.98716266666666, "name": "4b4cc80feab4b1f9c12a5b80c3d1ff46", "bike_id": "4b4cc80feab4b1f9c12a5b80c3d1ff46", "fusion_lat": 0.0, "is_reserved": 0, "lat": 38.867001333333334, "fusion_lon": 0.0, "is_disabled": 0}, {"rental_uris": {"android": "https://dc.lft.to/lastmile_qr_scan", "ios": "https://dc.lft.to/lastmile_qr_scan"}, "type": "electric_scooter", "lon": -76.9985815, "name": "9853112fa09837e03e03c174c0a5bdb0", "bike_id": "9853112fa09837e03e03c174c0a5bdb0", "fusion_lat": 0.0, "is_reserved": 0, "lat": 38.900287666666664, "fusion_lon": 0.0, "is_disabled": 0}, {"rental_uris": {"android": "https://dc.lft.to/lastmile_qr_scan", "ios": "https://dc.lft.to/lastmile_qr_scan"}, "type": "electric_scooter", "lon": -77.04332783333334, "name": "66adb6f1912da82549db793810b88f99", "bike_id": "66adb6f1912da82549db793810b88f99", "fusion_lat": 0.0, "is_reserved": 0, "lat": 38.905068, "fusion_lon": 0.0, "is_disabled": 0}, {"rental_uris": {"android": "https://dc.lft.to/lastmile_qr_scan", "ios": "https://dc.lft.to/lastmile_qr_scan"}, "type": "electric_scooter", "lon": -76.99263183333333, "name": "7a87676ea0bc088d4a823e50cf50840f", "bike_id": "7a87676ea0bc088d4a823e50cf50840f", "fusion_lat": 0.0, "is_reserved": 0, "lat": 38.892864, "fusion_lon": 0.0, "is_disabled": 0}, {"rental_uris": {"android": "https://dc.lft.to/lastmile_qr_scan", "ios": "https://dc.lft.to/lastmile_qr_scan"}, "type": "electric_scooter", "lon": -77.0326035, "name": "536378609bac63383a8872baad2985d2", "bike_id": "536378609bac63383a8872baad2985d2", "fusion_lat": 0.0, "is_reserved": 0, "lat": 38.93524466666667, "fusion_lon": 0.0, "is_disabled": 0}, {"rental_uris": {"android": "https://dc.lft.to/lastmile_qr_scan", "ios": "https://dc.lft.to/lastmile_qr_scan"}, "type": "electric_scooter", "lon": -77.0450415, "name": "7c39fa2baca170edca45d12247fdfd77", "bike_id": "7c39fa2baca170edca45d12247fdfd77", "fusion_lat": 0.0, "is_reserved": 0, "lat": 38.89218966666667, "fusion_lon": 0.0, "is_disabled": 0}, {"rental_uris": {"android": "https://dc.lft.to/lastmile_qr_scan", "ios": "https://dc.lft.to/lastmile_qr_scan"}, "type": "electric_scooter", "lon": -77.0016695, "name": "da6d1a6c6cc7ba7ecfd3d7a787a4b5b5", "bike_id": "da6d1a6c6cc7ba7ecfd3d7a787a4b5b5", "fusion_lat": 0.0, "is_reserved": 0, "lat": 38.90514016666667, "fusion_lon": 0.0, "is_disabled": 0}, {"rental_uris": {"android": "https://dc.lft.to/lastmile_qr_scan", "ios": "https://dc.lft.to/lastmile_qr_scan"}, "type": "electric_scooter", "lon": -77.07161666666667, "name": "e07f42175874988cf0d783cd24085400", "bike_id": "e07f42175874988cf0d783cd24085400", "fusion_lat": 0.0, "is_reserved": 0, "lat": 38.95831733333333, "fusion_lon": 0.0, "is_disabled": 0}, {"rental_uris": {"android": "https://dc.lft.to/lastmile_qr_scan", "ios": "https://dc.lft.to/lastmile_qr_scan"}, "type": "electric_bike", "lon": -77.12500316666667, "name": "33c1eb090317ac0aa3babda410ef0d0a", "bike_id": "33c1eb090317ac0aa3babda410ef0d0a", "fusion_lat": 0.0, "is_reserved": 0, "lat": 39.024264, "fusion_lon": 0.0, "is_disabled": 0}, {"rental_uris": {"android": "https://dc.lft.to/lastmile_qr_scan", "ios": "https://dc.lft.to/lastmile_qr_scan"}, "type": "electric_bike", "lon": -76.995712, "name": "e3d1560abca740e9151e550191db01e8", "bike_id": "e3d1560abca740e9151e550191db01e8", "fusion_lat": 0.0, "is_reserved": 0, "lat": 39.0078295, "fusion_lon": 0.0, "is_disabled": 0}, {"rental_uris": {"android": "https://dc.lft.to/lastmile_qr_scan", "ios": "https://dc.lft.to/lastmile_qr_scan"}, "type": "electric_scooter", "lon": -77.0049555, "name": "6fc7231b6e1e585a9dc22fdddd89b5b4", "bike_id": "6fc7231b6e1e585a9dc22fdddd89b5b4", "fusion_lat": 0.0, "is_reserved": 0, "lat": 38.89675283333333, "fusion_lon": 0.0, "is_disabled": 0}, {"rental_uris": {"android": "https://dc.lft.to/lastmile_qr_scan", "ios": "https://dc.lft.to/lastmile_qr_scan"}, "type": "electric_scooter", "lon": -77.03288966666666, "name": "f2e0d37bf0f4ae3ccf397f48f7d9c5c5", "bike_id": "f2e0d37bf0f4ae3ccf397f48f7d9c5c5", "fusion_lat": 0.0, "is_reserved": 0, "lat": 38.9564825, "fusion_lon": 0.0, "is_disabled": 0}, {"rental_uris": {"android": "https://dc.lft.to/lastmile_qr_scan", "ios": "https://dc.lft.to/lastmile_qr_scan"}, "type": "electric_scooter", "lon": -77.04121766666667, "name": "ec61738b49a58aaef8b96115a9325054", "bike_id": "ec61738b49a58aaef8b96115a9325054", "fusion_lat": 0.0, "is_reserved": 0, "lat": 38.925213, "fusion_lon": 0.0, "is_disabled": 0}, {"rental_uris": {"android": "https://dc.lft.to/lastmile_qr_scan", "ios": "https://dc.lft.to/lastmile_qr_scan"}, "type": "electric_scooter", "lon": -77.0228495, "name": "9d965901004488fd6efd44cd8678cf78", "bike_id": "9d965901004488fd6efd44cd8678cf78", "fusion_lat": 0.0, "is_reserved": 0, "lat": 38.926852, "fusion_lon": 0.0, "is_disabled": 0}, {"rental_uris": {"android": "https://dc.lft.to/lastmile_qr_scan", "ios": "https://dc.lft.to/lastmile_qr_scan"}, "type": "electric_scooter", "lon": -76.9962185, "name": "ba87180dd50e50395650017b628cf5b6", "bike_id": "ba87180dd50e50395650017b628cf5b6", "fusion_lat": 0.0, "is_reserved": 0, "lat": 38.88033266666667, "fusion_lon": 0.0, "is_disabled": 0}, {"rental_uris": {"android": "https://dc.lft.to/lastmile_qr_scan", "ios": "https://dc.lft.to/lastmile_qr_scan"}, "type": "electric_scooter", "lon": -76.99096, "name": "c5c1491828e69134b529ad7b538f360c", "bike_id": "c5c1491828e69134b529ad7b538f360c", "fusion_lat": 0.0, "is_reserved": 0, "lat": 38.92950966666667, "fusion_lon": 0.0, "is_disabled": 0}, {"rental_uris": {"android": "https://dc.lft.to/lastmile_qr_scan", "ios": "https://dc.lft.to/lastmile_qr_scan"}, "type": "electric_scooter", "lon": -77.018191, "name": "63d912099e96863344c36531324d6df8", "bike_id": "63d912099e96863344c36531324d6df8", "fusion_lat": 0.0, "is_reserved": 0, "lat": 38.90389166666667, "fusion_lon": 0.0, "is_disabled": 0}, {"rental_uris": {"android": "https://dc.lft.to/lastmile_qr_scan", "ios": "https://dc.lft.to/lastmile_qr_scan"}, "type": "electric_scooter", "lon": -77.03870533333334, "name": "63cfd87d8f703712bbdc8726f6b77e50", "bike_id": "63cfd87d8f703712bbdc8726f6b77e50", "fusion_lat": 0.0, "is_reserved": 0, "lat": 38.912678, "fusion_lon": 0.0, "is_disabled": 0}, {"rental_uris": {"android": "https://dc.lft.to/lastmile_qr_scan", "ios": "https://dc.lft.to/lastmile_qr_scan"}, "type": "electric_scooter", "lon": -76.9894285, "name": "5be94d98faadaa94d1b22aea0dce17b6", "bike_id": "5be94d98faadaa94d1b22aea0dce17b6", "fusion_lat": 0.0, "is_reserved": 0, "lat": 38.86593283333333, "fusion_lon": 0.0, "is_disabled": 0}, {"rental_uris": {"android": "https://dc.lft.to/lastmile_qr_scan", "ios": "https://dc.lft.to/lastmile_qr_scan"}, "type": "electric_scooter", "lon": -76.99505333333333, "name": "3e7f6b1010eff3f26f4a584380bfbaa6", "bike_id": "3e7f6b1010eff3f26f4a584380bfbaa6", "fusion_lat": 0.0, "is_reserved": 0, "lat": 38.844651166666665, "fusion_lon": 0.0, "is_disabled": 0}, {"rental_uris": {"android": "https://dc.lft.to/lastmile_qr_scan", "ios": "https://dc.lft.to/lastmile_qr_scan"}, "type": "electric_scooter", "lon": -77.02392733333333, "name": "fbb4e084aa8178268bff6a51a8ca624d", "bike_id": "fbb4e084aa8178268bff6a51a8ca624d", "fusion_lat": 0.0, "is_reserved": 0, "lat": 38.920798, "fusion_lon": 0.0, "is_disabled": 0}, {"rental_uris": {"android": "https://dc.lft.to/lastmile_qr_scan", "ios": "https://dc.lft.to/lastmile_qr_scan"}, "type": "electric_scooter", "lon": -77.00598, "name": "24c627069ddc45dcc21c72d4b79f9593", "bike_id": "24c627069ddc45dcc21c72d4b79f9593", "fusion_lat": 0.0, "is_reserved": 0, "lat": 38.90566483333333, "fusion_lon": 0.0, "is_disabled": 0}, {"rental_uris": {"android": "https://dc.lft.to/lastmile_qr_scan", "ios": "https://dc.lft.to/lastmile_qr_scan"}, "type": "electric_scooter", "lon": -77.0187955, "name": "2b1b59cfb3f5eb8be26d6d78e24a7bdf", "bike_id": "2b1b59cfb3f5eb8be26d6d78e24a7bdf", "fusion_lat": 0.0, "is_reserved": 0, "lat": 38.9176575, "fusion_lon": 0.0, "is_disabled": 0}, {"rental_uris": {"android": "https://dc.lft.to/lastmile_qr_scan", "ios": "https://dc.lft.to/lastmile_qr_scan"}, "type": "electric_bike", "lon": -77.03983416666667, "name": "8b02469a71b555c4bb253972b29b3772", "bike_id": "8b02469a71b555c4bb253972b29b3772", "fusion_lat": 0.0, "is_reserved": 0, "lat": 38.803069666666666, "fusion_lon": 0.0, "is_disabled": 0}, {"rental_uris": {"android": "https://dc.lft.to/lastmile_qr_scan", "ios": "https://dc.lft.to/lastmile_qr_scan"}, "type": "electric_scooter", "lon": -77.03652466666666, "name": "fb8ecb39051a7b9f5ef0b24bba2eb67a", "bike_id": "fb8ecb39051a7b9f5ef0b24bba2eb67a", "fusion_lat": 0.0, "is_reserved": 0, "lat": 38.92241966666667, "fusion_lon": 0.0, "is_disabled": 0}, {"rental_uris": {"android": "https://dc.lft.to/lastmile_qr_scan", "ios": "https://dc.lft.to/lastmile_qr_scan"}, "type": "electric_scooter", "lon": -77.033172, "name": "be323b0bd1c2285a1721edb29ab4142d", "bike_id": "be323b0bd1c2285a1721edb29ab4142d", "fusion_lat": 0.0, "is_reserved": 0, "lat": 38.892322, "fusion_lon": 0.0, "is_disabled": 0}, {"rental_uris": {"android": "https://dc.lft.to/lastmile_qr_scan", "ios": "https://dc.lft.to/lastmile_qr_scan"}, "type": "electric_scooter", "lon": -77.00380433333333, "name": "8e0dd549b3a36e881649afb4b0dcb788", "bike_id": "8e0dd549b3a36e881649afb4b0dcb788", "fusion_lat": 0.0, "is_reserved": 0, "lat": 38.90609716666667, "fusion_lon": 0.0, "is_disabled": 0}, {"rental_uris": {"android": "https://dc.lft.to/lastmile_qr_scan", "ios": "https://dc.lft.to/lastmile_qr_scan"}, "type": "electric_bike", "lon": -77.10182316666666, "name": "61647933211d89a900edd041b4b08774", "bike_id": "61647933211d89a900edd041b4b08774", "fusion_lat": 0.0, "is_reserved": 0, "lat": 38.91807133333333, "fusion_lon": 0.0, "is_disabled": 0}, {"rental_uris": {"android": "https://dc.lft.to/lastmile_qr_scan", "ios": "https://dc.lft.to/lastmile_qr_scan"}, "type": "electric_scooter", "lon": -77.03749666666667, "name": "f1fda2dc7243ed96edcad4deeb306b28", "bike_id": "f1fda2dc7243ed96edcad4deeb306b28", "fusion_lat": 0.0, "is_reserved": 0, "lat": 38.92928716666667, "fusion_lon": 0.0, "is_disabled": 0}, {"rental_uris": {"android": "https://dc.lft.to/lastmile_qr_scan", "ios": "https://dc.lft.to/lastmile_qr_scan"}, "type": "electric_scooter", "lon": -77.030755, "name": "59af9c08be51afbea37bbb68f2b9ba55", "bike_id": "59af9c08be51afbea37bbb68f2b9ba55", "fusion_lat": 0.0, "is_reserved": 0, "lat": 38.9238375, "fusion_lon": 0.0, "is_disabled": 0}, {"rental_uris": {"android": "https://dc.lft.to/lastmile_qr_scan", "ios": "https://dc.lft.to/lastmile_qr_scan"}, "type": "electric_bike", "lon": -76.98328766666667, "name": "a4c2102879e8ad98bf0a29c8b7d4ec98", "bike_id": "a4c2102879e8ad98bf0a29c8b7d4ec98", "fusion_lat": 0.0, "is_reserved": 0, "lat": 38.966010833333335, "fusion_lon": 0.0, "is_disabled": 0}, {"rental_uris": {"android": "https://dc.lft.to/lastmile_qr_scan", "ios": "https://dc.lft.to/lastmile_qr_scan"}, "type": "electric_scooter", "lon": -77.02794, "name": "8e33ae362e29743c8859e42634448ca8", "bike_id": "8e33ae362e29743c8859e42634448ca8", "fusion_lat": 0.0, "is_reserved": 0, "lat": 38.93082366666667, "fusion_lon": 0.0, "is_disabled": 0}, {"rental_uris": {"android": "https://dc.lft.to/lastmile_qr_scan", "ios": "https://dc.lft.to/lastmile_qr_scan"}, "type": "electric_scooter", "lon": -77.02203283333333, "name": "0fba187bb85548c7ba226e3b1ef048c8", "bike_id": "0fba187bb85548c7ba226e3b1ef048c8", "fusion_lat": 0.0, "is_reserved": 0, "lat": 38.8871725, "fusion_lon": 0.0, "is_disabled": 0}, {"rental_uris": {"android": "https://dc.lft.to/lastmile_qr_scan", "ios": "https://dc.lft.to/lastmile_qr_scan"}, "type": "electric_scooter", "lon": -77.041595, "name": "027dfcc570f5651e420db47f869ddf2c", "bike_id": "027dfcc570f5651e420db47f869ddf2c", "fusion_lat": 0.0, "is_reserved": 0, "lat": 38.91081366666667, "fusion_lon": 0.0, "is_disabled": 0}, {"rental_uris": {"android": "https://dc.lft.to/lastmile_qr_scan", "ios": "https://dc.lft.to/lastmile_qr_scan"}, "type": "electric_bike", "lon": -76.98120216666666, "name": "84a8a336bf41f14c7a5aee25cf79fed6", "bike_id": "84a8a336bf41f14c7a5aee25cf79fed6", "fusion_lat": 0.0, "is_reserved": 0, "lat": 38.896664, "fusion_lon": 0.0, "is_disabled": 0}, {"rental_uris": {"android": "https://dc.lft.to/lastmile_qr_scan", "ios": "https://dc.lft.to/lastmile_qr_scan"}, "type": "electric_scooter", "lon": -77.0061925, "name": "85c233b16dcc8dd0cfae3ff6b92309ce", "bike_id": "85c233b16dcc8dd0cfae3ff6b92309ce", "fusion_lat": 0.0, "is_reserved": 0, "lat": 38.885076, "fusion_lon": 0.0, "is_disabled": 0}, {"rental_uris": {"android": "https://dc.lft.to/lastmile_qr_scan", "ios": "https://dc.lft.to/lastmile_qr_scan"}, "type": "electric_bike", "lon": -77.11220683333333, "name": "92e9c50cacdabeff52681a1ea80e9ec1", "bike_id": "92e9c50cacdabeff52681a1ea80e9ec1", "fusion_lat": 0.0, "is_reserved": 0, "lat": 38.812195833333334, "fusion_lon": 0.0, "is_disabled": 0}, {"rental_uris": {"android": "https://dc.lft.to/lastmile_qr_scan", "ios": "https://dc.lft.to/lastmile_qr_scan"}, "type": "electric_scooter", "lon": -77.03240516666666, "name": "71532caad37305289540757c8dc752ce", "bike_id": "71532caad37305289540757c8dc752ce", "fusion_lat": 0.0, "is_reserved": 0, "lat": 38.9054565, "fusion_lon": 0.0, "is_disabled": 0}, {"rental_uris": {"android": "https://dc.lft.to/lastmile_qr_scan", "ios": "https://dc.lft.to/lastmile_qr_scan"}, "type": "electric_scooter", "lon": -77.03281216666667, "name": "febaf4099245b2d630a7c9c9dbb7ef9c", "bike_id": "febaf4099245b2d630a7c9c9dbb7ef9c", "fusion_lat": 0.0, "is_reserved": 0, "lat": 38.936882, "fusion_lon": 0.0, "is_disabled": 0}, {"rental_uris": {"android": "https://dc.lft.to/lastmile_qr_scan", "ios": "https://dc.lft.to/lastmile_qr_scan"}, "type": "electric_scooter", "lon": -77.02157316666667, "name": "5105df42928c1f541b601a10bba3279a", "bike_id": "5105df42928c1f541b601a10bba3279a", "fusion_lat": 0.0, "is_reserved": 0, "lat": 38.92603533333333, "fusion_lon": 0.0, "is_disabled": 0}, {"rental_uris": {"android": "https://dc.lft.to/lastmile_qr_scan", "ios": "https://dc.lft.to/lastmile_qr_scan"}, "type": "electric_scooter", "lon": -77.01818483333334, "name": "8d96ec29f34ae5daae1af39980067cc4", "bike_id": "8d96ec29f34ae5daae1af39980067cc4", "fusion_lat": 0.0, "is_reserved": 0, "lat": 38.903875666666664, "fusion_lon": 0.0, "is_disabled": 0}, {"rental_uris": {"android": "https://dc.lft.to/lastmile_qr_scan", "ios": "https://dc.lft.to/lastmile_qr_scan"}, "type": "electric_scooter", "lon": -76.99782266666666, "name": "c99081a8c419db572b1a0c286bbf58cf", "bike_id": "c99081a8c419db572b1a0c286bbf58cf", "fusion_lat": 0.0, "is_reserved": 0, "lat": 38.84423816666666, "fusion_lon": 0.0, "is_disabled": 0}, {"rental_uris": {"android": "https://dc.lft.to/lastmile_qr_scan", "ios": "https://dc.lft.to/lastmile_qr_scan"}, "type": "electric_scooter", "lon": -77.032859, "name": "5e3032c557f4216025d8ceaab456c0b9", "bike_id": "5e3032c557f4216025d8ceaab456c0b9", "fusion_lat": 0.0, "is_reserved": 0, "lat": 38.956508, "fusion_lon": 0.0, "is_disabled": 0}, {"rental_uris": {"android": "https://dc.lft.to/lastmile_qr_scan", "ios": "https://dc.lft.to/lastmile_qr_scan"}, "type": "electric_scooter", "lon": -77.0319865, "name": "94c8291221809f55956cb35b9852e20e", "bike_id": "94c8291221809f55956cb35b9852e20e", "fusion_lat": 0.0, "is_reserved": 0, "lat": 38.91891483333333, "fusion_lon": 0.0, "is_disabled": 0}, {"rental_uris": {"android": "https://dc.lft.to/lastmile_qr_scan", "ios": "https://dc.lft.to/lastmile_qr_scan"}, "type": "electric_bike", "lon": -77.00368233333333, "name": "3996765d75e5f454bae9e4919a93146f", "bike_id": "3996765d75e5f454bae9e4919a93146f", "fusion_lat": 0.0, "is_reserved": 0, "lat": 38.836094833333334, "fusion_lon": 0.0, "is_disabled": 0}, {"rental_uris": {"android": "https://dc.lft.to/lastmile_qr_scan", "ios": "https://dc.lft.to/lastmile_qr_scan"}, "type": "electric_scooter", "lon": -77.011432, "name": "5c86575c5cd0a5bb711e93ead74e66f3", "bike_id": "5c86575c5cd0a5bb711e93ead74e66f3", "fusion_lat": 0.0, "is_reserved": 0, "lat": 38.918070666666665, "fusion_lon": 0.0, "is_disabled": 0}, {"rental_uris": {"android": "https://dc.lft.to/lastmile_qr_scan", "ios": "https://dc.lft.to/lastmile_qr_scan"}, "type": "electric_bike", "lon": -76.98335133333333, "name": "585c802282272662c6804bf5fc0bec49", "bike_id": "585c802282272662c6804bf5fc0bec49", "fusion_lat": 0.0, "is_reserved": 0, "lat": 38.9659815, "fusion_lon": 0.0, "is_disabled": 0}, {"rental_uris": {"android": "https://dc.lft.to/lastmile_qr_scan", "ios": "https://dc.lft.to/lastmile_qr_scan"}, "type": "electric_bike", "lon": -77.08939383333333, "name": "b98d453fca82626600ca00e1e3006c12", "bike_id": "b98d453fca82626600ca00e1e3006c12", "fusion_lat": 0.0, "is_reserved": 0, "lat": 38.840921333333334, "fusion_lon": 0.0, "is_disabled": 0}, {"rental_uris": {"android": "https://dc.lft.to/lastmile_qr_scan", "ios": "https://dc.lft.to/lastmile_qr_scan"}, "type": "electric_scooter", "lon": -76.94943933333333, "name": "8b5a152fae5d7bb9b4cc9ac2944dca07", "bike_id": "8b5a152fae5d7bb9b4cc9ac2944dca07", "fusion_lat": 0.0, "is_reserved": 0, "lat": 38.883199833333336, "fusion_lon": 0.0, "is_disabled": 0}, {"rental_uris": {"android": "https://dc.lft.to/lastmile_qr_scan", "ios": "https://dc.lft.to/lastmile_qr_scan"}, "type": "electric_scooter", "lon": -76.947725, "name": "968e782b7d2b4504305aa5038eec54b4", "bike_id": "968e782b7d2b4504305aa5038eec54b4", "fusion_lat": 0.0, "is_reserved": 0, "lat": 38.896263, "fusion_lon": 0.0, "is_disabled": 0}, {"rental_uris": {"android": "https://dc.lft.to/lastmile_qr_scan", "ios": "https://dc.lft.to/lastmile_qr_scan"}, "type": "electric_bike", "lon": -77.03623883333333, "name": "ae93d125b130e296d9fbbfb8d909602f", "bike_id": "ae93d125b130e296d9fbbfb8d909602f", "fusion_lat": 0.0, "is_reserved": 0, "lat": 38.97297783333333, "fusion_lon": 0.0, "is_disabled": 0}, {"rental_uris": {"android": "https://dc.lft.to/lastmile_qr_scan", "ios": "https://dc.lft.to/lastmile_qr_scan"}, "type": "electric_scooter", "lon": -77.041713, "name": "d5772e073d72350c414fff14b09b9efa", "bike_id": "d5772e073d72350c414fff14b09b9efa", "fusion_lat": 0.0, "is_reserved": 0, "lat": 38.91590983333333, "fusion_lon": 0.0, "is_disabled": 0}, {"rental_uris": {"android": "https://dc.lft.to/lastmile_qr_scan", "ios": "https://dc.lft.to/lastmile_qr_scan"}, "type": "electric_scooter", "lon": -77.04245366666666, "name": "4bf05cc2f1b5acba8fbc385495be55db", "bike_id": "4bf05cc2f1b5acba8fbc385495be55db", "fusion_lat": 0.0, "is_reserved": 0, "lat": 38.94546366666667, "fusion_lon": 0.0, "is_disabled": 0}, {"rental_uris": {"android": "https://dc.lft.to/lastmile_qr_scan", "ios": "https://dc.lft.to/lastmile_qr_scan"}, "type": "electric_scooter", "lon": -77.03867266666667, "name": "213eeca289df26664c55cfb4b33dc292", "bike_id": "213eeca289df26664c55cfb4b33dc292", "fusion_lat": 0.0, "is_reserved": 0, "lat": 38.91268683333333, "fusion_lon": 0.0, "is_disabled": 0}, {"rental_uris": {"android": "https://dc.lft.to/lastmile_qr_scan", "ios": "https://dc.lft.to/lastmile_qr_scan"}, "type": "electric_scooter", "lon": -77.06392866666667, "name": "9f4235dfc04ea18bc5475201e7cc9dde", "bike_id": "9f4235dfc04ea18bc5475201e7cc9dde", "fusion_lat": 0.0, "is_reserved": 0, "lat": 38.929101, "fusion_lon": 0.0, "is_disabled": 0}, {"rental_uris": {"android": "https://dc.lft.to/lastmile_qr_scan", "ios": "https://dc.lft.to/lastmile_qr_scan"}, "type": "electric_scooter", "lon": -77.00135916666666, "name": "26a1f5b41acc2ae0c6468a239557c0db", "bike_id": "26a1f5b41acc2ae0c6468a239557c0db", "fusion_lat": 0.0, "is_reserved": 0, "lat": 38.90016966666666, "fusion_lon": 0.0, "is_disabled": 0}, {"rental_uris": {"android": "https://dc.lft.to/lastmile_qr_scan", "ios": "https://dc.lft.to/lastmile_qr_scan"}, "type": "electric_scooter", "lon": -77.02160866666667, "name": "7386f0fa84905fc33392fa4e9cf5da7e", "bike_id": "7386f0fa84905fc33392fa4e9cf5da7e", "fusion_lat": 0.0, "is_reserved": 0, "lat": 38.926113666666666, "fusion_lon": 0.0, "is_disabled": 0}, {"rental_uris": {"android": "https://dc.lft.to/lastmile_qr_scan", "ios": "https://dc.lft.to/lastmile_qr_scan"}, "type": "electric_scooter", "lon": -77.03193533333334, "name": "9f21cd97f035ede7172efe7845bea980", "bike_id": "9f21cd97f035ede7172efe7845bea980", "fusion_lat": 0.0, "is_reserved": 0, "lat": 38.913393666666664, "fusion_lon": 0.0, "is_disabled": 0}, {"rental_uris": {"android": "https://dc.lft.to/lastmile_qr_scan", "ios": "https://dc.lft.to/lastmile_qr_scan"}, "type": "electric_scooter", "lon": -76.9412035, "name": "dbf3c057d298cde1d00719552058a42d", "bike_id": "dbf3c057d298cde1d00719552058a42d", "fusion_lat": 0.0, "is_reserved": 0, "lat": 38.907927666666666, "fusion_lon": 0.0, "is_disabled": 0}, {"rental_uris": {"android": "https://dc.lft.to/lastmile_qr_scan", "ios": "https://dc.lft.to/lastmile_qr_scan"}, "type": "electric_scooter", "lon": -77.02797033333333, "name": "718787e21049aece711463f29d355ab7", "bike_id": "718787e21049aece711463f29d355ab7", "fusion_lat": 0.0, "is_reserved": 0, "lat": 38.9195705, "fusion_lon": 0.0, "is_disabled": 0}, {"rental_uris": {"android": "https://dc.lft.to/lastmile_qr_scan", "ios": "https://dc.lft.to/lastmile_qr_scan"}, "type": "electric_scooter", "lon": -77.06068, "name": "32856544e67a574c7cc747d0ae39af1f", "bike_id": "32856544e67a574c7cc747d0ae39af1f", "fusion_lat": 0.0, "is_reserved": 0, "lat": 38.93900416666666, "fusion_lon": 0.0, "is_disabled": 0}, {"rental_uris": {"android": "https://dc.lft.to/lastmile_qr_scan", "ios": "https://dc.lft.to/lastmile_qr_scan"}, "type": "electric_scooter", "lon": -77.023183, "name": "729749f8e20c33772cff2d2b999ebc9f", "bike_id": "729749f8e20c33772cff2d2b999ebc9f", "fusion_lat": 0.0, "is_reserved": 0, "lat": 38.908882166666665, "fusion_lon": 0.0, "is_disabled": 0}, {"rental_uris": {"android": "https://dc.lft.to/lastmile_qr_scan", "ios": "https://dc.lft.to/lastmile_qr_scan"}, "type": "electric_scooter", "lon": -77.05092583333334, "name": "11f5459c96856b161f046689a8073ec9", "bike_id": "11f5459c96856b161f046689a8073ec9", "fusion_lat": 0.0, "is_reserved": 0, "lat": 38.924517333333334, "fusion_lon": 0.0, "is_disabled": 0}, {"rental_uris": {"android": "https://dc.lft.to/lastmile_qr_scan", "ios": "https://dc.lft.to/lastmile_qr_scan"}, "type": "electric_scooter", "lon": -77.051587, "name": "6836611e737e3a08914b6157b71e2f6a", "bike_id": "6836611e737e3a08914b6157b71e2f6a", "fusion_lat": 0.0, "is_reserved": 0, "lat": 38.90430216666667, "fusion_lon": 0.0, "is_disabled": 0}, {"rental_uris": {"android": "https://dc.lft.to/lastmile_qr_scan", "ios": "https://dc.lft.to/lastmile_qr_scan"}, "type": "electric_scooter", "lon": -77.02948183333334, "name": "28beb7bc146c7e2041324cd666d7b6d7", "bike_id": "28beb7bc146c7e2041324cd666d7b6d7", "fusion_lat": 0.0, "is_reserved": 0, "lat": 38.917004, "fusion_lon": 0.0, "is_disabled": 0}, {"rental_uris": {"android": "https://dc.lft.to/lastmile_qr_scan", "ios": "https://dc.lft.to/lastmile_qr_scan"}, "type": "electric_scooter", "lon": -77.0298395, "name": "c51d344b9b756e61fb52ecb1a95abebf", "bike_id": "c51d344b9b756e61fb52ecb1a95abebf", "fusion_lat": 0.0, "is_reserved": 0, "lat": 38.90737633333333, "fusion_lon": 0.0, "is_disabled": 0}, {"rental_uris": {"android": "https://dc.lft.to/lastmile_qr_scan", "ios": "https://dc.lft.to/lastmile_qr_scan"}, "type": "electric_scooter", "lon": -77.06778233333333, "name": "cf49673293674e917ccfca79997d7aef", "bike_id": "cf49673293674e917ccfca79997d7aef", "fusion_lat": 0.0, "is_reserved": 0, "lat": 38.952101666666664, "fusion_lon": 0.0, "is_disabled": 0}, {"rental_uris": {"android": "https://dc.lft.to/lastmile_qr_scan", "ios": "https://dc.lft.to/lastmile_qr_scan"}, "type": "electric_scooter", "lon": -77.00742366666667, "name": "a6a09c1e94d69b1f1bef3a8321a16d85", "bike_id": "a6a09c1e94d69b1f1bef3a8321a16d85", "fusion_lat": 0.0, "is_reserved": 0, "lat": 38.955223833333335, "fusion_lon": 0.0, "is_disabled": 0}, {"rental_uris": {"android": "https://dc.lft.to/lastmile_qr_scan", "ios": "https://dc.lft.to/lastmile_qr_scan"}, "type": "electric_scooter", "lon": -77.02008133333334, "name": "e191dd585819f6188e8aa14d90bb30ce", "bike_id": "e191dd585819f6188e8aa14d90bb30ce", "fusion_lat": 0.0, "is_reserved": 0, "lat": 38.92416766666667, "fusion_lon": 0.0, "is_disabled": 0}, {"rental_uris": {"android": "https://dc.lft.to/lastmile_qr_scan", "ios": "https://dc.lft.to/lastmile_qr_scan"}, "type": "electric_scooter", "lon": -77.009653, "name": "46f01e1b149f708df9c8ec54ab12b174", "bike_id": "46f01e1b149f708df9c8ec54ab12b174", "fusion_lat": 0.0, "is_reserved": 0, "lat": 38.881279166666666, "fusion_lon": 0.0, "is_disabled": 0}, {"rental_uris": {"android": "https://dc.lft.to/lastmile_qr_scan", "ios": "https://dc.lft.to/lastmile_qr_scan"}, "type": "electric_scooter", "lon": -77.02500916666666, "name": "b5e2b21293b3084582021fd7fc6d6c56", "bike_id": "b5e2b21293b3084582021fd7fc6d6c56", "fusion_lat": 0.0, "is_reserved": 0, "lat": 38.94200383333333, "fusion_lon": 0.0, "is_disabled": 0}, {"rental_uris": {"android": "https://dc.lft.to/lastmile_qr_scan", "ios": "https://dc.lft.to/lastmile_qr_scan"}, "type": "electric_scooter", "lon": -76.99072966666667, "name": "ebf10bfc7ba415697a9b33e92d465054", "bike_id": "ebf10bfc7ba415697a9b33e92d465054", "fusion_lat": 0.0, "is_reserved": 0, "lat": 38.929456333333334, "fusion_lon": 0.0, "is_disabled": 0}, {"rental_uris": {"android": "https://dc.lft.to/lastmile_qr_scan", "ios": "https://dc.lft.to/lastmile_qr_scan"}, "type": "electric_scooter", "lon": -77.0326325, "name": "9a25d17c63fed3e4f97bcd473d404211", "bike_id": "9a25d17c63fed3e4f97bcd473d404211", "fusion_lat": 0.0, "is_reserved": 0, "lat": 38.935255833333336, "fusion_lon": 0.0, "is_disabled": 0}, {"rental_uris": {"android": "https://dc.lft.to/lastmile_qr_scan", "ios": "https://dc.lft.to/lastmile_qr_scan"}, "type": "electric_scooter", "lon": -77.03849016666666, "name": "f12a4e26f9b46f57cf0b15c13806514d", "bike_id": "f12a4e26f9b46f57cf0b15c13806514d", "fusion_lat": 0.0, "is_reserved": 0, "lat": 38.915459166666665, "fusion_lon": 0.0, "is_disabled": 0}, {"rental_uris": {"android": "https://dc.lft.to/lastmile_qr_scan", "ios": "https://dc.lft.to/lastmile_qr_scan"}, "type": "electric_scooter", "lon": -77.027995, "name": "ce040c28badb2c35af8125841bf27d09", "bike_id": "ce040c28badb2c35af8125841bf27d09", "fusion_lat": 0.0, "is_reserved": 0, "lat": 38.9613195, "fusion_lon": 0.0, "is_disabled": 0}, {"rental_uris": {"android": "https://dc.lft.to/lastmile_qr_scan", "ios": "https://dc.lft.to/lastmile_qr_scan"}, "type": "electric_scooter", "lon": -77.02962516666666, "name": "8c06df027fd95a4b4db10f15c368ad1c", "bike_id": "8c06df027fd95a4b4db10f15c368ad1c", "fusion_lat": 0.0, "is_reserved": 0, "lat": 38.90641133333333, "fusion_lon": 0.0, "is_disabled": 0}, {"rental_uris": {"android": "https://dc.lft.to/lastmile_qr_scan", "ios": "https://dc.lft.to/lastmile_qr_scan"}, "type": "electric_scooter", "lon": -77.01356966666667, "name": "56657caeda5e7b0a564df50fbb1320ee", "bike_id": "56657caeda5e7b0a564df50fbb1320ee", "fusion_lat": 0.0, "is_reserved": 0, "lat": 38.903841666666665, "fusion_lon": 0.0, "is_disabled": 0}, {"rental_uris": {"android": "https://dc.lft.to/lastmile_qr_scan", "ios": "https://dc.lft.to/lastmile_qr_scan"}, "type": "electric_scooter", "lon": -77.036632, "name": "32834880ea563012f1f31d253b5fb40b", "bike_id": "32834880ea563012f1f31d253b5fb40b", "fusion_lat": 0.0, "is_reserved": 0, "lat": 38.92137133333333, "fusion_lon": 0.0, "is_disabled": 0}, {"rental_uris": {"android": "https://dc.lft.to/lastmile_qr_scan", "ios": "https://dc.lft.to/lastmile_qr_scan"}, "type": "electric_scooter", "lon": -77.04343233333333, "name": "8a97fd81cf71a594e204c7dc5be8bf3c", "bike_id": "8a97fd81cf71a594e204c7dc5be8bf3c", "fusion_lat": 0.0, "is_reserved": 0, "lat": 38.91373383333333, "fusion_lon": 0.0, "is_disabled": 0}, {"rental_uris": {"android": "https://dc.lft.to/lastmile_qr_scan", "ios": "https://dc.lft.to/lastmile_qr_scan"}, "type": "electric_bike", "lon": -77.02419016666667, "name": "c973247c498b2060072877a1518c623d", "bike_id": "c973247c498b2060072877a1518c623d", "fusion_lat": 0.0, "is_reserved": 0, "lat": 38.949081166666666, "fusion_lon": 0.0, "is_disabled": 0}, {"rental_uris": {"android": "https://dc.lft.to/lastmile_qr_scan", "ios": "https://dc.lft.to/lastmile_qr_scan"}, "type": "electric_scooter", "lon": -76.990108, "name": "ac25d154c6a0b127238119698c44d73b", "bike_id": "ac25d154c6a0b127238119698c44d73b", "fusion_lat": 0.0, "is_reserved": 0, "lat": 38.9113805, "fusion_lon": 0.0, "is_disabled": 0}, {"rental_uris": {"android": "https://dc.lft.to/lastmile_qr_scan", "ios": "https://dc.lft.to/lastmile_qr_scan"}, "type": "electric_scooter", "lon": -77.03866983333333, "name": "7319e1369160bdbfc83db96718eff1be", "bike_id": "7319e1369160bdbfc83db96718eff1be", "fusion_lat": 0.0, "is_reserved": 0, "lat": 38.911959833333334, "fusion_lon": 0.0, "is_disabled": 0}, {"rental_uris": {"android": "https://dc.lft.to/lastmile_qr_scan", "ios": "https://dc.lft.to/lastmile_qr_scan"}, "type": "electric_scooter", "lon": -77.0104075, "name": "ca50ae48e14aadbc81f6154a46d90d79", "bike_id": "ca50ae48e14aadbc81f6154a46d90d79", "fusion_lat": 0.0, "is_reserved": 0, "lat": 38.884491833333335, "fusion_lon": 0.0, "is_disabled": 0}, {"rental_uris": {"android": "https://dc.lft.to/lastmile_qr_scan", "ios": "https://dc.lft.to/lastmile_qr_scan"}, "type": "electric_scooter", "lon": -77.02572116666667, "name": "ad085c8bb3e0150106115ac68a6e62b3", "bike_id": "ad085c8bb3e0150106115ac68a6e62b3", "fusion_lat": 0.0, "is_reserved": 0, "lat": 38.925715, "fusion_lon": 0.0, "is_disabled": 0}, {"rental_uris": {"android": "https://dc.lft.to/lastmile_qr_scan", "ios": "https://dc.lft.to/lastmile_qr_scan"}, "type": "electric_scooter", "lon": -77.05265533333333, "name": "b59ec2fea2399acd7054c6fa9fa675b6", "bike_id": "b59ec2fea2399acd7054c6fa9fa675b6", "fusion_lat": 0.0, "is_reserved": 0, "lat": 38.9276085, "fusion_lon": 0.0, "is_disabled": 0}, {"rental_uris": {"android": "https://dc.lft.to/lastmile_qr_scan", "ios": "https://dc.lft.to/lastmile_qr_scan"}, "type": "electric_scooter", "lon": -76.979049, "name": "9d037ffd2578b4f886b53d37a5720133", "bike_id": "9d037ffd2578b4f886b53d37a5720133", "fusion_lat": 0.0, "is_reserved": 0, "lat": 38.903871333333335, "fusion_lon": 0.0, "is_disabled": 0}, {"rental_uris": {"android": "https://dc.lft.to/lastmile_qr_scan", "ios": "https://dc.lft.to/lastmile_qr_scan"}, "type": "electric_scooter", "lon": -76.98589683333333, "name": "68d954164ba0fa20bb809be048c0a488", "bike_id": "68d954164ba0fa20bb809be048c0a488", "fusion_lat": 0.0, "is_reserved": 0, "lat": 38.8896825, "fusion_lon": 0.0, "is_disabled": 0}, {"rental_uris": {"android": "https://dc.lft.to/lastmile_qr_scan", "ios": "https://dc.lft.to/lastmile_qr_scan"}, "type": "electric_scooter", "lon": -76.94304933333333, "name": "499a9017d75b8e9439be7abb2788d6ee", "bike_id": "499a9017d75b8e9439be7abb2788d6ee", "fusion_lat": 0.0, "is_reserved": 0, "lat": 38.890928, "fusion_lon": 0.0, "is_disabled": 0}, {"rental_uris": {"android": "https://dc.lft.to/lastmile_qr_scan", "ios": "https://dc.lft.to/lastmile_qr_scan"}, "type": "electric_scooter", "lon": -77.03174533333333, "name": "9dfc4c493bc1acefa8f066f6267564ac", "bike_id": "9dfc4c493bc1acefa8f066f6267564ac", "fusion_lat": 0.0, "is_reserved": 0, "lat": 38.9189395, "fusion_lon": 0.0, "is_disabled": 0}, {"rental_uris": {"android": "https://dc.lft.to/lastmile_qr_scan", "ios": "https://dc.lft.to/lastmile_qr_scan"}, "type": "electric_bike", "lon": -76.91122733333333, "name": "bae711f04446625dde41b3ee82710b58", "bike_id": "bae711f04446625dde41b3ee82710b58", "fusion_lat": 0.0, "is_reserved": 0, "lat": 39.01037916666667, "fusion_lon": 0.0, "is_disabled": 0}, {"rental_uris": {"android": "https://dc.lft.to/lastmile_qr_scan", "ios": "https://dc.lft.to/lastmile_qr_scan"}, "type": "electric_scooter", "lon": -77.01209383333334, "name": "6a327312c7f671afe28f7f6c0a84531e", "bike_id": "6a327312c7f671afe28f7f6c0a84531e", "fusion_lat": 0.0, "is_reserved": 0, "lat": 38.9181995, "fusion_lon": 0.0, "is_disabled": 0}, {"rental_uris": {"android": "https://dc.lft.to/lastmile_qr_scan", "ios": "https://dc.lft.to/lastmile_qr_scan"}, "type": "electric_scooter", "lon": -77.00147366666667, "name": "6158d23fb41981806ce0cf020300bbe4", "bike_id": "6158d23fb41981806ce0cf020300bbe4", "fusion_lat": 0.0, "is_reserved": 0, "lat": 38.900286666666666, "fusion_lon": 0.0, "is_disabled": 0}, {"rental_uris": {"android": "https://dc.lft.to/lastmile_qr_scan", "ios": "https://dc.lft.to/lastmile_qr_scan"}, "type": "electric_scooter", "lon": -77.0498525, "name": "2c358bb6e59b71ad95bfae95360cfc7a", "bike_id": "2c358bb6e59b71ad95bfae95360cfc7a", "fusion_lat": 0.0, "is_reserved": 0, "lat": 38.897264, "fusion_lon": 0.0, "is_disabled": 0}, {"rental_uris": {"android": "https://dc.lft.to/lastmile_qr_scan", "ios": "https://dc.lft.to/lastmile_qr_scan"}, "type": "electric_bike", "lon": -76.991028, "name": "0b51b7ffb59e4d07289c79d0df7ef9c3", "bike_id": "0b51b7ffb59e4d07289c79d0df7ef9c3", "fusion_lat": 0.0, "is_reserved": 0, "lat": 38.9336875, "fusion_lon": 0.0, "is_disabled": 0}, {"rental_uris": {"android": "https://dc.lft.to/lastmile_qr_scan", "ios": "https://dc.lft.to/lastmile_qr_scan"}, "type": "electric_scooter", "lon": -77.03465183333333, "name": "50f3e6705b98431ebafc9bff89ca7c74", "bike_id": "50f3e6705b98431ebafc9bff89ca7c74", "fusion_lat": 0.0, "is_reserved": 0, "lat": 38.93551383333333, "fusion_lon": 0.0, "is_disabled": 0}, {"rental_uris": {"android": "https://dc.lft.to/lastmile_qr_scan", "ios": "https://dc.lft.to/lastmile_qr_scan"}, "type": "electric_scooter", "lon": -77.03212766666667, "name": "939a02b1f37ce1e7a504cb4ab09a969a", "bike_id": "939a02b1f37ce1e7a504cb4ab09a969a", "fusion_lat": 0.0, "is_reserved": 0, "lat": 38.91887783333333, "fusion_lon": 0.0, "is_disabled": 0}, {"rental_uris": {"android": "https://dc.lft.to/lastmile_qr_scan", "ios": "https://dc.lft.to/lastmile_qr_scan"}, "type": "electric_scooter", "lon": -76.98464133333333, "name": "c9f683dbed34b58728d24b786cc61af1", "bike_id": "c9f683dbed34b58728d24b786cc61af1", "fusion_lat": 0.0, "is_reserved": 0, "lat": 38.89364483333333, "fusion_lon": 0.0, "is_disabled": 0}, {"rental_uris": {"android": "https://dc.lft.to/lastmile_qr_scan", "ios": "https://dc.lft.to/lastmile_qr_scan"}, "type": "electric_scooter", "lon": -77.0214925, "name": "03268b6e69b22d0fe3d563cae6cb551f", "bike_id": "03268b6e69b22d0fe3d563cae6cb551f", "fusion_lat": 0.0, "is_reserved": 0, "lat": 38.879213166666666, "fusion_lon": 0.0, "is_disabled": 0}, {"rental_uris": {"android": "https://dc.lft.to/lastmile_qr_scan", "ios": "https://dc.lft.to/lastmile_qr_scan"}, "type": "electric_scooter", "lon": -77.04997716666666, "name": "4339304c913141340c414b9777b23b94", "bike_id": "4339304c913141340c414b9777b23b94", "fusion_lat": 0.0, "is_reserved": 0, "lat": 38.90088266666667, "fusion_lon": 0.0, "is_disabled": 0}, {"rental_uris": {"android": "https://dc.lft.to/lastmile_qr_scan", "ios": "https://dc.lft.to/lastmile_qr_scan"}, "type": "electric_scooter", "lon": -76.970213, "name": "c9db23130296b8be1e8487750259c111", "bike_id": "c9db23130296b8be1e8487750259c111", "fusion_lat": 0.0, "is_reserved": 0, "lat": 38.920329, "fusion_lon": 0.0, "is_disabled": 0}, {"rental_uris": {"android": "https://dc.lft.to/lastmile_qr_scan", "ios": "https://dc.lft.to/lastmile_qr_scan"}, "type": "electric_scooter", "lon": -77.038657, "name": "33183bc8b7b4c65fa671a5617b9d1f84", "bike_id": "33183bc8b7b4c65fa671a5617b9d1f84", "fusion_lat": 0.0, "is_reserved": 0, "lat": 38.91709183333333, "fusion_lon": 0.0, "is_disabled": 0}, {"rental_uris": {"android": "https://dc.lft.to/lastmile_qr_scan", "ios": "https://dc.lft.to/lastmile_qr_scan"}, "type": "electric_scooter", "lon": -77.01895733333333, "name": "338105883f8dcf81bc3dc3fd211de944", "bike_id": "338105883f8dcf81bc3dc3fd211de944", "fusion_lat": 0.0, "is_reserved": 0, "lat": 38.93916316666667, "fusion_lon": 0.0, "is_disabled": 0}, {"rental_uris": {"android": "https://dc.lft.to/lastmile_qr_scan", "ios": "https://dc.lft.to/lastmile_qr_scan"}, "type": "electric_scooter", "lon": -76.9908125, "name": "4c4723f121fd6046d4db05053d0be4ef", "bike_id": "4c4723f121fd6046d4db05053d0be4ef", "fusion_lat": 0.0, "is_reserved": 0, "lat": 38.84290933333333, "fusion_lon": 0.0, "is_disabled": 0}, {"rental_uris": {"android": "https://dc.lft.to/lastmile_qr_scan", "ios": "https://dc.lft.to/lastmile_qr_scan"}, "type": "electric_bike", "lon": -76.94774166666667, "name": "eb4466c823cb53b560f411c1f34ca987", "bike_id": "eb4466c823cb53b560f411c1f34ca987", "fusion_lat": 0.0, "is_reserved": 0, "lat": 38.89637866666666, "fusion_lon": 0.0, "is_disabled": 0}, {"rental_uris": {"android": "https://dc.lft.to/lastmile_qr_scan", "ios": "https://dc.lft.to/lastmile_qr_scan"}, "type": "electric_scooter", "lon": -76.997181, "name": "11f8c74506b79026976beaad17a5788f", "bike_id": "11f8c74506b79026976beaad17a5788f", "fusion_lat": 0.0, "is_reserved": 0, "lat": 38.91112483333333, "fusion_lon": 0.0, "is_disabled": 0}, {"rental_uris": {"android": "https://dc.lft.to/lastmile_qr_scan", "ios": "https://dc.lft.to/lastmile_qr_scan"}, "type": "electric_bike", "lon": -77.35311583333333, "name": "4559b6ee14e0aab448dcd459823397a7", "bike_id": "4559b6ee14e0aab448dcd459823397a7", "fusion_lat": 0.0, "is_reserved": 0, "lat": 38.95002183333333, "fusion_lon": 0.0, "is_disabled": 0}, {"rental_uris": {"android": "https://dc.lft.to/lastmile_qr_scan", "ios": "https://dc.lft.to/lastmile_qr_scan"}, "type": "electric_scooter", "lon": -77.0273435, "name": "9e769724791da3084948a0d0be210beb", "bike_id": "9e769724791da3084948a0d0be210beb", "fusion_lat": 0.0, "is_reserved": 0, "lat": 38.951366166666666, "fusion_lon": 0.0, "is_disabled": 0}, {"rental_uris": {"android": "https://dc.lft.to/lastmile_qr_scan", "ios": "https://dc.lft.to/lastmile_qr_scan"}, "type": "electric_scooter", "lon": -77.00597833333333, "name": "22fe8ef59d483180e8cbc3a109b47184", "bike_id": "22fe8ef59d483180e8cbc3a109b47184", "fusion_lat": 0.0, "is_reserved": 0, "lat": 38.90552183333333, "fusion_lon": 0.0, "is_disabled": 0}, {"rental_uris": {"android": "https://dc.lft.to/lastmile_qr_scan", "ios": "https://dc.lft.to/lastmile_qr_scan"}, "type": "electric_bike", "lon": -77.01999316666667, "name": "3f24ec5455c9fa2292e8801e0db1cbcf", "bike_id": "3f24ec5455c9fa2292e8801e0db1cbcf", "fusion_lat": 0.0, "is_reserved": 0, "lat": 38.96018566666667, "fusion_lon": 0.0, "is_disabled": 0}, {"rental_uris": {"android": "https://dc.lft.to/lastmile_qr_scan", "ios": "https://dc.lft.to/lastmile_qr_scan"}, "type": "electric_scooter", "lon": -77.0634305, "name": "cc1d6f0d94ff0557867b7f2026d27db0", "bike_id": "cc1d6f0d94ff0557867b7f2026d27db0", "fusion_lat": 0.0, "is_reserved": 0, "lat": 38.91338983333333, "fusion_lon": 0.0, "is_disabled": 0}, {"rental_uris": {"android": "https://dc.lft.to/lastmile_qr_scan", "ios": "https://dc.lft.to/lastmile_qr_scan"}, "type": "electric_scooter", "lon": -77.05461966666667, "name": "e8c4adaa26e6bececef581f56363095a", "bike_id": "e8c4adaa26e6bececef581f56363095a", "fusion_lat": 0.0, "is_reserved": 0, "lat": 38.923072833333336, "fusion_lon": 0.0, "is_disabled": 0}, {"rental_uris": {"android": "https://dc.lft.to/lastmile_qr_scan", "ios": "https://dc.lft.to/lastmile_qr_scan"}, "type": "electric_scooter", "lon": -77.03894, "name": "b8c926f8d29ffae1b8f9d10a0fff7d9d", "bike_id": "b8c926f8d29ffae1b8f9d10a0fff7d9d", "fusion_lat": 0.0, "is_reserved": 0, "lat": 38.922177166666664, "fusion_lon": 0.0, "is_disabled": 0}, {"rental_uris": {"android": "https://dc.lft.to/lastmile_qr_scan", "ios": "https://dc.lft.to/lastmile_qr_scan"}, "type": "electric_scooter", "lon": -77.0163365, "name": "7f605c9fe810a9339f9a6f736a587156", "bike_id": "7f605c9fe810a9339f9a6f736a587156", "fusion_lat": 0.0, "is_reserved": 0, "lat": 38.8830155, "fusion_lon": 0.0, "is_disabled": 0}, {"rental_uris": {"android": "https://dc.lft.to/lastmile_qr_scan", "ios": "https://dc.lft.to/lastmile_qr_scan"}, "type": "electric_scooter", "lon": -77.03000883333333, "name": "dc0d1d5bc607229900c128888fe0e174", "bike_id": "dc0d1d5bc607229900c128888fe0e174", "fusion_lat": 0.0, "is_reserved": 0, "lat": 38.927974166666665, "fusion_lon": 0.0, "is_disabled": 0}, {"rental_uris": {"android": "https://dc.lft.to/lastmile_qr_scan", "ios": "https://dc.lft.to/lastmile_qr_scan"}, "type": "electric_scooter", "lon": -77.007569, "name": "65a28e74ce6c5687bad77e56698a82a0", "bike_id": "65a28e74ce6c5687bad77e56698a82a0", "fusion_lat": 0.0, "is_reserved": 0, "lat": 38.910262, "fusion_lon": 0.0, "is_disabled": 0}, {"rental_uris": {"android": "https://dc.lft.to/lastmile_qr_scan", "ios": "https://dc.lft.to/lastmile_qr_scan"}, "type": "electric_scooter", "lon": -77.03467166666667, "name": "bba712ff9d2b2fe56d9a6f47a81de708", "bike_id": "bba712ff9d2b2fe56d9a6f47a81de708", "fusion_lat": 0.0, "is_reserved": 0, "lat": 38.908773833333335, "fusion_lon": 0.0, "is_disabled": 0}, {"rental_uris": {"android": "https://dc.lft.to/lastmile_qr_scan", "ios": "https://dc.lft.to/lastmile_qr_scan"}, "type": "electric_bike", "lon": -77.00858983333333, "name": "c22e371e86232420a2b0de8055cdff8d", "bike_id": "c22e371e86232420a2b0de8055cdff8d", "fusion_lat": 0.0, "is_reserved": 0, "lat": 38.8272745, "fusion_lon": 0.0, "is_disabled": 0}, {"rental_uris": {"android": "https://dc.lft.to/lastmile_qr_scan", "ios": "https://dc.lft.to/lastmile_qr_scan"}, "type": "electric_scooter", "lon": -76.96488466666666, "name": "66d740578abac943d02a8809c1f705b0", "bike_id": "66d740578abac943d02a8809c1f705b0", "fusion_lat": 0.0, "is_reserved": 0, "lat": 38.87549533333333, "fusion_lon": 0.0, "is_disabled": 0}, {"rental_uris": {"android": "https://dc.lft.to/lastmile_qr_scan", "ios": "https://dc.lft.to/lastmile_qr_scan"}, "type": "electric_scooter", "lon": -77.01720866666666, "name": "089ed35e97f898a3064790cbcd63cbd3", "bike_id": "089ed35e97f898a3064790cbcd63cbd3", "fusion_lat": 0.0, "is_reserved": 0, "lat": 38.879347333333335, "fusion_lon": 0.0, "is_disabled": 0}, {"rental_uris": {"android": "https://dc.lft.to/lastmile_qr_scan", "ios": "https://dc.lft.to/lastmile_qr_scan"},