{"data": {"bikes": [{"fusion_lat": 0.0, "name": "15cbe342ad9f6359f56f2c11728210dc", "is_disabled": 0, "rental_uris": {"android": "https://dc.lft.to/lastmile_qr_scan", "ios": "https://dc.lft.to/lastmile_qr_scan"}, "fusion_lon": 0.0, "lat": 38.8955525, "bike_id": "15cbe342ad9f6359f56f2c11728210dc", "type": "electric_scooter", "is_reserved": 0, "lon": -76.94872666666667}, {"fusion_lat": 0.0, "name": "7e5194bd93113696908480ac60b27761", "is_disabled": 0, "rental_uris": {"android": "https://dc.lft.to/lastmile_qr_scan", "ios": "https://dc.lft.to/lastmile_qr_scan"}, "fusion_lon": 0.0, "lat": 38.923231666666666, "bike_id": "7e5194bd93113696908480ac60b27761", "type": "electric_scooter", "is_reserved": 0, "lon": -77.040304}, {"fusion_lat": 0.0, "name": "05f776b0a66bfca9f63cb8250db70f15", "is_disabled": 0, "rental_uris": {"android": "https://dc.lft.to/lastmile_qr_scan", "ios": "https://dc.lft.to/lastmile_qr_scan"}, "fusion_lon": 0.0, "lat": 38.89893, "bike_id": "05f776b0a66bfca9f63cb8250db70f15", "type": "electric_scooter", "is_reserved": 0, "lon": -77.0393125}, {"fusion_lat": 0.0, "name": "a461ed3b0c52fe93a35856ff0719f3c4", "is_disabled": 0, "rental_uris": {"android": "https://dc.lft.to/lastmile_qr_scan", "ios": "https://dc.lft.to/lastmile_qr_scan"}, "fusion_lon": 0.0, "lat": 38.91725533333333, "bike_id": "a461ed3b0c52fe93a35856ff0719f3c4", "type": "electric_scooter", "is_reserved": 0, "lon": -77.02293266666666}, {"fusion_lat": 0.0, "name": "5701c55900c9b9bbacb2e3441c9f94fb", "is_disabled": 0, "rental_uris": {"android": "https://dc.lft.to/lastmile_qr_scan", "ios": "https://dc.lft.to/lastmile_qr_scan"}, "fusion_lon": 0.0, "lat": 38.905344, "bike_id": "5701c55900c9b9bbacb2e3441c9f94fb", "type": "electric_bike", "is_reserved": 0, "lon": -76.99799333333333}, {"fusion_lat": 0.0, "name": "5f49788b2af609070c5585614e84e80a", "is_disabled": 0, "rental_uris": {"android": "https://dc.lft.to/lastmile_qr_scan", "ios": "https://dc.lft.to/lastmile_qr_scan"}, "fusion_lon": 0.0, "lat": 38.900324, "bike_id": "5f49788b2af609070c5585614e84e80a", "type": "electric_scooter", "is_reserved": 0, "lon": -76.99634516666667}, {"fusion_lat": 0.0, "name": "eb3bb48cb2c3af5e54cdbaae460a4f63", "is_disabled": 0, "rental_uris": {"android": "https://dc.lft.to/lastmile_qr_scan", "ios": "https://dc.lft.to/lastmile_qr_scan"}, "fusion_lon": 0.0, "lat": 38.87745866666667, "bike_id": "eb3bb48cb2c3af5e54cdbaae460a4f63", "type": "electric_scooter", "is_reserved": 0, "lon": -77.003441}, {"fusion_lat": 0.0, "name": "878e913ec92ef421958ea75af29809bd", "is_disabled": 0, "rental_uris": {"android": "https://dc.lft.to/lastmile_qr_scan", "ios": "https://dc.lft.to/lastmile_qr_scan"}, "fusion_lon": 0.0, "lat": 38.89727233333333, "bike_id": "878e913ec92ef421958ea75af29809bd", "type": "electric_scooter", "is_reserved": 0, "lon": -77.019175}, {"fusion_lat": 0.0, "name": "2c1892fa58488fda0503abfa7d9ffc44", "is_disabled": 0, "rental_uris": {"android": "https://dc.lft.to/lastmile_qr_scan", "ios": "https://dc.lft.to/lastmile_qr_scan"}, "fusion_lon": 0.0, "lat": 38.90970016666667, "bike_id": "2c1892fa58488fda0503abfa7d9ffc44", "type": "electric_scooter", "is_reserved": 0, "lon": -77.0320765}, {"fusion_lat": 0.0, "name": "4596913ca836b7a7c0c53203978cd7fd", "is_disabled": 0, "rental_uris": {"android": "https://dc.lft.to/lastmile_qr_scan", "ios": "https://dc.lft.to/lastmile_qr_scan"}, "fusion_lon": 0.0, "lat": 38.909353, "bike_id": "4596913ca836b7a7c0c53203978cd7fd", "type": "electric_scooter", "is_reserved": 0, "lon": -77.02813883333333}, {"fusion_lat": 0.0, "name": "0bbc9d6ffb9a83a041301073cc6cf013", "is_disabled": 0, "rental_uris": {"android": "https://dc.lft.to/lastmile_qr_scan", "ios": "https://dc.lft.to/lastmile_qr_scan"}, "fusion_lon": 0.0, "lat": 38.90346066666667, "bike_id": "0bbc9d6ffb9a83a041301073cc6cf013", "type": "electric_scooter", "is_reserved": 0, "lon": -77.044892}, {"fusion_lat": 0.0, "name": "b7526570a306677bebbb11682c2756f5", "is_disabled": 0, "rental_uris": {"android": "https://dc.lft.to/lastmile_qr_scan", "ios": "https://dc.lft.to/lastmile_qr_scan"}, "fusion_lon": 0.0, "lat": 38.9079965, "bike_id": "b7526570a306677bebbb11682c2756f5", "type": "electric_scooter", "is_reserved": 0, "lon": -77.02973716666666}, {"fusion_lat": 0.0, "name": "688b5317dfabed54f9c828e668857ed9", "is_disabled": 0, "rental_uris": {"android": "https://dc.lft.to/lastmile_qr_scan", "ios": "https://dc.lft.to/lastmile_qr_scan"}, "fusion_lon": 0.0, "lat": 38.9125845, "bike_id": "688b5317dfabed54f9c828e668857ed9", "type": "electric_scooter", "is_reserved": 0, "lon": -77.02817283333333}, {"fusion_lat": 0.0, "name": "c98800647cfca28af06de2b021defe32", "is_disabled": 0, "rental_uris": {"android": "https://dc.lft.to/lastmile_qr_scan", "ios": "https://dc.lft.to/lastmile_qr_scan"}, "fusion_lon": 0.0, "lat": 38.914822, "bike_id": "c98800647cfca28af06de2b021defe32", "type": "electric_scooter", "is_reserved": 0, "lon": -77.04607116666666}, {"fusion_lat": 0.0, "name": "f5690b79ddb62ab2e885400213983037", "is_disabled": 0, "rental_uris": {"android": "https://dc.lft.to/lastmile_qr_scan", "ios": "https://dc.lft.to/lastmile_qr_scan"}, "fusion_lon": 0.0, "lat": 38.91981283333333, "bike_id": "f5690b79ddb62ab2e885400213983037", "type": "electric_scooter", "is_reserved": 0, "lon": -77.02596183333333}, {"fusion_lat": 0.0, "name": "78404e5551bf99c166854c6898a85333", "is_disabled": 0, "rental_uris": {"android": "https://dc.lft.to/lastmile_qr_scan", "ios": "https://dc.lft.to/lastmile_qr_scan"}, "fusion_lon": 0.0, "lat": 38.8952665, "bike_id": "78404e5551bf99c166854c6898a85333", "type": "electric_scooter", "is_reserved": 0, "lon": -76.93412016666667}, {"fusion_lat": 0.0, "name": "fd2a8d99e638674a778a2c0c2b9d72f5", "is_disabled": 0, "rental_uris": {"android": "https://dc.lft.to/lastmile_qr_scan", "ios": "https://dc.lft.to/lastmile_qr_scan"}, "fusion_lon": 0.0, "lat": 38.89505666666667, "bike_id": "fd2a8d99e638674a778a2c0c2b9d72f5", "type": "electric_scooter", "is_reserved": 0, "lon": -77.0395845}, {"fusion_lat": 0.0, "name": "7bbe2f32409311ccdc6076fdfee3c275", "is_disabled": 0, "rental_uris": {"android": "https://dc.lft.to/lastmile_qr_scan", "ios": "https://dc.lft.to/lastmile_qr_scan"}, "fusion_lon": 0.0, "lat": 38.899044, "bike_id": "7bbe2f32409311ccdc6076fdfee3c275", "type": "electric_scooter", "is_reserved": 0, "lon": -76.99384016666667}, {"fusion_lat": 0.0, "name": "82eefa9166e74346bf547a886a5c2a98", "is_disabled": 0, "rental_uris": {"android": "https://dc.lft.to/lastmile_qr_scan", "ios": "https://dc.lft.to/lastmile_qr_scan"}, "fusion_lon": 0.0, "lat": 38.871867, "bike_id": "82eefa9166e74346bf547a886a5c2a98", "type": "electric_scooter", "is_reserved": 0, "lon": -77.0057185}, {"fusion_lat": 0.0, "name": "52336acd5d995eb32323169ee02e557d", "is_disabled": 0, "rental_uris": {"android": "https://dc.lft.to/lastmile_qr_scan", "ios": "https://dc.lft.to/lastmile_qr_scan"}, "fusion_lon": 0.0, "lat": 38.9167855, "bike_id": "52336acd5d995eb32323169ee02e557d", "type": "electric_scooter", "is_reserved": 0, "lon": -77.01576266666666}, {"fusion_lat": 0.0, "name": "2dc4e6ebd66b109fa4679e00dc9b73e3", "is_disabled": 0, "rental_uris": {"android": "https://dc.lft.to/lastmile_qr_scan", "ios": "https://dc.lft.to/lastmile_qr_scan"}, "fusion_lon": 0.0, "lat": 38.911122, "bike_id": "2dc4e6ebd66b109fa4679e00dc9b73e3", "type": "electric_scooter", "is_reserved": 0, "lon": -76.99751283333333}, {"fusion_lat": 0.0, "name": "a18f0710b5953fd5128bcaf00f02cca5", "is_disabled": 0, "rental_uris": {"android": "https://dc.lft.to/lastmile_qr_scan", "ios": "https://dc.lft.to/lastmile_qr_scan"}, "fusion_lon": 0.0, "lat": 38.905053, "bike_id": "a18f0710b5953fd5128bcaf00f02cca5", "type": "electric_scooter", "is_reserved": 0, "lon": -77.06467466666666}, {"fusion_lat": 0.0, "name": "02862474009a9ccbf471053a10ea22bc", "is_disabled": 0, "rental_uris": {"android": "https://dc.lft.to/lastmile_qr_scan", "ios": "https://dc.lft.to/lastmile_qr_scan"}, "fusion_lon": 0.0, "lat": 38.939455, "bike_id": "02862474009a9ccbf471053a10ea22bc", "type": "electric_scooter", "is_reserved": 0, "lon": -77.02177866666666}, {"fusion_lat": 0.0, "name": "49355a5ecd250025672258d85def1ecd", "is_disabled": 0, "rental_uris": {"android": "https://dc.lft.to/lastmile_qr_scan", "ios": "https://dc.lft.to/lastmile_qr_scan"}, "fusion_lon": 0.0, "lat": 38.8982615, "bike_id": "49355a5ecd250025672258d85def1ecd", "type": "electric_scooter", "is_reserved": 0, "lon": -77.02583316666667}, {"fusion_lat": 0.0, "name": "738bc71965472eb7664dd2660cce75ae", "is_disabled": 0, "rental_uris": {"android": "https://dc.lft.to/lastmile_qr_scan", "ios": "https://dc.lft.to/lastmile_qr_scan"}, "fusion_lon": 0.0, "lat": 38.900955833333335, "bike_id": "738bc71965472eb7664dd2660cce75ae", "type": "electric_scooter", "is_reserved": 0, "lon": -76.98341183333334}, {"fusion_lat": 0.0, "name": "3b292543a73c8c70a91fea1da91596b4", "is_disabled": 0, "rental_uris": {"android": "https://dc.lft.to/lastmile_qr_scan", "ios": "https://dc.lft.to/lastmile_qr_scan"}, "fusion_lon": 0.0, "lat": 38.91118916666667, "bike_id": "3b292543a73c8c70a91fea1da91596b4", "type": "electric_scooter", "is_reserved": 0, "lon": -76.9975445}, {"fusion_lat": 0.0, "name": "8c30e138767e52b805e3ff2e0aa9101c", "is_disabled": 0, "rental_uris": {"android": "https://dc.lft.to/lastmile_qr_scan", "ios": "https://dc.lft.to/lastmile_qr_scan"}, "fusion_lon": 0.0, "lat": 38.95630666666667, "bike_id": "8c30e138767e52b805e3ff2e0aa9101c", "type": "electric_bike", "is_reserved": 0, "lon": -76.93904616666667}, {"fusion_lat": 0.0, "name": "949dbdff6c608770773c09c9320aca5a", "is_disabled": 0, "rental_uris": {"android": "https://dc.lft.to/lastmile_qr_scan", "ios": "https://dc.lft.to/lastmile_qr_scan"}, "fusion_lon": 0.0, "lat": 38.9313325, "bike_id": "949dbdff6c608770773c09c9320aca5a", "type": "electric_scooter", "is_reserved": 0, "lon": -77.03852833333333}, {"fusion_lat": 0.0, "name": "0a8e80618a7c8e23c6056c0f6025d819", "is_disabled": 0, "rental_uris": {"android": "https://dc.lft.to/lastmile_qr_scan", "ios": "https://dc.lft.to/lastmile_qr_scan"}, "fusion_lon": 0.0, "lat": 38.903227666666666, "bike_id": "0a8e80618a7c8e23c6056c0f6025d819", "type": "electric_scooter", "is_reserved": 0, "lon": -77.01096083333333}, {"fusion_lat": 0.0, "name": "a028d18aeb8651f9315443bf4660173d", "is_disabled": 0, "rental_uris": {"android": "https://dc.lft.to/lastmile_qr_scan", "ios": "https://dc.lft.to/lastmile_qr_scan"}, "fusion_lon": 0.0, "lat": 38.9085985, "bike_id": "a028d18aeb8651f9315443bf4660173d", "type": "electric_scooter", "is_reserved": 0, "lon": -77.027151}, {"fusion_lat": 0.0, "name": "c839567238228d1013086c2665a68fe4", "is_disabled": 0, "rental_uris": {"android": "https://dc.lft.to/lastmile_qr_scan", "ios": "https://dc.lft.to/lastmile_qr_scan"}, "fusion_lon": 0.0, "lat": 38.9224795, "bike_id": "c839567238228d1013086c2665a68fe4", "type": "electric_scooter", "is_reserved": 0, "lon": -77.04247716666667}, {"fusion_lat": 0.0, "name": "38ae33c88336723a15f05c295fd3533c", "is_disabled": 0, "rental_uris": {"android": "https://dc.lft.to/lastmile_qr_scan", "ios": "https://dc.lft.to/lastmile_qr_scan"}, "fusion_lon": 0.0, "lat": 38.8996585, "bike_id": "38ae33c88336723a15f05c295fd3533c", "type": "electric_scooter", "is_reserved": 0, "lon": -77.01612583333333}, {"fusion_lat": 0.0, "name": "ee1095ef5252aa8eadbbd7ecf2572e04", "is_disabled": 0, "rental_uris": {"android": "https://dc.lft.to/lastmile_qr_scan", "ios": "https://dc.lft.to/lastmile_qr_scan"}, "fusion_lon": 0.0, "lat": 38.87496816666667, "bike_id": "ee1095ef5252aa8eadbbd7ecf2572e04", "type": "electric_scooter", "is_reserved": 0, "lon": -77.00068766666666}, {"fusion_lat": 0.0, "name": "683f46f8632a915f89c34c0eb62f17e5", "is_disabled": 0, "rental_uris": {"android": "https://dc.lft.to/lastmile_qr_scan", "ios": "https://dc.lft.to/lastmile_qr_scan"}, "fusion_lon": 0.0, "lat": 38.91750616666667, "bike_id": "683f46f8632a915f89c34c0eb62f17e5", "type": "electric_scooter", "is_reserved": 0, "lon": -77.01220516666666}, {"fusion_lat": 0.0, "name": "3856f847e6ee36fd929406c9389e4c7c", "is_disabled": 0, "rental_uris": {"android": "https://dc.lft.to/lastmile_qr_scan", "ios": "https://dc.lft.to/lastmile_qr_scan"}, "fusion_lon": 0.0, "lat": 38.90884966666667, "bike_id": "3856f847e6ee36fd929406c9389e4c7c", "type": "electric_scooter", "is_reserved": 0, "lon": -77.04335516666667}, {"fusion_lat": 0.0, "name": "de84f529d13550b7b2990ac82d44cccc", "is_disabled": 0, "rental_uris": {"android": "https://dc.lft.to/lastmile_qr_scan", "ios": "https://dc.lft.to/lastmile_qr_scan"}, "fusion_lon": 0.0, "lat": 38.892210666666664, "bike_id": "de84f529d13550b7b2990ac82d44cccc", "type": "electric_scooter", "is_reserved": 0, "lon": -77.02656033333334}, {"fusion_lat": 0.0, "name": "a76c64a1427ed90c3e7fd36e8cb35d92", "is_disabled": 0, "rental_uris": {"android": "https://dc.lft.to/lastmile_qr_scan", "ios": "https://dc.lft.to/lastmile_qr_scan"}, "fusion_lon": 0.0, "lat": 38.893242666666666, "bike_id": "a76c64a1427ed90c3e7fd36e8cb35d92", "type": "electric_bike", "is_reserved": 0, "lon": -76.95128166666667}, {"fusion_lat": 0.0, "name": "58829d60e60ec4abd6524d5a3d50ee74", "is_disabled": 0, "rental_uris": {"android": "https://dc.lft.to/lastmile_qr_scan", "ios": "https://dc.lft.to/lastmile_qr_scan"}, "fusion_lon": 0.0, "lat": 38.909729666666664, "bike_id": "58829d60e60ec4abd6524d5a3d50ee74", "type": "electric_scooter", "is_reserved": 0, "lon": -77.04038266666667}, {"fusion_lat": 0.0, "name": "3aaf8a7393e40aee330738ddf49d6f91", "is_disabled": 0, "rental_uris": {"android": "https://dc.lft.to/lastmile_qr_scan", "ios": "https://dc.lft.to/lastmile_qr_scan"}, "fusion_lon": 0.0, "lat": 38.939585666666666, "bike_id": "3aaf8a7393e40aee330738ddf49d6f91", "type": "electric_scooter", "is_reserved": 0, "lon": -77.0328445}, {"fusion_lat": 0.0, "name": "d686d85f12ec8d50b4ac65aea4276a5e", "is_disabled": 0, "rental_uris": {"android": "https://dc.lft.to/lastmile_qr_scan", "ios": "https://dc.lft.to/lastmile_qr_scan"}, "fusion_lon": 0.0, "lat": 38.84496983333333, "bike_id": "d686d85f12ec8d50b4ac65aea4276a5e", "type": "electric_scooter", "is_reserved": 0, "lon": -76.99600316666667}, {"fusion_lat": 0.0, "name": "97f1246b9dbbc9b6ddff98b23261adeb", "is_disabled": 0, "rental_uris": {"android": "https://dc.lft.to/lastmile_qr_scan", "ios": "https://dc.lft.to/lastmile_qr_scan"}, "fusion_lon": 0.0, "lat": 38.8739315, "bike_id": "97f1246b9dbbc9b6ddff98b23261adeb", "type": "electric_scooter", "is_reserved": 0, "lon": -77.01449383333333}, {"fusion_lat": 0.0, "name": "ae0b9fcdc31b9b521cc4825ff3fb090f", "is_disabled": 0, "rental_uris": {"android": "https://dc.lft.to/lastmile_qr_scan", "ios": "https://dc.lft.to/lastmile_qr_scan"}, "fusion_lon": 0.0, "lat": 38.925956166666666, "bike_id": "ae0b9fcdc31b9b521cc4825ff3fb090f", "type": "electric_bike", "is_reserved": 0, "lon": -77.210053}, {"fusion_lat": 0.0, "name": "541fc06da97d96a864c7ff8bf0259630", "is_disabled": 0, "rental_uris": {"android": "https://dc.lft.to/lastmile_qr_scan", "ios": "https://dc.lft.to/lastmile_qr_scan"}, "fusion_lon": 0.0, "lat": 38.917762833333335, "bike_id": "541fc06da97d96a864c7ff8bf0259630", "type": "electric_scooter", "is_reserved": 0, "lon": -77.03855116666666}, {"fusion_lat": 0.0, "name": "03db5a67cfc6fc19abb2330563f0bcd8", "is_disabled": 0, "rental_uris": {"android": "https://dc.lft.to/lastmile_qr_scan", "ios": "https://dc.lft.to/lastmile_qr_scan"}, "fusion_lon": 0.0, "lat": 38.8876735, "bike_id": "03db5a67cfc6fc19abb2330563f0bcd8", "type": "electric_scooter", "is_reserved": 0, "lon": -77.013041}, {"fusion_lat": 0.0, "name": "739d9c27c2c33d8a084abe262bbaa3b1", "is_disabled": 0, "rental_uris": {"android": "https://dc.lft.to/lastmile_qr_scan", "ios": "https://dc.lft.to/lastmile_qr_scan"}, "fusion_lon": 0.0, "lat": 38.90625266666667, "bike_id": "739d9c27c2c33d8a084abe262bbaa3b1", "type": "electric_scooter", "is_reserved": 0, "lon": -77.02603}, {"fusion_lat": 0.0, "name": "58c19fd83ef2d6693b91703fe43acde7", "is_disabled": 0, "rental_uris": {"android": "https://dc.lft.to/lastmile_qr_scan", "ios": "https://dc.lft.to/lastmile_qr_scan"}, "fusion_lon": 0.0, "lat": 38.919619833333336, "bike_id": "58c19fd83ef2d6693b91703fe43acde7", "type": "electric_scooter", "is_reserved": 0, "lon": -77.02505166666667}, {"fusion_lat": 0.0, "name": "8dfe9b882ed59d1f1ac3bbedaf5ed91d", "is_disabled": 0, "rental_uris": {"android": "https://dc.lft.to/lastmile_qr_scan", "ios": "https://dc.lft.to/lastmile_qr_scan"}, "fusion_lon": 0.0, "lat": 38.93119, "bike_id": "8dfe9b882ed59d1f1ac3bbedaf5ed91d", "type": "electric_scooter", "is_reserved": 0, "lon": -77.020883}, {"fusion_lat": 0.0, "name": "5de2311fad996cec8d7964c5b82f3aaf", "is_disabled": 0, "rental_uris": {"android": "https://dc.lft.to/lastmile_qr_scan", "ios": "https://dc.lft.to/lastmile_qr_scan"}, "fusion_lon": 0.0, "lat": 38.8279245, "bike_id": "5de2311fad996cec8d7964c5b82f3aaf", "type": "electric_bike", "is_reserved": 0, "lon": -77.12490766666667}, {"fusion_lat": 0.0, "name": "bb54d2dfea45ffb5ef4dfceb819e0394", "is_disabled": 0, "rental_uris": {"android": "https://dc.lft.to/lastmile_qr_scan", "ios": "https://dc.lft.to/lastmile_qr_scan"}, "fusion_lon": 0.0, "lat": 38.90016033333333, "bike_id": "bb54d2dfea45ffb5ef4dfceb819e0394", "type": "electric_scooter", "is_reserved": 0, "lon": -76.99976066666666}, {"fusion_lat": 0.0, "name": "10c6369c91c1d97e2f2dc9433d8f7bbf", "is_disabled": 0, "rental_uris": {"android": "https://dc.lft.to/lastmile_qr_scan", "ios": "https://dc.lft.to/lastmile_qr_scan"}, "fusion_lon": 0.0, "lat": 38.908523333333335, "bike_id": "10c6369c91c1d97e2f2dc9433d8f7bbf", "type": "electric_scooter", "is_reserved": 0, "lon": -77.02726}, {"fusion_lat": 0.0, "name": "ff35f05023e350f898e0b96108eb95f4", "is_disabled": 0, "rental_uris": {"android": "https://dc.lft.to/lastmile_qr_scan", "ios": "https://dc.lft.to/lastmile_qr_scan"}, "fusion_lon": 0.0, "lat": 38.91310216666667, "bike_id": "ff35f05023e350f898e0b96108eb95f4", "type": "electric_scooter", "is_reserved": 0, "lon": -77.03194733333333}, {"fusion_lat": 0.0, "name": "9c499cce023b2c1624278ba031b0bdb0", "is_disabled": 0, "rental_uris": {"android": "https://dc.lft.to/lastmile_qr_scan", "ios": "https://dc.lft.to/lastmile_qr_scan"}, "fusion_lon": 0.0, "lat": 38.89235216666667, "bike_id": "9c499cce023b2c1624278ba031b0bdb0", "type": "electric_scooter", "is_reserved": 0, "lon": -77.0238305}, {"fusion_lat": 0.0, "name": "c7f2ee946b734b67f305c7267d74ec5e", "is_disabled": 0, "rental_uris": {"android": "https://dc.lft.to/lastmile_qr_scan", "ios": "https://dc.lft.to/lastmile_qr_scan"}, "fusion_lon": 0.0, "lat": 38.92067566666667, "bike_id": "c7f2ee946b734b67f305c7267d74ec5e", "type": "electric_scooter", "is_reserved": 0, "lon": -77.0221935}, {"fusion_lat": 0.0, "name": "a6694c0188263ba107ce71c44a5434aa", "is_disabled": 0, "rental_uris": {"android": "https://dc.lft.to/lastmile_qr_scan", "ios": "https://dc.lft.to/lastmile_qr_scan"}, "fusion_lon": 0.0, "lat": 38.909755, "bike_id": "a6694c0188263ba107ce71c44a5434aa", "type": "electric_scooter", "is_reserved": 0, "lon": -77.04242166666667}, {"fusion_lat": 0.0, "name": "e6e6d2a1481e5507b12e84a2f02bcaf5", "is_disabled": 0, "rental_uris": {"android": "https://dc.lft.to/lastmile_qr_scan", "ios": "https://dc.lft.to/lastmile_qr_scan"}, "fusion_lon": 0.0, "lat": 38.8461535, "bike_id": "e6e6d2a1481e5507b12e84a2f02bcaf5", "type": "electric_bike", "is_reserved": 0, "lon": -76.96909366666667}, {"fusion_lat": 0.0, "name": "f9cb198c33c5476524ddfd3cfbc4a9ed", "is_disabled": 0, "rental_uris": {"android": "https://dc.lft.to/lastmile_qr_scan", "ios": "https://dc.lft.to/lastmile_qr_scan"}, "fusion_lon": 0.0, "lat": 38.93898883333333, "bike_id": "f9cb198c33c5476524ddfd3cfbc4a9ed", "type": "electric_scooter", "is_reserved": 0, "lon": -77.02468466666667}, {"fusion_lat": 0.0, "name": "ace1362878b3003a0c7a5d75f6e3c6b2", "is_disabled": 0, "rental_uris": {"android": "https://dc.lft.to/lastmile_qr_scan", "ios": "https://dc.lft.to/lastmile_qr_scan"}, "fusion_lon": 0.0, "lat": 38.920689, "bike_id": "ace1362878b3003a0c7a5d75f6e3c6b2", "type": "electric_scooter", "is_reserved": 0, "lon": -77.01473166666666}, {"fusion_lat": 0.0, "name": "e694db26f68acd250610e8084bedeb02", "is_disabled": 0, "rental_uris": {"android": "https://dc.lft.to/lastmile_qr_scan", "ios": "https://dc.lft.to/lastmile_qr_scan"}, "fusion_lon": 0.0, "lat": 38.876730333333334, "bike_id": "e694db26f68acd250610e8084bedeb02", "type": "electric_scooter", "is_reserved": 0, "lon": -77.00350533333334}, {"fusion_lat": 0.0, "name": "10fe0e5d7303204896171b6109f0c756", "is_disabled": 0, "rental_uris": {"android": "https://dc.lft.to/lastmile_qr_scan", "ios": "https://dc.lft.to/lastmile_qr_scan"}, "fusion_lon": 0.0, "lat": 38.873712166666664, "bike_id": "10fe0e5d7303204896171b6109f0c756", "type": "electric_scooter", "is_reserved": 0, "lon": -77.00130583333333}, {"fusion_lat": 0.0, "name": "d5ba8df03aaafe0d01898727bf15f9de", "is_disabled": 0, "rental_uris": {"android": "https://dc.lft.to/lastmile_qr_scan", "ios": "https://dc.lft.to/lastmile_qr_scan"}, "fusion_lon": 0.0, "lat": 38.90387316666666, "bike_id": "d5ba8df03aaafe0d01898727bf15f9de", "type": "electric_scooter", "is_reserved": 0, "lon": -77.01637183333334}, {"fusion_lat": 0.0, "name": "64994fe2c775ea1e8113e061ccf36d54", "is_disabled": 0, "rental_uris": {"android": "https://dc.lft.to/lastmile_qr_scan", "ios": "https://dc.lft.to/lastmile_qr_scan"}, "fusion_lon": 0.0, "lat": 38.967000166666665, "bike_id": "64994fe2c775ea1e8113e061ccf36d54", "type": "electric_bike", "is_reserved": 0, "lon": -77.02828116666667}, {"fusion_lat": 0.0, "name": "532ea831aa8805e706a689bc5224f623", "is_disabled": 0, "rental_uris": {"android": "https://dc.lft.to/lastmile_qr_scan", "ios": "https://dc.lft.to/lastmile_qr_scan"}, "fusion_lon": 0.0, "lat": 38.912544833333335, "bike_id": "532ea831aa8805e706a689bc5224f623", "type": "electric_scooter", "is_reserved": 0, "lon": -77.00778716666666}, {"fusion_lat": 0.0, "name": "f39da8c39448bc55696103cfbfd12caa", "is_disabled": 0, "rental_uris": {"android": "https://dc.lft.to/lastmile_qr_scan", "ios": "https://dc.lft.to/lastmile_qr_scan"}, "fusion_lon": 0.0, "lat": 38.91922266666667, "bike_id": "f39da8c39448bc55696103cfbfd12caa", "type": "electric_scooter", "is_reserved": 0, "lon": -77.03194216666667}, {"fusion_lat": 0.0, "name": "6172bc5ffaad0647569092d26832ce5d", "is_disabled": 0, "rental_uris": {"android": "https://dc.lft.to/lastmile_qr_scan", "ios": "https://dc.lft.to/lastmile_qr_scan"}, "fusion_lon": 0.0, "lat": 38.90029833333333, "bike_id": "6172bc5ffaad0647569092d26832ce5d", "type": "electric_scooter", "is_reserved": 0, "lon": -77.01215516666667}, {"fusion_lat": 0.0, "name": "f3484bdb7313fefadc208d2df365b64b", "is_disabled": 0, "rental_uris": {"android": "https://dc.lft.to/lastmile_qr_scan", "ios": "https://dc.lft.to/lastmile_qr_scan"}, "fusion_lon": 0.0, "lat": 38.89746516666666, "bike_id": "f3484bdb7313fefadc208d2df365b64b", "type": "electric_scooter", "is_reserved": 0, "lon": -77.033035}, {"fusion_lat": 0.0, "name": "9ab2fd857ce56cf8fac868178c310ce3", "is_disabled": 0, "rental_uris": {"android": "https://dc.lft.to/lastmile_qr_scan", "ios": "https://dc.lft.to/lastmile_qr_scan"}, "fusion_lon": 0.0, "lat": 38.904568833333336, "bike_id": "9ab2fd857ce56cf8fac868178c310ce3", "type": "electric_scooter", "is_reserved": 0, "lon": -77.05318033333333}, {"fusion_lat": 0.0, "name": "2c039049cabe903645f033e7c4b3c35a", "is_disabled": 0, "rental_uris": {"android": "https://dc.lft.to/lastmile_qr_scan", "ios": "https://dc.lft.to/lastmile_qr_scan"}, "fusion_lon": 0.0, "lat": 38.89952133333333, "bike_id": "2c039049cabe903645f033e7c4b3c35a", "type": "electric_scooter", "is_reserved": 0, "lon": -77.0570795}, {"fusion_lat": 0.0, "name": "fb86a357592b69e39042ee00a88c380e", "is_disabled": 0, "rental_uris": {"android": "https://dc.lft.to/lastmile_qr_scan", "ios": "https://dc.lft.to/lastmile_qr_scan"}, "fusion_lon": 0.0, "lat": 38.91536383333333, "bike_id": "fb86a357592b69e39042ee00a88c380e", "type": "electric_scooter", "is_reserved": 0, "lon": -77.03204983333333}, {"fusion_lat": 0.0, "name": "4d65a8ebf3ca16bbb32362288d2475af", "is_disabled": 0, "rental_uris": {"android": "https://dc.lft.to/lastmile_qr_scan", "ios": "https://dc.lft.to/lastmile_qr_scan"}, "fusion_lon": 0.0, "lat": 38.922825833333334, "bike_id": "4d65a8ebf3ca16bbb32362288d2475af", "type": "electric_scooter", "is_reserved": 0, "lon": -77.0365955}, {"fusion_lat": 0.0, "name": "a060dd52d2b38fe6cbaddb7b7f6f3f9b", "is_disabled": 0, "rental_uris": {"android": "https://dc.lft.to/lastmile_qr_scan", "ios": "https://dc.lft.to/lastmile_qr_scan"}, "fusion_lon": 0.0, "lat": 38.88743866666667, "bike_id": "a060dd52d2b38fe6cbaddb7b7f6f3f9b", "type": "electric_scooter", "is_reserved": 0, "lon": -77.021409}, {"fusion_lat": 0.0, "name": "0cb6a6cd1473988a27e0de976e4d3e57", "is_disabled": 0, "rental_uris": {"android": "https://dc.lft.to/lastmile_qr_scan", "ios": "https://dc.lft.to/lastmile_qr_scan"}, "fusion_lon": 0.0, "lat": 38.91400083333333, "bike_id": "0cb6a6cd1473988a27e0de976e4d3e57", "type": "electric_scooter", "is_reserved": 0, "lon": -77.07555183333334}, {"fusion_lat": 0.0, "name": "e8c56bed4a880619c071e637f1c44663", "is_disabled": 0, "rental_uris": {"android": "https://dc.lft.to/lastmile_qr_scan", "ios": "https://dc.lft.to/lastmile_qr_scan"}, "fusion_lon": 0.0, "lat": 38.90285266666667, "bike_id": "e8c56bed4a880619c071e637f1c44663", "type": "electric_scooter", "is_reserved": 0, "lon": -77.0363885}, {"fusion_lat": 0.0, "name": "2deaaf974d5204c1d92fd9074dd0676a", "is_disabled": 0, "rental_uris": {"android": "https://dc.lft.to/lastmile_qr_scan", "ios": "https://dc.lft.to/lastmile_qr_scan"}, "fusion_lon": 0.0, "lat": 38.9072685, "bike_id": "2deaaf974d5204c1d92fd9074dd0676a", "type": "electric_scooter", "is_reserved": 0, "lon": -77.04563116666667}, {"fusion_lat": 0.0, "name": "7a442fe13c4920e6f7bd23150609ee3a", "is_disabled": 0, "rental_uris": {"android": "https://dc.lft.to/lastmile_qr_scan", "ios": "https://dc.lft.to/lastmile_qr_scan"}, "fusion_lon": 0.0, "lat": 38.900263333333335, "bike_id": "7a442fe13c4920e6f7bd23150609ee3a", "type": "electric_scooter", "is_reserved": 0, "lon": -76.99877983333333}, {"fusion_lat": 0.0, "name": "b5f7baf8607bb62a7722fdf069233e19", "is_disabled": 0, "rental_uris": {"android": "https://dc.lft.to/lastmile_qr_scan", "ios": "https://dc.lft.to/lastmile_qr_scan"}, "fusion_lon": 0.0, "lat": 38.91771933333333, "bike_id": "b5f7baf8607bb62a7722fdf069233e19", "type": "electric_scooter", "is_reserved": 0, "lon": -77.035738}, {"fusion_lat": 0.0, "name": "0a2378f924a541f8010b4b9b55ac8c45", "is_disabled": 0, "rental_uris": {"android": "https://dc.lft.to/lastmile_qr_scan", "ios": "https://dc.lft.to/lastmile_qr_scan"}, "fusion_lon": 0.0, "lat": 38.9214995, "bike_id": "0a2378f924a541f8010b4b9b55ac8c45", "type": "electric_scooter", "is_reserved": 0, "lon": -77.04366283333333}, {"fusion_lat": 0.0, "name": "afb531041d1aed8c50595304ad6906e6", "is_disabled": 0, "rental_uris": {"android": "https://dc.lft.to/lastmile_qr_scan", "ios": "https://dc.lft.to/lastmile_qr_scan"}, "fusion_lon": 0.0, "lat": 38.8989745, "bike_id": "afb531041d1aed8c50595304ad6906e6", "type": "electric_scooter", "is_reserved": 0, "lon": -77.03931866666667}, {"fusion_lat": 0.0, "name": "6b06510708d1635d02d07fcf9bfb1a83", "is_disabled": 0, "rental_uris": {"android": "https://dc.lft.to/lastmile_qr_scan", "ios": "https://dc.lft.to/lastmile_qr_scan"}, "fusion_lon": 0.0, "lat": 38.978798833333336, "bike_id": "6b06510708d1635d02d07fcf9bfb1a83", "type": "electric_bike", "is_reserved": 0, "lon": -77.060257}, {"fusion_lat": 0.0, "name": "2a3f6d0230138584a97ffbfdef77a2f9", "is_disabled": 0, "rental_uris": {"android": "https://dc.lft.to/lastmile_qr_scan", "ios": "https://dc.lft.to/lastmile_qr_scan"}, "fusion_lon": 0.0, "lat": 38.91260183333333, "bike_id": "2a3f6d0230138584a97ffbfdef77a2f9", "type": "electric_scooter", "is_reserved": 0, "lon": -77.03867866666667}, {"fusion_lat": 0.0, "name": "66adb132c5d8e282eec52168aa2ed2ff", "is_disabled": 0, "rental_uris": {"android": "https://dc.lft.to/lastmile_qr_scan", "ios": "https://dc.lft.to/lastmile_qr_scan"}, "fusion_lon": 0.0, "lat": 38.9213505, "bike_id": "66adb132c5d8e282eec52168aa2ed2ff", "type": "electric_scooter", "is_reserved": 0, "lon": -77.0039915}, {"fusion_lat": 0.0, "name": "bf407af80470ad464e91cf2716c3d80d", "is_disabled": 0, "rental_uris": {"android": "https://dc.lft.to/lastmile_qr_scan", "ios": "https://dc.lft.to/lastmile_qr_scan"}, "fusion_lon": 0.0, "lat": 38.83758316666667, "bike_id": "bf407af80470ad464e91cf2716c3d80d", "type": "electric_bike", "is_reserved": 0, "lon": -77.09300616666667}, {"fusion_lat": 0.0, "name": "6e90b8de4f2d1865b34e88f539ffc7bf", "is_disabled": 0, "rental_uris": {"android": "https://dc.lft.to/lastmile_qr_scan", "ios": "https://dc.lft.to/lastmile_qr_scan"}, "fusion_lon": 0.0, "lat": 38.902111166666664, "bike_id": "6e90b8de4f2d1865b34e88f539ffc7bf", "type": "electric_scooter", "is_reserved": 0, "lon": -77.02220116666666}, {"fusion_lat": 0.0, "name": "1a98cbcb75d3ab4789d93292cbef9a58", "is_disabled": 0, "rental_uris": {"android": "https://dc.lft.to/lastmile_qr_scan", "ios": "https://dc.lft.to/lastmile_qr_scan"}, "fusion_lon": 0.0, "lat": 38.917038, "bike_id": "1a98cbcb75d3ab4789d93292cbef9a58", "type": "electric_scooter", "is_reserved": 0, "lon": -77.02867616666667}, {"fusion_lat": 0.0, "name": "c9f611daa8fc27f6ddcea7604ec0bb53", "is_disabled": 0, "rental_uris": {"android": "https://dc.lft.to/lastmile_qr_scan", "ios": "https://dc.lft.to/lastmile_qr_scan"}, "fusion_lon": 0.0, "lat": 38.92344166666667, "bike_id": "c9f611daa8fc27f6ddcea7604ec0bb53", "type": "electric_scooter", "is_reserved": 0, "lon": -77.05171983333334}, {"fusion_lat": 0.0, "name": "0c0adf824487ed8ac2ad63353bb7be32", "is_disabled": 0, "rental_uris": {"android": "https://dc.lft.to/lastmile_qr_scan", "ios": "https://dc.lft.to/lastmile_qr_scan"}, "fusion_lon": 0.0, "lat": 38.939841333333334, "bike_id": "0c0adf824487ed8ac2ad63353bb7be32", "type": "electric_scooter", "is_reserved": 0, "lon": -77.028936}, {"fusion_lat": 0.0, "name": "1c49d945cbe01941b1db7acc8e80566e", "is_disabled": 0, "rental_uris": {"android": "https://dc.lft.to/lastmile_qr_scan", "ios": "https://dc.lft.to/lastmile_qr_scan"}, "fusion_lon": 0.0, "lat": 38.899958833333336, "bike_id": "1c49d945cbe01941b1db7acc8e80566e", "type": "electric_scooter", "is_reserved": 0, "lon": -77.02215}, {"fusion_lat": 0.0, "name": "9585210a25e6c8df987b494fd5b153fd", "is_disabled": 0, "rental_uris": {"android": "https://dc.lft.to/lastmile_qr_scan", "ios": "https://dc.lft.to/lastmile_qr_scan"}, "fusion_lon": 0.0, "lat": 38.906415, "bike_id": "9585210a25e6c8df987b494fd5b153fd", "type": "electric_scooter", "is_reserved": 0, "lon": -77.06295883333334}, {"fusion_lat": 0.0, "name": "0f51fb9b2af7ba030bb8ee580758d222", "is_disabled": 0, "rental_uris": {"android": "https://dc.lft.to/lastmile_qr_scan", "ios": "https://dc.lft.to/lastmile_qr_scan"}, "fusion_lon": 0.0, "lat": 38.935875833333334, "bike_id": "0f51fb9b2af7ba030bb8ee580758d222", "type": "electric_scooter", "is_reserved": 0, "lon": -77.02845233333333}, {"fusion_lat": 0.0, "name": "a6a901fe428fce88d187dd5eddb59061", "is_disabled": 0, "rental_uris": {"android": "https://dc.lft.to/lastmile_qr_scan", "ios": "https://dc.lft.to/lastmile_qr_scan"}, "fusion_lon": 0.0, "lat": 38.874827833333335, "bike_id": "a6a901fe428fce88d187dd5eddb59061", "type": "electric_scooter", "is_reserved": 0, "lon": -77.00589}, {"fusion_lat": 0.0, "name": "fbfacadee9558bb8e9b0e5089954336e", "is_disabled": 0, "rental_uris": {"android": "https://dc.lft.to/lastmile_qr_scan", "ios": "https://dc.lft.to/lastmile_qr_scan"}, "fusion_lon": 0.0, "lat": 38.88768733333333, "bike_id": "fbfacadee9558bb8e9b0e5089954336e", "type": "electric_scooter", "is_reserved": 0, "lon": -76.99161583333333}, {"fusion_lat": 0.0, "name": "34208ff378b402733e099747d55a5178", "is_disabled": 0, "rental_uris": {"android": "https://dc.lft.to/lastmile_qr_scan", "ios": "https://dc.lft.to/lastmile_qr_scan"}, "fusion_lon": 0.0, "lat": 38.9018565, "bike_id": "34208ff378b402733e099747d55a5178", "type": "electric_scooter", "is_reserved": 0, "lon": -77.05055266666666}, {"fusion_lat": 0.0, "name": "f5540b028b4215684fa8109449a197dc", "is_disabled": 0, "rental_uris": {"android": "https://dc.lft.to/lastmile_qr_scan", "ios": "https://dc.lft.to/lastmile_qr_scan"}, "fusion_lon": 0.0, "lat": 38.88731583333333, "bike_id": "f5540b028b4215684fa8109449a197dc", "type": "electric_scooter", "is_reserved": 0, "lon": -77.0318245}, {"fusion_lat": 0.0, "name": "622ef3c49c8fb55e2c26931f05848666", "is_disabled": 0, "rental_uris": {"android": "https://dc.lft.to/lastmile_qr_scan", "ios": "https://dc.lft.to/lastmile_qr_scan"}, "fusion_lon": 0.0, "lat": 38.90330616666667, "bike_id": "622ef3c49c8fb55e2c26931f05848666", "type": "electric_bike", "is_reserved": 0, "lon": -76.97530883333333}, {"fusion_lat": 0.0, "name": "6c9d69601d339bdb905815e42e5cd74e", "is_disabled": 0, "rental_uris": {"android": "https://dc.lft.to/lastmile_qr_scan", "ios": "https://dc.lft.to/lastmile_qr_scan"}, "fusion_lon": 0.0, "lat": 38.92753916666667, "bike_id": "6c9d69601d339bdb905815e42e5cd74e", "type": "electric_scooter", "is_reserved": 0, "lon": -77.0244955}, {"fusion_lat": 0.0, "name": "11ba50f5212882fae258c75acc92e20f", "is_disabled": 0, "rental_uris": {"android": "https://dc.lft.to/lastmile_qr_scan", "ios": "https://dc.lft.to/lastmile_qr_scan"}, "fusion_lon": 0.0, "lat": 38.92012916666667, "bike_id": "11ba50f5212882fae258c75acc92e20f", "type": "electric_scooter", "is_reserved": 0, "lon": -77.03218466666667}, {"fusion_lat": 0.0, "name": "d80aa3c80ebbacec17aa4999ae7812a5", "is_disabled": 0, "rental_uris": {"android": "https://dc.lft.to/lastmile_qr_scan", "ios": "https://dc.lft.to/lastmile_qr_scan"}, "fusion_lon": 0.0, "lat": 38.85800116666667, "bike_id": "d80aa3c80ebbacec17aa4999ae7812a5", "type": "electric_bike", "is_reserved": 0, "lon": -77.05145216666666}, {"fusion_lat": 0.0, "name": "20ff7ddd98b49da68da6850606d46957", "is_disabled": 0, "rental_uris": {"android": "https://dc.lft.to/lastmile_qr_scan", "ios": "https://dc.lft.to/lastmile_qr_scan"}, "fusion_lon": 0.0, "lat": 38.956058666666664, "bike_id": "20ff7ddd98b49da68da6850606d46957", "type": "electric_scooter", "is_reserved": 0, "lon": -77.0335225}, {"fusion_lat": 0.0, "name": "b49e91d21c5a6bdca851d38cb11bda06", "is_disabled": 0, "rental_uris": {"android": "https://dc.lft.to/lastmile_qr_scan", "ios": "https://dc.lft.to/lastmile_qr_scan"}, "fusion_lon": 0.0, "lat": 38.910336, "bike_id": "b49e91d21c5a6bdca851d38cb11bda06", "type": "electric_scooter", "is_reserved": 0, "lon": -77.033271}, {"fusion_lat": 0.0, "name": "c59ca14381cdbafb1a4a7288215fb566", "is_disabled": 0, "rental_uris": {"android": "https://dc.lft.to/lastmile_qr_scan", "ios": "https://dc.lft.to/lastmile_qr_scan"}, "fusion_lon": 0.0, "lat": 38.91553016666667, "bike_id": "c59ca14381cdbafb1a4a7288215fb566", "type": "electric_scooter", "is_reserved": 0, "lon": -77.02206883333334}, {"fusion_lat": 0.0, "name": "a0e47c531b3de44edc0c20ea2ec7d0aa", "is_disabled": 0, "rental_uris": {"android": "https://dc.lft.to/lastmile_qr_scan", "ios": "https://dc.lft.to/lastmile_qr_scan"}, "fusion_lon": 0.0, "lat": 38.943241, "bike_id": "a0e47c531b3de44edc0c20ea2ec7d0aa", "type": "electric_scooter", "is_reserved": 0, "lon": -77.06137916666667}, {"fusion_lat": 0.0, "name": "d366df95193c8c451f3a08ece33bbc92", "is_disabled": 0, "rental_uris": {"android": "https://dc.lft.to/lastmile_qr_scan", "ios": "https://dc.lft.to/lastmile_qr_scan"}, "fusion_lon": 0.0, "lat": 38.901384666666665, "bike_id": "d366df95193c8c451f3a08ece33bbc92", "type": "electric_scooter", "is_reserved": 0, "lon": -76.984124}, {"fusion_lat": 0.0, "name": "8d060efa63b5b5e9569fe9927b7e3f4d", "is_disabled": 0, "rental_uris": {"android": "https://dc.lft.to/lastmile_qr_scan", "ios": "https://dc.lft.to/lastmile_qr_scan"}, "fusion_lon": 0.0, "lat": 38.906908, "bike_id": "8d060efa63b5b5e9569fe9927b7e3f4d", "type": "electric_scooter", "is_reserved": 0, "lon": -77.03596816666666}, {"fusion_lat": 0.0, "name": "819c7a25856351c7861410a5cfd3221e", "is_disabled": 0, "rental_uris": {"android": "https://dc.lft.to/lastmile_qr_scan", "ios": "https://dc.lft.to/lastmile_qr_scan"}, "fusion_lon": 0.0, "lat": 38.952266333333334, "bike_id": "819c7a25856351c7861410a5cfd3221e", "type": "electric_scooter", "is_reserved": 0, "lon": -77.06799583333333}, {"fusion_lat": 0.0, "name": "2f843f3b7fd1e2704a18ebac8bcd3ba8", "is_disabled": 0, "rental_uris": {"android": "https://dc.lft.to/lastmile_qr_scan", "ios": "https://dc.lft.to/lastmile_qr_scan"}, "fusion_lon": 0.0, "lat": 38.892236, "bike_id": "2f843f3b7fd1e2704a18ebac8bcd3ba8", "type": "electric_scooter", "is_reserved": 0, "lon": -77.0263565}, {"fusion_lat": 0.0, "name": "e1ef9f0d44c831590612395538fe4a01", "is_disabled": 0, "rental_uris": {"android": "https://dc.lft.to/lastmile_qr_scan", "ios": "https://dc.lft.to/lastmile_qr_scan"}, "fusion_lon": 0.0, "lat": 38.9110795, "bike_id": "e1ef9f0d44c831590612395538fe4a01", "type": "electric_scooter", "is_reserved": 0, "lon": -77.04842383333333}, {"fusion_lat": 0.0, "name": "f1f8bddd15e33c2e72b818291593e623", "is_disabled": 0, "rental_uris": {"android": "https://dc.lft.to/lastmile_qr_scan", "ios": "https://dc.lft.to/lastmile_qr_scan"}, "fusion_lon": 0.0, "lat": 38.9070675, "bike_id": "f1f8bddd15e33c2e72b818291593e623", "type": "electric_scooter", "is_reserved": 0, "lon": -77.034463}, {"fusion_lat": 0.0, "name": "d2e4f09c04fb9301bd1e1ec952b5b74a", "is_disabled": 0, "rental_uris": {"android": "https://dc.lft.to/lastmile_qr_scan", "ios": "https://dc.lft.to/lastmile_qr_scan"}, "fusion_lon": 0.0, "lat": 38.842832666666666, "bike_id": "d2e4f09c04fb9301bd1e1ec952b5b74a", "type": "electric_bike", "is_reserved": 0, "lon": -77.0449225}, {"fusion_lat": 0.0, "name": "4fcc5237995f190deee36417342be76b", "is_disabled": 0, "rental_uris": {"android": "https://dc.lft.to/lastmile_qr_scan", "ios": "https://dc.lft.to/lastmile_qr_scan"}, "fusion_lon": 0.0, "lat": 38.94339566666667, "bike_id": "4fcc5237995f190deee36417342be76b", "type": "electric_scooter", "is_reserved": 0, "lon": -77.0324585}, {"fusion_lat": 0.0, "name": "ca4efafeee8240f1a40b90858beeed3e", "is_disabled": 0, "rental_uris": {"android": "https://dc.lft.to/lastmile_qr_scan", "ios": "https://dc.lft.to/lastmile_qr_scan"}, "fusion_lon": 0.0, "lat": 38.900242, "bike_id": "ca4efafeee8240f1a40b90858beeed3e", "type": "electric_scooter", "is_reserved": 0, "lon": -76.99356366666666}, {"fusion_lat": 0.0, "name": "009af0ff870786da30ea4de2761068ca", "is_disabled": 0, "rental_uris": {"android": "https://dc.lft.to/lastmile_qr_scan", "ios": "https://dc.lft.to/lastmile_qr_scan"}, "fusion_lon": 0.0, "lat": 38.9081035, "bike_id": "009af0ff870786da30ea4de2761068ca", "type": "electric_scooter", "is_reserved": 0, "lon": -77.04272766666666}, {"fusion_lat": 0.0, "name": "321b660efaaf92d246898b84f8ff03b9", "is_disabled": 0, "rental_uris": {"android": "https://dc.lft.to/lastmile_qr_scan", "ios": "https://dc.lft.to/lastmile_qr_scan"}, "fusion_lon": 0.0, "lat": 38.87211, "bike_id": "321b660efaaf92d246898b84f8ff03b9", "type": "electric_scooter", "is_reserved": 0, "lon": -77.00573366666667}, {"fusion_lat": 0.0, "name": "44052b0d932e848c5615d7b348534d6a", "is_disabled": 0, "rental_uris": {"android": "https://dc.lft.to/lastmile_qr_scan", "ios": "https://dc.lft.to/lastmile_qr_scan"}, "fusion_lon": 0.0, "lat": 38.900691333333334, "bike_id": "44052b0d932e848c5615d7b348534d6a", "type": "electric_scooter", "is_reserved": 0, "lon": -77.01622216666667}, {"fusion_lat": 0.0, "name": "61926550a2079dcfba23629afb88589e", "is_disabled": 0, "rental_uris": {"android": "https://dc.lft.to/lastmile_qr_scan", "ios": "https://dc.lft.to/lastmile_qr_scan"}, "fusion_lon": 0.0, "lat": 38.917751, "bike_id": "61926550a2079dcfba23629afb88589e", "type": "electric_scooter", "is_reserved": 0, "lon": -77.02412383333333}, {"fusion_lat": 0.0, "name": "4619888c4bf1954a550d3b469b0d1a13", "is_disabled": 0, "rental_uris": {"android": "https://dc.lft.to/lastmile_qr_scan", "ios": "https://dc.lft.to/lastmile_qr_scan"}, "fusion_lon": 0.0, "lat": 38.910119333333334, "bike_id": "4619888c4bf1954a550d3b469b0d1a13", "type": "electric_scooter", "is_reserved": 0, "lon": -77.052721}, {"fusion_lat": 0.0, "name": "69b642fe0df334304ce11993bc3d615d", "is_disabled": 0, "rental_uris": {"android": "https://dc.lft.to/lastmile_qr_scan", "ios": "https://dc.lft.to/lastmile_qr_scan"}, "fusion_lon": 0.0, "lat": 38.919304, "bike_id": "69b642fe0df334304ce11993bc3d615d", "type": "electric_scooter", "is_reserved": 0, "lon": -77.02660866666666}, {"fusion_lat": 0.0, "name": "47adaebd06e657c4c9003b06ff6dc27f", "is_disabled": 0, "rental_uris": {"android": "https://dc.lft.to/lastmile_qr_scan", "ios": "https://dc.lft.to/lastmile_qr_scan"}, "fusion_lon": 0.0, "lat": 38.90728716666667, "bike_id": "47adaebd06e657c4c9003b06ff6dc27f", "type": "electric_scooter", "is_reserved": 0, "lon": -77.04351816666667}, {"fusion_lat": 0.0, "name": "fdfea3c6c1c9d8363c562bf0a26de1c2", "is_disabled": 0, "rental_uris": {"android": "https://dc.lft.to/lastmile_qr_scan", "ios": "https://dc.lft.to/lastmile_qr_scan"}, "fusion_lon": 0.0, "lat": 38.88388283333333, "bike_id": "fdfea3c6c1c9d8363c562bf0a26de1c2", "type": "electric_scooter", "is_reserved": 0, "lon": -76.93050016666666}, {"fusion_lat": 0.0, "name": "a21633f9e2f62dbe321e5b5e2196bc0f", "is_disabled": 0, "rental_uris": {"android": "https://dc.lft.to/lastmile_qr_scan", "ios": "https://dc.lft.to/lastmile_qr_scan"}, "fusion_lon": 0.0, "lat": 38.883598166666665, "bike_id": "a21633f9e2f62dbe321e5b5e2196bc0f", "type": "electric_scooter", "is_reserved": 0, "lon": -77.01354866666667}, {"fusion_lat": 0.0, "name": "83dbd0ea2088e7eb664e2f8d5a0da028", "is_disabled": 0, "rental_uris": {"android": "https://dc.lft.to/lastmile_qr_scan", "ios": "https://dc.lft.to/lastmile_qr_scan"}, "fusion_lon": 0.0, "lat": 38.8976245, "bike_id": "83dbd0ea2088e7eb664e2f8d5a0da028", "type": "electric_scooter", "is_reserved": 0, "lon": -77.00198566666667}, {"fusion_lat": 0.0, "name": "b20bd9d3e22bc2e47f45c3310895c88f", "is_disabled": 0, "rental_uris": {"android": "https://dc.lft.to/lastmile_qr_scan", "ios": "https://dc.lft.to/lastmile_qr_scan"}, "fusion_lon": 0.0, "lat": 38.91566516666666, "bike_id": "b20bd9d3e22bc2e47f45c3310895c88f", "type": "electric_scooter", "is_reserved": 0, "lon": -77.03168933333333}, {"fusion_lat": 0.0, "name": "78c8df6b4aa8810f83c35ef45184d99b", "is_disabled": 0, "rental_uris": {"android": "https://dc.lft.to/lastmile_qr_scan", "ios": "https://dc.lft.to/lastmile_qr_scan"}, "fusion_lon": 0.0, "lat": 38.92291483333333, "bike_id": "78c8df6b4aa8810f83c35ef45184d99b", "type": "electric_scooter", "is_reserved": 0, "lon": -77.04209116666667}, {"fusion_lat": 0.0, "name": "0577d80bc36d8d3defa9cac3ec288f0c", "is_disabled": 0, "rental_uris": {"android": "https://dc.lft.to/lastmile_qr_scan", "ios": "https://dc.lft.to/lastmile_qr_scan"}, "fusion_lon": 0.0, "lat": 38.93712883333333, "bike_id": "0577d80bc36d8d3defa9cac3ec288f0c", "type": "electric_scooter", "is_reserved": 0, "lon": -77.02421033333333}, {"fusion_lat": 0.0, "name": "4b4df79baef1041c9c07c822556a8472", "is_disabled": 0, "rental_uris": {"android": "https://dc.lft.to/lastmile_qr_scan", "ios": "https://dc.lft.to/lastmile_qr_scan"}, "fusion_lon": 0.0, "lat": 38.887693, "bike_id": "4b4df79baef1041c9c07c822556a8472", "type": "electric_scooter", "is_reserved": 0, "lon": -77.02369883333333}, {"fusion_lat": 0.0, "name": "a828c5b7afd6e7e81b708411d714c71a", "is_disabled": 0, "rental_uris": {"android": "https://dc.lft.to/lastmile_qr_scan", "ios": "https://dc.lft.to/lastmile_qr_scan"}, "fusion_lon": 0.0, "lat": 38.899231, "bike_id": "a828c5b7afd6e7e81b708411d714c71a", "type": "electric_scooter", "is_reserved": 0, "lon": -77.040381}, {"fusion_lat": 0.0, "name": "017f0655e95195392820682213c74f53", "is_disabled": 0, "rental_uris": {"android": "https://dc.lft.to/lastmile_qr_scan", "ios": "https://dc.lft.to/lastmile_qr_scan"}, "fusion_lon": 0.0, "lat": 38.90648383333333, "bike_id": "017f0655e95195392820682213c74f53", "type": "electric_scooter", "is_reserved": 0, "lon": -77.03155583333333}, {"fusion_lat": 0.0, "name": "46cd103bc0fb7bfd3fcab7efaf7029b1", "is_disabled": 0, "rental_uris": {"android": "https://dc.lft.to/lastmile_qr_scan", "ios": "https://dc.lft.to/lastmile_qr_scan"}, "fusion_lon": 0.0, "lat": 38.8766345, "bike_id": "46cd103bc0fb7bfd3fcab7efaf7029b1", "type": "electric_scooter", "is_reserved": 0, "lon": -77.00328016666667}, {"fusion_lat": 0.0, "name": "7b6934bd8b202be07b6bf3fb4dfd4202", "is_disabled": 0, "rental_uris": {"android": "https://dc.lft.to/lastmile_qr_scan", "ios": "https://dc.lft.to/lastmile_qr_scan"}, "fusion_lon": 0.0, "lat": 38.931806333333334, "bike_id": "7b6934bd8b202be07b6bf3fb4dfd4202", "type": "electric_scooter", "is_reserved": 0, "lon": -77.02352366666666}, {"fusion_lat": 0.0, "name": "87c7d78a077ad02564e40248a175b4c9", "is_disabled": 0, "rental_uris": {"android": "https://dc.lft.to/lastmile_qr_scan", "ios": "https://dc.lft.to/lastmile_qr_scan"}, "fusion_lon": 0.0, "lat": 38.89852233333333, "bike_id": "87c7d78a077ad02564e40248a175b4c9", "type": "electric_scooter", "is_reserved": 0, "lon": -76.95042183333334}, {"fusion_lat": 0.0, "name": "be4dc32bea71e8777c10027aaec371a8", "is_disabled": 0, "rental_uris": {"android": "https://dc.lft.to/lastmile_qr_scan", "ios": "https://dc.lft.to/lastmile_qr_scan"}, "fusion_lon": 0.0, "lat": 38.899092833333334, "bike_id": "be4dc32bea71e8777c10027aaec371a8", "type": "electric_scooter", "is_reserved": 0, "lon": -77.0267135}, {"fusion_lat": 0.0, "name": "01f1e6cda938fd434ea5ee7322c6f918", "is_disabled": 0, "rental_uris": {"android": "https://dc.lft.to/lastmile_qr_scan", "ios": "https://dc.lft.to/lastmile_qr_scan"}, "fusion_lon": 0.0, "lat": 38.94502883333333, "bike_id": "01f1e6cda938fd434ea5ee7322c6f918", "type": "electric_scooter", "is_reserved": 0, "lon": -77.038656}, {"fusion_lat": 0.0, "name": "90b4a568e5a9cf29fea687a7ce26ab36", "is_disabled": 0, "rental_uris": {"android": "https://dc.lft.to/lastmile_qr_scan", "ios": "https://dc.lft.to/lastmile_qr_scan"}, "fusion_lon": 0.0, "lat": 38.90593466666667, "bike_id": "90b4a568e5a9cf29fea687a7ce26ab36", "type": "electric_scooter", "is_reserved": 0, "lon": -77.04663316666667}, {"fusion_lat": 0.0, "name": "808a59df8673db359dd481df524eefbb", "is_disabled": 0, "rental_uris": {"android": "https://dc.lft.to/lastmile_qr_scan", "ios": "https://dc.lft.to/lastmile_qr_scan"}, "fusion_lon": 0.0, "lat": 38.90703516666667, "bike_id": "808a59df8673db359dd481df524eefbb", "type": "electric_scooter", "is_reserved": 0, "lon": -77.03215266666666}, {"fusion_lat": 0.0, "name": "b1efc6cf7db10b3a1e2405784459af6e", "is_disabled": 0, "rental_uris": {"android": "https://dc.lft.to/lastmile_qr_scan", "ios": "https://dc.lft.to/lastmile_qr_scan"}, "fusion_lon": 0.0, "lat": 38.91121666666667, "bike_id": "b1efc6cf7db10b3a1e2405784459af6e", "type": "electric_scooter", "is_reserved": 0, "lon": -77.0296865}, {"fusion_lat": 0.0, "name": "bd11f0305240b2ce73b81e8ec3964c8a", "is_disabled": 0, "rental_uris": {"android": "https://dc.lft.to/lastmile_qr_scan", "ios": "https://dc.lft.to/lastmile_qr_scan"}, "fusion_lon": 0.0, "lat": 38.92057966666667, "bike_id": "bd11f0305240b2ce73b81e8ec3964c8a", "type": "electric_bike", "is_reserved": 0, "lon": -77.24131966666667}, {"fusion_lat": 0.0, "name": "73135271f760737927e4ebccc24b8735", "is_disabled": 0, "rental_uris": {"android": "https://dc.lft.to/lastmile_qr_scan", "ios": "https://dc.lft.to/lastmile_qr_scan"}, "fusion_lon": 0.0, "lat": 38.8877255, "bike_id": "73135271f760737927e4ebccc24b8735", "type": "electric_scooter", "is_reserved": 0, "lon": -76.99161433333333}, {"fusion_lat": 0.0, "name": "766dcf92a0eb0022b5ffc3895612f28f", "is_disabled": 0, "rental_uris": {"android": "https://dc.lft.to/lastmile_qr_scan", "ios": "https://dc.lft.to/lastmile_qr_scan"}, "fusion_lon": 0.0, "lat": 38.91254216666667, "bike_id": "766dcf92a0eb0022b5ffc3895612f28f", "type": "electric_scooter", "is_reserved": 0, "lon": -77.03865516666667}, {"fusion_lat": 0.0, "name": "23d6ec294c5533783c1f9ea68a70c3b6", "is_disabled": 0, "rental_uris": {"android": "https://dc.lft.to/lastmile_qr_scan", "ios": "https://dc.lft.to/lastmile_qr_scan"}, "fusion_lon": 0.0, "lat": 38.920714, "bike_id": "23d6ec294c5533783c1f9ea68a70c3b6", "type": "electric_scooter", "is_reserved": 0, "lon": -77.0438265}, {"fusion_lat": 0.0, "name": "a1577ba96b3a20879505b8eacc2f5520", "is_disabled": 0, "rental_uris": {"android": "https://dc.lft.to/lastmile_qr_scan", "ios": "https://dc.lft.to/lastmile_qr_scan"}, "fusion_lon": 0.0, "lat": 38.91832083333333, "bike_id": "a1577ba96b3a20879505b8eacc2f5520", "type": "electric_scooter", "is_reserved": 0, "lon": -77.03513983333333}, {"fusion_lat": 0.0, "name": "9de22adf83cea0af1fb4a7f10e5e8413", "is_disabled": 0, "rental_uris": {"android": "https://dc.lft.to/lastmile_qr_scan", "ios": "https://dc.lft.to/lastmile_qr_scan"}, "fusion_lon": 0.0, "lat": 38.8600605, "bike_id": "9de22adf83cea0af1fb4a7f10e5e8413", "type": "electric_scooter", "is_reserved": 0, "lon": -76.98520666666667}, {"fusion_lat": 0.0, "name": "306dff017a6b9aa63af0567c45c4335a", "is_disabled": 0, "rental_uris": {"android": "https://dc.lft.to/lastmile_qr_scan", "ios": "https://dc.lft.to/lastmile_qr_scan"}, "fusion_lon": 0.0, "lat": 38.92535183333333, "bike_id": "306dff017a6b9aa63af0567c45c4335a", "type": "electric_scooter", "is_reserved": 0, "lon": -77.05242916666667}, {"fusion_lat": 0.0, "name": "3c8cdf4eb2f74dd14d60946ac7e52e31", "is_disabled": 0, "rental_uris": {"android": "https://dc.lft.to/lastmile_qr_scan", "ios": "https://dc.lft.to/lastmile_qr_scan"}, "fusion_lon": 0.0, "lat": 38.9208035, "bike_id": "3c8cdf4eb2f74dd14d60946ac7e52e31", "type": "electric_scooter", "is_reserved": 0, "lon": -77.02415666666667}, {"fusion_lat": 0.0, "name": "7237c7da369b3e7729a4025cae74280d", "is_disabled": 0, "rental_uris": {"android": "https://dc.lft.to/lastmile_qr_scan", "ios": "https://dc.lft.to/lastmile_qr_scan"}, "fusion_lon": 0.0, "lat": 38.917027166666664, "bike_id": "7237c7da369b3e7729a4025cae74280d", "type": "electric_scooter", "is_reserved": 0, "lon": -77.04281583333334}, {"fusion_lat": 0.0, "name": "c5901656b905a4858fd8cbaa423f6074", "is_disabled": 0, "rental_uris": {"android": "https://dc.lft.to/lastmile_qr_scan", "ios": "https://dc.lft.to/lastmile_qr_scan"}, "fusion_lon": 0.0, "lat": 38.92667133333333, "bike_id": "c5901656b905a4858fd8cbaa423f6074", "type": "electric_scooter", "is_reserved": 0, "lon": -77.030247}, {"fusion_lat": 0.0, "name": "fd56dba867dd50eb11591f9fa100b867", "is_disabled": 0, "rental_uris": {"android": "https://dc.lft.to/lastmile_qr_scan", "ios": "https://dc.lft.to/lastmile_qr_scan"}, "fusion_lon": 0.0, "lat": 38.904652, "bike_id": "fd56dba867dd50eb11591f9fa100b867", "type": "electric_scooter", "is_reserved": 0, "lon": -77.02815033333333}, {"fusion_lat": 0.0, "name": "b568bdd0698fd21c2f5c54285164adb1", "is_disabled": 0, "rental_uris": {"android": "https://dc.lft.to/lastmile_qr_scan", "ios": "https://dc.lft.to/lastmile_qr_scan"}, "fusion_lon": 0.0, "lat": 38.89581716666667, "bike_id": "b568bdd0698fd21c2f5c54285164adb1", "type": "electric_scooter", "is_reserved": 0, "lon": -76.98319866666667}, {"fusion_lat": 0.0, "name": "b71ea6c87703ba8dcbe6578cb2f2d107", "is_disabled": 0, "rental_uris": {"android": "https://dc.lft.to/lastmile_qr_scan", "ios": "https://dc.lft.to/lastmile_qr_scan"}, "fusion_lon": 0.0, "lat": 38.95929983333333, "bike_id": "b71ea6c87703ba8dcbe6578cb2f2d107", "type": "electric_bike", "is_reserved": 0, "lon": -76.92838516666667}, {"fusion_lat": 0.0, "name": "f9fe652338c13d674b8d17a12aa999aa", "is_disabled": 0, "rental_uris": {"android": "https://dc.lft.to/lastmile_qr_scan", "ios": "https://dc.lft.to/lastmile_qr_scan"}, "fusion_lon": 0.0, "lat": 38.9070045, "bike_id": "f9fe652338c13d674b8d17a12aa999aa", "type": "electric_scooter", "is_reserved": 0, "lon": -76.988564}, {"fusion_lat": 0.0, "name": "8a70d14abe8f3c2d7422f5b579f66287", "is_disabled": 0, "rental_uris": {"android": "https://dc.lft.to/lastmile_qr_scan", "ios": "https://dc.lft.to/lastmile_qr_scan"}, "fusion_lon": 0.0, "lat": 38.9125405, "bike_id": "8a70d14abe8f3c2d7422f5b579f66287", "type": "electric_scooter", "is_reserved": 0, "lon": -77.03860833333333}, {"fusion_lat": 0.0, "name": "49548c4192f5f97ab4ead67388d55f50", "is_disabled": 0, "rental_uris": {"android": "https://dc.lft.to/lastmile_qr_scan", "ios": "https://dc.lft.to/lastmile_qr_scan"}, "fusion_lon": 0.0, "lat": 38.92367383333333, "bike_id": "49548c4192f5f97ab4ead67388d55f50", "type": "electric_scooter", "is_reserved": 0, "lon": -77.05191983333333}, {"fusion_lat": 0.0, "name": "d002889bba78d0622bc36145a6dacb2c", "is_disabled": 0, "rental_uris": {"android": "https://dc.lft.to/lastmile_qr_scan", "ios": "https://dc.lft.to/lastmile_qr_scan"}, "fusion_lon": 0.0, "lat": 38.924707166666664, "bike_id": "d002889bba78d0622bc36145a6dacb2c", "type": "electric_scooter", "is_reserved": 0, "lon": -77.03088633333333}, {"fusion_lat": 0.0, "name": "caca6d32438ad9304a47a8ff798e6e14", "is_disabled": 0, "rental_uris": {"android": "https://dc.lft.to/lastmile_qr_scan", "ios": "https://dc.lft.to/lastmile_qr_scan"}, "fusion_lon": 0.0, "lat": 38.9149885, "bike_id": "caca6d32438ad9304a47a8ff798e6e14", "type": "electric_scooter", "is_reserved": 0, "lon": -77.01225883333333}, {"fusion_lat": 0.0, "name": "9945aaaa2e3da288a98c856b1ef0b3d5", "is_disabled": 0, "rental_uris": {"android": "https://dc.lft.to/lastmile_qr_scan", "ios": "https://dc.lft.to/lastmile_qr_scan"}, "fusion_lon": 0.0, "lat": 38.9072935, "bike_id": "9945aaaa2e3da288a98c856b1ef0b3d5", "type": "electric_scooter", "is_reserved": 0, "lon": -77.01093683333333}, {"fusion_lat": 0.0, "name": "3a5084f2cb80cda9ce7afb791cbbcbde", "is_disabled": 0, "rental_uris": {"android": "https://dc.lft.to/lastmile_qr_scan", "ios": "https://dc.lft.to/lastmile_qr_scan"}, "fusion_lon": 0.0, "lat": 38.92051383333333, "bike_id": "3a5084f2cb80cda9ce7afb791cbbcbde", "type": "electric_scooter", "is_reserved": 0, "lon": -77.02420366666666}, {"fusion_lat": 0.0, "name": "eb3d1e6a9c856679f3487e4bfb433c2b", "is_disabled": 0, "rental_uris": {"android": "https://dc.lft.to/lastmile_qr_scan", "ios": "https://dc.lft.to/lastmile_qr_scan"}, "fusion_lon": 0.0, "lat": 38.932238, "bike_id": "eb3d1e6a9c856679f3487e4bfb433c2b", "type": "electric_scooter", "is_reserved": 0, "lon": -76.99494016666667}, {"fusion_lat": 0.0, "name": "bee9baaa345493226b70194255e7c49b", "is_disabled": 0, "rental_uris": {"android": "https://dc.lft.to/lastmile_qr_scan", "ios": "https://dc.lft.to/lastmile_qr_scan"}, "fusion_lon": 0.0, "lat": 38.96118383333334, "bike_id": "bee9baaa345493226b70194255e7c49b", "type": "electric_scooter", "is_reserved": 0, "lon": -77.02793683333333}, {"fusion_lat": 0.0, "name": "fc4635eddbb912969b4a474d82d829d1", "is_disabled": 0, "rental_uris": {"android": "https://dc.lft.to/lastmile_qr_scan", "ios": "https://dc.lft.to/lastmile_qr_scan"}, "fusion_lon": 0.0, "lat": 38.9027075, "bike_id": "fc4635eddbb912969b4a474d82d829d1", "type": "electric_scooter", "is_reserved": 0, "lon": -77.01780516666666}, {"fusion_lat": 0.0, "name": "762796e0bbced79ece0295fcc421551b", "is_disabled": 0, "rental_uris": {"android": "https://dc.lft.to/lastmile_qr_scan", "ios": "https://dc.lft.to/lastmile_qr_scan"}, "fusion_lon": 0.0, "lat": 38.934451, "bike_id": "762796e0bbced79ece0295fcc421551b", "type": "electric_scooter", "is_reserved": 0, "lon": -77.057698}, {"fusion_lat": 0.0, "name": "d32f3f910f2f285bb8e496f400461d49", "is_disabled": 0, "rental_uris": {"android": "https://dc.lft.to/lastmile_qr_scan", "ios": "https://dc.lft.to/lastmile_qr_scan"}, "fusion_lon": 0.0, "lat": 38.924549, "bike_id": "d32f3f910f2f285bb8e496f400461d49", "type": "electric_scooter", "is_reserved": 0, "lon": -76.9710315}, {"fusion_lat": 0.0, "name": "8ab445b4c72c48e1eb9c2fc063e4f568", "is_disabled": 0, "rental_uris": {"android": "https://dc.lft.to/lastmile_qr_scan", "ios": "https://dc.lft.to/lastmile_qr_scan"}, "fusion_lon": 0.0, "lat": 38.92260383333333, "bike_id": "8ab445b4c72c48e1eb9c2fc063e4f568", "type": "electric_bike", "is_reserved": 0, "lon": -76.98643983333334}, {"fusion_lat": 0.0, "name": "7f8599ede21c51e4de81b7c0c634c685", "is_disabled": 0, "rental_uris": {"android": "https://dc.lft.to/lastmile_qr_scan", "ios": "https://dc.lft.to/lastmile_qr_scan"}, "fusion_lon": 0.0, "lat": 38.901649666666664, "bike_id": "7f8599ede21c51e4de81b7c0c634c685", "type": "electric_scooter", "is_reserved": 0, "lon": -77.02605516666667}, {"fusion_lat": 0.0, "name": "bf0dbd6cab1c763df3c5dba820ba370e", "is_disabled": 0, "rental_uris": {"android": "https://dc.lft.to/lastmile_qr_scan", "ios": "https://dc.lft.to/lastmile_qr_scan"}, "fusion_lon": 0.0, "lat": 38.9156235, "bike_id": "bf0dbd6cab1c763df3c5dba820ba370e", "type": "electric_scooter", "is_reserved": 0, "lon": -77.03168983333333}, {"fusion_lat": 0.0, "name": "f2f983c04ed8e79192ba66159f058d1d", "is_disabled": 0, "rental_uris": {"android": "https://dc.lft.to/lastmile_qr_scan", "ios": "https://dc.lft.to/lastmile_qr_scan"}, "fusion_lon": 0.0, "lat": 38.8922285, "bike_id": "f2f983c04ed8e79192ba66159f058d1d", "type": "electric_scooter", "is_reserved": 0, "lon": -77.023099}, {"fusion_lat": 0.0, "name": "52726ae28dc02399fd6b4163c92b0d58", "is_disabled": 0, "rental_uris": {"android": "https://dc.lft.to/lastmile_qr_scan", "ios": "https://dc.lft.to/lastmile_qr_scan"}, "fusion_lon": 0.0, "lat": 38.93411666666667, "bike_id": "52726ae28dc02399fd6b4163c92b0d58", "type": "electric_scooter", "is_reserved": 0, "lon": -77.02201583333333}, {"fusion_lat": 0.0, "name": "bfe37e062004908838ece7ce18b267be", "is_disabled": 0, "rental_uris": {"android": "https://dc.lft.to/lastmile_qr_scan", "ios": "https://dc.lft.to/lastmile_qr_scan"}, "fusion_lon": 0.0, "lat": 38.90266183333333, "bike_id": "bfe37e062004908838ece7ce18b267be", "type": "electric_scooter", "is_reserved": 0, "lon": -77.0326475}, {"fusion_lat": 0.0, "name": "16250c07be2279175d442af04fc08c0b", "is_disabled": 0, "rental_uris": {"android": "https://dc.lft.to/lastmile_qr_scan", "ios": "https://dc.lft.to/lastmile_qr_scan"}, "fusion_lon": 0.0, "lat": 38.922856333333335, "bike_id": "16250c07be2279175d442af04fc08c0b", "type": "electric_scooter", "is_reserved": 0, "lon": -77.02962633333334}, {"fusion_lat": 0.0, "name": "0c376e5f3b58b76b09ccc0d6b85d47ce", "is_disabled": 0, "rental_uris": {"android": "https://dc.lft.to/lastmile_qr_scan", "ios": "https://dc.lft.to/lastmile_qr_scan"}, "fusion_lon": 0.0, "lat": 38.9055055, "bike_id": "0c376e5f3b58b76b09ccc0d6b85d47ce", "type": "electric_scooter", "is_reserved": 0, "lon": -77.046543}, {"fusion_lat": 0.0, "name": "aa71d9f33441f400fa8c861a6ca236b8", "is_disabled": 0, "rental_uris": {"android": "https://dc.lft.to/lastmile_qr_scan", "ios": "https://dc.lft.to/lastmile_qr_scan"}, "fusion_lon": 0.0, "lat": 38.90112933333333, "bike_id": "aa71d9f33441f400fa8c861a6ca236b8", "type": "electric_scooter", "is_reserved": 0, "lon": -77.0336145}, {"fusion_lat": 0.0, "name": "328d789511351a9124322c9116e6750e", "is_disabled": 0, "rental_uris": {"android": "https://dc.lft.to/lastmile_qr_scan", "ios": "https://dc.lft.to/lastmile_qr_scan"}, "fusion_lon": 0.0, "lat": 38.9089245, "bike_id": "328d789511351a9124322c9116e6750e", "type": "electric_scooter", "is_reserved": 0, "lon": -77.04394366666666}, {"fusion_lat": 0.0, "name": "27edb539208836e501dac7659d5d8faa", "is_disabled": 0, "rental_uris": {"android": "https://dc.lft.to/lastmile_qr_scan", "ios": "https://dc.lft.to/lastmile_qr_scan"}, "fusion_lon": 0.0, "lat": 38.900179666666666, "bike_id": "27edb539208836e501dac7659d5d8faa", "type": "electric_scooter", "is_reserved": 0, "lon": -76.99306133333333}, {"fusion_lat": 0.0, "name": "7550919605e84f2efc880c6c13120a92", "is_disabled": 0, "rental_uris": {"android": "https://dc.lft.to/lastmile_qr_scan", "ios": "https://dc.lft.to/lastmile_qr_scan"}, "fusion_lon": 0.0, "lat": 38.95419066666667, "bike_id": "7550919605e84f2efc880c6c13120a92", "type": "electric_scooter", "is_reserved": 0, "lon": -77.02768016666667}, {"fusion_lat": 0.0, "name": "49a16bbaec3faf73c7577ca78baab5da", "is_disabled": 0, "rental_uris": {"android": "https://dc.lft.to/lastmile_qr_scan", "ios": "https://dc.lft.to/lastmile_qr_scan"}, "fusion_lon": 0.0, "lat": 38.8977455, "bike_id": "49a16bbaec3faf73c7577ca78baab5da", "type": "electric_scooter", "is_reserved": 0, "lon": -77.0272835}, {"fusion_lat": 0.0, "name": "624d7b4e3e3da78d61b6d51abbb6212e", "is_disabled": 0, "rental_uris": {"android": "https://dc.lft.to/lastmile_qr_scan", "ios": "https://dc.lft.to/lastmile_qr_scan"}, "fusion_lon": 0.0, "lat": 38.9163525, "bike_id": "624d7b4e3e3da78d61b6d51abbb6212e", "type": "electric_scooter", "is_reserved": 0, "lon": -77.0507435}, {"fusion_lat": 0.0, "name": "eb568723cd697fc53dabc17845ebbe5f", "is_disabled": 0, "rental_uris": {"android": "https://dc.lft.to/lastmile_qr_scan", "ios": "https://dc.lft.to/lastmile_qr_scan"}, "fusion_lon": 0.0, "lat": 38.893549666666665, "bike_id": "eb568723cd697fc53dabc17845ebbe5f", "type": "electric_scooter", "is_reserved": 0, "lon": -76.986572}, {"fusion_lat": 0.0, "name": "890468aac35e1152d15eba9a7e0afdac", "is_disabled": 0, "rental_uris": {"android": "https://dc.lft.to/lastmile_qr_scan", "ios": "https://dc.lft.to/lastmile_qr_scan"}, "fusion_lon": 0.0, "lat": 38.90004, "bike_id": "890468aac35e1152d15eba9a7e0afdac", "type": "electric_scooter", "is_reserved": 0, "lon": -76.99845733333333}, {"fusion_lat": 0.0, "name": "442000a8a5c9305c4871722ed063a893", "is_disabled": 0, "rental_uris": {"android": "https://dc.lft.to/lastmile_qr_scan", "ios": "https://dc.lft.to/lastmile_qr_scan"}, "fusion_lon": 0.0, "lat": 38.898463, "bike_id": "442000a8a5c9305c4871722ed063a893", "type": "electric_scooter", "is_reserved": 0, "lon": -76.94253216666667}, {"fusion_lat": 0.0, "name": "c12c4b4b0de89ba00e9c8bd836706724", "is_disabled": 0, "rental_uris": {"android": "https://dc.lft.to/lastmile_qr_scan", "ios": "https://dc.lft.to/lastmile_qr_scan"}, "fusion_lon": 0.0, "lat": 38.931816833333336, "bike_id": "c12c4b4b0de89ba00e9c8bd836706724", "type": "electric_scooter", "is_reserved": 0, "lon": -77.03295416666667}, {"fusion_lat": 0.0, "name": "ef04a46b8db3fe4ed826655bf3f7532a", "is_disabled": 0, "rental_uris": {"android": "https://dc.lft.to/lastmile_qr_scan", "ios": "https://dc.lft.to/lastmile_qr_scan"}, "fusion_lon": 0.0, "lat": 38.91846733333333, "bike_id": "ef04a46b8db3fe4ed826655bf3f7532a", "type": "electric_scooter", "is_reserved": 0, "lon": -77.02319266666667}, {"fusion_lat": 0.0, "name": "17cf946c2b43d21ed09fbd0e88432359", "is_disabled": 0, "rental_uris": {"android": "https://dc.lft.to/lastmile_qr_scan", "ios": "https://dc.lft.to/lastmile_qr_scan"}, "fusion_lon": 0.0, "lat": 38.89715983333333, "bike_id": "17cf946c2b43d21ed09fbd0e88432359", "type": "electric_scooter", "is_reserved": 0, "lon": -77.00801133333333}, {"fusion_lat": 0.0, "name": "49ecfff9a432b0580036222d28644136", "is_disabled": 0, "rental_uris": {"android": "https://dc.lft.to/lastmile_qr_scan", "ios": "https://dc.lft.to/lastmile_qr_scan"}, "fusion_lon": 0.0, "lat": 38.915527833333336, "bike_id": "49ecfff9a432b0580036222d28644136", "type": "electric_scooter", "is_reserved": 0, "lon": -77.02211066666666}, {"fusion_lat": 0.0, "name": "81d5c026311fb2f9dbac9e543d4fb040", "is_disabled": 0, "rental_uris": {"android": "https://dc.lft.to/lastmile_qr_scan", "ios": "https://dc.lft.to/lastmile_qr_scan"}, "fusion_lon": 0.0, "lat": 38.91695416666666, "bike_id": "81d5c026311fb2f9dbac9e543d4fb040", "type": "electric_scooter", "is_reserved": 0, "lon": -77.0311185}, {"fusion_lat": 0.0, "name": "12946cbd59ed37e4d0760dcd48168c6d", "is_disabled": 0, "rental_uris": {"android": "https://dc.lft.to/lastmile_qr_scan", "ios": "https://dc.lft.to/lastmile_qr_scan"}, "fusion_lon": 0.0, "lat": 38.9306055, "bike_id": "12946cbd59ed37e4d0760dcd48168c6d", "type": "electric_scooter", "is_reserved": 0, "lon": -77.03217183333334}, {"fusion_lat": 0.0, "name": "23e9f0b13014ecfb10e23b469dd44746", "is_disabled": 0, "rental_uris": {"android": "https://dc.lft.to/lastmile_qr_scan", "ios": "https://dc.lft.to/lastmile_qr_scan"}, "fusion_lon": 0.0, "lat": 38.920879, "bike_id": "23e9f0b13014ecfb10e23b469dd44746", "type": "electric_scooter", "is_reserved": 0, "lon": -77.0240825}, {"fusion_lat": 0.0, "name": "fda84ec7156f6f8e6db82dad4b1e87af", "is_disabled": 0, "rental_uris": {"android": "https://dc.lft.to/lastmile_qr_scan", "ios": "https://dc.lft.to/lastmile_qr_scan"}, "fusion_lon": 0.0, "lat": 38.887456, "bike_id": "fda84ec7156f6f8e6db82dad4b1e87af", "type": "electric_scooter", "is_reserved": 0, "lon": -77.01777733333333}, {"fusion_lat": 0.0, "name": "852d4d8c7371fd0138a857ab4e10b0c0", "is_disabled": 0, "rental_uris": {"android": "https://dc.lft.to/lastmile_qr_scan", "ios": "https://dc.lft.to/lastmile_qr_scan"}, "fusion_lon": 0.0, "lat": 38.90763783333333, "bike_id": "852d4d8c7371fd0138a857ab4e10b0c0", "type": "electric_scooter", "is_reserved": 0, "lon": -77.03585883333334}, {"fusion_lat": 0.0, "name": "e50def81f603d9d0ed357225cadb6c57", "is_disabled": 0, "rental_uris": {"android": "https://dc.lft.to/lastmile_qr_scan", "ios": "https://dc.lft.to/lastmile_qr_scan"}, "fusion_lon": 0.0, "lat": 38.915297, "bike_id": "e50def81f603d9d0ed357225cadb6c57", "type": "electric_scooter", "is_reserved": 0, "lon": -77.07482016666667}, {"fusion_lat": 0.0, "name": "c79025b438aa9db512163aae11155b85", "is_disabled": 0, "rental_uris": {"android": "https://dc.lft.to/lastmile_qr_scan", "ios": "https://dc.lft.to/lastmile_qr_scan"}, "fusion_lon": 0.0, "lat": 38.912067, "bike_id": "c79025b438aa9db512163aae11155b85", "type": "electric_scooter", "is_reserved": 0, "lon": -77.04504033333333}, {"fusion_lat": 0.0, "name": "ad8bce911f91babadef5256d64a09493", "is_disabled": 0, "rental_uris": {"android": "https://dc.lft.to/lastmile_qr_scan", "ios": "https://dc.lft.to/lastmile_qr_scan"}, "fusion_lon": 0.0, "lat": 38.88730233333333, "bike_id": "ad8bce911f91babadef5256d64a09493", "type": "electric_scooter", "is_reserved": 0, "lon": -76.98356333333334}, {"fusion_lat": 0.0, "name": "fce1aac752285cfd4e64534ae57dc51b", "is_disabled": 0, "rental_uris": {"android": "https://dc.lft.to/lastmile_qr_scan", "ios": "https://dc.lft.to/lastmile_qr_scan"}, "fusion_lon": 0.0, "lat": 38.9072975, "bike_id": "fce1aac752285cfd4e64534ae57dc51b", "type": "electric_scooter", "is_reserved": 0, "lon": -77.04332966666666}, {"fusion_lat": 0.0, "name": "23eaaed19c3c694cabf8f982d4235082", "is_disabled": 0, "rental_uris": {"android": "https://dc.lft.to/lastmile_qr_scan", "ios": "https://dc.lft.to/lastmile_qr_scan"}, "fusion_lon": 0.0, "lat": 38.92083916666667, "bike_id": "23eaaed19c3c694cabf8f982d4235082", "type": "electric_scooter", "is_reserved": 0, "lon": -77.0240055}, {"fusion_lat": 0.0, "name": "400865baebb20559c44ba530bb10b8e2", "is_disabled": 0, "rental_uris": {"android": "https://dc.lft.to/lastmile_qr_scan", "ios": "https://dc.lft.to/lastmile_qr_scan"}, "fusion_lon": 0.0, "lat": 38.9014695, "bike_id": "400865baebb20559c44ba530bb10b8e2", "type": "electric_scooter", "is_reserved": 0, "lon": -76.97421466666667}, {"fusion_lat": 0.0, "name": "2cbe4dfd4a08b0669321e3520120b5be", "is_disabled": 0, "rental_uris": {"android": "https://dc.lft.to/lastmile_qr_scan", "ios": "https://dc.lft.to/lastmile_qr_scan"}, "fusion_lon": 0.0, "lat": 38.907296, "bike_id": "2cbe4dfd4a08b0669321e3520120b5be", "type": "electric_scooter", "is_reserved": 0, "lon": -77.04324}, {"fusion_lat": 0.0, "name": "ae36097253663fb4501d3fe6d120c2c3", "is_disabled": 0, "rental_uris": {"android": "https://dc.lft.to/lastmile_qr_scan", "ios": "https://dc.lft.to/lastmile_qr_scan"}, "fusion_lon": 0.0, "lat": 38.89249216666666, "bike_id": "ae36097253663fb4501d3fe6d120c2c3", "type": "electric_scooter", "is_reserved": 0, "lon": -77.03955433333333}, {"fusion_lat": 0.0, "name": "b8c3e88412b65a55fa62b93dd3f7cc10", "is_disabled": 0, "rental_uris": {"android": "https://dc.lft.to/lastmile_qr_scan", "ios": "https://dc.lft.to/lastmile_qr_scan"}, "fusion_lon": 0.0, "lat": 38.92019633333334, "bike_id": "b8c3e88412b65a55fa62b93dd3f7cc10", "type": "electric_scooter", "is_reserved": 0, "lon": -77.013147}, {"fusion_lat": 0.0, "name": "13f78081dfb83a45b03de18770b4ec5c", "is_disabled": 0, "rental_uris": {"android": "https://dc.lft.to/lastmile_qr_scan", "ios": "https://dc.lft.to/lastmile_qr_scan"}, "fusion_lon": 0.0, "lat": 38.9261945, "bike_id": "13f78081dfb83a45b03de18770b4ec5c", "type": "electric_scooter", "is_reserved": 0, "lon": -77.03675216666667}, {"fusion_lat": 0.0, "name": "f5365122234c5ca7949eabf08ccf5972", "is_disabled": 0, "rental_uris": {"android": "https://dc.lft.to/lastmile_qr_scan", "ios": "https://dc.lft.to/lastmile_qr_scan"}, "fusion_lon": 0.0, "lat": 38.91119833333333, "bike_id": "f5365122234c5ca7949eabf08ccf5972", "type": "electric_scooter", "is_reserved": 0, "lon": -77.007554}, {"fusion_lat": 0.0, "name": "dc0a322d19deb6c2f95a3caf5064bdd4", "is_disabled": 0, "rental_uris": {"android": "https://dc.lft.to/lastmile_qr_scan", "ios": "https://dc.lft.to/lastmile_qr_scan"}, "fusion_lon": 0.0, "lat": 38.919549833333335, "bike_id": "dc0a322d19deb6c2f95a3caf5064bdd4", "type": "electric_scooter", "is_reserved": 0, "lon": -77.078463}, {"fusion_lat": 0.0, "name": "ee4057590b6e04b71ae7664ce2ab451c", "is_disabled": 0, "rental_uris": {"android": "https://dc.lft.to/lastmile_qr_scan", "ios": "https://dc.lft.to/lastmile_qr_scan"}, "fusion_lon": 0.0, "lat": 38.923218166666665, "bike_id": "ee4057590b6e04b71ae7664ce2ab451c", "type": "electric_scooter", "is_reserved": 0, "lon": -77.04030666666667}, {"fusion_lat": 0.0, "name": "227c4c824b33ee33fa80d14d5779ecab", "is_disabled": 0, "rental_uris": {"android": "https://dc.lft.to/lastmile_qr_scan", "ios": "https://dc.lft.to/lastmile_qr_scan"}, "fusion_lon": 0.0, "lat": 38.907394, "bike_id": "227c4c824b33ee33fa80d14d5779ecab", "type": "electric_scooter", "is_reserved": 0, "lon": -77.04353233333333}, {"fusion_lat": 0.0, "name": "5e4d1d2b72907178f40fc823a28ba17c", "is_disabled": 0, "rental_uris": {"android": "https://dc.lft.to/lastmile_qr_scan", "ios": "https://dc.lft.to/lastmile_qr_scan"}, "fusion_lon": 0.0, "lat": 38.887447, "bike_id": "5e4d1d2b72907178f40fc823a28ba17c", "type": "electric_scooter", "is_reserved": 0, "lon": -77.02562516666667}, {"fusion_lat": 0.0, "name": "f20a957ac0d9aae365e6f44f4d254968", "is_disabled": 0, "rental_uris": {"android": "https://dc.lft.to/lastmile_qr_scan", "ios": "https://dc.lft.to/lastmile_qr_scan"}, "fusion_lon": 0.0, "lat": 38.932590166666664, "bike_id": "f20a957ac0d9aae365e6f44f4d254968", "type": "electric_scooter", "is_reserved": 0, "lon": -77.03263966666667}, {"fusion_lat": 0.0, "name": "a099dbc142ec01a7d456b21c57dd8f02", "is_disabled": 0, "rental_uris": {"android": "https://dc.lft.to/lastmile_qr_scan", "ios": "https://dc.lft.to/lastmile_qr_scan"}, "fusion_lon": 0.0, "lat": 38.89875833333333, "bike_id": "a099dbc142ec01a7d456b21c57dd8f02", "type": "electric_scooter", "is_reserved": 0, "lon": -76.931811}, {"fusion_lat": 0.0, "name": "3f589a2e59d09032467a332527ed851d", "is_disabled": 0, "rental_uris": {"android": "https://dc.lft.to/lastmile_qr_scan", "ios": "https://dc.lft.to/lastmile_qr_scan"}, "fusion_lon": 0.0, "lat": 38.9347855, "bike_id": "3f589a2e59d09032467a332527ed851d", "type": "electric_scooter", "is_reserved": 0, "lon": -77.07263166666667}, {"fusion_lat": 0.0, "name": "493db9661133c2271d309ed93340acd1", "is_disabled": 0, "rental_uris": {"android": "https://dc.lft.to/lastmile_qr_scan", "ios": "https://dc.lft.to/lastmile_qr_scan"}, "fusion_lon": 0.0, "lat": 38.9145875, "bike_id": "493db9661133c2271d309ed93340acd1", "type": "electric_scooter", "is_reserved": 0, "lon": -77.00208033333334}, {"fusion_lat": 0.0, "name": "ede9f2a53e21c5971d1f7c689e1fdb8b", "is_disabled": 0, "rental_uris": {"android": "https://dc.lft.to/lastmile_qr_scan", "ios": "https://dc.lft.to/lastmile_qr_scan"}, "fusion_lon": 0.0, "lat": 38.909726, "bike_id": "ede9f2a53e21c5971d1f7c689e1fdb8b", "type": "electric_scooter", "is_reserved": 0, "lon": -77.032132}, {"fusion_lat": 0.0, "name": "0158ab8eb58a83daac1a8ae17a4f56d3", "is_disabled": 0, "rental_uris": {"android": "https://dc.lft.to/lastmile_qr_scan", "ios": "https://dc.lft.to/lastmile_qr_scan"}, "fusion_lon": 0.0, "lat": 38.90792733333333, "bike_id": "0158ab8eb58a83daac1a8ae17a4f56d3", "type": "electric_scooter", "is_reserved": 0, "lon": -77.034418}, {"fusion_lat": 0.0, "name": "db73e8e4d66c908e5bc148c8f1201cf0", "is_disabled": 0, "rental_uris": {"android": "https://dc.lft.to/lastmile_qr_scan", "ios": "https://dc.lft.to/lastmile_qr_scan"}, "fusion_lon": 0.0, "lat": 38.883707666666666, "bike_id": "db73e8e4d66c908e5bc148c8f1201cf0", "type": "electric_scooter", "is_reserved": 0, "lon": -76.995174}, {"fusion_lat": 0.0, "name": "c6e2b311b518d57ead39c2e55e26ab37", "is_disabled": 0, "rental_uris": {"android": "https://dc.lft.to/lastmile_qr_scan", "ios": "https://dc.lft.to/lastmile_qr_scan"}, "fusion_lon": 0.0, "lat": 38.903056666666664, "bike_id": "c6e2b311b518d57ead39c2e55e26ab37", "type": "electric_scooter", "is_reserved": 0, "lon": -77.05815683333333}, {"fusion_lat": 0.0, "name": "08d4b5c1ff1fec39691f1a61ca9f4882", "is_disabled": 0, "rental_uris": {"android": "https://dc.lft.to/lastmile_qr_scan", "ios": "https://dc.lft.to/lastmile_qr_scan"}, "fusion_lon": 0.0, "lat": 38.90059, "bike_id": "08d4b5c1ff1fec39691f1a61ca9f4882", "type": "electric_scooter", "is_reserved": 0, "lon": -76.99942216666666}, {"fusion_lat": 0.0, "name": "bf57cc859224d90cb9faf47863b90d34", "is_disabled": 0, "rental_uris": {"android": "https://dc.lft.to/lastmile_qr_scan", "ios": "https://dc.lft.to/lastmile_qr_scan"}, "fusion_lon": 0.0, "lat": 38.907106, "bike_id": "bf57cc859224d90cb9faf47863b90d34", "type": "electric_scooter", "is_reserved": 0, "lon": -77.023834}, {"fusion_lat": 0.0, "name": "5be1d7988c481915348d5a5077825a2e", "is_disabled": 0, "rental_uris": {"android": "https://dc.lft.to/lastmile_qr_scan", "ios": "https://dc.lft.to/lastmile_qr_scan"}, "fusion_lon": 0.0, "lat": 38.92136383333333, "bike_id": "5be1d7988c481915348d5a5077825a2e", "type": "electric_scooter", "is_reserved": 0, "lon": -77.01929416666667}, {"fusion_lat": 0.0, "name": "e071d138b3dc3bd1d542f4598283280e", "is_disabled": 0, "rental_uris": {"android": "https://dc.lft.to/lastmile_qr_scan", "ios": "https://dc.lft.to/lastmile_qr_scan"}, "fusion_lon": 0.0, "lat": 38.93202566666667, "bike_id": "e071d138b3dc3bd1d542f4598283280e", "type": "electric_scooter", "is_reserved": 0, "lon": -77.03501816666666}, {"fusion_lat": 0.0, "name": "5403a641788d1fee0d27836a82c27c74", "is_disabled": 0, "rental_uris": {"android": "https://dc.lft.to/lastmile_qr_scan", "ios": "https://dc.lft.to/lastmile_qr_scan"}, "fusion_lon": 0.0, "lat": 38.90121383333334, "bike_id": "5403a641788d1fee0d27836a82c27c74", "type": "electric_scooter", "is_reserved": 0, "lon": -77.02612883333333}, {"fusion_lat": 0.0, "name": "1dc4ccfb611dacbc4d60ae3badfbc5cc", "is_disabled": 0, "rental_uris": {"android": "https://dc.lft.to/lastmile_qr_scan", "ios": "https://dc.lft.to/lastmile_qr_scan"}, "fusion_lon": 0.0, "lat": 38.9210645, "bike_id": "1dc4ccfb611dacbc4d60ae3badfbc5cc", "type": "electric_scooter", "is_reserved": 0, "lon": -77.03192833333334}, {"fusion_lat": 0.0, "name": "dbaa059620e2a7cb1419b20d24793b24", "is_disabled": 0, "rental_uris": {"android": "https://dc.lft.to/lastmile_qr_scan", "ios": "https://dc.lft.to/lastmile_qr_scan"}, "fusion_lon": 0.0, "lat": 38.90516916666667, "bike_id": "dbaa059620e2a7cb1419b20d24793b24", "type": "electric_scooter", "is_reserved": 0, "lon": -77.02921983333333}, {"fusion_lat": 0.0, "name": "9b60b52fd97225fd5c77569330d02b09", "is_disabled": 0, "rental_uris": {"android": "https://dc.lft.to/lastmile_qr_scan", "ios": "https://dc.lft.to/lastmile_qr_scan"}, "fusion_lon": 0.0, "lat": 38.908717333333335, "bike_id": "9b60b52fd97225fd5c77569330d02b09", "type": "electric_scooter", "is_reserved": 0, "lon": -77.0236195}, {"fusion_lat": 0.0, "name": "ce14d6a5b99466d142f104cdc8d77d7d", "is_disabled": 0, "rental_uris": {"android": "https://dc.lft.to/lastmile_qr_scan", "ios": "https://dc.lft.to/lastmile_qr_scan"}, "fusion_lon": 0.0, "lat": 38.904909333333336, "bike_id": "ce14d6a5b99466d142f104cdc8d77d7d", "type": "electric_scooter", "is_reserved": 0, "lon": -77.02950016666666}, {"fusion_lat": 0.0, "name": "0e95775e01b3f1bc9aac7f5e15510308", "is_disabled": 0, "rental_uris": {"android": "https://dc.lft.to/lastmile_qr_scan", "ios": "https://dc.lft.to/lastmile_qr_scan"}, "fusion_lon": 0.0, "lat": 38.927601833333334, "bike_id": "0e95775e01b3f1bc9aac7f5e15510308", "type": "electric_scooter", "is_reserved": 0, "lon": -77.05276916666666}, {"fusion_lat": 0.0, "name": "a8b6d8c769eea623e16312ffd98bd271", "is_disabled": 0, "rental_uris": {"android": "https://dc.lft.to/lastmile_qr_scan", "ios": "https://dc.lft.to/lastmile_qr_scan"}, "fusion_lon": 0.0, "lat": 38.91969116666667, "bike_id": "a8b6d8c769eea623e16312ffd98bd271", "type": "electric_scooter", "is_reserved": 0, "lon": -77.02362833333333}, {"fusion_lat": 0.0, "name": "6cd6c940c4ce81ed9d0e10bdac3566a4", "is_disabled": 0, "rental_uris": {"android": "https://dc.lft.to/lastmile_qr_scan", "ios": "https://dc.lft.to/lastmile_qr_scan"}, "fusion_lon": 0.0, "lat": 38.93757033333333, "bike_id": "6cd6c940c4ce81ed9d0e10bdac3566a4", "type": "electric_scooter", "is_reserved": 0, "lon": -77.03253716666667}, {"fusion_lat": 0.0, "name": "06f9faa48cbf0f25ed0f52ef148da123", "is_disabled": 0, "rental_uris": {"android": "https://dc.lft.to/lastmile_qr_scan", "ios": "https://dc.lft.to/lastmile_qr_scan"}, "fusion_lon": 0.0, "lat": 38.92787216666667, "bike_id": "06f9faa48cbf0f25ed0f52ef148da123", "type": "electric_scooter", "is_reserved": 0, "lon": -77.05312216666667}, {"fusion_lat": 0.0, "name": "2c03ccaf914c0153d217cf7d42e83c21", "is_disabled": 0, "rental_uris": {"android": "https://dc.lft.to/lastmile_qr_scan", "ios": "https://dc.lft.to/lastmile_qr_scan"}, "fusion_lon": 0.0, "lat": 38.92517983333333, "bike_id": "2c03ccaf914c0153d217cf7d42e83c21", "type": "electric_scooter", "is_reserved": 0, "lon": -77.05036}, {"fusion_lat": 0.0, "name": "47880bb00d7f994021c84f517a3cda2c", "is_disabled": 0, "rental_uris": {"android": "https://dc.lft.to/lastmile_qr_scan", "ios": "https://dc.lft.to/lastmile_qr_scan"}, "fusion_lon": 0.0, "lat": 38.90624366666667, "bike_id": "47880bb00d7f994021c84f517a3cda2c", "type": "electric_scooter", "is_reserved": 0, "lon": -77.00575416666666}, {"fusion_lat": 0.0, "name": "df460d7daa7d97abe356bd39cd0fda89", "is_disabled": 0, "rental_uris": {"android": "https://dc.lft.to/lastmile_qr_scan", "ios": "https://dc.lft.to/lastmile_qr_scan"}, "fusion_lon": 0.0, "lat": 38.908091, "bike_id": "df460d7daa7d97abe356bd39cd0fda89", "type": "electric_scooter", "is_reserved": 0, "lon": -77.0416475}, {"fusion_lat": 0.0, "name": "1985d43fea079c1c037482900240948d", "is_disabled": 0, "rental_uris": {"android": "https://dc.lft.to/lastmile_qr_scan", "ios": "https://dc.lft.to/lastmile_qr_scan"}, "fusion_lon": 0.0, "lat": 38.90308516666666, "bike_id": "1985d43fea079c1c037482900240948d", "type": "electric_scooter", "is_reserved": 0, "lon": -76.97654283333334}, {"fusion_lat": 0.0, "name": "18f0eefb577bc37931ec26c736b40f8d", "is_disabled": 0, "rental_uris": {"android": "https://dc.lft.to/lastmile_qr_scan", "ios": "https://dc.lft.to/lastmile_qr_scan"}, "fusion_lon": 0.0, "lat": 38.91258716666667, "bike_id": "18f0eefb577bc37931ec26c736b40f8d", "type": "electric_scooter", "is_reserved": 0, "lon": -77.0387145}, {"fusion_lat": 0.0, "name": "4b8588b9a32e72523ec047ab5175f8a5", "is_disabled": 0, "rental_uris": {"android": "https://dc.lft.to/lastmile_qr_scan", "ios": "https://dc.lft.to/lastmile_qr_scan"}, "fusion_lon": 0.0, "lat": 38.903858666666665, "bike_id": "4b8588b9a32e72523ec047ab5175f8a5", "type": "electric_scooter", "is_reserved": 0, "lon": -77.0164135}, {"fusion_lat": 0.0, "name": "ed71d10cde9f9b051540261cca389166", "is_disabled": 0, "rental_uris": {"android": "https://dc.lft.to/lastmile_qr_scan", "ios": "https://dc.lft.to/lastmile_qr_scan"}, "fusion_lon": 0.0, "lat": 38.99442783333333, "bike_id": "ed71d10cde9f9b051540261cca389166", "type": "electric_bike", "is_reserved": 0, "lon": -76.99591}, {"fusion_lat": 0.0, "name": "24ab0f177ee24a27cd2a64257341f9e6", "is_disabled": 0, "rental_uris": {"android": "https://dc.lft.to/lastmile_qr_scan", "ios": "https://dc.lft.to/lastmile_qr_scan"}, "fusion_lon": 0.0, "lat": 38.92097116666667, "bike_id": "24ab0f177ee24a27cd2a64257341f9e6", "type": "electric_scooter", "is_reserved": 0, "lon": -77.025159}, {"fusion_lat": 0.0, "name": "aee7cf27a0ab5774ea664a8a1d343f25", "is_disabled": 0, "rental_uris": {"android": "https://dc.lft.to/lastmile_qr_scan", "ios": "https://dc.lft.to/lastmile_qr_scan"}, "fusion_lon": 0.0, "lat": 38.90143583333333, "bike_id": "aee7cf27a0ab5774ea664a8a1d343f25", "type": "electric_scooter", "is_reserved": 0, "lon": -77.03876733333334}, {"fusion_lat": 0.0, "name": "53b7d7c7d9d9c134a132144623fd14b7", "is_disabled": 0, "rental_uris": {"android": "https://dc.lft.to/lastmile_qr_scan", "ios": "https://dc.lft.to/lastmile_qr_scan"}, "fusion_lon": 0.0, "lat": 38.89850333333333, "bike_id": "53b7d7c7d9d9c134a132144623fd14b7", "type": "electric_scooter", "is_reserved": 0, "lon": -76.990323}, {"fusion_lat": 0.0, "name": "269ac8c6663dd573c8def2169d53a36e", "is_disabled": 0, "rental_uris": {"android": "https://dc.lft.to/lastmile_qr_scan", "ios": "https://dc.lft.to/lastmile_qr_scan"}, "fusion_lon": 0.0, "lat": 38.887452, "bike_id": "269ac8c6663dd573c8def2169d53a36e", "type": "electric_scooter", "is_reserved": 0, "lon": -77.02564266666667}, {"fusion_lat": 0.0, "name": "6b83218ef46c7c920338ab7f16690b0d", "is_disabled": 0, "rental_uris": {"android": "https://dc.lft.to/lastmile_qr_scan", "ios": "https://dc.lft.to/lastmile_qr_scan"}, "fusion_lon": 0.0, "lat": 38.948341166666665, "bike_id": "6b83218ef46c7c920338ab7f16690b0d", "type": "electric_scooter", "is_reserved": 0, "lon": -77.06534433333333}, {"fusion_lat": 0.0, "name": "12f2506be38319c0b5e57b728a9b961d", "is_disabled": 0, "rental_uris": {"android": "https://dc.lft.to/lastmile_qr_scan", "ios": "https://dc.lft.to/lastmile_qr_scan"}, "fusion_lon": 0.0, "lat": 38.9118295, "bike_id": "12f2506be38319c0b5e57b728a9b961d", "type": "electric_scooter", "is_reserved": 0, "lon": -77.0219285}, {"fusion_lat": 0.0, "name": "b6a154eac5473588641ed38ea60a48cd", "is_disabled": 0, "rental_uris": {"android": "https://dc.lft.to/lastmile_qr_scan", "ios": "https://dc.lft.to/lastmile_qr_scan"}, "fusion_lon": 0.0, "lat": 38.903697, "bike_id": "b6a154eac5473588641ed38ea60a48cd", "type": "electric_scooter", "is_reserved": 0, "lon": -77.01981833333333}, {"fusion_lat": 0.0, "name": "adc44904c261c290bab33b5268947c44", "is_disabled": 0, "rental_uris": {"android": "https://dc.lft.to/lastmile_qr_scan", "ios": "https://dc.lft.to/lastmile_qr_scan"}, "fusion_lon": 0.0, "lat": 38.9029785, "bike_id": "adc44904c261c290bab33b5268947c44", "type": "electric_scooter", "is_reserved": 0, "lon": -77.061143}, {"fusion_lat": 0.0, "name": "897991a90e57733071e7e12c6754d018", "is_disabled": 0, "rental_uris": {"android": "https://dc.lft.to/lastmile_qr_scan", "ios": "https://dc.lft.to/lastmile_qr_scan"}, "fusion_lon": 0.0, "lat": 38.937914166666665, "bike_id": "897991a90e57733071e7e12c6754d018", "type": "electric_scooter", "is_reserved": 0, "lon": -77.0246895}, {"fusion_lat": 0.0, "name": "e63d96ea5cfee265b676d03289321c55", "is_disabled": 0, "rental_uris": {"android": "https://dc.lft.to/lastmile_qr_scan", "ios": "https://dc.lft.to/lastmile_qr_scan"}, "fusion_lon": 0.0, "lat": 38.92489, "bike_id": "e63d96ea5cfee265b676d03289321c55", "type": "electric_scooter", "is_reserved": 0, "lon": -77.02543283333333}, {"fusion_lat": 0.0, "name": "2da3859815d05196c4e2e66ead3a5ca7", "is_disabled": 0, "rental_uris": {"android": "https://dc.lft.to/lastmile_qr_scan", "ios": "https://dc.lft.to/lastmile_qr_scan"}, "fusion_lon": 0.0, "lat": 38.91783266666667, "bike_id": "2da3859815d05196c4e2e66ead3a5ca7", "type": "electric_scooter", "is_reserved": 0, "lon": -77.0319475}, {"fusion_lat": 0.0, "name": "cdfae34e8f9b39b822d49d9806e33205", "is_disabled": 0, "rental_uris": {"android": "https://dc.lft.to/lastmile_qr_scan", "ios": "https://dc.lft.to/lastmile_qr_scan"}, "fusion_lon": 0.0, "lat": 38.9166475, "bike_id": "cdfae34e8f9b39b822d49d9806e33205", "type": "electric_scooter", "is_reserved": 0, "lon": -77.0369975}, {"fusion_lat": 0.0, "name": "2dba1928c902b91e59bfd1f13745aa27", "is_disabled": 0, "rental_uris": {"android": "https://dc.lft.to/lastmile_qr_scan", "ios": "https://dc.lft.to/lastmile_qr_scan"}, "fusion_lon": 0.0, "lat": 38.9418925, "bike_id": "2dba1928c902b91e59bfd1f13745aa27", "type": "electric_scooter", "is_reserved": 0, "lon": -77.02488983333333}, {"fusion_lat": 0.0, "name": "7b872a0954de1fcdbec615dd367da742", "is_disabled": 0, "rental_uris": {"android": "https://dc.lft.to/lastmile_qr_scan", "ios": "https://dc.lft.to/lastmile_qr_scan"}, "fusion_lon": 0.0, "lat": 38.8904075, "bike_id": "7b872a0954de1fcdbec615dd367da742", "type": "electric_scooter", "is_reserved": 0, "lon": -77.015039}, {"fusion_lat": 0.0, "name": "bac38612c7b3f863954247f53d17dd18", "is_disabled": 0, "rental_uris": {"android": "https://dc.lft.to/lastmile_qr_scan", "ios": "https://dc.lft.to/lastmile_qr_scan"}, "fusion_lon": 0.0, "lat": 38.900634, "bike_id": "bac38612c7b3f863954247f53d17dd18", "type": "electric_scooter", "is_reserved": 0, "lon": -76.933864}, {"fusion_lat": 0.0, "name": "37332b37d42dd2ad75e27ac6f32c90ca", "is_disabled": 0, "rental_uris": {"android": "https://dc.lft.to/lastmile_qr_scan", "ios": "https://dc.lft.to/lastmile_qr_scan"}, "fusion_lon": 0.0, "lat": 38.88744716666667, "bike_id": "37332b37d42dd2ad75e27ac6f32c90ca", "type": "electric_scooter", "is_reserved": 0, "lon": -77.01777766666666}, {"fusion_lat": 0.0, "name": "e2953ae00088898b41f77dcc41ceaf74", "is_disabled": 0, "rental_uris": {"android": "https://dc.lft.to/lastmile_qr_scan", "ios": "https://dc.lft.to/lastmile_qr_scan"}, "fusion_lon": 0.0, "lat": 38.94268916666667, "bike_id": "e2953ae00088898b41f77dcc41ceaf74", "type": "electric_scooter", "is_reserved": 0, "lon": -77.03254383333334}, {"fusion_lat": 0.0, "name": "49111d4971ba5a284eaba2e1333badb0", "is_disabled": 0, "rental_uris": {"android": "https://dc.lft.to/lastmile_qr_scan", "ios": "https://dc.lft.to/lastmile_qr_scan"}, "fusion_lon": 0.0, "lat": 38.914036833333334, "bike_id": "49111d4971ba5a284eaba2e1333badb0", "type": "electric_scooter", "is_reserved": 0, "lon": -77.02985716666667}, {"fusion_lat": 0.0, "name": "8a158d14075070d921fd668191b99235", "is_disabled": 0, "rental_uris": {"android": "https://dc.lft.to/lastmile_qr_scan", "ios": "https://dc.lft.to/lastmile_qr_scan"}, "fusion_lon": 0.0, "lat": 38.8921975, "bike_id": "8a158d14075070d921fd668191b99235", "type": "electric_scooter", "is_reserved": 0, "lon": -77.02223033333334}, {"fusion_lat": 0.0, "name": "c8f2f13a39c4f73cb5e9302fe0214357", "is_disabled": 0, "rental_uris": {"android": "https://dc.lft.to/lastmile_qr_scan", "ios": "https://dc.lft.to/lastmile_qr_scan"}, "fusion_lon": 0.0, "lat": 38.92503, "bike_id": "c8f2f13a39c4f73cb5e9302fe0214357", "type": "electric_scooter", "is_reserved": 0, "lon": -77.02405533333334}, {"fusion_lat": 0.0, "name": "38042665896b6ae171d0b0fec606c9f7", "is_disabled": 0, "rental_uris": {"android": "https://dc.lft.to/lastmile_qr_scan", "ios": "https://dc.lft.to/lastmile_qr_scan"}, "fusion_lon": 0.0, "lat": 38.889947, "bike_id": "38042665896b6ae171d0b0fec606c9f7", "type": "electric_scooter", "is_reserved": 0, "lon": -76.9543505}, {"fusion_lat": 0.0, "name": "0bd497717a136546f487955440cf2686", "is_disabled": 0, "rental_uris": {"android": "https://dc.lft.to/lastmile_qr_scan", "ios": "https://dc.lft.to/lastmile_qr_scan"}, "fusion_lon": 0.0, "lat": 38.83515533333333, "bike_id": "0bd497717a136546f487955440cf2686", "type": "electric_bike", "is_reserved": 0, "lon": -76.986738}, {"fusion_lat": 0.0, "name": "fc6e43dadabed1339267c802615c9d85", "is_disabled": 0, "rental_uris": {"android": "https://dc.lft.to/lastmile_qr_scan", "ios": "https://dc.lft.to/lastmile_qr_scan"}, "fusion_lon": 0.0, "lat": 38.892463666666664, "bike_id": "fc6e43dadabed1339267c802615c9d85", "type": "electric_bike", "is_reserved": 0, "lon": -76.9854745}, {"fusion_lat": 0.0, "name": "697e8fed60836349ab3ae304dc540eb5", "is_disabled": 0, "rental_uris": {"android": "https://dc.lft.to/lastmile_qr_scan", "ios": "https://dc.lft.to/lastmile_qr_scan"}, "fusion_lon": 0.0, "lat": 38.892254666666666, "bike_id": "697e8fed60836349ab3ae304dc540eb5", "type": "electric_scooter", "is_reserved": 0, "lon": -77.04322283333333}, {"fusion_lat": 0.0, "name": "197d880974e5ba2965cdb3735ad1e518", "is_disabled": 0, "rental_uris": {"android": "https://dc.lft.to/lastmile_qr_scan", "ios": "https://dc.lft.to/lastmile_qr_scan"}, "fusion_lon": 0.0, "lat": 38.9010855, "bike_id": "197d880974e5ba2965cdb3735ad1e518", "type": "electric_scooter", "is_reserved": 0, "lon": -77.04618733333334}, {"fusion_lat": 0.0, "name": "1f083882b7e2c1305227a134138ac77f", "is_disabled": 0, "rental_uris": {"android": "https://dc.lft.to/lastmile_qr_scan", "ios": "https://dc.lft.to/lastmile_qr_scan"}, "fusion_lon": 0.0, "lat": 38.901853333333335, "bike_id": "1f083882b7e2c1305227a134138ac77f", "type": "electric_scooter", "is_reserved": 0, "lon": -77.02392383333333}, {"fusion_lat": 0.0, "name": "d5d3c3fdc55d52899a4c25033204d36d", "is_disabled": 0, "rental_uris": {"android": "https://dc.lft.to/lastmile_qr_scan", "ios": "https://dc.lft.to/lastmile_qr_scan"}, "fusion_lon": 0.0, "lat": 38.88543583333333, "bike_id": "d5d3c3fdc55d52899a4c25033204d36d", "type": "electric_scooter", "is_reserved": 0, "lon": -76.97893516666667}, {"fusion_lat": 0.0, "name": "f225b4133a5334b6e28cac9565f6c6da", "is_disabled": 0, "rental_uris": {"android": "https://dc.lft.to/lastmile_qr_scan", "ios": "https://dc.lft.to/lastmile_qr_scan"}, "fusion_lon": 0.0, "lat": 38.909699833333335, "bike_id": "f225b4133a5334b6e28cac9565f6c6da", "type": "electric_scooter", "is_reserved": 0, "lon": -77.02695483333333}, {"fusion_lat": 0.0, "name": "986d362740f3dd4de55217ebb72dbb07", "is_disabled": 0, "rental_uris": {"android": "https://dc.lft.to/lastmile_qr_scan", "ios": "https://dc.lft.to/lastmile_qr_scan"}, "fusion_lon": 0.0, "lat": 38.88739533333333, "bike_id": "986d362740f3dd4de55217ebb72dbb07", "type": "electric_scooter", "is_reserved": 0, "lon": -77.0032635}, {"fusion_lat": 0.0, "name": "7431c57ef8f4404bf24b3a1ff6e20f6e", "is_disabled": 0, "rental_uris": {"android": "https://dc.lft.to/lastmile_qr_scan", "ios": "https://dc.lft.to/lastmile_qr_scan"}, "fusion_lon": 0.0, "lat": 38.870839, "bike_id": "7431c57ef8f4404bf24b3a1ff6e20f6e", "type": "electric_scooter", "is_reserved": 0, "lon": -77.01379783333333}, {"fusion_lat": 0.0, "name": "e5d15262b3a50e14375d96830a8e36d6", "is_disabled": 0, "rental_uris": {"android": "https://dc.lft.to/lastmile_qr_scan", "ios": "https://dc.lft.to/lastmile_qr_scan"}, "fusion_lon": 0.0, "lat": 38.915466333333335, "bike_id": "e5d15262b3a50e14375d96830a8e36d6", "type": "electric_scooter", "is_reserved": 0, "lon": -77.03855466666667}, {"fusion_lat": 0.0, "name": "8e794e40b8bec2e54ba6f8075d68cce8", "is_disabled": 0, "rental_uris": {"android": "https://dc.lft.to/lastmile_qr_scan", "ios": "https://dc.lft.to/lastmile_qr_scan"}, "fusion_lon": 0.0, "lat": 38.937704, "bike_id": "8e794e40b8bec2e54ba6f8075d68cce8", "type": "electric_scooter", "is_reserved": 0, "lon": -77.02370183333333}, {"fusion_lat": 0.0, "name": "5434e268c3d4fba9c89f66911d57b669", "is_disabled": 0, "rental_uris": {"android": "https://dc.lft.to/lastmile_qr_scan", "ios": "https://dc.lft.to/lastmile_qr_scan"}, "fusion_lon": 0.0, "lat": 38.90380066666667, "bike_id": "5434e268c3d4fba9c89f66911d57b669", "type": "electric_scooter", "is_reserved": 0, "lon": -77.01634316666667}, {"fusion_lat": 0.0, "name": "ee98b74b35f880c0a1ee675fb0b03094", "is_disabled": 0, "rental_uris": {"android": "https://dc.lft.to/lastmile_qr_scan", "ios": "https://dc.lft.to/lastmile_qr_scan"}, "fusion_lon": 0.0, "lat": 38.92076183333333, "bike_id": "ee98b74b35f880c0a1ee675fb0b03094", "type": "electric_bike", "is_reserved": 0, "lon": -76.98945433333333}, {"fusion_lat": 0.0, "name": "742247e6647902499eb2f6f1aaf6b1f3", "is_disabled": 0, "rental_uris": {"android": "https://dc.lft.to/lastmile_qr_scan", "ios": "https://dc.lft.to/lastmile_qr_scan"}, "fusion_lon": 0.0, "lat": 38.90295183333333, "bike_id": "742247e6647902499eb2f6f1aaf6b1f3", "type": "electric_scooter", "is_reserved": 0, "lon": -77.0061495}, {"fusion_lat": 0.0, "name": "b8cb5c536580dc72591c1c6d43e5d60f", "is_disabled": 0, "rental_uris": {"android": "https://dc.lft.to/lastmile_qr_scan", "ios": "https://dc.lft.to/lastmile_qr_scan"}, "fusion_lon": 0.0, "lat": 38.92093283333333, "bike_id": "b8cb5c536580dc72591c1c6d43e5d60f", "type": "electric_scooter", "is_reserved": 0, "lon": -77.02512833333333}, {"fusion_lat": 0.0, "name": "fd6780a454885536d878fccedc1bf3ac", "is_disabled": 0, "rental_uris": {"android": "https://dc.lft.to/lastmile_qr_scan", "ios": "https://dc.lft.to/lastmile_qr_scan"}, "fusion_lon": 0.0, "lat": 38.902667, "bike_id": "fd6780a454885536d878fccedc1bf3ac", "type": "electric_scooter", "is_reserved": 0, "lon": -77.041661}, {"fusion_lat": 0.0, "name": "7a049c34905fbf04ca5b57279a65db18", "is_disabled": 0, "rental_uris": {"android": "https://dc.lft.to/lastmile_qr_scan", "ios": "https://dc.lft.to/lastmile_qr_scan"}, "fusion_lon": 0.0, "lat": 38.91558, "bike_id": "7a049c34905fbf04ca5b57279a65db18", "type": "electric_scooter", "is_reserved": 0, "lon": -77.01052416666667}, {"fusion_lat": 0.0, "name": "81a03fdb2d2fac627917ecc6dd29df47", "is_disabled": 0, "rental_uris": {"android": "https://dc.lft.to/lastmile_qr_scan", "ios": "https://dc.lft.to/lastmile_qr_scan"}, "fusion_lon": 0.0, "lat": 38.907719166666666, "bike_id": "81a03fdb2d2fac627917ecc6dd29df47", "type": "electric_scooter", "is_reserved": 0, "lon": -77.03195233333334}, {"fusion_lat": 0.0, "name": "d10ac6f61a9b71c6597b9d4ebf8f77e4", "is_disabled": 0, "rental_uris": {"android": "https://dc.lft.to/lastmile_qr_scan", "ios": "https://dc.lft.to/lastmile_qr_scan"}, "fusion_lon": 0.0, "lat": 38.8983295, "bike_id": "d10ac6f61a9b71c6597b9d4ebf8f77e4", "type": "electric_scooter", "is_reserved": 0, "lon": -76.98778316666667}, {"fusion_lat": 0.0, "name": "edd185e1bdf3639d48542cc5538b900b", "is_disabled": 0, "rental_uris": {"android": "https://dc.lft.to/lastmile_qr_scan", "ios": "https://dc.lft.to/lastmile_qr_scan"}, "fusion_lon": 0.0, "lat": 38.92682833333333, "bike_id": "edd185e1bdf3639d48542cc5538b900b", "type": "electric_scooter", "is_reserved": 0, "lon": -77.0299045}, {"fusion_lat": 0.0, "name": "8ecbdb6f4013aa87274e3d9dea3e252c", "is_disabled": 0, "rental_uris": {"android": "https://dc.lft.to/lastmile_qr_scan", "ios": "https://dc.lft.to/lastmile_qr_scan"}, "fusion_lon": 0.0, "lat": 38.9199575, "bike_id": "8ecbdb6f4013aa87274e3d9dea3e252c", "type": "electric_scooter", "is_reserved": 0, "lon": -77.03275383333333}, {"fusion_lat": 0.0, "name": "ee03a1983b9193fe8c6688868c6a82e5", "is_disabled": 0, "rental_uris": {"android": "https://dc.lft.to/lastmile_qr_scan", "ios": "https://dc.lft.to/lastmile_qr_scan"}, "fusion_lon": 0.0, "lat": 38.90020466666667, "bike_id": "ee03a1983b9193fe8c6688868c6a82e5", "type": "electric_scooter", "is_reserved": 0, "lon": -77.0118875}, {"fusion_lat": 0.0, "name": "95e5ab8e25b807e4c0ec6d1162cd0ff8", "is_disabled": 0, "rental_uris": {"android": "https://dc.lft.to/lastmile_qr_scan", "ios": "https://dc.lft.to/lastmile_qr_scan"}, "fusion_lon": 0.0, "lat": 38.93398966666667, "bike_id": "95e5ab8e25b807e4c0ec6d1162cd0ff8", "type": "electric_bike", "is_reserved": 0, "lon": -77.03545933333334}, {"fusion_lat": 0.0, "name": "2239e601e466d9a255efdb7619cf08a1", "is_disabled": 0, "rental_uris": {"android": "https://dc.lft.to/lastmile_qr_scan", "ios": "https://dc.lft.to/lastmile_qr_scan"}, "fusion_lon": 0.0, "lat": 38.90737033333333, "bike_id": "2239e601e466d9a255efdb7619cf08a1", "type": "electric_scooter", "is_reserved": 0, "lon": -77.04090383333333}, {"fusion_lat": 0.0, "name": "7155eb27d94ca4c0c25174ee2e2e698f", "is_disabled": 0, "rental_uris": {"android": "https://dc.lft.to/lastmile_qr_scan", "ios": "https://dc.lft.to/lastmile_qr_scan"}, "fusion_lon": 0.0, "lat": 38.92997416666667, "bike_id": "7155eb27d94ca4c0c25174ee2e2e698f", "type": "electric_scooter", "is_reserved": 0, "lon": -77.02181183333333}, {"fusion_lat": 0.0, "name": "8dd5f83107217cfb9d444d80f2961aae", "is_disabled": 0, "rental_uris": {"android": "https://dc.lft.to/lastmile_qr_scan", "ios": "https://dc.lft.to/lastmile_qr_scan"}, "fusion_lon": 0.0, "lat": 38.916336333333334, "bike_id": "8dd5f83107217cfb9d444d80f2961aae", "type": "electric_scooter", "is_reserved": 0, "lon": -77.05070183333333}, {"fusion_lat": 0.0, "name": "ddeb484ca4bc317cf3ed2e67fca12d99", "is_disabled": 0, "rental_uris": {"android": "https://dc.lft.to/lastmile_qr_scan", "ios": "https://dc.lft.to/lastmile_qr_scan"}, "fusion_lon": 0.0, "lat": 38.93452883333333, "bike_id": "ddeb484ca4bc317cf3ed2e67fca12d99", "type": "electric_scooter", "is_reserved": 0, "lon": -77.03265483333334}, {"fusion_lat": 0.0, "name": "a34f38cedd47821584181c5e0f6dab10", "is_disabled": 0, "rental_uris": {"android": "https://dc.lft.to/lastmile_qr_scan", "ios": "https://dc.lft.to/lastmile_qr_scan"}, "fusion_lon": 0.0, "lat": 38.908171333333335, "bike_id": "a34f38cedd47821584181c5e0f6dab10", "type": "electric_scooter", "is_reserved": 0, "lon": -77.0434515}, {"fusion_lat": 0.0, "name": "79cdb243c90fe02ac3cb4dce08e3b1c3", "is_disabled": 0, "rental_uris": {"android": "https://dc.lft.to/lastmile_qr_scan", "ios": "https://dc.lft.to/lastmile_qr_scan"}, "fusion_lon": 0.0, "lat": 38.904657, "bike_id": "79cdb243c90fe02ac3cb4dce08e3b1c3", "type": "electric_scooter", "is_reserved": 0, "lon": -77.0628565}, {"fusion_lat": 0.0, "name": "46cfa7ea1269552152ae455776a1deb2", "is_disabled": 0, "rental_uris": {"android": "https://dc.lft.to/lastmile_qr_scan", "ios": "https://dc.lft.to/lastmile_qr_scan"}, "fusion_lon": 0.0, "lat": 38.90979333333333, "bike_id": "46cfa7ea1269552152ae455776a1deb2", "type": "electric_scooter", "is_reserved": 0, "lon": -77.03442033333333}, {"fusion_lat": 0.0, "name": "33878ccca3e1a1fa2e5ff1d3705ba545", "is_disabled": 0, "rental_uris": {"android": "https://dc.lft.to/lastmile_qr_scan", "ios": "https://dc.lft.to/lastmile_qr_scan"}, "fusion_lon": 0.0, "lat": 38.8874545, "bike_id": "33878ccca3e1a1fa2e5ff1d3705ba545", "type": "electric_scooter", "is_reserved": 0, "lon": -77.02773783333333}, {"fusion_lat": 0.0, "name": "92ece3b8e6861c7d5d627cdd0f32b25a", "is_disabled": 0, "rental_uris": {"android": "https://dc.lft.to/lastmile_qr_scan", "ios": "https://dc.lft.to/lastmile_qr_scan"}, "fusion_lon": 0.0, "lat": 38.921011, "bike_id": "92ece3b8e6861c7d5d627cdd0f32b25a", "type": "electric_scooter", "is_reserved": 0, "lon": -77.04689166666667}, {"fusion_lat": 0.0, "name": "35ede45bb01985bedd56b33729261017", "is_disabled": 0, "rental_uris": {"android": "https://dc.lft.to/lastmile_qr_scan", "ios": "https://dc.lft.to/lastmile_qr_scan"}, "fusion_lon": 0.0, "lat": 38.920364666666664, "bike_id": "35ede45bb01985bedd56b33729261017", "type": "electric_scooter", "is_reserved": 0, "lon": -77.08192}, {"fusion_lat": 0.0, "name": "c8716ed333d1eb77f0e8dacad7bd2067", "is_disabled": 0, "rental_uris": {"android": "https://dc.lft.to/lastmile_qr_scan", "ios": "https://dc.lft.to/lastmile_qr_scan"}, "fusion_lon": 0.0, "lat": 38.8962915, "bike_id": "c8716ed333d1eb77f0e8dacad7bd2067", "type": "electric_scooter", "is_reserved": 0, "lon": -77.0241165}, {"fusion_lat": 0.0, "name": "42c46f2d3a0250cdda2a0953a4c04796", "is_disabled": 0, "rental_uris": {"android": "https://dc.lft.to/lastmile_qr_scan", "ios": "https://dc.lft.to/lastmile_qr_scan"},