{"data": {"bikes": [{"type": "electric_bike", "rental_uris": {"ios": "https://dc.lft.to/lastmile_qr_scan", "android": "https://dc.lft.to/lastmile_qr_scan"}, "lon": -77.03897216666667, "fusion_lon": 0.0, "is_disabled": 0, "lat": 38.923316, "bike_id": "1b1d4e99774520d2a43657189a3bbe77", "name": "1b1d4e99774520d2a43657189a3bbe77", "is_reserved": 0, "fusion_lat": 0.0}, {"type": "electric_scooter", "rental_uris": {"ios": "https://dc.lft.to/lastmile_qr_scan", "android": "https://dc.lft.to/lastmile_qr_scan"}, "lon": -77.04431983333333, "fusion_lon": 0.0, "is_disabled": 0, "lat": 38.921285166666664, "bike_id": "da61b9b71a3de37b7383d63c20fec1e9", "name": "da61b9b71a3de37b7383d63c20fec1e9", "is_reserved": 0, "fusion_lat": 0.0}, {"type": "electric_scooter", "rental_uris": {"ios": "https://dc.lft.to/lastmile_qr_scan", "android": "https://dc.lft.to/lastmile_qr_scan"}, "lon": -77.03506983333334, "fusion_lon": 0.0, "is_disabled": 0, "lat": 38.921508833333334, "bike_id": "662b0bd34f7e322b1a3ae0845d3b0028", "name": "662b0bd34f7e322b1a3ae0845d3b0028", "is_reserved": 0, "fusion_lat": 0.0}, {"type": "electric_scooter", "rental_uris": {"ios": "https://dc.lft.to/lastmile_qr_scan", "android": "https://dc.lft.to/lastmile_qr_scan"}, "lon": -77.03912533333333, "fusion_lon": 0.0, "is_disabled": 0, "lat": 38.902473, "bike_id": "1cfb3e8a73e7b2c25c79fca45ee031f6", "name": "1cfb3e8a73e7b2c25c79fca45ee031f6", "is_reserved": 0, "fusion_lat": 0.0}, {"type": "electric_scooter", "rental_uris": {"ios": "https://dc.lft.to/lastmile_qr_scan", "android": "https://dc.lft.to/lastmile_qr_scan"}, "lon": -77.02692566666667, "fusion_lon": 0.0, "is_disabled": 0, "lat": 38.90603016666667, "bike_id": "fad2306b979fc52f46f7382991ee7ad4", "name": "fad2306b979fc52f46f7382991ee7ad4", "is_reserved": 0, "fusion_lat": 0.0}, {"type": "electric_scooter", "rental_uris": {"ios": "https://dc.lft.to/lastmile_qr_scan", "android": "https://dc.lft.to/lastmile_qr_scan"}, "lon": -77.04346733333334, "fusion_lon": 0.0, "is_disabled": 0, "lat": 38.9134305, "bike_id": "c69c3155bf2f2b60fea8b07079d87a1b", "name": "c69c3155bf2f2b60fea8b07079d87a1b", "is_reserved": 0, "fusion_lat": 0.0}, {"type": "electric_scooter", "rental_uris": {"ios": "https://dc.lft.to/lastmile_qr_scan", "android": "https://dc.lft.to/lastmile_qr_scan"}, "lon": -77.07707666666667, "fusion_lon": 0.0, "is_disabled": 0, "lat": 38.943865, "bike_id": "e88aed80454882be12ba1db44995541e", "name": "e88aed80454882be12ba1db44995541e", "is_reserved": 0, "fusion_lat": 0.0}, {"type": "electric_bike", "rental_uris": {"ios": "https://dc.lft.to/lastmile_qr_scan", "android": "https://dc.lft.to/lastmile_qr_scan"}, "lon": -77.04927983333333, "fusion_lon": 0.0, "is_disabled": 0, "lat": 39.029342, "bike_id": "e44b0979c6812e63768b6f2535cde986", "name": "e44b0979c6812e63768b6f2535cde986", "is_reserved": 0, "fusion_lat": 0.0}, {"type": "electric_bike", "rental_uris": {"ios": "https://dc.lft.to/lastmile_qr_scan", "android": "https://dc.lft.to/lastmile_qr_scan"}, "lon": -77.02764466666666, "fusion_lon": 0.0, "is_disabled": 0, "lat": 38.92904383333333, "bike_id": "4f2dd8587868ac508e7acb3fb676000a", "name": "4f2dd8587868ac508e7acb3fb676000a", "is_reserved": 0, "fusion_lat": 0.0}, {"type": "electric_scooter", "rental_uris": {"ios": "https://dc.lft.to/lastmile_qr_scan", "android": "https://dc.lft.to/lastmile_qr_scan"}, "lon": -77.013744, "fusion_lon": 0.0, "is_disabled": 0, "lat": 38.892209666666666, "bike_id": "6707f6855a7daf99bddecb2c821409fc", "name": "6707f6855a7daf99bddecb2c821409fc", "is_reserved": 0, "fusion_lat": 0.0}, {"type": "electric_scooter", "rental_uris": {"ios": "https://dc.lft.to/lastmile_qr_scan", "android": "https://dc.lft.to/lastmile_qr_scan"}, "lon": -76.97017316666667, "fusion_lon": 0.0, "is_disabled": 0, "lat": 38.92033433333334, "bike_id": "757447c3e2da5a0d94b58530f6a1bfbf", "name": "757447c3e2da5a0d94b58530f6a1bfbf", "is_reserved": 0, "fusion_lat": 0.0}, {"type": "electric_scooter", "rental_uris": {"ios": "https://dc.lft.to/lastmile_qr_scan", "android": "https://dc.lft.to/lastmile_qr_scan"}, "lon": -77.0362565, "fusion_lon": 0.0, "is_disabled": 0, "lat": 38.93683433333333, "bike_id": "8fefe40dc38e605ccd6d0f2881f8e56a", "name": "8fefe40dc38e605ccd6d0f2881f8e56a", "is_reserved": 0, "fusion_lat": 0.0}, {"type": "electric_bike", "rental_uris": {"ios": "https://dc.lft.to/lastmile_qr_scan", "android": "https://dc.lft.to/lastmile_qr_scan"}, "lon": -77.02713416666667, "fusion_lon": 0.0, "is_disabled": 0, "lat": 38.922994833333334, "bike_id": "88059b77cd0827063b01a7c7ee5f9fab", "name": "88059b77cd0827063b01a7c7ee5f9fab", "is_reserved": 0, "fusion_lat": 0.0}, {"type": "electric_scooter", "rental_uris": {"ios": "https://dc.lft.to/lastmile_qr_scan", "android": "https://dc.lft.to/lastmile_qr_scan"}, "lon": -77.02218466666666, "fusion_lon": 0.0, "is_disabled": 0, "lat": 38.89220133333333, "bike_id": "8da0fcdc2fe1ec7264f9823d7db9d5ea", "name": "8da0fcdc2fe1ec7264f9823d7db9d5ea", "is_reserved": 0, "fusion_lat": 0.0}, {"type": "electric_scooter", "rental_uris": {"ios": "https://dc.lft.to/lastmile_qr_scan", "android": "https://dc.lft.to/lastmile_qr_scan"}, "lon": -77.0505335, "fusion_lon": 0.0, "is_disabled": 0, "lat": 38.92366083333334, "bike_id": "ff21940eb8a400cbe1a5170c61458b1f", "name": "ff21940eb8a400cbe1a5170c61458b1f", "is_reserved": 0, "fusion_lat": 0.0}, {"type": "electric_scooter", "rental_uris": {"ios": "https://dc.lft.to/lastmile_qr_scan", "android": "https://dc.lft.to/lastmile_qr_scan"}, "lon": -77.03092316666667, "fusion_lon": 0.0, "is_disabled": 0, "lat": 38.90145, "bike_id": "67d4a35a270320a4bb0ad18548640c65", "name": "67d4a35a270320a4bb0ad18548640c65", "is_reserved": 0, "fusion_lat": 0.0}, {"type": "electric_scooter", "rental_uris": {"ios": "https://dc.lft.to/lastmile_qr_scan", "android": "https://dc.lft.to/lastmile_qr_scan"}, "lon": -77.03035583333333, "fusion_lon": 0.0, "is_disabled": 0, "lat": 38.926804, "bike_id": "ea67cc1b3f4b26db463938a0905a3559", "name": "ea67cc1b3f4b26db463938a0905a3559", "is_reserved": 0, "fusion_lat": 0.0}, {"type": "electric_scooter", "rental_uris": {"ios": "https://dc.lft.to/lastmile_qr_scan", "android": "https://dc.lft.to/lastmile_qr_scan"}, "lon": -77.05152633333333, "fusion_lon": 0.0, "is_disabled": 0, "lat": 38.902626833333336, "bike_id": "6b293509413a71b70f5356245ec31a7e", "name": "6b293509413a71b70f5356245ec31a7e", "is_reserved": 0, "fusion_lat": 0.0}, {"type": "electric_scooter", "rental_uris": {"ios": "https://dc.lft.to/lastmile_qr_scan", "android": "https://dc.lft.to/lastmile_qr_scan"}, "lon": -77.02419183333333, "fusion_lon": 0.0, "is_disabled": 0, "lat": 38.92652733333333, "bike_id": "c6139d18c83800dce15e3656ea2b24db", "name": "c6139d18c83800dce15e3656ea2b24db", "is_reserved": 0, "fusion_lat": 0.0}, {"type": "electric_scooter", "rental_uris": {"ios": "https://dc.lft.to/lastmile_qr_scan", "android": "https://dc.lft.to/lastmile_qr_scan"}, "lon": -77.03077016666667, "fusion_lon": 0.0, "is_disabled": 0, "lat": 38.91760083333333, "bike_id": "58ca7b346badbfc4ba4ef70dd2ac66e1", "name": "58ca7b346badbfc4ba4ef70dd2ac66e1", "is_reserved": 0, "fusion_lat": 0.0}, {"type": "electric_scooter", "rental_uris": {"ios": "https://dc.lft.to/lastmile_qr_scan", "android": "https://dc.lft.to/lastmile_qr_scan"}, "lon": -77.0335435, "fusion_lon": 0.0, "is_disabled": 0, "lat": 38.917042, "bike_id": "7903bfba11316086178075fe4e438d25", "name": "7903bfba11316086178075fe4e438d25", "is_reserved": 0, "fusion_lat": 0.0}, {"type": "electric_scooter", "rental_uris": {"ios": "https://dc.lft.to/lastmile_qr_scan", "android": "https://dc.lft.to/lastmile_qr_scan"}, "lon": -76.97722483333334, "fusion_lon": 0.0, "is_disabled": 0, "lat": 38.872442666666664, "bike_id": "030c78f5684244e997a5754885e01916", "name": "030c78f5684244e997a5754885e01916", "is_reserved": 0, "fusion_lat": 0.0}, {"type": "electric_scooter", "rental_uris": {"ios": "https://dc.lft.to/lastmile_qr_scan", "android": "https://dc.lft.to/lastmile_qr_scan"}, "lon": -76.9985685, "fusion_lon": 0.0, "is_disabled": 0, "lat": 38.881150166666664, "bike_id": "b8262f50b704b2f31806c3553a3b9237", "name": "b8262f50b704b2f31806c3553a3b9237", "is_reserved": 0, "fusion_lat": 0.0}, {"type": "electric_scooter", "rental_uris": {"ios": "https://dc.lft.to/lastmile_qr_scan", "android": "https://dc.lft.to/lastmile_qr_scan"}, "lon": -77.02718366666667, "fusion_lon": 0.0, "is_disabled": 0, "lat": 38.924814, "bike_id": "287a8f675362868b459df7a35c5db7c5", "name": "287a8f675362868b459df7a35c5db7c5", "is_reserved": 0, "fusion_lat": 0.0}, {"type": "electric_scooter", "rental_uris": {"ios": "https://dc.lft.to/lastmile_qr_scan", "android": "https://dc.lft.to/lastmile_qr_scan"}, "lon": -76.96866466666667, "fusion_lon": 0.0, "is_disabled": 0, "lat": 38.870797833333334, "bike_id": "085c9e6b231c72e8e0a08581ad0d735a", "name": "085c9e6b231c72e8e0a08581ad0d735a", "is_reserved": 0, "fusion_lat": 0.0}, {"type": "electric_scooter", "rental_uris": {"ios": "https://dc.lft.to/lastmile_qr_scan", "android": "https://dc.lft.to/lastmile_qr_scan"}, "lon": -77.01225383333333, "fusion_lon": 0.0, "is_disabled": 0, "lat": 38.914976833333334, "bike_id": "fee478c2a9398f66bb06b4f22adc09ba", "name": "fee478c2a9398f66bb06b4f22adc09ba", "is_reserved": 0, "fusion_lat": 0.0}, {"type": "electric_scooter", "rental_uris": {"ios": "https://dc.lft.to/lastmile_qr_scan", "android": "https://dc.lft.to/lastmile_qr_scan"}, "lon": -77.02533833333334, "fusion_lon": 0.0, "is_disabled": 0, "lat": 38.92081966666667, "bike_id": "f9a0e746ae813e71287844acedc3e92f", "name": "f9a0e746ae813e71287844acedc3e92f", "is_reserved": 0, "fusion_lat": 0.0}, {"type": "electric_scooter", "rental_uris": {"ios": "https://dc.lft.to/lastmile_qr_scan", "android": "https://dc.lft.to/lastmile_qr_scan"}, "lon": -77.00958883333334, "fusion_lon": 0.0, "is_disabled": 0, "lat": 38.90789066666667, "bike_id": "a48fe0beeca25febf47739c63ba6bd1f", "name": "a48fe0beeca25febf47739c63ba6bd1f", "is_reserved": 0, "fusion_lat": 0.0}, {"type": "electric_scooter", "rental_uris": {"ios": "https://dc.lft.to/lastmile_qr_scan", "android": "https://dc.lft.to/lastmile_qr_scan"}, "lon": -76.99777983333334, "fusion_lon": 0.0, "is_disabled": 0, "lat": 38.8443195, "bike_id": "5fb0b13628c3218d29e00ba4bbc742a9", "name": "5fb0b13628c3218d29e00ba4bbc742a9", "is_reserved": 0, "fusion_lat": 0.0}, {"type": "electric_scooter", "rental_uris": {"ios": "https://dc.lft.to/lastmile_qr_scan", "android": "https://dc.lft.to/lastmile_qr_scan"}, "lon": -77.03283066666667, "fusion_lon": 0.0, "is_disabled": 0, "lat": 38.927477, "bike_id": "dd6329577325a3ebe835c1230a0daad4", "name": "dd6329577325a3ebe835c1230a0daad4", "is_reserved": 0, "fusion_lat": 0.0}, {"type": "electric_scooter", "rental_uris": {"ios": "https://dc.lft.to/lastmile_qr_scan", "android": "https://dc.lft.to/lastmile_qr_scan"}, "lon": -77.03432783333334, "fusion_lon": 0.0, "is_disabled": 0, "lat": 38.90794133333333, "bike_id": "d06b686c80b051575449958a767bd7d4", "name": "d06b686c80b051575449958a767bd7d4", "is_reserved": 0, "fusion_lat": 0.0}, {"type": "electric_scooter", "rental_uris": {"ios": "https://dc.lft.to/lastmile_qr_scan", "android": "https://dc.lft.to/lastmile_qr_scan"}, "lon": -77.047697, "fusion_lon": 0.0, "is_disabled": 0, "lat": 38.90851383333333, "bike_id": "3b74593ee0d258f8e33b93a830260c32", "name": "3b74593ee0d258f8e33b93a830260c32", "is_reserved": 0, "fusion_lat": 0.0}, {"type": "electric_scooter", "rental_uris": {"ios": "https://dc.lft.to/lastmile_qr_scan", "android": "https://dc.lft.to/lastmile_qr_scan"}, "lon": -77.02514316666667, "fusion_lon": 0.0, "is_disabled": 0, "lat": 38.94621866666667, "bike_id": "ff0fb5b5061fceeff9454407b4aa0d68", "name": "ff0fb5b5061fceeff9454407b4aa0d68", "is_reserved": 0, "fusion_lat": 0.0}, {"type": "electric_scooter", "rental_uris": {"ios": "https://dc.lft.to/lastmile_qr_scan", "android": "https://dc.lft.to/lastmile_qr_scan"}, "lon": -77.03341616666667, "fusion_lon": 0.0, "is_disabled": 0, "lat": 38.91715716666667, "bike_id": "72a126c8bd8eb9bea62a92fa9a66a4f3", "name": "72a126c8bd8eb9bea62a92fa9a66a4f3", "is_reserved": 0, "fusion_lat": 0.0}, {"type": "electric_scooter", "rental_uris": {"ios": "https://dc.lft.to/lastmile_qr_scan", "android": "https://dc.lft.to/lastmile_qr_scan"}, "lon": -77.03532483333333, "fusion_lon": 0.0, "is_disabled": 0, "lat": 38.9238705, "bike_id": "b684c7f53a263a991b8c5967fc207d92", "name": "b684c7f53a263a991b8c5967fc207d92", "is_reserved": 0, "fusion_lat": 0.0}, {"type": "electric_bike", "rental_uris": {"ios": "https://dc.lft.to/lastmile_qr_scan", "android": "https://dc.lft.to/lastmile_qr_scan"}, "lon": -77.05632733333333, "fusion_lon": 0.0, "is_disabled": 0, "lat": 38.986504, "bike_id": "46ddf0b01ce1ca9dc6dc1d7cbd941a7c", "name": "46ddf0b01ce1ca9dc6dc1d7cbd941a7c", "is_reserved": 0, "fusion_lat": 0.0}, {"type": "electric_scooter", "rental_uris": {"ios": "https://dc.lft.to/lastmile_qr_scan", "android": "https://dc.lft.to/lastmile_qr_scan"}, "lon": -77.04011, "fusion_lon": 0.0, "is_disabled": 0, "lat": 38.91799566666667, "bike_id": "59e7d2d2e14e9c642406f9f765e518eb", "name": "59e7d2d2e14e9c642406f9f765e518eb", "is_reserved": 0, "fusion_lat": 0.0}, {"type": "electric_scooter", "rental_uris": {"ios": "https://dc.lft.to/lastmile_qr_scan", "android": "https://dc.lft.to/lastmile_qr_scan"}, "lon": -77.03748866666666, "fusion_lon": 0.0, "is_disabled": 0, "lat": 38.925802833333336, "bike_id": "72b1f3ab850a2a5d2f649c0ff65eeaab", "name": "72b1f3ab850a2a5d2f649c0ff65eeaab", "is_reserved": 0, "fusion_lat": 0.0}, {"type": "electric_scooter", "rental_uris": {"ios": "https://dc.lft.to/lastmile_qr_scan", "android": "https://dc.lft.to/lastmile_qr_scan"}, "lon": -77.05319783333333, "fusion_lon": 0.0, "is_disabled": 0, "lat": 38.927858, "bike_id": "c0858cb4628a43e640b0a029c9fd444f", "name": "c0858cb4628a43e640b0a029c9fd444f", "is_reserved": 0, "fusion_lat": 0.0}, {"type": "electric_scooter", "rental_uris": {"ios": "https://dc.lft.to/lastmile_qr_scan", "android": "https://dc.lft.to/lastmile_qr_scan"}, "lon": -77.04602866666667, "fusion_lon": 0.0, "is_disabled": 0, "lat": 38.915547333333336, "bike_id": "016e4a6b3a09fd0586b9c187c97bf141", "name": "016e4a6b3a09fd0586b9c187c97bf141", "is_reserved": 0, "fusion_lat": 0.0}, {"type": "electric_scooter", "rental_uris": {"ios": "https://dc.lft.to/lastmile_qr_scan", "android": "https://dc.lft.to/lastmile_qr_scan"}, "lon": -77.04380983333333, "fusion_lon": 0.0, "is_disabled": 0, "lat": 38.933328833333334, "bike_id": "9ba94ba707444be5c876c173a9f90142", "name": "9ba94ba707444be5c876c173a9f90142", "is_reserved": 0, "fusion_lat": 0.0}, {"type": "electric_scooter", "rental_uris": {"ios": "https://dc.lft.to/lastmile_qr_scan", "android": "https://dc.lft.to/lastmile_qr_scan"}, "lon": -76.99034833333333, "fusion_lon": 0.0, "is_disabled": 0, "lat": 38.86520683333333, "bike_id": "88e4ada1b01b348240d2d4a3cf99089c", "name": "88e4ada1b01b348240d2d4a3cf99089c", "is_reserved": 0, "fusion_lat": 0.0}, {"type": "electric_scooter", "rental_uris": {"ios": "https://dc.lft.to/lastmile_qr_scan", "android": "https://dc.lft.to/lastmile_qr_scan"}, "lon": -77.0400785, "fusion_lon": 0.0, "is_disabled": 0, "lat": 38.910003, "bike_id": "8dc6dd544f85aff04fe860acd9036487", "name": "8dc6dd544f85aff04fe860acd9036487", "is_reserved": 0, "fusion_lat": 0.0}, {"type": "electric_bike", "rental_uris": {"ios": "https://dc.lft.to/lastmile_qr_scan", "android": "https://dc.lft.to/lastmile_qr_scan"}, "lon": -77.1296535, "fusion_lon": 0.0, "is_disabled": 0, "lat": 38.852230666666664, "bike_id": "60b9a502396d5135e80c1ca9ece791f0", "name": "60b9a502396d5135e80c1ca9ece791f0", "is_reserved": 0, "fusion_lat": 0.0}, {"type": "electric_bike", "rental_uris": {"ios": "https://dc.lft.to/lastmile_qr_scan", "android": "https://dc.lft.to/lastmile_qr_scan"}, "lon": -77.09479583333334, "fusion_lon": 0.0, "is_disabled": 0, "lat": 38.807525, "bike_id": "652608305e976f63154efb75223a84d6", "name": "652608305e976f63154efb75223a84d6", "is_reserved": 0, "fusion_lat": 0.0}, {"type": "electric_bike", "rental_uris": {"ios": "https://dc.lft.to/lastmile_qr_scan", "android": "https://dc.lft.to/lastmile_qr_scan"}, "lon": -76.93231983333334, "fusion_lon": 0.0, "is_disabled": 0, "lat": 38.865962833333334, "bike_id": "cfb59726e09436ca23fa243708a1ea1e", "name": "cfb59726e09436ca23fa243708a1ea1e", "is_reserved": 0, "fusion_lat": 0.0}, {"type": "electric_scooter", "rental_uris": {"ios": "https://dc.lft.to/lastmile_qr_scan", "android": "https://dc.lft.to/lastmile_qr_scan"}, "lon": -77.03675066666666, "fusion_lon": 0.0, "is_disabled": 0, "lat": 38.91710583333333, "bike_id": "82de5a6728a38c8be28f7e171fe92892", "name": "82de5a6728a38c8be28f7e171fe92892", "is_reserved": 0, "fusion_lat": 0.0}, {"type": "electric_scooter", "rental_uris": {"ios": "https://dc.lft.to/lastmile_qr_scan", "android": "https://dc.lft.to/lastmile_qr_scan"}, "lon": -77.03182666666666, "fusion_lon": 0.0, "is_disabled": 0, "lat": 38.9192765, "bike_id": "4bce833f09027b31bd9c49d101af3423", "name": "4bce833f09027b31bd9c49d101af3423", "is_reserved": 0, "fusion_lat": 0.0}, {"type": "electric_scooter", "rental_uris": {"ios": "https://dc.lft.to/lastmile_qr_scan", "android": "https://dc.lft.to/lastmile_qr_scan"}, "lon": -77.031839, "fusion_lon": 0.0, "is_disabled": 0, "lat": 38.909810666666665, "bike_id": "0ee166ee642b8c178758c47a7bd6e2f2", "name": "0ee166ee642b8c178758c47a7bd6e2f2", "is_reserved": 0, "fusion_lat": 0.0}, {"type": "electric_scooter", "rental_uris": {"ios": "https://dc.lft.to/lastmile_qr_scan", "android": "https://dc.lft.to/lastmile_qr_scan"}, "lon": -77.02411683333334, "fusion_lon": 0.0, "is_disabled": 0, "lat": 38.898515833333335, "bike_id": "18ea2a1a137eadc4db0b72548a3f43f2", "name": "18ea2a1a137eadc4db0b72548a3f43f2", "is_reserved": 0, "fusion_lat": 0.0}, {"type": "electric_scooter", "rental_uris": {"ios": "https://dc.lft.to/lastmile_qr_scan", "android": "https://dc.lft.to/lastmile_qr_scan"}, "lon": -77.01761566666667, "fusion_lon": 0.0, "is_disabled": 0, "lat": 38.87676316666666, "bike_id": "68516304b379ddc97300425b65e99aa3", "name": "68516304b379ddc97300425b65e99aa3", "is_reserved": 0, "fusion_lat": 0.0}, {"type": "electric_scooter", "rental_uris": {"ios": "https://dc.lft.to/lastmile_qr_scan", "android": "https://dc.lft.to/lastmile_qr_scan"}, "lon": -77.02623433333333, "fusion_lon": 0.0, "is_disabled": 0, "lat": 38.89218966666667, "bike_id": "ec3da236d9420c83dea3f61269c334b9", "name": "ec3da236d9420c83dea3f61269c334b9", "is_reserved": 0, "fusion_lat": 0.0}, {"type": "electric_scooter", "rental_uris": {"ios": "https://dc.lft.to/lastmile_qr_scan", "android": "https://dc.lft.to/lastmile_qr_scan"}, "lon": -77.03965316666667, "fusion_lon": 0.0, "is_disabled": 0, "lat": 38.917041, "bike_id": "2366057ad031f7bf81ca71ac3573e4d2", "name": "2366057ad031f7bf81ca71ac3573e4d2", "is_reserved": 0, "fusion_lat": 0.0}, {"type": "electric_scooter", "rental_uris": {"ios": "https://dc.lft.to/lastmile_qr_scan", "android": "https://dc.lft.to/lastmile_qr_scan"}, "lon": -77.0401985, "fusion_lon": 0.0, "is_disabled": 0, "lat": 38.92450633333333, "bike_id": "4c15bcb69cb3e1cfa64721967174fd41", "name": "4c15bcb69cb3e1cfa64721967174fd41", "is_reserved": 0, "fusion_lat": 0.0}, {"type": "electric_scooter", "rental_uris": {"ios": "https://dc.lft.to/lastmile_qr_scan", "android": "https://dc.lft.to/lastmile_qr_scan"}, "lon": -77.0147185, "fusion_lon": 0.0, "is_disabled": 0, "lat": 38.876242166666664, "bike_id": "6e378ea1420a167fab229aa09f56d477", "name": "6e378ea1420a167fab229aa09f56d477", "is_reserved": 0, "fusion_lat": 0.0}, {"type": "electric_bike", "rental_uris": {"ios": "https://dc.lft.to/lastmile_qr_scan", "android": "https://dc.lft.to/lastmile_qr_scan"}, "lon": -76.98100283333333, "fusion_lon": 0.0, "is_disabled": 0, "lat": 38.953517, "bike_id": "38953f32cd7765961cc6701fb714d977", "name": "38953f32cd7765961cc6701fb714d977", "is_reserved": 0, "fusion_lat": 0.0}, {"type": "electric_scooter", "rental_uris": {"ios": "https://dc.lft.to/lastmile_qr_scan", "android": "https://dc.lft.to/lastmile_qr_scan"}, "lon": -77.0433045, "fusion_lon": 0.0, "is_disabled": 0, "lat": 38.9044205, "bike_id": "d07b5c6ae816ff521bc4c93b379d7eb5", "name": "d07b5c6ae816ff521bc4c93b379d7eb5", "is_reserved": 0, "fusion_lat": 0.0}, {"type": "electric_scooter", "rental_uris": {"ios": "https://dc.lft.to/lastmile_qr_scan", "android": "https://dc.lft.to/lastmile_qr_scan"}, "lon": -77.02288616666667, "fusion_lon": 0.0, "is_disabled": 0, "lat": 38.916886833333336, "bike_id": "12ad616b661a4edd95eeda88c707e323", "name": "12ad616b661a4edd95eeda88c707e323", "is_reserved": 0, "fusion_lat": 0.0}, {"type": "electric_scooter", "rental_uris": {"ios": "https://dc.lft.to/lastmile_qr_scan", "android": "https://dc.lft.to/lastmile_qr_scan"}, "lon": -77.04521583333333, "fusion_lon": 0.0, "is_disabled": 0, "lat": 38.933207333333335, "bike_id": "e4971201082eef97bdddf5f1c03df9fa", "name": "e4971201082eef97bdddf5f1c03df9fa", "is_reserved": 0, "fusion_lat": 0.0}, {"type": "electric_scooter", "rental_uris": {"ios": "https://dc.lft.to/lastmile_qr_scan", "android": "https://dc.lft.to/lastmile_qr_scan"}, "lon": -77.021887, "fusion_lon": 0.0, "is_disabled": 0, "lat": 38.910842, "bike_id": "078bae8ff00228e20c65ee22b11baf54", "name": "078bae8ff00228e20c65ee22b11baf54", "is_reserved": 0, "fusion_lat": 0.0}, {"type": "electric_scooter", "rental_uris": {"ios": "https://dc.lft.to/lastmile_qr_scan", "android": "https://dc.lft.to/lastmile_qr_scan"}, "lon": -77.040251, "fusion_lon": 0.0, "is_disabled": 0, "lat": 38.922160166666664, "bike_id": "bee67f89887a3d8017cfa52a78dcfcab", "name": "bee67f89887a3d8017cfa52a78dcfcab", "is_reserved": 0, "fusion_lat": 0.0}, {"type": "electric_scooter", "rental_uris": {"ios": "https://dc.lft.to/lastmile_qr_scan", "android": "https://dc.lft.to/lastmile_qr_scan"}, "lon": -77.0315725, "fusion_lon": 0.0, "is_disabled": 0, "lat": 38.89224033333333, "bike_id": "1b6b836a8ce2a2387e74d41b3781df34", "name": "1b6b836a8ce2a2387e74d41b3781df34", "is_reserved": 0, "fusion_lat": 0.0}, {"type": "electric_scooter", "rental_uris": {"ios": "https://dc.lft.to/lastmile_qr_scan", "android": "https://dc.lft.to/lastmile_qr_scan"}, "lon": -77.03444266666666, "fusion_lon": 0.0, "is_disabled": 0, "lat": 38.90734966666667, "bike_id": "cf467c4193f8c836afc6eb9cad3d6434", "name": "cf467c4193f8c836afc6eb9cad3d6434", "is_reserved": 0, "fusion_lat": 0.0}, {"type": "electric_scooter", "rental_uris": {"ios": "https://dc.lft.to/lastmile_qr_scan", "android": "https://dc.lft.to/lastmile_qr_scan"}, "lon": -77.04657933333333, "fusion_lon": 0.0, "is_disabled": 0, "lat": 38.8923985, "bike_id": "8405971e262f5075a0331df549acfb32", "name": "8405971e262f5075a0331df549acfb32", "is_reserved": 0, "fusion_lat": 0.0}, {"type": "electric_scooter", "rental_uris": {"ios": "https://dc.lft.to/lastmile_qr_scan", "android": "https://dc.lft.to/lastmile_qr_scan"}, "lon": -77.02590766666667, "fusion_lon": 0.0, "is_disabled": 0, "lat": 38.94199166666667, "bike_id": "8632d42f0d545597f757984485640de2", "name": "8632d42f0d545597f757984485640de2", "is_reserved": 0, "fusion_lat": 0.0}, {"type": "electric_scooter", "rental_uris": {"ios": "https://dc.lft.to/lastmile_qr_scan", "android": "https://dc.lft.to/lastmile_qr_scan"}, "lon": -77.00604916666667, "fusion_lon": 0.0, "is_disabled": 0, "lat": 38.905783, "bike_id": "4c31c30be61f2359ddf619fdda20799f", "name": "4c31c30be61f2359ddf619fdda20799f", "is_reserved": 0, "fusion_lat": 0.0}, {"type": "electric_scooter", "rental_uris": {"ios": "https://dc.lft.to/lastmile_qr_scan", "android": "https://dc.lft.to/lastmile_qr_scan"}, "lon": -77.04158666666666, "fusion_lon": 0.0, "is_disabled": 0, "lat": 38.9152175, "bike_id": "1d7186e1aa68302dcbb1ed94c614cd27", "name": "1d7186e1aa68302dcbb1ed94c614cd27", "is_reserved": 0, "fusion_lat": 0.0}, {"type": "electric_scooter", "rental_uris": {"ios": "https://dc.lft.to/lastmile_qr_scan", "android": "https://dc.lft.to/lastmile_qr_scan"}, "lon": -77.036452, "fusion_lon": 0.0, "is_disabled": 0, "lat": 38.90996483333333, "bike_id": "e03b36a769b0d2f77df8291403d4750b", "name": "e03b36a769b0d2f77df8291403d4750b", "is_reserved": 0, "fusion_lat": 0.0}, {"type": "electric_scooter", "rental_uris": {"ios": "https://dc.lft.to/lastmile_qr_scan", "android": "https://dc.lft.to/lastmile_qr_scan"}, "lon": -77.0233115, "fusion_lon": 0.0, "is_disabled": 0, "lat": 38.935999, "bike_id": "4c8370d80f95e255863c886f5315f043", "name": "4c8370d80f95e255863c886f5315f043", "is_reserved": 0, "fusion_lat": 0.0}, {"type": "electric_scooter", "rental_uris": {"ios": "https://dc.lft.to/lastmile_qr_scan", "android": "https://dc.lft.to/lastmile_qr_scan"}, "lon": -76.98540083333333, "fusion_lon": 0.0, "is_disabled": 0, "lat": 38.86677916666667, "bike_id": "ccd9645607079fea626f3a49bcf12cd6", "name": "ccd9645607079fea626f3a49bcf12cd6", "is_reserved": 0, "fusion_lat": 0.0}, {"type": "electric_scooter", "rental_uris": {"ios": "https://dc.lft.to/lastmile_qr_scan", "android": "https://dc.lft.to/lastmile_qr_scan"}, "lon": -77.003981, "fusion_lon": 0.0, "is_disabled": 0, "lat": 38.90572616666667, "bike_id": "3e6d01d8c97f938486fda2ee31de8ced", "name": "3e6d01d8c97f938486fda2ee31de8ced", "is_reserved": 0, "fusion_lat": 0.0}, {"type": "electric_scooter", "rental_uris": {"ios": "https://dc.lft.to/lastmile_qr_scan", "android": "https://dc.lft.to/lastmile_qr_scan"}, "lon": -77.02035383333333, "fusion_lon": 0.0, "is_disabled": 0, "lat": 38.8987025, "bike_id": "e1b93514170659d46e86794d073be322", "name": "e1b93514170659d46e86794d073be322", "is_reserved": 0, "fusion_lat": 0.0}, {"type": "electric_bike", "rental_uris": {"ios": "https://dc.lft.to/lastmile_qr_scan", "android": "https://dc.lft.to/lastmile_qr_scan"}, "lon": -76.98103583333334, "fusion_lon": 0.0, "is_disabled": 0, "lat": 38.87729983333333, "bike_id": "02da11e82fdd4b67b82babaa616cea07", "name": "02da11e82fdd4b67b82babaa616cea07", "is_reserved": 0, "fusion_lat": 0.0}, {"type": "electric_scooter", "rental_uris": {"ios": "https://dc.lft.to/lastmile_qr_scan", "android": "https://dc.lft.to/lastmile_qr_scan"}, "lon": -77.03866083333334, "fusion_lon": 0.0, "is_disabled": 0, "lat": 38.91259266666667, "bike_id": "e4affb2cb5ed14aa35769370dce94f99", "name": "e4affb2cb5ed14aa35769370dce94f99", "is_reserved": 0, "fusion_lat": 0.0}, {"type": "electric_scooter", "rental_uris": {"ios": "https://dc.lft.to/lastmile_qr_scan", "android": "https://dc.lft.to/lastmile_qr_scan"}, "lon": -77.02280983333333, "fusion_lon": 0.0, "is_disabled": 0, "lat": 38.90233883333333, "bike_id": "4076ac6e8d0876419aba8daa675b806c", "name": "4076ac6e8d0876419aba8daa675b806c", "is_reserved": 0, "fusion_lat": 0.0}, {"type": "electric_scooter", "rental_uris": {"ios": "https://dc.lft.to/lastmile_qr_scan", "android": "https://dc.lft.to/lastmile_qr_scan"}, "lon": -77.00207416666667, "fusion_lon": 0.0, "is_disabled": 0, "lat": 38.90428983333334, "bike_id": "d47149a5da1b75290ae70f5078945b12", "name": "d47149a5da1b75290ae70f5078945b12", "is_reserved": 0, "fusion_lat": 0.0}, {"type": "electric_bike", "rental_uris": {"ios": "https://dc.lft.to/lastmile_qr_scan", "android": "https://dc.lft.to/lastmile_qr_scan"}, "lon": -77.0351585, "fusion_lon": 0.0, "is_disabled": 0, "lat": 38.962077666666666, "bike_id": "2e3ef0772425f66c57f397746119f0a4", "name": "2e3ef0772425f66c57f397746119f0a4", "is_reserved": 0, "fusion_lat": 0.0}, {"type": "electric_scooter", "rental_uris": {"ios": "https://dc.lft.to/lastmile_qr_scan", "android": "https://dc.lft.to/lastmile_qr_scan"}, "lon": -77.03210383333334, "fusion_lon": 0.0, "is_disabled": 0, "lat": 38.91718633333333, "bike_id": "0b1a850abb026646f0fe2f222c1330cf", "name": "0b1a850abb026646f0fe2f222c1330cf", "is_reserved": 0, "fusion_lat": 0.0}, {"type": "electric_bike", "rental_uris": {"ios": "https://dc.lft.to/lastmile_qr_scan", "android": "https://dc.lft.to/lastmile_qr_scan"}, "lon": -77.04923466666666, "fusion_lon": 0.0, "is_disabled": 0, "lat": 38.81340333333333, "bike_id": "477e73c023cbf00ad5ae26337eee8501", "name": "477e73c023cbf00ad5ae26337eee8501", "is_reserved": 0, "fusion_lat": 0.0}, {"type": "electric_scooter", "rental_uris": {"ios": "https://dc.lft.to/lastmile_qr_scan", "android": "https://dc.lft.to/lastmile_qr_scan"}, "lon": -77.02393233333333, "fusion_lon": 0.0, "is_disabled": 0, "lat": 38.91742966666666, "bike_id": "8ea4ac0cf5320e2851273deb2790718b", "name": "8ea4ac0cf5320e2851273deb2790718b", "is_reserved": 0, "fusion_lat": 0.0}, {"type": "electric_bike", "rental_uris": {"ios": "https://dc.lft.to/lastmile_qr_scan", "android": "https://dc.lft.to/lastmile_qr_scan"}, "lon": -76.9835605, "fusion_lon": 0.0, "is_disabled": 0, "lat": 38.894353, "bike_id": "af642cc0b49331af20b4da3f9e8abc4d", "name": "af642cc0b49331af20b4da3f9e8abc4d", "is_reserved": 0, "fusion_lat": 0.0}, {"type": "electric_scooter", "rental_uris": {"ios": "https://dc.lft.to/lastmile_qr_scan", "android": "https://dc.lft.to/lastmile_qr_scan"}, "lon": -77.04055766666667, "fusion_lon": 0.0, "is_disabled": 0, "lat": 38.899104, "bike_id": "bb2e93d3a5e01bbd736935e84893bb0b", "name": "bb2e93d3a5e01bbd736935e84893bb0b", "is_reserved": 0, "fusion_lat": 0.0}, {"type": "electric_scooter", "rental_uris": {"ios": "https://dc.lft.to/lastmile_qr_scan", "android": "https://dc.lft.to/lastmile_qr_scan"}, "lon": -77.03959933333333, "fusion_lon": 0.0, "is_disabled": 0, "lat": 38.89912416666667, "bike_id": "682cbc8b35f6e5834b742fc53108deb3", "name": "682cbc8b35f6e5834b742fc53108deb3", "is_reserved": 0, "fusion_lat": 0.0}, {"type": "electric_scooter", "rental_uris": {"ios": "https://dc.lft.to/lastmile_qr_scan", "android": "https://dc.lft.to/lastmile_qr_scan"}, "lon": -77.0300425, "fusion_lon": 0.0, "is_disabled": 0, "lat": 38.92972783333333, "bike_id": "c6c0ea11cd4168faa84b30119e710a3f", "name": "c6c0ea11cd4168faa84b30119e710a3f", "is_reserved": 0, "fusion_lat": 0.0}, {"type": "electric_scooter", "rental_uris": {"ios": "https://dc.lft.to/lastmile_qr_scan", "android": "https://dc.lft.to/lastmile_qr_scan"}, "lon": -77.0415665, "fusion_lon": 0.0, "is_disabled": 0, "lat": 38.9176595, "bike_id": "3f925248fa4a5643b81c673596e65a25", "name": "3f925248fa4a5643b81c673596e65a25", "is_reserved": 0, "fusion_lat": 0.0}, {"type": "electric_scooter", "rental_uris": {"ios": "https://dc.lft.to/lastmile_qr_scan", "android": "https://dc.lft.to/lastmile_qr_scan"}, "lon": -76.97726, "fusion_lon": 0.0, "is_disabled": 0, "lat": 38.8951845, "bike_id": "a7d26ef786f6bf87cb276dbe2a651986", "name": "a7d26ef786f6bf87cb276dbe2a651986", "is_reserved": 0, "fusion_lat": 0.0}, {"type": "electric_scooter", "rental_uris": {"ios": "https://dc.lft.to/lastmile_qr_scan", "android": "https://dc.lft.to/lastmile_qr_scan"}, "lon": -77.02603216666667, "fusion_lon": 0.0, "is_disabled": 0, "lat": 38.914121333333334, "bike_id": "5f0810f2b6e1853744c581027deefe2f", "name": "5f0810f2b6e1853744c581027deefe2f", "is_reserved": 0, "fusion_lat": 0.0}, {"type": "electric_scooter", "rental_uris": {"ios": "https://dc.lft.to/lastmile_qr_scan", "android": "https://dc.lft.to/lastmile_qr_scan"}, "lon": -77.02607866666666, "fusion_lon": 0.0, "is_disabled": 0, "lat": 38.905226166666665, "bike_id": "7db0bda15d9f94e9c50a973b36f5159d", "name": "7db0bda15d9f94e9c50a973b36f5159d", "is_reserved": 0, "fusion_lat": 0.0}, {"type": "electric_scooter", "rental_uris": {"ios": "https://dc.lft.to/lastmile_qr_scan", "android": "https://dc.lft.to/lastmile_qr_scan"}, "lon": -77.04029566666667, "fusion_lon": 0.0, "is_disabled": 0, "lat": 38.918062166666665, "bike_id": "a0a2418fbcf2a5c49deeec945bfe872f", "name": "a0a2418fbcf2a5c49deeec945bfe872f", "is_reserved": 0, "fusion_lat": 0.0}, {"type": "electric_scooter", "rental_uris": {"ios": "https://dc.lft.to/lastmile_qr_scan", "android": "https://dc.lft.to/lastmile_qr_scan"}, "lon": -77.026743, "fusion_lon": 0.0, "is_disabled": 0, "lat": 38.899320833333334, "bike_id": "8e662ea9c59154bde4ff36236193e680", "name": "8e662ea9c59154bde4ff36236193e680", "is_reserved": 0, "fusion_lat": 0.0}, {"type": "electric_scooter", "rental_uris": {"ios": "https://dc.lft.to/lastmile_qr_scan", "android": "https://dc.lft.to/lastmile_qr_scan"}, "lon": -77.0129355, "fusion_lon": 0.0, "is_disabled": 0, "lat": 38.88152866666667, "bike_id": "6feae3cbdbafc4cff73ee3a513fe45bf", "name": "6feae3cbdbafc4cff73ee3a513fe45bf", "is_reserved": 0, "fusion_lat": 0.0}, {"type": "electric_scooter", "rental_uris": {"ios": "https://dc.lft.to/lastmile_qr_scan", "android": "https://dc.lft.to/lastmile_qr_scan"}, "lon": -77.04360666666666, "fusion_lon": 0.0, "is_disabled": 0, "lat": 38.892191, "bike_id": "2deb56f16ae6068f8135b1a3d94d71c2", "name": "2deb56f16ae6068f8135b1a3d94d71c2", "is_reserved": 0, "fusion_lat": 0.0}, {"type": "electric_scooter", "rental_uris": {"ios": "https://dc.lft.to/lastmile_qr_scan", "android": "https://dc.lft.to/lastmile_qr_scan"}, "lon": -77.0268755, "fusion_lon": 0.0, "is_disabled": 0, "lat": 38.9169055, "bike_id": "fd699774f74b7234adabf9c675241aaa", "name": "fd699774f74b7234adabf9c675241aaa", "is_reserved": 0, "fusion_lat": 0.0}, {"type": "electric_scooter", "rental_uris": {"ios": "https://dc.lft.to/lastmile_qr_scan", "android": "https://dc.lft.to/lastmile_qr_scan"}, "lon": -77.02787733333334, "fusion_lon": 0.0, "is_disabled": 0, "lat": 38.96128783333333, "bike_id": "4df03b1db06bb725d4415fe4acb0ec2a", "name": "4df03b1db06bb725d4415fe4acb0ec2a", "is_reserved": 0, "fusion_lat": 0.0}, {"type": "electric_scooter", "rental_uris": {"ios": "https://dc.lft.to/lastmile_qr_scan", "android": "https://dc.lft.to/lastmile_qr_scan"}, "lon": -77.0308035, "fusion_lon": 0.0, "is_disabled": 0, "lat": 38.911133, "bike_id": "920459c1ed6bef716fb7026d992b603f", "name": "920459c1ed6bef716fb7026d992b603f", "is_reserved": 0, "fusion_lat": 0.0}, {"type": "electric_scooter", "rental_uris": {"ios": "https://dc.lft.to/lastmile_qr_scan", "android": "https://dc.lft.to/lastmile_qr_scan"}, "lon": -77.02338933333333, "fusion_lon": 0.0, "is_disabled": 0, "lat": 38.917759833333335, "bike_id": "eecf4d000b03ae5431923a96943ab816", "name": "eecf4d000b03ae5431923a96943ab816", "is_reserved": 0, "fusion_lat": 0.0}, {"type": "electric_scooter", "rental_uris": {"ios": "https://dc.lft.to/lastmile_qr_scan", "android": "https://dc.lft.to/lastmile_qr_scan"}, "lon": -77.0425125, "fusion_lon": 0.0, "is_disabled": 0, "lat": 38.9078205, "bike_id": "7603640495bd2350b245419ae0b1d96b", "name": "7603640495bd2350b245419ae0b1d96b", "is_reserved": 0, "fusion_lat": 0.0}, {"type": "electric_scooter", "rental_uris": {"ios": "https://dc.lft.to/lastmile_qr_scan", "android": "https://dc.lft.to/lastmile_qr_scan"}, "lon": -77.04468733333333, "fusion_lon": 0.0, "is_disabled": 0, "lat": 38.915308333333336, "bike_id": "62a3e03074b127c51ec499afe16a303c", "name": "62a3e03074b127c51ec499afe16a303c", "is_reserved": 0, "fusion_lat": 0.0}, {"type": "electric_bike", "rental_uris": {"ios": "https://dc.lft.to/lastmile_qr_scan", "android": "https://dc.lft.to/lastmile_qr_scan"}, "lon": -77.18741616666667, "fusion_lon": 0.0, "is_disabled": 0, "lat": 38.893542833333335, "bike_id": "219541e4baaa5ae4e28cf53f6579a190", "name": "219541e4baaa5ae4e28cf53f6579a190", "is_reserved": 0, "fusion_lat": 0.0}, {"type": "electric_scooter", "rental_uris": {"ios": "https://dc.lft.to/lastmile_qr_scan", "android": "https://dc.lft.to/lastmile_qr_scan"}, "lon": -77.04006516666666, "fusion_lon": 0.0, "is_disabled": 0, "lat": 38.922073166666664, "bike_id": "cd6bb7f356480b155ea48afb2ad805e8", "name": "cd6bb7f356480b155ea48afb2ad805e8", "is_reserved": 0, "fusion_lat": 0.0}, {"type": "electric_scooter", "rental_uris": {"ios": "https://dc.lft.to/lastmile_qr_scan", "android": "https://dc.lft.to/lastmile_qr_scan"}, "lon": -77.044802, "fusion_lon": 0.0, "is_disabled": 0, "lat": 38.912103333333334, "bike_id": "f08f5ee11e9dffc30687e10fe67172ed", "name": "f08f5ee11e9dffc30687e10fe67172ed", "is_reserved": 0, "fusion_lat": 0.0}, {"type": "electric_scooter", "rental_uris": {"ios": "https://dc.lft.to/lastmile_qr_scan", "android": "https://dc.lft.to/lastmile_qr_scan"}, "lon": -77.03286933333334, "fusion_lon": 0.0, "is_disabled": 0, "lat": 38.8993725, "bike_id": "76552298f62179f096a5f97db73a12cd", "name": "76552298f62179f096a5f97db73a12cd", "is_reserved": 0, "fusion_lat": 0.0}, {"type": "electric_bike", "rental_uris": {"ios": "https://dc.lft.to/lastmile_qr_scan", "android": "https://dc.lft.to/lastmile_qr_scan"}, "lon": -77.04412816666667, "fusion_lon": 0.0, "is_disabled": 0, "lat": 39.0156635, "bike_id": "a79eb8b9b994b2152a9e4e6bf1caede9", "name": "a79eb8b9b994b2152a9e4e6bf1caede9", "is_reserved": 0, "fusion_lat": 0.0}, {"type": "electric_scooter", "rental_uris": {"ios": "https://dc.lft.to/lastmile_qr_scan", "android": "https://dc.lft.to/lastmile_qr_scan"}, "lon": -77.03659616666667, "fusion_lon": 0.0, "is_disabled": 0, "lat": 38.917238, "bike_id": "27b3933d3193a86fd89720c02d16a43d", "name": "27b3933d3193a86fd89720c02d16a43d", "is_reserved": 0, "fusion_lat": 0.0}, {"type": "electric_scooter", "rental_uris": {"ios": "https://dc.lft.to/lastmile_qr_scan", "android": "https://dc.lft.to/lastmile_qr_scan"}, "lon": -76.94633166666667, "fusion_lon": 0.0, "is_disabled": 0, "lat": 38.898428833333334, "bike_id": "4528069ca5056b723f7b66a9fb9b5b33", "name": "4528069ca5056b723f7b66a9fb9b5b33", "is_reserved": 0, "fusion_lat": 0.0}, {"type": "electric_bike", "rental_uris": {"ios": "https://dc.lft.to/lastmile_qr_scan", "android": "https://dc.lft.to/lastmile_qr_scan"}, "lon": -77.038269, "fusion_lon": 0.0, "is_disabled": 0, "lat": 38.914133166666666, "bike_id": "b06014d9381f631a139a575c88a5565b", "name": "b06014d9381f631a139a575c88a5565b", "is_reserved": 0, "fusion_lat": 0.0}, {"type": "electric_scooter", "rental_uris": {"ios": "https://dc.lft.to/lastmile_qr_scan", "android": "https://dc.lft.to/lastmile_qr_scan"}, "lon": -77.023974, "fusion_lon": 0.0, "is_disabled": 0, "lat": 38.8973915, "bike_id": "21a9bc5694f5764d7920fd15de23404f", "name": "21a9bc5694f5764d7920fd15de23404f", "is_reserved": 0, "fusion_lat": 0.0}, {"type": "electric_scooter", "rental_uris": {"ios": "https://dc.lft.to/lastmile_qr_scan", "android": "https://dc.lft.to/lastmile_qr_scan"}, "lon": -77.034488, "fusion_lon": 0.0, "is_disabled": 0, "lat": 38.9374655, "bike_id": "5bcd89ee6c2d206fa8b1ceedd2992a4f", "name": "5bcd89ee6c2d206fa8b1ceedd2992a4f", "is_reserved": 0, "fusion_lat": 0.0}, {"type": "electric_scooter", "rental_uris": {"ios": "https://dc.lft.to/lastmile_qr_scan", "android": "https://dc.lft.to/lastmile_qr_scan"}, "lon": -77.04331183333333, "fusion_lon": 0.0, "is_disabled": 0, "lat": 38.89223633333334, "bike_id": "9b73a1799026a9cd85c27ca5dab1de07", "name": "9b73a1799026a9cd85c27ca5dab1de07", "is_reserved": 0, "fusion_lat": 0.0}, {"type": "electric_scooter", "rental_uris": {"ios": "https://dc.lft.to/lastmile_qr_scan", "android": "https://dc.lft.to/lastmile_qr_scan"}, "lon": -77.06237916666667, "fusion_lon": 0.0, "is_disabled": 0, "lat": 38.944158333333334, "bike_id": "8167266c8d02c5b2dd4ab8c09a16a35f", "name": "8167266c8d02c5b2dd4ab8c09a16a35f", "is_reserved": 0, "fusion_lat": 0.0}, {"type": "electric_scooter", "rental_uris": {"ios": "https://dc.lft.to/lastmile_qr_scan", "android": "https://dc.lft.to/lastmile_qr_scan"}, "lon": -77.03397083333333, "fusion_lon": 0.0, "is_disabled": 0, "lat": 38.920532666666666, "bike_id": "80df0d0bc3a91401fe14722de47e7b63", "name": "80df0d0bc3a91401fe14722de47e7b63", "is_reserved": 0, "fusion_lat": 0.0}, {"type": "electric_scooter", "rental_uris": {"ios": "https://dc.lft.to/lastmile_qr_scan", "android": "https://dc.lft.to/lastmile_qr_scan"}, "lon": -77.012095, "fusion_lon": 0.0, "is_disabled": 0, "lat": 38.91980566666667, "bike_id": "d20767b5a3d5196cec1cd1d52ce1b60e", "name": "d20767b5a3d5196cec1cd1d52ce1b60e", "is_reserved": 0, "fusion_lat": 0.0}, {"type": "electric_scooter", "rental_uris": {"ios": "https://dc.lft.to/lastmile_qr_scan", "android": "https://dc.lft.to/lastmile_qr_scan"}, "lon": -77.02395133333333, "fusion_lon": 0.0, "is_disabled": 0, "lat": 38.9167165, "bike_id": "1057dfeb544ceeda070d0030b4aefec5", "name": "1057dfeb544ceeda070d0030b4aefec5", "is_reserved": 0, "fusion_lat": 0.0}, {"type": "electric_scooter", "rental_uris": {"ios": "https://dc.lft.to/lastmile_qr_scan", "android": "https://dc.lft.to/lastmile_qr_scan"}, "lon": -77.02693633333334, "fusion_lon": 0.0, "is_disabled": 0, "lat": 38.9067875, "bike_id": "db1a4521ec5973811d7779a6b4e8a35c", "name": "db1a4521ec5973811d7779a6b4e8a35c", "is_reserved": 0, "fusion_lat": 0.0}, {"type": "electric_scooter", "rental_uris": {"ios": "https://dc.lft.to/lastmile_qr_scan", "android": "https://dc.lft.to/lastmile_qr_scan"}, "lon": -77.0348335, "fusion_lon": 0.0, "is_disabled": 0, "lat": 38.931059, "bike_id": "cfda1f396b562a4c3348bb9c000cc3be", "name": "cfda1f396b562a4c3348bb9c000cc3be", "is_reserved": 0, "fusion_lat": 0.0}, {"type": "electric_scooter", "rental_uris": {"ios": "https://dc.lft.to/lastmile_qr_scan", "android": "https://dc.lft.to/lastmile_qr_scan"}, "lon": -77.07650416666667, "fusion_lon": 0.0, "is_disabled": 0, "lat": 38.9391795, "bike_id": "0e06ab090694013127cdf980a5b8797b", "name": "0e06ab090694013127cdf980a5b8797b", "is_reserved": 0, "fusion_lat": 0.0}, {"type": "electric_scooter", "rental_uris": {"ios": "https://dc.lft.to/lastmile_qr_scan", "android": "https://dc.lft.to/lastmile_qr_scan"}, "lon": -77.031441, "fusion_lon": 0.0, "is_disabled": 0, "lat": 38.887542333333336, "bike_id": "64f1584129ecb6d48a73d687152fa359", "name": "64f1584129ecb6d48a73d687152fa359", "is_reserved": 0, "fusion_lat": 0.0}, {"type": "electric_scooter", "rental_uris": {"ios": "https://dc.lft.to/lastmile_qr_scan", "android": "https://dc.lft.to/lastmile_qr_scan"}, "lon": -77.00102033333333, "fusion_lon": 0.0, "is_disabled": 0, "lat": 38.912415333333335, "bike_id": "a53e0037b0183c16463adb25360f8720", "name": "a53e0037b0183c16463adb25360f8720", "is_reserved": 0, "fusion_lat": 0.0}, {"type": "electric_scooter", "rental_uris": {"ios": "https://dc.lft.to/lastmile_qr_scan", "android": "https://dc.lft.to/lastmile_qr_scan"}, "lon": -77.03345316666666, "fusion_lon": 0.0, "is_disabled": 0, "lat": 38.9170685, "bike_id": "3a3c9557e0bfb543802175e45110be2e", "name": "3a3c9557e0bfb543802175e45110be2e", "is_reserved": 0, "fusion_lat": 0.0}, {"type": "electric_scooter", "rental_uris": {"ios": "https://dc.lft.to/lastmile_qr_scan", "android": "https://dc.lft.to/lastmile_qr_scan"}, "lon": -77.02154566666667, "fusion_lon": 0.0, "is_disabled": 0, "lat": 38.930682166666664, "bike_id": "1fca62ecbd905ee1973dd20eb9c2ec3c", "name": "1fca62ecbd905ee1973dd20eb9c2ec3c", "is_reserved": 0, "fusion_lat": 0.0}, {"type": "electric_scooter", "rental_uris": {"ios": "https://dc.lft.to/lastmile_qr_scan", "android": "https://dc.lft.to/lastmile_qr_scan"}, "lon": -77.00913233333333, "fusion_lon": 0.0, "is_disabled": 0, "lat": 38.895485, "bike_id": "f6b4a204ac59c7f6956b717f0fca9432", "name": "f6b4a204ac59c7f6956b717f0fca9432", "is_reserved": 0, "fusion_lat": 0.0}, {"type": "electric_scooter", "rental_uris": {"ios": "https://dc.lft.to/lastmile_qr_scan", "android": "https://dc.lft.to/lastmile_qr_scan"}, "lon": -77.07520433333333, "fusion_lon": 0.0, "is_disabled": 0, "lat": 38.93945083333333, "bike_id": "5ae676af00dbe3ed7866821593146e30", "name": "5ae676af00dbe3ed7866821593146e30", "is_reserved": 0, "fusion_lat": 0.0}, {"type": "electric_scooter", "rental_uris": {"ios": "https://dc.lft.to/lastmile_qr_scan", "android": "https://dc.lft.to/lastmile_qr_scan"}, "lon": -77.02681766666667, "fusion_lon": 0.0, "is_disabled": 0, "lat": 38.925871666666666, "bike_id": "f3beaf295d1d5b2a1cc589a0a3c27bf5", "name": "f3beaf295d1d5b2a1cc589a0a3c27bf5", "is_reserved": 0, "fusion_lat": 0.0}, {"type": "electric_scooter", "rental_uris": {"ios": "https://dc.lft.to/lastmile_qr_scan", "android": "https://dc.lft.to/lastmile_qr_scan"}, "lon": -77.04449483333333, "fusion_lon": 0.0, "is_disabled": 0, "lat": 38.9241725, "bike_id": "3a3950371ce837511b3864775dacca4d", "name": "3a3950371ce837511b3864775dacca4d", "is_reserved": 0, "fusion_lat": 0.0}, {"type": "electric_scooter", "rental_uris": {"ios": "https://dc.lft.to/lastmile_qr_scan", "android": "https://dc.lft.to/lastmile_qr_scan"}, "lon": -76.99209316666666, "fusion_lon": 0.0, "is_disabled": 0, "lat": 38.90366316666667, "bike_id": "90350b4aa975cb0df077e12a6281dcb2", "name": "90350b4aa975cb0df077e12a6281dcb2", "is_reserved": 0, "fusion_lat": 0.0}, {"type": "electric_scooter", "rental_uris": {"ios": "https://dc.lft.to/lastmile_qr_scan", "android": "https://dc.lft.to/lastmile_qr_scan"}, "lon": -77.0222345, "fusion_lon": 0.0, "is_disabled": 0, "lat": 38.89221916666666, "bike_id": "1e799425388408c60bfab2a95daa9188", "name": "1e799425388408c60bfab2a95daa9188", "is_reserved": 0, "fusion_lat": 0.0}, {"type": "electric_scooter", "rental_uris": {"ios": "https://dc.lft.to/lastmile_qr_scan", "android": "https://dc.lft.to/lastmile_qr_scan"}, "lon": -77.0417975, "fusion_lon": 0.0, "is_disabled": 0, "lat": 38.918146166666666, "bike_id": "9141ae61ed0d7f961284c0f1b3b9f730", "name": "9141ae61ed0d7f961284c0f1b3b9f730", "is_reserved": 0, "fusion_lat": 0.0}, {"type": "electric_scooter", "rental_uris": {"ios": "https://dc.lft.to/lastmile_qr_scan", "android": "https://dc.lft.to/lastmile_qr_scan"}, "lon": -77.02714, "fusion_lon": 0.0, "is_disabled": 0, "lat": 38.9068455, "bike_id": "cde886613f1b7563cad08d75c45a0cd1", "name": "cde886613f1b7563cad08d75c45a0cd1", "is_reserved": 0, "fusion_lat": 0.0}, {"type": "electric_bike", "rental_uris": {"ios": "https://dc.lft.to/lastmile_qr_scan", "android": "https://dc.lft.to/lastmile_qr_scan"}, "lon": -76.997771, "fusion_lon": 0.0, "is_disabled": 0, "lat": 38.83743233333333, "bike_id": "dbf1ab8b063ed7d783c9180d8529d274", "name": "dbf1ab8b063ed7d783c9180d8529d274", "is_reserved": 0, "fusion_lat": 0.0}, {"type": "electric_scooter", "rental_uris": {"ios": "https://dc.lft.to/lastmile_qr_scan", "android": "https://dc.lft.to/lastmile_qr_scan"}, "lon": -76.981728, "fusion_lon": 0.0, "is_disabled": 0, "lat": 38.856757, "bike_id": "fbb774d87d67a7ecbb7ef2c2b8959379", "name": "fbb774d87d67a7ecbb7ef2c2b8959379", "is_reserved": 0, "fusion_lat": 0.0}, {"type": "electric_scooter", "rental_uris": {"ios": "https://dc.lft.to/lastmile_qr_scan", "android": "https://dc.lft.to/lastmile_qr_scan"}, "lon": -77.019638, "fusion_lon": 0.0, "is_disabled": 0, "lat": 38.929997666666665, "bike_id": "27e0a8796457c37140077067f3bfeb5f", "name": "27e0a8796457c37140077067f3bfeb5f", "is_reserved": 0, "fusion_lat": 0.0}, {"type": "electric_bike", "rental_uris": {"ios": "https://dc.lft.to/lastmile_qr_scan", "android": "https://dc.lft.to/lastmile_qr_scan"}, "lon": -76.99129983333333, "fusion_lon": 0.0, "is_disabled": 0, "lat": 38.846428833333334, "bike_id": "ecfb48b1de91d01e9887592fa5c191d5", "name": "ecfb48b1de91d01e9887592fa5c191d5", "is_reserved": 0, "fusion_lat": 0.0}, {"type": "electric_scooter", "rental_uris": {"ios": "https://dc.lft.to/lastmile_qr_scan", "android": "https://dc.lft.to/lastmile_qr_scan"}, "lon": -77.0431445, "fusion_lon": 0.0, "is_disabled": 0, "lat": 38.901317166666665, "bike_id": "6a8d41d2e14253574983b78937b97a93", "name": "6a8d41d2e14253574983b78937b97a93", "is_reserved": 0, "fusion_lat": 0.0}, {"type": "electric_bike", "rental_uris": {"ios": "https://dc.lft.to/lastmile_qr_scan", "android": "https://dc.lft.to/lastmile_qr_scan"}, "lon": -77.0564365, "fusion_lon": 0.0, "is_disabled": 0, "lat": 38.936902833333335, "bike_id": "3ad0f201f9aedd7550eb1b7aa5c22f13", "name": "3ad0f201f9aedd7550eb1b7aa5c22f13", "is_reserved": 0, "fusion_lat": 0.0}, {"type": "electric_scooter", "rental_uris": {"ios": "https://dc.lft.to/lastmile_qr_scan", "android": "https://dc.lft.to/lastmile_qr_scan"}, "lon": -77.072713, "fusion_lon": 0.0, "is_disabled": 0, "lat": 38.93486383333333, "bike_id": "b2164ae062ac9d15b6c79cc6612d8af2", "name": "b2164ae062ac9d15b6c79cc6612d8af2", "is_reserved": 0, "fusion_lat": 0.0}, {"type": "electric_scooter", "rental_uris": {"ios": "https://dc.lft.to/lastmile_qr_scan", "android": "https://dc.lft.to/lastmile_qr_scan"}, "lon": -77.02473733333333, "fusion_lon": 0.0, "is_disabled": 0, "lat": 38.930923166666666, "bike_id": "30d96f3245f23a7ea690984a6c87d9af", "name": "30d96f3245f23a7ea690984a6c87d9af", "is_reserved": 0, "fusion_lat": 0.0}, {"type": "electric_scooter", "rental_uris": {"ios": "https://dc.lft.to/lastmile_qr_scan", "android": "https://dc.lft.to/lastmile_qr_scan"}, "lon": -77.0375845, "fusion_lon": 0.0, "is_disabled": 0, "lat": 38.9293345, "bike_id": "115311d707f7895bd1e271478e8d3c76", "name": "115311d707f7895bd1e271478e8d3c76", "is_reserved": 0, "fusion_lat": 0.0}, {"type": "electric_bike", "rental_uris": {"ios": "https://dc.lft.to/lastmile_qr_scan", "android": "https://dc.lft.to/lastmile_qr_scan"}, "lon": -77.02627533333333, "fusion_lon": 0.0, "is_disabled": 0, "lat": 38.962136666666666, "bike_id": "a70235285fbeec24c51915f493b8b5dd", "name": "a70235285fbeec24c51915f493b8b5dd", "is_reserved": 0, "fusion_lat": 0.0}, {"type": "electric_scooter", "rental_uris": {"ios": "https://dc.lft.to/lastmile_qr_scan", "android": "https://dc.lft.to/lastmile_qr_scan"}, "lon": -77.04903633333333, "fusion_lon": 0.0, "is_disabled": 0, "lat": 38.888407666666666, "bike_id": "3bc5bf82b07506bcf461fd54a555432e", "name": "3bc5bf82b07506bcf461fd54a555432e", "is_reserved": 0, "fusion_lat": 0.0}, {"type": "electric_scooter", "rental_uris": {"ios": "https://dc.lft.to/lastmile_qr_scan", "android": "https://dc.lft.to/lastmile_qr_scan"}, "lon": -76.931757, "fusion_lon": 0.0, "is_disabled": 0, "lat": 38.89887183333333, "bike_id": "8d4b696114b6ca0dc0a5319efa5a05b7", "name": "8d4b696114b6ca0dc0a5319efa5a05b7", "is_reserved": 0, "fusion_lat": 0.0}, {"type": "electric_bike", "rental_uris": {"ios": "https://dc.lft.to/lastmile_qr_scan", "android": "https://dc.lft.to/lastmile_qr_scan"}, "lon": -77.0736605, "fusion_lon": 0.0, "is_disabled": 0, "lat": 38.961945, "bike_id": "aa904d131f8d84b4dba7a03ed61cea16", "name": "aa904d131f8d84b4dba7a03ed61cea16", "is_reserved": 0, "fusion_lat": 0.0}, {"type": "electric_scooter", "rental_uris": {"ios": "https://dc.lft.to/lastmile_qr_scan", "android": "https://dc.lft.to/lastmile_qr_scan"}, "lon": -77.0319045, "fusion_lon": 0.0, "is_disabled": 0, "lat": 38.920974333333334, "bike_id": "e1866c9afeb1315609c4eb963983d193", "name": "e1866c9afeb1315609c4eb963983d193", "is_reserved": 0, "fusion_lat": 0.0}, {"type": "electric_bike", "rental_uris": {"ios": "https://dc.lft.to/lastmile_qr_scan", "android": "https://dc.lft.to/lastmile_qr_scan"}, "lon": -77.36100833333333, "fusion_lon": 0.0, "is_disabled": 0, "lat": 38.939530500000004, "bike_id": "c180d610545ccadf0ee28ccd136685ff", "name": "c180d610545ccadf0ee28ccd136685ff", "is_reserved": 0, "fusion_lat": 0.0}, {"type": "electric_bike", "rental_uris": {"ios": "https://dc.lft.to/lastmile_qr_scan", "android": "https://dc.lft.to/lastmile_qr_scan"}, "lon": -76.88367216666667, "fusion_lon": 0.0, "is_disabled": 0, "lat": 38.9981545, "bike_id": "523010e33c1b0de84eec3a169cf61ba2", "name": "523010e33c1b0de84eec3a169cf61ba2", "is_reserved": 0, "fusion_lat": 0.0}, {"type": "electric_scooter", "rental_uris": {"ios": "https://dc.lft.to/lastmile_qr_scan", "android": "https://dc.lft.to/lastmile_qr_scan"}, "lon": -77.05717833333334, "fusion_lon": 0.0, "is_disabled": 0, "lat": 38.933688833333335, "bike_id": "ce986ef5d7859c66c3bc1cbcac0c7173", "name": "ce986ef5d7859c66c3bc1cbcac0c7173", "is_reserved": 0, "fusion_lat": 0.0}, {"type": "electric_scooter", "rental_uris": {"ios": "https://dc.lft.to/lastmile_qr_scan", "android": "https://dc.lft.to/lastmile_qr_scan"}, "lon": -77.03699216666666, "fusion_lon": 0.0, "is_disabled": 0, "lat": 38.926437, "bike_id": "f76e199ea8019f84d563f2a64808da84", "name": "f76e199ea8019f84d563f2a64808da84", "is_reserved": 0, "fusion_lat": 0.0}, {"type": "electric_scooter", "rental_uris": {"ios": "https://dc.lft.to/lastmile_qr_scan", "android": "https://dc.lft.to/lastmile_qr_scan"}, "lon": -77.03769266666667, "fusion_lon": 0.0, "is_disabled": 0, "lat": 38.929731, "bike_id": "a394c8de3640915fc313a82756294b7f", "name": "a394c8de3640915fc313a82756294b7f", "is_reserved": 0, "fusion_lat": 0.0}, {"type": "electric_scooter", "rental_uris": {"ios": "https://dc.lft.to/lastmile_qr_scan", "android": "https://dc.lft.to/lastmile_qr_scan"}, "lon": -77.029738, "fusion_lon": 0.0, "is_disabled": 0, "lat": 38.907727333333334, "bike_id": "758bb16b4bff7ceb1f4d9d4f6e1d71f6", "name": "758bb16b4bff7ceb1f4d9d4f6e1d71f6", "is_reserved": 0, "fusion_lat": 0.0}, {"type": "electric_bike", "rental_uris": {"ios": "https://dc.lft.to/lastmile_qr_scan", "android": "https://dc.lft.to/lastmile_qr_scan"}, "lon": -76.94577983333333, "fusion_lon": 0.0, "is_disabled": 0, "lat": 38.95332116666667, "bike_id": "6013fcdb920b0d72aa364c74d4e4a7db", "name": "6013fcdb920b0d72aa364c74d4e4a7db", "is_reserved": 0, "fusion_lat": 0.0}, {"type": "electric_scooter", "rental_uris": {"ios": "https://dc.lft.to/lastmile_qr_scan", "android": "https://dc.lft.to/lastmile_qr_scan"}, "lon": -77.04918783333333, "fusion_lon": 0.0, "is_disabled": 0, "lat": 38.90085766666667, "bike_id": "70edd3a3b3f5fccc231872e33ace7c13", "name": "70edd3a3b3f5fccc231872e33ace7c13", "is_reserved": 0, "fusion_lat": 0.0}, {"type": "electric_bike", "rental_uris": {"ios": "https://dc.lft.to/lastmile_qr_scan", "android": "https://dc.lft.to/lastmile_qr_scan"}, "lon": -76.989971, "fusion_lon": 0.0, "is_disabled": 0, "lat": 38.954862166666665, "bike_id": "e45d9abc884935166b29d1aba4dea9bd", "name": "e45d9abc884935166b29d1aba4dea9bd", "is_reserved": 0, "fusion_lat": 0.0}, {"type": "electric_scooter", "rental_uris": {"ios": "https://dc.lft.to/lastmile_qr_scan", "android": "https://dc.lft.to/lastmile_qr_scan"}, "lon": -76.95138466666667, "fusion_lon": 0.0, "is_disabled": 0, "lat": 38.89034766666666, "bike_id": "7bd13e51c4cdcb2c328cdb691dc815b3", "name": "7bd13e51c4cdcb2c328cdb691dc815b3", "is_reserved": 0, "fusion_lat": 0.0}, {"type": "electric_scooter", "rental_uris": {"ios": "https://dc.lft.to/lastmile_qr_scan", "android": "https://dc.lft.to/lastmile_qr_scan"}, "lon": -77.031745, "fusion_lon": 0.0, "is_disabled": 0, "lat": 38.92102466666667, "bike_id": "0b859360e33c6c6e18df2440c93b3379", "name": "0b859360e33c6c6e18df2440c93b3379", "is_reserved": 0, "fusion_lat": 0.0}, {"type": "electric_scooter", "rental_uris": {"ios": "https://dc.lft.to/lastmile_qr_scan", "android": "https://dc.lft.to/lastmile_qr_scan"}, "lon": -77.03285533333333, "fusion_lon": 0.0, "is_disabled": 0, "lat": 38.927441, "bike_id": "9d0f4acdfa9da8c690bd764cd0921b29", "name": "9d0f4acdfa9da8c690bd764cd0921b29", "is_reserved": 0, "fusion_lat": 0.0}, {"type": "electric_scooter", "rental_uris": {"ios": "https://dc.lft.to/lastmile_qr_scan", "android": "https://dc.lft.to/lastmile_qr_scan"}, "lon": -76.93043633333333, "fusion_lon": 0.0, "is_disabled": 0, "lat": 38.8956855, "bike_id": "b38e06754582561bbb9ee6443d35122d", "name": "b38e06754582561bbb9ee6443d35122d", "is_reserved": 0, "fusion_lat": 0.0}, {"type": "electric_scooter", "rental_uris": {"ios": "https://dc.lft.to/lastmile_qr_scan", "android": "https://dc.lft.to/lastmile_qr_scan"}, "lon": -77.05027866666667, "fusion_lon": 0.0, "is_disabled": 0, "lat": 38.923647333333335, "bike_id": "4236d13de862c176bf270e7839fc8116", "name": "4236d13de862c176bf270e7839fc8116", "is_reserved": 0, "fusion_lat": 0.0}, {"type": "electric_scooter", "rental_uris": {"ios": "https://dc.lft.to/lastmile_qr_scan", "android": "https://dc.lft.to/lastmile_qr_scan"}, "lon": -77.025378, "fusion_lon": 0.0, "is_disabled": 0, "lat": 38.92372133333333, "bike_id": "f87a623571d6011ca0907ba33f0b2a11", "name": "f87a623571d6011ca0907ba33f0b2a11", "is_reserved": 0, "fusion_lat": 0.0}, {"type": "electric_scooter", "rental_uris": {"ios": "https://dc.lft.to/lastmile_qr_scan", "android": "https://dc.lft.to/lastmile_qr_scan"}, "lon": -77.023344, "fusion_lon": 0.0, "is_disabled": 0, "lat": 38.92299666666667, "bike_id": "b12a26e5e52ab0e8e10b4a8f0c7b80a6", "name": "b12a26e5e52ab0e8e10b4a8f0c7b80a6", "is_reserved": 0, "fusion_lat": 0.0}, {"type": "electric_scooter", "rental_uris": {"ios": "https://dc.lft.to/lastmile_qr_scan", "android": "https://dc.lft.to/lastmile_qr_scan"}, "lon": -77.02196283333333, "fusion_lon": 0.0, "is_disabled": 0, "lat": 38.93295533333333, "bike_id": "35924672d4bcb4995c9ed1609686143e", "name": "35924672d4bcb4995c9ed1609686143e", "is_reserved": 0, "fusion_lat": 0.0}, {"type": "electric_scooter", "rental_uris": {"ios": "https://dc.lft.to/lastmile_qr_scan", "android": "https://dc.lft.to/lastmile_qr_scan"}, "lon": -77.037623, "fusion_lon": 0.0, "is_disabled": 0, "lat": 38.91687, "bike_id": "35a183105f927be8fc7f320489e9dcc4", "name": "35a183105f927be8fc7f320489e9dcc4", "is_reserved": 0, "fusion_lat": 0.0}, {"type": "electric_scooter", "rental_uris": {"ios": "https://dc.lft.to/lastmile_qr_scan", "android": "https://dc.lft.to/lastmile_qr_scan"}, "lon": -77.0376415, "fusion_lon": 0.0, "is_disabled": 0, "lat": 38.911201166666665, "bike_id": "1469c2cca5ae3d4597b90f126c68e96b", "name": "1469c2cca5ae3d4597b90f126c68e96b", "is_reserved": 0, "fusion_lat": 0.0}, {"type": "electric_scooter", "rental_uris": {"ios": "https://dc.lft.to/lastmile_qr_scan", "android": "https://dc.lft.to/lastmile_qr_scan"}, "lon": -77.021732, "fusion_lon": 0.0, "is_disabled": 0, "lat": 38.91478466666667, "bike_id": "d44050780e78ad5310f9266ff74e4c2b", "name": "d44050780e78ad5310f9266ff74e4c2b", "is_reserved": 0, "fusion_lat": 0.0}, {"type": "electric_scooter", "rental_uris": {"ios": "https://dc.lft.to/lastmile_qr_scan", "android": "https://dc.lft.to/lastmile_qr_scan"}, "lon": -76.989852, "fusion_lon": 0.0, "is_disabled": 0, "lat": 38.86497116666666, "bike_id": "339c44819b01d980f6a77e49f0006f59", "name": "339c44819b01d980f6a77e49f0006f59", "is_reserved": 0, "fusion_lat": 0.0}, {"type": "electric_scooter", "rental_uris": {"ios": "https://dc.lft.to/lastmile_qr_scan", "android": "https://dc.lft.to/lastmile_qr_scan"}, "lon": -77.0153985, "fusion_lon": 0.0, "is_disabled": 0, "lat": 38.89165533333333, "bike_id": "36dd9f2705ca9231a84fb8a413828ef2", "name": "36dd9f2705ca9231a84fb8a413828ef2", "is_reserved": 0, "fusion_lat": 0.0}, {"type": "electric_scooter", "rental_uris": {"ios": "https://dc.lft.to/lastmile_qr_scan", "android": "https://dc.lft.to/lastmile_qr_scan"}, "lon": -77.013631, "fusion_lon": 0.0, "is_disabled": 0, "lat": 38.89238833333334, "bike_id": "548cbcbbf01f466558542cb3064f2db2", "name": "548cbcbbf01f466558542cb3064f2db2", "is_reserved": 0, "fusion_lat": 0.0}, {"type": "electric_scooter", "rental_uris": {"ios": "https://dc.lft.to/lastmile_qr_scan", "android": "https://dc.lft.to/lastmile_qr_scan"}, "lon": -77.03703716666666, "fusion_lon": 0.0, "is_disabled": 0, "lat": 38.928310833333335, "bike_id": "fcba6e0e2689d0c493cba31d73099eab", "name": "fcba6e0e2689d0c493cba31d73099eab", "is_reserved": 0, "fusion_lat": 0.0}, {"type": "electric_scooter", "rental_uris": {"ios": "https://dc.lft.to/lastmile_qr_scan", "android": "https://dc.lft.to/lastmile_qr_scan"}, "lon": -77.01372333333333, "fusion_lon": 0.0, "is_disabled": 0, "lat": 38.892231833333334, "bike_id": "a32723baea82c5b373821f178e8ff66c", "name": "a32723baea82c5b373821f178e8ff66c", "is_reserved": 0, "fusion_lat": 0.0}, {"type": "electric_scooter", "rental_uris": {"ios": "https://dc.lft.to/lastmile_qr_scan", "android": "https://dc.lft.to/lastmile_qr_scan"}, "lon": -77.05092283333333, "fusion_lon": 0.0, "is_disabled": 0, "lat": 38.896659, "bike_id": "ac51b40c0740d3451c48a9346801f7d0", "name": "ac51b40c0740d3451c48a9346801f7d0", "is_reserved": 0, "fusion_lat": 0.0}, {"type": "electric_scooter", "rental_uris": {"ios": "https://dc.lft.to/lastmile_qr_scan", "android": "https://dc.lft.to/lastmile_qr_scan"}, "lon": -77.033631, "fusion_lon": 0.0, "is_disabled": 0, "lat": 38.913538, "bike_id": "8f342c2254c3cf009c66294e730218f2", "name": "8f342c2254c3cf009c66294e730218f2", "is_reserved": 0, "fusion_lat": 0.0}, {"type": "electric_scooter", "rental_uris": {"ios": "https://dc.lft.to/lastmile_qr_scan", "android": "https://dc.lft.to/lastmile_qr_scan"}, "lon": -77.02655466666667, "fusion_lon": 0.0, "is_disabled": 0, "lat": 38.8999805, "bike_id": "435143df654283f3fdb29d0d1e7eba76", "name": "435143df654283f3fdb29d0d1e7eba76", "is_reserved": 0, "fusion_lat": 0.0}, {"type": "electric_scooter", "rental_uris": {"ios": "https://dc.lft.to/lastmile_qr_scan", "android": "https://dc.lft.to/lastmile_qr_scan"}, "lon": -77.05599866666667, "fusion_lon": 0.0, "is_disabled": 0, "lat": 38.90094666666667, "bike_id": "9484b4f83e8fb1255ba329890e4e6c9b", "name": "9484b4f83e8fb1255ba329890e4e6c9b", "is_reserved": 0, "fusion_lat": 0.0}, {"type": "electric_scooter", "rental_uris": {"ios": "https://dc.lft.to/lastmile_qr_scan", "android": "https://dc.lft.to/lastmile_qr_scan"}, "lon": -77.00992166666667, "fusion_lon": 0.0, "is_disabled": 0, "lat": 38.90260516666667, "bike_id": "995dda3b8a0d0b6c52dfe71a86d03081", "name": "995dda3b8a0d0b6c52dfe71a86d03081", "is_reserved": 0, "fusion_lat": 0.0}, {"type": "electric_scooter", "rental_uris": {"ios": "https://dc.lft.to/lastmile_qr_scan", "android": "https://dc.lft.to/lastmile_qr_scan"}, "lon": -76.93297166666666, "fusion_lon": 0.0, "is_disabled": 0, "lat": 38.892207666666664, "bike_id": "0f09fe4d83e387e9474cbc29c19dbc40", "name": "0f09fe4d83e387e9474cbc29c19dbc40", "is_reserved": 0, "fusion_lat": 0.0}, {"type": "electric_scooter", "rental_uris": {"ios": "https://dc.lft.to/lastmile_qr_scan", "android": "https://dc.lft.to/lastmile_qr_scan"}, "lon": -77.04179966666666, "fusion_lon": 0.0, "is_disabled": 0, "lat": 38.892879, "bike_id": "9e032a96d32a75dac7cff53d667787b2", "name": "9e032a96d32a75dac7cff53d667787b2", "is_reserved": 0, "fusion_lat": 0.0}, {"type": "electric_scooter", "rental_uris": {"ios": "https://dc.lft.to/lastmile_qr_scan", "android": "https://dc.lft.to/lastmile_qr_scan"}, "lon": -77.02213066666667, "fusion_lon": 0.0, "is_disabled": 0, "lat": 38.887465, "bike_id": "8a434dabd0d2ca08175d20842df577c6", "name": "8a434dabd0d2ca08175d20842df577c6", "is_reserved": 0, "fusion_lat": 0.0}, {"type": "electric_scooter", "rental_uris": {"ios": "https://dc.lft.to/lastmile_qr_scan", "android": "https://dc.lft.to/lastmile_qr_scan"}, "lon": -77.03416683333333, "fusion_lon": 0.0, "is_disabled": 0, "lat": 38.919252666666665, "bike_id": "0c904c0a9fc18a4c4c8809ad14ff6294", "name": "0c904c0a9fc18a4c4c8809ad14ff6294", "is_reserved": 0, "fusion_lat": 0.0}, {"type": "electric_scooter", "rental_uris": {"ios": "https://dc.lft.to/lastmile_qr_scan", "android": "https://dc.lft.to/lastmile_qr_scan"}, "lon": -77.02490116666667, "fusion_lon": 0.0, "is_disabled": 0, "lat": 38.941852833333336, "bike_id": "cf2163b489f3a726ffcc67cf1314f109", "name": "cf2163b489f3a726ffcc67cf1314f109", "is_reserved": 0, "fusion_lat": 0.0}, {"type": "electric_scooter", "rental_uris": {"ios": "https://dc.lft.to/lastmile_qr_scan", "android": "https://dc.lft.to/lastmile_qr_scan"}, "lon": -77.04292316666667, "fusion_lon": 0.0, "is_disabled": 0, "lat": 38.92063366666667, "bike_id": "bee23e38def4d842820ed18b70a84e09", "name": "bee23e38def4d842820ed18b70a84e09", "is_reserved": 0, "fusion_lat": 0.0}, {"type": "electric_scooter", "rental_uris": {"ios": "https://dc.lft.to/lastmile_qr_scan", "android": "https://dc.lft.to/lastmile_qr_scan"}, "lon": -77.02297, "fusion_lon": 0.0, "is_disabled": 0, "lat": 38.9260925, "bike_id": "ef4231bcb80df6cd63c230513dc15e1c", "name": "ef4231bcb80df6cd63c230513dc15e1c", "is_reserved": 0, "fusion_lat": 0.0}, {"type": "electric_scooter", "rental_uris": {"ios": "https://dc.lft.to/lastmile_qr_scan", "android": "https://dc.lft.to/lastmile_qr_scan"}, "lon": -77.00605466666667, "fusion_lon": 0.0, "is_disabled": 0, "lat": 38.8718015, "bike_id": "bc2cd95967825fa87fa6761e10d7f0c5", "name": "bc2cd95967825fa87fa6761e10d7f0c5", "is_reserved": 0, "fusion_lat": 0.0}, {"type": "electric_scooter", "rental_uris": {"ios": "https://dc.lft.to/lastmile_qr_scan", "android": "https://dc.lft.to/lastmile_qr_scan"}, "lon": -77.03289616666666, "fusion_lon": 0.0, "is_disabled": 0, "lat": 38.9471255, "bike_id": "e1324f39b52b068f31a63c6b25ace8cb", "name": "e1324f39b52b068f31a63c6b25ace8cb", "is_reserved": 0, "fusion_lat": 0.0}, {"type": "electric_scooter", "rental_uris": {"ios": "https://dc.lft.to/lastmile_qr_scan", "android": "https://dc.lft.to/lastmile_qr_scan"}, "lon": -77.03221316666666, "fusion_lon": 0.0, "is_disabled": 0, "lat": 38.90968183333333, "bike_id": "03bd4e8bfb22acd46525ad50e6493648", "name": "03bd4e8bfb22acd46525ad50e6493648", "is_reserved": 0, "fusion_lat": 0.0}, {"type": "electric_scooter", "rental_uris": {"ios": "https://dc.lft.to/lastmile_qr_scan", "android": "https://dc.lft.to/lastmile_qr_scan"}, "lon": -77.02609716666667, "fusion_lon": 0.0, "is_disabled": 0, "lat": 38.90132166666667, "bike_id": "c80a6888a81e349640124fcea255806f", "name": "c80a6888a81e349640124fcea255806f", "is_reserved": 0, "fusion_lat": 0.0}, {"type": "electric_scooter", "rental_uris": {"ios": "https://dc.lft.to/lastmile_qr_scan", "android": "https://dc.lft.to/lastmile_qr_scan"}, "lon": -77.03178083333333, "fusion_lon": 0.0, "is_disabled": 0, "lat": 38.919095166666665, "bike_id": "ab66978e92b0593de8db11833fe65410", "name": "ab66978e92b0593de8db11833fe65410", "is_reserved": 0, "fusion_lat": 0.0}, {"type": "electric_scooter", "rental_uris": {"ios": "https://dc.lft.to/lastmile_qr_scan", "android": "https://dc.lft.to/lastmile_qr_scan"}, "lon": -76.99906633333333, "fusion_lon": 0.0, "is_disabled": 0, "lat": 38.9481585, "bike_id": "4659108d1e845975c19c35d9dba0c022", "name": "4659108d1e845975c19c35d9dba0c022", "is_reserved": 0, "fusion_lat": 0.0}, {"type": "electric_bike", "rental_uris": {"ios": "https://dc.lft.to/lastmile_qr_scan", "android": "https://dc.lft.to/lastmile_qr_scan"}, "lon": -77.01284766666667, "fusion_lon": 0.0, "is_disabled": 0, "lat": 38.95668366666666, "bike_id": "85480f21733f75d49cc8f55bb7a70cf4", "name": "85480f21733f75d49cc8f55bb7a70cf4", "is_reserved": 0, "fusion_lat": 0.0}, {"type": "electric_scooter", "rental_uris": {"ios": "https://dc.lft.to/lastmile_qr_scan", "android": "https://dc.lft.to/lastmile_qr_scan"}, "lon": -77.01614766666667, "fusion_lon": 0.0, "is_disabled": 0, "lat": 38.915958833333335, "bike_id": "d6122ac7f9679862b14531b974f18994", "name": "d6122ac7f9679862b14531b974f18994", "is_reserved": 0, "fusion_lat": 0.0}, {"type": "electric_bike", "rental_uris": {"ios": "https://dc.lft.to/lastmile_qr_scan", "android": "https://dc.lft.to/lastmile_qr_scan"}, "lon": -77.1105955, "fusion_lon": 0.0, "is_disabled": 0, "lat": 38.87071916666667, "bike_id": "49835573f2aead71444281abf24b14b0", "name": "49835573f2aead71444281abf24b14b0", "is_reserved": 0, "fusion_lat": 0.0}, {"type": "electric_scooter", "rental_uris": {"ios": "https://dc.lft.to/lastmile_qr_scan", "android": "https://dc.lft.to/lastmile_qr_scan"}, "lon": -77.04896, "fusion_lon": 0.0, "is_disabled": 0, "lat": 38.89224, "bike_id": "6a811ce31ff46c2f8ff175899ff1f397", "name": "6a811ce31ff46c2f8ff175899ff1f397", "is_reserved": 0, "fusion_lat": 0.0}, {"type": "electric_scooter", "rental_uris": {"ios": "https://dc.lft.to/lastmile_qr_scan", "android": "https://dc.lft.to/lastmile_qr_scan"}, "lon": -76.9794495, "fusion_lon": 0.0, "is_disabled": 0, "lat": 38.916914166666665, "bike_id": "aebbc9936db3d75da151c272d0451c64", "name": "aebbc9936db3d75da151c272d0451c64", "is_reserved": 0, "fusion_lat": 0.0}, {"type": "electric_scooter", "rental_uris": {"ios": "https://dc.lft.to/lastmile_qr_scan", "android": "https://dc.lft.to/lastmile_qr_scan"}, "lon": -77.03456233333333, "fusion_lon": 0.0, "is_disabled": 0, "lat": 38.90730883333333, "bike_id": "e50dc63d54ea3794c59ef9807bf392dd", "name": "e50dc63d54ea3794c59ef9807bf392dd", "is_reserved": 0, "fusion_lat": 0.0}, {"type": "electric_scooter", "rental_uris": {"ios": "https://dc.lft.to/lastmile_qr_scan", "android": "https://dc.lft.to/lastmile_qr_scan"}, "lon": -77.05096916666666, "fusion_lon": 0.0, "is_disabled": 0, "lat": 38.9043605, "bike_id": "09dcd712ac0221eae0f3a14ac2d70082", "name": "09dcd712ac0221eae0f3a14ac2d70082", "is_reserved": 0, "fusion_lat": 0.0}, {"type": "electric_scooter", "rental_uris": {"ios": "https://dc.lft.to/lastmile_qr_scan", "android": "https://dc.lft.to/lastmile_qr_scan"}, "lon": -77.02002766666666, "fusion_lon": 0.0, "is_disabled": 0, "lat": 38.908292833333334, "bike_id": "f56776a84d1460eeb3393781bae1fae7", "name": "f56776a84d1460eeb3393781bae1fae7", "is_reserved": 0, "fusion_lat": 0.0}, {"type": "electric_scooter", "rental_uris": {"ios": "https://dc.lft.to/lastmile_qr_scan", "android": "https://dc.lft.to/lastmile_qr_scan"}, "lon": -77.02653716666667, "fusion_lon": 0.0, "is_disabled": 0, "lat": 38.8921985, "bike_id": "19ee6e5d506babfef94b012ab2dd5251", "name": "19ee6e5d506babfef94b012ab2dd5251", "is_reserved": 0, "fusion_lat": 0.0}, {"type": "electric_bike", "rental_uris": {"ios": "https://dc.lft.to/lastmile_qr_scan", "android": "https://dc.lft.to/lastmile_qr_scan"}, "lon": -76.989461, "fusion_lon": 0.0, "is_disabled": 0, "lat": 38.867075, "bike_id": "1dc64a3f2ec934c571e6221d1030901d", "name": "1dc64a3f2ec934c571e6221d1030901d", "is_reserved": 0, "fusion_lat": 0.0}, {"type": "electric_scooter", "rental_uris": {"ios": "https://dc.lft.to/lastmile_qr_scan", "android": "https://dc.lft.to/lastmile_qr_scan"}, "lon": -77.01750416666667, "fusion_lon": 0.0, "is_disabled": 0, "lat": 38.902703833333334, "bike_id": "2b6f86451bf1a5a824696c0472fca432", "name": "2b6f86451bf1a5a824696c0472fca432", "is_reserved": 0, "fusion_lat": 0.0}, {"type": "electric_scooter", "rental_uris": {"ios": "https://dc.lft.to/lastmile_qr_scan", "android": "https://dc.lft.to/lastmile_qr_scan"}, "lon": -77.0594795, "fusion_lon": 0.0, "is_disabled": 0, "lat": 38.90233516666667, "bike_id": "ac0f61ff8a4a0e730d935abfaebdf372", "name": "ac0f61ff8a4a0e730d935abfaebdf372", "is_reserved": 0, "fusion_lat": 0.0}, {"type": "electric_scooter", "rental_uris": {"ios": "https://dc.lft.to/lastmile_qr_scan", "android": "https://dc.lft.to/lastmile_qr_scan"}, "lon": -77.0377005, "fusion_lon": 0.0, "is_disabled": 0, "lat": 38.92971333333333, "bike_id": "bff9112b8d0a41afdee271bdc8b6e412", "name": "bff9112b8d0a41afdee271bdc8b6e412", "is_reserved": 0, "fusion_lat": 0.0}, {"type": "electric_scooter", "rental_uris": {"ios": "https://dc.lft.to/lastmile_qr_scan", "android": "https://dc.lft.to/lastmile_qr_scan"}, "lon": -77.03266016666667, "fusion_lon": 0.0, "is_disabled": 0, "lat": 38.9132645, "bike_id": "c2a44d3e7d78c3e8075348d1e9f89540", "name": "c2a44d3e7d78c3e8075348d1e9f89540", "is_reserved": 0, "fusion_lat": 0.0}, {"type": "electric_scooter", "rental_uris": {"ios": "https://dc.lft.to/lastmile_qr_scan", "android": "https://dc.lft.to/lastmile_qr_scan"}, "lon": -77.0386615, "fusion_lon": 0.0, "is_disabled": 0, "lat": 38.912562666666666, "bike_id": "d38af676ad3ddbb07811f857b4bcf87c", "name": "d38af676ad3ddbb07811f857b4bcf87c", "is_reserved": 0, "fusion_lat": 0.0}, {"type": "electric_scooter", "rental_uris": {"ios": "https://dc.lft.to/lastmile_qr_scan", "android": "https://dc.lft.to/lastmile_qr_scan"}, "lon": -77.03872483333333, "fusion_lon": 0.0, "is_disabled": 0, "lat": 38.93464133333333, "bike_id": "0777f53701a83972939ea3c5b2f068cc", "name": "0777f53701a83972939ea3c5b2f068cc", "is_reserved": 0, "fusion_lat": 0.0}, {"type": "electric_scooter", "rental_uris": {"ios": "https://dc.lft.to/lastmile_qr_scan", "android": "https://dc.lft.to/lastmile_qr_scan"}, "lon": -77.03618416666667, "fusion_lon": 0.0, "is_disabled": 0, "lat": 38.93682616666667, "bike_id": "4fca3b2fb441036bd73bc8148c414010", "name": "4fca3b2fb441036bd73bc8148c414010", "is_reserved": 0, "fusion_lat": 0.0}, {"type": "electric_scooter", "rental_uris": {"ios": "https://dc.lft.to/lastmile_qr_scan", "android": "https://dc.lft.to/lastmile_qr_scan"}, "lon": -77.0467655, "fusion_lon": 0.0, "is_disabled": 0, "lat": 38.892207, "bike_id": "2b593d97983c879226d8b3c9d5dcf59c", "name": "2b593d97983c879226d8b3c9d5dcf59c", "is_reserved": 0, "fusion_lat": 0.0}, {"type": "electric_scooter", "rental_uris": {"ios": "https://dc.lft.to/lastmile_qr_scan", "android": "https://dc.lft.to/lastmile_qr_scan"}, "lon": -77.04262433333334, "fusion_lon": 0.0, "is_disabled": 0, "lat": 38.9170415, "bike_id": "ddb5c814b4c59bcab958eedf65b369f1", "name": "ddb5c814b4c59bcab958eedf65b369f1", "is_reserved": 0, "fusion_lat": 0.0}, {"type": "electric_bike", "rental_uris": {"ios": "https://dc.lft.to/lastmile_qr_scan", "android": "https://dc.lft.to/lastmile_qr_scan"}, "lon": -77.021259, "fusion_lon": 0.0, "is_disabled": 0, "lat": 38.9357845, "bike_id": "46607ae9b822bdcf9b23583b21a67ce8", "name": "46607ae9b822bdcf9b23583b21a67ce8", "is_reserved": 0, "fusion_lat": 0.0}, {"type": "electric_scooter", "rental_uris": {"ios": "https://dc.lft.to/lastmile_qr_scan", "android": "https://dc.lft.to/lastmile_qr_scan"}, "lon": -77.00611733333334, "fusion_lon": 0.0, "is_disabled": 0, "lat": 38.90650516666667, "bike_id": "411febce8330782be1c148ac8274e817", "name": "411febce8330782be1c148ac8274e817", "is_reserved": 0, "fusion_lat": 0.0}, {"type": "electric_bike", "rental_uris": {"ios": "https://dc.lft.to/lastmile_qr_scan", "android": "https://dc.lft.to/lastmile_qr_scan"}, "lon": -77.10088566666667, "fusion_lon": 0.0, "is_disabled": 0, "lat": 38.959561, "bike_id": "c1dbee99065248ddc938cbb325021cb4", "name": "c1dbee99065248ddc938cbb325021cb4", "is_reserved": 0, "fusion_lat": 0.0}, {"type": "electric_scooter", "rental_uris": {"ios": "https://dc.lft.to/lastmile_qr_scan", "android": "https://dc.lft.to/lastmile_qr_scan"}, "lon": -77.03179733333333, "fusion_lon": 0.0, "is_disabled": 0, "lat": 38.919130333333335, "bike_id": "60b3fadcca96e961e87a5856fc4a2c2b", "name": "60b3fadcca96e961e87a5856fc4a2c2b", "is_reserved": 0, "fusion_lat": 0.0}, {"type": "electric_scooter", "rental_uris": {"ios": "https://dc.lft.to/lastmile_qr_scan", "android": "https://dc.lft.to/lastmile_qr_scan"}, "lon": -77.0457635, "fusion_lon": 0.0, "is_disabled": 0, "lat": 38.922446666666666, "bike_id": "fa4092f101b70fa601303a2591d7f5b7", "name": "fa4092f101b70fa601303a2591d7f5b7", "is_reserved": 0, "fusion_lat": 0.0}, {"type": "electric_scooter", "rental_uris": {"ios": "https://dc.lft.to/lastmile_qr_scan", "android": "https://dc.lft.to/lastmile_qr_scan"}, "lon": -77.03505433333333, "fusion_lon": 0.0, "is_disabled": 0, "lat": 38.91872433333333, "bike_id": "bf7b9c7be7274664029af785a6fc8731", "name": "bf7b9c7be7274664029af785a6fc8731", "is_reserved": 0, "fusion_lat": 0.0}, {"type": "electric_scooter", "rental_uris": {"ios": "https://dc.lft.to/lastmile_qr_scan", "android": "https://dc.lft.to/lastmile_qr_scan"}, "lon": -77.03216666666667, "fusion_lon": 0.0, "is_disabled": 0, "lat": 38.91842616666667, "bike_id": "5043fb5fff66fe2d46e70a191f1564d2", "name": "5043fb5fff66fe2d46e70a191f1564d2", "is_reserved": 0, "fusion_lat": 0.0}, {"type": "electric_scooter", "rental_uris": {"ios": "https://dc.lft.to/lastmile_qr_scan", "android": "https://dc.lft.to/lastmile_qr_scan"}, "lon": -76.99090666666666, "fusion_lon": 0.0, "is_disabled": 0, "lat": 38.88231916666667, "bike_id": "c73fe9402738d4dc19550250d53f9675", "name": "c73fe9402738d4dc19550250d53f9675", "is_reserved": 0, "fusion_lat": 0.0}, {"type": "electric_scooter", "rental_uris": {"ios": "https://dc.lft.to/lastmile_qr_scan", "android": "https://dc.lft.to/lastmile_qr_scan"}, "lon": -77.0417775, "fusion_lon": 0.0, "is_disabled": 0, "lat": 38.905377333333334, "bike_id": "a5eecdd4521fff42f0113a300641367a", "name": "a5eecdd4521fff42f0113a300641367a", "is_reserved": 0, "fusion_lat": 0.0}, {"type": "electric_scooter", "rental_uris": {"ios": "https://dc.lft.to/lastmile_qr_scan", "android": "https://dc.lft.to/lastmile_qr_scan"}, "lon": -77.03641766666667, "fusion_lon": 0.0, "is_disabled": 0, "lat": 38.90676366666667, "bike_id": "0bcd2a403925354216a024201d011e43", "name": "0bcd2a403925354216a024201d011e43", "is_reserved": 0, "fusion_lat": 0.0}, {"type": "electric_scooter", "rental_uris": {"ios": "https://dc.lft.to/lastmile_qr_scan", "android": "https://dc.lft.to/lastmile_qr_scan"}, "lon": -76.99634866666666, "fusion_lon": 0.0, "is_disabled": 0, "lat": 38.9089005, "bike_id": "fa692dbdc984eda0a81b250e63728af1", "name": "fa692dbdc984eda0a81b250e63728af1", "is_reserved": 0, "fusion_lat": 0.0}, {"type": "electric_scooter", "rental_uris": {"ios": "https://dc.lft.to/lastmile_qr_scan", "android": "https://dc.lft.to/lastmile_qr_scan"}, "lon": -77.02288266666666, "fusion_lon": 0.0, "is_disabled": 0, "lat": 38.91603, "bike_id": "55cc8638fa837e741f15f552f3057871", "name": "55cc8638fa837e741f15f552f3057871", "is_reserved": 0, "fusion_lat": 0.0}, {"type": "electric_scooter", "rental_uris": {"ios": "https://dc.lft.to/lastmile_qr_scan", "android": "https://dc.lft.to/lastmile_qr_scan"}, "lon": -77.04197933333333, "fusion_lon": 0.0, "is_disabled": 0, "lat": 38.9058525, "bike_id": "95c146c2ebc5fcc0a7ae739d2baa4991", "name": "95c146c2ebc5fcc0a7ae739d2baa4991", "is_reserved": 0, "fusion_lat": 0.0}, {"type": "electric_scooter", "rental_uris": {"ios": "https://dc.lft.to/lastmile_qr_scan", "android": "https://dc.lft.to/lastmile_qr_scan"}, "lon": -77.0591515, "fusion_lon": 0.0, "is_disabled": 0, "lat": 38.90241966666667, "bike_id": "93c6a7ed064f91e76bcf46c78ea0de40", "name": "93c6a7ed064f91e76bcf46c78ea0de40", "is_reserved": 0, "fusion_lat": 0.0}, {"type": "electric_scooter", "rental_uris": {"ios": "https://dc.lft.to/lastmile_qr_scan", "android": "https://dc.lft.to/lastmile_qr_scan"}, "lon": -77.04421283333333, "fusion_lon": 0.0, "is_disabled": 0, "lat": 38.92591633333333, "bike_id": "a27f32a3c3cc3e95c8c0baf973d37de9", "name": "a27f32a3c3cc3e95c8c0baf973d37de9", "is_reserved": 0, "fusion_lat": 0.0}, {"type": "electric_scooter", "rental_uris": {"ios": "https://dc.lft.to/lastmile_qr_scan", "android": "https://dc.lft.to/lastmile_qr_scan"}, "lon": -76.97724116666667, "fusion_lon": 0.0, "is_disabled": 0, "lat": 38.87288483333333, "bike_id": "5980df8844131d646e7874f7f2388975", "name": "5980df8844131d646e7874f7f2388975", "is_reserved": 0, "fusion_lat": 0.0}, {"type": "electric_scooter", "rental_uris": {"ios": "https://dc.lft.to/lastmile_qr_scan", "android": "https://dc.lft.to/lastmile_qr_scan"}, "lon": -77.02201383333333, "fusion_lon": 0.0, "is_disabled": 0, "lat": 38.92097233333333, "bike_id": "c959f5bea798fc0a90cda1098edbcdea", "name": "c959f5bea798fc0a90cda1098edbcdea", "is_reserved": 0, "fusion_lat": 0.0}, {"type": "electric_bike", "rental_uris": {"ios": "https://dc.lft.to/lastmile_qr_scan", "android": "https://dc.lft.to/lastmile_qr_scan"}, "lon": -77.00836516666666, "fusion_lon": 0.0, "is_disabled": 0, "lat": 38.828767166666665, "bike_id": "fba7aa67c5835965e54773d65edd3f1b", "name": "fba7aa67c5835965e54773d65edd3f1b", "is_reserved": 0, "fusion_lat": 0.0}, {"type": "electric_scooter", "rental_uris": {"ios": "https://dc.lft.to/lastmile_qr_scan", "android": "https://dc.lft.to/lastmile_qr_scan"}, "lon": -77.048757, "fusion_lon": 0.0, "is_disabled": 0, "lat": 38.9097435, "bike_id": "c7dce1dca148041cbc13f09d314896a5", "name": "c7dce1dca148041cbc13f09d314896a5", "is_reserved": 0, "fusion_lat": 0.0}, {"type": "electric_scooter", "rental_uris": {"ios": "https://dc.lft.to/lastmile_qr_scan", "android": "https://dc.lft.to/lastmile_qr_scan"}, "lon": -77.04271783333333, "fusion_lon": 0.0, "is_disabled": 0, "lat": 38.910330333333334, "bike_id": "c84cd13d54621536d9da8f63552efea1", "name": "c84cd13d54621536d9da8f63552efea1", "is_reserved": 0, "fusion_lat": 0.0}, {"type": "electric_scooter", "rental_uris": {"ios": "https://dc.lft.to/lastmile_qr_scan", "android": "https://dc.lft.to/lastmile_qr_scan"}, "lon": -77.01083516666667, "fusion_lon": 0.0, "is_disabled": 0, "lat": 38.91188783333333, "bike_id": "04a3e11f2cb1202c6f0bb6e6717a1381", "name": "04a3e11f2cb1202c6f0bb6e6717a1381", "is_reserved": 0, "fusion_lat": 0.0}, {"type": "electric_scooter", "rental_uris": {"ios": "https://dc.lft.to/lastmile_qr_scan", "android": "https://dc.lft.to/lastmile_qr_scan"}, "lon": -77.00202366666667, "fusion_lon": 0.0, "is_disabled": 0, "lat": 38.90237283333333, "bike_id": "42a8b672b138dbed02823940e2f1bba6", "name": "42a8b672b138dbed02823940e2f1bba6", "is_reserved": 0, "fusion_lat": 0.0}, {"type": "electric_scooter", "rental_uris": {"ios": "https://dc.lft.to/lastmile_qr_scan", "android": "https://dc.lft.to/lastmile_qr_scan"}, "lon": -77.03207616666667, "fusion_lon": 0.0, "is_disabled": 0, "lat": 38.913735, "bike_id": "ebf36070761a11fa1a302bb59c993c2c", "name": "ebf36070761a11fa1a302bb59c993c2c", "is_reserved": 0, "fusion_lat": 0.0}, {"type": "electric_scooter", "rental_uris": {"ios": "https://dc.lft.to/lastmile_qr_scan", "android": "https://dc.lft.to/lastmile_qr_scan"}, "lon": -76.984118, "fusion_lon": 0.0, "is_disabled": 0, "lat": 38.86333033333333, "bike_id": "a71a25d771ee97de9d96d5d7cd4296b7", "name": "a71a25d771ee97de9d96d5d7cd4296b7", "is_reserved": 0, "fusion_lat": 0.0}, {"type": "electric_scooter", "rental_uris": {"ios": "https://dc.lft.to/lastmile_qr_scan", "android": "https://dc.lft.to/lastmile_qr_scan"}, "lon": -77.03763066666667, "fusion_lon": 0.0, "is_disabled": 0, "lat": 38.93602933333333, "bike_id": "6443a5baf7b1724f7f2b8e93a3290c69", "name": "6443a5baf7b1724f7f2b8e93a3290c69", "is_reserved": 0, "fusion_lat": 0.0}, {"type": "electric_scooter", "rental_uris": {"ios": "https://dc.lft.to/lastmile_qr_scan", "android": "https://dc.lft.to/lastmile_qr_scan"}, "lon": -77.0315545, "fusion_lon": 0.0, "is_disabled": 0, "lat": 38.91405366666667, "bike_id": "1d2e4b91ffd84c105d21ac080bf33589", "name": "1d2e4b91ffd84c105d21ac080bf33589", "is_reserved": 0, "fusion_lat": 0.0}, {"type": "electric_bike", "rental_uris": {"ios": "https://dc.lft.to/lastmile_qr_scan", "android": "https://dc.lft.to/lastmile_qr_scan"}, "lon": -76.97007183333334, "fusion_lon": 0.0, "is_disabled": 0, "lat": 38.863707166666664, "bike_id": "b8cb1345c16f3241fc2d76aef6de6e4b", "name": "b8cb1345c16f3241fc2d76aef6de6e4b", "is_reserved": 0, "fusion_lat": 0.0}, {"type": "electric_scooter", "rental_uris": {"ios": "https://dc.lft.to/lastmile_qr_scan", "android": "https://dc.lft.to/lastmile_qr_scan"}, "lon": -76.93363783333334, "fusion_lon": 0.0, "is_disabled": 0, "lat": 38.89890233333333, "bike_id": "da75e99e12e972f00184a2632652cae6", "name": "da75e99e12e972f00184a2632652cae6", "is_reserved": 0, "fusion_lat": 0.0}, {"type": "electric_scooter", "rental_uris": {"ios": "https://dc.lft.to/lastmile_qr_scan", "android": "https://dc.lft.to/lastmile_qr_scan"}, "lon": -77.0444375, "fusion_lon": 0.0, "is_disabled": 0, "lat": 38.9301995, "bike_id": "47e48cb6a0546b1bf0d270e58dd958f0", "name": "47e48cb6a0546b1bf0d270e58dd958f0", "is_reserved": 0, "fusion_lat": 0.0}, {"type": "electric_scooter", "rental_uris": {"ios": "https://dc.lft.to/lastmile_qr_scan", "android": "https://dc.lft.to/lastmile_qr_scan"}, "lon": -77.01562416666667, "fusion_lon": 0.0, "is_disabled": 0, "lat": 38.879899, "bike_id": "7d8dc34fc6a685368765a009407c2dfa", "name": "7d8dc34fc6a685368765a009407c2dfa", "is_reserved": 0, "fusion_lat": 0.0}, {"type": "electric_scooter", "rental_uris": {"ios": "https://dc.lft.to/lastmile_qr_scan", "android": "https://dc.lft.to/lastmile_qr_scan"}, "lon": -77.026026, "fusion_lon": 0.0, "is_disabled": 0, "lat": 38.930764, "bike_id": "6c726d301d1d642f371fb1468e01fdd8", "name": "6c726d301d1d642f371fb1468e01fdd8", "is_reserved": 0, "fusion_lat": 0.0}, {"type": "electric_scooter", "rental_uris": {"ios": "https://dc.lft.to/lastmile_qr_scan", "android": "https://dc.lft.to/lastmile_qr_scan"}, "lon": -77.00762016666667, "fusion_lon": 0.0, "is_disabled": 0, "lat": 38.907335, "bike_id": "5c2a24650af992493c195813b11fd281", "name": "5c2a24650af992493c195813b11fd281", "is_reserved": 0, "fusion_lat": 0.0}, {"type": "electric_scooter", "rental_uris": {"ios": "https://dc.lft.to/lastmile_qr_scan", "android": "https://dc.lft.to/lastmile_qr_scan"}, "lon": -77.03639616666666, "fusion_lon": 0.0, "is_disabled": 0, "lat": 38.91617633333333, "bike_id": "1f0adca85ff4e692de87fc75185ef861", "name": "1f0adca85ff4e692de87fc75185ef861", "is_reserved": 0, "fusion_lat": 0.0}, {"type": "electric_scooter", "rental_uris": {"ios": "https://dc.lft.to/lastmile_qr_scan", "android": "https://dc.lft.to/lastmile_qr_scan"}, "lon": -77.04158, "fusion_lon": 0.0, "is_disabled": 0, "lat": 38.934173666666666, "bike_id": "68051d470cc91f8066062cd60914f1f5", "name": "68051d470cc91f8066062cd60914f1f5", "is_reserved": 0, "fusion_lat": 0.0}, {"type": "electric_scooter", "rental_uris": {"ios": "https://dc.lft.to/lastmile_qr_scan", "android": "https://dc.lft.to/lastmile_qr_scan"}, "lon": -77.02689433333333, "fusion_lon": 0.0, "is_disabled": 0, "lat": 38.91123066666667, "bike_id": "09089398627a35c9841eec2974f3cd30", "name": "09089398627a35c9841eec2974f3cd30", "is_reserved": 0, "fusion_lat": 0.0}, {"type": "electric_scooter", "rental_uris": {"ios": "https://dc.lft.to/lastmile_qr_scan", "android": "https://dc.lft.to/lastmile_qr_scan"}, "lon": -77.02153433333334, "fusion_lon": 0.0, "is_disabled": 0, "lat": 38.88640433333333, "bike_id": "bf75343224384b85c54f1ea993a7e9ae", "name": "bf75343224384b85c54f1ea993a7e9ae", "is_reserved": 0, "fusion_lat": 0.0}, {"type": "electric_bike", "rental_uris": {"ios": "https://dc.lft.to/lastmile_qr_scan", "android": "https://dc.lft.to/lastmile_qr_scan"}, "lon": -77.12022516666667, "fusion_lon": 0.0, "is_disabled": 0, "lat": 38.854962, "bike_id": "30ed76372a8fd1fba790f2a1f6121668", "name": "30ed76372a8fd1fba790f2a1f6121668", "is_reserved": 0, "fusion_lat": 0.0}, {"type": "electric_bike", "rental_uris": {"ios": "https://dc.lft.to/lastmile_qr_scan", "android": "https://dc.lft.to/lastmile_qr_scan"}, "lon": -77.11604516666667, "fusion_lon": 0.0, "is_disabled": 0, "lat": 38.854834333333336, "bike_id": "ea3f074a4fcef7cadc41c9d9073f7b91", "name": "ea3f074a4fcef7cadc41c9d9073f7b91", "is_reserved": 0, "fusion_lat": 0.0}, {"type": "electric_scooter", "rental_uris": {"ios": "https://dc.lft.to/lastmile_qr_scan", "android": "https://dc.lft.to/lastmile_qr_scan"}, "lon": -77.03783766666666, "fusion_lon": 0.0, "is_disabled": 0, "lat": 38.930238, "bike_id": "bee86d47151c8a2f363e3d9c5fe9f942", "name": "bee86d47151c8a2f363e3d9c5fe9f942", "is_reserved": 0, "fusion_lat": 0.0}, {"type": "electric_bike", "rental_uris": {"ios": "https://dc.lft.to/lastmile_qr_scan", "android": "https://dc.lft.to/lastmile_qr_scan"}, "lon": -77.08844666666667, "fusion_lon": 0.0, "is_disabled": 0, "lat": 38.966877833333335, "bike_id": "29bdb9169a4dc9231b4bcf48ec4652fb", "name": "29bdb9169a4dc9231b4bcf48ec4652fb", "is_reserved": 0, "fusion_lat": 0.0}, {"type": "electric_bike", "rental_uris": {"ios": "https://dc.lft.to/lastmile_qr_scan", "android": "https://dc.lft.to/lastmile_qr_scan"}, "lon": -76.9880715, "fusion_lon": 0.0, "is_disabled": 0, "lat": 38.911359, "bike_id": "f59d9e98381b12205d60d15b62303afe", "name": "f59d9e98381b12205d60d15b62303afe", "is_reserved": 0, "fusion_lat": 0.0}, {"type": "electric_scooter", "rental_uris": {"ios": "https://dc.lft.to/lastmile_qr_scan", "android": "https://dc.lft.to/lastmile_qr_scan"}, "lon": -77.04015266666667, "fusion_lon": 0.0, "is_disabled": 0, "lat": 38.9419515, "bike_id": "e40fffa97d26296f762da448a80c0202", "name": "e40fffa97d26296f762da448a80c0202", "is_reserved": 0, "fusion_lat": 0.0}, {"type": "electric_scooter", "rental_uris": {"ios": "https://dc.lft.to/lastmile_qr_scan", "android": "https://dc.lft.to/lastmile_qr_scan"}, "lon": -77.02646633333333, "fusion_lon": 0.0, "is_disabled": 0, "lat": 38.924769, "bike_id": "043a156d6422145b13006f0325a59719", "name": "043a156d6422145b13006f0325a59719", "is_reserved": 0, "fusion_lat": 0.0}, {"type": "electric_scooter", "rental_uris": {"ios": "https://dc.lft.to/lastmile_qr_scan", "android": "https://dc.lft.to/lastmile_qr_scan"}, "lon": -77.03975766666667, "fusion_lon": 0.0, "is_disabled": 0, "lat": 38.89899583333333, "bike_id": "51d454af49b13f0c276d8c2f042f03f2", "name": "51d454af49b13f0c276d8c2f042f03f2", "is_reserved": 0, "fusion_lat": 0.0}, {"type": "electric_scooter", "rental_uris": {"ios": "https://dc.lft.to/lastmile_qr_scan", "android": "https://dc.lft.to/lastmile_qr_scan"}, "lon": -77.04002133333333, "fusion_lon": 0.0, "is_disabled": 0, "lat": 38.914146333333335, "bike_id": "89583029e3a6922d110ded322d9f9106", "name": "89583029e3a6922d110ded322d9f9106", "is_reserved": 0, "fusion_lat": 0.0}, {"type": "electric_scooter", "rental_uris": {"ios": "https://dc.lft.to/lastmile_qr_scan", "android": "https://dc.lft.to/lastmile_qr_scan"}, "lon": -76.98689816666666, "fusion_lon": 0.0, "is_disabled": 0, "lat": 38.867219666666664, "bike_id": "5f8d936222382edc53e975aa2dd7c766", "name": "5f8d936222382edc53e975aa2dd7c766", "is_reserved": 0, "fusion_lat": 0.0}, {"type": "electric_scooter", "rental_uris": {"ios": "https://dc.lft.to/lastmile_qr_scan", "android": "https://dc.lft.to/lastmile_qr_scan"}, "lon": -77.039425, "fusion_lon": 0.0, "is_disabled": 0, "lat": 38.915623333333336, "bike_id": "98eb45af93aa74639b5cf7246d3492b0", "name": "98eb45af93aa74639b5cf7246d3492b0", "is_reserved": 0, "fusion_lat": 0.0}, {"type": "electric_scooter", "rental_uris": {"ios": "https://dc.lft.to/lastmile_qr_scan", "android": "https://dc.lft.to/lastmile_qr_scan"}, "lon": -77.0175895, "fusion_lon": 0.0, "is_disabled": 0, "lat": 38.876728, "bike_id": "03ac61583088ebde8e615026989df791", "name": "03ac61583088ebde8e615026989df791", "is_reserved": 0, "fusion_lat": 0.0}, {"type": "electric_scooter", "rental_uris": {"ios": "https://dc.lft.to/lastmile_qr_scan", "android": "https://dc.lft.to/lastmile_qr_scan"}, "lon": -76.97742583333333, "fusion_lon": 0.0, "is_disabled": 0, "lat": 38.8683595, "bike_id": "63c4b1dfb4aa0db3937c86c94c388759", "name": "63c4b1dfb4aa0db3937c86c94c388759", "is_reserved": 0, "fusion_lat": 0.0}, {"type": "electric_bike", "rental_uris": {"ios": "https://dc.lft.to/lastmile_qr_scan", "android": "https://dc.lft.to/lastmile_qr_scan"}, "lon": -77.03444316666666, "fusion_lon": 0.0, "is_disabled": 0, "lat": 38.9247765, "bike_id": "a495131510786a5c3fd06e5f136e0377", "name": "a495131510786a5c3fd06e5f136e0377", "is_reserved": 0, "fusion_lat": 0.0}, {"type": "electric_scooter", "rental_uris": {"ios": "https://dc.lft.to/lastmile_qr_scan", "android": "https://dc.lft.to/lastmile_qr_scan"}, "lon": -77.03159516666666, "fusion_lon": 0.0, "is_disabled": 0, "lat": 38.89223783333333, "bike_id": "fb04ab6056316d5ba43b6db283355a49", "name": "fb04ab6056316d5ba43b6db283355a49", "is_reserved": 0, "fusion_lat": 0.0}, {"type": "electric_scooter", "rental_uris": {"ios": "https://dc.lft.to/lastmile_qr_scan", "android": "https://dc.lft.to/lastmile_qr_scan"}, "lon": -77.0316135, "fusion_lon": 0.0, "is_disabled": 0, "lat": 38.897843333333334, "bike_id": "552e1ee1a7a46b4bd0d2890deb5361f3", "name": "552e1ee1a7a46b4bd0d2890deb5361f3", "is_reserved": 0, "fusion_lat": 0.0}, {"type": "electric_scooter", "rental_uris": {"ios": "https://dc.lft.to/lastmile_qr_scan", "android": "https://dc.lft.to/lastmile_qr_scan"}, "lon": -77.05310566666667, "fusion_lon": 0.0, "is_disabled": 0, "lat": 38.90078283333333, "bike_id": "f60596e1571a6f9779738a017b77cc12", "name": "f60596e1571a6f9779738a017b77cc12", "is_reserved": 0, "fusion_lat": 0.0}, {"type": "electric_bike", "rental_uris": {"ios": "https://dc.lft.to/lastmile_qr_scan", "android": "https://dc.lft.to/lastmile_qr_scan"}, "lon": -76.9461965, "fusion_lon": 0.0, "is_disabled": 0, "lat": 38.832332, "bike_id": "6650f99d6183ac59ef700d230ac06a50", "name": "6650f99d6183ac59ef700d230ac06a50", "is_reserved": 0, "fusion_lat": 0.0}, {"type": "electric_scooter", "rental_uris": {"ios": "https://dc.lft.to/lastmile_qr_scan", "android": "https://dc.lft.to/lastmile_qr_scan"}, "lon": -77.036308, "fusion_lon": 0.0, "is_disabled": 0, "lat": 38.93738283333333, "bike_id": "67635ac276bab5e46db0bb144f48e5dc", "name": "67635ac276bab5e46db0bb144f48e5dc", "is_reserved": 0, "fusion_lat": 0.0}, {"type": "electric_scooter", "rental_uris": {"ios": "https://dc.lft.to/lastmile_qr_scan", "android": "https://dc.lft.to/lastmile_qr_scan"}, "lon": -77.04649916666666, "fusion_lon": 0.0, "is_disabled": 0, "lat": 38.89644116666667, "bike_id": "a39ea030110257147464a45c9174a877", "name": "a39ea030110257147464a45c9174a877", "is_reserved": 0, "fusion_lat": 0.0}, {"type": "electric_scooter", "rental_uris": {"ios": "https://dc.lft.to/lastmile_qr_scan", "android": "https://dc.lft.to/lastmile_qr_scan"}, "lon": -77.04658433333333, "fusion_lon": 0.0, "is_disabled": 0, "lat": 38.892402833333335, "bike_id": "6b050cff6812a699381f6e468bf9cfe3", "name": "6b050cff6812a699381f6e468bf9cfe3", "is_reserved": 0, "fusion_lat": 0.0}, {"type": "electric_scooter", "rental_uris": {"ios": "https://dc.lft.to/lastmile_qr_scan", "android": "https://dc.lft.to/lastmile_qr_scan"}, "lon": -77.0464225, "fusion_lon": 0.0, "is_disabled": 0, "lat": 38.892223666666666, "bike_id": "740b925c6640fe1f3e604c207c2b56dc", "name": "740b925c6640fe1f3e604c207c2b56dc", "is_reserved": 0, "fusion_lat": 0.0}, {"type": "electric_scooter", "rental_uris": {"ios": "https://dc.lft.to/lastmile_qr_scan", "android": "https://dc.lft.to/lastmile_qr_scan"}, "lon": -77.02543683333333, "fusion_lon": 0.0, "is_disabled": 0, "lat": 38.92406616666667, "bike_id": "564e961be74328d5bdd13bc4716f09aa", "name": "564e961be74328d5bdd13bc4716f09aa", "is_reserved": 0, "fusion_lat": 0.0}, {"type": "electric_scooter", "rental_uris": {"ios": "https://dc.lft.to/lastmile_qr_scan", "android": "https://dc.lft.to/lastmile_qr_scan"}, "lon": -77.02206833333334, "fusion_lon": 0.0, "is_disabled": 0, "lat": 38.9125555, "bike_id": "04a2d29d55df5a2b16ab64f596e8b7e5", "name": "04a2d29d55df5a2b16ab64f596e8b7e5", "is_reserved": 0, "fusion_lat": 0.0}, {"type": "electric_scooter", "rental_uris": {"ios": "https://dc.lft.to/lastmile_qr_scan", "android": "https://dc.lft.to/lastmile_qr_scan"}, "lon": -76.97593383333333, "fusion_lon": 0.0, "is_disabled": 0, "lat": 38.903334666666666, "bike_id": "04ee079a2f9d77c963d89c439597322f", "name": "04ee079a2f9d77c963d89c439597322f", "is_reserved": 0, "fusion_lat": 0.0}, {"type": "electric_scooter", "rental_uris": {"ios": "https://dc.lft.to/lastmile_qr_scan", "android": "https://dc.lft.to/lastmile_qr_scan"}, "lon": -77.05130816666667, "fusion_lon": 0.0, "is_disabled": 0, "lat": 38.92364766666667, "bike_id": "af8b164d56a66e97029a033981311b9f", "name": "af8b164d56a66e97029a033981311b9f", "is_reserved": 0, "fusion_lat": 0.0}, {"type": "electric_scooter", "rental_uris": {"ios": "https://dc.lft.to/lastmile_qr_scan", "android": "https://dc.lft.to/lastmile_qr_scan"}, "lon": -77.02801233333334, "fusion_lon": 0.0, "is_disabled": 0, "lat": 38.95096616666667, "bike_id": "959076b845cb553afac055163c35d3c2", "name": "959076b845cb553afac055163c35d3c2", "is_reserved": 0, "fusion_lat": 0.0}, {"type": "electric_scooter", "rental_uris": {"ios": "https://dc.lft.to/lastmile_qr_scan", "android": "https://dc.lft.to/lastmile_qr_scan"}, "lon": -77.0344865, "fusion_lon": 0.0, "is_disabled": 0, "lat": 38.918503, "bike_id": "29786b480a9d187e691128f9403c7b96", "name": "29786b480a9d187e691128f9403c7b96", "is_reserved": 0, "fusion_lat": 0.0}, {"type": "electric_scooter", "rental_uris": {"ios": "https://dc.lft.to/lastmile_qr_scan", "android": "https://dc.lft.to/lastmile_qr_scan"}, "lon": -77.0558355, "fusion_lon": 0.0, "is_disabled": 0, "lat": 38.9105465, "bike_id": "deff7b40456f0198a9def7c6869e74c5", "name": "deff7b40456f0198a9def7c6869e74c5", "is_reserved": 0, "fusion_lat": 0.0}, {"type": "electric_scooter", "rental_uris": {"ios": "https://dc.lft.to/lastmile_qr_scan", "android": "https://dc.lft.to/lastmile_qr_scan"}, "lon": -77.04591483333333, "fusion_lon": 0.0, "is_disabled": 0, "lat": 38.90866033333333, "bike_id": "35d11ccbcb1aa743a33d2452820ab8ab", "name": "35d11ccbcb1aa743a33d2452820ab8ab", "is_reserved": 0, "fusion_lat": 0.0}, {"type": "electric_bike", "rental_uris": {"ios": "https://dc.lft.to/lastmile_qr_scan", "android": "https://dc.lft.to/lastmile_qr_scan"}, "lon": -77.0372235, "fusion_lon": 0.0, "is_disabled": 0, "lat": 38.92024983333334, "bike_id": "0502b08240f952ebec52dfbe17ba1bd7", "name": "0502b08240f952ebec52dfbe17ba1bd7", "is_reserved": 0, "fusion_lat": 0.0}, {"type": "electric_scooter", "rental_uris": {"ios": "https://dc.lft.to/lastmile_qr_scan", "android": "https://dc.lft.to/lastmile_qr_scan"}, "lon": -77.03636083333333, "fusion_lon": 0.0, "is_disabled": 0, "lat": 38.916834, "bike_id": "0f3ede18c5fdd8bd87a85cfcb7d851a4", "name": "0f3ede18c5fdd8bd87a85cfcb7d851a4", "is_reserved": 0, "fusion_lat": 0.0}, {"type": "electric_scooter", "rental_uris": {"ios": "https://dc.lft.to/lastmile_qr_scan", "android": "https://dc.lft.to/lastmile_qr_scan"}, "lon": -77.03867833333334, "fusion_lon": 0.0, "is_disabled": 0, "lat": 38.91032833333333, "bike_id": "20ba6623bc1f8d17c522d3e02f8d6174", "name": "20ba6623bc1f8d17c522d3e02f8d6174", "is_reserved": 0, "fusion_lat": 0.0}, {"type": "electric_scooter", "rental_uris": {"ios": "https://dc.lft.to/lastmile_qr_scan", "android": "https://dc.lft.to/lastmile_qr_scan"}, "lon": -77.02986966666667, "fusion_lon": 0.0, "is_disabled": 0, "lat": 38.90512066666667, "bike_id": "4b0622ec16254ccd05a58b3fbb875e6d", "name": "4b0622ec16254ccd05a58b3fbb875e6d", "is_reserved": 0, "fusion_lat": 0.0}, {"type": "electric_scooter", "rental_uris": {"ios": "https://dc.lft.to/lastmile_qr_scan", "android": "https://dc.lft.to/lastmile_qr_scan"}, "lon": -77.05010216666666, "fusion_lon": 0.0, "is_disabled": 0, "lat": 38.90672933333333, "bike_id": "e5b1536ac74ca841cd89150e4531c79e", "name": "e5b1536ac74ca841cd89150e4531c79e", "is_reserved": 0, "fusion_lat": 0.0}, {"type": "electric_scooter", "rental_uris": {"ios": "https://dc.lft.to/lastmile_qr_scan", "android": "https://dc.lft.to/lastmile_qr_scan"}, "lon": -77.017652, "fusion_lon": 0.0, "is_disabled": 0, "lat": 38.88146583333333, "bike_id": "367b4c86a7af7d49fe6e72926959d2b2", "name": "367b4c86a7af7d49fe6e72926959d2b2", "is_reserved": 0, "fusion_lat": 0.0}, {"type": "electric_scooter", "rental_uris": {"ios": "https://dc.lft.to/lastmile_qr_scan", "android": "https://dc.lft.to/lastmile_qr_scan"}, "lon": -77.02822933333333, "fusion_lon": 0.0, "is_disabled": 0, "lat": 38.88732783333333, "bike_id": "6ee494ef9a9158c11ccfff29e11c9d5a", "name": "6ee494ef9a9158c11ccfff29e11c9d5a", "is_reserved": 0, "fusion_lat": 0.0}, {"type": "electric_scooter", "rental_uris": {"ios": "https://dc.lft.to/lastmile_qr_scan", "android": "https://dc.lft.to/lastmile_qr_scan"}, "lon": -76.98518783333333, "fusion_lon": 0.0, "is_disabled": 0, "lat": 38.915509, "bike_id": "a33d6a7deb790544f7fcff5d01aff0f1", "name": "a33d6a7deb790544f7fcff5d01aff0f1", "is_reserved": 0, "fusion_lat": 0.0}, {"type": "electric_scooter", "rental_uris": {"ios": "https://dc.lft.to/lastmile_qr_scan", "android": "https://dc.lft.to/lastmile_qr_scan"}, "lon": -77.0546735, "fusion_lon": 0.0, "is_disabled": 0, "lat": 38.8960895, "bike_id": "5269295645a96bff5e92691b74c13fd5", "name": "5269295645a96bff5e92691b74c13fd5", "is_reserved": 0, "fusion_lat": 0.0}, {"type": "electric_scooter", "rental_uris": {"ios": "https://dc.lft.to/lastmile_qr_scan", "android": "https://dc.lft.to/lastmile_qr_scan"}, "lon": -77.03862633333334, "fusion_lon": 0.0, "is_disabled": 0, "lat": 38.91174616666667, "bike_id": "647c08da0ed2041086fb792d70691072", "name": "647c08da0ed2041086fb792d70691072", "is_reserved": 0, "fusion_lat": 0.0}, {"type": "electric_scooter", "rental_uris": {"ios": "https://dc.lft.to/lastmile_qr_scan", "android": "https://dc.lft.to/lastmile_qr_scan"}, "lon": -77.022836, "fusion_lon": 0.0, "is_disabled": 0, "lat": 38.924191666666665, "bike_id": "f61a8c2406e6a818eb0f99697baa17d4", "name": "f61a8c2406e6a818eb0f99697baa17d4", "is_reserved": 0, "fusion_lat": 0.0}, {"type": "electric_scooter", "rental_uris": {"ios": "https://dc.lft.to/lastmile_qr_scan", "android": "https://dc.lft.to/lastmile_qr_scan"}, "lon": -77.026153, "fusion_lon": 0.0, "is_disabled": 0, "lat": 38.914110666666666, "bike_id": "bf538e21ec18d8868a991560b99cc663", "name": "bf538e21ec18d8868a991560b99cc663", "is_reserved": 0, "fusion_lat": 0.0}, {"type": "electric_scooter", "rental_uris": {"ios": "https://dc.lft.to/lastmile_qr_scan", "android": "https://dc.lft.to/lastmile_qr_scan"},