{"data": {"bikes": [{"lat": 38.922397, "is_disabled": 0, "type": "electric_scooter", "lon": -77.042566, "bike_id": "dfcb2a9d3504e71ef0b99a762a5f64a6", "fusion_lat": 0.0, "name": "dfcb2a9d3504e71ef0b99a762a5f64a6", "is_reserved": 0, "rental_uris": {"android": "https://dc.lft.to/lastmile_qr_scan", "ios": "https://dc.lft.to/lastmile_qr_scan"}, "fusion_lon": 0.0}, {"lat": 38.93201116666667, "is_disabled": 0, "type": "electric_scooter", "lon": -77.0443315, "bike_id": "16ea6095a7a6eb47da1ee00b2d5c3266", "fusion_lat": 0.0, "name": "16ea6095a7a6eb47da1ee00b2d5c3266", "is_reserved": 0, "rental_uris": {"android": "https://dc.lft.to/lastmile_qr_scan", "ios": "https://dc.lft.to/lastmile_qr_scan"}, "fusion_lon": 0.0}, {"lat": 39.0341325, "is_disabled": 0, "type": "electric_bike", "lon": -77.042511, "bike_id": "631e621f27ec430533ac6d47fe3ca19e", "fusion_lat": 0.0, "name": "631e621f27ec430533ac6d47fe3ca19e", "is_reserved": 0, "rental_uris": {"android": "https://dc.lft.to/lastmile_qr_scan", "ios": "https://dc.lft.to/lastmile_qr_scan"}, "fusion_lon": 0.0}, {"lat": 38.917098, "is_disabled": 0, "type": "electric_scooter", "lon": -77.02942033333333, "bike_id": "9f403585a8cf8e70db122637d3377f09", "fusion_lat": 0.0, "name": "9f403585a8cf8e70db122637d3377f09", "is_reserved": 0, "rental_uris": {"android": "https://dc.lft.to/lastmile_qr_scan", "ios": "https://dc.lft.to/lastmile_qr_scan"}, "fusion_lon": 0.0}, {"lat": 38.87783133333333, "is_disabled": 0, "type": "electric_scooter", "lon": -76.9942075, "bike_id": "8faa07d528b662a7155e7f4abc023ecd", "fusion_lat": 0.0, "name": "8faa07d528b662a7155e7f4abc023ecd", "is_reserved": 0, "rental_uris": {"android": "https://dc.lft.to/lastmile_qr_scan", "ios": "https://dc.lft.to/lastmile_qr_scan"}, "fusion_lon": 0.0}, {"lat": 38.93293966666667, "is_disabled": 0, "type": "electric_scooter", "lon": -77.03594666666666, "bike_id": "7e22af132cb19c1755b97755b7c68341", "fusion_lat": 0.0, "name": "7e22af132cb19c1755b97755b7c68341", "is_reserved": 0, "rental_uris": {"android": "https://dc.lft.to/lastmile_qr_scan", "ios": "https://dc.lft.to/lastmile_qr_scan"}, "fusion_lon": 0.0}, {"lat": 38.922144833333334, "is_disabled": 0, "type": "electric_bike", "lon": -76.9879845, "bike_id": "581e2419997aab63f39431f8f7df7281", "fusion_lat": 0.0, "name": "581e2419997aab63f39431f8f7df7281", "is_reserved": 0, "rental_uris": {"android": "https://dc.lft.to/lastmile_qr_scan", "ios": "https://dc.lft.to/lastmile_qr_scan"}, "fusion_lon": 0.0}, {"lat": 38.89756633333333, "is_disabled": 0, "type": "electric_scooter", "lon": -77.05494316666666, "bike_id": "198501326e70963bb66486df8ace934c", "fusion_lat": 0.0, "name": "198501326e70963bb66486df8ace934c", "is_reserved": 0, "rental_uris": {"android": "https://dc.lft.to/lastmile_qr_scan", "ios": "https://dc.lft.to/lastmile_qr_scan"}, "fusion_lon": 0.0}, {"lat": 38.87628016666667, "is_disabled": 0, "type": "electric_scooter", "lon": -76.9652985, "bike_id": "24cea704624b50ff458e5058bef898bc", "fusion_lat": 0.0, "name": "24cea704624b50ff458e5058bef898bc", "is_reserved": 0, "rental_uris": {"android": "https://dc.lft.to/lastmile_qr_scan", "ios": "https://dc.lft.to/lastmile_qr_scan"}, "fusion_lon": 0.0}, {"lat": 38.915648833333336, "is_disabled": 0, "type": "electric_scooter", "lon": -77.03150916666667, "bike_id": "e042eeaa2793de2f2dd8cb59c01d6ad8", "fusion_lat": 0.0, "name": "e042eeaa2793de2f2dd8cb59c01d6ad8", "is_reserved": 0, "rental_uris": {"android": "https://dc.lft.to/lastmile_qr_scan", "ios": "https://dc.lft.to/lastmile_qr_scan"}, "fusion_lon": 0.0}, {"lat": 38.902026166666666, "is_disabled": 0, "type": "electric_scooter", "lon": -77.0218345, "bike_id": "a7d4e6cb47c7269adff628767f2adbcc", "fusion_lat": 0.0, "name": "a7d4e6cb47c7269adff628767f2adbcc", "is_reserved": 0, "rental_uris": {"android": "https://dc.lft.to/lastmile_qr_scan", "ios": "https://dc.lft.to/lastmile_qr_scan"}, "fusion_lon": 0.0}, {"lat": 38.922438166666666, "is_disabled": 0, "type": "electric_scooter", "lon": -77.02200833333333, "bike_id": "f8262b23c271ca3ea2ea6e1726ebe91d", "fusion_lat": 0.0, "name": "f8262b23c271ca3ea2ea6e1726ebe91d", "is_reserved": 0, "rental_uris": {"android": "https://dc.lft.to/lastmile_qr_scan", "ios": "https://dc.lft.to/lastmile_qr_scan"}, "fusion_lon": 0.0}, {"lat": 38.94821133333333, "is_disabled": 0, "type": "electric_scooter", "lon": -76.99909466666666, "bike_id": "9d09e9e0c6c3e7ac65ba245be3c0d005", "fusion_lat": 0.0, "name": "9d09e9e0c6c3e7ac65ba245be3c0d005", "is_reserved": 0, "rental_uris": {"android": "https://dc.lft.to/lastmile_qr_scan", "ios": "https://dc.lft.to/lastmile_qr_scan"}, "fusion_lon": 0.0}, {"lat": 38.91649233333333, "is_disabled": 0, "type": "electric_scooter", "lon": -77.03203066666667, "bike_id": "52f5ad7da56a8ff8d38ff41c12ac877b", "fusion_lat": 0.0, "name": "52f5ad7da56a8ff8d38ff41c12ac877b", "is_reserved": 0, "rental_uris": {"android": "https://dc.lft.to/lastmile_qr_scan", "ios": "https://dc.lft.to/lastmile_qr_scan"}, "fusion_lon": 0.0}, {"lat": 38.89737183333333, "is_disabled": 0, "type": "electric_scooter", "lon": -77.02177533333334, "bike_id": "325fe6cdb8ea6eee75f0dc7dbadc7e9f", "fusion_lat": 0.0, "name": "325fe6cdb8ea6eee75f0dc7dbadc7e9f", "is_reserved": 0, "rental_uris": {"android": "https://dc.lft.to/lastmile_qr_scan", "ios": "https://dc.lft.to/lastmile_qr_scan"}, "fusion_lon": 0.0}, {"lat": 38.920353, "is_disabled": 0, "type": "electric_scooter", "lon": -77.04181833333334, "bike_id": "0c194aa907761f0f8b60edeb7e443f92", "fusion_lat": 0.0, "name": "0c194aa907761f0f8b60edeb7e443f92", "is_reserved": 0, "rental_uris": {"android": "https://dc.lft.to/lastmile_qr_scan", "ios": "https://dc.lft.to/lastmile_qr_scan"}, "fusion_lon": 0.0}, {"lat": 38.914125, "is_disabled": 0, "type": "electric_scooter", "lon": -77.02214316666667, "bike_id": "c4793bb16c10571f4d20081172ed3b47", "fusion_lat": 0.0, "name": "c4793bb16c10571f4d20081172ed3b47", "is_reserved": 0, "rental_uris": {"android": "https://dc.lft.to/lastmile_qr_scan", "ios": "https://dc.lft.to/lastmile_qr_scan"}, "fusion_lon": 0.0}, {"lat": 38.87667883333334, "is_disabled": 0, "type": "electric_scooter", "lon": -77.00437483333333, "bike_id": "aab370186f33a1f5f3c068a0199c9f4f", "fusion_lat": 0.0, "name": "aab370186f33a1f5f3c068a0199c9f4f", "is_reserved": 0, "rental_uris": {"android": "https://dc.lft.to/lastmile_qr_scan", "ios": "https://dc.lft.to/lastmile_qr_scan"}, "fusion_lon": 0.0}, {"lat": 38.90386433333333, "is_disabled": 0, "type": "electric_scooter", "lon": -77.02514433333333, "bike_id": "14f1cb8679f6416a0ddd59730695d32b", "fusion_lat": 0.0, "name": "14f1cb8679f6416a0ddd59730695d32b", "is_reserved": 0, "rental_uris": {"android": "https://dc.lft.to/lastmile_qr_scan", "ios": "https://dc.lft.to/lastmile_qr_scan"}, "fusion_lon": 0.0}, {"lat": 38.962281, "is_disabled": 0, "type": "electric_bike", "lon": -77.02625683333333, "bike_id": "cf0e636c819bd7e89bc2b390af3d4686", "fusion_lat": 0.0, "name": "cf0e636c819bd7e89bc2b390af3d4686", "is_reserved": 0, "rental_uris": {"android": "https://dc.lft.to/lastmile_qr_scan", "ios": "https://dc.lft.to/lastmile_qr_scan"}, "fusion_lon": 0.0}, {"lat": 38.90565433333333, "is_disabled": 0, "type": "electric_scooter", "lon": -77.0467155, "bike_id": "9e7bc92cb06bf29fd6c7e6fef818b35e", "fusion_lat": 0.0, "name": "9e7bc92cb06bf29fd6c7e6fef818b35e", "is_reserved": 0, "rental_uris": {"android": "https://dc.lft.to/lastmile_qr_scan", "ios": "https://dc.lft.to/lastmile_qr_scan"}, "fusion_lon": 0.0}, {"lat": 38.9233535, "is_disabled": 0, "type": "electric_bike", "lon": -77.03906516666666, "bike_id": "da4f9159cabd567cfd80d74e9216b2f6", "fusion_lat": 0.0, "name": "da4f9159cabd567cfd80d74e9216b2f6", "is_reserved": 0, "rental_uris": {"android": "https://dc.lft.to/lastmile_qr_scan", "ios": "https://dc.lft.to/lastmile_qr_scan"}, "fusion_lon": 0.0}, {"lat": 38.913764666666665, "is_disabled": 0, "type": "electric_scooter", "lon": -77.02000733333334, "bike_id": "fe9a6c7a949a0ac87921955d5dddb096", "fusion_lat": 0.0, "name": "fe9a6c7a949a0ac87921955d5dddb096", "is_reserved": 0, "rental_uris": {"android": "https://dc.lft.to/lastmile_qr_scan", "ios": "https://dc.lft.to/lastmile_qr_scan"}, "fusion_lon": 0.0}, {"lat": 38.933366666666664, "is_disabled": 0, "type": "electric_bike", "lon": -77.04225383333333, "bike_id": "a00c7d7657dc64d6d4ab0263b863ac10", "fusion_lat": 0.0, "name": "a00c7d7657dc64d6d4ab0263b863ac10", "is_reserved": 0, "rental_uris": {"android": "https://dc.lft.to/lastmile_qr_scan", "ios": "https://dc.lft.to/lastmile_qr_scan"}, "fusion_lon": 0.0}, {"lat": 38.9177165, "is_disabled": 0, "type": "electric_scooter", "lon": -77.03187016666666, "bike_id": "9c8cc54c222671b906b3011fe8d05021", "fusion_lat": 0.0, "name": "9c8cc54c222671b906b3011fe8d05021", "is_reserved": 0, "rental_uris": {"android": "https://dc.lft.to/lastmile_qr_scan", "ios": "https://dc.lft.to/lastmile_qr_scan"}, "fusion_lon": 0.0}, {"lat": 38.928773, "is_disabled": 0, "type": "electric_bike", "lon": -77.01233433333333, "bike_id": "24ac86c730265734c3fd5486928d9a15", "fusion_lat": 0.0, "name": "24ac86c730265734c3fd5486928d9a15", "is_reserved": 0, "rental_uris": {"android": "https://dc.lft.to/lastmile_qr_scan", "ios": "https://dc.lft.to/lastmile_qr_scan"}, "fusion_lon": 0.0}, {"lat": 38.952859833333335, "is_disabled": 0, "type": "electric_bike", "lon": -76.94599016666666, "bike_id": "0d82d70cb42fd37cce8ceb169315b223", "fusion_lat": 0.0, "name": "0d82d70cb42fd37cce8ceb169315b223", "is_reserved": 0, "rental_uris": {"android": "https://dc.lft.to/lastmile_qr_scan", "ios": "https://dc.lft.to/lastmile_qr_scan"}, "fusion_lon": 0.0}, {"lat": 38.892228, "is_disabled": 0, "type": "electric_scooter", "lon": -77.04862433333334, "bike_id": "da9ff2d880a4085b18a79abf1b80e2cf", "fusion_lat": 0.0, "name": "da9ff2d880a4085b18a79abf1b80e2cf", "is_reserved": 0, "rental_uris": {"android": "https://dc.lft.to/lastmile_qr_scan", "ios": "https://dc.lft.to/lastmile_qr_scan"}, "fusion_lon": 0.0}, {"lat": 38.89904466666667, "is_disabled": 0, "type": "electric_scooter", "lon": -76.93353866666666, "bike_id": "cbded717a481d45bf3ff681f6e616bdc", "fusion_lat": 0.0, "name": "cbded717a481d45bf3ff681f6e616bdc", "is_reserved": 0, "rental_uris": {"android": "https://dc.lft.to/lastmile_qr_scan", "ios": "https://dc.lft.to/lastmile_qr_scan"}, "fusion_lon": 0.0}, {"lat": 38.903517666666666, "is_disabled": 0, "type": "electric_scooter", "lon": -77.04495266666666, "bike_id": "83d7ae61794976cc95fb8afd6a0bcbbb", "fusion_lat": 0.0, "name": "83d7ae61794976cc95fb8afd6a0bcbbb", "is_reserved": 0, "rental_uris": {"android": "https://dc.lft.to/lastmile_qr_scan", "ios": "https://dc.lft.to/lastmile_qr_scan"}, "fusion_lon": 0.0}, {"lat": 38.923733166666665, "is_disabled": 0, "type": "electric_scooter", "lon": -77.0313285, "bike_id": "7293e14c8d0b40f032e6bf5407885114", "fusion_lat": 0.0, "name": "7293e14c8d0b40f032e6bf5407885114", "is_reserved": 0, "rental_uris": {"android": "https://dc.lft.to/lastmile_qr_scan", "ios": "https://dc.lft.to/lastmile_qr_scan"}, "fusion_lon": 0.0}, {"lat": 38.91281983333333, "is_disabled": 0, "type": "electric_scooter", "lon": -77.04509416666667, "bike_id": "bfcafd81b47cc3c711bd0a945f61761b", "fusion_lat": 0.0, "name": "bfcafd81b47cc3c711bd0a945f61761b", "is_reserved": 0, "rental_uris": {"android": "https://dc.lft.to/lastmile_qr_scan", "ios": "https://dc.lft.to/lastmile_qr_scan"}, "fusion_lon": 0.0}, {"lat": 38.899924666666664, "is_disabled": 0, "type": "electric_bike", "lon": -76.998239, "bike_id": "5bd128c3fcc434326d0f35d77c477066", "fusion_lat": 0.0, "name": "5bd128c3fcc434326d0f35d77c477066", "is_reserved": 0, "rental_uris": {"android": "https://dc.lft.to/lastmile_qr_scan", "ios": "https://dc.lft.to/lastmile_qr_scan"}, "fusion_lon": 0.0}, {"lat": 38.895677166666665, "is_disabled": 0, "type": "electric_scooter", "lon": -76.93037466666667, "bike_id": "ee55e1a29be94707436fecb3b052f967", "fusion_lat": 0.0, "name": "ee55e1a29be94707436fecb3b052f967", "is_reserved": 0, "rental_uris": {"android": "https://dc.lft.to/lastmile_qr_scan", "ios": "https://dc.lft.to/lastmile_qr_scan"}, "fusion_lon": 0.0}, {"lat": 38.99005833333333, "is_disabled": 0, "type": "electric_bike", "lon": -77.00438666666666, "bike_id": "07ec6a9d22a9e978ff2b01d22bd44734", "fusion_lat": 0.0, "name": "07ec6a9d22a9e978ff2b01d22bd44734", "is_reserved": 0, "rental_uris": {"android": "https://dc.lft.to/lastmile_qr_scan", "ios": "https://dc.lft.to/lastmile_qr_scan"}, "fusion_lon": 0.0}, {"lat": 38.93956816666667, "is_disabled": 0, "type": "electric_bike", "lon": -77.36110233333333, "bike_id": "8edef405c12d616ebbfdb93f5bc0af1a", "fusion_lat": 0.0, "name": "8edef405c12d616ebbfdb93f5bc0af1a", "is_reserved": 0, "rental_uris": {"android": "https://dc.lft.to/lastmile_qr_scan", "ios": "https://dc.lft.to/lastmile_qr_scan"}, "fusion_lon": 0.0}, {"lat": 38.93082533333333, "is_disabled": 0, "type": "electric_scooter", "lon": -77.02557116666667, "bike_id": "935f56ee4ce704ecd73f8543b18363da", "fusion_lat": 0.0, "name": "935f56ee4ce704ecd73f8543b18363da", "is_reserved": 0, "rental_uris": {"android": "https://dc.lft.to/lastmile_qr_scan", "ios": "https://dc.lft.to/lastmile_qr_scan"}, "fusion_lon": 0.0}, {"lat": 38.9359055, "is_disabled": 0, "type": "electric_scooter", "lon": -77.03746633333333, "bike_id": "69af006583aad5b41270eb9e43c97594", "fusion_lat": 0.0, "name": "69af006583aad5b41270eb9e43c97594", "is_reserved": 0, "rental_uris": {"android": "https://dc.lft.to/lastmile_qr_scan", "ios": "https://dc.lft.to/lastmile_qr_scan"}, "fusion_lon": 0.0}, {"lat": 38.933613, "is_disabled": 0, "type": "electric_scooter", "lon": -77.057286, "bike_id": "fdc7cf52413f0645d4c458e6c75519b1", "fusion_lat": 0.0, "name": "fdc7cf52413f0645d4c458e6c75519b1", "is_reserved": 0, "rental_uris": {"android": "https://dc.lft.to/lastmile_qr_scan", "ios": "https://dc.lft.to/lastmile_qr_scan"}, "fusion_lon": 0.0}, {"lat": 38.893903333333334, "is_disabled": 0, "type": "electric_scooter", "lon": -76.949992, "bike_id": "a8e4374eb9a7faef332ec797493f6ea4", "fusion_lat": 0.0, "name": "a8e4374eb9a7faef332ec797493f6ea4", "is_reserved": 0, "rental_uris": {"android": "https://dc.lft.to/lastmile_qr_scan", "ios": "https://dc.lft.to/lastmile_qr_scan"}, "fusion_lon": 0.0}, {"lat": 38.9028635, "is_disabled": 0, "type": "electric_scooter", "lon": -77.03861883333333, "bike_id": "5f84a593ddaac30edb635175435dfaba", "fusion_lat": 0.0, "name": "5f84a593ddaac30edb635175435dfaba", "is_reserved": 0, "rental_uris": {"android": "https://dc.lft.to/lastmile_qr_scan", "ios": "https://dc.lft.to/lastmile_qr_scan"}, "fusion_lon": 0.0}, {"lat": 38.90763616666667, "is_disabled": 0, "type": "electric_scooter", "lon": -77.0703035, "bike_id": "85f644983b7685803e523deed6254509", "fusion_lat": 0.0, "name": "85f644983b7685803e523deed6254509", "is_reserved": 0, "rental_uris": {"android": "https://dc.lft.to/lastmile_qr_scan", "ios": "https://dc.lft.to/lastmile_qr_scan"}, "fusion_lon": 0.0}, {"lat": 38.903310833333336, "is_disabled": 0, "type": "electric_scooter", "lon": -76.97597216666666, "bike_id": "7ca7ca97a3fe2e8a815967dc61aa044b", "fusion_lat": 0.0, "name": "7ca7ca97a3fe2e8a815967dc61aa044b", "is_reserved": 0, "rental_uris": {"android": "https://dc.lft.to/lastmile_qr_scan", "ios": "https://dc.lft.to/lastmile_qr_scan"}, "fusion_lon": 0.0}, {"lat": 38.90734583333333, "is_disabled": 0, "type": "electric_scooter", "lon": -76.9354875, "bike_id": "c7d30e02f2b673577409d796770e34b9", "fusion_lat": 0.0, "name": "c7d30e02f2b673577409d796770e34b9", "is_reserved": 0, "rental_uris": {"android": "https://dc.lft.to/lastmile_qr_scan", "ios": "https://dc.lft.to/lastmile_qr_scan"}, "fusion_lon": 0.0}, {"lat": 38.866573833333334, "is_disabled": 0, "type": "electric_scooter", "lon": -76.98884416666667, "bike_id": "de2c87638cd483118c00a77cc535a04e", "fusion_lat": 0.0, "name": "de2c87638cd483118c00a77cc535a04e", "is_reserved": 0, "rental_uris": {"android": "https://dc.lft.to/lastmile_qr_scan", "ios": "https://dc.lft.to/lastmile_qr_scan"}, "fusion_lon": 0.0}, {"lat": 38.91773716666667, "is_disabled": 0, "type": "electric_scooter", "lon": -77.04344533333334, "bike_id": "7f22989d543cf32513726f00a1c8b4f0", "fusion_lat": 0.0, "name": "7f22989d543cf32513726f00a1c8b4f0", "is_reserved": 0, "rental_uris": {"android": "https://dc.lft.to/lastmile_qr_scan", "ios": "https://dc.lft.to/lastmile_qr_scan"}, "fusion_lon": 0.0}, {"lat": 38.92346583333333, "is_disabled": 0, "type": "electric_scooter", "lon": -77.03522366666667, "bike_id": "9f23da8575a13efd79ecd4ad14565c6a", "fusion_lat": 0.0, "name": "9f23da8575a13efd79ecd4ad14565c6a", "is_reserved": 0, "rental_uris": {"android": "https://dc.lft.to/lastmile_qr_scan", "ios": "https://dc.lft.to/lastmile_qr_scan"}, "fusion_lon": 0.0}, {"lat": 38.90962, "is_disabled": 0, "type": "electric_scooter", "lon": -77.02381283333334, "bike_id": "f14f5b0a2a7223ff0283041d32051ef4", "fusion_lat": 0.0, "name": "f14f5b0a2a7223ff0283041d32051ef4", "is_reserved": 0, "rental_uris": {"android": "https://dc.lft.to/lastmile_qr_scan", "ios": "https://dc.lft.to/lastmile_qr_scan"}, "fusion_lon": 0.0}, {"lat": 38.9257265, "is_disabled": 0, "type": "electric_scooter", "lon": -77.057716, "bike_id": "d878ca380f7b4feb2a755f80815a26ab", "fusion_lat": 0.0, "name": "d878ca380f7b4feb2a755f80815a26ab", "is_reserved": 0, "rental_uris": {"android": "https://dc.lft.to/lastmile_qr_scan", "ios": "https://dc.lft.to/lastmile_qr_scan"}, "fusion_lon": 0.0}, {"lat": 38.909478666666665, "is_disabled": 0, "type": "electric_scooter", "lon": -77.03446166666667, "bike_id": "9b8178519496d203dc77b5c27852981a", "fusion_lat": 0.0, "name": "9b8178519496d203dc77b5c27852981a", "is_reserved": 0, "rental_uris": {"android": "https://dc.lft.to/lastmile_qr_scan", "ios": "https://dc.lft.to/lastmile_qr_scan"}, "fusion_lon": 0.0}, {"lat": 38.806817, "is_disabled": 0, "type": "electric_bike", "lon": -77.08120583333333, "bike_id": "4ec93f5259dc73395fcd60a32745bde4", "fusion_lat": 0.0, "name": "4ec93f5259dc73395fcd60a32745bde4", "is_reserved": 0, "rental_uris": {"android": "https://dc.lft.to/lastmile_qr_scan", "ios": "https://dc.lft.to/lastmile_qr_scan"}, "fusion_lon": 0.0}, {"lat": 38.909863, "is_disabled": 0, "type": "electric_scooter", "lon": -77.0319795, "bike_id": "42ba27294b423474e72d30c02863ad5b", "fusion_lat": 0.0, "name": "42ba27294b423474e72d30c02863ad5b", "is_reserved": 0, "rental_uris": {"android": "https://dc.lft.to/lastmile_qr_scan", "ios": "https://dc.lft.to/lastmile_qr_scan"}, "fusion_lon": 0.0}, {"lat": 38.912103, "is_disabled": 0, "type": "electric_scooter", "lon": -77.02758883333334, "bike_id": "17bcfacf10b0031bb254019a106e6c4d", "fusion_lat": 0.0, "name": "17bcfacf10b0031bb254019a106e6c4d", "is_reserved": 0, "rental_uris": {"android": "https://dc.lft.to/lastmile_qr_scan", "ios": "https://dc.lft.to/lastmile_qr_scan"}, "fusion_lon": 0.0}, {"lat": 38.9196145, "is_disabled": 0, "type": "electric_bike", "lon": -76.97275516666667, "bike_id": "bdc472f9744bc39cc6e7eb5162d4bacb", "fusion_lat": 0.0, "name": "bdc472f9744bc39cc6e7eb5162d4bacb", "is_reserved": 0, "rental_uris": {"android": "https://dc.lft.to/lastmile_qr_scan", "ios": "https://dc.lft.to/lastmile_qr_scan"}, "fusion_lon": 0.0}, {"lat": 38.936694, "is_disabled": 0, "type": "electric_bike", "lon": -76.95203816666667, "bike_id": "cac051524e5b8b0d8dce75db584813ed", "fusion_lat": 0.0, "name": "cac051524e5b8b0d8dce75db584813ed", "is_reserved": 0, "rental_uris": {"android": "https://dc.lft.to/lastmile_qr_scan", "ios": "https://dc.lft.to/lastmile_qr_scan"}, "fusion_lon": 0.0}, {"lat": 38.947220333333334, "is_disabled": 0, "type": "electric_scooter", "lon": -77.0226335, "bike_id": "d3ca2e0a920abc8757e5e53e6460a46e", "fusion_lat": 0.0, "name": "d3ca2e0a920abc8757e5e53e6460a46e", "is_reserved": 0, "rental_uris": {"android": "https://dc.lft.to/lastmile_qr_scan", "ios": "https://dc.lft.to/lastmile_qr_scan"}, "fusion_lon": 0.0}, {"lat": 38.93012216666666, "is_disabled": 0, "type": "electric_bike", "lon": -77.21653383333333, "bike_id": "bd341a1a5a68306e8ccb19e6a54326a3", "fusion_lat": 0.0, "name": "bd341a1a5a68306e8ccb19e6a54326a3", "is_reserved": 0, "rental_uris": {"android": "https://dc.lft.to/lastmile_qr_scan", "ios": "https://dc.lft.to/lastmile_qr_scan"}, "fusion_lon": 0.0}, {"lat": 38.895037, "is_disabled": 0, "type": "electric_scooter", "lon": -77.02190883333333, "bike_id": "6a9d5ae87658365f483a5c9e0121d70e", "fusion_lat": 0.0, "name": "6a9d5ae87658365f483a5c9e0121d70e", "is_reserved": 0, "rental_uris": {"android": "https://dc.lft.to/lastmile_qr_scan", "ios": "https://dc.lft.to/lastmile_qr_scan"}, "fusion_lon": 0.0}, {"lat": 38.904012, "is_disabled": 0, "type": "electric_scooter", "lon": -77.034788, "bike_id": "f6c4ef25f1c13fa503af2896dba5a211", "fusion_lat": 0.0, "name": "f6c4ef25f1c13fa503af2896dba5a211", "is_reserved": 0, "rental_uris": {"android": "https://dc.lft.to/lastmile_qr_scan", "ios": "https://dc.lft.to/lastmile_qr_scan"}, "fusion_lon": 0.0}, {"lat": 38.90727483333333, "is_disabled": 0, "type": "electric_scooter", "lon": -77.03442616666666, "bike_id": "0fdfaa5728f690abf6e0ae0f95f541c5", "fusion_lat": 0.0, "name": "0fdfaa5728f690abf6e0ae0f95f541c5", "is_reserved": 0, "rental_uris": {"android": "https://dc.lft.to/lastmile_qr_scan", "ios": "https://dc.lft.to/lastmile_qr_scan"}, "fusion_lon": 0.0}, {"lat": 38.90214533333334, "is_disabled": 0, "type": "electric_scooter", "lon": -76.94590866666667, "bike_id": "2e910c9d554d8137ca2900f80352c91d", "fusion_lat": 0.0, "name": "2e910c9d554d8137ca2900f80352c91d", "is_reserved": 0, "rental_uris": {"android": "https://dc.lft.to/lastmile_qr_scan", "ios": "https://dc.lft.to/lastmile_qr_scan"}, "fusion_lon": 0.0}, {"lat": 38.917633333333335, "is_disabled": 0, "type": "electric_scooter", "lon": -77.03193733333333, "bike_id": "739294f1ce0c6ef913c707b9888478d7", "fusion_lat": 0.0, "name": "739294f1ce0c6ef913c707b9888478d7", "is_reserved": 0, "rental_uris": {"android": "https://dc.lft.to/lastmile_qr_scan", "ios": "https://dc.lft.to/lastmile_qr_scan"}, "fusion_lon": 0.0}, {"lat": 38.92019783333333, "is_disabled": 0, "type": "electric_scooter", "lon": -77.01435033333334, "bike_id": "a62179cd224e413593a92ea153931f6c", "fusion_lat": 0.0, "name": "a62179cd224e413593a92ea153931f6c", "is_reserved": 0, "rental_uris": {"android": "https://dc.lft.to/lastmile_qr_scan", "ios": "https://dc.lft.to/lastmile_qr_scan"}, "fusion_lon": 0.0}, {"lat": 38.9126735, "is_disabled": 0, "type": "electric_scooter", "lon": -77.0226025, "bike_id": "9951d768b3e8600ef10dc45aa0f26fe6", "fusion_lat": 0.0, "name": "9951d768b3e8600ef10dc45aa0f26fe6", "is_reserved": 0, "rental_uris": {"android": "https://dc.lft.to/lastmile_qr_scan", "ios": "https://dc.lft.to/lastmile_qr_scan"}, "fusion_lon": 0.0}, {"lat": 38.898229, "is_disabled": 0, "type": "electric_scooter", "lon": -77.02964066666667, "bike_id": "cd446b66b760a154614045bd8cf896b5", "fusion_lat": 0.0, "name": "cd446b66b760a154614045bd8cf896b5", "is_reserved": 0, "rental_uris": {"android": "https://dc.lft.to/lastmile_qr_scan", "ios": "https://dc.lft.to/lastmile_qr_scan"}, "fusion_lon": 0.0}, {"lat": 38.91793416666667, "is_disabled": 0, "type": "electric_scooter", "lon": -77.04037783333334, "bike_id": "8d40a07daec8259e60f8acaccd0aeda5", "fusion_lat": 0.0, "name": "8d40a07daec8259e60f8acaccd0aeda5", "is_reserved": 0, "rental_uris": {"android": "https://dc.lft.to/lastmile_qr_scan", "ios": "https://dc.lft.to/lastmile_qr_scan"}, "fusion_lon": 0.0}, {"lat": 38.9179885, "is_disabled": 0, "type": "electric_bike", "lon": -77.22332716666666, "bike_id": "10e7304460efe2d1f449a46e80d5a0ce", "fusion_lat": 0.0, "name": "10e7304460efe2d1f449a46e80d5a0ce", "is_reserved": 0, "rental_uris": {"android": "https://dc.lft.to/lastmile_qr_scan", "ios": "https://dc.lft.to/lastmile_qr_scan"}, "fusion_lon": 0.0}, {"lat": 38.896814166666665, "is_disabled": 0, "type": "electric_scooter", "lon": -77.05148983333333, "bike_id": "91a57fd0b4ebed0ef61187445894820e", "fusion_lat": 0.0, "name": "91a57fd0b4ebed0ef61187445894820e", "is_reserved": 0, "rental_uris": {"android": "https://dc.lft.to/lastmile_qr_scan", "ios": "https://dc.lft.to/lastmile_qr_scan"}, "fusion_lon": 0.0}, {"lat": 38.904022499999996, "is_disabled": 0, "type": "electric_scooter", "lon": -77.00575616666667, "bike_id": "ffafc908a0aaf8d739c653b8fe918caf", "fusion_lat": 0.0, "name": "ffafc908a0aaf8d739c653b8fe918caf", "is_reserved": 0, "rental_uris": {"android": "https://dc.lft.to/lastmile_qr_scan", "ios": "https://dc.lft.to/lastmile_qr_scan"}, "fusion_lon": 0.0}, {"lat": 38.876676333333336, "is_disabled": 0, "type": "electric_scooter", "lon": -77.00418933333333, "bike_id": "9dd26067c615517c9828b7c58d0b4aa4", "fusion_lat": 0.0, "name": "9dd26067c615517c9828b7c58d0b4aa4", "is_reserved": 0, "rental_uris": {"android": "https://dc.lft.to/lastmile_qr_scan", "ios": "https://dc.lft.to/lastmile_qr_scan"}, "fusion_lon": 0.0}, {"lat": 38.958777833333336, "is_disabled": 0, "type": "electric_bike", "lon": -77.01035516666667, "bike_id": "88486bdf20e1d4e23038477ad141aa96", "fusion_lat": 0.0, "name": "88486bdf20e1d4e23038477ad141aa96", "is_reserved": 0, "rental_uris": {"android": "https://dc.lft.to/lastmile_qr_scan", "ios": "https://dc.lft.to/lastmile_qr_scan"}, "fusion_lon": 0.0}, {"lat": 38.93863983333333, "is_disabled": 0, "type": "electric_scooter", "lon": -77.02650116666666, "bike_id": "9fef5cb76b706bfdbdd04ab320da4103", "fusion_lat": 0.0, "name": "9fef5cb76b706bfdbdd04ab320da4103", "is_reserved": 0, "rental_uris": {"android": "https://dc.lft.to/lastmile_qr_scan", "ios": "https://dc.lft.to/lastmile_qr_scan"}, "fusion_lon": 0.0}, {"lat": 38.917760333333334, "is_disabled": 0, "type": "electric_scooter", "lon": -77.0229865, "bike_id": "750b9173e78f9d94affd8934424cbb7a", "fusion_lat": 0.0, "name": "750b9173e78f9d94affd8934424cbb7a", "is_reserved": 0, "rental_uris": {"android": "https://dc.lft.to/lastmile_qr_scan", "ios": "https://dc.lft.to/lastmile_qr_scan"}, "fusion_lon": 0.0}, {"lat": 38.9443215, "is_disabled": 0, "type": "electric_scooter", "lon": -77.06335816666666, "bike_id": "8f3cd5d78f7c8b6757065016192dd5c6", "fusion_lat": 0.0, "name": "8f3cd5d78f7c8b6757065016192dd5c6", "is_reserved": 0, "rental_uris": {"android": "https://dc.lft.to/lastmile_qr_scan", "ios": "https://dc.lft.to/lastmile_qr_scan"}, "fusion_lon": 0.0}, {"lat": 38.899616, "is_disabled": 0, "type": "electric_scooter", "lon": -77.025762, "bike_id": "2f486116f086e355dad2c8bcb00a78d0", "fusion_lat": 0.0, "name": "2f486116f086e355dad2c8bcb00a78d0", "is_reserved": 0, "rental_uris": {"android": "https://dc.lft.to/lastmile_qr_scan", "ios": "https://dc.lft.to/lastmile_qr_scan"}, "fusion_lon": 0.0}, {"lat": 38.89606783333333, "is_disabled": 0, "type": "electric_scooter", "lon": -77.05470083333333, "bike_id": "ea09388c72fe072b35908f49fbc273ae", "fusion_lat": 0.0, "name": "ea09388c72fe072b35908f49fbc273ae", "is_reserved": 0, "rental_uris": {"android": "https://dc.lft.to/lastmile_qr_scan", "ios": "https://dc.lft.to/lastmile_qr_scan"}, "fusion_lon": 0.0}, {"lat": 38.91799066666667, "is_disabled": 0, "type": "electric_scooter", "lon": -77.034493, "bike_id": "4434d80c53b0487046bb7ce103f72649", "fusion_lat": 0.0, "name": "4434d80c53b0487046bb7ce103f72649", "is_reserved": 0, "rental_uris": {"android": "https://dc.lft.to/lastmile_qr_scan", "ios": "https://dc.lft.to/lastmile_qr_scan"}, "fusion_lon": 0.0}, {"lat": 38.910964166666666, "is_disabled": 0, "type": "electric_scooter", "lon": -77.0484545, "bike_id": "47997234e262baf9745d3271099e35d3", "fusion_lat": 0.0, "name": "47997234e262baf9745d3271099e35d3", "is_reserved": 0, "rental_uris": {"android": "https://dc.lft.to/lastmile_qr_scan", "ios": "https://dc.lft.to/lastmile_qr_scan"}, "fusion_lon": 0.0}, {"lat": 38.9086535, "is_disabled": 0, "type": "electric_scooter", "lon": -77.012703, "bike_id": "82dc7707cb63b125a5a646b5d980d0da", "fusion_lat": 0.0, "name": "82dc7707cb63b125a5a646b5d980d0da", "is_reserved": 0, "rental_uris": {"android": "https://dc.lft.to/lastmile_qr_scan", "ios": "https://dc.lft.to/lastmile_qr_scan"}, "fusion_lon": 0.0}, {"lat": 38.914336666666664, "is_disabled": 0, "type": "electric_scooter", "lon": -77.0234425, "bike_id": "23c553d2b5866972977fb3d0813de7c8", "fusion_lat": 0.0, "name": "23c553d2b5866972977fb3d0813de7c8", "is_reserved": 0, "rental_uris": {"android": "https://dc.lft.to/lastmile_qr_scan", "ios": "https://dc.lft.to/lastmile_qr_scan"}, "fusion_lon": 0.0}, {"lat": 38.902524666666665, "is_disabled": 0, "type": "electric_scooter", "lon": -77.0622395, "bike_id": "a7bca9f5ba640125c0d0d412e2aa6d26", "fusion_lat": 0.0, "name": "a7bca9f5ba640125c0d0d412e2aa6d26", "is_reserved": 0, "rental_uris": {"android": "https://dc.lft.to/lastmile_qr_scan", "ios": "https://dc.lft.to/lastmile_qr_scan"}, "fusion_lon": 0.0}, {"lat": 38.91706216666667, "is_disabled": 0, "type": "electric_scooter", "lon": -77.04043683333333, "bike_id": "bb94f17fbbcbe7c939262b46d430d38c", "fusion_lat": 0.0, "name": "bb94f17fbbcbe7c939262b46d430d38c", "is_reserved": 0, "rental_uris": {"android": "https://dc.lft.to/lastmile_qr_scan", "ios": "https://dc.lft.to/lastmile_qr_scan"}, "fusion_lon": 0.0}, {"lat": 38.907378333333334, "is_disabled": 0, "type": "electric_scooter", "lon": -77.03442916666667, "bike_id": "e1708b323f90a75d54af34ae3d090add", "fusion_lat": 0.0, "name": "e1708b323f90a75d54af34ae3d090add", "is_reserved": 0, "rental_uris": {"android": "https://dc.lft.to/lastmile_qr_scan", "ios": "https://dc.lft.to/lastmile_qr_scan"}, "fusion_lon": 0.0}, {"lat": 38.910486666666664, "is_disabled": 0, "type": "electric_scooter", "lon": -77.038636, "bike_id": "226de30f0d142f01656055a2436db755", "fusion_lat": 0.0, "name": "226de30f0d142f01656055a2436db755", "is_reserved": 0, "rental_uris": {"android": "https://dc.lft.to/lastmile_qr_scan", "ios": "https://dc.lft.to/lastmile_qr_scan"}, "fusion_lon": 0.0}, {"lat": 38.88740933333333, "is_disabled": 0, "type": "electric_scooter", "lon": -77.02206066666666, "bike_id": "0eae832ee609c7cf4b01f7125b701660", "fusion_lat": 0.0, "name": "0eae832ee609c7cf4b01f7125b701660", "is_reserved": 0, "rental_uris": {"android": "https://dc.lft.to/lastmile_qr_scan", "ios": "https://dc.lft.to/lastmile_qr_scan"}, "fusion_lon": 0.0}, {"lat": 38.870808, "is_disabled": 0, "type": "electric_scooter", "lon": -76.96867666666667, "bike_id": "46ee8c8cc9a373dbabd649f8fab85ce8", "fusion_lat": 0.0, "name": "46ee8c8cc9a373dbabd649f8fab85ce8", "is_reserved": 0, "rental_uris": {"android": "https://dc.lft.to/lastmile_qr_scan", "ios": "https://dc.lft.to/lastmile_qr_scan"}, "fusion_lon": 0.0}, {"lat": 38.90073183333333, "is_disabled": 0, "type": "electric_scooter", "lon": -77.00211833333333, "bike_id": "af34228e63fffba995c6809b530a09f5", "fusion_lat": 0.0, "name": "af34228e63fffba995c6809b530a09f5", "is_reserved": 0, "rental_uris": {"android": "https://dc.lft.to/lastmile_qr_scan", "ios": "https://dc.lft.to/lastmile_qr_scan"}, "fusion_lon": 0.0}, {"lat": 38.902069, "is_disabled": 0, "type": "electric_scooter", "lon": -77.02368866666667, "bike_id": "a561d6b87111706920b6064d04e50528", "fusion_lat": 0.0, "name": "a561d6b87111706920b6064d04e50528", "is_reserved": 0, "rental_uris": {"android": "https://dc.lft.to/lastmile_qr_scan", "ios": "https://dc.lft.to/lastmile_qr_scan"}, "fusion_lon": 0.0}, {"lat": 38.9128805, "is_disabled": 0, "type": "electric_bike", "lon": -77.0449925, "bike_id": "a00a3d25bb15e9687661fcbb94a3b741", "fusion_lat": 0.0, "name": "a00a3d25bb15e9687661fcbb94a3b741", "is_reserved": 0, "rental_uris": {"android": "https://dc.lft.to/lastmile_qr_scan", "ios": "https://dc.lft.to/lastmile_qr_scan"}, "fusion_lon": 0.0}, {"lat": 38.87245433333333, "is_disabled": 0, "type": "electric_scooter", "lon": -76.9772755, "bike_id": "a49d1339138a7b71c400d65ca515c637", "fusion_lat": 0.0, "name": "a49d1339138a7b71c400d65ca515c637", "is_reserved": 0, "rental_uris": {"android": "https://dc.lft.to/lastmile_qr_scan", "ios": "https://dc.lft.to/lastmile_qr_scan"}, "fusion_lon": 0.0}, {"lat": 38.939242166666666, "is_disabled": 0, "type": "electric_scooter", "lon": -77.02799783333333, "bike_id": "9ec1f26478639790acef14a3050df82f", "fusion_lat": 0.0, "name": "9ec1f26478639790acef14a3050df82f", "is_reserved": 0, "rental_uris": {"android": "https://dc.lft.to/lastmile_qr_scan", "ios": "https://dc.lft.to/lastmile_qr_scan"}, "fusion_lon": 0.0}, {"lat": 38.85507283333333, "is_disabled": 0, "type": "electric_bike", "lon": -76.98425783333333, "bike_id": "8f118fb145d96dc918ee326632935285", "fusion_lat": 0.0, "name": "8f118fb145d96dc918ee326632935285", "is_reserved": 0, "rental_uris": {"android": "https://dc.lft.to/lastmile_qr_scan", "ios": "https://dc.lft.to/lastmile_qr_scan"}, "fusion_lon": 0.0}, {"lat": 38.908537333333335, "is_disabled": 0, "type": "electric_scooter", "lon": -77.04774, "bike_id": "96cd3e582ec8309fad7439b08b2d8195", "fusion_lat": 0.0, "name": "96cd3e582ec8309fad7439b08b2d8195", "is_reserved": 0, "rental_uris": {"android": "https://dc.lft.to/lastmile_qr_scan", "ios": "https://dc.lft.to/lastmile_qr_scan"}, "fusion_lon": 0.0}, {"lat": 38.889286166666665, "is_disabled": 0, "type": "electric_scooter", "lon": -76.973765, "bike_id": "392ec37fa8228c7c617808e89d3d887d", "fusion_lat": 0.0, "name": "392ec37fa8228c7c617808e89d3d887d", "is_reserved": 0, "rental_uris": {"android": "https://dc.lft.to/lastmile_qr_scan", "ios": "https://dc.lft.to/lastmile_qr_scan"}, "fusion_lon": 0.0}, {"lat": 38.89834183333333, "is_disabled": 0, "type": "electric_scooter", "lon": -77.0297445, "bike_id": "16471e76256c204bd034073ac7f96275", "fusion_lat": 0.0, "name": "16471e76256c204bd034073ac7f96275", "is_reserved": 0, "rental_uris": {"android": "https://dc.lft.to/lastmile_qr_scan", "ios": "https://dc.lft.to/lastmile_qr_scan"}, "fusion_lon": 0.0}, {"lat": 38.917169666666666, "is_disabled": 0, "type": "electric_scooter", "lon": -77.0335605, "bike_id": "94d724629b4e67018e1de5cf479d6617", "fusion_lat": 0.0, "name": "94d724629b4e67018e1de5cf479d6617", "is_reserved": 0, "rental_uris": {"android": "https://dc.lft.to/lastmile_qr_scan", "ios": "https://dc.lft.to/lastmile_qr_scan"}, "fusion_lon": 0.0}, {"lat": 38.94405533333333, "is_disabled": 0, "type": "electric_scooter", "lon": -77.02654033333333, "bike_id": "a3b5c24b801c1a46f2e3b480cdac659c", "fusion_lat": 0.0, "name": "a3b5c24b801c1a46f2e3b480cdac659c", "is_reserved": 0, "rental_uris": {"android": "https://dc.lft.to/lastmile_qr_scan", "ios": "https://dc.lft.to/lastmile_qr_scan"}, "fusion_lon": 0.0}, {"lat": 38.909010333333335, "is_disabled": 0, "type": "electric_scooter", "lon": -77.03216816666666, "bike_id": "5e4c5ad495908e3941bcb60c71ef7e3c", "fusion_lat": 0.0, "name": "5e4c5ad495908e3941bcb60c71ef7e3c", "is_reserved": 0, "rental_uris": {"android": "https://dc.lft.to/lastmile_qr_scan", "ios": "https://dc.lft.to/lastmile_qr_scan"}, "fusion_lon": 0.0}, {"lat": 38.9549755, "is_disabled": 0, "type": "electric_scooter", "lon": -77.06561216666667, "bike_id": "83562a4478c88ef193327743685e368a", "fusion_lat": 0.0, "name": "83562a4478c88ef193327743685e368a", "is_reserved": 0, "rental_uris": {"android": "https://dc.lft.to/lastmile_qr_scan", "ios": "https://dc.lft.to/lastmile_qr_scan"}, "fusion_lon": 0.0}, {"lat": 38.892475833333336, "is_disabled": 0, "type": "electric_scooter", "lon": -77.03957483333333, "bike_id": "ff847f66fac708ed8a569e38e641035a", "fusion_lat": 0.0, "name": "ff847f66fac708ed8a569e38e641035a", "is_reserved": 0, "rental_uris": {"android": "https://dc.lft.to/lastmile_qr_scan", "ios": "https://dc.lft.to/lastmile_qr_scan"}, "fusion_lon": 0.0}, {"lat": 38.90079033333333, "is_disabled": 0, "type": "electric_scooter", "lon": -77.05017966666666, "bike_id": "77c8206b6c851ce89f42142457af482f", "fusion_lat": 0.0, "name": "77c8206b6c851ce89f42142457af482f", "is_reserved": 0, "rental_uris": {"android": "https://dc.lft.to/lastmile_qr_scan", "ios": "https://dc.lft.to/lastmile_qr_scan"}, "fusion_lon": 0.0}, {"lat": 38.9186255, "is_disabled": 0, "type": "electric_scooter", "lon": -77.03165283333334, "bike_id": "ac05f8d06aa38b7ce8b53d86922bf01d", "fusion_lat": 0.0, "name": "ac05f8d06aa38b7ce8b53d86922bf01d", "is_reserved": 0, "rental_uris": {"android": "https://dc.lft.to/lastmile_qr_scan", "ios": "https://dc.lft.to/lastmile_qr_scan"}, "fusion_lon": 0.0}, {"lat": 38.93670266666667, "is_disabled": 0, "type": "electric_scooter", "lon": -77.02458633333333, "bike_id": "ed903af53d5a51708e751bd73f0c8b3b", "fusion_lat": 0.0, "name": "ed903af53d5a51708e751bd73f0c8b3b", "is_reserved": 0, "rental_uris": {"android": "https://dc.lft.to/lastmile_qr_scan", "ios": "https://dc.lft.to/lastmile_qr_scan"}, "fusion_lon": 0.0}, {"lat": 38.930802666666665, "is_disabled": 0, "type": "electric_scooter", "lon": -77.0375725, "bike_id": "f59b0ce95368f260e4d4a2a91dc697dd", "fusion_lat": 0.0, "name": "f59b0ce95368f260e4d4a2a91dc697dd", "is_reserved": 0, "rental_uris": {"android": "https://dc.lft.to/lastmile_qr_scan", "ios": "https://dc.lft.to/lastmile_qr_scan"}, "fusion_lon": 0.0}, {"lat": 38.9078625, "is_disabled": 0, "type": "electric_scooter", "lon": -77.0449635, "bike_id": "d363f50df2b80f947177eb3a5d1962a1", "fusion_lat": 0.0, "name": "d363f50df2b80f947177eb3a5d1962a1", "is_reserved": 0, "rental_uris": {"android": "https://dc.lft.to/lastmile_qr_scan", "ios": "https://dc.lft.to/lastmile_qr_scan"}, "fusion_lon": 0.0}, {"lat": 38.8922075, "is_disabled": 0, "type": "electric_scooter", "lon": -77.02318183333334, "bike_id": "816d5183e1be71df128a43d132360f5a", "fusion_lat": 0.0, "name": "816d5183e1be71df128a43d132360f5a", "is_reserved": 0, "rental_uris": {"android": "https://dc.lft.to/lastmile_qr_scan", "ios": "https://dc.lft.to/lastmile_qr_scan"}, "fusion_lon": 0.0}, {"lat": 38.90854483333333, "is_disabled": 0, "type": "electric_scooter", "lon": -77.0435545, "bike_id": "f37eb16b9c8d4cfc6b42e509e018875d", "fusion_lat": 0.0, "name": "f37eb16b9c8d4cfc6b42e509e018875d", "is_reserved": 0, "rental_uris": {"android": "https://dc.lft.to/lastmile_qr_scan", "ios": "https://dc.lft.to/lastmile_qr_scan"}, "fusion_lon": 0.0}, {"lat": 38.927451166666664, "is_disabled": 0, "type": "electric_scooter", "lon": -77.03414133333334, "bike_id": "a1b09567d2a8e53cdf70efab5feebfad", "fusion_lat": 0.0, "name": "a1b09567d2a8e53cdf70efab5feebfad", "is_reserved": 0, "rental_uris": {"android": "https://dc.lft.to/lastmile_qr_scan", "ios": "https://dc.lft.to/lastmile_qr_scan"}, "fusion_lon": 0.0}, {"lat": 38.9118975, "is_disabled": 0, "type": "electric_scooter", "lon": -77.034207, "bike_id": "a73576631e267b04321922fd2806691c", "fusion_lat": 0.0, "name": "a73576631e267b04321922fd2806691c", "is_reserved": 0, "rental_uris": {"android": "https://dc.lft.to/lastmile_qr_scan", "ios": "https://dc.lft.to/lastmile_qr_scan"}, "fusion_lon": 0.0}, {"lat": 38.911106833333335, "is_disabled": 0, "type": "electric_scooter", "lon": -77.0448195, "bike_id": "714ea441bb5d5a7654bce9c07fbfb3e2", "fusion_lat": 0.0, "name": "714ea441bb5d5a7654bce9c07fbfb3e2", "is_reserved": 0, "rental_uris": {"android": "https://dc.lft.to/lastmile_qr_scan", "ios": "https://dc.lft.to/lastmile_qr_scan"}, "fusion_lon": 0.0}, {"lat": 38.9228675, "is_disabled": 0, "type": "electric_scooter", "lon": -77.02963216666667, "bike_id": "bd6bf05d10e5b54591db8e14a24e3de5", "fusion_lat": 0.0, "name": "bd6bf05d10e5b54591db8e14a24e3de5", "is_reserved": 0, "rental_uris": {"android": "https://dc.lft.to/lastmile_qr_scan", "ios": "https://dc.lft.to/lastmile_qr_scan"}, "fusion_lon": 0.0}, {"lat": 38.90300033333333, "is_disabled": 0, "type": "electric_scooter", "lon": -77.00210516666667, "bike_id": "f483575a92c1d26266bc9f3bb1afc0bf", "fusion_lat": 0.0, "name": "f483575a92c1d26266bc9f3bb1afc0bf", "is_reserved": 0, "rental_uris": {"android": "https://dc.lft.to/lastmile_qr_scan", "ios": "https://dc.lft.to/lastmile_qr_scan"}, "fusion_lon": 0.0}, {"lat": 38.9198675, "is_disabled": 0, "type": "electric_scooter", "lon": -77.03272383333334, "bike_id": "852ff2140969efdf344a0a31e98012f7", "fusion_lat": 0.0, "name": "852ff2140969efdf344a0a31e98012f7", "is_reserved": 0, "rental_uris": {"android": "https://dc.lft.to/lastmile_qr_scan", "ios": "https://dc.lft.to/lastmile_qr_scan"}, "fusion_lon": 0.0}, {"lat": 38.881295, "is_disabled": 0, "type": "electric_scooter", "lon": -76.99506916666667, "bike_id": "0ebad9086ec492e030a127e9d370e6c7", "fusion_lat": 0.0, "name": "0ebad9086ec492e030a127e9d370e6c7", "is_reserved": 0, "rental_uris": {"android": "https://dc.lft.to/lastmile_qr_scan", "ios": "https://dc.lft.to/lastmile_qr_scan"}, "fusion_lon": 0.0}, {"lat": 38.89897716666667, "is_disabled": 0, "type": "electric_scooter", "lon": -76.99736783333333, "bike_id": "d6c1e18bda0c7347b008c280b82b9d9e", "fusion_lat": 0.0, "name": "d6c1e18bda0c7347b008c280b82b9d9e", "is_reserved": 0, "rental_uris": {"android": "https://dc.lft.to/lastmile_qr_scan", "ios": "https://dc.lft.to/lastmile_qr_scan"}, "fusion_lon": 0.0}, {"lat": 38.902307666666665, "is_disabled": 0, "type": "electric_scooter", "lon": -77.00063916666667, "bike_id": "3890ee3b86b57c4179b564c384d76fa3", "fusion_lat": 0.0, "name": "3890ee3b86b57c4179b564c384d76fa3", "is_reserved": 0, "rental_uris": {"android": "https://dc.lft.to/lastmile_qr_scan", "ios": "https://dc.lft.to/lastmile_qr_scan"}, "fusion_lon": 0.0}, {"lat": 38.87718733333333, "is_disabled": 0, "type": "electric_scooter", "lon": -77.01765216666666, "bike_id": "0156c4df66b4372255a1812415e64450", "fusion_lat": 0.0, "name": "0156c4df66b4372255a1812415e64450", "is_reserved": 0, "rental_uris": {"android": "https://dc.lft.to/lastmile_qr_scan", "ios": "https://dc.lft.to/lastmile_qr_scan"}, "fusion_lon": 0.0}, {"lat": 38.86887516666667, "is_disabled": 0, "type": "electric_scooter", "lon": -76.983146, "bike_id": "bdd86c6d7a9833dddd0c3dce6735bd24", "fusion_lat": 0.0, "name": "bdd86c6d7a9833dddd0c3dce6735bd24", "is_reserved": 0, "rental_uris": {"android": "https://dc.lft.to/lastmile_qr_scan", "ios": "https://dc.lft.to/lastmile_qr_scan"}, "fusion_lon": 0.0}, {"lat": 38.90240933333333, "is_disabled": 0, "type": "electric_scooter", "lon": -77.01765483333334, "bike_id": "41badee413bf3f77cffa64b92de3307d", "fusion_lat": 0.0, "name": "41badee413bf3f77cffa64b92de3307d", "is_reserved": 0, "rental_uris": {"android": "https://dc.lft.to/lastmile_qr_scan", "ios": "https://dc.lft.to/lastmile_qr_scan"}, "fusion_lon": 0.0}, {"lat": 38.9187675, "is_disabled": 0, "type": "electric_scooter", "lon": -77.0247975, "bike_id": "c838ce5f87f776b550f2061c6cf63270", "fusion_lat": 0.0, "name": "c838ce5f87f776b550f2061c6cf63270", "is_reserved": 0, "rental_uris": {"android": "https://dc.lft.to/lastmile_qr_scan", "ios": "https://dc.lft.to/lastmile_qr_scan"}, "fusion_lon": 0.0}, {"lat": 38.90576816666667, "is_disabled": 0, "type": "electric_scooter", "lon": -77.0087285, "bike_id": "a09a83b31f8197d869c64fc5b1ab3f0d", "fusion_lat": 0.0, "name": "a09a83b31f8197d869c64fc5b1ab3f0d", "is_reserved": 0, "rental_uris": {"android": "https://dc.lft.to/lastmile_qr_scan", "ios": "https://dc.lft.to/lastmile_qr_scan"}, "fusion_lon": 0.0}, {"lat": 38.9056745, "is_disabled": 0, "type": "electric_scooter", "lon": -77.00590483333333, "bike_id": "966ea0130def2872e48c962b0165217f", "fusion_lat": 0.0, "name": "966ea0130def2872e48c962b0165217f", "is_reserved": 0, "rental_uris": {"android": "https://dc.lft.to/lastmile_qr_scan", "ios": "https://dc.lft.to/lastmile_qr_scan"}, "fusion_lon": 0.0}, {"lat": 38.879176666666666, "is_disabled": 0, "type": "electric_scooter", "lon": -76.99511833333334, "bike_id": "70f508231c0575eeb867420f4d46b922", "fusion_lat": 0.0, "name": "70f508231c0575eeb867420f4d46b922", "is_reserved": 0, "rental_uris": {"android": "https://dc.lft.to/lastmile_qr_scan", "ios": "https://dc.lft.to/lastmile_qr_scan"}, "fusion_lon": 0.0}, {"lat": 38.9206805, "is_disabled": 0, "type": "electric_scooter", "lon": -77.0319345, "bike_id": "cb71c8370afda276bbad05d569d60757", "fusion_lat": 0.0, "name": "cb71c8370afda276bbad05d569d60757", "is_reserved": 0, "rental_uris": {"android": "https://dc.lft.to/lastmile_qr_scan", "ios": "https://dc.lft.to/lastmile_qr_scan"}, "fusion_lon": 0.0}, {"lat": 38.930613, "is_disabled": 0, "type": "electric_scooter", "lon": -77.04032533333333, "bike_id": "c910e4a59c174d2109923026a4a6f3af", "fusion_lat": 0.0, "name": "c910e4a59c174d2109923026a4a6f3af", "is_reserved": 0, "rental_uris": {"android": "https://dc.lft.to/lastmile_qr_scan", "ios": "https://dc.lft.to/lastmile_qr_scan"}, "fusion_lon": 0.0}, {"lat": 38.92947683333333, "is_disabled": 0, "type": "electric_scooter", "lon": -77.03122983333333, "bike_id": "fd1aa368106bc7eafad17bf9a90f174c", "fusion_lat": 0.0, "name": "fd1aa368106bc7eafad17bf9a90f174c", "is_reserved": 0, "rental_uris": {"android": "https://dc.lft.to/lastmile_qr_scan", "ios": "https://dc.lft.to/lastmile_qr_scan"}, "fusion_lon": 0.0}, {"lat": 38.928556, "is_disabled": 0, "type": "electric_scooter", "lon": -77.036602, "bike_id": "5c043855c42a3898f8cc5bef5e0b538c", "fusion_lat": 0.0, "name": "5c043855c42a3898f8cc5bef5e0b538c", "is_reserved": 0, "rental_uris": {"android": "https://dc.lft.to/lastmile_qr_scan", "ios": "https://dc.lft.to/lastmile_qr_scan"}, "fusion_lon": 0.0}, {"lat": 38.90117133333333, "is_disabled": 0, "type": "electric_scooter", "lon": -77.04186383333334, "bike_id": "d29ec534553b9a15c8ccb506932c3266", "fusion_lat": 0.0, "name": "d29ec534553b9a15c8ccb506932c3266", "is_reserved": 0, "rental_uris": {"android": "https://dc.lft.to/lastmile_qr_scan", "ios": "https://dc.lft.to/lastmile_qr_scan"}, "fusion_lon": 0.0}, {"lat": 38.917475833333334, "is_disabled": 0, "type": "electric_scooter", "lon": -77.023006, "bike_id": "8a8aeb70221fe80fe8f2edd4d98ef8c4", "fusion_lat": 0.0, "name": "8a8aeb70221fe80fe8f2edd4d98ef8c4", "is_reserved": 0, "rental_uris": {"android": "https://dc.lft.to/lastmile_qr_scan", "ios": "https://dc.lft.to/lastmile_qr_scan"}, "fusion_lon": 0.0}, {"lat": 38.897627166666666, "is_disabled": 0, "type": "electric_scooter", "lon": -77.02696116666667, "bike_id": "056d6bb9867ce40d29ac331b9c576342", "fusion_lat": 0.0, "name": "056d6bb9867ce40d29ac331b9c576342", "is_reserved": 0, "rental_uris": {"android": "https://dc.lft.to/lastmile_qr_scan", "ios": "https://dc.lft.to/lastmile_qr_scan"}, "fusion_lon": 0.0}, {"lat": 38.916906166666664, "is_disabled": 0, "type": "electric_scooter", "lon": -77.037607, "bike_id": "ea33379f29dd9e56049f5a69617a10bd", "fusion_lat": 0.0, "name": "ea33379f29dd9e56049f5a69617a10bd", "is_reserved": 0, "rental_uris": {"android": "https://dc.lft.to/lastmile_qr_scan", "ios": "https://dc.lft.to/lastmile_qr_scan"}, "fusion_lon": 0.0}, {"lat": 38.911158666666665, "is_disabled": 0, "type": "electric_scooter", "lon": -77.03793533333334, "bike_id": "3273daa7df7df2bdc668404cfd6c41b4", "fusion_lat": 0.0, "name": "3273daa7df7df2bdc668404cfd6c41b4", "is_reserved": 0, "rental_uris": {"android": "https://dc.lft.to/lastmile_qr_scan", "ios": "https://dc.lft.to/lastmile_qr_scan"}, "fusion_lon": 0.0}, {"lat": 38.911932, "is_disabled": 0, "type": "electric_scooter", "lon": -77.04299833333333, "bike_id": "372d3ac47afb09292c4f85d1db6dfb47", "fusion_lat": 0.0, "name": "372d3ac47afb09292c4f85d1db6dfb47", "is_reserved": 0, "rental_uris": {"android": "https://dc.lft.to/lastmile_qr_scan", "ios": "https://dc.lft.to/lastmile_qr_scan"}, "fusion_lon": 0.0}, {"lat": 38.89824516666667, "is_disabled": 0, "type": "electric_scooter", "lon": -76.946544, "bike_id": "3366cb40060f979568369938a6b45a19", "fusion_lat": 0.0, "name": "3366cb40060f979568369938a6b45a19", "is_reserved": 0, "rental_uris": {"android": "https://dc.lft.to/lastmile_qr_scan", "ios": "https://dc.lft.to/lastmile_qr_scan"}, "fusion_lon": 0.0}, {"lat": 38.89813316666667, "is_disabled": 0, "type": "electric_scooter", "lon": -77.0310915, "bike_id": "7171f18381e8ceea657d8074641927d8", "fusion_lat": 0.0, "name": "7171f18381e8ceea657d8074641927d8", "is_reserved": 0, "rental_uris": {"android": "https://dc.lft.to/lastmile_qr_scan", "ios": "https://dc.lft.to/lastmile_qr_scan"}, "fusion_lon": 0.0}, {"lat": 38.89042833333333, "is_disabled": 0, "type": "electric_scooter", "lon": -76.95246466666667, "bike_id": "48df4d7fbb3a9f5c774be9724cb5e608", "fusion_lat": 0.0, "name": "48df4d7fbb3a9f5c774be9724cb5e608", "is_reserved": 0, "rental_uris": {"android": "https://dc.lft.to/lastmile_qr_scan", "ios": "https://dc.lft.to/lastmile_qr_scan"}, "fusion_lon": 0.0}, {"lat": 38.88736733333333, "is_disabled": 0, "type": "electric_scooter", "lon": -77.01529983333333, "bike_id": "9f63ebee266c2c3575c6d5ca553efd89", "fusion_lat": 0.0, "name": "9f63ebee266c2c3575c6d5ca553efd89", "is_reserved": 0, "rental_uris": {"android": "https://dc.lft.to/lastmile_qr_scan", "ios": "https://dc.lft.to/lastmile_qr_scan"}, "fusion_lon": 0.0}, {"lat": 38.8767055, "is_disabled": 0, "type": "electric_scooter", "lon": -77.00413, "bike_id": "11e5745ab9fb047f0786d14b50a41c4a", "fusion_lat": 0.0, "name": "11e5745ab9fb047f0786d14b50a41c4a", "is_reserved": 0, "rental_uris": {"android": "https://dc.lft.to/lastmile_qr_scan", "ios": "https://dc.lft.to/lastmile_qr_scan"}, "fusion_lon": 0.0}, {"lat": 38.884138666666665, "is_disabled": 0, "type": "electric_bike", "lon": -76.95431666666667, "bike_id": "f1ad8d4c3654271886a6605bd71c13f7", "fusion_lat": 0.0, "name": "f1ad8d4c3654271886a6605bd71c13f7", "is_reserved": 0, "rental_uris": {"android": "https://dc.lft.to/lastmile_qr_scan", "ios": "https://dc.lft.to/lastmile_qr_scan"}, "fusion_lon": 0.0}, {"lat": 38.917320333333336, "is_disabled": 0, "type": "electric_scooter", "lon": -77.03644066666666, "bike_id": "98d30d41bb0b7c35d5cb75c635ed50ac", "fusion_lat": 0.0, "name": "98d30d41bb0b7c35d5cb75c635ed50ac", "is_reserved": 0, "rental_uris": {"android": "https://dc.lft.to/lastmile_qr_scan", "ios": "https://dc.lft.to/lastmile_qr_scan"}, "fusion_lon": 0.0}, {"lat": 38.902817, "is_disabled": 0, "type": "electric_scooter", "lon": -77.04387583333333, "bike_id": "1eff4baaf0f894ef7edf8afba6320afe", "fusion_lat": 0.0, "name": "1eff4baaf0f894ef7edf8afba6320afe", "is_reserved": 0, "rental_uris": {"android": "https://dc.lft.to/lastmile_qr_scan", "ios": "https://dc.lft.to/lastmile_qr_scan"}, "fusion_lon": 0.0}, {"lat": 39.05633816666667, "is_disabled": 0, "type": "electric_bike", "lon": -77.12527483333334, "bike_id": "5fa7e266054f412f1e645144edf829f4", "fusion_lat": 0.0, "name": "5fa7e266054f412f1e645144edf829f4", "is_reserved": 0, "rental_uris": {"android": "https://dc.lft.to/lastmile_qr_scan", "ios": "https://dc.lft.to/lastmile_qr_scan"}, "fusion_lon": 0.0}, {"lat": 38.91867366666666, "is_disabled": 0, "type": "electric_scooter", "lon": -77.031728, "bike_id": "d9b7558cbe3c29790316e0a06e6e625d", "fusion_lat": 0.0, "name": "d9b7558cbe3c29790316e0a06e6e625d", "is_reserved": 0, "rental_uris": {"android": "https://dc.lft.to/lastmile_qr_scan", "ios": "https://dc.lft.to/lastmile_qr_scan"}, "fusion_lon": 0.0}, {"lat": 38.93209733333333, "is_disabled": 0, "type": "electric_scooter", "lon": -77.02248316666666, "bike_id": "b3d350c5e4121c1434566528be29078d", "fusion_lat": 0.0, "name": "b3d350c5e4121c1434566528be29078d", "is_reserved": 0, "rental_uris": {"android": "https://dc.lft.to/lastmile_qr_scan", "ios": "https://dc.lft.to/lastmile_qr_scan"}, "fusion_lon": 0.0}, {"lat": 38.918419666666665, "is_disabled": 0, "type": "electric_scooter", "lon": -77.02314183333333, "bike_id": "60f6a353b3c16e5b97fd4620c4a4062e", "fusion_lat": 0.0, "name": "60f6a353b3c16e5b97fd4620c4a4062e", "is_reserved": 0, "rental_uris": {"android": "https://dc.lft.to/lastmile_qr_scan", "ios": "https://dc.lft.to/lastmile_qr_scan"}, "fusion_lon": 0.0}, {"lat": 38.905026, "is_disabled": 0, "type": "electric_scooter", "lon": -77.029476, "bike_id": "a2cc2cbe2ba395f7b554ff4c5a7b448a", "fusion_lat": 0.0, "name": "a2cc2cbe2ba395f7b554ff4c5a7b448a", "is_reserved": 0, "rental_uris": {"android": "https://dc.lft.to/lastmile_qr_scan", "ios": "https://dc.lft.to/lastmile_qr_scan"}, "fusion_lon": 0.0}, {"lat": 38.902143, "is_disabled": 0, "type": "electric_scooter", "lon": -77.04874216666667, "bike_id": "87e2226def2bc7e9878783d7a731a080", "fusion_lat": 0.0, "name": "87e2226def2bc7e9878783d7a731a080", "is_reserved": 0, "rental_uris": {"android": "https://dc.lft.to/lastmile_qr_scan", "ios": "https://dc.lft.to/lastmile_qr_scan"}, "fusion_lon": 0.0}, {"lat": 38.934022166666665, "is_disabled": 0, "type": "electric_scooter", "lon": -77.04128116666666, "bike_id": "5fc4383f5344cf024826ef6c838b21f8", "fusion_lat": 0.0, "name": "5fc4383f5344cf024826ef6c838b21f8", "is_reserved": 0, "rental_uris": {"android": "https://dc.lft.to/lastmile_qr_scan", "ios": "https://dc.lft.to/lastmile_qr_scan"}, "fusion_lon": 0.0}, {"lat": 38.96100966666667, "is_disabled": 0, "type": "electric_scooter", "lon": -77.08293, "bike_id": "580a41606507cbcd6fe87f87dbe04b7b", "fusion_lat": 0.0, "name": "580a41606507cbcd6fe87f87dbe04b7b", "is_reserved": 0, "rental_uris": {"android": "https://dc.lft.to/lastmile_qr_scan", "ios": "https://dc.lft.to/lastmile_qr_scan"}, "fusion_lon": 0.0}, {"lat": 38.934876333333335, "is_disabled": 0, "type": "electric_scooter", "lon": -77.07280016666667, "bike_id": "699deb249d6a46fa83cae2d1558ecf02", "fusion_lat": 0.0, "name": "699deb249d6a46fa83cae2d1558ecf02", "is_reserved": 0, "rental_uris": {"android": "https://dc.lft.to/lastmile_qr_scan", "ios": "https://dc.lft.to/lastmile_qr_scan"}, "fusion_lon": 0.0}, {"lat": 38.921081666666666, "is_disabled": 0, "type": "electric_bike", "lon": -77.03932066666667, "bike_id": "ffbea50cb12d865b5e063d7209ebb5f0", "fusion_lat": 0.0, "name": "ffbea50cb12d865b5e063d7209ebb5f0", "is_reserved": 0, "rental_uris": {"android": "https://dc.lft.to/lastmile_qr_scan", "ios": "https://dc.lft.to/lastmile_qr_scan"}, "fusion_lon": 0.0}, {"lat": 38.922113833333334, "is_disabled": 0, "type": "electric_scooter", "lon": -77.03287383333333, "bike_id": "ffb018339bea67b98b6be338c6ae5a70", "fusion_lat": 0.0, "name": "ffb018339bea67b98b6be338c6ae5a70", "is_reserved": 0, "rental_uris": {"android": "https://dc.lft.to/lastmile_qr_scan", "ios": "https://dc.lft.to/lastmile_qr_scan"}, "fusion_lon": 0.0}, {"lat": 38.9097085, "is_disabled": 0, "type": "electric_scooter", "lon": -77.04615916666667, "bike_id": "4f4332b7f1531cbbce38fa1bd29de4b3", "fusion_lat": 0.0, "name": "4f4332b7f1531cbbce38fa1bd29de4b3", "is_reserved": 0, "rental_uris": {"android": "https://dc.lft.to/lastmile_qr_scan", "ios": "https://dc.lft.to/lastmile_qr_scan"}, "fusion_lon": 0.0}, {"lat": 38.91843166666666, "is_disabled": 0, "type": "electric_bike", "lon": -77.06992283333334, "bike_id": "35e4e5e8030305d279633dda9be14f8b", "fusion_lat": 0.0, "name": "35e4e5e8030305d279633dda9be14f8b", "is_reserved": 0, "rental_uris": {"android": "https://dc.lft.to/lastmile_qr_scan", "ios": "https://dc.lft.to/lastmile_qr_scan"}, "fusion_lon": 0.0}, {"lat": 38.936909166666666, "is_disabled": 0, "type": "electric_scooter", "lon": -77.02414633333333, "bike_id": "8530145b4933c8e64253cac0cf389240", "fusion_lat": 0.0, "name": "8530145b4933c8e64253cac0cf389240", "is_reserved": 0, "rental_uris": {"android": "https://dc.lft.to/lastmile_qr_scan", "ios": "https://dc.lft.to/lastmile_qr_scan"}, "fusion_lon": 0.0}, {"lat": 38.90874183333333, "is_disabled": 0, "type": "electric_scooter", "lon": -77.04324983333333, "bike_id": "5e47cdac5b9451d358ee001a03a7b5e3", "fusion_lat": 0.0, "name": "5e47cdac5b9451d358ee001a03a7b5e3", "is_reserved": 0, "rental_uris": {"android": "https://dc.lft.to/lastmile_qr_scan", "ios": "https://dc.lft.to/lastmile_qr_scan"}, "fusion_lon": 0.0}, {"lat": 38.925958333333334, "is_disabled": 0, "type": "electric_scooter", "lon": -77.0439375, "bike_id": "3df698fd0846dbc1170585e9b4de4887", "fusion_lat": 0.0, "name": "3df698fd0846dbc1170585e9b4de4887", "is_reserved": 0, "rental_uris": {"android": "https://dc.lft.to/lastmile_qr_scan", "ios": "https://dc.lft.to/lastmile_qr_scan"}, "fusion_lon": 0.0}, {"lat": 38.8443375, "is_disabled": 0, "type": "electric_scooter", "lon": -76.9966465, "bike_id": "5c889a38973d67b11d0cede864cc1dd5", "fusion_lat": 0.0, "name": "5c889a38973d67b11d0cede864cc1dd5", "is_reserved": 0, "rental_uris": {"android": "https://dc.lft.to/lastmile_qr_scan", "ios": "https://dc.lft.to/lastmile_qr_scan"}, "fusion_lon": 0.0}, {"lat": 38.92750183333333, "is_disabled": 0, "type": "electric_scooter", "lon": -77.03262883333333, "bike_id": "5ee7f86db4667f3574e157457d58ab26", "fusion_lat": 0.0, "name": "5ee7f86db4667f3574e157457d58ab26", "is_reserved": 0, "rental_uris": {"android": "https://dc.lft.to/lastmile_qr_scan", "ios": "https://dc.lft.to/lastmile_qr_scan"}, "fusion_lon": 0.0}, {"lat": 38.89219416666667, "is_disabled": 0, "type": "electric_scooter", "lon": -77.02782533333334, "bike_id": "52890a433fb037e31065fb40e68db7b0", "fusion_lat": 0.0, "name": "52890a433fb037e31065fb40e68db7b0", "is_reserved": 0, "rental_uris": {"android": "https://dc.lft.to/lastmile_qr_scan", "ios": "https://dc.lft.to/lastmile_qr_scan"}, "fusion_lon": 0.0}, {"lat": 38.908059333333334, "is_disabled": 0, "type": "electric_scooter", "lon": -77.04247683333334, "bike_id": "eb0c08a035b2b4206faa3a8a04a701f2", "fusion_lat": 0.0, "name": "eb0c08a035b2b4206faa3a8a04a701f2", "is_reserved": 0, "rental_uris": {"android": "https://dc.lft.to/lastmile_qr_scan", "ios": "https://dc.lft.to/lastmile_qr_scan"}, "fusion_lon": 0.0}, {"lat": 38.90517283333333, "is_disabled": 0, "type": "electric_scooter", "lon": -77.061858, "bike_id": "0d075d76eb1f19bad50525aa00180dd8", "fusion_lat": 0.0, "name": "0d075d76eb1f19bad50525aa00180dd8", "is_reserved": 0, "rental_uris": {"android": "https://dc.lft.to/lastmile_qr_scan", "ios": "https://dc.lft.to/lastmile_qr_scan"}, "fusion_lon": 0.0}, {"lat": 38.91803566666667, "is_disabled": 0, "type": "electric_scooter", "lon": -77.022986, "bike_id": "144ca88799c88973f09e43512a5f663a", "fusion_lat": 0.0, "name": "144ca88799c88973f09e43512a5f663a", "is_reserved": 0, "rental_uris": {"android": "https://dc.lft.to/lastmile_qr_scan", "ios": "https://dc.lft.to/lastmile_qr_scan"}, "fusion_lon": 0.0}, {"lat": 38.91119366666667, "is_disabled": 0, "type": "electric_scooter", "lon": -77.0435825, "bike_id": "7732f3e2248e43b37134b8146c34a785", "fusion_lat": 0.0, "name": "7732f3e2248e43b37134b8146c34a785", "is_reserved": 0, "rental_uris": {"android": "https://dc.lft.to/lastmile_qr_scan", "ios": "https://dc.lft.to/lastmile_qr_scan"}, "fusion_lon": 0.0}, {"lat": 38.89072216666667, "is_disabled": 0, "type": "electric_scooter", "lon": -76.98837116666667, "bike_id": "12e28032b1154771e6017c2046d4c612", "fusion_lat": 0.0, "name": "12e28032b1154771e6017c2046d4c612", "is_reserved": 0, "rental_uris": {"android": "https://dc.lft.to/lastmile_qr_scan", "ios": "https://dc.lft.to/lastmile_qr_scan"}, "fusion_lon": 0.0}, {"lat": 38.9455055, "is_disabled": 0, "type": "electric_bike", "lon": -76.89540733333334, "bike_id": "94567ab48c377142eba8302685d68dd6", "fusion_lat": 0.0, "name": "94567ab48c377142eba8302685d68dd6", "is_reserved": 0, "rental_uris": {"android": "https://dc.lft.to/lastmile_qr_scan", "ios": "https://dc.lft.to/lastmile_qr_scan"}, "fusion_lon": 0.0}, {"lat": 38.917166, "is_disabled": 0, "type": "electric_scooter", "lon": -77.03840116666667, "bike_id": "13ca599bd610a0f5604607635a7d92d6", "fusion_lat": 0.0, "name": "13ca599bd610a0f5604607635a7d92d6", "is_reserved": 0, "rental_uris": {"android": "https://dc.lft.to/lastmile_qr_scan", "ios": "https://dc.lft.to/lastmile_qr_scan"}, "fusion_lon": 0.0}, {"lat": 38.93655916666667, "is_disabled": 0, "type": "electric_bike", "lon": -76.95219916666667, "bike_id": "d16b2aaa8741972ea75802b15751b752", "fusion_lat": 0.0, "name": "d16b2aaa8741972ea75802b15751b752", "is_reserved": 0, "rental_uris": {"android": "https://dc.lft.to/lastmile_qr_scan", "ios": "https://dc.lft.to/lastmile_qr_scan"}, "fusion_lon": 0.0}, {"lat": 38.90542816666667, "is_disabled": 0, "type": "electric_scooter", "lon": -77.033943, "bike_id": "b2a69509631ce6959f9fa4814447ed1e", "fusion_lat": 0.0, "name": "b2a69509631ce6959f9fa4814447ed1e", "is_reserved": 0, "rental_uris": {"android": "https://dc.lft.to/lastmile_qr_scan", "ios": "https://dc.lft.to/lastmile_qr_scan"}, "fusion_lon": 0.0}, {"lat": 38.85714866666667, "is_disabled": 0, "type": "electric_scooter", "lon": -76.98673166666667, "bike_id": "2b2b327472d66276dede0e945db2b8f5", "fusion_lat": 0.0, "name": "2b2b327472d66276dede0e945db2b8f5", "is_reserved": 0, "rental_uris": {"android": "https://dc.lft.to/lastmile_qr_scan", "ios": "https://dc.lft.to/lastmile_qr_scan"}, "fusion_lon": 0.0}, {"lat": 38.8519505, "is_disabled": 0, "type": "electric_scooter", "lon": -76.97632183333333, "bike_id": "c49eb5336f1501bf83d321d424244b11", "fusion_lat": 0.0, "name": "c49eb5336f1501bf83d321d424244b11", "is_reserved": 0, "rental_uris": {"android": "https://dc.lft.to/lastmile_qr_scan", "ios": "https://dc.lft.to/lastmile_qr_scan"}, "fusion_lon": 0.0}, {"lat": 38.992573666666665, "is_disabled": 0, "type": "electric_scooter", "lon": -77.03658833333333, "bike_id": "89ea504092a471948fe957b547cea2d4", "fusion_lat": 0.0, "name": "89ea504092a471948fe957b547cea2d4", "is_reserved": 0, "rental_uris": {"android": "https://dc.lft.to/lastmile_qr_scan", "ios": "https://dc.lft.to/lastmile_qr_scan"}, "fusion_lon": 0.0}, {"lat": 39.0342535, "is_disabled": 0, "type": "electric_bike", "lon": -77.04305233333334, "bike_id": "aa721e3d2fd7922f8329cca7ee9d9ef1", "fusion_lat": 0.0, "name": "aa721e3d2fd7922f8329cca7ee9d9ef1", "is_reserved": 0, "rental_uris": {"android": "https://dc.lft.to/lastmile_qr_scan", "ios": "https://dc.lft.to/lastmile_qr_scan"}, "fusion_lon": 0.0}, {"lat": 38.8934775, "is_disabled": 0, "type": "electric_scooter", "lon": -77.041523, "bike_id": "47108d319e544cd447aecacf27403103", "fusion_lat": 0.0, "name": "47108d319e544cd447aecacf27403103", "is_reserved": 0, "rental_uris": {"android": "https://dc.lft.to/lastmile_qr_scan", "ios": "https://dc.lft.to/lastmile_qr_scan"}, "fusion_lon": 0.0}, {"lat": 38.900159, "is_disabled": 0, "type": "electric_scooter", "lon": -77.04650133333334, "bike_id": "844ba10c32f2dc3169dcc3afce6b98e2", "fusion_lat": 0.0, "name": "844ba10c32f2dc3169dcc3afce6b98e2", "is_reserved": 0, "rental_uris": {"android": "https://dc.lft.to/lastmile_qr_scan", "ios": "https://dc.lft.to/lastmile_qr_scan"}, "fusion_lon": 0.0}, {"lat": 38.911379333333336, "is_disabled": 0, "type": "electric_scooter", "lon": -77.027085, "bike_id": "0022d4bf6995a180250056a7d590249e", "fusion_lat": 0.0, "name": "0022d4bf6995a180250056a7d590249e", "is_reserved": 0, "rental_uris": {"android": "https://dc.lft.to/lastmile_qr_scan", "ios": "https://dc.lft.to/lastmile_qr_scan"}, "fusion_lon": 0.0}, {"lat": 38.901049666666665, "is_disabled": 0, "type": "electric_scooter", "lon": -76.99552416666667, "bike_id": "8f387d8288c97fb0254bb7d65ec45756", "fusion_lat": 0.0, "name": "8f387d8288c97fb0254bb7d65ec45756", "is_reserved": 0, "rental_uris": {"android": "https://dc.lft.to/lastmile_qr_scan", "ios": "https://dc.lft.to/lastmile_qr_scan"}, "fusion_lon": 0.0}, {"lat": 38.904190666666665, "is_disabled": 0, "type": "electric_scooter", "lon": -77.06888316666667, "bike_id": "1d786c172fa272f28b099a655a96957e", "fusion_lat": 0.0, "name": "1d786c172fa272f28b099a655a96957e", "is_reserved": 0, "rental_uris": {"android": "https://dc.lft.to/lastmile_qr_scan", "ios": "https://dc.lft.to/lastmile_qr_scan"}, "fusion_lon": 0.0}, {"lat": 38.895603666666666, "is_disabled": 0, "type": "electric_bike", "lon": -77.12730066666667, "bike_id": "8dcd0cff197d5af8123fbb75e88d6820", "fusion_lat": 0.0, "name": "8dcd0cff197d5af8123fbb75e88d6820", "is_reserved": 0, "rental_uris": {"android": "https://dc.lft.to/lastmile_qr_scan", "ios": "https://dc.lft.to/lastmile_qr_scan"}, "fusion_lon": 0.0}, {"lat": 38.887390833333335, "is_disabled": 0, "type": "electric_scooter", "lon": -77.015378, "bike_id": "5919fdc8e2e1ce51b2dfc424cf8fb0fc", "fusion_lat": 0.0, "name": "5919fdc8e2e1ce51b2dfc424cf8fb0fc", "is_reserved": 0, "rental_uris": {"android": "https://dc.lft.to/lastmile_qr_scan", "ios": "https://dc.lft.to/lastmile_qr_scan"}, "fusion_lon": 0.0}, {"lat": 38.920810833333334, "is_disabled": 0, "type": "electric_scooter", "lon": -77.0364475, "bike_id": "bd17b1ebfeb50911638a36c044967d63", "fusion_lat": 0.0, "name": "bd17b1ebfeb50911638a36c044967d63", "is_reserved": 0, "rental_uris": {"android": "https://dc.lft.to/lastmile_qr_scan", "ios": "https://dc.lft.to/lastmile_qr_scan"}, "fusion_lon": 0.0}, {"lat": 38.91688333333333, "is_disabled": 0, "type": "electric_scooter", "lon": -77.028133, "bike_id": "a1f08b2bae425fa3171f694985331bab", "fusion_lat": 0.0, "name": "a1f08b2bae425fa3171f694985331bab", "is_reserved": 0, "rental_uris": {"android": "https://dc.lft.to/lastmile_qr_scan", "ios": "https://dc.lft.to/lastmile_qr_scan"}, "fusion_lon": 0.0}, {"lat": 38.90061716666666, "is_disabled": 0, "type": "electric_scooter", "lon": -77.00212666666667, "bike_id": "5e2d9ffe589865f132c8438b0c6c4e99", "fusion_lat": 0.0, "name": "5e2d9ffe589865f132c8438b0c6c4e99", "is_reserved": 0, "rental_uris": {"android": "https://dc.lft.to/lastmile_qr_scan", "ios": "https://dc.lft.to/lastmile_qr_scan"}, "fusion_lon": 0.0}, {"lat": 38.89007933333333, "is_disabled": 0, "type": "electric_scooter", "lon": -76.93747533333334, "bike_id": "442384135fe0c9f9c8a8e29ff6bc38ad", "fusion_lat": 0.0, "name": "442384135fe0c9f9c8a8e29ff6bc38ad", "is_reserved": 0, "rental_uris": {"android": "https://dc.lft.to/lastmile_qr_scan", "ios": "https://dc.lft.to/lastmile_qr_scan"}, "fusion_lon": 0.0}, {"lat": 38.907914166666664, "is_disabled": 0, "type": "electric_scooter", "lon": -77.0269635, "bike_id": "a6504c3edf3df7f33650c2d47c224184", "fusion_lat": 0.0, "name": "a6504c3edf3df7f33650c2d47c224184", "is_reserved": 0, "rental_uris": {"android": "https://dc.lft.to/lastmile_qr_scan", "ios": "https://dc.lft.to/lastmile_qr_scan"}, "fusion_lon": 0.0}, {"lat": 38.92088566666666, "is_disabled": 0, "type": "electric_scooter", "lon": -77.01730016666667, "bike_id": "1bc710bfc9ac382777aadfa3849da4e5", "fusion_lat": 0.0, "name": "1bc710bfc9ac382777aadfa3849da4e5", "is_reserved": 0, "rental_uris": {"android": "https://dc.lft.to/lastmile_qr_scan", "ios": "https://dc.lft.to/lastmile_qr_scan"}, "fusion_lon": 0.0}, {"lat": 38.9191635, "is_disabled": 0, "type": "electric_scooter", "lon": -77.023963, "bike_id": "9b84b628d0abf3a6518d0fa4360715c7", "fusion_lat": 0.0, "name": "9b84b628d0abf3a6518d0fa4360715c7", "is_reserved": 0, "rental_uris": {"android": "https://dc.lft.to/lastmile_qr_scan", "ios": "https://dc.lft.to/lastmile_qr_scan"}, "fusion_lon": 0.0}, {"lat": 38.917084, "is_disabled": 0, "type": "electric_scooter", "lon": -77.031264, "bike_id": "0e19807d05e1d216e74e41f2c1b222eb", "fusion_lat": 0.0, "name": "0e19807d05e1d216e74e41f2c1b222eb", "is_reserved": 0, "rental_uris": {"android": "https://dc.lft.to/lastmile_qr_scan", "ios": "https://dc.lft.to/lastmile_qr_scan"}, "fusion_lon": 0.0}, {"lat": 38.930954666666665, "is_disabled": 0, "type": "electric_scooter", "lon": -77.0344405, "bike_id": "6a1c0bfbecc6b702a420deca0c72a2b3", "fusion_lat": 0.0, "name": "6a1c0bfbecc6b702a420deca0c72a2b3", "is_reserved": 0, "rental_uris": {"android": "https://dc.lft.to/lastmile_qr_scan", "ios": "https://dc.lft.to/lastmile_qr_scan"}, "fusion_lon": 0.0}, {"lat": 38.923117833333336, "is_disabled": 0, "type": "electric_scooter", "lon": -77.04217116666666, "bike_id": "756403aa12ecf219406abf53b6b06057", "fusion_lat": 0.0, "name": "756403aa12ecf219406abf53b6b06057", "is_reserved": 0, "rental_uris": {"android": "https://dc.lft.to/lastmile_qr_scan", "ios": "https://dc.lft.to/lastmile_qr_scan"}, "fusion_lon": 0.0}, {"lat": 38.863619166666666, "is_disabled": 0, "type": "electric_scooter", "lon": -76.99036883333333, "bike_id": "c2f131120d045ad5abd4004e1c9ea145", "fusion_lat": 0.0, "name": "c2f131120d045ad5abd4004e1c9ea145", "is_reserved": 0, "rental_uris": {"android": "https://dc.lft.to/lastmile_qr_scan", "ios": "https://dc.lft.to/lastmile_qr_scan"}, "fusion_lon": 0.0}, {"lat": 38.922504, "is_disabled": 0, "type": "electric_scooter", "lon": -77.03085633333333, "bike_id": "0eec6fb9bfa6b5856eb8308545bd64af", "fusion_lat": 0.0, "name": "0eec6fb9bfa6b5856eb8308545bd64af", "is_reserved": 0, "rental_uris": {"android": "https://dc.lft.to/lastmile_qr_scan", "ios": "https://dc.lft.to/lastmile_qr_scan"}, "fusion_lon": 0.0}, {"lat": 38.92976683333333, "is_disabled": 0, "type": "electric_scooter", "lon": -77.02930516666666, "bike_id": "cd10abb250397952dd57c2db5b6b238f", "fusion_lat": 0.0, "name": "cd10abb250397952dd57c2db5b6b238f", "is_reserved": 0, "rental_uris": {"android": "https://dc.lft.to/lastmile_qr_scan", "ios": "https://dc.lft.to/lastmile_qr_scan"}, "fusion_lon": 0.0}, {"lat": 38.917024833333336, "is_disabled": 0, "type": "electric_scooter", "lon": -77.00968283333333, "bike_id": "81d4bbd66f48347e11f6ab1dd5cabd37", "fusion_lat": 0.0, "name": "81d4bbd66f48347e11f6ab1dd5cabd37", "is_reserved": 0, "rental_uris": {"android": "https://dc.lft.to/lastmile_qr_scan", "ios": "https://dc.lft.to/lastmile_qr_scan"}, "fusion_lon": 0.0}, {"lat": 38.930946, "is_disabled": 0, "type": "electric_scooter", "lon": -77.02364416666667, "bike_id": "cf3485b4faeccc0a89954a147e8a9d93", "fusion_lat": 0.0, "name": "cf3485b4faeccc0a89954a147e8a9d93", "is_reserved": 0, "rental_uris": {"android": "https://dc.lft.to/lastmile_qr_scan", "ios": "https://dc.lft.to/lastmile_qr_scan"}, "fusion_lon": 0.0}, {"lat": 38.892226666666666, "is_disabled": 0, "type": "electric_scooter", "lon": -77.03220666666667, "bike_id": "efd5301a81dcf4dede0fe017c71d10ed", "fusion_lat": 0.0, "name": "efd5301a81dcf4dede0fe017c71d10ed", "is_reserved": 0, "rental_uris": {"android": "https://dc.lft.to/lastmile_qr_scan", "ios": "https://dc.lft.to/lastmile_qr_scan"}, "fusion_lon": 0.0}, {"lat": 38.871464, "is_disabled": 0, "type": "electric_bike", "lon": -76.93668483333333, "bike_id": "16422524f83dba3e0b111c609a92af1b", "fusion_lat": 0.0, "name": "16422524f83dba3e0b111c609a92af1b", "is_reserved": 0, "rental_uris": {"android": "https://dc.lft.to/lastmile_qr_scan", "ios": "https://dc.lft.to/lastmile_qr_scan"}, "fusion_lon": 0.0}, {"lat": 38.892197, "is_disabled": 0, "type": "electric_scooter", "lon": -77.04514566666667, "bike_id": "b241acf46bfc55675f0a3d51f60e9fc0", "fusion_lat": 0.0, "name": "b241acf46bfc55675f0a3d51f60e9fc0", "is_reserved": 0, "rental_uris": {"android": "https://dc.lft.to/lastmile_qr_scan", "ios": "https://dc.lft.to/lastmile_qr_scan"}, "fusion_lon": 0.0}, {"lat": 38.9174335, "is_disabled": 0, "type": "electric_scooter", "lon": -77.0319005, "bike_id": "3f0e464045abe72390ff3f73cac58915", "fusion_lat": 0.0, "name": "3f0e464045abe72390ff3f73cac58915", "is_reserved": 0, "rental_uris": {"android": "https://dc.lft.to/lastmile_qr_scan", "ios": "https://dc.lft.to/lastmile_qr_scan"}, "fusion_lon": 0.0}, {"lat": 38.9094825, "is_disabled": 0, "type": "electric_scooter", "lon": -77.04660683333333, "bike_id": "da121e278d1c144e1b493b7741ae72b3", "fusion_lat": 0.0, "name": "da121e278d1c144e1b493b7741ae72b3", "is_reserved": 0, "rental_uris": {"android": "https://dc.lft.to/lastmile_qr_scan", "ios": "https://dc.lft.to/lastmile_qr_scan"}, "fusion_lon": 0.0}, {"lat": 38.9357975, "is_disabled": 0, "type": "electric_bike", "lon": -77.10688316666666, "bike_id": "9e1bbd6d844658ca3d6a414eadfe338e", "fusion_lat": 0.0, "name": "9e1bbd6d844658ca3d6a414eadfe338e", "is_reserved": 0, "rental_uris": {"android": "https://dc.lft.to/lastmile_qr_scan", "ios": "https://dc.lft.to/lastmile_qr_scan"}, "fusion_lon": 0.0}, {"lat": 38.881339, "is_disabled": 0, "type": "electric_scooter", "lon": -77.016416, "bike_id": "b734b6ad4c0fdb28d13ee29d214d131e", "fusion_lat": 0.0, "name": "b734b6ad4c0fdb28d13ee29d214d131e", "is_reserved": 0, "rental_uris": {"android": "https://dc.lft.to/lastmile_qr_scan", "ios": "https://dc.lft.to/lastmile_qr_scan"}, "fusion_lon": 0.0}, {"lat": 38.90311366666667, "is_disabled": 0, "type": "electric_scooter", "lon": -77.051637, "bike_id": "d7739e815b3b9c23c6f878f91abe12f0", "fusion_lat": 0.0, "name": "d7739e815b3b9c23c6f878f91abe12f0", "is_reserved": 0, "rental_uris": {"android": "https://dc.lft.to/lastmile_qr_scan", "ios": "https://dc.lft.to/lastmile_qr_scan"}, "fusion_lon": 0.0}, {"lat": 38.905319, "is_disabled": 0, "type": "electric_scooter", "lon": -77.02957616666667, "bike_id": "81a0179e757de1577f054bc9b2767ce7", "fusion_lat": 0.0, "name": "81a0179e757de1577f054bc9b2767ce7", "is_reserved": 0, "rental_uris": {"android": "https://dc.lft.to/lastmile_qr_scan", "ios": "https://dc.lft.to/lastmile_qr_scan"}, "fusion_lon": 0.0}, {"lat": 38.9112715, "is_disabled": 0, "type": "electric_scooter", "lon": -77.038504, "bike_id": "b729f2eb56dc567bffb13cbe7bc290d0", "fusion_lat": 0.0, "name": "b729f2eb56dc567bffb13cbe7bc290d0", "is_reserved": 0, "rental_uris": {"android": "https://dc.lft.to/lastmile_qr_scan", "ios": "https://dc.lft.to/lastmile_qr_scan"}, "fusion_lon": 0.0}, {"lat": 38.893750833333335, "is_disabled": 0, "type": "electric_scooter", "lon": -77.021848, "bike_id": "b7b9232c763da3fcd741c4cb2380de61", "fusion_lat": 0.0, "name": "b7b9232c763da3fcd741c4cb2380de61", "is_reserved": 0, "rental_uris": {"android": "https://dc.lft.to/lastmile_qr_scan", "ios": "https://dc.lft.to/lastmile_qr_scan"}, "fusion_lon": 0.0}, {"lat": 38.89221583333333, "is_disabled": 0, "type": "electric_scooter", "lon": -77.04203516666666, "bike_id": "696c979281779805c9137ab9e43ca5be", "fusion_lat": 0.0, "name": "696c979281779805c9137ab9e43ca5be", "is_reserved": 0, "rental_uris": {"android": "https://dc.lft.to/lastmile_qr_scan", "ios": "https://dc.lft.to/lastmile_qr_scan"}, "fusion_lon": 0.0}, {"lat": 38.892185833333336, "is_disabled": 0, "type": "electric_scooter", "lon": -77.02223833333333, "bike_id": "991bee42c841cbd867d6885061900824", "fusion_lat": 0.0, "name": "991bee42c841cbd867d6885061900824", "is_reserved": 0, "rental_uris": {"android": "https://dc.lft.to/lastmile_qr_scan", "ios": "https://dc.lft.to/lastmile_qr_scan"}, "fusion_lon": 0.0}, {"lat": 38.86507366666667, "is_disabled": 0, "type": "electric_scooter", "lon": -76.9900745, "bike_id": "5584d7c56cd50140478bbcc84c279825", "fusion_lat": 0.0, "name": "5584d7c56cd50140478bbcc84c279825", "is_reserved": 0, "rental_uris": {"android": "https://dc.lft.to/lastmile_qr_scan", "ios": "https://dc.lft.to/lastmile_qr_scan"}, "fusion_lon": 0.0}, {"lat": 38.892195666666666, "is_disabled": 0, "type": "electric_scooter", "lon": -77.022224, "bike_id": "6452ebbb52265cc1618f0a8956521559", "fusion_lat": 0.0, "name": "6452ebbb52265cc1618f0a8956521559", "is_reserved": 0, "rental_uris": {"android": "https://dc.lft.to/lastmile_qr_scan", "ios": "https://dc.lft.to/lastmile_qr_scan"}, "fusion_lon": 0.0}, {"lat": 38.872893833333336, "is_disabled": 0, "type": "electric_scooter", "lon": -77.009855, "bike_id": "49f2f0654e0734d2c98c7b659e9db110", "fusion_lat": 0.0, "name": "49f2f0654e0734d2c98c7b659e9db110", "is_reserved": 0, "rental_uris": {"android": "https://dc.lft.to/lastmile_qr_scan", "ios": "https://dc.lft.to/lastmile_qr_scan"}, "fusion_lon": 0.0}, {"lat": 38.903619666666664, "is_disabled": 0, "type": "electric_scooter", "lon": -77.04277383333333, "bike_id": "149efd7de842c05db3b49327aaed366c", "fusion_lat": 0.0, "name": "149efd7de842c05db3b49327aaed366c", "is_reserved": 0, "rental_uris": {"android": "https://dc.lft.to/lastmile_qr_scan", "ios": "https://dc.lft.to/lastmile_qr_scan"}, "fusion_lon": 0.0}, {"lat": 38.90564083333334, "is_disabled": 0, "type": "electric_scooter", "lon": -76.99874483333333, "bike_id": "185406724287fe9f4c0124f0dd72db17", "fusion_lat": 0.0, "name": "185406724287fe9f4c0124f0dd72db17", "is_reserved": 0, "rental_uris": {"android": "https://dc.lft.to/lastmile_qr_scan", "ios": "https://dc.lft.to/lastmile_qr_scan"}, "fusion_lon": 0.0}, {"lat": 38.867102333333335, "is_disabled": 0, "type": "electric_scooter", "lon": -76.987308, "bike_id": "37b93716c9563fd9adc1fc7b2a07cb77", "fusion_lat": 0.0, "name": "37b93716c9563fd9adc1fc7b2a07cb77", "is_reserved": 0, "rental_uris": {"android": "https://dc.lft.to/lastmile_qr_scan", "ios": "https://dc.lft.to/lastmile_qr_scan"}, "fusion_lon": 0.0}, {"lat": 38.90946516666666, "is_disabled": 0, "type": "electric_scooter", "lon": -77.034439, "bike_id": "e8e943117910615734b9fb4511bbb306", "fusion_lat": 0.0, "name": "e8e943117910615734b9fb4511bbb306", "is_reserved": 0, "rental_uris": {"android": "https://dc.lft.to/lastmile_qr_scan", "ios": "https://dc.lft.to/lastmile_qr_scan"}, "fusion_lon": 0.0}, {"lat": 38.925482833333334, "is_disabled": 0, "type": "electric_scooter", "lon": -77.03222816666667, "bike_id": "b3d4af5cd6c633374df43ae7301898f1", "fusion_lat": 0.0, "name": "b3d4af5cd6c633374df43ae7301898f1", "is_reserved": 0, "rental_uris": {"android": "https://dc.lft.to/lastmile_qr_scan", "ios": "https://dc.lft.to/lastmile_qr_scan"}, "fusion_lon": 0.0}, {"lat": 38.9274805, "is_disabled": 0, "type": "electric_scooter", "lon": -77.0242175, "bike_id": "0282b89e192ec702ca608e90e69a5010", "fusion_lat": 0.0, "name": "0282b89e192ec702ca608e90e69a5010", "is_reserved": 0, "rental_uris": {"android": "https://dc.lft.to/lastmile_qr_scan", "ios": "https://dc.lft.to/lastmile_qr_scan"}, "fusion_lon": 0.0}, {"lat": 38.94793466666667, "is_disabled": 0, "type": "electric_scooter", "lon": -77.02171366666667, "bike_id": "3de0f9d8c2e4408183897c549dd1e915", "fusion_lat": 0.0, "name": "3de0f9d8c2e4408183897c549dd1e915", "is_reserved": 0, "rental_uris": {"android": "https://dc.lft.to/lastmile_qr_scan", "ios": "https://dc.lft.to/lastmile_qr_scan"}, "fusion_lon": 0.0}, {"lat": 38.901095833333336, "is_disabled": 0, "type": "electric_scooter", "lon": -76.99630016666667, "bike_id": "4c306d920e3850f3877bbd96586c3bcd", "fusion_lat": 0.0, "name": "4c306d920e3850f3877bbd96586c3bcd", "is_reserved": 0, "rental_uris": {"android": "https://dc.lft.to/lastmile_qr_scan", "ios": "https://dc.lft.to/lastmile_qr_scan"}, "fusion_lon": 0.0}, {"lat": 38.921701666666664, "is_disabled": 0, "type": "electric_scooter", "lon": -77.03212583333334, "bike_id": "d1a533d39dcb521d3aad0087265c3e45", "fusion_lat": 0.0, "name": "d1a533d39dcb521d3aad0087265c3e45", "is_reserved": 0, "rental_uris": {"android": "https://dc.lft.to/lastmile_qr_scan", "ios": "https://dc.lft.to/lastmile_qr_scan"}, "fusion_lon": 0.0}, {"lat": 38.9217885, "is_disabled": 0, "type": "electric_scooter", "lon": -77.04705833333334, "bike_id": "41663d80933b37bd8813246c3f3b781f", "fusion_lat": 0.0, "name": "41663d80933b37bd8813246c3f3b781f", "is_reserved": 0, "rental_uris": {"android": "https://dc.lft.to/lastmile_qr_scan", "ios": "https://dc.lft.to/lastmile_qr_scan"}, "fusion_lon": 0.0}, {"lat": 38.902779, "is_disabled": 0, "type": "electric_scooter", "lon": -77.03986566666667, "bike_id": "dbc65d9d0218ccb51b23ea65bb00fcfb", "fusion_lat": 0.0, "name": "dbc65d9d0218ccb51b23ea65bb00fcfb", "is_reserved": 0, "rental_uris": {"android": "https://dc.lft.to/lastmile_qr_scan", "ios": "https://dc.lft.to/lastmile_qr_scan"}, "fusion_lon": 0.0}, {"lat": 38.924815833333334, "is_disabled": 0, "type": "electric_scooter", "lon": -77.039172, "bike_id": "4790e2b49b11d0bcb9f94c6b3e44fe90", "fusion_lat": 0.0, "name": "4790e2b49b11d0bcb9f94c6b3e44fe90", "is_reserved": 0, "rental_uris": {"android": "https://dc.lft.to/lastmile_qr_scan", "ios": "https://dc.lft.to/lastmile_qr_scan"}, "fusion_lon": 0.0}, {"lat": 38.937404666666666, "is_disabled": 0, "type": "electric_scooter", "lon": -77.03483616666666, "bike_id": "1ce5d3db8f6c0fb830262eff781613c0", "fusion_lat": 0.0, "name": "1ce5d3db8f6c0fb830262eff781613c0", "is_reserved": 0, "rental_uris": {"android": "https://dc.lft.to/lastmile_qr_scan", "ios": "https://dc.lft.to/lastmile_qr_scan"}, "fusion_lon": 0.0}, {"lat": 38.90958583333333, "is_disabled": 0, "type": "electric_scooter", "lon": -77.02281916666666, "bike_id": "a2d1c7661f9b94867b55bdc2b8dd23c0", "fusion_lat": 0.0, "name": "a2d1c7661f9b94867b55bdc2b8dd23c0", "is_reserved": 0, "rental_uris": {"android": "https://dc.lft.to/lastmile_qr_scan", "ios": "https://dc.lft.to/lastmile_qr_scan"}, "fusion_lon": 0.0}, {"lat": 38.892188166666664, "is_disabled": 0, "type": "electric_scooter", "lon": -77.03165633333333, "bike_id": "84291b3b023cbf2412680586a2ef1432", "fusion_lat": 0.0, "name": "84291b3b023cbf2412680586a2ef1432", "is_reserved": 0, "rental_uris": {"android": "https://dc.lft.to/lastmile_qr_scan", "ios": "https://dc.lft.to/lastmile_qr_scan"}, "fusion_lon": 0.0}, {"lat": 38.90962716666667, "is_disabled": 0, "type": "electric_scooter", "lon": -77.03845183333334, "bike_id": "c31a50ec05957cb14ea5715595c5bff3", "fusion_lat": 0.0, "name": "c31a50ec05957cb14ea5715595c5bff3", "is_reserved": 0, "rental_uris": {"android": "https://dc.lft.to/lastmile_qr_scan", "ios": "https://dc.lft.to/lastmile_qr_scan"}, "fusion_lon": 0.0}, {"lat": 38.90528066666667, "is_disabled": 0, "type": "electric_scooter", "lon": -77.05158516666667, "bike_id": "1af861359c8f56d69bf292718f04204b", "fusion_lat": 0.0, "name": "1af861359c8f56d69bf292718f04204b", "is_reserved": 0, "rental_uris": {"android": "https://dc.lft.to/lastmile_qr_scan", "ios": "https://dc.lft.to/lastmile_qr_scan"}, "fusion_lon": 0.0}, {"lat": 38.88573016666667, "is_disabled": 0, "type": "electric_scooter", "lon": -76.91910716666666, "bike_id": "da2551af8a605e6d7ae4a62960ff7c0f", "fusion_lat": 0.0, "name": "da2551af8a605e6d7ae4a62960ff7c0f", "is_reserved": 0, "rental_uris": {"android": "https://dc.lft.to/lastmile_qr_scan", "ios": "https://dc.lft.to/lastmile_qr_scan"}, "fusion_lon": 0.0}, {"lat": 38.92556233333333, "is_disabled": 0, "type": "electric_scooter", "lon": -77.032225, "bike_id": "f8b3b4780e04cd3dd8c2e3751bfdf29f", "fusion_lat": 0.0, "name": "f8b3b4780e04cd3dd8c2e3751bfdf29f", "is_reserved": 0, "rental_uris": {"android": "https://dc.lft.to/lastmile_qr_scan", "ios": "https://dc.lft.to/lastmile_qr_scan"}, "fusion_lon": 0.0}, {"lat": 38.9071925, "is_disabled": 0, "type": "electric_scooter", "lon": -77.00051116666667, "bike_id": "39892267e6b2001c345e710709cdc25e", "fusion_lat": 0.0, "name": "39892267e6b2001c345e710709cdc25e", "is_reserved": 0, "rental_uris": {"android": "https://dc.lft.to/lastmile_qr_scan", "ios": "https://dc.lft.to/lastmile_qr_scan"}, "fusion_lon": 0.0}, {"lat": 38.932327666666666, "is_disabled": 0, "type": "electric_scooter", "lon": -77.038895, "bike_id": "ec8c33c0437a3a269ff504df0e94a9a8", "fusion_lat": 0.0, "name": "ec8c33c0437a3a269ff504df0e94a9a8", "is_reserved": 0, "rental_uris": {"android": "https://dc.lft.to/lastmile_qr_scan", "ios": "https://dc.lft.to/lastmile_qr_scan"}, "fusion_lon": 0.0}, {"lat": 38.844304666666666, "is_disabled": 0, "type": "electric_scooter", "lon": -76.99813883333333, "bike_id": "8d3386cccf2c55a45a808dd8225e9ee7", "fusion_lat": 0.0, "name": "8d3386cccf2c55a45a808dd8225e9ee7", "is_reserved": 0, "rental_uris": {"android": "https://dc.lft.to/lastmile_qr_scan", "ios": "https://dc.lft.to/lastmile_qr_scan"}, "fusion_lon": 0.0}, {"lat": 38.90564716666667, "is_disabled": 0, "type": "electric_scooter", "lon": -76.9814715, "bike_id": "039c349547bfaa76aea2b1ff979e7a13", "fusion_lat": 0.0, "name": "039c349547bfaa76aea2b1ff979e7a13", "is_reserved": 0, "rental_uris": {"android": "https://dc.lft.to/lastmile_qr_scan", "ios": "https://dc.lft.to/lastmile_qr_scan"}, "fusion_lon": 0.0}, {"lat": 38.854320333333334, "is_disabled": 0, "type": "electric_bike", "lon": -76.909769, "bike_id": "c8891478703cefd2fdec94e29d3368d6", "fusion_lat": 0.0, "name": "c8891478703cefd2fdec94e29d3368d6", "is_reserved": 0, "rental_uris": {"android": "https://dc.lft.to/lastmile_qr_scan", "ios": "https://dc.lft.to/lastmile_qr_scan"}, "fusion_lon": 0.0}, {"lat": 38.902543666666666, "is_disabled": 0, "type": "electric_scooter", "lon": -77.04357583333334, "bike_id": "f8a30893e84600101dce2169f04ee01a", "fusion_lat": 0.0, "name": "f8a30893e84600101dce2169f04ee01a", "is_reserved": 0, "rental_uris": {"android": "https://dc.lft.to/lastmile_qr_scan", "ios": "https://dc.lft.to/lastmile_qr_scan"}, "fusion_lon": 0.0}, {"lat": 38.92316316666667, "is_disabled": 0, "type": "electric_scooter", "lon": -77.0465525, "bike_id": "8f4affe9992d3cc974536dd097acdc85", "fusion_lat": 0.0, "name": "8f4affe9992d3cc974536dd097acdc85", "is_reserved": 0, "rental_uris": {"android": "https://dc.lft.to/lastmile_qr_scan", "ios": "https://dc.lft.to/lastmile_qr_scan"}, "fusion_lon": 0.0}, {"lat": 38.90253633333333, "is_disabled": 0, "type": "electric_scooter", "lon": -77.017964, "bike_id": "f8396b1c5b1b5978c1f9612be22ec005", "fusion_lat": 0.0, "name": "f8396b1c5b1b5978c1f9612be22ec005", "is_reserved": 0, "rental_uris": {"android": "https://dc.lft.to/lastmile_qr_scan", "ios": "https://dc.lft.to/lastmile_qr_scan"}, "fusion_lon": 0.0}, {"lat": 38.912184, "is_disabled": 0, "type": "electric_scooter", "lon": -77.02802016666666, "bike_id": "2b77e0e3057666d371be00a5da144daf", "fusion_lat": 0.0, "name": "2b77e0e3057666d371be00a5da144daf", "is_reserved": 0, "rental_uris": {"android": "https://dc.lft.to/lastmile_qr_scan", "ios": "https://dc.lft.to/lastmile_qr_scan"}, "fusion_lon": 0.0}, {"lat": 38.918099166666664, "is_disabled": 0, "type": "electric_scooter", "lon": -77.02960916666666, "bike_id": "ffab9ce0467c385163366f546e244045", "fusion_lat": 0.0, "name": "ffab9ce0467c385163366f546e244045", "is_reserved": 0, "rental_uris": {"android": "https://dc.lft.to/lastmile_qr_scan", "ios": "https://dc.lft.to/lastmile_qr_scan"}, "fusion_lon": 0.0}, {"lat": 38.92465466666667, "is_disabled": 0, "type": "electric_scooter", "lon": -77.05233266666667, "bike_id": "1f6b6863a3bf4c2f8cfc95907d48d1dd", "fusion_lat": 0.0, "name": "1f6b6863a3bf4c2f8cfc95907d48d1dd", "is_reserved": 0, "rental_uris": {"android": "https://dc.lft.to/lastmile_qr_scan", "ios": "https://dc.lft.to/lastmile_qr_scan"}, "fusion_lon": 0.0}, {"lat": 38.914116666666665, "is_disabled": 0, "type": "electric_scooter", "lon": -77.02575766666666, "bike_id": "86efe89c16472ba20cf6c99af06d4a3d", "fusion_lat": 0.0, "name": "86efe89c16472ba20cf6c99af06d4a3d", "is_reserved": 0, "rental_uris": {"android": "https://dc.lft.to/lastmile_qr_scan", "ios": "https://dc.lft.to/lastmile_qr_scan"}, "fusion_lon": 0.0}, {"lat": 38.954070333333334, "is_disabled": 0, "type": "electric_scooter", "lon": -77.03633416666666, "bike_id": "17ddf42bae9d69a91101e48589968af9", "fusion_lat": 0.0, "name": "17ddf42bae9d69a91101e48589968af9", "is_reserved": 0, "rental_uris": {"android": "https://dc.lft.to/lastmile_qr_scan", "ios": "https://dc.lft.to/lastmile_qr_scan"}, "fusion_lon": 0.0}, {"lat": 38.905442, "is_disabled": 0, "type": "electric_scooter", "lon": -77.05706833333333, "bike_id": "ea18b26cd265defce379504641f61b51", "fusion_lat": 0.0, "name": "ea18b26cd265defce379504641f61b51", "is_reserved": 0, "rental_uris": {"android": "https://dc.lft.to/lastmile_qr_scan", "ios": "https://dc.lft.to/lastmile_qr_scan"}, "fusion_lon": 0.0}, {"lat": 38.899280833333336, "is_disabled": 0, "type": "electric_scooter", "lon": -77.032835, "bike_id": "ef155666f94a67d6bb19173e3c9a8f8d", "fusion_lat": 0.0, "name": "ef155666f94a67d6bb19173e3c9a8f8d", "is_reserved": 0, "rental_uris": {"android": "https://dc.lft.to/lastmile_qr_scan", "ios": "https://dc.lft.to/lastmile_qr_scan"}, "fusion_lon": 0.0}, {"lat": 38.9121135, "is_disabled": 0, "type": "electric_scooter", "lon": -77.04476016666666, "bike_id": "80d5790a7cd80233ded47d7273176404", "fusion_lat": 0.0, "name": "80d5790a7cd80233ded47d7273176404", "is_reserved": 0, "rental_uris": {"android": "https://dc.lft.to/lastmile_qr_scan", "ios": "https://dc.lft.to/lastmile_qr_scan"}, "fusion_lon": 0.0}, {"lat": 38.9078605, "is_disabled": 0, "type": "electric_scooter", "lon": -77.04226766666666, "bike_id": "e6f5d43bfd6788a21c543b23fa5f4f1f", "fusion_lat": 0.0, "name": "e6f5d43bfd6788a21c543b23fa5f4f1f", "is_reserved": 0, "rental_uris": {"android": "https://dc.lft.to/lastmile_qr_scan", "ios": "https://dc.lft.to/lastmile_qr_scan"}, "fusion_lon": 0.0}, {"lat": 38.898448333333334, "is_disabled": 0, "type": "electric_scooter", "lon": -76.94634916666666, "bike_id": "d2de0ab9f8ba6b2261fca7c4fae0d852", "fusion_lat": 0.0, "name": "d2de0ab9f8ba6b2261fca7c4fae0d852", "is_reserved": 0, "rental_uris": {"android": "https://dc.lft.to/lastmile_qr_scan", "ios": "https://dc.lft.to/lastmile_qr_scan"}, "fusion_lon": 0.0}, {"lat": 38.90496616666667, "is_disabled": 0, "type": "electric_scooter", "lon": -77.02815116666666, "bike_id": "03c61da004d6f4961ed69541ce144baa", "fusion_lat": 0.0, "name": "03c61da004d6f4961ed69541ce144baa", "is_reserved": 0, "rental_uris": {"android": "https://dc.lft.to/lastmile_qr_scan", "ios": "https://dc.lft.to/lastmile_qr_scan"}, "fusion_lon": 0.0}, {"lat": 38.955748, "is_disabled": 0, "type": "electric_scooter", "lon": -77.07008316666666, "bike_id": "abaa1e6b363d6903e68092fd82876f32", "fusion_lat": 0.0, "name": "abaa1e6b363d6903e68092fd82876f32", "is_reserved": 0, "rental_uris": {"android": "https://dc.lft.to/lastmile_qr_scan", "ios": "https://dc.lft.to/lastmile_qr_scan"}, "fusion_lon": 0.0}, {"lat": 38.8043275, "is_disabled": 0, "type": "electric_bike", "lon": -77.06096033333333, "bike_id": "364572c745d5e9630a3f451e5c618645", "fusion_lat": 0.0, "name": "364572c745d5e9630a3f451e5c618645", "is_reserved": 0, "rental_uris": {"android": "https://dc.lft.to/lastmile_qr_scan", "ios": "https://dc.lft.to/lastmile_qr_scan"}, "fusion_lon": 0.0}, {"lat": 38.869094, "is_disabled": 0, "type": "electric_bike", "lon": -77.13181516666667, "bike_id": "dc3f914a7793a83cef253e0cc26d207e", "fusion_lat": 0.0, "name": "dc3f914a7793a83cef253e0cc26d207e", "is_reserved": 0, "rental_uris": {"android": "https://dc.lft.to/lastmile_qr_scan", "ios": "https://dc.lft.to/lastmile_qr_scan"}, "fusion_lon": 0.0}, {"lat": 38.91045533333333, "is_disabled": 0, "type": "electric_scooter", "lon": -77.01508116666666, "bike_id": "e2c9b4483e6523faf193b3a33f7395f6", "fusion_lat": 0.0, "name": "e2c9b4483e6523faf193b3a33f7395f6", "is_reserved": 0, "rental_uris": {"android": "https://dc.lft.to/lastmile_qr_scan", "ios": "https://dc.lft.to/lastmile_qr_scan"}, "fusion_lon": 0.0}, {"lat": 38.881233, "is_disabled": 0, "type": "electric_scooter", "lon": -77.01414083333333, "bike_id": "dc79a4865704d1d5134b4d73d7144caf", "fusion_lat": 0.0, "name": "dc79a4865704d1d5134b4d73d7144caf", "is_reserved": 0, "rental_uris": {"android": "https://dc.lft.to/lastmile_qr_scan", "ios": "https://dc.lft.to/lastmile_qr_scan"}, "fusion_lon": 0.0}, {"lat": 39.01577066666667, "is_disabled": 0, "type": "electric_bike", "lon": -77.04239683333333, "bike_id": "c366af19291377b643a5d805db8f7f7b", "fusion_lat": 0.0, "name": "c366af19291377b643a5d805db8f7f7b", "is_reserved": 0, "rental_uris": {"android": "https://dc.lft.to/lastmile_qr_scan", "ios": "https://dc.lft.to/lastmile_qr_scan"}, "fusion_lon": 0.0}, {"lat": 38.92207583333333, "is_disabled": 0, "type": "electric_scooter", "lon": -77.0401205, "bike_id": "aab2f6c19ba52bc8bcd4152699913110", "fusion_lat": 0.0, "name": "aab2f6c19ba52bc8bcd4152699913110", "is_reserved": 0, "rental_uris": {"android": "https://dc.lft.to/lastmile_qr_scan", "ios": "https://dc.lft.to/lastmile_qr_scan"}, "fusion_lon": 0.0}, {"lat": 38.89698933333333, "is_disabled": 0, "type": "electric_scooter", "lon": -77.02150416666667, "bike_id": "dff5409a2381c2bcfd5414ccf497ee50", "fusion_lat": 0.0, "name": "dff5409a2381c2bcfd5414ccf497ee50", "is_reserved": 0, "rental_uris": {"android": "https://dc.lft.to/lastmile_qr_scan", "ios": "https://dc.lft.to/lastmile_qr_scan"}, "fusion_lon": 0.0}, {"lat": 38.9588085, "is_disabled": 0, "type": "electric_bike", "lon": -77.01031216666667, "bike_id": "ca11ef48fff2cabfc53d4e6da770bb5a", "fusion_lat": 0.0, "name": "ca11ef48fff2cabfc53d4e6da770bb5a", "is_reserved": 0, "rental_uris": {"android": "https://dc.lft.to/lastmile_qr_scan", "ios": "https://dc.lft.to/lastmile_qr_scan"}, "fusion_lon": 0.0}, {"lat": 38.920782, "is_disabled": 0, "type": "electric_scooter", "lon": -77.03180033333334, "bike_id": "8630b27878f4d669b814960d5d59c870", "fusion_lat": 0.0, "name": "8630b27878f4d669b814960d5d59c870", "is_reserved": 0, "rental_uris": {"android": "https://dc.lft.to/lastmile_qr_scan", "ios": "https://dc.lft.to/lastmile_qr_scan"}, "fusion_lon": 0.0}, {"lat": 38.907329, "is_disabled": 0, "type": "electric_scooter", "lon": -77.02974966666666, "bike_id": "7bb0daa57a6d88fe22a00f3907ab5e65", "fusion_lat": 0.0, "name": "7bb0daa57a6d88fe22a00f3907ab5e65", "is_reserved": 0, "rental_uris": {"android": "https://dc.lft.to/lastmile_qr_scan", "ios": "https://dc.lft.to/lastmile_qr_scan"}, "fusion_lon": 0.0}, {"lat": 38.922100666666665, "is_disabled": 0, "type": "electric_bike", "lon": -77.081936, "bike_id": "34d3f1e25a0d3ab254c017b464e2119d", "fusion_lat": 0.0, "name": "34d3f1e25a0d3ab254c017b464e2119d", "is_reserved": 0, "rental_uris": {"android": "https://dc.lft.to/lastmile_qr_scan", "ios": "https://dc.lft.to/lastmile_qr_scan"}, "fusion_lon": 0.0}, {"lat": 38.919580833333335, "is_disabled": 0, "type": "electric_scooter", "lon": -77.01437666666666, "bike_id": "d0ac33315ce35a419cf4ef7e49c7f3af", "fusion_lat": 0.0, "name": "d0ac33315ce35a419cf4ef7e49c7f3af", "is_reserved": 0, "rental_uris": {"android": "https://dc.lft.to/lastmile_qr_scan", "ios": "https://dc.lft.to/lastmile_qr_scan"}, "fusion_lon": 0.0}, {"lat": 38.90413483333333, "is_disabled": 0, "type": "electric_scooter", "lon": -77.05043016666667, "bike_id": "0d19b88cf597fc2ff4120e1789e1e23a", "fusion_lat": 0.0, "name": "0d19b88cf597fc2ff4120e1789e1e23a", "is_reserved": 0, "rental_uris": {"android": "https://dc.lft.to/lastmile_qr_scan", "ios": "https://dc.lft.to/lastmile_qr_scan"}, "fusion_lon": 0.0}, {"lat": 38.8867155, "is_disabled": 0, "type": "electric_bike", "lon": -77.1624485, "bike_id": "4c1a9091b48b4ec87d4b58bfecabc070", "fusion_lat": 0.0, "name": "4c1a9091b48b4ec87d4b58bfecabc070", "is_reserved": 0, "rental_uris": {"android": "https://dc.lft.to/lastmile_qr_scan", "ios": "https://dc.lft.to/lastmile_qr_scan"}, "fusion_lon": 0.0}, {"lat": 38.87723116666667, "is_disabled": 0, "type": "electric_scooter", "lon": -77.01772516666666, "bike_id": "7c4986407e5b7e51fc10508ca5610afd", "fusion_lat": 0.0, "name": "7c4986407e5b7e51fc10508ca5610afd", "is_reserved": 0, "rental_uris": {"android": "https://dc.lft.to/lastmile_qr_scan", "ios": "https://dc.lft.to/lastmile_qr_scan"}, "fusion_lon": 0.0}, {"lat": 38.948234, "is_disabled": 0, "type": "electric_scooter", "lon": -76.9990265, "bike_id": "9e5e32d2c7d7550a40af5df0de089a38", "fusion_lat": 0.0, "name": "9e5e32d2c7d7550a40af5df0de089a38", "is_reserved": 0, "rental_uris": {"android": "https://dc.lft.to/lastmile_qr_scan", "ios": "https://dc.lft.to/lastmile_qr_scan"}, "fusion_lon": 0.0}, {"lat": 38.8859685, "is_disabled": 0, "type": "electric_scooter", "lon": -77.01893083333333, "bike_id": "6774676ae299be9ead2db2be94a57f19", "fusion_lat": 0.0, "name": "6774676ae299be9ead2db2be94a57f19", "is_reserved": 0, "rental_uris": {"android": "https://dc.lft.to/lastmile_qr_scan", "ios": "https://dc.lft.to/lastmile_qr_scan"}, "fusion_lon": 0.0}, {"lat": 38.91704433333334, "is_disabled": 0, "type": "electric_scooter", "lon": -76.979315, "bike_id": "87be40bbec54e0a9d5165523774b0ff7", "fusion_lat": 0.0, "name": "87be40bbec54e0a9d5165523774b0ff7", "is_reserved": 0, "rental_uris": {"android": "https://dc.lft.to/lastmile_qr_scan", "ios": "https://dc.lft.to/lastmile_qr_scan"}, "fusion_lon": 0.0}, {"lat": 38.88550083333333, "is_disabled": 0, "type": "electric_bike", "lon": -77.11786466666666, "bike_id": "3e7d4b78e614503c3990dc665ce17f8f", "fusion_lat": 0.0, "name": "3e7d4b78e614503c3990dc665ce17f8f", "is_reserved": 0, "rental_uris": {"android": "https://dc.lft.to/lastmile_qr_scan", "ios": "https://dc.lft.to/lastmile_qr_scan"}, "fusion_lon": 0.0}, {"lat": 38.906256166666665, "is_disabled": 0, "type": "electric_bike", "lon": -76.98615733333334, "bike_id": "dec1857720dd13de2a58a23ce19ff499", "fusion_lat": 0.0, "name": "dec1857720dd13de2a58a23ce19ff499", "is_reserved": 0, "rental_uris": {"android": "https://dc.lft.to/lastmile_qr_scan", "ios": "https://dc.lft.to/lastmile_qr_scan"}, "fusion_lon": 0.0}, {"lat": 38.90825783333333, "is_disabled": 0, "type": "electric_scooter", "lon": -77.02000883333334, "bike_id": "c0cff1eef27d1258d4d0fcd45c962b75", "fusion_lat": 0.0, "name": "c0cff1eef27d1258d4d0fcd45c962b75", "is_reserved": 0, "rental_uris": {"android": "https://dc.lft.to/lastmile_qr_scan", "ios": "https://dc.lft.to/lastmile_qr_scan"}, "fusion_lon": 0.0}, {"lat": 38.907175, "is_disabled": 0, "type": "electric_scooter", "lon": -77.04819316666666, "bike_id": "ee21c93b506a0396a9e7f19ad6beb7ac", "fusion_lat": 0.0, "name": "ee21c93b506a0396a9e7f19ad6beb7ac", "is_reserved": 0, "rental_uris": {"android": "https://dc.lft.to/lastmile_qr_scan", "ios": "https://dc.lft.to/lastmile_qr_scan"}, "fusion_lon": 0.0}, {"lat": 38.86706216666666, "is_disabled": 0, "type": "electric_scooter", "lon": -76.98730483333334, "bike_id": "0d2cb8bab6d81b1211422c0625db45a9", "fusion_lat": 0.0, "name": "0d2cb8bab6d81b1211422c0625db45a9", "is_reserved": 0, "rental_uris": {"android": "https://dc.lft.to/lastmile_qr_scan", "ios": "https://dc.lft.to/lastmile_qr_scan"}, "fusion_lon": 0.0}, {"lat": 38.90122783333333, "is_disabled": 0, "type": "electric_scooter", "lon": -77.04150733333333, "bike_id": "ba4d2e14789bf3e6b5073633aa0323b7", "fusion_lat": 0.0, "name": "ba4d2e14789bf3e6b5073633aa0323b7", "is_reserved": 0, "rental_uris": {"android": "https://dc.lft.to/lastmile_qr_scan", "ios": "https://dc.lft.to/lastmile_qr_scan"}, "fusion_lon": 0.0}, {"lat": 38.9086295, "is_disabled": 0, "type": "electric_bike", "lon": -76.94010866666666, "bike_id": "0a6bb52528dafbb3f4a3d7167a907615", "fusion_lat": 0.0, "name": "0a6bb52528dafbb3f4a3d7167a907615", "is_reserved": 0, "rental_uris": {"android": "https://dc.lft.to/lastmile_qr_scan", "ios": "https://dc.lft.to/lastmile_qr_scan"}, "fusion_lon": 0.0}, {"lat": 38.9067955, "is_disabled": 0, "type": "electric_scooter", "lon": -77.0364065, "bike_id": "65d5389b50e4bfe863e7bc0a6a61653c", "fusion_lat": 0.0, "name": "65d5389b50e4bfe863e7bc0a6a61653c", "is_reserved": 0, "rental_uris": {"android": "https://dc.lft.to/lastmile_qr_scan", "ios": "https://dc.lft.to/lastmile_qr_scan"}, "fusion_lon": 0.0}, {"lat": 38.90775983333333, "is_disabled": 0, "type": "electric_scooter", "lon": -77.038604, "bike_id": "d76bcd8578815674f0af72e580cd7642", "fusion_lat": 0.0, "name": "d76bcd8578815674f0af72e580cd7642", "is_reserved": 0, "rental_uris": {"android": "https://dc.lft.to/lastmile_qr_scan", "ios": "https://dc.lft.to/lastmile_qr_scan"}, "fusion_lon": 0.0}, {"lat": 38.9127895, "is_disabled": 0, "type": "electric_scooter", "lon": -77.04508516666667, "bike_id": "d6f28bef1c9758a7fdf1ff64a40c077d", "fusion_lat": 0.0, "name": "d6f28bef1c9758a7fdf1ff64a40c077d", "is_reserved": 0, "rental_uris": {"android": "https://dc.lft.to/lastmile_qr_scan", "ios": "https://dc.lft.to/lastmile_qr_scan"}, "fusion_lon": 0.0}, {"lat": 38.84505883333333, "is_disabled": 0, "type": "electric_bike", "lon": -76.99355833333334, "bike_id": "81c9fca0b7e5f91997ff5972f8793d1c", "fusion_lat": 0.0, "name": "81c9fca0b7e5f91997ff5972f8793d1c", "is_reserved": 0, "rental_uris": {"android": "https://dc.lft.to/lastmile_qr_scan", "ios": "https://dc.lft.to/lastmile_qr_scan"}, "fusion_lon": 0.0}, {"lat": 38.8965565, "is_disabled": 0, "type": "electric_scooter", "lon": -77.00521533333334, "bike_id": "37e0339df0479028ecf960bdf1108ddd", "fusion_lat": 0.0, "name": "37e0339df0479028ecf960bdf1108ddd", "is_reserved": 0, "rental_uris": {"android": "https://dc.lft.to/lastmile_qr_scan", "ios": "https://dc.lft.to/lastmile_qr_scan"}, "fusion_lon": 0.0}, {"lat": 38.928265, "is_disabled": 0, "type": "electric_scooter", "lon": -77.054531, "bike_id": "b236a32078b3456356aa996d6ca28cbe", "fusion_lat": 0.0, "name": "b236a32078b3456356aa996d6ca28cbe", "is_reserved": 0, "rental_uris": {"android": "https://dc.lft.to/lastmile_qr_scan", "ios": "https://dc.lft.to/lastmile_qr_scan"}, "fusion_lon": 0.0}, {"lat": 38.905844, "is_disabled": 0, "type": "electric_scooter", "lon": -76.986211, "bike_id": "8dee1dfd645a7a49cb9c57d3cf2a5d52", "fusion_lat": 0.0, "name": "8dee1dfd645a7a49cb9c57d3cf2a5d52", "is_reserved": 0, "rental_uris": {"android": "https://dc.lft.to/lastmile_qr_scan", "ios": "https://dc.lft.to/lastmile_qr_scan"}, "fusion_lon": 0.0},