{"data": {"bikes": [{"name": "1284223e3c1acbbafb72c7023ccd957d", "type": "electric_scooter", "lat": 38.910832166666665, "is_reserved": 0, "lon": -77.04478616666667, "fusion_lon": 0.0, "is_disabled": 0, "fusion_lat": 0.0, "bike_id": "1284223e3c1acbbafb72c7023ccd957d", "rental_uris": {"ios": "https://dc.lft.to/lastmile_qr_scan", "android": "https://dc.lft.to/lastmile_qr_scan"}}, {"name": "9dc97126e866f8a8509f240ff9571c80", "type": "electric_scooter", "lat": 38.94178216666667, "is_reserved": 0, "lon": -77.03093216666667, "fusion_lon": 0.0, "is_disabled": 0, "fusion_lat": 0.0, "bike_id": "9dc97126e866f8a8509f240ff9571c80", "rental_uris": {"ios": "https://dc.lft.to/lastmile_qr_scan", "android": "https://dc.lft.to/lastmile_qr_scan"}}, {"name": "d8f89cdd2f95555a5f8041b41db21cac", "type": "electric_scooter", "lat": 38.92317716666667, "is_reserved": 0, "lon": -77.04029266666667, "fusion_lon": 0.0, "is_disabled": 0, "fusion_lat": 0.0, "bike_id": "d8f89cdd2f95555a5f8041b41db21cac", "rental_uris": {"ios": "https://dc.lft.to/lastmile_qr_scan", "android": "https://dc.lft.to/lastmile_qr_scan"}}, {"name": "933aed947b746f4839da38452443360c", "type": "electric_scooter", "lat": 38.92100533333333, "is_reserved": 0, "lon": -76.99386383333334, "fusion_lon": 0.0, "is_disabled": 0, "fusion_lat": 0.0, "bike_id": "933aed947b746f4839da38452443360c", "rental_uris": {"ios": "https://dc.lft.to/lastmile_qr_scan", "android": "https://dc.lft.to/lastmile_qr_scan"}}, {"name": "59a461ff9cb4893a796335a36480dec0", "type": "electric_scooter", "lat": 38.926833333333335, "is_reserved": 0, "lon": -77.021602, "fusion_lon": 0.0, "is_disabled": 0, "fusion_lat": 0.0, "bike_id": "59a461ff9cb4893a796335a36480dec0", "rental_uris": {"ios": "https://dc.lft.to/lastmile_qr_scan", "android": "https://dc.lft.to/lastmile_qr_scan"}}, {"name": "0b82e40e1c5fa87d535e118ac6262ee5", "type": "electric_bike", "lat": 38.854379333333334, "is_reserved": 0, "lon": -77.11705, "fusion_lon": 0.0, "is_disabled": 0, "fusion_lat": 0.0, "bike_id": "0b82e40e1c5fa87d535e118ac6262ee5", "rental_uris": {"ios": "https://dc.lft.to/lastmile_qr_scan", "android": "https://dc.lft.to/lastmile_qr_scan"}}, {"name": "19be44d8d2ea033e325809f3c3039a55", "type": "electric_scooter", "lat": 38.89961, "is_reserved": 0, "lon": -77.05048366666666, "fusion_lon": 0.0, "is_disabled": 0, "fusion_lat": 0.0, "bike_id": "19be44d8d2ea033e325809f3c3039a55", "rental_uris": {"ios": "https://dc.lft.to/lastmile_qr_scan", "android": "https://dc.lft.to/lastmile_qr_scan"}}, {"name": "1e15a8dbae1fb6e0e0e9450d3621a341", "type": "electric_scooter", "lat": 38.895247833333336, "is_reserved": 0, "lon": -77.01615, "fusion_lon": 0.0, "is_disabled": 0, "fusion_lat": 0.0, "bike_id": "1e15a8dbae1fb6e0e0e9450d3621a341", "rental_uris": {"ios": "https://dc.lft.to/lastmile_qr_scan", "android": "https://dc.lft.to/lastmile_qr_scan"}}, {"name": "995046212d0d45d28e5fa12a33a1f0f0", "type": "electric_scooter", "lat": 38.9025625, "is_reserved": 0, "lon": -77.02910033333333, "fusion_lon": 0.0, "is_disabled": 0, "fusion_lat": 0.0, "bike_id": "995046212d0d45d28e5fa12a33a1f0f0", "rental_uris": {"ios": "https://dc.lft.to/lastmile_qr_scan", "android": "https://dc.lft.to/lastmile_qr_scan"}}, {"name": "e3b31e778eb899e8f8bb48fa092aa318", "type": "electric_scooter", "lat": 38.93502133333333, "is_reserved": 0, "lon": -77.02853983333334, "fusion_lon": 0.0, "is_disabled": 0, "fusion_lat": 0.0, "bike_id": "e3b31e778eb899e8f8bb48fa092aa318", "rental_uris": {"ios": "https://dc.lft.to/lastmile_qr_scan", "android": "https://dc.lft.to/lastmile_qr_scan"}}, {"name": "e2524f74c201761d10b6e7ee749e8f12", "type": "electric_scooter", "lat": 38.884984333333335, "is_reserved": 0, "lon": -77.02097916666666, "fusion_lon": 0.0, "is_disabled": 0, "fusion_lat": 0.0, "bike_id": "e2524f74c201761d10b6e7ee749e8f12", "rental_uris": {"ios": "https://dc.lft.to/lastmile_qr_scan", "android": "https://dc.lft.to/lastmile_qr_scan"}}, {"name": "c9bd8dffa40ea32757c5e4c04d5b7886", "type": "electric_scooter", "lat": 38.92125683333333, "is_reserved": 0, "lon": -77.01019483333333, "fusion_lon": 0.0, "is_disabled": 0, "fusion_lat": 0.0, "bike_id": "c9bd8dffa40ea32757c5e4c04d5b7886", "rental_uris": {"ios": "https://dc.lft.to/lastmile_qr_scan", "android": "https://dc.lft.to/lastmile_qr_scan"}}, {"name": "da1bf9a186ba6d534f958dfd1ddf6c4b", "type": "electric_scooter", "lat": 38.9079705, "is_reserved": 0, "lon": -76.99700633333333, "fusion_lon": 0.0, "is_disabled": 0, "fusion_lat": 0.0, "bike_id": "da1bf9a186ba6d534f958dfd1ddf6c4b", "rental_uris": {"ios": "https://dc.lft.to/lastmile_qr_scan", "android": "https://dc.lft.to/lastmile_qr_scan"}}, {"name": "61df159d66473c93dc5352ea88412ac2", "type": "electric_scooter", "lat": 38.90598583333333, "is_reserved": 0, "lon": -77.040399, "fusion_lon": 0.0, "is_disabled": 0, "fusion_lat": 0.0, "bike_id": "61df159d66473c93dc5352ea88412ac2", "rental_uris": {"ios": "https://dc.lft.to/lastmile_qr_scan", "android": "https://dc.lft.to/lastmile_qr_scan"}}, {"name": "8db1ec02ea73b9476260316e4bad057e", "type": "electric_scooter", "lat": 38.93902583333333, "is_reserved": 0, "lon": -77.07724733333333, "fusion_lon": 0.0, "is_disabled": 0, "fusion_lat": 0.0, "bike_id": "8db1ec02ea73b9476260316e4bad057e", "rental_uris": {"ios": "https://dc.lft.to/lastmile_qr_scan", "android": "https://dc.lft.to/lastmile_qr_scan"}}, {"name": "36817eb5524fe7c97850aea8565f843f", "type": "electric_scooter", "lat": 38.93383683333333, "is_reserved": 0, "lon": -77.034728, "fusion_lon": 0.0, "is_disabled": 0, "fusion_lat": 0.0, "bike_id": "36817eb5524fe7c97850aea8565f843f", "rental_uris": {"ios": "https://dc.lft.to/lastmile_qr_scan", "android": "https://dc.lft.to/lastmile_qr_scan"}}, {"name": "148d246c8c5d6976986dce495d84a736", "type": "electric_scooter", "lat": 38.92846933333333, "is_reserved": 0, "lon": -77.03736566666667, "fusion_lon": 0.0, "is_disabled": 0, "fusion_lat": 0.0, "bike_id": "148d246c8c5d6976986dce495d84a736", "rental_uris": {"ios": "https://dc.lft.to/lastmile_qr_scan", "android": "https://dc.lft.to/lastmile_qr_scan"}}, {"name": "ca1cf5c8e2abc8d5f296caec84f481f9", "type": "electric_scooter", "lat": 38.88495016666667, "is_reserved": 0, "lon": -77.0089685, "fusion_lon": 0.0, "is_disabled": 0, "fusion_lat": 0.0, "bike_id": "ca1cf5c8e2abc8d5f296caec84f481f9", "rental_uris": {"ios": "https://dc.lft.to/lastmile_qr_scan", "android": "https://dc.lft.to/lastmile_qr_scan"}}, {"name": "d986bb5abd63217790532738e01f0dcc", "type": "electric_bike", "lat": 38.9482995, "is_reserved": 0, "lon": -77.03899066666666, "fusion_lon": 0.0, "is_disabled": 0, "fusion_lat": 0.0, "bike_id": "d986bb5abd63217790532738e01f0dcc", "rental_uris": {"ios": "https://dc.lft.to/lastmile_qr_scan", "android": "https://dc.lft.to/lastmile_qr_scan"}}, {"name": "845278d228c5521b5cbe961b5a593a4a", "type": "electric_scooter", "lat": 38.89470883333333, "is_reserved": 0, "lon": -77.030658, "fusion_lon": 0.0, "is_disabled": 0, "fusion_lat": 0.0, "bike_id": "845278d228c5521b5cbe961b5a593a4a", "rental_uris": {"ios": "https://dc.lft.to/lastmile_qr_scan", "android": "https://dc.lft.to/lastmile_qr_scan"}}, {"name": "3e7a14c178baf5bb907c0933ee643a84", "type": "electric_scooter", "lat": 38.91219266666667, "is_reserved": 0, "lon": -77.07593716666666, "fusion_lon": 0.0, "is_disabled": 0, "fusion_lat": 0.0, "bike_id": "3e7a14c178baf5bb907c0933ee643a84", "rental_uris": {"ios": "https://dc.lft.to/lastmile_qr_scan", "android": "https://dc.lft.to/lastmile_qr_scan"}}, {"name": "6120e2d171c1a4b6787cc79245dcaf67", "type": "electric_scooter", "lat": 38.9682135, "is_reserved": 0, "lon": -77.0178985, "fusion_lon": 0.0, "is_disabled": 0, "fusion_lat": 0.0, "bike_id": "6120e2d171c1a4b6787cc79245dcaf67", "rental_uris": {"ios": "https://dc.lft.to/lastmile_qr_scan", "android": "https://dc.lft.to/lastmile_qr_scan"}}, {"name": "52707fafd07c557f1edd7312047244c3", "type": "electric_scooter", "lat": 38.92578183333333, "is_reserved": 0, "lon": -77.05263066666667, "fusion_lon": 0.0, "is_disabled": 0, "fusion_lat": 0.0, "bike_id": "52707fafd07c557f1edd7312047244c3", "rental_uris": {"ios": "https://dc.lft.to/lastmile_qr_scan", "android": "https://dc.lft.to/lastmile_qr_scan"}}, {"name": "559c34d95bfb528f55adeb503e780d70", "type": "electric_scooter", "lat": 38.8922215, "is_reserved": 0, "lon": -77.033409, "fusion_lon": 0.0, "is_disabled": 0, "fusion_lat": 0.0, "bike_id": "559c34d95bfb528f55adeb503e780d70", "rental_uris": {"ios": "https://dc.lft.to/lastmile_qr_scan", "android": "https://dc.lft.to/lastmile_qr_scan"}}, {"name": "c517ccbbe712ec7ba333edafadd9c0c3", "type": "electric_scooter", "lat": 38.92300783333334, "is_reserved": 0, "lon": -77.04144066666667, "fusion_lon": 0.0, "is_disabled": 0, "fusion_lat": 0.0, "bike_id": "c517ccbbe712ec7ba333edafadd9c0c3", "rental_uris": {"ios": "https://dc.lft.to/lastmile_qr_scan", "android": "https://dc.lft.to/lastmile_qr_scan"}}, {"name": "df5f9b4262f5c81aa59408e7688cbea0", "type": "electric_scooter", "lat": 38.924853666666664, "is_reserved": 0, "lon": -77.0214235, "fusion_lon": 0.0, "is_disabled": 0, "fusion_lat": 0.0, "bike_id": "df5f9b4262f5c81aa59408e7688cbea0", "rental_uris": {"ios": "https://dc.lft.to/lastmile_qr_scan", "android": "https://dc.lft.to/lastmile_qr_scan"}}, {"name": "5804dac7c19e9bb7357fbd26d3a2d0f1", "type": "electric_scooter", "lat": 38.90416533333333, "is_reserved": 0, "lon": -77.02948166666667, "fusion_lon": 0.0, "is_disabled": 0, "fusion_lat": 0.0, "bike_id": "5804dac7c19e9bb7357fbd26d3a2d0f1", "rental_uris": {"ios": "https://dc.lft.to/lastmile_qr_scan", "android": "https://dc.lft.to/lastmile_qr_scan"}}, {"name": "a483d26995813b75781848c74925eba6", "type": "electric_scooter", "lat": 38.90457683333333, "is_reserved": 0, "lon": -76.9950495, "fusion_lon": 0.0, "is_disabled": 0, "fusion_lat": 0.0, "bike_id": "a483d26995813b75781848c74925eba6", "rental_uris": {"ios": "https://dc.lft.to/lastmile_qr_scan", "android": "https://dc.lft.to/lastmile_qr_scan"}}, {"name": "e134f406f24bd1f260b537cb6f23cd6d", "type": "electric_scooter", "lat": 38.8872505, "is_reserved": 0, "lon": -77.028348, "fusion_lon": 0.0, "is_disabled": 0, "fusion_lat": 0.0, "bike_id": "e134f406f24bd1f260b537cb6f23cd6d", "rental_uris": {"ios": "https://dc.lft.to/lastmile_qr_scan", "android": "https://dc.lft.to/lastmile_qr_scan"}}, {"name": "35276c16b6313746d1a3bf40df2e01f8", "type": "electric_scooter", "lat": 38.89625266666667, "is_reserved": 0, "lon": -77.0322785, "fusion_lon": 0.0, "is_disabled": 0, "fusion_lat": 0.0, "bike_id": "35276c16b6313746d1a3bf40df2e01f8", "rental_uris": {"ios": "https://dc.lft.to/lastmile_qr_scan", "android": "https://dc.lft.to/lastmile_qr_scan"}}, {"name": "134bd3c25778345b694838c40a25edec", "type": "electric_scooter", "lat": 38.896074666666664, "is_reserved": 0, "lon": -77.04512083333333, "fusion_lon": 0.0, "is_disabled": 0, "fusion_lat": 0.0, "bike_id": "134bd3c25778345b694838c40a25edec", "rental_uris": {"ios": "https://dc.lft.to/lastmile_qr_scan", "android": "https://dc.lft.to/lastmile_qr_scan"}}, {"name": "e47aa0817ad7106653a63b1e4e2d6f2e", "type": "electric_scooter", "lat": 38.90962016666667, "is_reserved": 0, "lon": -77.04656233333333, "fusion_lon": 0.0, "is_disabled": 0, "fusion_lat": 0.0, "bike_id": "e47aa0817ad7106653a63b1e4e2d6f2e", "rental_uris": {"ios": "https://dc.lft.to/lastmile_qr_scan", "android": "https://dc.lft.to/lastmile_qr_scan"}}, {"name": "7710cf7977e9cb4c1eabdad7886edf69", "type": "electric_scooter", "lat": 38.959246666666665, "is_reserved": 0, "lon": -77.03323533333334, "fusion_lon": 0.0, "is_disabled": 0, "fusion_lat": 0.0, "bike_id": "7710cf7977e9cb4c1eabdad7886edf69", "rental_uris": {"ios": "https://dc.lft.to/lastmile_qr_scan", "android": "https://dc.lft.to/lastmile_qr_scan"}}, {"name": "2823e695d51ef13f2438748b13982d61", "type": "electric_scooter", "lat": 38.90348633333333, "is_reserved": 0, "lon": -77.038308, "fusion_lon": 0.0, "is_disabled": 0, "fusion_lat": 0.0, "bike_id": "2823e695d51ef13f2438748b13982d61", "rental_uris": {"ios": "https://dc.lft.to/lastmile_qr_scan", "android": "https://dc.lft.to/lastmile_qr_scan"}}, {"name": "9c7e3f8370ad9b8b9f9d413d53903dc5", "type": "electric_scooter", "lat": 38.90534566666667, "is_reserved": 0, "lon": -77.027085, "fusion_lon": 0.0, "is_disabled": 0, "fusion_lat": 0.0, "bike_id": "9c7e3f8370ad9b8b9f9d413d53903dc5", "rental_uris": {"ios": "https://dc.lft.to/lastmile_qr_scan", "android": "https://dc.lft.to/lastmile_qr_scan"}}, {"name": "98bc3ae8fc3dc14a195682e3f6f98dcc", "type": "electric_scooter", "lat": 38.9164905, "is_reserved": 0, "lon": -77.03211783333333, "fusion_lon": 0.0, "is_disabled": 0, "fusion_lat": 0.0, "bike_id": "98bc3ae8fc3dc14a195682e3f6f98dcc", "rental_uris": {"ios": "https://dc.lft.to/lastmile_qr_scan", "android": "https://dc.lft.to/lastmile_qr_scan"}}, {"name": "3c0b150a195fd043f22d564d81b09c6b", "type": "electric_scooter", "lat": 38.91669, "is_reserved": 0, "lon": -77.00503833333333, "fusion_lon": 0.0, "is_disabled": 0, "fusion_lat": 0.0, "bike_id": "3c0b150a195fd043f22d564d81b09c6b", "rental_uris": {"ios": "https://dc.lft.to/lastmile_qr_scan", "android": "https://dc.lft.to/lastmile_qr_scan"}}, {"name": "214f1f835e75b417aaf4d99f14a31cf7", "type": "electric_scooter", "lat": 38.90372383333333, "is_reserved": 0, "lon": -77.029945, "fusion_lon": 0.0, "is_disabled": 0, "fusion_lat": 0.0, "bike_id": "214f1f835e75b417aaf4d99f14a31cf7", "rental_uris": {"ios": "https://dc.lft.to/lastmile_qr_scan", "android": "https://dc.lft.to/lastmile_qr_scan"}}, {"name": "aeaf8a84e8c88f7335cd4d40e4f2d4e9", "type": "electric_scooter", "lat": 38.91061416666667, "is_reserved": 0, "lon": -77.0435715, "fusion_lon": 0.0, "is_disabled": 0, "fusion_lat": 0.0, "bike_id": "aeaf8a84e8c88f7335cd4d40e4f2d4e9", "rental_uris": {"ios": "https://dc.lft.to/lastmile_qr_scan", "android": "https://dc.lft.to/lastmile_qr_scan"}}, {"name": "31a32acec5821f3107377b80fa6ef6d3", "type": "electric_scooter", "lat": 38.919548166666665, "is_reserved": 0, "lon": -77.03214633333333, "fusion_lon": 0.0, "is_disabled": 0, "fusion_lat": 0.0, "bike_id": "31a32acec5821f3107377b80fa6ef6d3", "rental_uris": {"ios": "https://dc.lft.to/lastmile_qr_scan", "android": "https://dc.lft.to/lastmile_qr_scan"}}, {"name": "3cfb7269035dbb5501938b8dedd021eb", "type": "electric_scooter", "lat": 38.89673883333333, "is_reserved": 0, "lon": -76.947225, "fusion_lon": 0.0, "is_disabled": 0, "fusion_lat": 0.0, "bike_id": "3cfb7269035dbb5501938b8dedd021eb", "rental_uris": {"ios": "https://dc.lft.to/lastmile_qr_scan", "android": "https://dc.lft.to/lastmile_qr_scan"}}, {"name": "0b8a1274a8675282d375a59e67a9321e", "type": "electric_scooter", "lat": 38.90269816666667, "is_reserved": 0, "lon": -77.04365183333333, "fusion_lon": 0.0, "is_disabled": 0, "fusion_lat": 0.0, "bike_id": "0b8a1274a8675282d375a59e67a9321e", "rental_uris": {"ios": "https://dc.lft.to/lastmile_qr_scan", "android": "https://dc.lft.to/lastmile_qr_scan"}}, {"name": "725f261dcc7c8e270ea942d8663a288e", "type": "electric_scooter", "lat": 38.909676166666664, "is_reserved": 0, "lon": -77.007645, "fusion_lon": 0.0, "is_disabled": 0, "fusion_lat": 0.0, "bike_id": "725f261dcc7c8e270ea942d8663a288e", "rental_uris": {"ios": "https://dc.lft.to/lastmile_qr_scan", "android": "https://dc.lft.to/lastmile_qr_scan"}}, {"name": "5f2c3883e873d7d972418bbd15d678e9", "type": "electric_bike", "lat": 38.80227333333333, "is_reserved": 0, "lon": -77.07920483333334, "fusion_lon": 0.0, "is_disabled": 0, "fusion_lat": 0.0, "bike_id": "5f2c3883e873d7d972418bbd15d678e9", "rental_uris": {"ios": "https://dc.lft.to/lastmile_qr_scan", "android": "https://dc.lft.to/lastmile_qr_scan"}}, {"name": "8120e8cfde0e915befc377a1ca50ef38", "type": "electric_scooter", "lat": 38.931985, "is_reserved": 0, "lon": -77.0388525, "fusion_lon": 0.0, "is_disabled": 0, "fusion_lat": 0.0, "bike_id": "8120e8cfde0e915befc377a1ca50ef38", "rental_uris": {"ios": "https://dc.lft.to/lastmile_qr_scan", "android": "https://dc.lft.to/lastmile_qr_scan"}}, {"name": "10def163626b3a0ce124275d12683213", "type": "electric_scooter", "lat": 38.929483833333336, "is_reserved": 0, "lon": -77.04400883333334, "fusion_lon": 0.0, "is_disabled": 0, "fusion_lat": 0.0, "bike_id": "10def163626b3a0ce124275d12683213", "rental_uris": {"ios": "https://dc.lft.to/lastmile_qr_scan", "android": "https://dc.lft.to/lastmile_qr_scan"}}, {"name": "3018564578cbfceaa1d8b8a7045b3254", "type": "electric_scooter", "lat": 38.89191433333333, "is_reserved": 0, "lon": -77.0458795, "fusion_lon": 0.0, "is_disabled": 0, "fusion_lat": 0.0, "bike_id": "3018564578cbfceaa1d8b8a7045b3254", "rental_uris": {"ios": "https://dc.lft.to/lastmile_qr_scan", "android": "https://dc.lft.to/lastmile_qr_scan"}}, {"name": "70ae2bcef8f40039c0690f106fca6d78", "type": "electric_scooter", "lat": 38.90658416666667, "is_reserved": 0, "lon": -77.03920716666667, "fusion_lon": 0.0, "is_disabled": 0, "fusion_lat": 0.0, "bike_id": "70ae2bcef8f40039c0690f106fca6d78", "rental_uris": {"ios": "https://dc.lft.to/lastmile_qr_scan", "android": "https://dc.lft.to/lastmile_qr_scan"}}, {"name": "6a90e0bf0e0c2c8be0dbfdb5450449b0", "type": "electric_scooter", "lat": 38.944117166666665, "is_reserved": 0, "lon": -77.05515233333334, "fusion_lon": 0.0, "is_disabled": 0, "fusion_lat": 0.0, "bike_id": "6a90e0bf0e0c2c8be0dbfdb5450449b0", "rental_uris": {"ios": "https://dc.lft.to/lastmile_qr_scan", "android": "https://dc.lft.to/lastmile_qr_scan"}}, {"name": "ca73fca03e53f8141e73f9aa85d0c60a", "type": "electric_scooter", "lat": 38.901436833333335, "is_reserved": 0, "lon": -77.0332335, "fusion_lon": 0.0, "is_disabled": 0, "fusion_lat": 0.0, "bike_id": "ca73fca03e53f8141e73f9aa85d0c60a", "rental_uris": {"ios": "https://dc.lft.to/lastmile_qr_scan", "android": "https://dc.lft.to/lastmile_qr_scan"}}, {"name": "d061a9e677f24ac76d9900d88fe97a0d", "type": "electric_bike", "lat": 38.906879, "is_reserved": 0, "lon": -76.95186333333334, "fusion_lon": 0.0, "is_disabled": 0, "fusion_lat": 0.0, "bike_id": "d061a9e677f24ac76d9900d88fe97a0d", "rental_uris": {"ios": "https://dc.lft.to/lastmile_qr_scan", "android": "https://dc.lft.to/lastmile_qr_scan"}}, {"name": "804d78188b0bb28cb23b9606098cc28d", "type": "electric_scooter", "lat": 38.9169065, "is_reserved": 0, "lon": -77.01579966666667, "fusion_lon": 0.0, "is_disabled": 0, "fusion_lat": 0.0, "bike_id": "804d78188b0bb28cb23b9606098cc28d", "rental_uris": {"ios": "https://dc.lft.to/lastmile_qr_scan", "android": "https://dc.lft.to/lastmile_qr_scan"}}, {"name": "34bfbba9423d7496b8069843322691f4", "type": "electric_scooter", "lat": 38.9235865, "is_reserved": 0, "lon": -77.0524455, "fusion_lon": 0.0, "is_disabled": 0, "fusion_lat": 0.0, "bike_id": "34bfbba9423d7496b8069843322691f4", "rental_uris": {"ios": "https://dc.lft.to/lastmile_qr_scan", "android": "https://dc.lft.to/lastmile_qr_scan"}}, {"name": "0e7322c2e075b0e3b1275a2c8d54b8cf", "type": "electric_scooter", "lat": 38.93082916666667, "is_reserved": 0, "lon": -77.02795266666666, "fusion_lon": 0.0, "is_disabled": 0, "fusion_lat": 0.0, "bike_id": "0e7322c2e075b0e3b1275a2c8d54b8cf", "rental_uris": {"ios": "https://dc.lft.to/lastmile_qr_scan", "android": "https://dc.lft.to/lastmile_qr_scan"}}, {"name": "e2b9a37a8672ee53d636fa57263a976c", "type": "electric_scooter", "lat": 38.90032566666667, "is_reserved": 0, "lon": -77.030127, "fusion_lon": 0.0, "is_disabled": 0, "fusion_lat": 0.0, "bike_id": "e2b9a37a8672ee53d636fa57263a976c", "rental_uris": {"ios": "https://dc.lft.to/lastmile_qr_scan", "android": "https://dc.lft.to/lastmile_qr_scan"}}, {"name": "df6cfcbcb7fcbfe83d775138809ee6c1", "type": "electric_scooter", "lat": 38.932005833333335, "is_reserved": 0, "lon": -77.03854616666666, "fusion_lon": 0.0, "is_disabled": 0, "fusion_lat": 0.0, "bike_id": "df6cfcbcb7fcbfe83d775138809ee6c1", "rental_uris": {"ios": "https://dc.lft.to/lastmile_qr_scan", "android": "https://dc.lft.to/lastmile_qr_scan"}}, {"name": "5aae5f2e4c80194edd7f2f702c6f27d4", "type": "electric_scooter", "lat": 38.928694, "is_reserved": 0, "lon": -77.03481233333333, "fusion_lon": 0.0, "is_disabled": 0, "fusion_lat": 0.0, "bike_id": "5aae5f2e4c80194edd7f2f702c6f27d4", "rental_uris": {"ios": "https://dc.lft.to/lastmile_qr_scan", "android": "https://dc.lft.to/lastmile_qr_scan"}}, {"name": "4fe19fd3b11c60ed7ef2fbb3e2533f26", "type": "electric_scooter", "lat": 38.924683, "is_reserved": 0, "lon": -77.02836633333334, "fusion_lon": 0.0, "is_disabled": 0, "fusion_lat": 0.0, "bike_id": "4fe19fd3b11c60ed7ef2fbb3e2533f26", "rental_uris": {"ios": "https://dc.lft.to/lastmile_qr_scan", "android": "https://dc.lft.to/lastmile_qr_scan"}}, {"name": "c059c6639e0db4cfb6d0880fa975bdbd", "type": "electric_scooter", "lat": 38.88405, "is_reserved": 0, "lon": -77.01784766666667, "fusion_lon": 0.0, "is_disabled": 0, "fusion_lat": 0.0, "bike_id": "c059c6639e0db4cfb6d0880fa975bdbd", "rental_uris": {"ios": "https://dc.lft.to/lastmile_qr_scan", "android": "https://dc.lft.to/lastmile_qr_scan"}}, {"name": "6c51746551cf404db4f56200f4a106c8", "type": "electric_scooter", "lat": 38.904780333333335, "is_reserved": 0, "lon": -77.00214683333333, "fusion_lon": 0.0, "is_disabled": 0, "fusion_lat": 0.0, "bike_id": "6c51746551cf404db4f56200f4a106c8", "rental_uris": {"ios": "https://dc.lft.to/lastmile_qr_scan", "android": "https://dc.lft.to/lastmile_qr_scan"}}, {"name": "3804a5a44aff6beb0e277b976ded462e", "type": "electric_scooter", "lat": 38.894741833333335, "is_reserved": 0, "lon": -76.99540233333333, "fusion_lon": 0.0, "is_disabled": 0, "fusion_lat": 0.0, "bike_id": "3804a5a44aff6beb0e277b976ded462e", "rental_uris": {"ios": "https://dc.lft.to/lastmile_qr_scan", "android": "https://dc.lft.to/lastmile_qr_scan"}}, {"name": "a20fee1fd09a23186bf8c70e7799a43e", "type": "electric_scooter", "lat": 38.93065883333333, "is_reserved": 0, "lon": -77.03192883333334, "fusion_lon": 0.0, "is_disabled": 0, "fusion_lat": 0.0, "bike_id": "a20fee1fd09a23186bf8c70e7799a43e", "rental_uris": {"ios": "https://dc.lft.to/lastmile_qr_scan", "android": "https://dc.lft.to/lastmile_qr_scan"}}, {"name": "4efb57e62dce7aa0fb515ee2ac3d3376", "type": "electric_scooter", "lat": 38.903659, "is_reserved": 0, "lon": -77.03861983333333, "fusion_lon": 0.0, "is_disabled": 0, "fusion_lat": 0.0, "bike_id": "4efb57e62dce7aa0fb515ee2ac3d3376", "rental_uris": {"ios": "https://dc.lft.to/lastmile_qr_scan", "android": "https://dc.lft.to/lastmile_qr_scan"}}, {"name": "d19e752ffcb437e1950590afc5bfd254", "type": "electric_bike", "lat": 39.052043166666664, "is_reserved": 0, "lon": -77.10921716666667, "fusion_lon": 0.0, "is_disabled": 0, "fusion_lat": 0.0, "bike_id": "d19e752ffcb437e1950590afc5bfd254", "rental_uris": {"ios": "https://dc.lft.to/lastmile_qr_scan", "android": "https://dc.lft.to/lastmile_qr_scan"}}, {"name": "389a3cfb5d3f8f757dd3315b6602e4c9", "type": "electric_scooter", "lat": 38.906052, "is_reserved": 0, "lon": -77.074883, "fusion_lon": 0.0, "is_disabled": 0, "fusion_lat": 0.0, "bike_id": "389a3cfb5d3f8f757dd3315b6602e4c9", "rental_uris": {"ios": "https://dc.lft.to/lastmile_qr_scan", "android": "https://dc.lft.to/lastmile_qr_scan"}}, {"name": "a93d0523f59a806940f912a5cb1d739e", "type": "electric_scooter", "lat": 38.925140999999996, "is_reserved": 0, "lon": -77.001757, "fusion_lon": 0.0, "is_disabled": 0, "fusion_lat": 0.0, "bike_id": "a93d0523f59a806940f912a5cb1d739e", "rental_uris": {"ios": "https://dc.lft.to/lastmile_qr_scan", "android": "https://dc.lft.to/lastmile_qr_scan"}}, {"name": "4d7e506e5f2a9624e4d8a771841b8c1e", "type": "electric_scooter", "lat": 38.89606066666666, "is_reserved": 0, "lon": -77.00930566666666, "fusion_lon": 0.0, "is_disabled": 0, "fusion_lat": 0.0, "bike_id": "4d7e506e5f2a9624e4d8a771841b8c1e", "rental_uris": {"ios": "https://dc.lft.to/lastmile_qr_scan", "android": "https://dc.lft.to/lastmile_qr_scan"}}, {"name": "6c0cd16d7f3172c710dd126de9374a85", "type": "electric_scooter", "lat": 38.92363316666667, "is_reserved": 0, "lon": -77.058408, "fusion_lon": 0.0, "is_disabled": 0, "fusion_lat": 0.0, "bike_id": "6c0cd16d7f3172c710dd126de9374a85", "rental_uris": {"ios": "https://dc.lft.to/lastmile_qr_scan", "android": "https://dc.lft.to/lastmile_qr_scan"}}, {"name": "8b872275482f3a2cee77486bf3a385ed", "type": "electric_scooter", "lat": 38.88373816666667, "is_reserved": 0, "lon": -76.92371016666667, "fusion_lon": 0.0, "is_disabled": 0, "fusion_lat": 0.0, "bike_id": "8b872275482f3a2cee77486bf3a385ed", "rental_uris": {"ios": "https://dc.lft.to/lastmile_qr_scan", "android": "https://dc.lft.to/lastmile_qr_scan"}}, {"name": "387cf1df0ed0a64f0d183ecbed7eda24", "type": "electric_scooter", "lat": 38.866585666666666, "is_reserved": 0, "lon": -76.98882083333334, "fusion_lon": 0.0, "is_disabled": 0, "fusion_lat": 0.0, "bike_id": "387cf1df0ed0a64f0d183ecbed7eda24", "rental_uris": {"ios": "https://dc.lft.to/lastmile_qr_scan", "android": "https://dc.lft.to/lastmile_qr_scan"}}, {"name": "21d4a5a726a2cc7494f1802ec3b9d0b0", "type": "electric_scooter", "lat": 38.918634, "is_reserved": 0, "lon": -77.03223733333333, "fusion_lon": 0.0, "is_disabled": 0, "fusion_lat": 0.0, "bike_id": "21d4a5a726a2cc7494f1802ec3b9d0b0", "rental_uris": {"ios": "https://dc.lft.to/lastmile_qr_scan", "android": "https://dc.lft.to/lastmile_qr_scan"}}, {"name": "1052fb3957f256b00f9f63b22de4644b", "type": "electric_scooter", "lat": 38.90142183333333, "is_reserved": 0, "lon": -77.04232566666667, "fusion_lon": 0.0, "is_disabled": 0, "fusion_lat": 0.0, "bike_id": "1052fb3957f256b00f9f63b22de4644b", "rental_uris": {"ios": "https://dc.lft.to/lastmile_qr_scan", "android": "https://dc.lft.to/lastmile_qr_scan"}}, {"name": "ff989eb7d4e58ff5a1f965a9ef4bdfa0", "type": "electric_scooter", "lat": 38.920303833333335, "is_reserved": 0, "lon": -77.038631, "fusion_lon": 0.0, "is_disabled": 0, "fusion_lat": 0.0, "bike_id": "ff989eb7d4e58ff5a1f965a9ef4bdfa0", "rental_uris": {"ios": "https://dc.lft.to/lastmile_qr_scan", "android": "https://dc.lft.to/lastmile_qr_scan"}}, {"name": "79de02b01d07257625ea405a05d027cd", "type": "electric_scooter", "lat": 38.933320333333334, "is_reserved": 0, "lon": -77.03264166666666, "fusion_lon": 0.0, "is_disabled": 0, "fusion_lat": 0.0, "bike_id": "79de02b01d07257625ea405a05d027cd", "rental_uris": {"ios": "https://dc.lft.to/lastmile_qr_scan", "android": "https://dc.lft.to/lastmile_qr_scan"}}, {"name": "c26795d461c7706060f47275c9a87753", "type": "electric_scooter", "lat": 38.925147333333335, "is_reserved": 0, "lon": -77.03318666666667, "fusion_lon": 0.0, "is_disabled": 0, "fusion_lat": 0.0, "bike_id": "c26795d461c7706060f47275c9a87753", "rental_uris": {"ios": "https://dc.lft.to/lastmile_qr_scan", "android": "https://dc.lft.to/lastmile_qr_scan"}}, {"name": "fa71c247e160ec7079961ad1fc1117b2", "type": "electric_scooter", "lat": 38.89224933333333, "is_reserved": 0, "lon": -77.04339383333334, "fusion_lon": 0.0, "is_disabled": 0, "fusion_lat": 0.0, "bike_id": "fa71c247e160ec7079961ad1fc1117b2", "rental_uris": {"ios": "https://dc.lft.to/lastmile_qr_scan", "android": "https://dc.lft.to/lastmile_qr_scan"}}, {"name": "cd7786a29ec4ac755520e28329a746f6", "type": "electric_scooter", "lat": 38.91554383333333, "is_reserved": 0, "lon": -77.03939283333334, "fusion_lon": 0.0, "is_disabled": 0, "fusion_lat": 0.0, "bike_id": "cd7786a29ec4ac755520e28329a746f6", "rental_uris": {"ios": "https://dc.lft.to/lastmile_qr_scan", "android": "https://dc.lft.to/lastmile_qr_scan"}}, {"name": "afcd11caea33b8c50b27216c7ac3cf50", "type": "electric_scooter", "lat": 38.89832833333333, "is_reserved": 0, "lon": -77.033168, "fusion_lon": 0.0, "is_disabled": 0, "fusion_lat": 0.0, "bike_id": "afcd11caea33b8c50b27216c7ac3cf50", "rental_uris": {"ios": "https://dc.lft.to/lastmile_qr_scan", "android": "https://dc.lft.to/lastmile_qr_scan"}}, {"name": "378302f5d616b2bc61639ac5d0f074dc", "type": "electric_scooter", "lat": 38.891668833333334, "is_reserved": 0, "lon": -77.01547783333334, "fusion_lon": 0.0, "is_disabled": 0, "fusion_lat": 0.0, "bike_id": "378302f5d616b2bc61639ac5d0f074dc", "rental_uris": {"ios": "https://dc.lft.to/lastmile_qr_scan", "android": "https://dc.lft.to/lastmile_qr_scan"}}, {"name": "ba4a2bd0431eafb7db76449c674a86ad", "type": "electric_bike", "lat": 38.91292416666667, "is_reserved": 0, "lon": -77.044887, "fusion_lon": 0.0, "is_disabled": 0, "fusion_lat": 0.0, "bike_id": "ba4a2bd0431eafb7db76449c674a86ad", "rental_uris": {"ios": "https://dc.lft.to/lastmile_qr_scan", "android": "https://dc.lft.to/lastmile_qr_scan"}}, {"name": "305fce6aeae9fdb14377fc3c510a7b34", "type": "electric_scooter", "lat": 38.91841133333333, "is_reserved": 0, "lon": -77.03899, "fusion_lon": 0.0, "is_disabled": 0, "fusion_lat": 0.0, "bike_id": "305fce6aeae9fdb14377fc3c510a7b34", "rental_uris": {"ios": "https://dc.lft.to/lastmile_qr_scan", "android": "https://dc.lft.to/lastmile_qr_scan"}}, {"name": "223e0158cb10bf35051fb1dd6bc55670", "type": "electric_scooter", "lat": 38.918951166666666, "is_reserved": 0, "lon": -77.01976116666667, "fusion_lon": 0.0, "is_disabled": 0, "fusion_lat": 0.0, "bike_id": "223e0158cb10bf35051fb1dd6bc55670", "rental_uris": {"ios": "https://dc.lft.to/lastmile_qr_scan", "android": "https://dc.lft.to/lastmile_qr_scan"}}, {"name": "62e2f41f06e010c5c6f0fb9460ee95d5", "type": "electric_scooter", "lat": 38.900225666666664, "is_reserved": 0, "lon": -77.01120116666667, "fusion_lon": 0.0, "is_disabled": 0, "fusion_lat": 0.0, "bike_id": "62e2f41f06e010c5c6f0fb9460ee95d5", "rental_uris": {"ios": "https://dc.lft.to/lastmile_qr_scan", "android": "https://dc.lft.to/lastmile_qr_scan"}}, {"name": "2bc6eae28ad77e6a1f8a5acc3bab3bb3", "type": "electric_scooter", "lat": 38.8764225, "is_reserved": 0, "lon": -76.99592983333334, "fusion_lon": 0.0, "is_disabled": 0, "fusion_lat": 0.0, "bike_id": "2bc6eae28ad77e6a1f8a5acc3bab3bb3", "rental_uris": {"ios": "https://dc.lft.to/lastmile_qr_scan", "android": "https://dc.lft.to/lastmile_qr_scan"}}, {"name": "bf45060698592c3e757ca634b2cb1770", "type": "electric_scooter", "lat": 38.8804905, "is_reserved": 0, "lon": -77.00425033333333, "fusion_lon": 0.0, "is_disabled": 0, "fusion_lat": 0.0, "bike_id": "bf45060698592c3e757ca634b2cb1770", "rental_uris": {"ios": "https://dc.lft.to/lastmile_qr_scan", "android": "https://dc.lft.to/lastmile_qr_scan"}}, {"name": "710e62362560a093bd3f4d0d3a889035", "type": "electric_scooter", "lat": 38.88422683333334, "is_reserved": 0, "lon": -76.99700416666667, "fusion_lon": 0.0, "is_disabled": 0, "fusion_lat": 0.0, "bike_id": "710e62362560a093bd3f4d0d3a889035", "rental_uris": {"ios": "https://dc.lft.to/lastmile_qr_scan", "android": "https://dc.lft.to/lastmile_qr_scan"}}, {"name": "a58fc1a975bf64174a7ac43a877528d4", "type": "electric_scooter", "lat": 38.902818, "is_reserved": 0, "lon": -77.03839666666667, "fusion_lon": 0.0, "is_disabled": 0, "fusion_lat": 0.0, "bike_id": "a58fc1a975bf64174a7ac43a877528d4", "rental_uris": {"ios": "https://dc.lft.to/lastmile_qr_scan", "android": "https://dc.lft.to/lastmile_qr_scan"}}, {"name": "c33c42c9c036b3d89b5dd910ffd2a055", "type": "electric_scooter", "lat": 38.92740933333333, "is_reserved": 0, "lon": -77.03356683333334, "fusion_lon": 0.0, "is_disabled": 0, "fusion_lat": 0.0, "bike_id": "c33c42c9c036b3d89b5dd910ffd2a055", "rental_uris": {"ios": "https://dc.lft.to/lastmile_qr_scan", "android": "https://dc.lft.to/lastmile_qr_scan"}}, {"name": "8f22c9c33261b93cfb5ea2b087ae861a", "type": "electric_scooter", "lat": 38.922352833333335, "is_reserved": 0, "lon": -77.03339883333334, "fusion_lon": 0.0, "is_disabled": 0, "fusion_lat": 0.0, "bike_id": "8f22c9c33261b93cfb5ea2b087ae861a", "rental_uris": {"ios": "https://dc.lft.to/lastmile_qr_scan", "android": "https://dc.lft.to/lastmile_qr_scan"}}, {"name": "6af7a1cd9a26b37e19ecbcce7e460ca1", "type": "electric_scooter", "lat": 38.924777666666664, "is_reserved": 0, "lon": -77.03764033333333, "fusion_lon": 0.0, "is_disabled": 0, "fusion_lat": 0.0, "bike_id": "6af7a1cd9a26b37e19ecbcce7e460ca1", "rental_uris": {"ios": "https://dc.lft.to/lastmile_qr_scan", "android": "https://dc.lft.to/lastmile_qr_scan"}}, {"name": "a563f0234725927a9eb1fdbe1994baaa", "type": "electric_scooter", "lat": 38.894025, "is_reserved": 0, "lon": -76.94800483333333, "fusion_lon": 0.0, "is_disabled": 0, "fusion_lat": 0.0, "bike_id": "a563f0234725927a9eb1fdbe1994baaa", "rental_uris": {"ios": "https://dc.lft.to/lastmile_qr_scan", "android": "https://dc.lft.to/lastmile_qr_scan"}}, {"name": "acd562b4a30805f279b0e0a67f549f6f", "type": "electric_scooter", "lat": 38.93972483333334, "is_reserved": 0, "lon": -77.02491983333333, "fusion_lon": 0.0, "is_disabled": 0, "fusion_lat": 0.0, "bike_id": "acd562b4a30805f279b0e0a67f549f6f", "rental_uris": {"ios": "https://dc.lft.to/lastmile_qr_scan", "android": "https://dc.lft.to/lastmile_qr_scan"}}, {"name": "a040017f273c76311769ec8a75868dc1", "type": "electric_scooter", "lat": 38.918725333333335, "is_reserved": 0, "lon": -77.04378833333334, "fusion_lon": 0.0, "is_disabled": 0, "fusion_lat": 0.0, "bike_id": "a040017f273c76311769ec8a75868dc1", "rental_uris": {"ios": "https://dc.lft.to/lastmile_qr_scan", "android": "https://dc.lft.to/lastmile_qr_scan"}}, {"name": "86e41693a3323834884ea962c960954b", "type": "electric_scooter", "lat": 38.926821333333336, "is_reserved": 0, "lon": -77.09562166666667, "fusion_lon": 0.0, "is_disabled": 0, "fusion_lat": 0.0, "bike_id": "86e41693a3323834884ea962c960954b", "rental_uris": {"ios": "https://dc.lft.to/lastmile_qr_scan", "android": "https://dc.lft.to/lastmile_qr_scan"}}, {"name": "f4d10a5699791342f7ce7c49286047db", "type": "electric_scooter", "lat": 38.9158205, "is_reserved": 0, "lon": -77.04472166666666, "fusion_lon": 0.0, "is_disabled": 0, "fusion_lat": 0.0, "bike_id": "f4d10a5699791342f7ce7c49286047db", "rental_uris": {"ios": "https://dc.lft.to/lastmile_qr_scan", "android": "https://dc.lft.to/lastmile_qr_scan"}}, {"name": "e6a5ea56bf0254f197c17c9e08549896", "type": "electric_scooter", "lat": 38.907181, "is_reserved": 0, "lon": -77.034144, "fusion_lon": 0.0, "is_disabled": 0, "fusion_lat": 0.0, "bike_id": "e6a5ea56bf0254f197c17c9e08549896", "rental_uris": {"ios": "https://dc.lft.to/lastmile_qr_scan", "android": "https://dc.lft.to/lastmile_qr_scan"}}, {"name": "fdccd969291e330c89a235b6d3df1d95", "type": "electric_scooter", "lat": 38.9037775, "is_reserved": 0, "lon": -77.0320775, "fusion_lon": 0.0, "is_disabled": 0, "fusion_lat": 0.0, "bike_id": "fdccd969291e330c89a235b6d3df1d95", "rental_uris": {"ios": "https://dc.lft.to/lastmile_qr_scan", "android": "https://dc.lft.to/lastmile_qr_scan"}}, {"name": "cea33c7087f0221967753cf4bd7dd007", "type": "electric_scooter", "lat": 38.901515833333335, "is_reserved": 0, "lon": -76.930645, "fusion_lon": 0.0, "is_disabled": 0, "fusion_lat": 0.0, "bike_id": "cea33c7087f0221967753cf4bd7dd007", "rental_uris": {"ios": "https://dc.lft.to/lastmile_qr_scan", "android": "https://dc.lft.to/lastmile_qr_scan"}}, {"name": "d762b182d0e39ce9963bbcefbd55dd47", "type": "electric_scooter", "lat": 38.9406805, "is_reserved": 0, "lon": -76.99463966666667, "fusion_lon": 0.0, "is_disabled": 0, "fusion_lat": 0.0, "bike_id": "d762b182d0e39ce9963bbcefbd55dd47", "rental_uris": {"ios": "https://dc.lft.to/lastmile_qr_scan", "android": "https://dc.lft.to/lastmile_qr_scan"}}, {"name": "3680aa08746f76a2bc884c0607aee9cf", "type": "electric_scooter", "lat": 38.884303, "is_reserved": 0, "lon": -76.95759383333333, "fusion_lon": 0.0, "is_disabled": 0, "fusion_lat": 0.0, "bike_id": "3680aa08746f76a2bc884c0607aee9cf", "rental_uris": {"ios": "https://dc.lft.to/lastmile_qr_scan", "android": "https://dc.lft.to/lastmile_qr_scan"}}, {"name": "c60bb405e398670d8a1baa1ee697ff35", "type": "electric_scooter", "lat": 38.92415366666667, "is_reserved": 0, "lon": -77.0194835, "fusion_lon": 0.0, "is_disabled": 0, "fusion_lat": 0.0, "bike_id": "c60bb405e398670d8a1baa1ee697ff35", "rental_uris": {"ios": "https://dc.lft.to/lastmile_qr_scan", "android": "https://dc.lft.to/lastmile_qr_scan"}}, {"name": "c0dc82bc802f049cbb78b7385af11296", "type": "electric_scooter", "lat": 38.916735333333335, "is_reserved": 0, "lon": -77.02718616666667, "fusion_lon": 0.0, "is_disabled": 0, "fusion_lat": 0.0, "bike_id": "c0dc82bc802f049cbb78b7385af11296", "rental_uris": {"ios": "https://dc.lft.to/lastmile_qr_scan", "android": "https://dc.lft.to/lastmile_qr_scan"}}, {"name": "b3a0120cd5f484bf588b42cbbf10c304", "type": "electric_scooter", "lat": 38.920611, "is_reserved": 0, "lon": -77.04247583333333, "fusion_lon": 0.0, "is_disabled": 0, "fusion_lat": 0.0, "bike_id": "b3a0120cd5f484bf588b42cbbf10c304", "rental_uris": {"ios": "https://dc.lft.to/lastmile_qr_scan", "android": "https://dc.lft.to/lastmile_qr_scan"}}, {"name": "5e30c04d697fed86e177a9059138377c", "type": "electric_scooter", "lat": 38.909706, "is_reserved": 0, "lon": -77.039323, "fusion_lon": 0.0, "is_disabled": 0, "fusion_lat": 0.0, "bike_id": "5e30c04d697fed86e177a9059138377c", "rental_uris": {"ios": "https://dc.lft.to/lastmile_qr_scan", "android": "https://dc.lft.to/lastmile_qr_scan"}}, {"name": "55585ea6be7d9d7993349c122eae790d", "type": "electric_bike", "lat": 38.954780166666666, "is_reserved": 0, "lon": -77.08242983333334, "fusion_lon": 0.0, "is_disabled": 0, "fusion_lat": 0.0, "bike_id": "55585ea6be7d9d7993349c122eae790d", "rental_uris": {"ios": "https://dc.lft.to/lastmile_qr_scan", "android": "https://dc.lft.to/lastmile_qr_scan"}}, {"name": "978b10d543c692d7a9806bac87f70deb", "type": "electric_scooter", "lat": 38.9225335, "is_reserved": 0, "lon": -77.0352285, "fusion_lon": 0.0, "is_disabled": 0, "fusion_lat": 0.0, "bike_id": "978b10d543c692d7a9806bac87f70deb", "rental_uris": {"ios": "https://dc.lft.to/lastmile_qr_scan", "android": "https://dc.lft.to/lastmile_qr_scan"}}, {"name": "0b9fef86021e10365c521bf5f8bd4d6b", "type": "electric_scooter", "lat": 38.863573, "is_reserved": 0, "lon": -76.99070516666667, "fusion_lon": 0.0, "is_disabled": 0, "fusion_lat": 0.0, "bike_id": "0b9fef86021e10365c521bf5f8bd4d6b", "rental_uris": {"ios": "https://dc.lft.to/lastmile_qr_scan", "android": "https://dc.lft.to/lastmile_qr_scan"}}, {"name": "4d953bb57b2cea054ea9686c5de4a386", "type": "electric_scooter", "lat": 38.89488983333333, "is_reserved": 0, "lon": -77.0110495, "fusion_lon": 0.0, "is_disabled": 0, "fusion_lat": 0.0, "bike_id": "4d953bb57b2cea054ea9686c5de4a386", "rental_uris": {"ios": "https://dc.lft.to/lastmile_qr_scan", "android": "https://dc.lft.to/lastmile_qr_scan"}}, {"name": "f7486d05167224f800998892347ac226", "type": "electric_scooter", "lat": 38.90452033333333, "is_reserved": 0, "lon": -77.04889466666667, "fusion_lon": 0.0, "is_disabled": 0, "fusion_lat": 0.0, "bike_id": "f7486d05167224f800998892347ac226", "rental_uris": {"ios": "https://dc.lft.to/lastmile_qr_scan", "android": "https://dc.lft.to/lastmile_qr_scan"}}, {"name": "e1a10c47e710df212301572fd7e1b3bd", "type": "electric_scooter", "lat": 38.911086, "is_reserved": 0, "lon": -77.03610416666666, "fusion_lon": 0.0, "is_disabled": 0, "fusion_lat": 0.0, "bike_id": "e1a10c47e710df212301572fd7e1b3bd", "rental_uris": {"ios": "https://dc.lft.to/lastmile_qr_scan", "android": "https://dc.lft.to/lastmile_qr_scan"}}, {"name": "8edf9db9234372509909eb801eb3ff14", "type": "electric_scooter", "lat": 38.913300166666666, "is_reserved": 0, "lon": -77.002279, "fusion_lon": 0.0, "is_disabled": 0, "fusion_lat": 0.0, "bike_id": "8edf9db9234372509909eb801eb3ff14", "rental_uris": {"ios": "https://dc.lft.to/lastmile_qr_scan", "android": "https://dc.lft.to/lastmile_qr_scan"}}, {"name": "5f1363792fc203653959d42ef64de290", "type": "electric_scooter", "lat": 38.92091116666667, "is_reserved": 0, "lon": -77.02593716666667, "fusion_lon": 0.0, "is_disabled": 0, "fusion_lat": 0.0, "bike_id": "5f1363792fc203653959d42ef64de290", "rental_uris": {"ios": "https://dc.lft.to/lastmile_qr_scan", "android": "https://dc.lft.to/lastmile_qr_scan"}}, {"name": "d36d9bd2cf71ba9db676163fafa7af23", "type": "electric_scooter", "lat": 38.92593433333333, "is_reserved": 0, "lon": -77.00486366666667, "fusion_lon": 0.0, "is_disabled": 0, "fusion_lat": 0.0, "bike_id": "d36d9bd2cf71ba9db676163fafa7af23", "rental_uris": {"ios": "https://dc.lft.to/lastmile_qr_scan", "android": "https://dc.lft.to/lastmile_qr_scan"}}, {"name": "92a3cd01156fe96fa3dff9b475515c26", "type": "electric_bike", "lat": 38.88329866666667, "is_reserved": 0, "lon": -77.06572933333334, "fusion_lon": 0.0, "is_disabled": 0, "fusion_lat": 0.0, "bike_id": "92a3cd01156fe96fa3dff9b475515c26", "rental_uris": {"ios": "https://dc.lft.to/lastmile_qr_scan", "android": "https://dc.lft.to/lastmile_qr_scan"}}, {"name": "9c7e25d9e070e6af597a8b93d38dcd07", "type": "electric_scooter", "lat": 38.884956333333335, "is_reserved": 0, "lon": -77.00727416666666, "fusion_lon": 0.0, "is_disabled": 0, "fusion_lat": 0.0, "bike_id": "9c7e25d9e070e6af597a8b93d38dcd07", "rental_uris": {"ios": "https://dc.lft.to/lastmile_qr_scan", "android": "https://dc.lft.to/lastmile_qr_scan"}}, {"name": "8306e11db1a08604effc38651669d324", "type": "electric_scooter", "lat": 38.90853933333333, "is_reserved": 0, "lon": -77.02733566666667, "fusion_lon": 0.0, "is_disabled": 0, "fusion_lat": 0.0, "bike_id": "8306e11db1a08604effc38651669d324", "rental_uris": {"ios": "https://dc.lft.to/lastmile_qr_scan", "android": "https://dc.lft.to/lastmile_qr_scan"}}, {"name": "dd105ee832a8df76cd3d8f1312a3ca62", "type": "electric_scooter", "lat": 38.899149333333334, "is_reserved": 0, "lon": -77.03295933333334, "fusion_lon": 0.0, "is_disabled": 0, "fusion_lat": 0.0, "bike_id": "dd105ee832a8df76cd3d8f1312a3ca62", "rental_uris": {"ios": "https://dc.lft.to/lastmile_qr_scan", "android": "https://dc.lft.to/lastmile_qr_scan"}}, {"name": "a5523961b21e1e6c369eb152c838b8e0", "type": "electric_scooter", "lat": 38.880185833333336, "is_reserved": 0, "lon": -76.93140783333334, "fusion_lon": 0.0, "is_disabled": 0, "fusion_lat": 0.0, "bike_id": "a5523961b21e1e6c369eb152c838b8e0", "rental_uris": {"ios": "https://dc.lft.to/lastmile_qr_scan", "android": "https://dc.lft.to/lastmile_qr_scan"}}, {"name": "0459acdf2e9c2617ef53b3b66ad1bd1d", "type": "electric_scooter", "lat": 38.89733283333333, "is_reserved": 0, "lon": -76.9472595, "fusion_lon": 0.0, "is_disabled": 0, "fusion_lat": 0.0, "bike_id": "0459acdf2e9c2617ef53b3b66ad1bd1d", "rental_uris": {"ios": "https://dc.lft.to/lastmile_qr_scan", "android": "https://dc.lft.to/lastmile_qr_scan"}}, {"name": "8c3dd7f3fbba48fc56ae1ccd6120aee9", "type": "electric_scooter", "lat": 38.900680333333334, "is_reserved": 0, "lon": -77.03185216666667, "fusion_lon": 0.0, "is_disabled": 0, "fusion_lat": 0.0, "bike_id": "8c3dd7f3fbba48fc56ae1ccd6120aee9", "rental_uris": {"ios": "https://dc.lft.to/lastmile_qr_scan", "android": "https://dc.lft.to/lastmile_qr_scan"}}, {"name": "7e7bbdb185c994f8c6bf5c0d158f5316", "type": "electric_scooter", "lat": 38.89502266666667, "is_reserved": 0, "lon": -77.02400516666667, "fusion_lon": 0.0, "is_disabled": 0, "fusion_lat": 0.0, "bike_id": "7e7bbdb185c994f8c6bf5c0d158f5316", "rental_uris": {"ios": "https://dc.lft.to/lastmile_qr_scan", "android": "https://dc.lft.to/lastmile_qr_scan"}}, {"name": "0bbdbc239b89996631f6fc33d3597880", "type": "electric_scooter", "lat": 38.92797733333333, "is_reserved": 0, "lon": -77.05357116666667, "fusion_lon": 0.0, "is_disabled": 0, "fusion_lat": 0.0, "bike_id": "0bbdbc239b89996631f6fc33d3597880", "rental_uris": {"ios": "https://dc.lft.to/lastmile_qr_scan", "android": "https://dc.lft.to/lastmile_qr_scan"}}, {"name": "1f81c9735af994911e268d61687bc43f", "type": "electric_scooter", "lat": 38.90014033333333, "is_reserved": 0, "lon": -77.03234583333334, "fusion_lon": 0.0, "is_disabled": 0, "fusion_lat": 0.0, "bike_id": "1f81c9735af994911e268d61687bc43f", "rental_uris": {"ios": "https://dc.lft.to/lastmile_qr_scan", "android": "https://dc.lft.to/lastmile_qr_scan"}}, {"name": "2dd1225ef9a76d21fa97eb9ac1d443a4", "type": "electric_scooter", "lat": 38.9197735, "is_reserved": 0, "lon": -77.02202266666667, "fusion_lon": 0.0, "is_disabled": 0, "fusion_lat": 0.0, "bike_id": "2dd1225ef9a76d21fa97eb9ac1d443a4", "rental_uris": {"ios": "https://dc.lft.to/lastmile_qr_scan", "android": "https://dc.lft.to/lastmile_qr_scan"}}, {"name": "1d1c8805f510127cf59e0038d13ec3ec", "type": "electric_bike", "lat": 38.827247666666665, "is_reserved": 0, "lon": -77.00867483333333, "fusion_lon": 0.0, "is_disabled": 0, "fusion_lat": 0.0, "bike_id": "1d1c8805f510127cf59e0038d13ec3ec", "rental_uris": {"ios": "https://dc.lft.to/lastmile_qr_scan", "android": "https://dc.lft.to/lastmile_qr_scan"}}, {"name": "5dff5119bd3c33f60d72f53454bbfcf7", "type": "electric_scooter", "lat": 38.905822, "is_reserved": 0, "lon": -77.0403075, "fusion_lon": 0.0, "is_disabled": 0, "fusion_lat": 0.0, "bike_id": "5dff5119bd3c33f60d72f53454bbfcf7", "rental_uris": {"ios": "https://dc.lft.to/lastmile_qr_scan", "android": "https://dc.lft.to/lastmile_qr_scan"}}, {"name": "5fbc6f0ed8e96af656fb2a59fe8e2038", "type": "electric_scooter", "lat": 38.918788666666664, "is_reserved": 0, "lon": -77.0431295, "fusion_lon": 0.0, "is_disabled": 0, "fusion_lat": 0.0, "bike_id": "5fbc6f0ed8e96af656fb2a59fe8e2038", "rental_uris": {"ios": "https://dc.lft.to/lastmile_qr_scan", "android": "https://dc.lft.to/lastmile_qr_scan"}}, {"name": "1b70b9f067c22cef4751ad041821bea0", "type": "electric_bike", "lat": 38.892165, "is_reserved": 0, "lon": -77.10779666666667, "fusion_lon": 0.0, "is_disabled": 0, "fusion_lat": 0.0, "bike_id": "1b70b9f067c22cef4751ad041821bea0", "rental_uris": {"ios": "https://dc.lft.to/lastmile_qr_scan", "android": "https://dc.lft.to/lastmile_qr_scan"}}, {"name": "db75a78bfb67809be1bae6b253eee08c", "type": "electric_scooter", "lat": 38.90366, "is_reserved": 0, "lon": -77.04346933333333, "fusion_lon": 0.0, "is_disabled": 0, "fusion_lat": 0.0, "bike_id": "db75a78bfb67809be1bae6b253eee08c", "rental_uris": {"ios": "https://dc.lft.to/lastmile_qr_scan", "android": "https://dc.lft.to/lastmile_qr_scan"}}, {"name": "21d1a45a5ad06846e9e0028eaf58d463", "type": "electric_scooter", "lat": 38.900236, "is_reserved": 0, "lon": -77.01467366666667, "fusion_lon": 0.0, "is_disabled": 0, "fusion_lat": 0.0, "bike_id": "21d1a45a5ad06846e9e0028eaf58d463", "rental_uris": {"ios": "https://dc.lft.to/lastmile_qr_scan", "android": "https://dc.lft.to/lastmile_qr_scan"}}, {"name": "1a920c69cdeb34ae2ec8e33977d84d3d", "type": "electric_scooter", "lat": 38.90853416666667, "is_reserved": 0, "lon": -77.027289, "fusion_lon": 0.0, "is_disabled": 0, "fusion_lat": 0.0, "bike_id": "1a920c69cdeb34ae2ec8e33977d84d3d", "rental_uris": {"ios": "https://dc.lft.to/lastmile_qr_scan", "android": "https://dc.lft.to/lastmile_qr_scan"}}, {"name": "42fc4d57b25787a20c65591700c67bc6", "type": "electric_scooter", "lat": 38.93113366666667, "is_reserved": 0, "lon": -77.03817266666667, "fusion_lon": 0.0, "is_disabled": 0, "fusion_lat": 0.0, "bike_id": "42fc4d57b25787a20c65591700c67bc6", "rental_uris": {"ios": "https://dc.lft.to/lastmile_qr_scan", "android": "https://dc.lft.to/lastmile_qr_scan"}}, {"name": "9048e697011d862b2f528c85b77abe82", "type": "electric_scooter", "lat": 38.90499166666667, "is_reserved": 0, "lon": -77.06756066666667, "fusion_lon": 0.0, "is_disabled": 0, "fusion_lat": 0.0, "bike_id": "9048e697011d862b2f528c85b77abe82", "rental_uris": {"ios": "https://dc.lft.to/lastmile_qr_scan", "android": "https://dc.lft.to/lastmile_qr_scan"}}, {"name": "7c5cbe03335c0b52654b9d09a91c2aa1", "type": "electric_scooter", "lat": 38.942916, "is_reserved": 0, "lon": -77.02171716666666, "fusion_lon": 0.0, "is_disabled": 0, "fusion_lat": 0.0, "bike_id": "7c5cbe03335c0b52654b9d09a91c2aa1", "rental_uris": {"ios": "https://dc.lft.to/lastmile_qr_scan", "android": "https://dc.lft.to/lastmile_qr_scan"}}, {"name": "95ec3f3ac49f3ab901050de7772c1773", "type": "electric_scooter", "lat": 38.92066066666667, "is_reserved": 0, "lon": -77.042881, "fusion_lon": 0.0, "is_disabled": 0, "fusion_lat": 0.0, "bike_id": "95ec3f3ac49f3ab901050de7772c1773", "rental_uris": {"ios": "https://dc.lft.to/lastmile_qr_scan", "android": "https://dc.lft.to/lastmile_qr_scan"}}, {"name": "0b101267970217e51a1b8242a19a1b5a", "type": "electric_scooter", "lat": 38.93390316666667, "is_reserved": 0, "lon": -77.03582333333334, "fusion_lon": 0.0, "is_disabled": 0, "fusion_lat": 0.0, "bike_id": "0b101267970217e51a1b8242a19a1b5a", "rental_uris": {"ios": "https://dc.lft.to/lastmile_qr_scan", "android": "https://dc.lft.to/lastmile_qr_scan"}}, {"name": "e7c68052e3caace93e83fdd5f3e00e71", "type": "electric_scooter", "lat": 38.93251933333333, "is_reserved": 0, "lon": -77.032794, "fusion_lon": 0.0, "is_disabled": 0, "fusion_lat": 0.0, "bike_id": "e7c68052e3caace93e83fdd5f3e00e71", "rental_uris": {"ios": "https://dc.lft.to/lastmile_qr_scan", "android": "https://dc.lft.to/lastmile_qr_scan"}}, {"name": "381abf80aa1e39ff1727fcab936de9a6", "type": "electric_scooter", "lat": 38.93302583333333, "is_reserved": 0, "lon": -77.02845066666667, "fusion_lon": 0.0, "is_disabled": 0, "fusion_lat": 0.0, "bike_id": "381abf80aa1e39ff1727fcab936de9a6", "rental_uris": {"ios": "https://dc.lft.to/lastmile_qr_scan", "android": "https://dc.lft.to/lastmile_qr_scan"}}, {"name": "392a04c6101ed0d697f779ecccbe7cee", "type": "electric_bike", "lat": 38.872325000000004, "is_reserved": 0, "lon": -77.01165466666667, "fusion_lon": 0.0, "is_disabled": 0, "fusion_lat": 0.0, "bike_id": "392a04c6101ed0d697f779ecccbe7cee", "rental_uris": {"ios": "https://dc.lft.to/lastmile_qr_scan", "android": "https://dc.lft.to/lastmile_qr_scan"}}, {"name": "e097328481a826d23bc035cc0b936a7c", "type": "electric_scooter", "lat": 38.8955785, "is_reserved": 0, "lon": -77.041624, "fusion_lon": 0.0, "is_disabled": 0, "fusion_lat": 0.0, "bike_id": "e097328481a826d23bc035cc0b936a7c", "rental_uris": {"ios": "https://dc.lft.to/lastmile_qr_scan", "android": "https://dc.lft.to/lastmile_qr_scan"}}, {"name": "19ca4244b36d49c0580d5534ff2b3a4e", "type": "electric_scooter", "lat": 38.92258366666667, "is_reserved": 0, "lon": -77.04146083333333, "fusion_lon": 0.0, "is_disabled": 0, "fusion_lat": 0.0, "bike_id": "19ca4244b36d49c0580d5534ff2b3a4e", "rental_uris": {"ios": "https://dc.lft.to/lastmile_qr_scan", "android": "https://dc.lft.to/lastmile_qr_scan"}}, {"name": "d5a1c18744d7f4b009de8e6914a4a534", "type": "electric_scooter", "lat": 38.88987766666666, "is_reserved": 0, "lon": -77.00336883333334, "fusion_lon": 0.0, "is_disabled": 0, "fusion_lat": 0.0, "bike_id": "d5a1c18744d7f4b009de8e6914a4a534", "rental_uris": {"ios": "https://dc.lft.to/lastmile_qr_scan", "android": "https://dc.lft.to/lastmile_qr_scan"}}, {"name": "6816e3907c433d3605e9b0547c0fd446", "type": "electric_scooter", "lat": 38.920454666666664, "is_reserved": 0, "lon": -76.9982105, "fusion_lon": 0.0, "is_disabled": 0, "fusion_lat": 0.0, "bike_id": "6816e3907c433d3605e9b0547c0fd446", "rental_uris": {"ios": "https://dc.lft.to/lastmile_qr_scan", "android": "https://dc.lft.to/lastmile_qr_scan"}}, {"name": "265260b1f7c78ca4cfdf90acb37ccabb", "type": "electric_scooter", "lat": 38.952813666666664, "is_reserved": 0, "lon": -77.00793166666666, "fusion_lon": 0.0, "is_disabled": 0, "fusion_lat": 0.0, "bike_id": "265260b1f7c78ca4cfdf90acb37ccabb", "rental_uris": {"ios": "https://dc.lft.to/lastmile_qr_scan", "android": "https://dc.lft.to/lastmile_qr_scan"}}, {"name": "35a1a5fa190f4ae85172b147d615d0fe", "type": "electric_scooter", "lat": 38.918057166666664, "is_reserved": 0, "lon": -77.03444383333333, "fusion_lon": 0.0, "is_disabled": 0, "fusion_lat": 0.0, "bike_id": "35a1a5fa190f4ae85172b147d615d0fe", "rental_uris": {"ios": "https://dc.lft.to/lastmile_qr_scan", "android": "https://dc.lft.to/lastmile_qr_scan"}}, {"name": "43ad6606b52bc0062e653ef33b66b174", "type": "electric_bike", "lat": 38.873089666666665, "is_reserved": 0, "lon": -77.01099116666667, "fusion_lon": 0.0, "is_disabled": 0, "fusion_lat": 0.0, "bike_id": "43ad6606b52bc0062e653ef33b66b174", "rental_uris": {"ios": "https://dc.lft.to/lastmile_qr_scan", "android": "https://dc.lft.to/lastmile_qr_scan"}}, {"name": "e8d55c9273a88542cae5ecc21d0a5668", "type": "electric_bike", "lat": 38.99062033333333, "is_reserved": 0, "lon": -77.10034416666667, "fusion_lon": 0.0, "is_disabled": 0, "fusion_lat": 0.0, "bike_id": "e8d55c9273a88542cae5ecc21d0a5668", "rental_uris": {"ios": "https://dc.lft.to/lastmile_qr_scan", "android": "https://dc.lft.to/lastmile_qr_scan"}}, {"name": "6f6a8dc582c0a1f643304ea6618985f1", "type": "electric_scooter", "lat": 38.929540833333334, "is_reserved": 0, "lon": -77.03468266666667, "fusion_lon": 0.0, "is_disabled": 0, "fusion_lat": 0.0, "bike_id": "6f6a8dc582c0a1f643304ea6618985f1", "rental_uris": {"ios": "https://dc.lft.to/lastmile_qr_scan", "android": "https://dc.lft.to/lastmile_qr_scan"}}, {"name": "d3d24a6ff4794e6133b1a28921c93049", "type": "electric_scooter", "lat": 38.85320466666667, "is_reserved": 0, "lon": -76.9800235, "fusion_lon": 0.0, "is_disabled": 0, "fusion_lat": 0.0, "bike_id": "d3d24a6ff4794e6133b1a28921c93049", "rental_uris": {"ios": "https://dc.lft.to/lastmile_qr_scan", "android": "https://dc.lft.to/lastmile_qr_scan"}}, {"name": "a653cced6a61829707ffea08e0c234a3", "type": "electric_scooter", "lat": 38.906437333333336, "is_reserved": 0, "lon": -77.02499566666667, "fusion_lon": 0.0, "is_disabled": 0, "fusion_lat": 0.0, "bike_id": "a653cced6a61829707ffea08e0c234a3", "rental_uris": {"ios": "https://dc.lft.to/lastmile_qr_scan", "android": "https://dc.lft.to/lastmile_qr_scan"}}, {"name": "1826e98706e08d1ea7a5cf55a67ead5c", "type": "electric_scooter", "lat": 38.939548333333335, "is_reserved": 0, "lon": -77.032664, "fusion_lon": 0.0, "is_disabled": 0, "fusion_lat": 0.0, "bike_id": "1826e98706e08d1ea7a5cf55a67ead5c", "rental_uris": {"ios": "https://dc.lft.to/lastmile_qr_scan", "android": "https://dc.lft.to/lastmile_qr_scan"}}, {"name": "8c0284dc77dfd1050739c8ca2c47155d", "type": "electric_scooter", "lat": 38.902048, "is_reserved": 0, "lon": -77.04654283333333, "fusion_lon": 0.0, "is_disabled": 0, "fusion_lat": 0.0, "bike_id": "8c0284dc77dfd1050739c8ca2c47155d", "rental_uris": {"ios": "https://dc.lft.to/lastmile_qr_scan", "android": "https://dc.lft.to/lastmile_qr_scan"}}, {"name": "12a886125009302c3f8bb316de716ac8", "type": "electric_scooter", "lat": 38.93972316666667, "is_reserved": 0, "lon": -77.03260783333333, "fusion_lon": 0.0, "is_disabled": 0, "fusion_lat": 0.0, "bike_id": "12a886125009302c3f8bb316de716ac8", "rental_uris": {"ios": "https://dc.lft.to/lastmile_qr_scan", "android": "https://dc.lft.to/lastmile_qr_scan"}}, {"name": "c1f9ac4f0d095a172573bf29ff0b2d05", "type": "electric_scooter", "lat": 38.917212666666664, "is_reserved": 0, "lon": -77.03657233333334, "fusion_lon": 0.0, "is_disabled": 0, "fusion_lat": 0.0, "bike_id": "c1f9ac4f0d095a172573bf29ff0b2d05", "rental_uris": {"ios": "https://dc.lft.to/lastmile_qr_scan", "android": "https://dc.lft.to/lastmile_qr_scan"}}, {"name": "86308cd1cba584c70e56299c110e1f78", "type": "electric_scooter", "lat": 38.863772, "is_reserved": 0, "lon": -76.99060466666667, "fusion_lon": 0.0, "is_disabled": 0, "fusion_lat": 0.0, "bike_id": "86308cd1cba584c70e56299c110e1f78", "rental_uris": {"ios": "https://dc.lft.to/lastmile_qr_scan", "android": "https://dc.lft.to/lastmile_qr_scan"}}, {"name": "2976f03463e5e5ae9cb0da6f767dadd1", "type": "electric_scooter", "lat": 38.89359, "is_reserved": 0, "lon": -77.01989233333333, "fusion_lon": 0.0, "is_disabled": 0, "fusion_lat": 0.0, "bike_id": "2976f03463e5e5ae9cb0da6f767dadd1", "rental_uris": {"ios": "https://dc.lft.to/lastmile_qr_scan", "android": "https://dc.lft.to/lastmile_qr_scan"}}, {"name": "d3049d98315340b5fba8d2c2996f80ce", "type": "electric_scooter", "lat": 38.899690666666665, "is_reserved": 0, "lon": -77.03356266666667, "fusion_lon": 0.0, "is_disabled": 0, "fusion_lat": 0.0, "bike_id": "d3049d98315340b5fba8d2c2996f80ce", "rental_uris": {"ios": "https://dc.lft.to/lastmile_qr_scan", "android": "https://dc.lft.to/lastmile_qr_scan"}}, {"name": "44937d6b8bb145a8f5ee91d539112e36", "type": "electric_scooter", "lat": 38.9032095, "is_reserved": 0, "lon": -77.04179016666667, "fusion_lon": 0.0, "is_disabled": 0, "fusion_lat": 0.0, "bike_id": "44937d6b8bb145a8f5ee91d539112e36", "rental_uris": {"ios": "https://dc.lft.to/lastmile_qr_scan", "android": "https://dc.lft.to/lastmile_qr_scan"}}, {"name": "3b205c3c2e835023b43c3f244fe59a85", "type": "electric_scooter", "lat": 38.933339833333335, "is_reserved": 0, "lon": -77.032677, "fusion_lon": 0.0, "is_disabled": 0, "fusion_lat": 0.0, "bike_id": "3b205c3c2e835023b43c3f244fe59a85", "rental_uris": {"ios": "https://dc.lft.to/lastmile_qr_scan", "android": "https://dc.lft.to/lastmile_qr_scan"}}, {"name": "11e5b69287d795fd2a811ba60222be2a", "type": "electric_scooter", "lat": 38.8977245, "is_reserved": 0, "lon": -76.97728833333333, "fusion_lon": 0.0, "is_disabled": 0, "fusion_lat": 0.0, "bike_id": "11e5b69287d795fd2a811ba60222be2a", "rental_uris": {"ios": "https://dc.lft.to/lastmile_qr_scan", "android": "https://dc.lft.to/lastmile_qr_scan"}}, {"name": "bfe3fa1d94ad8cef23e882ac7c2c6f3e", "type": "electric_scooter", "lat": 38.898737, "is_reserved": 0, "lon": -76.93161366666666, "fusion_lon": 0.0, "is_disabled": 0, "fusion_lat": 0.0, "bike_id": "bfe3fa1d94ad8cef23e882ac7c2c6f3e", "rental_uris": {"ios": "https://dc.lft.to/lastmile_qr_scan", "android": "https://dc.lft.to/lastmile_qr_scan"}}, {"name": "ba6617a6b3d61abbd487a37a17ede645", "type": "electric_bike", "lat": 38.8922, "is_reserved": 0, "lon": -76.97028266666666, "fusion_lon": 0.0, "is_disabled": 0, "fusion_lat": 0.0, "bike_id": "ba6617a6b3d61abbd487a37a17ede645", "rental_uris": {"ios": "https://dc.lft.to/lastmile_qr_scan", "android": "https://dc.lft.to/lastmile_qr_scan"}}, {"name": "8908df241d2dfc4a3935a230b30a7778", "type": "electric_scooter", "lat": 38.86416083333334, "is_reserved": 0, "lon": -76.98049333333333, "fusion_lon": 0.0, "is_disabled": 0, "fusion_lat": 0.0, "bike_id": "8908df241d2dfc4a3935a230b30a7778", "rental_uris": {"ios": "https://dc.lft.to/lastmile_qr_scan", "android": "https://dc.lft.to/lastmile_qr_scan"}}, {"name": "9760c75816f2115f5adcdc6b2f592110", "type": "electric_scooter", "lat": 38.919585, "is_reserved": 0, "lon": -77.03192916666667, "fusion_lon": 0.0, "is_disabled": 0, "fusion_lat": 0.0, "bike_id": "9760c75816f2115f5adcdc6b2f592110", "rental_uris": {"ios": "https://dc.lft.to/lastmile_qr_scan", "android": "https://dc.lft.to/lastmile_qr_scan"}}, {"name": "686deaae73f13eb4d8e8272b166baade", "type": "electric_scooter", "lat": 38.8999145, "is_reserved": 0, "lon": -76.99502633333333, "fusion_lon": 0.0, "is_disabled": 0, "fusion_lat": 0.0, "bike_id": "686deaae73f13eb4d8e8272b166baade", "rental_uris": {"ios": "https://dc.lft.to/lastmile_qr_scan", "android": "https://dc.lft.to/lastmile_qr_scan"}}, {"name": "d2af2fdc8d0c4372834824bdc16a9e14", "type": "electric_scooter", "lat": 38.905748833333334, "is_reserved": 0, "lon": -77.03826066666667, "fusion_lon": 0.0, "is_disabled": 0, "fusion_lat": 0.0, "bike_id": "d2af2fdc8d0c4372834824bdc16a9e14", "rental_uris": {"ios": "https://dc.lft.to/lastmile_qr_scan", "android": "https://dc.lft.to/lastmile_qr_scan"}}, {"name": "5ea269fd33f07373d2d23135df495b78", "type": "electric_scooter", "lat": 38.924519, "is_reserved": 0, "lon": -77.03375516666667, "fusion_lon": 0.0, "is_disabled": 0, "fusion_lat": 0.0, "bike_id": "5ea269fd33f07373d2d23135df495b78", "rental_uris": {"ios": "https://dc.lft.to/lastmile_qr_scan", "android": "https://dc.lft.to/lastmile_qr_scan"}}, {"name": "154be59baa0f531b7c60c55a37a2cfb4", "type": "electric_scooter", "lat": 38.895270833333335, "is_reserved": 0, "lon": -77.03351916666666, "fusion_lon": 0.0, "is_disabled": 0, "fusion_lat": 0.0, "bike_id": "154be59baa0f531b7c60c55a37a2cfb4", "rental_uris": {"ios": "https://dc.lft.to/lastmile_qr_scan", "android": "https://dc.lft.to/lastmile_qr_scan"}}, {"name": "b6cc9259f11c8ea77de24fcfb764df9c", "type": "electric_scooter", "lat": 38.97236216666667, "is_reserved": 0, "lon": -77.02715, "fusion_lon": 0.0, "is_disabled": 0, "fusion_lat": 0.0, "bike_id": "b6cc9259f11c8ea77de24fcfb764df9c", "rental_uris": {"ios": "https://dc.lft.to/lastmile_qr_scan", "android": "https://dc.lft.to/lastmile_qr_scan"}}, {"name": "d1bba8e45b86121c76f518ff2b603c9a", "type": "electric_bike", "lat": 38.945127166666666, "is_reserved": 0, "lon": -77.00679416666667, "fusion_lon": 0.0, "is_disabled": 0, "fusion_lat": 0.0, "bike_id": "d1bba8e45b86121c76f518ff2b603c9a", "rental_uris": {"ios": "https://dc.lft.to/lastmile_qr_scan", "android": "https://dc.lft.to/lastmile_qr_scan"}}, {"name": "aef20fa31832c817e9e1cdc7ca9c3481", "type": "electric_scooter", "lat": 38.91403583333334, "is_reserved": 0, "lon": -77.04567116666666, "fusion_lon": 0.0, "is_disabled": 0, "fusion_lat": 0.0, "bike_id": "aef20fa31832c817e9e1cdc7ca9c3481", "rental_uris": {"ios": "https://dc.lft.to/lastmile_qr_scan", "android": "https://dc.lft.to/lastmile_qr_scan"}}, {"name": "82d15bc33619ff994402e4baa469a626", "type": "electric_scooter", "lat": 38.90134583333333, "is_reserved": 0, "lon": -77.03335116666666, "fusion_lon": 0.0, "is_disabled": 0, "fusion_lat": 0.0, "bike_id": "82d15bc33619ff994402e4baa469a626", "rental_uris": {"ios": "https://dc.lft.to/lastmile_qr_scan", "android": "https://dc.lft.to/lastmile_qr_scan"}}, {"name": "1b9f1b45ba16864872cfbe3249181360", "type": "electric_scooter", "lat": 38.858989666666666, "is_reserved": 0, "lon": -76.96699183333334, "fusion_lon": 0.0, "is_disabled": 0, "fusion_lat": 0.0, "bike_id": "1b9f1b45ba16864872cfbe3249181360", "rental_uris": {"ios": "https://dc.lft.to/lastmile_qr_scan", "android": "https://dc.lft.to/lastmile_qr_scan"}}, {"name": "0cab5281f5aba7a7e486df594b37b88e", "type": "electric_scooter", "lat": 38.906365666666666, "is_reserved": 0, "lon": -77.0514635, "fusion_lon": 0.0, "is_disabled": 0, "fusion_lat": 0.0, "bike_id": "0cab5281f5aba7a7e486df594b37b88e", "rental_uris": {"ios": "https://dc.lft.to/lastmile_qr_scan", "android": "https://dc.lft.to/lastmile_qr_scan"}}, {"name": "7615bfe014c06607d2c3f80aa2c7ff91", "type": "electric_scooter", "lat": 38.92443733333333, "is_reserved": 0, "lon": -77.0203195, "fusion_lon": 0.0, "is_disabled": 0, "fusion_lat": 0.0, "bike_id": "7615bfe014c06607d2c3f80aa2c7ff91", "rental_uris": {"ios": "https://dc.lft.to/lastmile_qr_scan", "android": "https://dc.lft.to/lastmile_qr_scan"}}, {"name": "2c7ead88c68f7279de061d98b3182de7", "type": "electric_scooter", "lat": 38.9180535, "is_reserved": 0, "lon": -77.035635, "fusion_lon": 0.0, "is_disabled": 0, "fusion_lat": 0.0, "bike_id": "2c7ead88c68f7279de061d98b3182de7", "rental_uris": {"ios": "https://dc.lft.to/lastmile_qr_scan", "android": "https://dc.lft.to/lastmile_qr_scan"}}, {"name": "6f4f1d4bfbd49c04475d093bc0d33914", "type": "electric_scooter", "lat": 38.89400283333333, "is_reserved": 0, "lon": -76.94802783333333, "fusion_lon": 0.0, "is_disabled": 0, "fusion_lat": 0.0, "bike_id": "6f4f1d4bfbd49c04475d093bc0d33914", "rental_uris": {"ios": "https://dc.lft.to/lastmile_qr_scan", "android": "https://dc.lft.to/lastmile_qr_scan"}}, {"name": "28a8b426075987d77b33c8dc0f6f612e", "type": "electric_scooter", "lat": 38.93204, "is_reserved": 0, "lon": -77.03851616666667, "fusion_lon": 0.0, "is_disabled": 0, "fusion_lat": 0.0, "bike_id": "28a8b426075987d77b33c8dc0f6f612e", "rental_uris": {"ios": "https://dc.lft.to/lastmile_qr_scan", "android": "https://dc.lft.to/lastmile_qr_scan"}}, {"name": "b7c4411f51706583b6c12b06900ba39d", "type": "electric_scooter", "lat": 38.93138716666667, "is_reserved": 0, "lon": -77.03256516666667, "fusion_lon": 0.0, "is_disabled": 0, "fusion_lat": 0.0, "bike_id": "b7c4411f51706583b6c12b06900ba39d", "rental_uris": {"ios": "https://dc.lft.to/lastmile_qr_scan", "android": "https://dc.lft.to/lastmile_qr_scan"}}, {"name": "91e41817eb9a38b47c7fd1b878746faa", "type": "electric_scooter", "lat": 38.887499, "is_reserved": 0, "lon": -76.97984816666667, "fusion_lon": 0.0, "is_disabled": 0, "fusion_lat": 0.0, "bike_id": "91e41817eb9a38b47c7fd1b878746faa", "rental_uris": {"ios": "https://dc.lft.to/lastmile_qr_scan", "android": "https://dc.lft.to/lastmile_qr_scan"}}, {"name": "7ad9b1cf5126c2e3f68f2ae1dd7c940f", "type": "electric_scooter", "lat": 38.935044500000004, "is_reserved": 0, "lon": -77.01999416666666, "fusion_lon": 0.0, "is_disabled": 0, "fusion_lat": 0.0, "bike_id": "7ad9b1cf5126c2e3f68f2ae1dd7c940f", "rental_uris": {"ios": "https://dc.lft.to/lastmile_qr_scan", "android": "https://dc.lft.to/lastmile_qr_scan"}}, {"name": "cd0336542be9e9a82aa8d61ff599a56c", "type": "electric_scooter", "lat": 38.88364583333333, "is_reserved": 0, "lon": -76.927957, "fusion_lon": 0.0, "is_disabled": 0, "fusion_lat": 0.0, "bike_id": "cd0336542be9e9a82aa8d61ff599a56c", "rental_uris": {"ios": "https://dc.lft.to/lastmile_qr_scan", "android": "https://dc.lft.to/lastmile_qr_scan"}}, {"name": "8ff27ac5b9daeff7b1b22d1b8fc3fa07", "type": "electric_bike", "lat": 38.875744, "is_reserved": 0, "lon": -77.10571316666666, "fusion_lon": 0.0, "is_disabled": 0, "fusion_lat": 0.0, "bike_id": "8ff27ac5b9daeff7b1b22d1b8fc3fa07", "rental_uris": {"ios": "https://dc.lft.to/lastmile_qr_scan", "android": "https://dc.lft.to/lastmile_qr_scan"}}, {"name": "e02c83a0a01d8f56fbb2675995d6bc9f", "type": "electric_scooter", "lat": 38.94365066666667, "is_reserved": 0, "lon": -77.02179366666667, "fusion_lon": 0.0, "is_disabled": 0, "fusion_lat": 0.0, "bike_id": "e02c83a0a01d8f56fbb2675995d6bc9f", "rental_uris": {"ios": "https://dc.lft.to/lastmile_qr_scan", "android": "https://dc.lft.to/lastmile_qr_scan"}}, {"name": "b7640d5d333206441bb004a0c559107f", "type": "electric_scooter", "lat": 38.8949045, "is_reserved": 0, "lon": -77.01013283333333, "fusion_lon": 0.0, "is_disabled": 0, "fusion_lat": 0.0, "bike_id": "b7640d5d333206441bb004a0c559107f", "rental_uris": {"ios": "https://dc.lft.to/lastmile_qr_scan", "android": "https://dc.lft.to/lastmile_qr_scan"}}, {"name": "40feae8c1444db10d0f2f287bd359528", "type": "electric_bike", "lat": 38.92207916666667, "is_reserved": 0, "lon": -76.98798483333333, "fusion_lon": 0.0, "is_disabled": 0, "fusion_lat": 0.0, "bike_id": "40feae8c1444db10d0f2f287bd359528", "rental_uris": {"ios": "https://dc.lft.to/lastmile_qr_scan", "android": "https://dc.lft.to/lastmile_qr_scan"}}, {"name": "1e8b1fe619eae994bdf069b2c96eddb7", "type": "electric_scooter", "lat": 38.8988625, "is_reserved": 0, "lon": -77.03325416666667, "fusion_lon": 0.0, "is_disabled": 0, "fusion_lat": 0.0, "bike_id": "1e8b1fe619eae994bdf069b2c96eddb7", "rental_uris": {"ios": "https://dc.lft.to/lastmile_qr_scan", "android": "https://dc.lft.to/lastmile_qr_scan"}}, {"name": "ea660653e1fab618a7157f5b6d09aff2", "type": "electric_scooter", "lat": 38.8987725, "is_reserved": 0, "lon": -77.03313733333333, "fusion_lon": 0.0, "is_disabled": 0, "fusion_lat": 0.0, "bike_id": "ea660653e1fab618a7157f5b6d09aff2", "rental_uris": {"ios": "https://dc.lft.to/lastmile_qr_scan", "android": "https://dc.lft.to/lastmile_qr_scan"}}, {"name": "ca587a60cd525c9455bc6bcc34e0e725", "type": "electric_scooter", "lat": 38.89842083333333, "is_reserved": 0, "lon": -76.944795, "fusion_lon": 0.0, "is_disabled": 0, "fusion_lat": 0.0, "bike_id": "ca587a60cd525c9455bc6bcc34e0e725", "rental_uris": {"ios": "https://dc.lft.to/lastmile_qr_scan", "android": "https://dc.lft.to/lastmile_qr_scan"}}, {"name": "acf04f512bc3dc40f655095b4e3fad49", "type": "electric_scooter", "lat": 38.921498166666666, "is_reserved": 0, "lon": -77.03529883333333, "fusion_lon": 0.0, "is_disabled": 0, "fusion_lat": 0.0, "bike_id": "acf04f512bc3dc40f655095b4e3fad49", "rental_uris": {"ios": "https://dc.lft.to/lastmile_qr_scan", "android": "https://dc.lft.to/lastmile_qr_scan"}}, {"name": "5272389ffd2cec09f9aac0d2b81a47b9", "type": "electric_bike", "lat": 38.862843, "is_reserved": 0, "lon": -77.06364383333333, "fusion_lon": 0.0, "is_disabled": 0, "fusion_lat": 0.0, "bike_id": "5272389ffd2cec09f9aac0d2b81a47b9", "rental_uris": {"ios": "https://dc.lft.to/lastmile_qr_scan", "android": "https://dc.lft.to/lastmile_qr_scan"}}, {"name": "782a901d6f0de1bd227f80c4a5ddffbd", "type": "electric_bike", "lat": 38.86754533333333, "is_reserved": 0, "lon": -76.94538683333333, "fusion_lon": 0.0, "is_disabled": 0, "fusion_lat": 0.0, "bike_id": "782a901d6f0de1bd227f80c4a5ddffbd", "rental_uris": {"ios": "https://dc.lft.to/lastmile_qr_scan", "android": "https://dc.lft.to/lastmile_qr_scan"}}, {"name": "1f3732e54847bc9669aa554200b201eb", "type": "electric_scooter", "lat": 38.89753983333333, "is_reserved": 0, "lon": -77.01044083333333, "fusion_lon": 0.0, "is_disabled": 0, "fusion_lat": 0.0, "bike_id": "1f3732e54847bc9669aa554200b201eb", "rental_uris": {"ios": "https://dc.lft.to/lastmile_qr_scan", "android": "https://dc.lft.to/lastmile_qr_scan"}}, {"name": "b0aff8bc5521685014115cc68a84a4e9", "type": "electric_scooter", "lat": 38.88668916666666, "is_reserved": 0, "lon": -76.97914233333333, "fusion_lon": 0.0, "is_disabled": 0, "fusion_lat": 0.0, "bike_id": "b0aff8bc5521685014115cc68a84a4e9", "rental_uris": {"ios": "https://dc.lft.to/lastmile_qr_scan", "android": "https://dc.lft.to/lastmile_qr_scan"}}, {"name": "7b94a8ee84f4154edecfcb15b179df56", "type": "electric_scooter", "lat": 38.927227333333335, "is_reserved": 0, "lon": -77.00570166666667, "fusion_lon": 0.0, "is_disabled": 0, "fusion_lat": 0.0, "bike_id": "7b94a8ee84f4154edecfcb15b179df56", "rental_uris": {"ios": "https://dc.lft.to/lastmile_qr_scan", "android": "https://dc.lft.to/lastmile_qr_scan"}}, {"name": "1fd501f44f4f2a9fb76c0d6b4996b0b5", "type": "electric_bike", "lat": 38.82789866666667, "is_reserved": 0, "lon": -77.00907116666667, "fusion_lon": 0.0, "is_disabled": 0, "fusion_lat": 0.0, "bike_id": "1fd501f44f4f2a9fb76c0d6b4996b0b5", "rental_uris": {"ios": "https://dc.lft.to/lastmile_qr_scan", "android": "https://dc.lft.to/lastmile_qr_scan"}}, {"name": "3f17804befbb543c12c52a3dcd2da59b", "type": "electric_bike", "lat": 39.0945865, "is_reserved": 0, "lon": -77.14996566666667, "fusion_lon": 0.0, "is_disabled": 0, "fusion_lat": 0.0, "bike_id": "3f17804befbb543c12c52a3dcd2da59b", "rental_uris": {"ios": "https://dc.lft.to/lastmile_qr_scan", "android": "https://dc.lft.to/lastmile_qr_scan"}}, {"name": "d7fec1464642a7cc949311e6278770df", "type": "electric_bike", "lat": 38.84056533333333, "is_reserved": 0, "lon": -77.06412133333333, "fusion_lon": 0.0, "is_disabled": 0, "fusion_lat": 0.0, "bike_id": "d7fec1464642a7cc949311e6278770df", "rental_uris": {"ios": "https://dc.lft.to/lastmile_qr_scan", "android": "https://dc.lft.to/lastmile_qr_scan"}}, {"name": "ae415d6fd9daf53402a97bdeb46cf053", "type": "electric_bike", "lat": 38.924622166666666, "is_reserved": 0, "lon": -77.20841316666667, "fusion_lon": 0.0, "is_disabled": 0, "fusion_lat": 0.0, "bike_id": "ae415d6fd9daf53402a97bdeb46cf053", "rental_uris": {"ios": "https://dc.lft.to/lastmile_qr_scan", "android": "https://dc.lft.to/lastmile_qr_scan"}}, {"name": "65d5924e304341e47dc65bfb891f75b9", "type": "electric_scooter", "lat": 38.911060666666664, "is_reserved": 0, "lon": -77.0492845, "fusion_lon": 0.0, "is_disabled": 0, "fusion_lat": 0.0, "bike_id": "65d5924e304341e47dc65bfb891f75b9", "rental_uris": {"ios": "https://dc.lft.to/lastmile_qr_scan", "android": "https://dc.lft.to/lastmile_qr_scan"}}, {"name": "fc6448ed325c58a28adfce1f13e7c303", "type": "electric_scooter", "lat": 38.910986333333334, "is_reserved": 0, "lon": -77.04669633333333, "fusion_lon": 0.0, "is_disabled": 0, "fusion_lat": 0.0, "bike_id": "fc6448ed325c58a28adfce1f13e7c303", "rental_uris": {"ios": "https://dc.lft.to/lastmile_qr_scan", "android": "https://dc.lft.to/lastmile_qr_scan"}}, {"name": "9d9014e077b7c3a1f704db6454e493fb", "type": "electric_bike", "lat": 38.89187483333333, "is_reserved": 0, "lon": -77.12265383333333, "fusion_lon": 0.0, "is_disabled": 0, "fusion_lat": 0.0, "bike_id": "9d9014e077b7c3a1f704db6454e493fb", "rental_uris": {"ios": "https://dc.lft.to/lastmile_qr_scan", "android": "https://dc.lft.to/lastmile_qr_scan"}}, {"name": "a978775d5c32ba3249b4f7eb11e13e33", "type": "electric_scooter", "lat": 38.934261666666664, "is_reserved": 0, "lon": -77.03409583333334, "fusion_lon": 0.0, "is_disabled": 0, "fusion_lat": 0.0, "bike_id": "a978775d5c32ba3249b4f7eb11e13e33", "rental_uris": {"ios": "https://dc.lft.to/lastmile_qr_scan", "android": "https://dc.lft.to/lastmile_qr_scan"}}, {"name": "54149e3b9579d83282f62215c449147c", "type": "electric_scooter", "lat": 38.908310166666666, "is_reserved": 0, "lon": -76.99700233333333, "fusion_lon": 0.0, "is_disabled": 0, "fusion_lat": 0.0, "bike_id": "54149e3b9579d83282f62215c449147c", "rental_uris": {"ios": "https://dc.lft.to/lastmile_qr_scan", "android": "https://dc.lft.to/lastmile_qr_scan"}}, {"name": "b44dc4158cbe9d5559d8da95551e417c", "type": "electric_bike", "lat": 38.81933816666667, "is_reserved": 0, "lon": -77.00226383333333, "fusion_lon": 0.0, "is_disabled": 0, "fusion_lat": 0.0, "bike_id": "b44dc4158cbe9d5559d8da95551e417c", "rental_uris": {"ios": "https://dc.lft.to/lastmile_qr_scan", "android": "https://dc.lft.to/lastmile_qr_scan"}}, {"name": "cacacc582c7452042962988c93bc2e17", "type": "electric_bike", "lat": 38.95550733333334, "is_reserved": 0, "lon": -76.935441, "fusion_lon": 0.0, "is_disabled": 0, "fusion_lat": 0.0, "bike_id": "cacacc582c7452042962988c93bc2e17", "rental_uris": {"ios": "https://dc.lft.to/lastmile_qr_scan", "android": "https://dc.lft.to/lastmile_qr_scan"}}, {"name": "c69ad916a92a58368a75fdbf8e4b2900", "type": "electric_scooter", "lat": 38.94273733333333, "is_reserved": 0, "lon": -77.02504033333334, "fusion_lon": 0.0, "is_disabled": 0, "fusion_lat": 0.0, "bike_id": "c69ad916a92a58368a75fdbf8e4b2900", "rental_uris": {"ios": "https://dc.lft.to/lastmile_qr_scan", "android": "https://dc.lft.to/lastmile_qr_scan"}}, {"name": "73c55721c5ade4520807f07717e62703", "type": "electric_scooter", "lat": 38.92441783333334, "is_reserved": 0, "lon": -77.034036, "fusion_lon": 0.0, "is_disabled": 0, "fusion_lat": 0.0, "bike_id": "73c55721c5ade4520807f07717e62703", "rental_uris": {"ios": "https://dc.lft.to/lastmile_qr_scan", "android": "https://dc.lft.to/lastmile_qr_scan"}}, {"name": "dfba5fa0b75e883e72d955d8fa2efd4f", "type": "electric_scooter", "lat": 38.89842483333334, "is_reserved": 0, "lon": -77.03328583333334, "fusion_lon": 0.0, "is_disabled": 0, "fusion_lat": 0.0, "bike_id": "dfba5fa0b75e883e72d955d8fa2efd4f", "rental_uris": {"ios": "https://dc.lft.to/lastmile_qr_scan", "android": "https://dc.lft.to/lastmile_qr_scan"}}, {"name": "1ae9ca6cd02511c1dce1dd7f07ccecb2", "type": "electric_scooter", "lat": 38.915673166666664, "is_reserved": 0, "lon": -77.03184316666666, "fusion_lon": 0.0, "is_disabled": 0, "fusion_lat": 0.0, "bike_id": "1ae9ca6cd02511c1dce1dd7f07ccecb2", "rental_uris": {"ios": "https://dc.lft.to/lastmile_qr_scan", "android": "https://dc.lft.to/lastmile_qr_scan"}}, {"name": "6d3bb11215e2f333e141da31ab3796b2", "type": "electric_scooter", "lat": 38.90135016666667, "is_reserved": 0, "lon": -77.03236366666667, "fusion_lon": 0.0, "is_disabled": 0, "fusion_lat": 0.0, "bike_id": "6d3bb11215e2f333e141da31ab3796b2", "rental_uris": {"ios": "https://dc.lft.to/lastmile_qr_scan", "android": "https://dc.lft.to/lastmile_qr_scan"}}, {"name": "8831e8712c836b65de0bb073fc3f4fc7", "type": "electric_scooter", "lat": 38.880395166666666, "is_reserved": 0, "lon": -76.92724333333334, "fusion_lon": 0.0, "is_disabled": 0, "fusion_lat": 0.0, "bike_id": "8831e8712c836b65de0bb073fc3f4fc7", "rental_uris": {"ios": "https://dc.lft.to/lastmile_qr_scan", "android": "https://dc.lft.to/lastmile_qr_scan"}}, {"name": "9904a33b574d61bb398d2a5541a35bce", "type": "electric_scooter", "lat": 38.897243, "is_reserved": 0, "lon": -77.04939216666666, "fusion_lon": 0.0, "is_disabled": 0, "fusion_lat": 0.0, "bike_id": "9904a33b574d61bb398d2a5541a35bce", "rental_uris": {"ios": "https://dc.lft.to/lastmile_qr_scan", "android": "https://dc.lft.to/lastmile_qr_scan"}}, {"name": "da37e02c68cc367d3b2554745f99577a", "type": "electric_scooter", "lat": 38.906776666666666, "is_reserved": 0, "lon": -76.97802433333334, "fusion_lon": 0.0, "is_disabled": 0, "fusion_lat": 0.0, "bike_id": "da37e02c68cc367d3b2554745f99577a", "rental_uris": {"ios": "https://dc.lft.to/lastmile_qr_scan", "android": "https://dc.lft.to/lastmile_qr_scan"}}, {"name": "8be9294dc52fb3fb6b420e969e7f5229", "type": "electric_scooter", "lat": 38.876281166666665, "is_reserved": 0, "lon": -76.96528966666666, "fusion_lon": 0.0, "is_disabled": 0, "fusion_lat": 0.0, "bike_id": "8be9294dc52fb3fb6b420e969e7f5229", "rental_uris": {"ios": "https://dc.lft.to/lastmile_qr_scan", "android": "https://dc.lft.to/lastmile_qr_scan"}}, {"name": "9215f8f072bd5c340fcb0e2bcc5d6939", "type": "electric_scooter", "lat": 38.886884333333334, "is_reserved": 0, "lon": -76.95764466666667, "fusion_lon": 0.0, "is_disabled": 0, "fusion_lat": 0.0, "bike_id": "9215f8f072bd5c340fcb0e2bcc5d6939", "rental_uris": {"ios": "https://dc.lft.to/lastmile_qr_scan", "android": "https://dc.lft.to/lastmile_qr_scan"}}, {"name": "b3582164211199208e0ba4ce37cb6844", "type": "electric_scooter", "lat": 38.897412333333335, "is_reserved": 0, "lon": -76.93845866666666, "fusion_lon": 0.0, "is_disabled": 0, "fusion_lat": 0.0, "bike_id": "b3582164211199208e0ba4ce37cb6844", "rental_uris": {"ios": "https://dc.lft.to/lastmile_qr_scan", "android": "https://dc.lft.to/lastmile_qr_scan"}}, {"name": "ab1298005fc058b1e659a70be6c3cbdb", "type": "electric_scooter", "lat": 38.89527133333333, "is_reserved": 0, "lon": -77.00341116666667, "fusion_lon": 0.0, "is_disabled": 0, "fusion_lat": 0.0, "bike_id": "ab1298005fc058b1e659a70be6c3cbdb", "rental_uris": {"ios": "https://dc.lft.to/lastmile_qr_scan", "android": "https://dc.lft.to/lastmile_qr_scan"}}, {"name": "4bf21cd9593f93c459956a171a4544cf", "type": "electric_scooter", "lat": 38.927650666666665, "is_reserved": 0, "lon": -77.0730605, "fusion_lon": 0.0, "is_disabled": 0, "fusion_lat": 0.0, "bike_id": "4bf21cd9593f93c459956a171a4544cf", "rental_uris": {"ios": "https://dc.lft.to/lastmile_qr_scan", "android": "https://dc.lft.to/lastmile_qr_scan"}}, {"name": "4d28c7a940c820ffe993b8550b74eb46", "type": "electric_bike", "lat": 38.83810116666667, "is_reserved": 0, "lon": -77.09525433333333, "fusion_lon": 0.0, "is_disabled": 0, "fusion_lat": 0.0, "bike_id": "4d28c7a940c820ffe993b8550b74eb46", "rental_uris": {"ios": "https://dc.lft.to/lastmile_qr_scan", "android": "https://dc.lft.to/lastmile_qr_scan"}}, {"name": "c45bc6bd36f0be467da28fcb2c2d7ee6", "type": "electric_scooter", "lat": 38.89597116666667, "is_reserved": 0, "lon": -77.04464083333333, "fusion_lon": 0.0, "is_disabled": 0, "fusion_lat": 0.0, "bike_id": "c45bc6bd36f0be467da28fcb2c2d7ee6", "rental_uris": {"ios": "https://dc.lft.to/lastmile_qr_scan", "android": "https://dc.lft.to/lastmile_qr_scan"}}, {"name": "264743e10fb2dc47afeebad98c80ebc6", "type": "electric_scooter", "lat": 38.92853566666667, "is_reserved": 0, "lon": -77.01382016666666, "fusion_lon": 0.0, "is_disabled": 0, "fusion_lat": 0.0, "bike_id": "264743e10fb2dc47afeebad98c80ebc6", "rental_uris": {"ios": "https://dc.lft.to/lastmile_qr_scan", "android": "https://dc.lft.to/lastmile_qr_scan"}}, {"name": "9de72257a8b893994f58bc82ebcc8376", "type": "electric_scooter", "lat": 38.90491516666667, "is_reserved": 0, "lon": -77.02820983333334, "fusion_lon": 0.0, "is_disabled": 0, "fusion_lat": 0.0, "bike_id": "9de72257a8b893994f58bc82ebcc8376", "rental_uris": {"ios": "https://dc.lft.to/lastmile_qr_scan", "android": "https://dc.lft.to/lastmile_qr_scan"}}, {"name": "2d1ad712be9d3199860d11192484871b", "type": "electric_scooter", "lat": 38.933398333333336, "is_reserved": 0, "lon": -77.03284266666667, "fusion_lon": 0.0, "is_disabled": 0, "fusion_lat": 0.0, "bike_id": "2d1ad712be9d3199860d11192484871b", "rental_uris": {"ios": "https://dc.lft.to/lastmile_qr_scan", "android": "https://dc.lft.to/lastmile_qr_scan"}}, {"name": "08a8587d405077cdb5b3fc215071ba3d", "type": "electric_bike", "lat": 38.838277166666664, "is_reserved": 0, "lon": -76.996854, "fusion_lon": 0.0, "is_disabled": 0, "fusion_lat": 0.0, "bike_id": "08a8587d405077cdb5b3fc215071ba3d", "rental_uris": {"ios": "https://dc.lft.to/lastmile_qr_scan", "android": "https://dc.lft.to/lastmile_qr_scan"}}, {"name": "b19d50937f279460836e49e91fb2466f", "type": "electric_scooter", "lat": 38.865219333333336, "is_reserved": 0, "lon": -76.99026216666667, "fusion_lon": 0.0, "is_disabled": 0, "fusion_lat": 0.0, "bike_id": "b19d50937f279460836e49e91fb2466f", "rental_uris": {"ios": "https://dc.lft.to/lastmile_qr_scan", "android": "https://dc.lft.to/lastmile_qr_scan"}}, {"name": "298d2f4538cecc68fc245102e066f8dc", "type": "electric_scooter", "lat": 38.8923445, "is_reserved": 0, "lon": -77.01531383333334, "fusion_lon": 0.0, "is_disabled": 0, "fusion_lat": 0.0, "bike_id": "298d2f4538cecc68fc245102e066f8dc", "rental_uris": {"ios": "https://dc.lft.to/lastmile_qr_scan", "android": "https://dc.lft.to/lastmile_qr_scan"}}, {"name": "371f4189239e665c4d2bdabd20d1c1d3", "type": "electric_scooter", "lat": 38.93291416666667, "is_reserved": 0, "lon": -77.03985683333333, "fusion_lon": 0.0, "is_disabled": 0, "fusion_lat": 0.0, "bike_id": "371f4189239e665c4d2bdabd20d1c1d3", "rental_uris": {"ios": "https://dc.lft.to/lastmile_qr_scan", "android": "https://dc.lft.to/lastmile_qr_scan"}}, {"name": "4ff90f7dc9d3f0493e7e597fdc22ebb0", "type": "electric_bike", "lat": 38.922120166666666, "is_reserved": 0, "lon": -76.9883455, "fusion_lon": 0.0, "is_disabled": 0, "fusion_lat": 0.0, "bike_id": "4ff90f7dc9d3f0493e7e597fdc22ebb0", "rental_uris": {"ios": "https://dc.lft.to/lastmile_qr_scan", "android": "https://dc.lft.to/lastmile_qr_scan"}}, {"name": "073e3aa599b65e4f69161de6b12586b5", "type": "electric_scooter", "lat": 38.900649333333334, "is_reserved": 0, "lon": -77.02587483333333, "fusion_lon": 0.0, "is_disabled": 0, "fusion_lat": 0.0, "bike_id": "073e3aa599b65e4f69161de6b12586b5", "rental_uris": {"ios": "https://dc.lft.to/lastmile_qr_scan", "android": "https://dc.lft.to/lastmile_qr_scan"}}, {"name": "3bf804a3f1190feb265239d71acbb129", "type": "electric_scooter", "lat": 38.918111333333336, "is_reserved": 0, "lon": -77.0343995, "fusion_lon": 0.0, "is_disabled": 0, "fusion_lat": 0.0, "bike_id": "3bf804a3f1190feb265239d71acbb129", "rental_uris": {"ios": "https://dc.lft.to/lastmile_qr_scan", "android": "https://dc.lft.to/lastmile_qr_scan"}}, {"name": "1d268fb7aaf5ade2225d65dd77126169", "type": "electric_scooter", "lat": 38.90370333333333, "is_reserved": 0, "lon": -77.0417045, "fusion_lon": 0.0, "is_disabled": 0, "fusion_lat": 0.0, "bike_id": "1d268fb7aaf5ade2225d65dd77126169", "rental_uris": {"ios": "https://dc.lft.to/lastmile_qr_scan", "android": "https://dc.lft.to/lastmile_qr_scan"}}, {"name": "861096969b55af7655044afd533d4cc8", "type": "electric_scooter", "lat": 38.842956, "is_reserved": 0, "lon": -76.99951416666667, "fusion_lon": 0.0, "is_disabled": 0, "fusion_lat": 0.0, "bike_id": "861096969b55af7655044afd533d4cc8", "rental_uris": {"ios": "https://dc.lft.to/lastmile_qr_scan", "android": "https://dc.lft.to/lastmile_qr_scan"}}, {"name": "ca59fb630a13bc4e8ee378e20c11fa08", "type": "electric_scooter", "lat": 38.89830216666667, "is_reserved": 0, "lon": -77.00748633333333, "fusion_lon": 0.0, "is_disabled": 0, "fusion_lat": 0.0, "bike_id": "ca59fb630a13bc4e8ee378e20c11fa08", "rental_uris": {"ios": "https://dc.lft.to/lastmile_qr_scan", "android": "https://dc.lft.to/lastmile_qr_scan"}}, {"name": "a941baf00da6e63357df82cc6acbbb7d", "type": "electric_bike", "lat": 38.906502833333334, "is_reserved": 0, "lon": -77.00611116666667, "fusion_lon": 0.0, "is_disabled": 0, "fusion_lat": 0.0, "bike_id": "a941baf00da6e63357df82cc6acbbb7d", "rental_uris": {"ios": "https://dc.lft.to/lastmile_qr_scan", "android": "https://dc.lft.to/lastmile_qr_scan"}}, {"name": "60b0dd5219dc9dc5cd70a57cfbbb91e9", "type": "electric_scooter", "lat": 38.91384716666666, "is_reserved": 0, "lon": -77.0179805, "fusion_lon": 0.0, "is_disabled": 0, "fusion_lat": 0.0, "bike_id": "60b0dd5219dc9dc5cd70a57cfbbb91e9", "rental_uris": {"ios": "https://dc.lft.to/lastmile_qr_scan", "android": "https://dc.lft.to/lastmile_qr_scan"}}, {"name": "25c18fdb99ada3ccba39af0089e0b269", "type": "electric_scooter", "lat": 38.9027875, "is_reserved": 0, "lon": -77.06105066666667, "fusion_lon": 0.0, "is_disabled": 0, "fusion_lat": 0.0, "bike_id": "25c18fdb99ada3ccba39af0089e0b269", "rental_uris": {"ios": "https://dc.lft.to/lastmile_qr_scan", "android": "https://dc.lft.to/lastmile_qr_scan"}}, {"name": "47d673e2ffa603e307f9c5f34475c8da", "type": "electric_bike", "lat": 38.969097833333336, "is_reserved": 0, "lon": -76.95645433333334, "fusion_lon": 0.0, "is_disabled": 0, "fusion_lat": 0.0, "bike_id": "47d673e2ffa603e307f9c5f34475c8da", "rental_uris": {"ios": "https://dc.lft.to/lastmile_qr_scan", "android": "https://dc.lft.to/lastmile_qr_scan"}}, {"name": "c2b44401588091df37e168d19b398850", "type": "electric_scooter", "lat": 38.9565065, "is_reserved": 0, "lon": -77.03290283333334, "fusion_lon": 0.0, "is_disabled": 0, "fusion_lat": 0.0, "bike_id": "c2b44401588091df37e168d19b398850", "rental_uris": {"ios": "https://dc.lft.to/lastmile_qr_scan", "android": "https://dc.lft.to/lastmile_qr_scan"}}, {"name": "fe5506c3fa6e41dd2c9daf338e0377ea", "type": "electric_bike", "lat": 38.90519316666666, "is_reserved": 0, "lon": -77.0678785, "fusion_lon": 0.0, "is_disabled": 0, "fusion_lat": 0.0, "bike_id": "fe5506c3fa6e41dd2c9daf338e0377ea", "rental_uris": {"ios": "https://dc.lft.to/lastmile_qr_scan", "android": "https://dc.lft.to/lastmile_qr_scan"}}, {"name": "4c0f5b25b8c781ec7db829141531db35", "type": "electric_scooter", "lat": 38.934640333333334, "is_reserved": 0, "lon": -77.07292466666667, "fusion_lon": 0.0, "is_disabled": 0, "fusion_lat": 0.0, "bike_id": "4c0f5b25b8c781ec7db829141531db35", "rental_uris": {"ios": "https://dc.lft.to/lastmile_qr_scan", "android": "https://dc.lft.to/lastmile_qr_scan"}}, {"name": "238a88514112c9916fcab09f8c0b9cab", "type": "electric_scooter", "lat": 38.8849375, "is_reserved": 0, "lon": -77.00726616666667, "fusion_lon": 0.0, "is_disabled": 0, "fusion_lat": 0.0, "bike_id": "238a88514112c9916fcab09f8c0b9cab", "rental_uris": {"ios": "https://dc.lft.to/lastmile_qr_scan", "android": "https://dc.lft.to/lastmile_qr_scan"}}, {"name": "e0327268ba7f30f951822ef18d752b62", "type": "electric_bike", "lat": 38.8278135, "is_reserved": 0, "lon": -77.00917616666666, "fusion_lon": 0.0, "is_disabled": 0, "fusion_lat": 0.0, "bike_id": "e0327268ba7f30f951822ef18d752b62", "rental_uris": {"ios": "https://dc.lft.to/lastmile_qr_scan", "android": "https://dc.lft.to/lastmile_qr_scan"}}, {"name": "e8f06ceaea6dcdc0fc9db8c31e00ae2c", "type": "electric_bike", "lat": 39.00386666666667, "is_reserved": 0, "lon": -77.012917, "fusion_lon": 0.0, "is_disabled": 0, "fusion_lat": 0.0, "bike_id": "e8f06ceaea6dcdc0fc9db8c31e00ae2c", "rental_uris": {"ios": "https://dc.lft.to/lastmile_qr_scan", "android": "https://dc.lft.to/lastmile_qr_scan"}}, {"name": "e4cefa1aaef55e10a6f775bd05df10ef", "type": "electric_scooter", "lat": 38.90061083333333, "is_reserved": 0, "lon": -77.00768233333334, "fusion_lon": 0.0, "is_disabled": 0, "fusion_lat": 0.0, "bike_id": "e4cefa1aaef55e10a6f775bd05df10ef", "rental_uris": {"ios": "https://dc.lft.to/lastmile_qr_scan", "android": "https://dc.lft.to/lastmile_qr_scan"}}, {"name": "c65b33ed8ac5c9ccb075d3e75eae724e", "type": "electric_scooter", "lat": 38.906614166666664, "is_reserved": 0, "lon": -77.043488, "fusion_lon": 0.0, "is_disabled": 0, "fusion_lat": 0.0, "bike_id": "c65b33ed8ac5c9ccb075d3e75eae724e", "rental_uris": {"ios": "https://dc.lft.to/lastmile_qr_scan", "android": "https://dc.lft.to/lastmile_qr_scan"}}, {"name": "61d904e4ebe79669602c1a4db704175e", "type": "electric_scooter", "lat": 38.89774283333333, "is_reserved": 0, "lon": -77.02698966666667, "fusion_lon": 0.0, "is_disabled": 0, "fusion_lat": 0.0, "bike_id": "61d904e4ebe79669602c1a4db704175e", "rental_uris": {"ios": "https://dc.lft.to/lastmile_qr_scan", "android": "https://dc.lft.to/lastmile_qr_scan"}}, {"name": "93e4834924bed5e983d9e5f9587d0424", "type": "electric_scooter", "lat": 38.89798016666667, "is_reserved": 0, "lon": -76.99167733333333, "fusion_lon": 0.0, "is_disabled": 0, "fusion_lat": 0.0, "bike_id": "93e4834924bed5e983d9e5f9587d0424", "rental_uris": {"ios": "https://dc.lft.to/lastmile_qr_scan", "android": "https://dc.lft.to/lastmile_qr_scan"}}, {"name": "d4c4621269241be1a6dd1cb8a43189e1", "type": "electric_scooter", "lat": 38.921498166666666, "is_reserved": 0, "lon": -77.02431216666666, "fusion_lon": 0.0, "is_disabled": 0, "fusion_lat": 0.0, "bike_id": "d4c4621269241be1a6dd1cb8a43189e1", "rental_uris": {"ios": "https://dc.lft.to/lastmile_qr_scan", "android": "https://dc.lft.to/lastmile_qr_scan"}}, {"name": "56cf3f3badd897b6b845aba2eef0d60c", "type": "electric_scooter", "lat": 38.897929833333336, "is_reserved": 0, "lon": -77.01216516666666, "fusion_lon": 0.0, "is_disabled": 0, "fusion_lat": 0.0, "bike_id": "56cf3f3badd897b6b845aba2eef0d60c", "rental_uris": {"ios": "https://dc.lft.to/lastmile_qr_scan", "android": "https://dc.lft.to/lastmile_qr_scan"}}, {"name": "5fa896d3f0fa587b898306037cc9ae2c", "type": "electric_scooter", "lat": 38.8669845, "is_reserved": 0, "lon": -76.98718716666667, "fusion_lon": 0.0, "is_disabled": 0, "fusion_lat": 0.0, "bike_id": "5fa896d3f0fa587b898306037cc9ae2c", "rental_uris": {"ios": "https://dc.lft.to/lastmile_qr_scan", "android": "https://dc.lft.to/lastmile_qr_scan"}}, {"name": "79e9f55ed9c9cbd20422418c34eff81c", "type": "electric_scooter", "lat": 38.93109183333333, "is_reserved": 0, "lon": -77.03460383333334, "fusion_lon": 0.0, "is_disabled": 0, "fusion_lat": 0.0, "bike_id": "79e9f55ed9c9cbd20422418c34eff81c", "rental_uris": {"ios": "https://dc.lft.to/lastmile_qr_scan", "android": "https://dc.lft.to/lastmile_qr_scan"}}, {"name": "1667e0240e5955a224171bfb447dcbdd", "type": "electric_scooter", "lat": 38.923527166666666, "is_reserved": 0, "lon": -77.0434895, "fusion_lon": 0.0, "is_disabled": 0, "fusion_lat": 0.0, "bike_id": "1667e0240e5955a224171bfb447dcbdd", "rental_uris": {"ios": "https://dc.lft.to/lastmile_qr_scan", "android": "https://dc.lft.to/lastmile_qr_scan"}}, {"name": "c43efb2dec48a76841ea1f7f8a6d2ec4", "type": "electric_scooter", "lat": 38.93446266666667, "is_reserved": 0, "lon": -77.02842483333333, "fusion_lon": 0.0, "is_disabled": 0, "fusion_lat": 0.0, "bike_id": "c43efb2dec48a76841ea1f7f8a6d2ec4", "rental_uris": {"ios": "https://dc.lft.to/lastmile_qr_scan", "android": "https://dc.lft.to/lastmile_qr_scan"}}, {"name": "4d80dc6df11cedbab384e31811c5ec5a", "type": "electric_bike", "lat": 38.8976995, "is_reserved": 0, "lon": -76.90440166666667, "fusion_lon": 0.0, "is_disabled": 0, "fusion_lat": 0.0, "bike_id": "4d80dc6df11cedbab384e31811c5ec5a", "rental_uris": {"ios": "https://dc.lft.to/lastmile_qr_scan", "android": "https://dc.lft.to/lastmile_qr_scan"}}, {"name": "82f4625b1252042423ae748c775fdfcf", "type": "electric_scooter", "lat": 38.924726, "is_reserved": 0, "lon": -77.03775833333333, "fusion_lon": 0.0, "is_disabled": 0, "fusion_lat": 0.0, "bike_id": "82f4625b1252042423ae748c775fdfcf", "rental_uris": {"ios": "https://dc.lft.to/lastmile_qr_scan", "android": "https://dc.lft.to/lastmile_qr_scan"}}, {"name": "f5dd7d898257112093da23ff56ad86e5", "type": "electric_scooter", "lat": 38.883475, "is_reserved": 0, "lon": -77.017678, "fusion_lon": 0.0, "is_disabled": 0, "fusion_lat": 0.0, "bike_id": "f5dd7d898257112093da23ff56ad86e5", "rental_uris": {"ios": "https://dc.lft.to/lastmile_qr_scan", "android": "https://dc.lft.to/lastmile_qr_scan"}}, {"name": "05e16fc5142798d91291de60190fe682", "type": "electric_scooter", "lat": 38.932420666666665, "is_reserved": 0, "lon": -77.02948933333333, "fusion_lon": 0.0, "is_disabled": 0, "fusion_lat": 0.0, "bike_id": "05e16fc5142798d91291de60190fe682", "rental_uris": {"ios": "https://dc.lft.to/lastmile_qr_scan", "android": "https://dc.lft.to/lastmile_qr_scan"}}, {"name": "37d8414c7afb61081c76e55b25e646bb", "type": "electric_scooter", "lat": 38.91844, "is_reserved": 0, "lon": -77.03907416666667, "fusion_lon": 0.0, "is_disabled": 0, "fusion_lat": 0.0, "bike_id": "37d8414c7afb61081c76e55b25e646bb", "rental_uris": {"ios": "https://dc.lft.to/lastmile_qr_scan", "android": "https://dc.lft.to/lastmile_qr_scan"}}, {"name": "09f98303a6a5ba36fabe85ce3fe24476", "type": "electric_scooter", "lat": 38.9156925, "is_reserved": 0, "lon": -77.03186083333334, "fusion_lon": 0.0, "is_disabled": 0, "fusion_lat": 0.0, "bike_id": "09f98303a6a5ba36fabe85ce3fe24476", "rental_uris": {"ios": "https://dc.lft.to/lastmile_qr_scan", "android": "https://dc.lft.to/lastmile_qr_scan"}}, {"name": "9cbc22cc75bb609c29ea3168c904ea21", "type": "electric_scooter", "lat": 38.899479166666666, "is_reserved": 0, "lon": -77.03185583333334, "fusion_lon": 0.0, "is_disabled": 0, "fusion_lat": 0.0, "bike_id": "9cbc22cc75bb609c29ea3168c904ea21", "rental_uris": {"ios": "https://dc.lft.to/lastmile_qr_scan", "android": "https://dc.lft.to/lastmile_qr_scan"}}, {"name": "9cf0655ed1479e6c1705fcf402e62ed7", "type": "electric_bike", "lat": 38.956286, "is_reserved": 0, "lon": -76.93883466666666, "fusion_lon": 0.0, "is_disabled": 0, "fusion_lat": 0.0, "bike_id": "9cf0655ed1479e6c1705fcf402e62ed7", "rental_uris": {"ios": "https://dc.lft.to/lastmile_qr_scan", "android": "https://dc.lft.to/lastmile_qr_scan"}}, {"name": "f9714e491f82dadadce18bfbbd230344", "type": "electric_scooter", "lat": 38.9312925, "is_reserved": 0, "lon": -77.03607416666667, "fusion_lon": 0.0, "is_disabled": 0, "fusion_lat": 0.0, "bike_id": "f9714e491f82dadadce18bfbbd230344", "rental_uris": {"ios": "https://dc.lft.to/lastmile_qr_scan", "android": "https://dc.lft.to/lastmile_qr_scan"}}, {"name": "422be8174a87ed3e903087ce8e05aa5b", "type": "electric_scooter", "lat": 38.926298333333335, "is_reserved": 0, "lon": -77.0379535, "fusion_lon": 0.0, "is_disabled": 0, "fusion_lat": 0.0, "bike_id": "422be8174a87ed3e903087ce8e05aa5b", "rental_uris": {"ios": "https://dc.lft.to/lastmile_qr_scan", "android": "https://dc.lft.to/lastmile_qr_scan"}}, {"name": "b331fe3d4e126aacc14c11dda5d70aba", "type": "electric_scooter", "lat": 38.89344533333333, "is_reserved": 0, "lon": -76.98457183333333, "fusion_lon": 0.0, "is_disabled": 0, "fusion_lat": 0.0, "bike_id": "b331fe3d4e126aacc14c11dda5d70aba", "rental_uris": {"ios": "https://dc.lft.to/lastmile_qr_scan", "android": "https://dc.lft.to/lastmile_qr_scan"}}, {"name": "95e1a2995d86f670cd8579a39c53785d", "type": "electric_scooter", "lat": 38.900136833333335, "is_reserved": 0, "lon": -76.99121533333333, "fusion_lon": 0.0, "is_disabled": 0, "fusion_lat": 0.0, "bike_id": "95e1a2995d86f670cd8579a39c53785d", "rental_uris": {"ios": "https://dc.lft.to/lastmile_qr_scan", "android": "https://dc.lft.to/lastmile_qr_scan"}}, {"name": "7a512e6aeb9f7bbac904f980216249e0", "type": "electric_scooter", "lat": 38.913319, "is_reserved": 0, "lon": -77.0486695, "fusion_lon": 0.0, "is_disabled": 0, "fusion_lat": 0.0, "bike_id": "7a512e6aeb9f7bbac904f980216249e0", "rental_uris": {"ios": "https://dc.lft.to/lastmile_qr_scan", "android": "https://dc.lft.to/lastmile_qr_scan"}}, {"name": "241366623fa537e9f69abfc196a83e5a", "type": "electric_scooter", "lat": 38.925823666666666, "is_reserved": 0, "lon": -77.00473366666667, "fusion_lon": 0.0, "is_disabled": 0, "fusion_lat": 0.0, "bike_id": "241366623fa537e9f69abfc196a83e5a", "rental_uris": {"ios": "https://dc.lft.to/lastmile_qr_scan", "android": "https://dc.lft.to/lastmile_qr_scan"}}, {"name": "04ae385cbd41472e1566b1302d4d20a4", "type": "electric_scooter", "lat": 38.902514833333335, "is_reserved": 0, "lon": -77.04611516666667, "fusion_lon": 0.0, "is_disabled": 0, "fusion_lat": 0.0, "bike_id": "04ae385cbd41472e1566b1302d4d20a4", "rental_uris": {"ios": "https://dc.lft.to/lastmile_qr_scan", "android": "https://dc.lft.to/lastmile_qr_scan"}}, {"name": "166de081ea2496702631f8ea64e4203b", "type": "electric_scooter", "lat": 38.918894333333334, "is_reserved": 0, "lon": -77.0162825, "fusion_lon": 0.0, "is_disabled": 0, "fusion_lat": 0.0, "bike_id": "166de081ea2496702631f8ea64e4203b", "rental_uris": {"ios": "https://dc.lft.to/lastmile_qr_scan", "android": "https://dc.lft.to/lastmile_qr_scan"}}, {"name": "2cf70e2038686b9d00bee2049c0612bc", "type": "electric_scooter", "lat": 38.89917066666667, "is_reserved": 0, "lon": -77.03283, "fusion_lon": 0.0, "is_disabled": 0, "fusion_lat": 0.0, "bike_id": "2cf70e2038686b9d00bee2049c0612bc", "rental_uris": {"ios": "https://dc.lft.to/lastmile_qr_scan", "android": "https://dc.lft.to/lastmile_qr_scan"}}, {"name": "1ca6c882ac539a0e674876ae45799d54", "type": "electric_scooter", "lat": 38.93584966666667, "is_reserved": 0, "lon": -77.02765233333334, "fusion_lon": 0.0, "is_disabled": 0, "fusion_lat": 0.0, "bike_id": "1ca6c882ac539a0e674876ae45799d54", "rental_uris": {"ios": "https://dc.lft.to/lastmile_qr_scan", "android": "https://dc.lft.to/lastmile_qr_scan"}}, {"name": "61022a6b3e750aac273a4006c828e48e", "type": "electric_scooter", "lat": 38.876661, "is_reserved": 0, "lon": -77.004423, "fusion_lon": 0.0, "is_disabled": 0, "fusion_lat": 0.0, "bike_id": "61022a6b3e750aac273a4006c828e48e", "rental_uris": {"ios": "https://dc.lft.to/lastmile_qr_scan", "android": "https://dc.lft.to/lastmile_qr_scan"}}, {"name": "c57ca7687716cfda56edf5782bcbd184", "type": "electric_bike", "lat": 38.85318016666667, "is_reserved": 0, "lon": -76.98026133333333, "fusion_lon": 0.0, "is_disabled": 0, "fusion_lat": 0.0, "bike_id": "c57ca7687716cfda56edf5782bcbd184", "rental_uris": {"ios": "https://dc.lft.to/lastmile_qr_scan", "android": "https://dc.lft.to/lastmile_qr_scan"}}, {"name": "ff209438ae4770ae26b2283354283dc9", "type": "electric_scooter", "lat": 38.9043425, "is_reserved": 0, "lon": -77.048664, "fusion_lon": 0.0, "is_disabled": 0, "fusion_lat": 0.0, "bike_id": "ff209438ae4770ae26b2283354283dc9", "rental_uris": {"ios": "https://dc.lft.to/lastmile_qr_scan", "android": "https://dc.lft.to/lastmile_qr_scan"}}, {"name": "ea4825d6d888f4809a8dbaf6972ffe83", "type": "electric_scooter", "lat": 38.89031816666667, "is_reserved": 0, "lon": -76.936274, "fusion_lon": 0.0, "is_disabled": 0, "fusion_lat": 0.0, "bike_id": "ea4825d6d888f4809a8dbaf6972ffe83", "rental_uris": {"ios": "https://dc.lft.to/lastmile_qr_scan", "android": "https://dc.lft.to/lastmile_qr_scan"}}, {"name": "690de43ce3dee83a92d991efdb70a3ed", "type": "electric_scooter", "lat": 38.88500633333334, "is_reserved": 0, "lon": -77.01538766666667, "fusion_lon": 0.0, "is_disabled": 0, "fusion_lat": 0.0, "bike_id": "690de43ce3dee83a92d991efdb70a3ed", "rental_uris": {"ios": "https://dc.lft.to/lastmile_qr_scan", "android": "https://dc.lft.to/lastmile_qr_scan"}}, {"name": "f0995c1376c869268d73b2ea0f8107a8", "type": "electric_scooter", "lat": 38.932935666666665, "is_reserved": 0, "lon": -77.0363585, "fusion_lon": 0.0, "is_disabled": 0, "fusion_lat": 0.0, "bike_id": "f0995c1376c869268d73b2ea0f8107a8", "rental_uris": {"ios": "https://dc.lft.to/lastmile_qr_scan", "android": "https://dc.lft.to/lastmile_qr_scan"}}, {"name": "67d7ff224d82b8844bf3cb7e54111a3c", "type": "electric_bike", "lat": 39.05632266666667, "is_reserved": 0, "lon": -77.1252735, "fusion_lon": 0.0, "is_disabled": 0, "fusion_lat": 0.0, "bike_id": "67d7ff224d82b8844bf3cb7e54111a3c", "rental_uris": {"ios": "https://dc.lft.to/lastmile_qr_scan", "android": "https://dc.lft.to/lastmile_qr_scan"}}, {"name": "9c388f4b48a908e7ba68b233dfaab24c", "type": "electric_scooter", "lat": 38.905683833333335, "is_reserved": 0, "lon": -77.025205, "fusion_lon": 0.0, "is_disabled": 0, "fusion_lat": 0.0, "bike_id": "9c388f4b48a908e7ba68b233dfaab24c", "rental_uris": {"ios": "https://dc.lft.to/lastmile_qr_scan", "android": "https://dc.lft.to/lastmile_qr_scan"}}, {"name": "04e1cb757fa43a92e9722465cfe64da8", "type": "electric_scooter", "lat": 38.90010616666667, "is_reserved": 0, "lon": -76.98903766666666, "fusion_lon": 0.0, "is_disabled": 0, "fusion_lat": 0.0, "bike_id": "04e1cb757fa43a92e9722465cfe64da8", "rental_uris": {"ios": "https://dc.lft.to/lastmile_qr_scan", "android": "https://dc.lft.to/lastmile_qr_scan"}},