{"data": {"bikes": [{"lat": 38.922325, "lon": -77.0211315, "is_disabled": 0, "fusion_lon": 0.0, "is_reserved": 0, "name": "25741696979ab0690053c2078eb2726b", "type": "electric_scooter", "bike_id": "25741696979ab0690053c2078eb2726b", "rental_uris": {"ios": "https://dc.lft.to/lastmile_qr_scan", "android": "https://dc.lft.to/lastmile_qr_scan"}, "fusion_lat": 0.0}, {"lat": 38.90366016666667, "lon": -77.01607233333333, "is_disabled": 0, "fusion_lon": 0.0, "is_reserved": 0, "name": "f8006d87f26964b92b05b2bf6dae2a69", "type": "electric_scooter", "bike_id": "f8006d87f26964b92b05b2bf6dae2a69", "rental_uris": {"ios": "https://dc.lft.to/lastmile_qr_scan", "android": "https://dc.lft.to/lastmile_qr_scan"}, "fusion_lat": 0.0}, {"lat": 38.9140915, "lon": -77.018799, "is_disabled": 0, "fusion_lon": 0.0, "is_reserved": 0, "name": "8bd2ffbcdaab39ba5e866cf711635720", "type": "electric_scooter", "bike_id": "8bd2ffbcdaab39ba5e866cf711635720", "rental_uris": {"ios": "https://dc.lft.to/lastmile_qr_scan", "android": "https://dc.lft.to/lastmile_qr_scan"}, "fusion_lat": 0.0}, {"lat": 38.9072935, "lon": -77.03476783333333, "is_disabled": 0, "fusion_lon": 0.0, "is_reserved": 0, "name": "4077e89e5245829ce87a065bde8a4bd5", "type": "electric_scooter", "bike_id": "4077e89e5245829ce87a065bde8a4bd5", "rental_uris": {"ios": "https://dc.lft.to/lastmile_qr_scan", "android": "https://dc.lft.to/lastmile_qr_scan"}, "fusion_lat": 0.0}, {"lat": 38.92418583333333, "lon": -77.0652375, "is_disabled": 0, "fusion_lon": 0.0, "is_reserved": 0, "name": "3c3ef8a69fd8c47cc148514daad13e40", "type": "electric_scooter", "bike_id": "3c3ef8a69fd8c47cc148514daad13e40", "rental_uris": {"ios": "https://dc.lft.to/lastmile_qr_scan", "android": "https://dc.lft.to/lastmile_qr_scan"}, "fusion_lat": 0.0}, {"lat": 38.88462583333333, "lon": -77.0259785, "is_disabled": 0, "fusion_lon": 0.0, "is_reserved": 0, "name": "3580fb11211b5022fdd66cdc1a73cefb", "type": "electric_scooter", "bike_id": "3580fb11211b5022fdd66cdc1a73cefb", "rental_uris": {"ios": "https://dc.lft.to/lastmile_qr_scan", "android": "https://dc.lft.to/lastmile_qr_scan"}, "fusion_lat": 0.0}, {"lat": 38.90019366666667, "lon": -76.99864716666667, "is_disabled": 0, "fusion_lon": 0.0, "is_reserved": 0, "name": "ecbe6f20fe19b333d060e5f2a6fc3e09", "type": "electric_scooter", "bike_id": "ecbe6f20fe19b333d060e5f2a6fc3e09", "rental_uris": {"ios": "https://dc.lft.to/lastmile_qr_scan", "android": "https://dc.lft.to/lastmile_qr_scan"}, "fusion_lat": 0.0}, {"lat": 38.92534533333333, "lon": -77.033821, "is_disabled": 0, "fusion_lon": 0.0, "is_reserved": 0, "name": "6dc1801c0c7bb448dd479b29a9b685bb", "type": "electric_scooter", "bike_id": "6dc1801c0c7bb448dd479b29a9b685bb", "rental_uris": {"ios": "https://dc.lft.to/lastmile_qr_scan", "android": "https://dc.lft.to/lastmile_qr_scan"}, "fusion_lat": 0.0}, {"lat": 38.868247333333336, "lon": -77.0098565, "is_disabled": 0, "fusion_lon": 0.0, "is_reserved": 0, "name": "c214092b41f86bfc5a55f700523514de", "type": "electric_scooter", "bike_id": "c214092b41f86bfc5a55f700523514de", "rental_uris": {"ios": "https://dc.lft.to/lastmile_qr_scan", "android": "https://dc.lft.to/lastmile_qr_scan"}, "fusion_lat": 0.0}, {"lat": 38.923239, "lon": -77.04616033333333, "is_disabled": 0, "fusion_lon": 0.0, "is_reserved": 0, "name": "b38e03522d2f5e23339019d4e439f5c1", "type": "electric_scooter", "bike_id": "b38e03522d2f5e23339019d4e439f5c1", "rental_uris": {"ios": "https://dc.lft.to/lastmile_qr_scan", "android": "https://dc.lft.to/lastmile_qr_scan"}, "fusion_lat": 0.0}, {"lat": 38.873947333333334, "lon": -77.0145075, "is_disabled": 0, "fusion_lon": 0.0, "is_reserved": 0, "name": "1d26110722b0e316a6b00284e25f2a11", "type": "electric_scooter", "bike_id": "1d26110722b0e316a6b00284e25f2a11", "rental_uris": {"ios": "https://dc.lft.to/lastmile_qr_scan", "android": "https://dc.lft.to/lastmile_qr_scan"}, "fusion_lat": 0.0}, {"lat": 38.964447666666665, "lon": -77.022364, "is_disabled": 0, "fusion_lon": 0.0, "is_reserved": 0, "name": "71dd559f3bf3cf4adb79190ec9501875", "type": "electric_bike", "bike_id": "71dd559f3bf3cf4adb79190ec9501875", "rental_uris": {"ios": "https://dc.lft.to/lastmile_qr_scan", "android": "https://dc.lft.to/lastmile_qr_scan"}, "fusion_lat": 0.0}, {"lat": 38.902331, "lon": -77.04859466666667, "is_disabled": 0, "fusion_lon": 0.0, "is_reserved": 0, "name": "e20cce4614cbc3f4d5e2a3a7ddb34fba", "type": "electric_scooter", "bike_id": "e20cce4614cbc3f4d5e2a3a7ddb34fba", "rental_uris": {"ios": "https://dc.lft.to/lastmile_qr_scan", "android": "https://dc.lft.to/lastmile_qr_scan"}, "fusion_lat": 0.0}, {"lat": 38.910258, "lon": -77.03839583333334, "is_disabled": 0, "fusion_lon": 0.0, "is_reserved": 0, "name": "220c32242fa63e452c9408a90eab71ff", "type": "electric_scooter", "bike_id": "220c32242fa63e452c9408a90eab71ff", "rental_uris": {"ios": "https://dc.lft.to/lastmile_qr_scan", "android": "https://dc.lft.to/lastmile_qr_scan"}, "fusion_lat": 0.0}, {"lat": 38.90104066666667, "lon": -76.93046666666666, "is_disabled": 0, "fusion_lon": 0.0, "is_reserved": 0, "name": "82663f185f56e772464361b94bd051bc", "type": "electric_scooter", "bike_id": "82663f185f56e772464361b94bd051bc", "rental_uris": {"ios": "https://dc.lft.to/lastmile_qr_scan", "android": "https://dc.lft.to/lastmile_qr_scan"}, "fusion_lat": 0.0}, {"lat": 38.92603716666667, "lon": -77.03248116666667, "is_disabled": 0, "fusion_lon": 0.0, "is_reserved": 0, "name": "ab9d4230a901475460487d4286cf4419", "type": "electric_scooter", "bike_id": "ab9d4230a901475460487d4286cf4419", "rental_uris": {"ios": "https://dc.lft.to/lastmile_qr_scan", "android": "https://dc.lft.to/lastmile_qr_scan"}, "fusion_lat": 0.0}, {"lat": 38.8601235, "lon": -76.967042, "is_disabled": 0, "fusion_lon": 0.0, "is_reserved": 0, "name": "06c88545687d8d9c72b5c39113bb6c27", "type": "electric_scooter", "bike_id": "06c88545687d8d9c72b5c39113bb6c27", "rental_uris": {"ios": "https://dc.lft.to/lastmile_qr_scan", "android": "https://dc.lft.to/lastmile_qr_scan"}, "fusion_lat": 0.0}, {"lat": 38.9082945, "lon": -77.0339475, "is_disabled": 0, "fusion_lon": 0.0, "is_reserved": 0, "name": "d18c4b7371cc077026c3056bab6bfb99", "type": "electric_scooter", "bike_id": "d18c4b7371cc077026c3056bab6bfb99", "rental_uris": {"ios": "https://dc.lft.to/lastmile_qr_scan", "android": "https://dc.lft.to/lastmile_qr_scan"}, "fusion_lat": 0.0}, {"lat": 38.918233, "lon": -77.02419833333333, "is_disabled": 0, "fusion_lon": 0.0, "is_reserved": 0, "name": "f8bd1a62c3a7f5ad9cc383c86217fb4c", "type": "electric_scooter", "bike_id": "f8bd1a62c3a7f5ad9cc383c86217fb4c", "rental_uris": {"ios": "https://dc.lft.to/lastmile_qr_scan", "android": "https://dc.lft.to/lastmile_qr_scan"}, "fusion_lat": 0.0}, {"lat": 38.912140666666666, "lon": -77.03847383333333, "is_disabled": 0, "fusion_lon": 0.0, "is_reserved": 0, "name": "0746a796c8250d34ffdf340d8e4c7b89", "type": "electric_scooter", "bike_id": "0746a796c8250d34ffdf340d8e4c7b89", "rental_uris": {"ios": "https://dc.lft.to/lastmile_qr_scan", "android": "https://dc.lft.to/lastmile_qr_scan"}, "fusion_lat": 0.0}, {"lat": 38.916819333333336, "lon": -77.0318615, "is_disabled": 0, "fusion_lon": 0.0, "is_reserved": 0, "name": "e1eae65ea89e7e58837b8c2e15b66b19", "type": "electric_scooter", "bike_id": "e1eae65ea89e7e58837b8c2e15b66b19", "rental_uris": {"ios": "https://dc.lft.to/lastmile_qr_scan", "android": "https://dc.lft.to/lastmile_qr_scan"}, "fusion_lat": 0.0}, {"lat": 38.91050966666667, "lon": -77.0220235, "is_disabled": 0, "fusion_lon": 0.0, "is_reserved": 0, "name": "ae77fc688665121631fd134cf7c8441a", "type": "electric_scooter", "bike_id": "ae77fc688665121631fd134cf7c8441a", "rental_uris": {"ios": "https://dc.lft.to/lastmile_qr_scan", "android": "https://dc.lft.to/lastmile_qr_scan"}, "fusion_lat": 0.0}, {"lat": 38.91205166666667, "lon": -77.01180183333334, "is_disabled": 0, "fusion_lon": 0.0, "is_reserved": 0, "name": "7065c3ed577ae116c98009959419ff23", "type": "electric_scooter", "bike_id": "7065c3ed577ae116c98009959419ff23", "rental_uris": {"ios": "https://dc.lft.to/lastmile_qr_scan", "android": "https://dc.lft.to/lastmile_qr_scan"}, "fusion_lat": 0.0}, {"lat": 38.92731116666667, "lon": -77.02273916666667, "is_disabled": 0, "fusion_lon": 0.0, "is_reserved": 0, "name": "acfe656544fd1b1a2bef5031c2e02312", "type": "electric_scooter", "bike_id": "acfe656544fd1b1a2bef5031c2e02312", "rental_uris": {"ios": "https://dc.lft.to/lastmile_qr_scan", "android": "https://dc.lft.to/lastmile_qr_scan"}, "fusion_lat": 0.0}, {"lat": 38.90861483333333, "lon": -77.02236966666666, "is_disabled": 0, "fusion_lon": 0.0, "is_reserved": 0, "name": "c8677b5086c9bb059fcd5a4ebd4f7fd4", "type": "electric_scooter", "bike_id": "c8677b5086c9bb059fcd5a4ebd4f7fd4", "rental_uris": {"ios": "https://dc.lft.to/lastmile_qr_scan", "android": "https://dc.lft.to/lastmile_qr_scan"}, "fusion_lat": 0.0}, {"lat": 38.90155883333333, "lon": -76.9807955, "is_disabled": 0, "fusion_lon": 0.0, "is_reserved": 0, "name": "dbf8008c3e53787c6103c7292e4b810a", "type": "electric_scooter", "bike_id": "dbf8008c3e53787c6103c7292e4b810a", "rental_uris": {"ios": "https://dc.lft.to/lastmile_qr_scan", "android": "https://dc.lft.to/lastmile_qr_scan"}, "fusion_lat": 0.0}, {"lat": 38.9100745, "lon": -77.02096683333333, "is_disabled": 0, "fusion_lon": 0.0, "is_reserved": 0, "name": "2f1af0e423fe250ed06f8d55345b98bd", "type": "electric_scooter", "bike_id": "2f1af0e423fe250ed06f8d55345b98bd", "rental_uris": {"ios": "https://dc.lft.to/lastmile_qr_scan", "android": "https://dc.lft.to/lastmile_qr_scan"}, "fusion_lat": 0.0}, {"lat": 38.908499666666664, "lon": -77.01968883333333, "is_disabled": 0, "fusion_lon": 0.0, "is_reserved": 0, "name": "8e244bbad12204758eda5b0e703df640", "type": "electric_scooter", "bike_id": "8e244bbad12204758eda5b0e703df640", "rental_uris": {"ios": "https://dc.lft.to/lastmile_qr_scan", "android": "https://dc.lft.to/lastmile_qr_scan"}, "fusion_lat": 0.0}, {"lat": 38.91843883333333, "lon": -77.04833483333333, "is_disabled": 0, "fusion_lon": 0.0, "is_reserved": 0, "name": "462fb290870d96596e503c1fc36bdfb6", "type": "electric_scooter", "bike_id": "462fb290870d96596e503c1fc36bdfb6", "rental_uris": {"ios": "https://dc.lft.to/lastmile_qr_scan", "android": "https://dc.lft.to/lastmile_qr_scan"}, "fusion_lat": 0.0}, {"lat": 38.896573333333336, "lon": -77.05056183333333, "is_disabled": 0, "fusion_lon": 0.0, "is_reserved": 0, "name": "18622470017aabdf6cec336aa625829e", "type": "electric_scooter", "bike_id": "18622470017aabdf6cec336aa625829e", "rental_uris": {"ios": "https://dc.lft.to/lastmile_qr_scan", "android": "https://dc.lft.to/lastmile_qr_scan"}, "fusion_lat": 0.0}, {"lat": 38.91529583333333, "lon": -77.02189916666667, "is_disabled": 0, "fusion_lon": 0.0, "is_reserved": 0, "name": "2bd66524e0749be2a12d42d1918b041f", "type": "electric_scooter", "bike_id": "2bd66524e0749be2a12d42d1918b041f", "rental_uris": {"ios": "https://dc.lft.to/lastmile_qr_scan", "android": "https://dc.lft.to/lastmile_qr_scan"}, "fusion_lat": 0.0}, {"lat": 38.923360333333335, "lon": -77.036122, "is_disabled": 0, "fusion_lon": 0.0, "is_reserved": 0, "name": "2c354af9cb6100b376780d17e6ee6a2f", "type": "electric_scooter", "bike_id": "2c354af9cb6100b376780d17e6ee6a2f", "rental_uris": {"ios": "https://dc.lft.to/lastmile_qr_scan", "android": "https://dc.lft.to/lastmile_qr_scan"}, "fusion_lat": 0.0}, {"lat": 38.90697333333333, "lon": -77.03209533333333, "is_disabled": 0, "fusion_lon": 0.0, "is_reserved": 0, "name": "af4487f8becabe97e21860fc08dd9490", "type": "electric_scooter", "bike_id": "af4487f8becabe97e21860fc08dd9490", "rental_uris": {"ios": "https://dc.lft.to/lastmile_qr_scan", "android": "https://dc.lft.to/lastmile_qr_scan"}, "fusion_lat": 0.0}, {"lat": 38.832231, "lon": -76.9461825, "is_disabled": 0, "fusion_lon": 0.0, "is_reserved": 0, "name": "f8fe288c6f6f3d57ece836f57ecdea71", "type": "electric_bike", "bike_id": "f8fe288c6f6f3d57ece836f57ecdea71", "rental_uris": {"ios": "https://dc.lft.to/lastmile_qr_scan", "android": "https://dc.lft.to/lastmile_qr_scan"}, "fusion_lat": 0.0}, {"lat": 38.918108833333335, "lon": -77.0267875, "is_disabled": 0, "fusion_lon": 0.0, "is_reserved": 0, "name": "f3874152147b9e4dd255fbfbc7c6def1", "type": "electric_scooter", "bike_id": "f3874152147b9e4dd255fbfbc7c6def1", "rental_uris": {"ios": "https://dc.lft.to/lastmile_qr_scan", "android": "https://dc.lft.to/lastmile_qr_scan"}, "fusion_lat": 0.0}, {"lat": 38.876486, "lon": -77.00113733333333, "is_disabled": 0, "fusion_lon": 0.0, "is_reserved": 0, "name": "83b6ee6142e807e11fdb38d2cfddde79", "type": "electric_scooter", "bike_id": "83b6ee6142e807e11fdb38d2cfddde79", "rental_uris": {"ios": "https://dc.lft.to/lastmile_qr_scan", "android": "https://dc.lft.to/lastmile_qr_scan"}, "fusion_lat": 0.0}, {"lat": 38.9068575, "lon": -76.98506433333333, "is_disabled": 0, "fusion_lon": 0.0, "is_reserved": 0, "name": "b686061f39b86708ecb9b352f3d3dc85", "type": "electric_scooter", "bike_id": "b686061f39b86708ecb9b352f3d3dc85", "rental_uris": {"ios": "https://dc.lft.to/lastmile_qr_scan", "android": "https://dc.lft.to/lastmile_qr_scan"}, "fusion_lat": 0.0}, {"lat": 38.9027155, "lon": -77.01521833333334, "is_disabled": 0, "fusion_lon": 0.0, "is_reserved": 0, "name": "5cb0d073ce9940dcf228c93589a464d4", "type": "electric_scooter", "bike_id": "5cb0d073ce9940dcf228c93589a464d4", "rental_uris": {"ios": "https://dc.lft.to/lastmile_qr_scan", "android": "https://dc.lft.to/lastmile_qr_scan"}, "fusion_lat": 0.0}, {"lat": 38.9296805, "lon": -77.02794466666667, "is_disabled": 0, "fusion_lon": 0.0, "is_reserved": 0, "name": "11d8dbf9604bc246e1e98f7d25c87c0a", "type": "electric_scooter", "bike_id": "11d8dbf9604bc246e1e98f7d25c87c0a", "rental_uris": {"ios": "https://dc.lft.to/lastmile_qr_scan", "android": "https://dc.lft.to/lastmile_qr_scan"}, "fusion_lat": 0.0}, {"lat": 38.91967316666667, "lon": -77.0121535, "is_disabled": 0, "fusion_lon": 0.0, "is_reserved": 0, "name": "394b5d986fcff9fe461394f6c244a79a", "type": "electric_scooter", "bike_id": "394b5d986fcff9fe461394f6c244a79a", "rental_uris": {"ios": "https://dc.lft.to/lastmile_qr_scan", "android": "https://dc.lft.to/lastmile_qr_scan"}, "fusion_lat": 0.0}, {"lat": 38.9119085, "lon": -77.03214833333334, "is_disabled": 0, "fusion_lon": 0.0, "is_reserved": 0, "name": "18e201b698bde3ad222019d6af5ba86a", "type": "electric_scooter", "bike_id": "18e201b698bde3ad222019d6af5ba86a", "rental_uris": {"ios": "https://dc.lft.to/lastmile_qr_scan", "android": "https://dc.lft.to/lastmile_qr_scan"}, "fusion_lat": 0.0}, {"lat": 38.911873666666665, "lon": -77.04826116666666, "is_disabled": 0, "fusion_lon": 0.0, "is_reserved": 0, "name": "95731e71408f53efc9df536313d6dd09", "type": "electric_scooter", "bike_id": "95731e71408f53efc9df536313d6dd09", "rental_uris": {"ios": "https://dc.lft.to/lastmile_qr_scan", "android": "https://dc.lft.to/lastmile_qr_scan"}, "fusion_lat": 0.0}, {"lat": 38.909653166666665, "lon": -77.0337515, "is_disabled": 0, "fusion_lon": 0.0, "is_reserved": 0, "name": "f5ba1363af11069a3787dad95d0fb7a1", "type": "electric_scooter", "bike_id": "f5ba1363af11069a3787dad95d0fb7a1", "rental_uris": {"ios": "https://dc.lft.to/lastmile_qr_scan", "android": "https://dc.lft.to/lastmile_qr_scan"}, "fusion_lat": 0.0}, {"lat": 38.908378, "lon": -77.03946066666667, "is_disabled": 0, "fusion_lon": 0.0, "is_reserved": 0, "name": "5368a36eaa784d530866d4f4e774d3ad", "type": "electric_scooter", "bike_id": "5368a36eaa784d530866d4f4e774d3ad", "rental_uris": {"ios": "https://dc.lft.to/lastmile_qr_scan", "android": "https://dc.lft.to/lastmile_qr_scan"}, "fusion_lat": 0.0}, {"lat": 38.916622833333335, "lon": -77.03856933333333, "is_disabled": 0, "fusion_lon": 0.0, "is_reserved": 0, "name": "7bf3028bd8d33c59f4694181410ff2b9", "type": "electric_scooter", "bike_id": "7bf3028bd8d33c59f4694181410ff2b9", "rental_uris": {"ios": "https://dc.lft.to/lastmile_qr_scan", "android": "https://dc.lft.to/lastmile_qr_scan"}, "fusion_lat": 0.0}, {"lat": 38.929916666666664, "lon": -77.03799266666667, "is_disabled": 0, "fusion_lon": 0.0, "is_reserved": 0, "name": "4f56e86ff4548975d6646a13a4f96e84", "type": "electric_scooter", "bike_id": "4f56e86ff4548975d6646a13a4f96e84", "rental_uris": {"ios": "https://dc.lft.to/lastmile_qr_scan", "android": "https://dc.lft.to/lastmile_qr_scan"}, "fusion_lat": 0.0}, {"lat": 38.898294666666665, "lon": -77.03352266666667, "is_disabled": 0, "fusion_lon": 0.0, "is_reserved": 0, "name": "60c4c143a6c0106da5b8417612586ef2", "type": "electric_scooter", "bike_id": "60c4c143a6c0106da5b8417612586ef2", "rental_uris": {"ios": "https://dc.lft.to/lastmile_qr_scan", "android": "https://dc.lft.to/lastmile_qr_scan"}, "fusion_lat": 0.0}, {"lat": 38.879631333333336, "lon": -77.0059535, "is_disabled": 0, "fusion_lon": 0.0, "is_reserved": 0, "name": "1beff0f694a782fcd85d2ed41016ef4a", "type": "electric_scooter", "bike_id": "1beff0f694a782fcd85d2ed41016ef4a", "rental_uris": {"ios": "https://dc.lft.to/lastmile_qr_scan", "android": "https://dc.lft.to/lastmile_qr_scan"}, "fusion_lat": 0.0}, {"lat": 38.91681916666667, "lon": -77.02947333333333, "is_disabled": 0, "fusion_lon": 0.0, "is_reserved": 0, "name": "02e939f9dce8c60ed7e589c58f78ff09", "type": "electric_scooter", "bike_id": "02e939f9dce8c60ed7e589c58f78ff09", "rental_uris": {"ios": "https://dc.lft.to/lastmile_qr_scan", "android": "https://dc.lft.to/lastmile_qr_scan"}, "fusion_lat": 0.0}, {"lat": 38.86476116666667, "lon": -77.07658333333333, "is_disabled": 0, "fusion_lon": 0.0, "is_reserved": 0, "name": "aa6f7e293fd79c56f51990acb96eaa75", "type": "electric_bike", "bike_id": "aa6f7e293fd79c56f51990acb96eaa75", "rental_uris": {"ios": "https://dc.lft.to/lastmile_qr_scan", "android": "https://dc.lft.to/lastmile_qr_scan"}, "fusion_lat": 0.0}, {"lat": 38.9233945, "lon": -77.05226816666666, "is_disabled": 0, "fusion_lon": 0.0, "is_reserved": 0, "name": "735dba4ef736603d7e40fe99cb07a569", "type": "electric_scooter", "bike_id": "735dba4ef736603d7e40fe99cb07a569", "rental_uris": {"ios": "https://dc.lft.to/lastmile_qr_scan", "android": "https://dc.lft.to/lastmile_qr_scan"}, "fusion_lat": 0.0}, {"lat": 38.95631016666667, "lon": -77.02836433333333, "is_disabled": 0, "fusion_lon": 0.0, "is_reserved": 0, "name": "0363523eb242167db8fe9f5ea6ac32fb", "type": "electric_scooter", "bike_id": "0363523eb242167db8fe9f5ea6ac32fb", "rental_uris": {"ios": "https://dc.lft.to/lastmile_qr_scan", "android": "https://dc.lft.to/lastmile_qr_scan"}, "fusion_lat": 0.0}, {"lat": 38.90498816666667, "lon": -76.97446366666667, "is_disabled": 0, "fusion_lon": 0.0, "is_reserved": 0, "name": "3c52939f6a8f28e93f9695cf056ba4c5", "type": "electric_bike", "bike_id": "3c52939f6a8f28e93f9695cf056ba4c5", "rental_uris": {"ios": "https://dc.lft.to/lastmile_qr_scan", "android": "https://dc.lft.to/lastmile_qr_scan"}, "fusion_lat": 0.0}, {"lat": 38.924799, "lon": -77.02658933333333, "is_disabled": 0, "fusion_lon": 0.0, "is_reserved": 0, "name": "16ead69d3c49265199c153f5555159f8", "type": "electric_scooter", "bike_id": "16ead69d3c49265199c153f5555159f8", "rental_uris": {"ios": "https://dc.lft.to/lastmile_qr_scan", "android": "https://dc.lft.to/lastmile_qr_scan"}, "fusion_lat": 0.0}, {"lat": 38.91483383333333, "lon": -77.04261533333333, "is_disabled": 0, "fusion_lon": 0.0, "is_reserved": 0, "name": "4c863f3f401f31d20d9a5aa7e07ba7e4", "type": "electric_scooter", "bike_id": "4c863f3f401f31d20d9a5aa7e07ba7e4", "rental_uris": {"ios": "https://dc.lft.to/lastmile_qr_scan", "android": "https://dc.lft.to/lastmile_qr_scan"}, "fusion_lat": 0.0}, {"lat": 38.94019133333333, "lon": -76.9760995, "is_disabled": 0, "fusion_lon": 0.0, "is_reserved": 0, "name": "738e8bccfe5efbf7f646b81b1951317a", "type": "electric_bike", "bike_id": "738e8bccfe5efbf7f646b81b1951317a", "rental_uris": {"ios": "https://dc.lft.to/lastmile_qr_scan", "android": "https://dc.lft.to/lastmile_qr_scan"}, "fusion_lat": 0.0}, {"lat": 38.8749775, "lon": -76.99974183333333, "is_disabled": 0, "fusion_lon": 0.0, "is_reserved": 0, "name": "ed2b3082cbf8cd5efd4af4cc0b62fdfb", "type": "electric_scooter", "bike_id": "ed2b3082cbf8cd5efd4af4cc0b62fdfb", "rental_uris": {"ios": "https://dc.lft.to/lastmile_qr_scan", "android": "https://dc.lft.to/lastmile_qr_scan"}, "fusion_lat": 0.0}, {"lat": 38.93366566666667, "lon": -77.05730583333333, "is_disabled": 0, "fusion_lon": 0.0, "is_reserved": 0, "name": "2191fc92437aa17fca0320ecf68d66dd", "type": "electric_scooter", "bike_id": "2191fc92437aa17fca0320ecf68d66dd", "rental_uris": {"ios": "https://dc.lft.to/lastmile_qr_scan", "android": "https://dc.lft.to/lastmile_qr_scan"}, "fusion_lat": 0.0}, {"lat": 38.89680366666666, "lon": -77.02491833333333, "is_disabled": 0, "fusion_lon": 0.0, "is_reserved": 0, "name": "61d0abe7035ba0b9ec3346dbf7808c6e", "type": "electric_scooter", "bike_id": "61d0abe7035ba0b9ec3346dbf7808c6e", "rental_uris": {"ios": "https://dc.lft.to/lastmile_qr_scan", "android": "https://dc.lft.to/lastmile_qr_scan"}, "fusion_lat": 0.0}, {"lat": 38.931425, "lon": -77.04270383333333, "is_disabled": 0, "fusion_lon": 0.0, "is_reserved": 0, "name": "b5ce1a3d1e37454ebff2f69b8ffb2855", "type": "electric_scooter", "bike_id": "b5ce1a3d1e37454ebff2f69b8ffb2855", "rental_uris": {"ios": "https://dc.lft.to/lastmile_qr_scan", "android": "https://dc.lft.to/lastmile_qr_scan"}, "fusion_lat": 0.0}, {"lat": 38.923712, "lon": -77.02916133333333, "is_disabled": 0, "fusion_lon": 0.0, "is_reserved": 0, "name": "1b542ef0820afa2d717f78e815028d42", "type": "electric_scooter", "bike_id": "1b542ef0820afa2d717f78e815028d42", "rental_uris": {"ios": "https://dc.lft.to/lastmile_qr_scan", "android": "https://dc.lft.to/lastmile_qr_scan"}, "fusion_lat": 0.0}, {"lat": 38.8773645, "lon": -76.97033016666667, "is_disabled": 0, "fusion_lon": 0.0, "is_reserved": 0, "name": "0ec35ed25e0db74fe428e17b93002558", "type": "electric_scooter", "bike_id": "0ec35ed25e0db74fe428e17b93002558", "rental_uris": {"ios": "https://dc.lft.to/lastmile_qr_scan", "android": "https://dc.lft.to/lastmile_qr_scan"}, "fusion_lat": 0.0}, {"lat": 38.926020666666666, "lon": -77.064165, "is_disabled": 0, "fusion_lon": 0.0, "is_reserved": 0, "name": "fa714dff7f0da822b0a51d948725075b", "type": "electric_bike", "bike_id": "fa714dff7f0da822b0a51d948725075b", "rental_uris": {"ios": "https://dc.lft.to/lastmile_qr_scan", "android": "https://dc.lft.to/lastmile_qr_scan"}, "fusion_lat": 0.0}, {"lat": 38.8923375, "lon": -77.04875116666666, "is_disabled": 0, "fusion_lon": 0.0, "is_reserved": 0, "name": "44e519df3adc58f8c1c9c05bb60874ad", "type": "electric_scooter", "bike_id": "44e519df3adc58f8c1c9c05bb60874ad", "rental_uris": {"ios": "https://dc.lft.to/lastmile_qr_scan", "android": "https://dc.lft.to/lastmile_qr_scan"}, "fusion_lat": 0.0}, {"lat": 38.910308, "lon": -77.04253716666666, "is_disabled": 0, "fusion_lon": 0.0, "is_reserved": 0, "name": "b8f9eb63e047325ec91455d02f417bad", "type": "electric_scooter", "bike_id": "b8f9eb63e047325ec91455d02f417bad", "rental_uris": {"ios": "https://dc.lft.to/lastmile_qr_scan", "android": "https://dc.lft.to/lastmile_qr_scan"}, "fusion_lat": 0.0}, {"lat": 38.90692383333333, "lon": -77.03599783333334, "is_disabled": 0, "fusion_lon": 0.0, "is_reserved": 0, "name": "05982811641eccbedeb9cc612017eb41", "type": "electric_scooter", "bike_id": "05982811641eccbedeb9cc612017eb41", "rental_uris": {"ios": "https://dc.lft.to/lastmile_qr_scan", "android": "https://dc.lft.to/lastmile_qr_scan"}, "fusion_lat": 0.0}, {"lat": 38.92312366666667, "lon": -77.02901133333333, "is_disabled": 0, "fusion_lon": 0.0, "is_reserved": 0, "name": "c79a36912bab45b652ad92cdf96d1656", "type": "electric_scooter", "bike_id": "c79a36912bab45b652ad92cdf96d1656", "rental_uris": {"ios": "https://dc.lft.to/lastmile_qr_scan", "android": "https://dc.lft.to/lastmile_qr_scan"}, "fusion_lat": 0.0}, {"lat": 38.93235683333333, "lon": -76.97425816666667, "is_disabled": 0, "fusion_lon": 0.0, "is_reserved": 0, "name": "3f7841a63b49fdc928b338f54a767098", "type": "electric_bike", "bike_id": "3f7841a63b49fdc928b338f54a767098", "rental_uris": {"ios": "https://dc.lft.to/lastmile_qr_scan", "android": "https://dc.lft.to/lastmile_qr_scan"}, "fusion_lat": 0.0}, {"lat": 38.926971, "lon": -76.99761733333334, "is_disabled": 0, "fusion_lon": 0.0, "is_reserved": 0, "name": "be06cd05e6367a6db1f9f87249ce3f7f", "type": "electric_scooter", "bike_id": "be06cd05e6367a6db1f9f87249ce3f7f", "rental_uris": {"ios": "https://dc.lft.to/lastmile_qr_scan", "android": "https://dc.lft.to/lastmile_qr_scan"}, "fusion_lat": 0.0}, {"lat": 38.9464875, "lon": -77.02959833333334, "is_disabled": 0, "fusion_lon": 0.0, "is_reserved": 0, "name": "cb07f3304d2ac657e29e5c7f5c1b0de9", "type": "electric_scooter", "bike_id": "cb07f3304d2ac657e29e5c7f5c1b0de9", "rental_uris": {"ios": "https://dc.lft.to/lastmile_qr_scan", "android": "https://dc.lft.to/lastmile_qr_scan"}, "fusion_lat": 0.0}, {"lat": 38.935776, "lon": -77.03653766666666, "is_disabled": 0, "fusion_lon": 0.0, "is_reserved": 0, "name": "a1531d50e3124f3ff7fb50fe4b0795f6", "type": "electric_bike", "bike_id": "a1531d50e3124f3ff7fb50fe4b0795f6", "rental_uris": {"ios": "https://dc.lft.to/lastmile_qr_scan", "android": "https://dc.lft.to/lastmile_qr_scan"}, "fusion_lat": 0.0}, {"lat": 38.92789883333333, "lon": -77.03236766666667, "is_disabled": 0, "fusion_lon": 0.0, "is_reserved": 0, "name": "a858d6ff583effcf60bc70d9d8a25b63", "type": "electric_scooter", "bike_id": "a858d6ff583effcf60bc70d9d8a25b63", "rental_uris": {"ios": "https://dc.lft.to/lastmile_qr_scan", "android": "https://dc.lft.to/lastmile_qr_scan"}, "fusion_lat": 0.0}, {"lat": 38.919818166666666, "lon": -77.04175083333334, "is_disabled": 0, "fusion_lon": 0.0, "is_reserved": 0, "name": "87fecd06f831e15503ba40e9c816ea10", "type": "electric_scooter", "bike_id": "87fecd06f831e15503ba40e9c816ea10", "rental_uris": {"ios": "https://dc.lft.to/lastmile_qr_scan", "android": "https://dc.lft.to/lastmile_qr_scan"}, "fusion_lat": 0.0}, {"lat": 38.995106166666666, "lon": -76.99966033333334, "is_disabled": 0, "fusion_lon": 0.0, "is_reserved": 0, "name": "a70122a35d02dca299d26d3c6813551d", "type": "electric_bike", "bike_id": "a70122a35d02dca299d26d3c6813551d", "rental_uris": {"ios": "https://dc.lft.to/lastmile_qr_scan", "android": "https://dc.lft.to/lastmile_qr_scan"}, "fusion_lat": 0.0}, {"lat": 38.8854265, "lon": -76.97892866666666, "is_disabled": 0, "fusion_lon": 0.0, "is_reserved": 0, "name": "7e8ea2570b6f1bf1fd8fedaa729bfd20", "type": "electric_scooter", "bike_id": "7e8ea2570b6f1bf1fd8fedaa729bfd20", "rental_uris": {"ios": "https://dc.lft.to/lastmile_qr_scan", "android": "https://dc.lft.to/lastmile_qr_scan"}, "fusion_lat": 0.0}, {"lat": 38.896316166666665, "lon": -77.0401265, "is_disabled": 0, "fusion_lon": 0.0, "is_reserved": 0, "name": "b53c13bb8a4e4ad27fd5a07de593218a", "type": "electric_scooter", "bike_id": "b53c13bb8a4e4ad27fd5a07de593218a", "rental_uris": {"ios": "https://dc.lft.to/lastmile_qr_scan", "android": "https://dc.lft.to/lastmile_qr_scan"}, "fusion_lat": 0.0}, {"lat": 38.8873315, "lon": -77.00323366666667, "is_disabled": 0, "fusion_lon": 0.0, "is_reserved": 0, "name": "23b0438f261a562354c23e0b3f295ce7", "type": "electric_scooter", "bike_id": "23b0438f261a562354c23e0b3f295ce7", "rental_uris": {"ios": "https://dc.lft.to/lastmile_qr_scan", "android": "https://dc.lft.to/lastmile_qr_scan"}, "fusion_lat": 0.0}, {"lat": 38.909709666666664, "lon": -77.01712266666667, "is_disabled": 0, "fusion_lon": 0.0, "is_reserved": 0, "name": "e38b9eff072cc27a6345cc360a29d5c8", "type": "electric_scooter", "bike_id": "e38b9eff072cc27a6345cc360a29d5c8", "rental_uris": {"ios": "https://dc.lft.to/lastmile_qr_scan", "android": "https://dc.lft.to/lastmile_qr_scan"}, "fusion_lat": 0.0}, {"lat": 38.860428166666665, "lon": -77.00347883333333, "is_disabled": 0, "fusion_lon": 0.0, "is_reserved": 0, "name": "da75dc9428a87b988b72ca88ec34563f", "type": "electric_scooter", "bike_id": "da75dc9428a87b988b72ca88ec34563f", "rental_uris": {"ios": "https://dc.lft.to/lastmile_qr_scan", "android": "https://dc.lft.to/lastmile_qr_scan"}, "fusion_lat": 0.0}, {"lat": 38.90917916666667, "lon": -77.03983383333333, "is_disabled": 0, "fusion_lon": 0.0, "is_reserved": 0, "name": "a4ea226b86927e8a6ff65374d877dafb", "type": "electric_scooter", "bike_id": "a4ea226b86927e8a6ff65374d877dafb", "rental_uris": {"ios": "https://dc.lft.to/lastmile_qr_scan", "android": "https://dc.lft.to/lastmile_qr_scan"}, "fusion_lat": 0.0}, {"lat": 38.92169616666666, "lon": -77.01808766666667, "is_disabled": 0, "fusion_lon": 0.0, "is_reserved": 0, "name": "51f300bfd456960d1e9855c94b4363b6", "type": "electric_scooter", "bike_id": "51f300bfd456960d1e9855c94b4363b6", "rental_uris": {"ios": "https://dc.lft.to/lastmile_qr_scan", "android": "https://dc.lft.to/lastmile_qr_scan"}, "fusion_lat": 0.0}, {"lat": 38.902522166666664, "lon": -76.984831, "is_disabled": 0, "fusion_lon": 0.0, "is_reserved": 0, "name": "af56c50eccf7c8010cca4a0d8aa04dfd", "type": "electric_scooter", "bike_id": "af56c50eccf7c8010cca4a0d8aa04dfd", "rental_uris": {"ios": "https://dc.lft.to/lastmile_qr_scan", "android": "https://dc.lft.to/lastmile_qr_scan"}, "fusion_lat": 0.0}, {"lat": 38.92520966666667, "lon": -77.05740283333333, "is_disabled": 0, "fusion_lon": 0.0, "is_reserved": 0, "name": "ca46fb463afd78d2ed7da7d9337691b7", "type": "electric_bike", "bike_id": "ca46fb463afd78d2ed7da7d9337691b7", "rental_uris": {"ios": "https://dc.lft.to/lastmile_qr_scan", "android": "https://dc.lft.to/lastmile_qr_scan"}, "fusion_lat": 0.0}, {"lat": 38.92887283333334, "lon": -77.03736333333333, "is_disabled": 0, "fusion_lon": 0.0, "is_reserved": 0, "name": "ab35e233650d36c475df765fcca2cc26", "type": "electric_scooter", "bike_id": "ab35e233650d36c475df765fcca2cc26", "rental_uris": {"ios": "https://dc.lft.to/lastmile_qr_scan", "android": "https://dc.lft.to/lastmile_qr_scan"}, "fusion_lat": 0.0}, {"lat": 38.935924166666666, "lon": -77.03781533333333, "is_disabled": 0, "fusion_lon": 0.0, "is_reserved": 0, "name": "fb16fb59672a8b5123005df6ece5b3e0", "type": "electric_scooter", "bike_id": "fb16fb59672a8b5123005df6ece5b3e0", "rental_uris": {"ios": "https://dc.lft.to/lastmile_qr_scan", "android": "https://dc.lft.to/lastmile_qr_scan"}, "fusion_lat": 0.0}, {"lat": 38.9211375, "lon": -77.02690916666667, "is_disabled": 0, "fusion_lon": 0.0, "is_reserved": 0, "name": "6a02b03cebbc7e24ca5f0099425ae272", "type": "electric_scooter", "bike_id": "6a02b03cebbc7e24ca5f0099425ae272", "rental_uris": {"ios": "https://dc.lft.to/lastmile_qr_scan", "android": "https://dc.lft.to/lastmile_qr_scan"}, "fusion_lat": 0.0}, {"lat": 38.920167666666664, "lon": -77.0440325, "is_disabled": 0, "fusion_lon": 0.0, "is_reserved": 0, "name": "3aa003e5143ed9d540e3366454377ddc", "type": "electric_scooter", "bike_id": "3aa003e5143ed9d540e3366454377ddc", "rental_uris": {"ios": "https://dc.lft.to/lastmile_qr_scan", "android": "https://dc.lft.to/lastmile_qr_scan"}, "fusion_lat": 0.0}, {"lat": 38.857692666666665, "lon": -76.9877115, "is_disabled": 0, "fusion_lon": 0.0, "is_reserved": 0, "name": "51ab60b7b9468200d9d658d48f661b34", "type": "electric_bike", "bike_id": "51ab60b7b9468200d9d658d48f661b34", "rental_uris": {"ios": "https://dc.lft.to/lastmile_qr_scan", "android": "https://dc.lft.to/lastmile_qr_scan"}, "fusion_lat": 0.0}, {"lat": 38.920342166666664, "lon": -77.08194083333333, "is_disabled": 0, "fusion_lon": 0.0, "is_reserved": 0, "name": "9aa5ef1dafde65ab080c081f28140f0a", "type": "electric_scooter", "bike_id": "9aa5ef1dafde65ab080c081f28140f0a", "rental_uris": {"ios": "https://dc.lft.to/lastmile_qr_scan", "android": "https://dc.lft.to/lastmile_qr_scan"}, "fusion_lat": 0.0}, {"lat": 38.916319666666666, "lon": -77.05069566666667, "is_disabled": 0, "fusion_lon": 0.0, "is_reserved": 0, "name": "42d35794aef8ae16a85d7b13d27f6f70", "type": "electric_scooter", "bike_id": "42d35794aef8ae16a85d7b13d27f6f70", "rental_uris": {"ios": "https://dc.lft.to/lastmile_qr_scan", "android": "https://dc.lft.to/lastmile_qr_scan"}, "fusion_lat": 0.0}, {"lat": 38.88747433333333, "lon": -77.02775666666666, "is_disabled": 0, "fusion_lon": 0.0, "is_reserved": 0, "name": "f33cb89e3a756533e1260226ca1f2e5b", "type": "electric_scooter", "bike_id": "f33cb89e3a756533e1260226ca1f2e5b", "rental_uris": {"ios": "https://dc.lft.to/lastmile_qr_scan", "android": "https://dc.lft.to/lastmile_qr_scan"}, "fusion_lat": 0.0}, {"lat": 38.91267216666667, "lon": -77.031471, "is_disabled": 0, "fusion_lon": 0.0, "is_reserved": 0, "name": "795e1c1d2ca84594df4a26157542eb4f", "type": "electric_scooter", "bike_id": "795e1c1d2ca84594df4a26157542eb4f", "rental_uris": {"ios": "https://dc.lft.to/lastmile_qr_scan", "android": "https://dc.lft.to/lastmile_qr_scan"}, "fusion_lat": 0.0}, {"lat": 38.924054166666664, "lon": -77.02543, "is_disabled": 0, "fusion_lon": 0.0, "is_reserved": 0, "name": "a80c88d3e4efa1484ae39390197c7cdf", "type": "electric_scooter", "bike_id": "a80c88d3e4efa1484ae39390197c7cdf", "rental_uris": {"ios": "https://dc.lft.to/lastmile_qr_scan", "android": "https://dc.lft.to/lastmile_qr_scan"}, "fusion_lat": 0.0}, {"lat": 38.9074745, "lon": -77.00741016666667, "is_disabled": 0, "fusion_lon": 0.0, "is_reserved": 0, "name": "40d838820f7a6a6f87603eeffde3ea6d", "type": "electric_scooter", "bike_id": "40d838820f7a6a6f87603eeffde3ea6d", "rental_uris": {"ios": "https://dc.lft.to/lastmile_qr_scan", "android": "https://dc.lft.to/lastmile_qr_scan"}, "fusion_lat": 0.0}, {"lat": 38.917184166666665, "lon": -77.02410266666666, "is_disabled": 0, "fusion_lon": 0.0, "is_reserved": 0, "name": "97a292167f4509e6b5fc3cb35bd2a681", "type": "electric_scooter", "bike_id": "97a292167f4509e6b5fc3cb35bd2a681", "rental_uris": {"ios": "https://dc.lft.to/lastmile_qr_scan", "android": "https://dc.lft.to/lastmile_qr_scan"}, "fusion_lat": 0.0}, {"lat": 38.935984, "lon": -77.02118516666667, "is_disabled": 0, "fusion_lon": 0.0, "is_reserved": 0, "name": "87c51bb6d82e01d2602277dd822ba4b8", "type": "electric_bike", "bike_id": "87c51bb6d82e01d2602277dd822ba4b8", "rental_uris": {"ios": "https://dc.lft.to/lastmile_qr_scan", "android": "https://dc.lft.to/lastmile_qr_scan"}, "fusion_lat": 0.0}, {"lat": 38.90947233333333, "lon": -77.031822, "is_disabled": 0, "fusion_lon": 0.0, "is_reserved": 0, "name": "b5a309537de608914a747222223de8e8", "type": "electric_scooter", "bike_id": "b5a309537de608914a747222223de8e8", "rental_uris": {"ios": "https://dc.lft.to/lastmile_qr_scan", "android": "https://dc.lft.to/lastmile_qr_scan"}, "fusion_lat": 0.0}, {"lat": 38.90090033333333, "lon": -77.04923366666667, "is_disabled": 0, "fusion_lon": 0.0, "is_reserved": 0, "name": "ea6cb32d5c11302e41cedac84d20016b", "type": "electric_scooter", "bike_id": "ea6cb32d5c11302e41cedac84d20016b", "rental_uris": {"ios": "https://dc.lft.to/lastmile_qr_scan", "android": "https://dc.lft.to/lastmile_qr_scan"}, "fusion_lat": 0.0}, {"lat": 38.89876683333333, "lon": -77.0500185, "is_disabled": 0, "fusion_lon": 0.0, "is_reserved": 0, "name": "62cc066ec039537519bb61ba532136da", "type": "electric_scooter", "bike_id": "62cc066ec039537519bb61ba532136da", "rental_uris": {"ios": "https://dc.lft.to/lastmile_qr_scan", "android": "https://dc.lft.to/lastmile_qr_scan"}, "fusion_lat": 0.0}, {"lat": 38.892405833333335, "lon": -77.04877566666667, "is_disabled": 0, "fusion_lon": 0.0, "is_reserved": 0, "name": "711fe8c69181197b756384a5eb6d731d", "type": "electric_scooter", "bike_id": "711fe8c69181197b756384a5eb6d731d", "rental_uris": {"ios": "https://dc.lft.to/lastmile_qr_scan", "android": "https://dc.lft.to/lastmile_qr_scan"}, "fusion_lat": 0.0}, {"lat": 38.88258316666667, "lon": -77.005519, "is_disabled": 0, "fusion_lon": 0.0, "is_reserved": 0, "name": "d652295eebe0397dc77a91de4c3372be", "type": "electric_scooter", "bike_id": "d652295eebe0397dc77a91de4c3372be", "rental_uris": {"ios": "https://dc.lft.to/lastmile_qr_scan", "android": "https://dc.lft.to/lastmile_qr_scan"}, "fusion_lat": 0.0}, {"lat": 38.8949855, "lon": -77.00358816666666, "is_disabled": 0, "fusion_lon": 0.0, "is_reserved": 0, "name": "cc6f015b3bdc52444347cbe1cfa1036d", "type": "electric_scooter", "bike_id": "cc6f015b3bdc52444347cbe1cfa1036d", "rental_uris": {"ios": "https://dc.lft.to/lastmile_qr_scan", "android": "https://dc.lft.to/lastmile_qr_scan"}, "fusion_lat": 0.0}, {"lat": 38.872665, "lon": -77.01359233333334, "is_disabled": 0, "fusion_lon": 0.0, "is_reserved": 0, "name": "2f2ef11b263e5ac83dd0f1dfde30057f", "type": "electric_scooter", "bike_id": "2f2ef11b263e5ac83dd0f1dfde30057f", "rental_uris": {"ios": "https://dc.lft.to/lastmile_qr_scan", "android": "https://dc.lft.to/lastmile_qr_scan"}, "fusion_lat": 0.0}, {"lat": 38.94253633333334, "lon": -77.036296, "is_disabled": 0, "fusion_lon": 0.0, "is_reserved": 0, "name": "eb5194809a190e8f515398b34b409a56", "type": "electric_scooter", "bike_id": "eb5194809a190e8f515398b34b409a56", "rental_uris": {"ios": "https://dc.lft.to/lastmile_qr_scan", "android": "https://dc.lft.to/lastmile_qr_scan"}, "fusion_lat": 0.0}, {"lat": 38.86971833333333, "lon": -76.97856483333334, "is_disabled": 0, "fusion_lon": 0.0, "is_reserved": 0, "name": "aeb81bc1227da378a9cc990bfa5aa444", "type": "electric_scooter", "bike_id": "aeb81bc1227da378a9cc990bfa5aa444", "rental_uris": {"ios": "https://dc.lft.to/lastmile_qr_scan", "android": "https://dc.lft.to/lastmile_qr_scan"}, "fusion_lat": 0.0}, {"lat": 38.87381333333333, "lon": -77.0009095, "is_disabled": 0, "fusion_lon": 0.0, "is_reserved": 0, "name": "d5c2cc1f910dbc7d1d12d573c8dac54d", "type": "electric_scooter", "bike_id": "d5c2cc1f910dbc7d1d12d573c8dac54d", "rental_uris": {"ios": "https://dc.lft.to/lastmile_qr_scan", "android": "https://dc.lft.to/lastmile_qr_scan"}, "fusion_lat": 0.0}, {"lat": 38.957300000000004, "lon": -77.024018, "is_disabled": 0, "fusion_lon": 0.0, "is_reserved": 0, "name": "58c3949ca60b9f98c6f633e9aa5a13cc", "type": "electric_scooter", "bike_id": "58c3949ca60b9f98c6f633e9aa5a13cc", "rental_uris": {"ios": "https://dc.lft.to/lastmile_qr_scan", "android": "https://dc.lft.to/lastmile_qr_scan"}, "fusion_lat": 0.0}, {"lat": 38.8782415, "lon": -76.99608166666667, "is_disabled": 0, "fusion_lon": 0.0, "is_reserved": 0, "name": "6849af5e99f5ad8754c337a019d799b1", "type": "electric_scooter", "bike_id": "6849af5e99f5ad8754c337a019d799b1", "rental_uris": {"ios": "https://dc.lft.to/lastmile_qr_scan", "android": "https://dc.lft.to/lastmile_qr_scan"}, "fusion_lat": 0.0}, {"lat": 38.83156566666667, "lon": -76.99573516666666, "is_disabled": 0, "fusion_lon": 0.0, "is_reserved": 0, "name": "031ad1bd271143c0853bd2fceec501c1", "type": "electric_bike", "bike_id": "031ad1bd271143c0853bd2fceec501c1", "rental_uris": {"ios": "https://dc.lft.to/lastmile_qr_scan", "android": "https://dc.lft.to/lastmile_qr_scan"}, "fusion_lat": 0.0}, {"lat": 38.918911333333334, "lon": -77.035015, "is_disabled": 0, "fusion_lon": 0.0, "is_reserved": 0, "name": "e287e375b5c2f88bfdd6950b9ceedea4", "type": "electric_scooter", "bike_id": "e287e375b5c2f88bfdd6950b9ceedea4", "rental_uris": {"ios": "https://dc.lft.to/lastmile_qr_scan", "android": "https://dc.lft.to/lastmile_qr_scan"}, "fusion_lat": 0.0}, {"lat": 38.9202415, "lon": -77.07161166666667, "is_disabled": 0, "fusion_lon": 0.0, "is_reserved": 0, "name": "e0cc7d2896fb075c47b3bfa8fd329d5a", "type": "electric_scooter", "bike_id": "e0cc7d2896fb075c47b3bfa8fd329d5a", "rental_uris": {"ios": "https://dc.lft.to/lastmile_qr_scan", "android": "https://dc.lft.to/lastmile_qr_scan"}, "fusion_lat": 0.0}, {"lat": 38.88735166666667, "lon": -77.023868, "is_disabled": 0, "fusion_lon": 0.0, "is_reserved": 0, "name": "9404d46015d3d0aa4ab3dcf2217be552", "type": "electric_scooter", "bike_id": "9404d46015d3d0aa4ab3dcf2217be552", "rental_uris": {"ios": "https://dc.lft.to/lastmile_qr_scan", "android": "https://dc.lft.to/lastmile_qr_scan"}, "fusion_lat": 0.0}, {"lat": 38.902090666666666, "lon": -76.98611166666667, "is_disabled": 0, "fusion_lon": 0.0, "is_reserved": 0, "name": "023f3badf2e33a524a3386b3f19fb432", "type": "electric_scooter", "bike_id": "023f3badf2e33a524a3386b3f19fb432", "rental_uris": {"ios": "https://dc.lft.to/lastmile_qr_scan", "android": "https://dc.lft.to/lastmile_qr_scan"}, "fusion_lat": 0.0}, {"lat": 38.9111815, "lon": -77.03834766666667, "is_disabled": 0, "fusion_lon": 0.0, "is_reserved": 0, "name": "ce21b13384151a9315c9b4cfe2fc3a37", "type": "electric_scooter", "bike_id": "ce21b13384151a9315c9b4cfe2fc3a37", "rental_uris": {"ios": "https://dc.lft.to/lastmile_qr_scan", "android": "https://dc.lft.to/lastmile_qr_scan"}, "fusion_lat": 0.0}, {"lat": 38.874087333333335, "lon": -77.0020705, "is_disabled": 0, "fusion_lon": 0.0, "is_reserved": 0, "name": "80e08ffc69d5968ae48121f2b221dca0", "type": "electric_scooter", "bike_id": "80e08ffc69d5968ae48121f2b221dca0", "rental_uris": {"ios": "https://dc.lft.to/lastmile_qr_scan", "android": "https://dc.lft.to/lastmile_qr_scan"}, "fusion_lat": 0.0}, {"lat": 38.91822366666667, "lon": -77.0120555, "is_disabled": 0, "fusion_lon": 0.0, "is_reserved": 0, "name": "b5f1052365b78398f7d0e89c150314fe", "type": "electric_scooter", "bike_id": "b5f1052365b78398f7d0e89c150314fe", "rental_uris": {"ios": "https://dc.lft.to/lastmile_qr_scan", "android": "https://dc.lft.to/lastmile_qr_scan"}, "fusion_lat": 0.0}, {"lat": 38.928349, "lon": -77.0542585, "is_disabled": 0, "fusion_lon": 0.0, "is_reserved": 0, "name": "5c07cfdc20e156f035e423c11ad8e872", "type": "electric_scooter", "bike_id": "5c07cfdc20e156f035e423c11ad8e872", "rental_uris": {"ios": "https://dc.lft.to/lastmile_qr_scan", "android": "https://dc.lft.to/lastmile_qr_scan"}, "fusion_lat": 0.0}, {"lat": 38.91847116666667, "lon": -76.96535816666666, "is_disabled": 0, "fusion_lon": 0.0, "is_reserved": 0, "name": "67d1862550458e63ac788ccb8aea1015", "type": "electric_scooter", "bike_id": "67d1862550458e63ac788ccb8aea1015", "rental_uris": {"ios": "https://dc.lft.to/lastmile_qr_scan", "android": "https://dc.lft.to/lastmile_qr_scan"}, "fusion_lat": 0.0}, {"lat": 38.9165735, "lon": -77.03857533333333, "is_disabled": 0, "fusion_lon": 0.0, "is_reserved": 0, "name": "a864d96f5afcbaff4a81796c980c6af9", "type": "electric_scooter", "bike_id": "a864d96f5afcbaff4a81796c980c6af9", "rental_uris": {"ios": "https://dc.lft.to/lastmile_qr_scan", "android": "https://dc.lft.to/lastmile_qr_scan"}, "fusion_lat": 0.0}, {"lat": 38.9159705, "lon": -77.049058, "is_disabled": 0, "fusion_lon": 0.0, "is_reserved": 0, "name": "6001aee82d4a9efb8c79e214acedb174", "type": "electric_scooter", "bike_id": "6001aee82d4a9efb8c79e214acedb174", "rental_uris": {"ios": "https://dc.lft.to/lastmile_qr_scan", "android": "https://dc.lft.to/lastmile_qr_scan"}, "fusion_lat": 0.0}, {"lat": 38.906768, "lon": -77.00602483333333, "is_disabled": 0, "fusion_lon": 0.0, "is_reserved": 0, "name": "7d734346cb50f0ca771d2201cd90880a", "type": "electric_scooter", "bike_id": "7d734346cb50f0ca771d2201cd90880a", "rental_uris": {"ios": "https://dc.lft.to/lastmile_qr_scan", "android": "https://dc.lft.to/lastmile_qr_scan"}, "fusion_lat": 0.0}, {"lat": 38.90961083333333, "lon": -77.04819033333334, "is_disabled": 0, "fusion_lon": 0.0, "is_reserved": 0, "name": "6194ef9afde79785c046be68d1f2e6a2", "type": "electric_scooter", "bike_id": "6194ef9afde79785c046be68d1f2e6a2", "rental_uris": {"ios": "https://dc.lft.to/lastmile_qr_scan", "android": "https://dc.lft.to/lastmile_qr_scan"}, "fusion_lat": 0.0}, {"lat": 38.9238445, "lon": -77.0216365, "is_disabled": 0, "fusion_lon": 0.0, "is_reserved": 0, "name": "3ca232656d442bec1d82584696091e72", "type": "electric_scooter", "bike_id": "3ca232656d442bec1d82584696091e72", "rental_uris": {"ios": "https://dc.lft.to/lastmile_qr_scan", "android": "https://dc.lft.to/lastmile_qr_scan"}, "fusion_lat": 0.0}, {"lat": 38.928325, "lon": -76.995907, "is_disabled": 0, "fusion_lon": 0.0, "is_reserved": 0, "name": "6367f13f19ebe49a73e5bba65ce49935", "type": "electric_scooter", "bike_id": "6367f13f19ebe49a73e5bba65ce49935", "rental_uris": {"ios": "https://dc.lft.to/lastmile_qr_scan", "android": "https://dc.lft.to/lastmile_qr_scan"}, "fusion_lat": 0.0}, {"lat": 38.880178, "lon": -77.005878, "is_disabled": 0, "fusion_lon": 0.0, "is_reserved": 0, "name": "d39caf718cf5e3b1d2d7d4c760e3c849", "type": "electric_scooter", "bike_id": "d39caf718cf5e3b1d2d7d4c760e3c849", "rental_uris": {"ios": "https://dc.lft.to/lastmile_qr_scan", "android": "https://dc.lft.to/lastmile_qr_scan"}, "fusion_lat": 0.0}, {"lat": 38.88720716666667, "lon": -77.02837083333333, "is_disabled": 0, "fusion_lon": 0.0, "is_reserved": 0, "name": "e633dce7d32e6ab47a4d67d4fe92a162", "type": "electric_scooter", "bike_id": "e633dce7d32e6ab47a4d67d4fe92a162", "rental_uris": {"ios": "https://dc.lft.to/lastmile_qr_scan", "android": "https://dc.lft.to/lastmile_qr_scan"}, "fusion_lat": 0.0}, {"lat": 38.91881516666667, "lon": -77.04314516666666, "is_disabled": 0, "fusion_lon": 0.0, "is_reserved": 0, "name": "ccf47cdb81587565104ab775563fe403", "type": "electric_scooter", "bike_id": "ccf47cdb81587565104ab775563fe403", "rental_uris": {"ios": "https://dc.lft.to/lastmile_qr_scan", "android": "https://dc.lft.to/lastmile_qr_scan"}, "fusion_lat": 0.0}, {"lat": 38.918224333333335, "lon": -77.02421966666667, "is_disabled": 0, "fusion_lon": 0.0, "is_reserved": 0, "name": "ef1188c0eb254e6c74c9c78922656fe4", "type": "electric_scooter", "bike_id": "ef1188c0eb254e6c74c9c78922656fe4", "rental_uris": {"ios": "https://dc.lft.to/lastmile_qr_scan", "android": "https://dc.lft.to/lastmile_qr_scan"}, "fusion_lat": 0.0}, {"lat": 38.87734066666667, "lon": -77.1185355, "is_disabled": 0, "fusion_lon": 0.0, "is_reserved": 0, "name": "58a341d4e01f955908165a728eaff617", "type": "electric_bike", "bike_id": "58a341d4e01f955908165a728eaff617", "rental_uris": {"ios": "https://dc.lft.to/lastmile_qr_scan", "android": "https://dc.lft.to/lastmile_qr_scan"}, "fusion_lat": 0.0}, {"lat": 38.91913316666667, "lon": -77.02463433333334, "is_disabled": 0, "fusion_lon": 0.0, "is_reserved": 0, "name": "d0374e0421eff42df2da5a0d17214fb0", "type": "electric_scooter", "bike_id": "d0374e0421eff42df2da5a0d17214fb0", "rental_uris": {"ios": "https://dc.lft.to/lastmile_qr_scan", "android": "https://dc.lft.to/lastmile_qr_scan"}, "fusion_lat": 0.0}, {"lat": 38.900280333333335, "lon": -77.00218383333333, "is_disabled": 0, "fusion_lon": 0.0, "is_reserved": 0, "name": "23493dca28eeb425a88a50ccd779effd", "type": "electric_scooter", "bike_id": "23493dca28eeb425a88a50ccd779effd", "rental_uris": {"ios": "https://dc.lft.to/lastmile_qr_scan", "android": "https://dc.lft.to/lastmile_qr_scan"}, "fusion_lat": 0.0}, {"lat": 38.934244666666665, "lon": -77.0329345, "is_disabled": 0, "fusion_lon": 0.0, "is_reserved": 0, "name": "37ec89d693d9b57d6bc3f48b2b3a7195", "type": "electric_scooter", "bike_id": "37ec89d693d9b57d6bc3f48b2b3a7195", "rental_uris": {"ios": "https://dc.lft.to/lastmile_qr_scan", "android": "https://dc.lft.to/lastmile_qr_scan"}, "fusion_lat": 0.0}, {"lat": 38.917107, "lon": -76.97646633333333, "is_disabled": 0, "fusion_lon": 0.0, "is_reserved": 0, "name": "2931c339d0880d3238bf677cdbef8ff1", "type": "electric_scooter", "bike_id": "2931c339d0880d3238bf677cdbef8ff1", "rental_uris": {"ios": "https://dc.lft.to/lastmile_qr_scan", "android": "https://dc.lft.to/lastmile_qr_scan"}, "fusion_lat": 0.0}, {"lat": 38.9248085, "lon": -77.03508883333333, "is_disabled": 0, "fusion_lon": 0.0, "is_reserved": 0, "name": "87da8b2728509ce9b598a4357db36233", "type": "electric_scooter", "bike_id": "87da8b2728509ce9b598a4357db36233", "rental_uris": {"ios": "https://dc.lft.to/lastmile_qr_scan", "android": "https://dc.lft.to/lastmile_qr_scan"}, "fusion_lat": 0.0}, {"lat": 38.92174983333334, "lon": -77.038362, "is_disabled": 0, "fusion_lon": 0.0, "is_reserved": 0, "name": "caca8be091c7e56c3b1f5204886c2ae8", "type": "electric_scooter", "bike_id": "caca8be091c7e56c3b1f5204886c2ae8", "rental_uris": {"ios": "https://dc.lft.to/lastmile_qr_scan", "android": "https://dc.lft.to/lastmile_qr_scan"}, "fusion_lat": 0.0}, {"lat": 38.8710925, "lon": -76.96578333333333, "is_disabled": 0, "fusion_lon": 0.0, "is_reserved": 0, "name": "8bc517b485c60a7786392eeb90314bf5", "type": "electric_scooter", "bike_id": "8bc517b485c60a7786392eeb90314bf5", "rental_uris": {"ios": "https://dc.lft.to/lastmile_qr_scan", "android": "https://dc.lft.to/lastmile_qr_scan"}, "fusion_lat": 0.0}, {"lat": 38.903876333333336, "lon": -77.06008766666666, "is_disabled": 0, "fusion_lon": 0.0, "is_reserved": 0, "name": "ebc9e527ae8bbddb74c7bdf46e86bdc6", "type": "electric_scooter", "bike_id": "ebc9e527ae8bbddb74c7bdf46e86bdc6", "rental_uris": {"ios": "https://dc.lft.to/lastmile_qr_scan", "android": "https://dc.lft.to/lastmile_qr_scan"}, "fusion_lat": 0.0}, {"lat": 38.910454666666666, "lon": -77.03416383333334, "is_disabled": 0, "fusion_lon": 0.0, "is_reserved": 0, "name": "3d56778a53d25880ea0192eee8b4f9a1", "type": "electric_scooter", "bike_id": "3d56778a53d25880ea0192eee8b4f9a1", "rental_uris": {"ios": "https://dc.lft.to/lastmile_qr_scan", "android": "https://dc.lft.to/lastmile_qr_scan"}, "fusion_lat": 0.0}, {"lat": 38.89471483333333, "lon": -76.985921, "is_disabled": 0, "fusion_lon": 0.0, "is_reserved": 0, "name": "7b40721217ee92920600ae89a6731f14", "type": "electric_scooter", "bike_id": "7b40721217ee92920600ae89a6731f14", "rental_uris": {"ios": "https://dc.lft.to/lastmile_qr_scan", "android": "https://dc.lft.to/lastmile_qr_scan"}, "fusion_lat": 0.0}, {"lat": 38.872185333333334, "lon": -77.00608666666666, "is_disabled": 0, "fusion_lon": 0.0, "is_reserved": 0, "name": "17d63cf228a8bd94db87e2ecd2644aca", "type": "electric_scooter", "bike_id": "17d63cf228a8bd94db87e2ecd2644aca", "rental_uris": {"ios": "https://dc.lft.to/lastmile_qr_scan", "android": "https://dc.lft.to/lastmile_qr_scan"}, "fusion_lat": 0.0}, {"lat": 38.88733516666667, "lon": -77.02385183333334, "is_disabled": 0, "fusion_lon": 0.0, "is_reserved": 0, "name": "bd9a23e2a5dc74bc747ed83cf073da01", "type": "electric_scooter", "bike_id": "bd9a23e2a5dc74bc747ed83cf073da01", "rental_uris": {"ios": "https://dc.lft.to/lastmile_qr_scan", "android": "https://dc.lft.to/lastmile_qr_scan"}, "fusion_lat": 0.0}, {"lat": 38.90875233333333, "lon": -77.032475, "is_disabled": 0, "fusion_lon": 0.0, "is_reserved": 0, "name": "900cca0098bee02e38f4250cad41ff98", "type": "electric_scooter", "bike_id": "900cca0098bee02e38f4250cad41ff98", "rental_uris": {"ios": "https://dc.lft.to/lastmile_qr_scan", "android": "https://dc.lft.to/lastmile_qr_scan"}, "fusion_lat": 0.0}, {"lat": 38.92308383333334, "lon": -77.03660383333333, "is_disabled": 0, "fusion_lon": 0.0, "is_reserved": 0, "name": "8ab4d13e9de29654ed97df4026d4acd9", "type": "electric_scooter", "bike_id": "8ab4d13e9de29654ed97df4026d4acd9", "rental_uris": {"ios": "https://dc.lft.to/lastmile_qr_scan", "android": "https://dc.lft.to/lastmile_qr_scan"}, "fusion_lat": 0.0}, {"lat": 38.90656033333333, "lon": -77.07179466666666, "is_disabled": 0, "fusion_lon": 0.0, "is_reserved": 0, "name": "f94c11ed3ce2f0fe05b4534d1c3dbdb4", "type": "electric_scooter", "bike_id": "f94c11ed3ce2f0fe05b4534d1c3dbdb4", "rental_uris": {"ios": "https://dc.lft.to/lastmile_qr_scan", "android": "https://dc.lft.to/lastmile_qr_scan"}, "fusion_lat": 0.0}, {"lat": 38.954299666666664, "lon": -77.018522, "is_disabled": 0, "fusion_lon": 0.0, "is_reserved": 0, "name": "d4550bde6d7f925d4f2ce27041dffb3d", "type": "electric_scooter", "bike_id": "d4550bde6d7f925d4f2ce27041dffb3d", "rental_uris": {"ios": "https://dc.lft.to/lastmile_qr_scan", "android": "https://dc.lft.to/lastmile_qr_scan"}, "fusion_lat": 0.0}, {"lat": 38.9052085, "lon": -77.065977, "is_disabled": 0, "fusion_lon": 0.0, "is_reserved": 0, "name": "259f5c5c865888caaa341e2843be9510", "type": "electric_scooter", "bike_id": "259f5c5c865888caaa341e2843be9510", "rental_uris": {"ios": "https://dc.lft.to/lastmile_qr_scan", "android": "https://dc.lft.to/lastmile_qr_scan"}, "fusion_lat": 0.0}, {"lat": 38.92948, "lon": -77.027648, "is_disabled": 0, "fusion_lon": 0.0, "is_reserved": 0, "name": "9dbc42ba3079dddd402a85c2605e6b3b", "type": "electric_scooter", "bike_id": "9dbc42ba3079dddd402a85c2605e6b3b", "rental_uris": {"ios": "https://dc.lft.to/lastmile_qr_scan", "android": "https://dc.lft.to/lastmile_qr_scan"}, "fusion_lat": 0.0}, {"lat": 38.892236833333335, "lon": -77.04328233333334, "is_disabled": 0, "fusion_lon": 0.0, "is_reserved": 0, "name": "f1f8baea2aa8d6e2e18409dbaedaffd3", "type": "electric_scooter", "bike_id": "f1f8baea2aa8d6e2e18409dbaedaffd3", "rental_uris": {"ios": "https://dc.lft.to/lastmile_qr_scan", "android": "https://dc.lft.to/lastmile_qr_scan"}, "fusion_lat": 0.0}, {"lat": 38.897588666666664, "lon": -77.033119, "is_disabled": 0, "fusion_lon": 0.0, "is_reserved": 0, "name": "b3464a038893c9e14552a7a512dd9444", "type": "electric_scooter", "bike_id": "b3464a038893c9e14552a7a512dd9444", "rental_uris": {"ios": "https://dc.lft.to/lastmile_qr_scan", "android": "https://dc.lft.to/lastmile_qr_scan"}, "fusion_lat": 0.0}, {"lat": 38.91929016666667, "lon": -77.03151866666667, "is_disabled": 0, "fusion_lon": 0.0, "is_reserved": 0, "name": "90f01e0628852878b7a976f8e678c7aa", "type": "electric_scooter", "bike_id": "90f01e0628852878b7a976f8e678c7aa", "rental_uris": {"ios": "https://dc.lft.to/lastmile_qr_scan", "android": "https://dc.lft.to/lastmile_qr_scan"}, "fusion_lat": 0.0}, {"lat": 38.87680066666667, "lon": -77.00354066666667, "is_disabled": 0, "fusion_lon": 0.0, "is_reserved": 0, "name": "86dd5709facf5b420e18ec2ed77ac3c3", "type": "electric_scooter", "bike_id": "86dd5709facf5b420e18ec2ed77ac3c3", "rental_uris": {"ios": "https://dc.lft.to/lastmile_qr_scan", "android": "https://dc.lft.to/lastmile_qr_scan"}, "fusion_lat": 0.0}, {"lat": 38.918162833333334, "lon": -77.0253015, "is_disabled": 0, "fusion_lon": 0.0, "is_reserved": 0, "name": "33fcf32bfc6f10fa1ad9a1e0fe38389d", "type": "electric_scooter", "bike_id": "33fcf32bfc6f10fa1ad9a1e0fe38389d", "rental_uris": {"ios": "https://dc.lft.to/lastmile_qr_scan", "android": "https://dc.lft.to/lastmile_qr_scan"}, "fusion_lat": 0.0}, {"lat": 38.91602366666667, "lon": -77.04169633333333, "is_disabled": 0, "fusion_lon": 0.0, "is_reserved": 0, "name": "78bac7073b6ae436b2a78eb2d3ee0b86", "type": "electric_scooter", "bike_id": "78bac7073b6ae436b2a78eb2d3ee0b86", "rental_uris": {"ios": "https://dc.lft.to/lastmile_qr_scan", "android": "https://dc.lft.to/lastmile_qr_scan"}, "fusion_lat": 0.0}, {"lat": 38.90067833333333, "lon": -77.01316466666667, "is_disabled": 0, "fusion_lon": 0.0, "is_reserved": 0, "name": "9463112162f4a9fdbed5801de34b27fe", "type": "electric_scooter", "bike_id": "9463112162f4a9fdbed5801de34b27fe", "rental_uris": {"ios": "https://dc.lft.to/lastmile_qr_scan", "android": "https://dc.lft.to/lastmile_qr_scan"}, "fusion_lat": 0.0}, {"lat": 38.9199235, "lon": -77.0183215, "is_disabled": 0, "fusion_lon": 0.0, "is_reserved": 0, "name": "b7e8f68c28ead790abb8a44aeb57648f", "type": "electric_scooter", "bike_id": "b7e8f68c28ead790abb8a44aeb57648f", "rental_uris": {"ios": "https://dc.lft.to/lastmile_qr_scan", "android": "https://dc.lft.to/lastmile_qr_scan"}, "fusion_lat": 0.0}, {"lat": 38.90272083333333, "lon": -77.01787483333334, "is_disabled": 0, "fusion_lon": 0.0, "is_reserved": 0, "name": "36679cbc46fa82f72dd39ad9070d3774", "type": "electric_scooter", "bike_id": "36679cbc46fa82f72dd39ad9070d3774", "rental_uris": {"ios": "https://dc.lft.to/lastmile_qr_scan", "android": "https://dc.lft.to/lastmile_qr_scan"}, "fusion_lat": 0.0}, {"lat": 38.84612033333333, "lon": -76.96917083333334, "is_disabled": 0, "fusion_lon": 0.0, "is_reserved": 0, "name": "2a3f17aca9142735101de12c2a31a2a2", "type": "electric_bike", "bike_id": "2a3f17aca9142735101de12c2a31a2a2", "rental_uris": {"ios": "https://dc.lft.to/lastmile_qr_scan", "android": "https://dc.lft.to/lastmile_qr_scan"}, "fusion_lat": 0.0}, {"lat": 38.907418666666665, "lon": -77.03304066666666, "is_disabled": 0, "fusion_lon": 0.0, "is_reserved": 0, "name": "27d243cf881c8e1101794cfa6da9e657", "type": "electric_scooter", "bike_id": "27d243cf881c8e1101794cfa6da9e657", "rental_uris": {"ios": "https://dc.lft.to/lastmile_qr_scan", "android": "https://dc.lft.to/lastmile_qr_scan"}, "fusion_lat": 0.0}, {"lat": 38.906678666666664, "lon": -77.00967933333334, "is_disabled": 0, "fusion_lon": 0.0, "is_reserved": 0, "name": "da5f656fb8f0c821fb3e56906dd9b50b", "type": "electric_scooter", "bike_id": "da5f656fb8f0c821fb3e56906dd9b50b", "rental_uris": {"ios": "https://dc.lft.to/lastmile_qr_scan", "android": "https://dc.lft.to/lastmile_qr_scan"}, "fusion_lat": 0.0}, {"lat": 38.915717, "lon": -77.03206133333333, "is_disabled": 0, "fusion_lon": 0.0, "is_reserved": 0, "name": "56be40daea6e25b3a61c7d52b16022fc", "type": "electric_scooter", "bike_id": "56be40daea6e25b3a61c7d52b16022fc", "rental_uris": {"ios": "https://dc.lft.to/lastmile_qr_scan", "android": "https://dc.lft.to/lastmile_qr_scan"}, "fusion_lat": 0.0}, {"lat": 38.96146183333333, "lon": -77.02790433333334, "is_disabled": 0, "fusion_lon": 0.0, "is_reserved": 0, "name": "4c66df10806a7b59700ec8b00c722f22", "type": "electric_scooter", "bike_id": "4c66df10806a7b59700ec8b00c722f22", "rental_uris": {"ios": "https://dc.lft.to/lastmile_qr_scan", "android": "https://dc.lft.to/lastmile_qr_scan"}, "fusion_lat": 0.0}, {"lat": 38.890729, "lon": -76.98836966666667, "is_disabled": 0, "fusion_lon": 0.0, "is_reserved": 0, "name": "07238770542eb52f28269bea988bd628", "type": "electric_scooter", "bike_id": "07238770542eb52f28269bea988bd628", "rental_uris": {"ios": "https://dc.lft.to/lastmile_qr_scan", "android": "https://dc.lft.to/lastmile_qr_scan"}, "fusion_lat": 0.0}, {"lat": 38.90028, "lon": -77.03732016666666, "is_disabled": 0, "fusion_lon": 0.0, "is_reserved": 0, "name": "7c6d542c0b200d698d7963ea4f3f485b", "type": "electric_scooter", "bike_id": "7c6d542c0b200d698d7963ea4f3f485b", "rental_uris": {"ios": "https://dc.lft.to/lastmile_qr_scan", "android": "https://dc.lft.to/lastmile_qr_scan"}, "fusion_lat": 0.0}, {"lat": 38.93486466666667, "lon": -77.072709, "is_disabled": 0, "fusion_lon": 0.0, "is_reserved": 0, "name": "2e1699814260b6a964a5d4d0421d368d", "type": "electric_scooter", "bike_id": "2e1699814260b6a964a5d4d0421d368d", "rental_uris": {"ios": "https://dc.lft.to/lastmile_qr_scan", "android": "https://dc.lft.to/lastmile_qr_scan"}, "fusion_lat": 0.0}, {"lat": 38.903256666666664, "lon": -77.02454166666666, "is_disabled": 0, "fusion_lon": 0.0, "is_reserved": 0, "name": "31e33f00c7b60684dbb719966adef5e0", "type": "electric_scooter", "bike_id": "31e33f00c7b60684dbb719966adef5e0", "rental_uris": {"ios": "https://dc.lft.to/lastmile_qr_scan", "android": "https://dc.lft.to/lastmile_qr_scan"}, "fusion_lat": 0.0}, {"lat": 38.92145133333333, "lon": -77.04362666666667, "is_disabled": 0, "fusion_lon": 0.0, "is_reserved": 0, "name": "0c5d671f89ddbe63c3f942aa996ec367", "type": "electric_scooter", "bike_id": "0c5d671f89ddbe63c3f942aa996ec367", "rental_uris": {"ios": "https://dc.lft.to/lastmile_qr_scan", "android": "https://dc.lft.to/lastmile_qr_scan"}, "fusion_lat": 0.0}, {"lat": 38.8763805, "lon": -77.01478233333333, "is_disabled": 0, "fusion_lon": 0.0, "is_reserved": 0, "name": "f8a524fbd083814414bfcfbe8ea7a33c", "type": "electric_scooter", "bike_id": "f8a524fbd083814414bfcfbe8ea7a33c", "rental_uris": {"ios": "https://dc.lft.to/lastmile_qr_scan", "android": "https://dc.lft.to/lastmile_qr_scan"}, "fusion_lat": 0.0}, {"lat": 38.91568016666667, "lon": -77.02288383333334, "is_disabled": 0, "fusion_lon": 0.0, "is_reserved": 0, "name": "0f0c1ba2702c8ebd4bd30e3426c7278d", "type": "electric_scooter", "bike_id": "0f0c1ba2702c8ebd4bd30e3426c7278d", "rental_uris": {"ios": "https://dc.lft.to/lastmile_qr_scan", "android": "https://dc.lft.to/lastmile_qr_scan"}, "fusion_lat": 0.0}, {"lat": 38.887448, "lon": -77.025684, "is_disabled": 0, "fusion_lon": 0.0, "is_reserved": 0, "name": "0baf25d98f69ea20ce0013389f84016b", "type": "electric_scooter", "bike_id": "0baf25d98f69ea20ce0013389f84016b", "rental_uris": {"ios": "https://dc.lft.to/lastmile_qr_scan", "android": "https://dc.lft.to/lastmile_qr_scan"}, "fusion_lat": 0.0}, {"lat": 38.9185515, "lon": -76.9609075, "is_disabled": 0, "fusion_lon": 0.0, "is_reserved": 0, "name": "9e9a450c731a648b3cf3dfdf3da10f13", "type": "electric_bike", "bike_id": "9e9a450c731a648b3cf3dfdf3da10f13", "rental_uris": {"ios": "https://dc.lft.to/lastmile_qr_scan", "android": "https://dc.lft.to/lastmile_qr_scan"}, "fusion_lat": 0.0}, {"lat": 38.9078065, "lon": -76.9352745, "is_disabled": 0, "fusion_lon": 0.0, "is_reserved": 0, "name": "660e40e4bb4527f2ff890e17a4cfacba", "type": "electric_scooter", "bike_id": "660e40e4bb4527f2ff890e17a4cfacba", "rental_uris": {"ios": "https://dc.lft.to/lastmile_qr_scan", "android": "https://dc.lft.to/lastmile_qr_scan"}, "fusion_lat": 0.0}, {"lat": 38.905683, "lon": -77.00701733333334, "is_disabled": 0, "fusion_lon": 0.0, "is_reserved": 0, "name": "56b32b93f32682443177ac6a79d75d31", "type": "electric_scooter", "bike_id": "56b32b93f32682443177ac6a79d75d31", "rental_uris": {"ios": "https://dc.lft.to/lastmile_qr_scan", "android": "https://dc.lft.to/lastmile_qr_scan"}, "fusion_lat": 0.0}, {"lat": 38.928780833333334, "lon": -77.04123916666667, "is_disabled": 0, "fusion_lon": 0.0, "is_reserved": 0, "name": "1ee2eb3a217c50414144c4160abc8435", "type": "electric_scooter", "bike_id": "1ee2eb3a217c50414144c4160abc8435", "rental_uris": {"ios": "https://dc.lft.to/lastmile_qr_scan", "android": "https://dc.lft.to/lastmile_qr_scan"}, "fusion_lat": 0.0}, {"lat": 38.899281, "lon": -77.01277216666666, "is_disabled": 0, "fusion_lon": 0.0, "is_reserved": 0, "name": "24ae7e8a2a253811779f91e84664a60b", "type": "electric_scooter", "bike_id": "24ae7e8a2a253811779f91e84664a60b", "rental_uris": {"ios": "https://dc.lft.to/lastmile_qr_scan", "android": "https://dc.lft.to/lastmile_qr_scan"}, "fusion_lat": 0.0}, {"lat": 38.900049, "lon": -76.99533016666666, "is_disabled": 0, "fusion_lon": 0.0, "is_reserved": 0, "name": "0bea1d6ae765738fb72a7e8660587cce", "type": "electric_scooter", "bike_id": "0bea1d6ae765738fb72a7e8660587cce", "rental_uris": {"ios": "https://dc.lft.to/lastmile_qr_scan", "android": "https://dc.lft.to/lastmile_qr_scan"}, "fusion_lat": 0.0}, {"lat": 38.89774833333333, "lon": -77.03184566666667, "is_disabled": 0, "fusion_lon": 0.0, "is_reserved": 0, "name": "934266d67cea57b6a8aa3a96fa80c62c", "type": "electric_scooter", "bike_id": "934266d67cea57b6a8aa3a96fa80c62c", "rental_uris": {"ios": "https://dc.lft.to/lastmile_qr_scan", "android": "https://dc.lft.to/lastmile_qr_scan"}, "fusion_lat": 0.0}, {"lat": 38.95329816666667, "lon": -77.01653233333333, "is_disabled": 0, "fusion_lon": 0.0, "is_reserved": 0, "name": "d1f9885efb89cf4b1fd7eb5f9cd4e930", "type": "electric_bike", "bike_id": "d1f9885efb89cf4b1fd7eb5f9cd4e930", "rental_uris": {"ios": "https://dc.lft.to/lastmile_qr_scan", "android": "https://dc.lft.to/lastmile_qr_scan"}, "fusion_lat": 0.0}, {"lat": 38.91728616666666, "lon": -77.019238, "is_disabled": 0, "fusion_lon": 0.0, "is_reserved": 0, "name": "800a82786346cec719a646fdc9fbb4f8", "type": "electric_scooter", "bike_id": "800a82786346cec719a646fdc9fbb4f8", "rental_uris": {"ios": "https://dc.lft.to/lastmile_qr_scan", "android": "https://dc.lft.to/lastmile_qr_scan"}, "fusion_lat": 0.0}, {"lat": 38.874573166666664, "lon": -77.00548733333333, "is_disabled": 0, "fusion_lon": 0.0, "is_reserved": 0, "name": "ca18e1ebdd650e6034125cff0526f411", "type": "electric_scooter", "bike_id": "ca18e1ebdd650e6034125cff0526f411", "rental_uris": {"ios": "https://dc.lft.to/lastmile_qr_scan", "android": "https://dc.lft.to/lastmile_qr_scan"}, "fusion_lat": 0.0}, {"lat": 38.866682833333336, "lon": -76.98905616666667, "is_disabled": 0, "fusion_lon": 0.0, "is_reserved": 0, "name": "555f260ab15c3b926cad0fc6b298bb2b", "type": "electric_scooter", "bike_id": "555f260ab15c3b926cad0fc6b298bb2b", "rental_uris": {"ios": "https://dc.lft.to/lastmile_qr_scan", "android": "https://dc.lft.to/lastmile_qr_scan"}, "fusion_lat": 0.0}, {"lat": 38.920389666666665, "lon": -77.03706866666667, "is_disabled": 0, "fusion_lon": 0.0, "is_reserved": 0, "name": "db1469fb2114a546c052a5c67e9eb56d", "type": "electric_scooter", "bike_id": "db1469fb2114a546c052a5c67e9eb56d", "rental_uris": {"ios": "https://dc.lft.to/lastmile_qr_scan", "android": "https://dc.lft.to/lastmile_qr_scan"}, "fusion_lat": 0.0}, {"lat": 38.88126466666667, "lon": -77.01745583333333, "is_disabled": 0, "fusion_lon": 0.0, "is_reserved": 0, "name": "3db7b98e632795bc916b48eea30d5c6f", "type": "electric_scooter", "bike_id": "3db7b98e632795bc916b48eea30d5c6f", "rental_uris": {"ios": "https://dc.lft.to/lastmile_qr_scan", "android": "https://dc.lft.to/lastmile_qr_scan"}, "fusion_lat": 0.0}, {"lat": 38.9281995, "lon": -77.01409933333333, "is_disabled": 0, "fusion_lon": 0.0, "is_reserved": 0, "name": "4417e759b8c7d80ec4dd2cdb6f9526ab", "type": "electric_scooter", "bike_id": "4417e759b8c7d80ec4dd2cdb6f9526ab", "rental_uris": {"ios": "https://dc.lft.to/lastmile_qr_scan", "android": "https://dc.lft.to/lastmile_qr_scan"}, "fusion_lat": 0.0}, {"lat": 38.922176666666665, "lon": -77.043366, "is_disabled": 0, "fusion_lon": 0.0, "is_reserved": 0, "name": "c070b8358a31f8a946d821e26da2fc71", "type": "electric_scooter", "bike_id": "c070b8358a31f8a946d821e26da2fc71", "rental_uris": {"ios": "https://dc.lft.to/lastmile_qr_scan", "android": "https://dc.lft.to/lastmile_qr_scan"}, "fusion_lat": 0.0}, {"lat": 38.90925266666667, "lon": -77.0308965, "is_disabled": 0, "fusion_lon": 0.0, "is_reserved": 0, "name": "05d06614cf576575a74e3cb2cc7fba1c", "type": "electric_scooter", "bike_id": "05d06614cf576575a74e3cb2cc7fba1c", "rental_uris": {"ios": "https://dc.lft.to/lastmile_qr_scan", "android": "https://dc.lft.to/lastmile_qr_scan"}, "fusion_lat": 0.0}, {"lat": 38.919896, "lon": -77.02391316666667, "is_disabled": 0, "fusion_lon": 0.0, "is_reserved": 0, "name": "675cfdc7f31578d1d302299d215cadf3", "type": "electric_scooter", "bike_id": "675cfdc7f31578d1d302299d215cadf3", "rental_uris": {"ios": "https://dc.lft.to/lastmile_qr_scan", "android": "https://dc.lft.to/lastmile_qr_scan"}, "fusion_lat": 0.0}, {"lat": 38.88731466666667, "lon": -77.031752, "is_disabled": 0, "fusion_lon": 0.0, "is_reserved": 0, "name": "9860f88ca943c2e2d3b4ad695398b8f2", "type": "electric_scooter", "bike_id": "9860f88ca943c2e2d3b4ad695398b8f2", "rental_uris": {"ios": "https://dc.lft.to/lastmile_qr_scan", "android": "https://dc.lft.to/lastmile_qr_scan"}, "fusion_lat": 0.0}, {"lat": 38.91415083333333, "lon": -77.0347055, "is_disabled": 0, "fusion_lon": 0.0, "is_reserved": 0, "name": "1d135d0c6d3e6b18760b7c965908b183", "type": "electric_scooter", "bike_id": "1d135d0c6d3e6b18760b7c965908b183", "rental_uris": {"ios": "https://dc.lft.to/lastmile_qr_scan", "android": "https://dc.lft.to/lastmile_qr_scan"}, "fusion_lat": 0.0}, {"lat": 38.8749275, "lon": -77.00285033333333, "is_disabled": 0, "fusion_lon": 0.0, "is_reserved": 0, "name": "a3f224703b2a844af62dc1c61199a90c", "type": "electric_scooter", "bike_id": "a3f224703b2a844af62dc1c61199a90c", "rental_uris": {"ios": "https://dc.lft.to/lastmile_qr_scan", "android": "https://dc.lft.to/lastmile_qr_scan"}, "fusion_lat": 0.0}, {"lat": 38.916606, "lon": -77.0386225, "is_disabled": 0, "fusion_lon": 0.0, "is_reserved": 0, "name": "4a41f08a1fb6e1fea4c4c2715163b66f", "type": "electric_scooter", "bike_id": "4a41f08a1fb6e1fea4c4c2715163b66f", "rental_uris": {"ios": "https://dc.lft.to/lastmile_qr_scan", "android": "https://dc.lft.to/lastmile_qr_scan"}, "fusion_lat": 0.0}, {"lat": 38.924859166666664, "lon": -77.05217783333333, "is_disabled": 0, "fusion_lon": 0.0, "is_reserved": 0, "name": "3ce5e8cf8d7cc59e11df92feede93094", "type": "electric_scooter", "bike_id": "3ce5e8cf8d7cc59e11df92feede93094", "rental_uris": {"ios": "https://dc.lft.to/lastmile_qr_scan", "android": "https://dc.lft.to/lastmile_qr_scan"}, "fusion_lat": 0.0}, {"lat": 38.915963, "lon": -77.01208266666667, "is_disabled": 0, "fusion_lon": 0.0, "is_reserved": 0, "name": "c07da955e298279147b33b39be9d219b", "type": "electric_scooter", "bike_id": "c07da955e298279147b33b39be9d219b", "rental_uris": {"ios": "https://dc.lft.to/lastmile_qr_scan", "android": "https://dc.lft.to/lastmile_qr_scan"}, "fusion_lat": 0.0}, {"lat": 38.9336225, "lon": -77.057334, "is_disabled": 0, "fusion_lon": 0.0, "is_reserved": 0, "name": "87404ac941ad0f1ab22447b25fcdac17", "type": "electric_scooter", "bike_id": "87404ac941ad0f1ab22447b25fcdac17", "rental_uris": {"ios": "https://dc.lft.to/lastmile_qr_scan", "android": "https://dc.lft.to/lastmile_qr_scan"}, "fusion_lat": 0.0}, {"lat": 38.92086233333333, "lon": -77.02552466666667, "is_disabled": 0, "fusion_lon": 0.0, "is_reserved": 0, "name": "d524f616c16e8217def5ce3992989b3a", "type": "electric_scooter", "bike_id": "d524f616c16e8217def5ce3992989b3a", "rental_uris": {"ios": "https://dc.lft.to/lastmile_qr_scan", "android": "https://dc.lft.to/lastmile_qr_scan"}, "fusion_lat": 0.0}, {"lat": 38.9011705, "lon": -77.00218166666667, "is_disabled": 0, "fusion_lon": 0.0, "is_reserved": 0, "name": "2a9533001126c5ce01384b5bff395cc1", "type": "electric_scooter", "bike_id": "2a9533001126c5ce01384b5bff395cc1", "rental_uris": {"ios": "https://dc.lft.to/lastmile_qr_scan", "android": "https://dc.lft.to/lastmile_qr_scan"}, "fusion_lat": 0.0}, {"lat": 38.916636, "lon": -77.02234233333333, "is_disabled": 0, "fusion_lon": 0.0, "is_reserved": 0, "name": "e7d4f9303a4446f76a03c3cd83f2dedc", "type": "electric_scooter", "bike_id": "e7d4f9303a4446f76a03c3cd83f2dedc", "rental_uris": {"ios": "https://dc.lft.to/lastmile_qr_scan", "android": "https://dc.lft.to/lastmile_qr_scan"}, "fusion_lat": 0.0}, {"lat": 38.918233666666666, "lon": -77.0365625, "is_disabled": 0, "fusion_lon": 0.0, "is_reserved": 0, "name": "20f4ab8adbe8091372fc73c5dce5baae", "type": "electric_scooter", "bike_id": "20f4ab8adbe8091372fc73c5dce5baae", "rental_uris": {"ios": "https://dc.lft.to/lastmile_qr_scan", "android": "https://dc.lft.to/lastmile_qr_scan"}, "fusion_lat": 0.0}, {"lat": 38.931911166666666, "lon": -77.03464983333333, "is_disabled": 0, "fusion_lon": 0.0, "is_reserved": 0, "name": "de9ea02a907c20fb512d0bdf198a59f1", "type": "electric_scooter", "bike_id": "de9ea02a907c20fb512d0bdf198a59f1", "rental_uris": {"ios": "https://dc.lft.to/lastmile_qr_scan", "android": "https://dc.lft.to/lastmile_qr_scan"}, "fusion_lat": 0.0}, {"lat": 38.91713266666667, "lon": -77.02878033333333, "is_disabled": 0, "fusion_lon": 0.0, "is_reserved": 0, "name": "b24fd37c11019d1dbc3abc509f00e0f7", "type": "electric_scooter", "bike_id": "b24fd37c11019d1dbc3abc509f00e0f7", "rental_uris": {"ios": "https://dc.lft.to/lastmile_qr_scan", "android": "https://dc.lft.to/lastmile_qr_scan"}, "fusion_lat": 0.0}, {"lat": 38.93608416666667, "lon": -77.03185316666666, "is_disabled": 0, "fusion_lon": 0.0, "is_reserved": 0, "name": "79ab8771105763ccdd361ab783c93c6a", "type": "electric_scooter", "bike_id": "79ab8771105763ccdd361ab783c93c6a", "rental_uris": {"ios": "https://dc.lft.to/lastmile_qr_scan", "android": "https://dc.lft.to/lastmile_qr_scan"}, "fusion_lat": 0.0}, {"lat": 38.9095995, "lon": -77.0394265, "is_disabled": 0, "fusion_lon": 0.0, "is_reserved": 0, "name": "8e2c3ce84e0261bd059e44bd8dae3f66", "type": "electric_scooter", "bike_id": "8e2c3ce84e0261bd059e44bd8dae3f66", "rental_uris": {"ios": "https://dc.lft.to/lastmile_qr_scan", "android": "https://dc.lft.to/lastmile_qr_scan"}, "fusion_lat": 0.0}, {"lat": 38.912586833333336, "lon": -76.97209333333333, "is_disabled": 0, "fusion_lon": 0.0, "is_reserved": 0, "name": "b41b93d33fc880a6eb1b7d4ca216021c", "type": "electric_scooter", "bike_id": "b41b93d33fc880a6eb1b7d4ca216021c", "rental_uris": {"ios": "https://dc.lft.to/lastmile_qr_scan", "android": "https://dc.lft.to/lastmile_qr_scan"}, "fusion_lat": 0.0}, {"lat": 38.938805333333335, "lon": -77.02483516666666, "is_disabled": 0, "fusion_lon": 0.0, "is_reserved": 0, "name": "10f1c5b31ced572b3d5cacd2a4e76e1d", "type": "electric_scooter", "bike_id": "10f1c5b31ced572b3d5cacd2a4e76e1d", "rental_uris": {"ios": "https://dc.lft.to/lastmile_qr_scan", "android": "https://dc.lft.to/lastmile_qr_scan"}, "fusion_lat": 0.0}, {"lat": 38.897398333333335, "lon": -77.04362283333333, "is_disabled": 0, "fusion_lon": 0.0, "is_reserved": 0, "name": "c9067388cf057c165aade9f1ad566149", "type": "electric_scooter", "bike_id": "c9067388cf057c165aade9f1ad566149", "rental_uris": {"ios": "https://dc.lft.to/lastmile_qr_scan", "android": "https://dc.lft.to/lastmile_qr_scan"}, "fusion_lat": 0.0}, {"lat": 38.95635733333334, "lon": -77.03303083333333, "is_disabled": 0, "fusion_lon": 0.0, "is_reserved": 0, "name": "f515de25551434bdb0eda3a1b1588c15", "type": "electric_scooter", "bike_id": "f515de25551434bdb0eda3a1b1588c15", "rental_uris": {"ios": "https://dc.lft.to/lastmile_qr_scan", "android": "https://dc.lft.to/lastmile_qr_scan"}, "fusion_lat": 0.0}, {"lat": 38.92995833333333, "lon": -77.038007, "is_disabled": 0, "fusion_lon": 0.0, "is_reserved": 0, "name": "f228067d92efe53f43751e10efbc115a", "type": "electric_scooter", "bike_id": "f228067d92efe53f43751e10efbc115a", "rental_uris": {"ios": "https://dc.lft.to/lastmile_qr_scan", "android": "https://dc.lft.to/lastmile_qr_scan"}, "fusion_lat": 0.0}, {"lat": 38.86216566666667, "lon": -76.99499, "is_disabled": 0, "fusion_lon": 0.0, "is_reserved": 0, "name": "ffe0271f22d04a2f2f4dfb677bd7fc27", "type": "electric_bike", "bike_id": "ffe0271f22d04a2f2f4dfb677bd7fc27", "rental_uris": {"ios": "https://dc.lft.to/lastmile_qr_scan", "android": "https://dc.lft.to/lastmile_qr_scan"}, "fusion_lat": 0.0}, {"lat": 38.9058115, "lon": -77.04333033333333, "is_disabled": 0, "fusion_lon": 0.0, "is_reserved": 0, "name": "2d58c9aaf635a4b88ca1d47ce8ab186c", "type": "electric_scooter", "bike_id": "2d58c9aaf635a4b88ca1d47ce8ab186c", "rental_uris": {"ios": "https://dc.lft.to/lastmile_qr_scan", "android": "https://dc.lft.to/lastmile_qr_scan"}, "fusion_lat": 0.0}, {"lat": 38.95732233333333, "lon": -77.02406066666667, "is_disabled": 0, "fusion_lon": 0.0, "is_reserved": 0, "name": "996ad5968f706fa1225f2f871e53128c", "type": "electric_scooter", "bike_id": "996ad5968f706fa1225f2f871e53128c", "rental_uris": {"ios": "https://dc.lft.to/lastmile_qr_scan", "android": "https://dc.lft.to/lastmile_qr_scan"}, "fusion_lat": 0.0}, {"lat": 38.96606766666667, "lon": -77.0273895, "is_disabled": 0, "fusion_lon": 0.0, "is_reserved": 0, "name": "f3ac2a10affaa0a3759d913d0adda75d", "type": "electric_scooter", "bike_id": "f3ac2a10affaa0a3759d913d0adda75d", "rental_uris": {"ios": "https://dc.lft.to/lastmile_qr_scan", "android": "https://dc.lft.to/lastmile_qr_scan"}, "fusion_lat": 0.0}, {"lat": 38.96471, "lon": -77.03560466666667, "is_disabled": 0, "fusion_lon": 0.0, "is_reserved": 0, "name": "aaf1e6ffd99f0e70b6b4fb414d1c6b54", "type": "electric_bike", "bike_id": "aaf1e6ffd99f0e70b6b4fb414d1c6b54", "rental_uris": {"ios": "https://dc.lft.to/lastmile_qr_scan", "android": "https://dc.lft.to/lastmile_qr_scan"}, "fusion_lat": 0.0}, {"lat": 38.94333066666667, "lon": -76.98313866666666, "is_disabled": 0, "fusion_lon": 0.0, "is_reserved": 0, "name": "8e21cf58af0534722b1ea007d9523e13", "type": "electric_scooter", "bike_id": "8e21cf58af0534722b1ea007d9523e13", "rental_uris": {"ios": "https://dc.lft.to/lastmile_qr_scan", "android": "https://dc.lft.to/lastmile_qr_scan"}, "fusion_lat": 0.0}, {"lat": 38.90009633333333, "lon": -76.9890345, "is_disabled": 0, "fusion_lon": 0.0, "is_reserved": 0, "name": "8582485932a1517fa79733338a386362", "type": "electric_scooter", "bike_id": "8582485932a1517fa79733338a386362", "rental_uris": {"ios": "https://dc.lft.to/lastmile_qr_scan", "android": "https://dc.lft.to/lastmile_qr_scan"}, "fusion_lat": 0.0}, {"lat": 38.9245925, "lon": -77.039648, "is_disabled": 0, "fusion_lon": 0.0, "is_reserved": 0, "name": "9f70b97432757eb53790053b8cd4d0d4", "type": "electric_scooter", "bike_id": "9f70b97432757eb53790053b8cd4d0d4", "rental_uris": {"ios": "https://dc.lft.to/lastmile_qr_scan", "android": "https://dc.lft.to/lastmile_qr_scan"}, "fusion_lat": 0.0}, {"lat": 38.919173666666666, "lon": -77.03203416666666, "is_disabled": 0, "fusion_lon": 0.0, "is_reserved": 0, "name": "d36eb342737fefb0fcea924c8c225d16", "type": "electric_scooter", "bike_id": "d36eb342737fefb0fcea924c8c225d16", "rental_uris": {"ios": "https://dc.lft.to/lastmile_qr_scan", "android": "https://dc.lft.to/lastmile_qr_scan"}, "fusion_lat": 0.0}, {"lat": 38.875435, "lon": -77.00537216666666, "is_disabled": 0, "fusion_lon": 0.0, "is_reserved": 0, "name": "c1a15d46e6dfacc59613435501cad983", "type": "electric_scooter", "bike_id": "c1a15d46e6dfacc59613435501cad983", "rental_uris": {"ios": "https://dc.lft.to/lastmile_qr_scan", "android": "https://dc.lft.to/lastmile_qr_scan"}, "fusion_lat": 0.0}, {"lat": 38.933287166666666, "lon": -77.0326935, "is_disabled": 0, "fusion_lon": 0.0, "is_reserved": 0, "name": "190a9a931e1b6110f2a528abbad9587c", "type": "electric_scooter", "bike_id": "190a9a931e1b6110f2a528abbad9587c", "rental_uris": {"ios": "https://dc.lft.to/lastmile_qr_scan", "android": "https://dc.lft.to/lastmile_qr_scan"}, "fusion_lat": 0.0}, {"lat": 38.9043755, "lon": -77.02849016666667, "is_disabled": 0, "fusion_lon": 0.0, "is_reserved": 0, "name": "a03f3a9110894a773ea30d77e4128ed6", "type": "electric_scooter", "bike_id": "a03f3a9110894a773ea30d77e4128ed6", "rental_uris": {"ios": "https://dc.lft.to/lastmile_qr_scan", "android": "https://dc.lft.to/lastmile_qr_scan"}, "fusion_lat": 0.0}, {"lat": 38.87665766666667, "lon": -76.99268083333334, "is_disabled": 0, "fusion_lon": 0.0, "is_reserved": 0, "name": "4f1672a7ea34ef753b66e5b53b3566de", "type": "electric_scooter", "bike_id": "4f1672a7ea34ef753b66e5b53b3566de", "rental_uris": {"ios": "https://dc.lft.to/lastmile_qr_scan", "android": "https://dc.lft.to/lastmile_qr_scan"}, "fusion_lat": 0.0}, {"lat": 38.923406166666666, "lon": -77.05178616666667, "is_disabled": 0, "fusion_lon": 0.0, "is_reserved": 0, "name": "c46d7df826d95305a90aed366cdcceb6", "type": "electric_scooter", "bike_id": "c46d7df826d95305a90aed366cdcceb6", "rental_uris": {"ios": "https://dc.lft.to/lastmile_qr_scan", "android": "https://dc.lft.to/lastmile_qr_scan"}, "fusion_lat": 0.0}, {"lat": 38.92511233333333, "lon": -77.03801466666667, "is_disabled": 0, "fusion_lon": 0.0, "is_reserved": 0, "name": "c9dafc5183d6cae7ea3df903126d7de1", "type": "electric_scooter", "bike_id": "c9dafc5183d6cae7ea3df903126d7de1", "rental_uris": {"ios": "https://dc.lft.to/lastmile_qr_scan", "android": "https://dc.lft.to/lastmile_qr_scan"}, "fusion_lat": 0.0}, {"lat": 38.87358733333333, "lon": -77.00040366666667, "is_disabled": 0, "fusion_lon": 0.0, "is_reserved": 0, "name": "e2b47ed6b5f3d2c65b1aee80232342da", "type": "electric_scooter", "bike_id": "e2b47ed6b5f3d2c65b1aee80232342da", "rental_uris": {"ios": "https://dc.lft.to/lastmile_qr_scan", "android": "https://dc.lft.to/lastmile_qr_scan"}, "fusion_lat": 0.0}, {"lat": 39.099657, "lon": -77.18305983333333, "is_disabled": 0, "fusion_lon": 0.0, "is_reserved": 0, "name": "b36a2181ead4ad2d6098e43064b4f1b9", "type": "electric_bike", "bike_id": "b36a2181ead4ad2d6098e43064b4f1b9", "rental_uris": {"ios": "https://dc.lft.to/lastmile_qr_scan", "android": "https://dc.lft.to/lastmile_qr_scan"}, "fusion_lat": 0.0}, {"lat": 38.92653466666667, "lon": -77.03844533333333, "is_disabled": 0, "fusion_lon": 0.0, "is_reserved": 0, "name": "f0723470c37b401d13651309ae86cbc4", "type": "electric_scooter", "bike_id": "f0723470c37b401d13651309ae86cbc4", "rental_uris": {"ios": "https://dc.lft.to/lastmile_qr_scan", "android": "https://dc.lft.to/lastmile_qr_scan"}, "fusion_lat": 0.0}, {"lat": 38.89988983333333, "lon": -77.02867283333333, "is_disabled": 0, "fusion_lon": 0.0, "is_reserved": 0, "name": "eedd533f15d0d54fea0d66c92f7d70f6", "type": "electric_scooter", "bike_id": "eedd533f15d0d54fea0d66c92f7d70f6", "rental_uris": {"ios": "https://dc.lft.to/lastmile_qr_scan", "android": "https://dc.lft.to/lastmile_qr_scan"}, "fusion_lat": 0.0}, {"lat": 38.89883733333333, "lon": -77.01980083333333, "is_disabled": 0, "fusion_lon": 0.0, "is_reserved": 0, "name": "424dc25724bff68d9f6e9873a61fb3cb", "type": "electric_scooter", "bike_id": "424dc25724bff68d9f6e9873a61fb3cb", "rental_uris": {"ios": "https://dc.lft.to/lastmile_qr_scan", "android": "https://dc.lft.to/lastmile_qr_scan"}, "fusion_lat": 0.0}, {"lat": 38.91106283333333, "lon": -77.04544433333334, "is_disabled": 0, "fusion_lon": 0.0, "is_reserved": 0, "name": "4755f796e2c77578d388dd37fb24301a", "type": "electric_scooter", "bike_id": "4755f796e2c77578d388dd37fb24301a", "rental_uris": {"ios": "https://dc.lft.to/lastmile_qr_scan", "android": "https://dc.lft.to/lastmile_qr_scan"}, "fusion_lat": 0.0}, {"lat": 38.87557533333333, "lon": -77.00561716666667, "is_disabled": 0, "fusion_lon": 0.0, "is_reserved": 0, "name": "a3ec612304a62f4bc57cfc0acfd078e7", "type": "electric_scooter", "bike_id": "a3ec612304a62f4bc57cfc0acfd078e7", "rental_uris": {"ios": "https://dc.lft.to/lastmile_qr_scan", "android": "https://dc.lft.to/lastmile_qr_scan"}, "fusion_lat": 0.0}, {"lat": 38.892233166666664, "lon": -77.0450595, "is_disabled": 0, "fusion_lon": 0.0, "is_reserved": 0, "name": "de4d482f5a36325852128176cd6615b3", "type": "electric_scooter", "bike_id": "de4d482f5a36325852128176cd6615b3", "rental_uris": {"ios": "https://dc.lft.to/lastmile_qr_scan", "android": "https://dc.lft.to/lastmile_qr_scan"}, "fusion_lat": 0.0}, {"lat": 38.902766666666665, "lon": -77.04227583333333, "is_disabled": 0, "fusion_lon": 0.0, "is_reserved": 0, "name": "c8ad11c1fd537e715d09b380ce5e47a0", "type": "electric_scooter", "bike_id": "c8ad11c1fd537e715d09b380ce5e47a0", "rental_uris": {"ios": "https://dc.lft.to/lastmile_qr_scan", "android": "https://dc.lft.to/lastmile_qr_scan"}, "fusion_lat": 0.0}, {"lat": 38.90410216666667, "lon": -76.973354, "is_disabled": 0, "fusion_lon": 0.0, "is_reserved": 0, "name": "702ad384f1de343c8428048eb841410b", "type": "electric_scooter", "bike_id": "702ad384f1de343c8428048eb841410b", "rental_uris": {"ios": "https://dc.lft.to/lastmile_qr_scan", "android": "https://dc.lft.to/lastmile_qr_scan"}, "fusion_lat": 0.0}, {"lat": 38.92359233333333, "lon": -77.02978866666666, "is_disabled": 0, "fusion_lon": 0.0, "is_reserved": 0, "name": "b45e1548586139a0ea41c0b99bcad9c8", "type": "electric_scooter", "bike_id": "b45e1548586139a0ea41c0b99bcad9c8", "rental_uris": {"ios": "https://dc.lft.to/lastmile_qr_scan", "android": "https://dc.lft.to/lastmile_qr_scan"}, "fusion_lat": 0.0}, {"lat": 38.914570833333336, "lon": -77.00216933333333, "is_disabled": 0, "fusion_lon": 0.0, "is_reserved": 0, "name": "d476dc9c2fb3456b1d52e2d81a06db0b", "type": "electric_scooter", "bike_id": "d476dc9c2fb3456b1d52e2d81a06db0b", "rental_uris": {"ios": "https://dc.lft.to/lastmile_qr_scan", "android": "https://dc.lft.to/lastmile_qr_scan"}, "fusion_lat": 0.0}, {"lat": 38.950391, "lon": -77.027115, "is_disabled": 0, "fusion_lon": 0.0, "is_reserved": 0, "name": "ff2eec2826e589f93340bb936de67e34", "type": "electric_scooter", "bike_id": "ff2eec2826e589f93340bb936de67e34", "rental_uris": {"ios": "https://dc.lft.to/lastmile_qr_scan", "android": "https://dc.lft.to/lastmile_qr_scan"}, "fusion_lat": 0.0}, {"lat": 38.9188145, "lon": -77.044503, "is_disabled": 0, "fusion_lon": 0.0, "is_reserved": 0, "name": "728534f09922c397b0cf7974940ce5fd", "type": "electric_scooter", "bike_id": "728534f09922c397b0cf7974940ce5fd", "rental_uris": {"ios": "https://dc.lft.to/lastmile_qr_scan", "android": "https://dc.lft.to/lastmile_qr_scan"}, "fusion_lat": 0.0}, {"lat": 38.887442666666665, "lon": -77.01776316666667, "is_disabled": 0, "fusion_lon": 0.0, "is_reserved": 0, "name": "205cc9f3cc4c728f19b05a0b1ea8ac31", "type": "electric_scooter", "bike_id": "205cc9f3cc4c728f19b05a0b1ea8ac31", "rental_uris": {"ios": "https://dc.lft.to/lastmile_qr_scan", "android": "https://dc.lft.to/lastmile_qr_scan"}, "fusion_lat": 0.0}, {"lat": 38.907455666666664, "lon": -77.03575816666667, "is_disabled": 0, "fusion_lon": 0.0, "is_reserved": 0, "name": "4f13acb929d324c75d018fb0cbbe7c4d", "type": "electric_scooter", "bike_id": "4f13acb929d324c75d018fb0cbbe7c4d", "rental_uris": {"ios": "https://dc.lft.to/lastmile_qr_scan", "android": "https://dc.lft.to/lastmile_qr_scan"}, "fusion_lat": 0.0}, {"lat": 38.887603, "lon": -76.982907, "is_disabled": 0, "fusion_lon": 0.0, "is_reserved": 0, "name": "f03e913f307d95f62c81c389916c67ba", "type": "electric_scooter", "bike_id": "f03e913f307d95f62c81c389916c67ba", "rental_uris": {"ios": "https://dc.lft.to/lastmile_qr_scan", "android": "https://dc.lft.to/lastmile_qr_scan"}, "fusion_lat": 0.0}, {"lat": 38.915961, "lon": -77.01481, "is_disabled": 0, "fusion_lon": 0.0, "is_reserved": 0, "name": "248e69b0661fa10846fc9f4101d3a43c", "type": "electric_scooter", "bike_id": "248e69b0661fa10846fc9f4101d3a43c", "rental_uris": {"ios": "https://dc.lft.to/lastmile_qr_scan", "android": "https://dc.lft.to/lastmile_qr_scan"}, "fusion_lat": 0.0}, {"lat": 38.9321485, "lon": -77.0351845, "is_disabled": 0, "fusion_lon": 0.0, "is_reserved": 0, "name": "730e5e9d581811abb51790487257ad2f", "type": "electric_scooter", "bike_id": "730e5e9d581811abb51790487257ad2f", "rental_uris": {"ios": "https://dc.lft.to/lastmile_qr_scan", "android": "https://dc.lft.to/lastmile_qr_scan"}, "fusion_lat": 0.0}, {"lat": 38.9028005, "lon": -77.01787716666666, "is_disabled": 0, "fusion_lon": 0.0, "is_reserved": 0, "name": "bef9c8a6e5dc9a6883a0601d3456192a", "type": "electric_scooter", "bike_id": "bef9c8a6e5dc9a6883a0601d3456192a", "rental_uris": {"ios": "https://dc.lft.to/lastmile_qr_scan", "android": "https://dc.lft.to/lastmile_qr_scan"}, "fusion_lat": 0.0}, {"lat": 38.93630783333333, "lon": -77.0368575, "is_disabled": 0, "fusion_lon": 0.0, "is_reserved": 0, "name": "98ab6904ac4131da54d0b4ee6de81670", "type": "electric_scooter", "bike_id": "98ab6904ac4131da54d0b4ee6de81670", "rental_uris": {"ios": "https://dc.lft.to/lastmile_qr_scan", "android": "https://dc.lft.to/lastmile_qr_scan"}, "fusion_lat": 0.0}, {"lat": 38.916959, "lon": -77.03111983333334, "is_disabled": 0, "fusion_lon": 0.0, "is_reserved": 0, "name": "e4a74bce9ded8f020532a65e12cfcf27", "type": "electric_scooter", "bike_id": "e4a74bce9ded8f020532a65e12cfcf27", "rental_uris": {"ios": "https://dc.lft.to/lastmile_qr_scan", "android": "https://dc.lft.to/lastmile_qr_scan"}, "fusion_lat": 0.0}, {"lat": 38.9014465, "lon": -76.97424966666667, "is_disabled": 0, "fusion_lon": 0.0, "is_reserved": 0, "name": "135a712cf4324118e9bdb51f00d3764b", "type": "electric_scooter", "bike_id": "135a712cf4324118e9bdb51f00d3764b", "rental_uris": {"ios": "https://dc.lft.to/lastmile_qr_scan", "android": "https://dc.lft.to/lastmile_qr_scan"}, "fusion_lat": 0.0}, {"lat": 38.92457183333333, "lon": -76.99911483333334, "is_disabled": 0, "fusion_lon": 0.0, "is_reserved": 0, "name": "25df051f32edf175005e0598515d5524", "type": "electric_scooter", "bike_id": "25df051f32edf175005e0598515d5524", "rental_uris": {"ios": "https://dc.lft.to/lastmile_qr_scan", "android": "https://dc.lft.to/lastmile_qr_scan"}, "fusion_lat": 0.0}, {"lat": 38.9141625, "lon": -77.02096416666667, "is_disabled": 0, "fusion_lon": 0.0, "is_reserved": 0, "name": "7cc4b0aa2da74e318b1c10cb9e9765ca", "type": "electric_scooter", "bike_id": "7cc4b0aa2da74e318b1c10cb9e9765ca", "rental_uris": {"ios": "https://dc.lft.to/lastmile_qr_scan", "android": "https://dc.lft.to/lastmile_qr_scan"}, "fusion_lat": 0.0}, {"lat": 38.973749, "lon": -77.01272133333333, "is_disabled": 0, "fusion_lon": 0.0, "is_reserved": 0, "name": "7fe0ce7e18b54a8265a1d41ed1be06ee", "type": "electric_scooter", "bike_id": "7fe0ce7e18b54a8265a1d41ed1be06ee", "rental_uris": {"ios": "https://dc.lft.to/lastmile_qr_scan", "android": "https://dc.lft.to/lastmile_qr_scan"}, "fusion_lat": 0.0}, {"lat": 38.892982, "lon": -77.012322, "is_disabled": 0, "fusion_lon": 0.0, "is_reserved": 0, "name": "a9fd56efb186b69f070206242bec0292", "type": "electric_scooter", "bike_id": "a9fd56efb186b69f070206242bec0292", "rental_uris": {"ios": "https://dc.lft.to/lastmile_qr_scan", "android": "https://dc.lft.to/lastmile_qr_scan"}, "fusion_lat": 0.0}, {"lat": 38.93292066666667, "lon": -77.02317033333334, "is_disabled": 0, "fusion_lon": 0.0, "is_reserved": 0, "name": "398054d6f7db63cc03456965815a9294", "type": "electric_bike", "bike_id": "398054d6f7db63cc03456965815a9294", "rental_uris": {"ios": "https://dc.lft.to/lastmile_qr_scan", "android": "https://dc.lft.to/lastmile_qr_scan"}, "fusion_lat": 0.0}, {"lat": 38.91933266666667, "lon": -77.0706145, "is_disabled": 0, "fusion_lon": 0.0, "is_reserved": 0, "name": "0cfaee0253c44efba5848691febb39f2", "type": "electric_scooter", "bike_id": "0cfaee0253c44efba5848691febb39f2", "rental_uris": {"ios": "https://dc.lft.to/lastmile_qr_scan", "android": "https://dc.lft.to/lastmile_qr_scan"}, "fusion_lat": 0.0}, {"lat": 38.938475, "lon": -77.0723205, "is_disabled": 0, "fusion_lon": 0.0, "is_reserved": 0, "name": "dd2daa1a5de0f603218eaaa4d3e1be02", "type": "electric_scooter", "bike_id": "dd2daa1a5de0f603218eaaa4d3e1be02", "rental_uris": {"ios": "https://dc.lft.to/lastmile_qr_scan", "android": "https://dc.lft.to/lastmile_qr_scan"}, "fusion_lat": 0.0}, {"lat": 38.992097666666666, "lon": -77.03213483333333, "is_disabled": 0, "fusion_lon": 0.0, "is_reserved": 0, "name": "61a219603f7c23e7a3e6a0c6e5dd659d", "type": "electric_bike", "bike_id": "61a219603f7c23e7a3e6a0c6e5dd659d", "rental_uris": {"ios": "https://dc.lft.to/lastmile_qr_scan", "android": "https://dc.lft.to/lastmile_qr_scan"}, "fusion_lat": 0.0}, {"lat": 38.93580216666667, "lon": -77.108655, "is_disabled": 0, "fusion_lon": 0.0, "is_reserved": 0, "name": "f2ec4f4122ad23e0065927a68cd6068e", "type": "electric_bike", "bike_id": "f2ec4f4122ad23e0065927a68cd6068e", "rental_uris": {"ios": "https://dc.lft.to/lastmile_qr_scan", "android": "https://dc.lft.to/lastmile_qr_scan"}, "fusion_lat": 0.0}, {"lat": 38.906741, "lon": -76.9894525, "is_disabled": 0, "fusion_lon": 0.0, "is_reserved": 0, "name": "2e66102f32defd4ebf847909f84322ca", "type": "electric_scooter", "bike_id": "2e66102f32defd4ebf847909f84322ca", "rental_uris": {"ios": "https://dc.lft.to/lastmile_qr_scan", "android": "https://dc.lft.to/lastmile_qr_scan"}, "fusion_lat": 0.0}, {"lat": 38.966087, "lon": -77.02739016666666, "is_disabled": 0, "fusion_lon": 0.0, "is_reserved": 0, "name": "21a7123774e50d570e7bee336ea03247", "type": "electric_scooter", "bike_id": "21a7123774e50d570e7bee336ea03247", "rental_uris": {"ios": "https://dc.lft.to/lastmile_qr_scan", "android": "https://dc.lft.to/lastmile_qr_scan"}, "fusion_lat": 0.0}, {"lat": 38.9354225, "lon": -77.05747483333333, "is_disabled": 0, "fusion_lon": 0.0, "is_reserved": 0, "name": "b93afe07c4190455acde194039de853e", "type": "electric_scooter", "bike_id": "b93afe07c4190455acde194039de853e", "rental_uris": {"ios": "https://dc.lft.to/lastmile_qr_scan", "android": "https://dc.lft.to/lastmile_qr_scan"}, "fusion_lat": 0.0}, {"lat": 38.87650583333333, "lon": -77.01576616666667, "is_disabled": 0, "fusion_lon": 0.0, "is_reserved": 0, "name": "ea0d0ce15f2b34837b45f8500df00178", "type": "electric_scooter", "bike_id": "ea0d0ce15f2b34837b45f8500df00178", "rental_uris": {"ios": "https://dc.lft.to/lastmile_qr_scan", "android": "https://dc.lft.to/lastmile_qr_scan"}, "fusion_lat": 0.0}, {"lat": 38.920574333333334, "lon": -77.0339965, "is_disabled": 0, "fusion_lon": 0.0, "is_reserved": 0, "name": "98829f14cc62696caf92453a5fc07e53", "type": "electric_scooter", "bike_id": "98829f14cc62696caf92453a5fc07e53", "rental_uris": {"ios": "https://dc.lft.to/lastmile_qr_scan", "android": "https://dc.lft.to/lastmile_qr_scan"}, "fusion_lat": 0.0}, {"lat": 38.924760166666665, "lon": -77.02199883333333, "is_disabled": 0, "fusion_lon": 0.0, "is_reserved": 0, "name": "2a5891f8e0e6573aee12703c368c24b9", "type": "electric_scooter", "bike_id": "2a5891f8e0e6573aee12703c368c24b9", "rental_uris": {"ios": "https://dc.lft.to/lastmile_qr_scan", "android": "https://dc.lft.to/lastmile_qr_scan"}, "fusion_lat": 0.0}, {"lat": 38.9429335, "lon": -77.02171966666667, "is_disabled": 0, "fusion_lon": 0.0, "is_reserved": 0, "name": "a5bbd1a41c062d6fc1cc000a9deffd79", "type": "electric_scooter", "bike_id": "a5bbd1a41c062d6fc1cc000a9deffd79", "rental_uris": {"ios": "https://dc.lft.to/lastmile_qr_scan", "android": "https://dc.lft.to/lastmile_qr_scan"}, "fusion_lat": 0.0}, {"lat": 38.91679, "lon": -77.02277716666667, "is_disabled": 0, "fusion_lon": 0.0, "is_reserved": 0, "name": "2e4ef23744534e30e434a14e32a6dc5a", "type": "electric_scooter", "bike_id": "2e4ef23744534e30e434a14e32a6dc5a", "rental_uris": {"ios": "https://dc.lft.to/lastmile_qr_scan", "android": "https://dc.lft.to/lastmile_qr_scan"}, "fusion_lat": 0.0}, {"lat": 38.9309935, "lon": -77.02475283333334, "is_disabled": 0, "fusion_lon": 0.0, "is_reserved": 0, "name": "0bace8c0bf699090b464ccc1dc7b8c10", "type": "electric_scooter", "bike_id": "0bace8c0bf699090b464ccc1dc7b8c10", "rental_uris": {"ios": "https://dc.lft.to/lastmile_qr_scan", "android": "https://dc.lft.to/lastmile_qr_scan"}, "fusion_lat": 0.0}, {"lat": 38.9075785, "lon": -77.03582916666667, "is_disabled": 0, "fusion_lon": 0.0, "is_reserved": 0, "name": "f88676df0d50a5bd1269e1b5095725d0", "type": "electric_scooter", "bike_id": "f88676df0d50a5bd1269e1b5095725d0", "rental_uris": {"ios": "https://dc.lft.to/lastmile_qr_scan", "android": "https://dc.lft.to/lastmile_qr_scan"}, "fusion_lat": 0.0}, {"lat": 38.8393315, "lon": -77.07903766666666, "is_disabled": 0, "fusion_lon": 0.0, "is_reserved": 0, "name": "65de904495705899cc63d85ad163d96e", "type": "electric_bike", "bike_id": "65de904495705899cc63d85ad163d96e", "rental_uris": {"ios": "https://dc.lft.to/lastmile_qr_scan", "android": "https://dc.lft.to/lastmile_qr_scan"}, "fusion_lat": 0.0}, {"lat": 38.9154295, "lon": -77.037906, "is_disabled": 0, "fusion_lon": 0.0, "is_reserved": 0, "name": "d407f35e3947b453f85a819cf2b82699", "type": "electric_scooter", "bike_id": "d407f35e3947b453f85a819cf2b82699", "rental_uris": {"ios": "https://dc.lft.to/lastmile_qr_scan", "android": "https://dc.lft.to/lastmile_qr_scan"}, "fusion_lat": 0.0}, {"lat": 38.91824616666667, "lon": -77.03210316666667, "is_disabled": 0, "fusion_lon": 0.0, "is_reserved": 0, "name": "7a96d16c18ad510113aff1e32802bd02", "type": "electric_scooter", "bike_id": "7a96d16c18ad510113aff1e32802bd02", "rental_uris": {"ios": "https://dc.lft.to/lastmile_qr_scan", "android": "https://dc.lft.to/lastmile_qr_scan"}, "fusion_lat": 0.0}, {"lat": 38.92738833333333, "lon": -77.02253866666666, "is_disabled": 0, "fusion_lon": 0.0, "is_reserved": 0, "name": "c626825c6aa3dbcdcf633065c5caf619", "type": "electric_scooter", "bike_id": "c626825c6aa3dbcdcf633065c5caf619", "rental_uris": {"ios": "https://dc.lft.to/lastmile_qr_scan", "android": "https://dc.lft.to/lastmile_qr_scan"}, "fusion_lat": 0.0}, {"lat": 38.905600666666665, "lon": -77.00187533333333, "is_disabled": 0, "fusion_lon": 0.0, "is_reserved": 0, "name": "52dc4420287b6adebeedb38eddfd3c17", "type": "electric_scooter", "bike_id": "52dc4420287b6adebeedb38eddfd3c17", "rental_uris": {"ios": "https://dc.lft.to/lastmile_qr_scan", "android": "https://dc.lft.to/lastmile_qr_scan"}, "fusion_lat": 0.0}, {"lat": 38.887589, "lon": -76.99789866666667, "is_disabled": 0, "fusion_lon": 0.0, "is_reserved": 0, "name": "13826f0ff73002ffe12f271e86635f4e", "type": "electric_scooter", "bike_id": "13826f0ff73002ffe12f271e86635f4e", "rental_uris": {"ios": "https://dc.lft.to/lastmile_qr_scan", "android": "https://dc.lft.to/lastmile_qr_scan"}, "fusion_lat": 0.0}, {"lat": 38.91629366666667, "lon": -77.02406816666667, "is_disabled": 0, "fusion_lon": 0.0, "is_reserved": 0, "name": "2a0e2a1ee36c3e9b1cef9c4ed36556db", "type": "electric_scooter", "bike_id": "2a0e2a1ee36c3e9b1cef9c4ed36556db", "rental_uris": {"ios": "https://dc.lft.to/lastmile_qr_scan", "android": "https://dc.lft.to/lastmile_qr_scan"}, "fusion_lat": 0.0}, {"lat": 38.8871515, "lon": -77.0284325, "is_disabled": 0, "fusion_lon": 0.0, "is_reserved": 0, "name": "19c5bd20b3f6a43b45f451805320d657", "type": "electric_scooter", "bike_id": "19c5bd20b3f6a43b45f451805320d657", "rental_uris": {"ios": "https://dc.lft.to/lastmile_qr_scan", "android": "https://dc.lft.to/lastmile_qr_scan"}, "fusion_lat": 0.0}, {"lat": 38.90560166666667, "lon": -77.04165016666667, "is_disabled": 0, "fusion_lon": 0.0, "is_reserved": 0, "name": "4207cb7823573eecb94176418bdc6dfa", "type": "electric_scooter", "bike_id": "4207cb7823573eecb94176418bdc6dfa", "rental_uris": {"ios": "https://dc.lft.to/lastmile_qr_scan", "android": "https://dc.lft.to/lastmile_qr_scan"}, "fusion_lat": 0.0}, {"lat": 38.90270116666667, "lon": -77.00327616666667, "is_disabled": 0, "fusion_lon": 0.0, "is_reserved": 0, "name": "d8fe7a404c247edb03f09449abf61adc", "type": "electric_scooter", "bike_id": "d8fe7a404c247edb03f09449abf61adc", "rental_uris": {"ios": "https://dc.lft.to/lastmile_qr_scan", "android": "https://dc.lft.to/lastmile_qr_scan"}, "fusion_lat": 0.0}, {"lat": 38.878668166666664, "lon": -76.96258383333333, "is_disabled": 0, "fusion_lon": 0.0, "is_reserved": 0, "name": "21e016a837a80b1e635e3f080552e4fe", "type": "electric_scooter", "bike_id": "21e016a837a80b1e635e3f080552e4fe", "rental_uris": {"ios": "https://dc.lft.to/lastmile_qr_scan", "android": "https://dc.lft.to/lastmile_qr_scan"}, "fusion_lat": 0.0}, {"lat": 38.89925566666667, "lon": -77.05002566666667, "is_disabled": 0, "fusion_lon": 0.0, "is_reserved": 0, "name": "75fb37b72fb15670bc671f05d2604a16", "type": "electric_scooter", "bike_id": "75fb37b72fb15670bc671f05d2604a16", "rental_uris": {"ios": "https://dc.lft.to/lastmile_qr_scan", "android": "https://dc.lft.to/lastmile_qr_scan"}, "fusion_lat": 0.0}, {"lat": 38.88823216666667, "lon": -76.97718233333333, "is_disabled": 0, "fusion_lon": 0.0, "is_reserved": 0, "name": "44eb5bbdbe11b0d733eed8b04355feaf", "type": "electric_scooter", "bike_id": "44eb5bbdbe11b0d733eed8b04355feaf", "rental_uris": {"ios": "https://dc.lft.to/lastmile_qr_scan", "android": "https://dc.lft.to/lastmile_qr_scan"}, "fusion_lat": 0.0}, {"lat": 38.92130616666667, "lon": -77.01805216666666, "is_disabled": 0, "fusion_lon": 0.0, "is_reserved": 0, "name": "11c9615c764f7f1114344c7a139a86cc", "type": "electric_scooter", "bike_id": "11c9615c764f7f1114344c7a139a86cc", "rental_uris": {"ios": "https://dc.lft.to/lastmile_qr_scan", "android": "https://dc.lft.to/lastmile_qr_scan"}, "fusion_lat": 0.0}, {"lat": 38.916812, "lon": -77.02284083333333, "is_disabled": 0, "fusion_lon": 0.0, "is_reserved": 0, "name": "b5a23178e9cac3c632200acf577bac12", "type": "electric_scooter", "bike_id": "b5a23178e9cac3c632200acf577bac12", "rental_uris": {"ios": "https://dc.lft.to/lastmile_qr_scan", "android": "https://dc.lft.to/lastmile_qr_scan"}, "fusion_lat": 0.0}, {"lat": 38.955944833333334, "lon": -77.01015866666667, "is_disabled": 0, "fusion_lon": 0.0, "is_reserved": 0, "name": "a85a0908118ffa3209ac17be06991f98", "type": "electric_bike", "bike_id": "a85a0908118ffa3209ac17be06991f98", "rental_uris": {"ios": "https://dc.lft.to/lastmile_qr_scan", "android": "https://dc.lft.to/lastmile_qr_scan"}, "fusion_lat": 0.0}, {"lat": 38.89545833333333, "lon": -76.9833775, "is_disabled": 0, "fusion_lon": 0.0, "is_reserved": 0, "name": "ccaeee8246c77041a9ec587d5f72e215", "type": "electric_scooter", "bike_id": "ccaeee8246c77041a9ec587d5f72e215", "rental_uris": {"ios": "https://dc.lft.to/lastmile_qr_scan", "android": "https://dc.lft.to/lastmile_qr_scan"}, "fusion_lat": 0.0}, {"lat": 38.91597333333333, "lon": -77.0120995, "is_disabled": 0, "fusion_lon": 0.0, "is_reserved": 0, "name": "6ce104f1426b897a560c2520196da225", "type": "electric_scooter", "bike_id": "6ce104f1426b897a560c2520196da225", "rental_uris": {"ios": "https://dc.lft.to/lastmile_qr_scan", "android": "https://dc.lft.to/lastmile_qr_scan"}, "fusion_lat": 0.0}, {"lat": 38.91568383333333, "lon": -77.020081, "is_disabled": 0, "fusion_lon": 0.0, "is_reserved": 0, "name": "a8125ecd8ee2f3f40d6d91bcb244f153", "type": "electric_scooter", "bike_id": "a8125ecd8ee2f3f40d6d91bcb244f153", "rental_uris": {"ios": "https://dc.lft.to/lastmile_qr_scan", "android": "https://dc.lft.to/lastmile_qr_scan"}, "fusion_lat": 0.0},