{"data": {"bikes": [{"is_disabled": 0, "is_reserved": 0, "fusion_lat": 0.0, "lat": 38.953460666666665, "fusion_lon": 0.0, "rental_uris": {"ios": "https://dc.lft.to/lastmile_qr_scan", "android": "https://dc.lft.to/lastmile_qr_scan"}, "lon": -77.08155566666667, "bike_id": "b0a00d152d04d1ed7161507b4152f218", "type": "electric_scooter", "name": "b0a00d152d04d1ed7161507b4152f218"}, {"is_disabled": 0, "is_reserved": 0, "fusion_lat": 0.0, "lat": 38.9218295, "fusion_lon": 0.0, "rental_uris": {"ios": "https://dc.lft.to/lastmile_qr_scan", "android": "https://dc.lft.to/lastmile_qr_scan"}, "lon": -77.04016016666667, "bike_id": "b8f86e26cd570ae690351ef614435075", "type": "electric_scooter", "name": "b8f86e26cd570ae690351ef614435075"}, {"is_disabled": 0, "is_reserved": 0, "fusion_lat": 0.0, "lat": 38.92994066666667, "fusion_lon": 0.0, "rental_uris": {"ios": "https://dc.lft.to/lastmile_qr_scan", "android": "https://dc.lft.to/lastmile_qr_scan"}, "lon": -77.03797466666667, "bike_id": "9f3296d23e572f525b295062f8555468", "type": "electric_scooter", "name": "9f3296d23e572f525b295062f8555468"}, {"is_disabled": 0, "is_reserved": 0, "fusion_lat": 0.0, "lat": 39.084752333333334, "fusion_lon": 0.0, "rental_uris": {"ios": "https://dc.lft.to/lastmile_qr_scan", "android": "https://dc.lft.to/lastmile_qr_scan"}, "lon": -76.95065333333334, "bike_id": "369466373f60f9b6d570a700d8400199", "type": "electric_bike", "name": "369466373f60f9b6d570a700d8400199"}, {"is_disabled": 0, "is_reserved": 0, "fusion_lat": 0.0, "lat": 38.888848833333334, "fusion_lon": 0.0, "rental_uris": {"ios": "https://dc.lft.to/lastmile_qr_scan", "android": "https://dc.lft.to/lastmile_qr_scan"}, "lon": -76.99027783333334, "bike_id": "6de300b2a3c56e68a99b10a51341b2f5", "type": "electric_scooter", "name": "6de300b2a3c56e68a99b10a51341b2f5"}, {"is_disabled": 0, "is_reserved": 0, "fusion_lat": 0.0, "lat": 38.903118166666665, "fusion_lon": 0.0, "rental_uris": {"ios": "https://dc.lft.to/lastmile_qr_scan", "android": "https://dc.lft.to/lastmile_qr_scan"}, "lon": -77.03201766666666, "bike_id": "ca518909b62b65d410586d6d1c8710de", "type": "electric_scooter", "name": "ca518909b62b65d410586d6d1c8710de"}, {"is_disabled": 0, "is_reserved": 0, "fusion_lat": 0.0, "lat": 38.905303, "fusion_lon": 0.0, "rental_uris": {"ios": "https://dc.lft.to/lastmile_qr_scan", "android": "https://dc.lft.to/lastmile_qr_scan"}, "lon": -77.00705333333333, "bike_id": "86818a715ffc0a1de2e68b51499c0f90", "type": "electric_scooter", "name": "86818a715ffc0a1de2e68b51499c0f90"}, {"is_disabled": 0, "is_reserved": 0, "fusion_lat": 0.0, "lat": 38.932761, "fusion_lon": 0.0, "rental_uris": {"ios": "https://dc.lft.to/lastmile_qr_scan", "android": "https://dc.lft.to/lastmile_qr_scan"}, "lon": -77.041354, "bike_id": "8ceaab4fb6843359e58776fb5b768fa9", "type": "electric_scooter", "name": "8ceaab4fb6843359e58776fb5b768fa9"}, {"is_disabled": 0, "is_reserved": 0, "fusion_lat": 0.0, "lat": 38.923496166666666, "fusion_lon": 0.0, "rental_uris": {"ios": "https://dc.lft.to/lastmile_qr_scan", "android": "https://dc.lft.to/lastmile_qr_scan"}, "lon": -76.97207083333333, "bike_id": "b95c1ba0a31eb493905be4d53d752799", "type": "electric_scooter", "name": "b95c1ba0a31eb493905be4d53d752799"}, {"is_disabled": 0, "is_reserved": 0, "fusion_lat": 0.0, "lat": 38.89967166666667, "fusion_lon": 0.0, "rental_uris": {"ios": "https://dc.lft.to/lastmile_qr_scan", "android": "https://dc.lft.to/lastmile_qr_scan"}, "lon": -76.92619033333334, "bike_id": "3c2f2a6ff2ab7d86796973a8e42e7bf2", "type": "electric_scooter", "name": "3c2f2a6ff2ab7d86796973a8e42e7bf2"}, {"is_disabled": 0, "is_reserved": 0, "fusion_lat": 0.0, "lat": 38.8946435, "fusion_lon": 0.0, "rental_uris": {"ios": "https://dc.lft.to/lastmile_qr_scan", "android": "https://dc.lft.to/lastmile_qr_scan"}, "lon": -77.00230783333333, "bike_id": "4bdcfb40fc105028bf69eadecf0145b9", "type": "electric_scooter", "name": "4bdcfb40fc105028bf69eadecf0145b9"}, {"is_disabled": 0, "is_reserved": 0, "fusion_lat": 0.0, "lat": 39.02515866666667, "fusion_lon": 0.0, "rental_uris": {"ios": "https://dc.lft.to/lastmile_qr_scan", "android": "https://dc.lft.to/lastmile_qr_scan"}, "lon": -77.0196655, "bike_id": "9292e51393a29f3acbe1b74838059e53", "type": "electric_bike", "name": "9292e51393a29f3acbe1b74838059e53"}, {"is_disabled": 0, "is_reserved": 0, "fusion_lat": 0.0, "lat": 38.88103383333333, "fusion_lon": 0.0, "rental_uris": {"ios": "https://dc.lft.to/lastmile_qr_scan", "android": "https://dc.lft.to/lastmile_qr_scan"}, "lon": -77.01231266666667, "bike_id": "4e28c7aaa85a201f9a2511889b9e4a39", "type": "electric_scooter", "name": "4e28c7aaa85a201f9a2511889b9e4a39"}, {"is_disabled": 0, "is_reserved": 0, "fusion_lat": 0.0, "lat": 38.90761166666667, "fusion_lon": 0.0, "rental_uris": {"ios": "https://dc.lft.to/lastmile_qr_scan", "android": "https://dc.lft.to/lastmile_qr_scan"}, "lon": -77.045331, "bike_id": "b2b7fbb18d0b58554ccd47042d459ffa", "type": "electric_scooter", "name": "b2b7fbb18d0b58554ccd47042d459ffa"}, {"is_disabled": 0, "is_reserved": 0, "fusion_lat": 0.0, "lat": 38.907674166666666, "fusion_lon": 0.0, "rental_uris": {"ios": "https://dc.lft.to/lastmile_qr_scan", "android": "https://dc.lft.to/lastmile_qr_scan"}, "lon": -77.00401116666667, "bike_id": "4d50490335e9432b367f0c41e54b70a9", "type": "electric_bike", "name": "4d50490335e9432b367f0c41e54b70a9"}, {"is_disabled": 0, "is_reserved": 0, "fusion_lat": 0.0, "lat": 38.912021, "fusion_lon": 0.0, "rental_uris": {"ios": "https://dc.lft.to/lastmile_qr_scan", "android": "https://dc.lft.to/lastmile_qr_scan"}, "lon": -77.00084233333334, "bike_id": "a0fb7d18bee3548faeefd6bbfb507306", "type": "electric_scooter", "name": "a0fb7d18bee3548faeefd6bbfb507306"}, {"is_disabled": 0, "is_reserved": 0, "fusion_lat": 0.0, "lat": 38.8773675, "fusion_lon": 0.0, "rental_uris": {"ios": "https://dc.lft.to/lastmile_qr_scan", "android": "https://dc.lft.to/lastmile_qr_scan"}, "lon": -77.148734, "bike_id": "d0c1858a613dfefba18cf5b1b56ed927", "type": "electric_bike", "name": "d0c1858a613dfefba18cf5b1b56ed927"}, {"is_disabled": 0, "is_reserved": 0, "fusion_lat": 0.0, "lat": 38.88523466666667, "fusion_lon": 0.0, "rental_uris": {"ios": "https://dc.lft.to/lastmile_qr_scan", "android": "https://dc.lft.to/lastmile_qr_scan"}, "lon": -76.99611416666667, "bike_id": "addc91ecaaaae2fba1226a2a83331936", "type": "electric_scooter", "name": "addc91ecaaaae2fba1226a2a83331936"}, {"is_disabled": 0, "is_reserved": 0, "fusion_lat": 0.0, "lat": 38.8651605, "fusion_lon": 0.0, "rental_uris": {"ios": "https://dc.lft.to/lastmile_qr_scan", "android": "https://dc.lft.to/lastmile_qr_scan"}, "lon": -76.97320316666666, "bike_id": "e748d24fa269fce340b434bbefd74ded", "type": "electric_bike", "name": "e748d24fa269fce340b434bbefd74ded"}, {"is_disabled": 0, "is_reserved": 0, "fusion_lat": 0.0, "lat": 39.00532233333333, "fusion_lon": 0.0, "rental_uris": {"ios": "https://dc.lft.to/lastmile_qr_scan", "android": "https://dc.lft.to/lastmile_qr_scan"}, "lon": -77.10397666666667, "bike_id": "5c9f82aa7e84f0adc15acea9559e6bbf", "type": "electric_bike", "name": "5c9f82aa7e84f0adc15acea9559e6bbf"}, {"is_disabled": 0, "is_reserved": 0, "fusion_lat": 0.0, "lat": 38.920333, "fusion_lon": 0.0, "rental_uris": {"ios": "https://dc.lft.to/lastmile_qr_scan", "android": "https://dc.lft.to/lastmile_qr_scan"}, "lon": -76.97955583333334, "bike_id": "9c1e2b51e0701064389d9e98ebf3c643", "type": "electric_bike", "name": "9c1e2b51e0701064389d9e98ebf3c643"}, {"is_disabled": 0, "is_reserved": 0, "fusion_lat": 0.0, "lat": 38.93971116666667, "fusion_lon": 0.0, "rental_uris": {"ios": "https://dc.lft.to/lastmile_qr_scan", "android": "https://dc.lft.to/lastmile_qr_scan"}, "lon": -77.0343095, "bike_id": "d4cb632bfec30dcf382185b8983dd81b", "type": "electric_scooter", "name": "d4cb632bfec30dcf382185b8983dd81b"}, {"is_disabled": 0, "is_reserved": 0, "fusion_lat": 0.0, "lat": 38.9291615, "fusion_lon": 0.0, "rental_uris": {"ios": "https://dc.lft.to/lastmile_qr_scan", "android": "https://dc.lft.to/lastmile_qr_scan"}, "lon": -77.032228, "bike_id": "a06f491fd2e9aea58aad6bd5658724d3", "type": "electric_scooter", "name": "a06f491fd2e9aea58aad6bd5658724d3"}, {"is_disabled": 0, "is_reserved": 0, "fusion_lat": 0.0, "lat": 38.913335000000004, "fusion_lon": 0.0, "rental_uris": {"ios": "https://dc.lft.to/lastmile_qr_scan", "android": "https://dc.lft.to/lastmile_qr_scan"}, "lon": -77.04339883333333, "bike_id": "eda09505adb193823473bd757b3dd5cb", "type": "electric_scooter", "name": "eda09505adb193823473bd757b3dd5cb"}, {"is_disabled": 0, "is_reserved": 0, "fusion_lat": 0.0, "lat": 38.93076833333333, "fusion_lon": 0.0, "rental_uris": {"ios": "https://dc.lft.to/lastmile_qr_scan", "android": "https://dc.lft.to/lastmile_qr_scan"}, "lon": -77.07762233333334, "bike_id": "8fc943b62f3b460872fb538e069fd82a", "type": "electric_scooter", "name": "8fc943b62f3b460872fb538e069fd82a"}, {"is_disabled": 0, "is_reserved": 0, "fusion_lat": 0.0, "lat": 38.892267833333335, "fusion_lon": 0.0, "rental_uris": {"ios": "https://dc.lft.to/lastmile_qr_scan", "android": "https://dc.lft.to/lastmile_qr_scan"}, "lon": -77.05004933333333, "bike_id": "dba6512c56197b81b4ac4602c6e13e85", "type": "electric_scooter", "name": "dba6512c56197b81b4ac4602c6e13e85"}, {"is_disabled": 0, "is_reserved": 0, "fusion_lat": 0.0, "lat": 39.003771, "fusion_lon": 0.0, "rental_uris": {"ios": "https://dc.lft.to/lastmile_qr_scan", "android": "https://dc.lft.to/lastmile_qr_scan"}, "lon": -77.0129035, "bike_id": "c9935d49fcb777640881b44b4ffaa7f0", "type": "electric_bike", "name": "c9935d49fcb777640881b44b4ffaa7f0"}, {"is_disabled": 0, "is_reserved": 0, "fusion_lat": 0.0, "lat": 38.925770666666665, "fusion_lon": 0.0, "rental_uris": {"ios": "https://dc.lft.to/lastmile_qr_scan", "android": "https://dc.lft.to/lastmile_qr_scan"}, "lon": -76.994952, "bike_id": "442f9cf78fd6363a979e02a1ccc49f17", "type": "electric_scooter", "name": "442f9cf78fd6363a979e02a1ccc49f17"}, {"is_disabled": 0, "is_reserved": 0, "fusion_lat": 0.0, "lat": 38.916799166666664, "fusion_lon": 0.0, "rental_uris": {"ios": "https://dc.lft.to/lastmile_qr_scan", "android": "https://dc.lft.to/lastmile_qr_scan"}, "lon": -77.095758, "bike_id": "49f91cbd27ab5fd9f463de7e5ed77753", "type": "electric_scooter", "name": "49f91cbd27ab5fd9f463de7e5ed77753"}, {"is_disabled": 0, "is_reserved": 0, "fusion_lat": 0.0, "lat": 38.920679666666665, "fusion_lon": 0.0, "rental_uris": {"ios": "https://dc.lft.to/lastmile_qr_scan", "android": "https://dc.lft.to/lastmile_qr_scan"}, "lon": -77.0235555, "bike_id": "bd068d327b039e1cb6d8aca3a9b40515", "type": "electric_scooter", "name": "bd068d327b039e1cb6d8aca3a9b40515"}, {"is_disabled": 0, "is_reserved": 0, "fusion_lat": 0.0, "lat": 38.91684516666667, "fusion_lon": 0.0, "rental_uris": {"ios": "https://dc.lft.to/lastmile_qr_scan", "android": "https://dc.lft.to/lastmile_qr_scan"}, "lon": -77.02941466666667, "bike_id": "c324a67f6297659c100e7e6ec7036a69", "type": "electric_scooter", "name": "c324a67f6297659c100e7e6ec7036a69"}, {"is_disabled": 0, "is_reserved": 0, "fusion_lat": 0.0, "lat": 38.924854333333336, "fusion_lon": 0.0, "rental_uris": {"ios": "https://dc.lft.to/lastmile_qr_scan", "android": "https://dc.lft.to/lastmile_qr_scan"}, "lon": -77.02659716666666, "bike_id": "aed5187537b3e990eca97de6950c37a1", "type": "electric_scooter", "name": "aed5187537b3e990eca97de6950c37a1"}, {"is_disabled": 0, "is_reserved": 0, "fusion_lat": 0.0, "lat": 38.935333666666665, "fusion_lon": 0.0, "rental_uris": {"ios": "https://dc.lft.to/lastmile_qr_scan", "android": "https://dc.lft.to/lastmile_qr_scan"}, "lon": -77.023503, "bike_id": "5f6d71480aec31c0c8d861d87fd6ba70", "type": "electric_scooter", "name": "5f6d71480aec31c0c8d861d87fd6ba70"}, {"is_disabled": 0, "is_reserved": 0, "fusion_lat": 0.0, "lat": 38.92810016666667, "fusion_lon": 0.0, "rental_uris": {"ios": "https://dc.lft.to/lastmile_qr_scan", "android": "https://dc.lft.to/lastmile_qr_scan"}, "lon": -77.04357833333333, "bike_id": "7e66eba740ada7d7e407c37b2217010f", "type": "electric_scooter", "name": "7e66eba740ada7d7e407c37b2217010f"}, {"is_disabled": 0, "is_reserved": 0, "fusion_lat": 0.0, "lat": 38.928465333333335, "fusion_lon": 0.0, "rental_uris": {"ios": "https://dc.lft.to/lastmile_qr_scan", "android": "https://dc.lft.to/lastmile_qr_scan"}, "lon": -77.03609183333333, "bike_id": "7a395049b31971754ff94457418a0700", "type": "electric_scooter", "name": "7a395049b31971754ff94457418a0700"}, {"is_disabled": 0, "is_reserved": 0, "fusion_lat": 0.0, "lat": 38.9413395, "fusion_lon": 0.0, "rental_uris": {"ios": "https://dc.lft.to/lastmile_qr_scan", "android": "https://dc.lft.to/lastmile_qr_scan"}, "lon": -77.02318283333334, "bike_id": "7ac89bcb9f8ca3313349173a7f182cbd", "type": "electric_scooter", "name": "7ac89bcb9f8ca3313349173a7f182cbd"}, {"is_disabled": 0, "is_reserved": 0, "fusion_lat": 0.0, "lat": 38.922093333333336, "fusion_lon": 0.0, "rental_uris": {"ios": "https://dc.lft.to/lastmile_qr_scan", "android": "https://dc.lft.to/lastmile_qr_scan"}, "lon": -77.03780333333333, "bike_id": "7efb8514cc12d9a0166ca575c292f814", "type": "electric_scooter", "name": "7efb8514cc12d9a0166ca575c292f814"}, {"is_disabled": 0, "is_reserved": 0, "fusion_lat": 0.0, "lat": 38.915555, "fusion_lon": 0.0, "rental_uris": {"ios": "https://dc.lft.to/lastmile_qr_scan", "android": "https://dc.lft.to/lastmile_qr_scan"}, "lon": -77.054061, "bike_id": "933379862ff2dc5ecb1847c6b8fa5208", "type": "electric_scooter", "name": "933379862ff2dc5ecb1847c6b8fa5208"}, {"is_disabled": 0, "is_reserved": 0, "fusion_lat": 0.0, "lat": 38.89235333333333, "fusion_lon": 0.0, "rental_uris": {"ios": "https://dc.lft.to/lastmile_qr_scan", "android": "https://dc.lft.to/lastmile_qr_scan"}, "lon": -77.03350983333333, "bike_id": "7e7bc54ac48074c8071d563c91de675b", "type": "electric_scooter", "name": "7e7bc54ac48074c8071d563c91de675b"}, {"is_disabled": 0, "is_reserved": 0, "fusion_lat": 0.0, "lat": 38.8908095, "fusion_lon": 0.0, "rental_uris": {"ios": "https://dc.lft.to/lastmile_qr_scan", "android": "https://dc.lft.to/lastmile_qr_scan"}, "lon": -77.04043283333333, "bike_id": "3348ec1d098a2d3a6b4b0b8e22f8b33f", "type": "electric_scooter", "name": "3348ec1d098a2d3a6b4b0b8e22f8b33f"}, {"is_disabled": 0, "is_reserved": 0, "fusion_lat": 0.0, "lat": 38.9119895, "fusion_lon": 0.0, "rental_uris": {"ios": "https://dc.lft.to/lastmile_qr_scan", "android": "https://dc.lft.to/lastmile_qr_scan"}, "lon": -77.02101633333334, "bike_id": "ca9552c26a216ef228f943982fdeaa53", "type": "electric_scooter", "name": "ca9552c26a216ef228f943982fdeaa53"}, {"is_disabled": 0, "is_reserved": 0, "fusion_lat": 0.0, "lat": 38.91819616666667, "fusion_lon": 0.0, "rental_uris": {"ios": "https://dc.lft.to/lastmile_qr_scan", "android": "https://dc.lft.to/lastmile_qr_scan"}, "lon": -77.02525983333334, "bike_id": "d05a11fe0d411407c03e15c8c545dba7", "type": "electric_scooter", "name": "d05a11fe0d411407c03e15c8c545dba7"}, {"is_disabled": 0, "is_reserved": 0, "fusion_lat": 0.0, "lat": 38.930836166666666, "fusion_lon": 0.0, "rental_uris": {"ios": "https://dc.lft.to/lastmile_qr_scan", "android": "https://dc.lft.to/lastmile_qr_scan"}, "lon": -77.031969, "bike_id": "d76b9d37aeea4a6fcfe4a860300f0f85", "type": "electric_scooter", "name": "d76b9d37aeea4a6fcfe4a860300f0f85"}, {"is_disabled": 0, "is_reserved": 0, "fusion_lat": 0.0, "lat": 38.921617166666664, "fusion_lon": 0.0, "rental_uris": {"ios": "https://dc.lft.to/lastmile_qr_scan", "android": "https://dc.lft.to/lastmile_qr_scan"}, "lon": -77.03663766666666, "bike_id": "c4e915db210faba6cde42ebd8ac3a28b", "type": "electric_scooter", "name": "c4e915db210faba6cde42ebd8ac3a28b"}, {"is_disabled": 0, "is_reserved": 0, "fusion_lat": 0.0, "lat": 38.91786116666667, "fusion_lon": 0.0, "rental_uris": {"ios": "https://dc.lft.to/lastmile_qr_scan", "android": "https://dc.lft.to/lastmile_qr_scan"}, "lon": -77.02302316666666, "bike_id": "7cc2fd03af8c0307a2cc7f7e0f865457", "type": "electric_scooter", "name": "7cc2fd03af8c0307a2cc7f7e0f865457"}, {"is_disabled": 0, "is_reserved": 0, "fusion_lat": 0.0, "lat": 38.896096, "fusion_lon": 0.0, "rental_uris": {"ios": "https://dc.lft.to/lastmile_qr_scan", "android": "https://dc.lft.to/lastmile_qr_scan"}, "lon": -77.02144066666666, "bike_id": "93300c412422426684ec6fd4cac65098", "type": "electric_scooter", "name": "93300c412422426684ec6fd4cac65098"}, {"is_disabled": 0, "is_reserved": 0, "fusion_lat": 0.0, "lat": 38.917674166666664, "fusion_lon": 0.0, "rental_uris": {"ios": "https://dc.lft.to/lastmile_qr_scan", "android": "https://dc.lft.to/lastmile_qr_scan"}, "lon": -77.01493666666667, "bike_id": "35c3e39098431e91b1c499f628361100", "type": "electric_scooter", "name": "35c3e39098431e91b1c499f628361100"}, {"is_disabled": 0, "is_reserved": 0, "fusion_lat": 0.0, "lat": 38.92526766666667, "fusion_lon": 0.0, "rental_uris": {"ios": "https://dc.lft.to/lastmile_qr_scan", "android": "https://dc.lft.to/lastmile_qr_scan"}, "lon": -77.0256305, "bike_id": "4185de0c9d7619ad7729d0fc16ed05d8", "type": "electric_scooter", "name": "4185de0c9d7619ad7729d0fc16ed05d8"}, {"is_disabled": 0, "is_reserved": 0, "fusion_lat": 0.0, "lat": 38.949751166666665, "fusion_lon": 0.0, "rental_uris": {"ios": "https://dc.lft.to/lastmile_qr_scan", "android": "https://dc.lft.to/lastmile_qr_scan"}, "lon": -77.0244645, "bike_id": "a9e702e8e0dd375f984c0a6e3253438c", "type": "electric_scooter", "name": "a9e702e8e0dd375f984c0a6e3253438c"}, {"is_disabled": 0, "is_reserved": 0, "fusion_lat": 0.0, "lat": 38.94218933333333, "fusion_lon": 0.0, "rental_uris": {"ios": "https://dc.lft.to/lastmile_qr_scan", "android": "https://dc.lft.to/lastmile_qr_scan"}, "lon": -76.9613065, "bike_id": "6ee1c87e9ce641c0f9930f929c67ed94", "type": "electric_bike", "name": "6ee1c87e9ce641c0f9930f929c67ed94"}, {"is_disabled": 0, "is_reserved": 0, "fusion_lat": 0.0, "lat": 38.80977166666667, "fusion_lon": 0.0, "rental_uris": {"ios": "https://dc.lft.to/lastmile_qr_scan", "android": "https://dc.lft.to/lastmile_qr_scan"}, "lon": -77.076583, "bike_id": "2b3d18c9067a7ff912c965e1593983dc", "type": "electric_bike", "name": "2b3d18c9067a7ff912c965e1593983dc"}, {"is_disabled": 0, "is_reserved": 0, "fusion_lat": 0.0, "lat": 38.918040500000004, "fusion_lon": 0.0, "rental_uris": {"ios": "https://dc.lft.to/lastmile_qr_scan", "android": "https://dc.lft.to/lastmile_qr_scan"}, "lon": -77.03440083333334, "bike_id": "6d131b3fe883fe1e8c159998eed9aa3d", "type": "electric_scooter", "name": "6d131b3fe883fe1e8c159998eed9aa3d"}, {"is_disabled": 0, "is_reserved": 0, "fusion_lat": 0.0, "lat": 38.90964916666667, "fusion_lon": 0.0, "rental_uris": {"ios": "https://dc.lft.to/lastmile_qr_scan", "android": "https://dc.lft.to/lastmile_qr_scan"}, "lon": -77.01104833333333, "bike_id": "4f8ab3ae63654b1c0cfdd28893812854", "type": "electric_scooter", "name": "4f8ab3ae63654b1c0cfdd28893812854"}, {"is_disabled": 0, "is_reserved": 0, "fusion_lat": 0.0, "lat": 38.892425, "fusion_lon": 0.0, "rental_uris": {"ios": "https://dc.lft.to/lastmile_qr_scan", "android": "https://dc.lft.to/lastmile_qr_scan"}, "lon": -77.039562, "bike_id": "8a471a94f9ba6cfa36ecd3e8de29888b", "type": "electric_scooter", "name": "8a471a94f9ba6cfa36ecd3e8de29888b"}, {"is_disabled": 0, "is_reserved": 0, "fusion_lat": 0.0, "lat": 38.90183416666667, "fusion_lon": 0.0, "rental_uris": {"ios": "https://dc.lft.to/lastmile_qr_scan", "android": "https://dc.lft.to/lastmile_qr_scan"}, "lon": -76.97670516666666, "bike_id": "c2b1af7b920ff075c48b5062dcd0fcb5", "type": "electric_scooter", "name": "c2b1af7b920ff075c48b5062dcd0fcb5"}, {"is_disabled": 0, "is_reserved": 0, "fusion_lat": 0.0, "lat": 38.887106833333334, "fusion_lon": 0.0, "rental_uris": {"ios": "https://dc.lft.to/lastmile_qr_scan", "android": "https://dc.lft.to/lastmile_qr_scan"}, "lon": -76.98381666666667, "bike_id": "f1fa280bdfef5781aa1e6a1f71dae393", "type": "electric_scooter", "name": "f1fa280bdfef5781aa1e6a1f71dae393"}, {"is_disabled": 0, "is_reserved": 0, "fusion_lat": 0.0, "lat": 38.877570166666665, "fusion_lon": 0.0, "rental_uris": {"ios": "https://dc.lft.to/lastmile_qr_scan", "android": "https://dc.lft.to/lastmile_qr_scan"}, "lon": -77.00460266666667, "bike_id": "5777a612c5f622d45e0aeee64c976a81", "type": "electric_scooter", "name": "5777a612c5f622d45e0aeee64c976a81"}, {"is_disabled": 0, "is_reserved": 0, "fusion_lat": 0.0, "lat": 38.919937833333336, "fusion_lon": 0.0, "rental_uris": {"ios": "https://dc.lft.to/lastmile_qr_scan", "android": "https://dc.lft.to/lastmile_qr_scan"}, "lon": -77.03221816666667, "bike_id": "5e5e66acee5028529e7160eefc3da410", "type": "electric_scooter", "name": "5e5e66acee5028529e7160eefc3da410"}, {"is_disabled": 0, "is_reserved": 0, "fusion_lat": 0.0, "lat": 38.89554916666667, "fusion_lon": 0.0, "rental_uris": {"ios": "https://dc.lft.to/lastmile_qr_scan", "android": "https://dc.lft.to/lastmile_qr_scan"}, "lon": -77.04660916666667, "bike_id": "bbf0ed536045ef6786d6269553ae5e2e", "type": "electric_scooter", "name": "bbf0ed536045ef6786d6269553ae5e2e"}, {"is_disabled": 0, "is_reserved": 0, "fusion_lat": 0.0, "lat": 38.963563666666666, "fusion_lon": 0.0, "rental_uris": {"ios": "https://dc.lft.to/lastmile_qr_scan", "android": "https://dc.lft.to/lastmile_qr_scan"}, "lon": -77.0344085, "bike_id": "19e205f9404664e71ee42037230c30b8", "type": "electric_scooter", "name": "19e205f9404664e71ee42037230c30b8"}, {"is_disabled": 0, "is_reserved": 0, "fusion_lat": 0.0, "lat": 38.90441333333333, "fusion_lon": 0.0, "rental_uris": {"ios": "https://dc.lft.to/lastmile_qr_scan", "android": "https://dc.lft.to/lastmile_qr_scan"}, "lon": -76.97305566666667, "bike_id": "48585c405696eb4edc3214f199ea0fe2", "type": "electric_scooter", "name": "48585c405696eb4edc3214f199ea0fe2"}, {"is_disabled": 0, "is_reserved": 0, "fusion_lat": 0.0, "lat": 38.84272383333333, "fusion_lon": 0.0, "rental_uris": {"ios": "https://dc.lft.to/lastmile_qr_scan", "android": "https://dc.lft.to/lastmile_qr_scan"}, "lon": -76.9883755, "bike_id": "cb8b8ffd83976fda6b756bc20ccad863", "type": "electric_scooter", "name": "cb8b8ffd83976fda6b756bc20ccad863"}, {"is_disabled": 0, "is_reserved": 0, "fusion_lat": 0.0, "lat": 38.8977345, "fusion_lon": 0.0, "rental_uris": {"ios": "https://dc.lft.to/lastmile_qr_scan", "android": "https://dc.lft.to/lastmile_qr_scan"}, "lon": -77.02714283333333, "bike_id": "a123c716c52374aaeecff20cda555bcd", "type": "electric_scooter", "name": "a123c716c52374aaeecff20cda555bcd"}, {"is_disabled": 0, "is_reserved": 0, "fusion_lat": 0.0, "lat": 38.93058283333333, "fusion_lon": 0.0, "rental_uris": {"ios": "https://dc.lft.to/lastmile_qr_scan", "android": "https://dc.lft.to/lastmile_qr_scan"}, "lon": -77.0403135, "bike_id": "08d97bc60330da6d46d2075bb98aba17", "type": "electric_scooter", "name": "08d97bc60330da6d46d2075bb98aba17"}, {"is_disabled": 0, "is_reserved": 0, "fusion_lat": 0.0, "lat": 38.925498166666664, "fusion_lon": 0.0, "rental_uris": {"ios": "https://dc.lft.to/lastmile_qr_scan", "android": "https://dc.lft.to/lastmile_qr_scan"}, "lon": -77.003248, "bike_id": "a8e09f42caa462046ac2a68db7e0896c", "type": "electric_scooter", "name": "a8e09f42caa462046ac2a68db7e0896c"}, {"is_disabled": 0, "is_reserved": 0, "fusion_lat": 0.0, "lat": 38.93659183333333, "fusion_lon": 0.0, "rental_uris": {"ios": "https://dc.lft.to/lastmile_qr_scan", "android": "https://dc.lft.to/lastmile_qr_scan"}, "lon": -77.06606233333333, "bike_id": "3f5f81aac2e01d755e21f166be769ece", "type": "electric_scooter", "name": "3f5f81aac2e01d755e21f166be769ece"}, {"is_disabled": 0, "is_reserved": 0, "fusion_lat": 0.0, "lat": 38.87778, "fusion_lon": 0.0, "rental_uris": {"ios": "https://dc.lft.to/lastmile_qr_scan", "android": "https://dc.lft.to/lastmile_qr_scan"}, "lon": -77.00129116666666, "bike_id": "ad7e78cb391f5293a1dc4037b0ed9458", "type": "electric_scooter", "name": "ad7e78cb391f5293a1dc4037b0ed9458"}, {"is_disabled": 0, "is_reserved": 0, "fusion_lat": 0.0, "lat": 38.93118183333333, "fusion_lon": 0.0, "rental_uris": {"ios": "https://dc.lft.to/lastmile_qr_scan", "android": "https://dc.lft.to/lastmile_qr_scan"}, "lon": -77.02071283333333, "bike_id": "f0f973df9f541c4cc3cdf1f732811fa8", "type": "electric_scooter", "name": "f0f973df9f541c4cc3cdf1f732811fa8"}, {"is_disabled": 0, "is_reserved": 0, "fusion_lat": 0.0, "lat": 38.919327, "fusion_lon": 0.0, "rental_uris": {"ios": "https://dc.lft.to/lastmile_qr_scan", "android": "https://dc.lft.to/lastmile_qr_scan"}, "lon": -77.04484083333334, "bike_id": "41be36c90597c5d3be2ec6f2a55cca2a", "type": "electric_scooter", "name": "41be36c90597c5d3be2ec6f2a55cca2a"}, {"is_disabled": 0, "is_reserved": 0, "fusion_lat": 0.0, "lat": 38.9162965, "fusion_lon": 0.0, "rental_uris": {"ios": "https://dc.lft.to/lastmile_qr_scan", "android": "https://dc.lft.to/lastmile_qr_scan"}, "lon": -77.0085055, "bike_id": "14e747d7166d74eafcc1ea6d26a08016", "type": "electric_scooter", "name": "14e747d7166d74eafcc1ea6d26a08016"}, {"is_disabled": 0, "is_reserved": 0, "fusion_lat": 0.0, "lat": 38.90573666666667, "fusion_lon": 0.0, "rental_uris": {"ios": "https://dc.lft.to/lastmile_qr_scan", "android": "https://dc.lft.to/lastmile_qr_scan"}, "lon": -77.00495, "bike_id": "c8a717258950a17e53a85e5271b919e8", "type": "electric_scooter", "name": "c8a717258950a17e53a85e5271b919e8"}, {"is_disabled": 0, "is_reserved": 0, "fusion_lat": 0.0, "lat": 38.913340166666664, "fusion_lon": 0.0, "rental_uris": {"ios": "https://dc.lft.to/lastmile_qr_scan", "android": "https://dc.lft.to/lastmile_qr_scan"}, "lon": -77.01659433333333, "bike_id": "a35b9ff4b9dca60a605225e0fa4ef720", "type": "electric_scooter", "name": "a35b9ff4b9dca60a605225e0fa4ef720"}, {"is_disabled": 0, "is_reserved": 0, "fusion_lat": 0.0, "lat": 38.88038433333333, "fusion_lon": 0.0, "rental_uris": {"ios": "https://dc.lft.to/lastmile_qr_scan", "android": "https://dc.lft.to/lastmile_qr_scan"}, "lon": -76.927243, "bike_id": "4525aaf413f2c1998091c4e95d3ea65b", "type": "electric_scooter", "name": "4525aaf413f2c1998091c4e95d3ea65b"}, {"is_disabled": 0, "is_reserved": 0, "fusion_lat": 0.0, "lat": 38.930273166666666, "fusion_lon": 0.0, "rental_uris": {"ios": "https://dc.lft.to/lastmile_qr_scan", "android": "https://dc.lft.to/lastmile_qr_scan"}, "lon": -77.060758, "bike_id": "681402f6047d22edcae2cbd70df57970", "type": "electric_scooter", "name": "681402f6047d22edcae2cbd70df57970"}, {"is_disabled": 0, "is_reserved": 0, "fusion_lat": 0.0, "lat": 38.87630733333334, "fusion_lon": 0.0, "rental_uris": {"ios": "https://dc.lft.to/lastmile_qr_scan", "android": "https://dc.lft.to/lastmile_qr_scan"}, "lon": -77.009535, "bike_id": "4d1c39cc00fd63768dd8cc229498f894", "type": "electric_scooter", "name": "4d1c39cc00fd63768dd8cc229498f894"}, {"is_disabled": 0, "is_reserved": 0, "fusion_lat": 0.0, "lat": 38.8707045, "fusion_lon": 0.0, "rental_uris": {"ios": "https://dc.lft.to/lastmile_qr_scan", "android": "https://dc.lft.to/lastmile_qr_scan"}, "lon": -76.981286, "bike_id": "5b82f9a71e9bac32fb58c15fb16912a1", "type": "electric_scooter", "name": "5b82f9a71e9bac32fb58c15fb16912a1"}, {"is_disabled": 0, "is_reserved": 0, "fusion_lat": 0.0, "lat": 38.90729666666667, "fusion_lon": 0.0, "rental_uris": {"ios": "https://dc.lft.to/lastmile_qr_scan", "android": "https://dc.lft.to/lastmile_qr_scan"}, "lon": -77.023198, "bike_id": "1a30fbaddce41797ecdb16b44b41f3af", "type": "electric_scooter", "name": "1a30fbaddce41797ecdb16b44b41f3af"}, {"is_disabled": 0, "is_reserved": 0, "fusion_lat": 0.0, "lat": 38.885115, "fusion_lon": 0.0, "rental_uris": {"ios": "https://dc.lft.to/lastmile_qr_scan", "android": "https://dc.lft.to/lastmile_qr_scan"}, "lon": -77.02822916666666, "bike_id": "816c28c93a822ba48b5649d762e9baf4", "type": "electric_scooter", "name": "816c28c93a822ba48b5649d762e9baf4"}, {"is_disabled": 0, "is_reserved": 0, "fusion_lat": 0.0, "lat": 38.9159705, "fusion_lon": 0.0, "rental_uris": {"ios": "https://dc.lft.to/lastmile_qr_scan", "android": "https://dc.lft.to/lastmile_qr_scan"}, "lon": -77.03852716666667, "bike_id": "b1aca4fafa19504217d8b6d4092dd58e", "type": "electric_scooter", "name": "b1aca4fafa19504217d8b6d4092dd58e"}, {"is_disabled": 0, "is_reserved": 0, "fusion_lat": 0.0, "lat": 38.91441116666667, "fusion_lon": 0.0, "rental_uris": {"ios": "https://dc.lft.to/lastmile_qr_scan", "android": "https://dc.lft.to/lastmile_qr_scan"}, "lon": -77.02287283333334, "bike_id": "1b50b4551dda3466323e9d5206e71e81", "type": "electric_scooter", "name": "1b50b4551dda3466323e9d5206e71e81"}, {"is_disabled": 0, "is_reserved": 0, "fusion_lat": 0.0, "lat": 38.87577, "fusion_lon": 0.0, "rental_uris": {"ios": "https://dc.lft.to/lastmile_qr_scan", "android": "https://dc.lft.to/lastmile_qr_scan"}, "lon": -77.23411866666666, "bike_id": "6bdf8b4f32b04f44639a0c4c547f0675", "type": "electric_bike", "name": "6bdf8b4f32b04f44639a0c4c547f0675"}, {"is_disabled": 0, "is_reserved": 0, "fusion_lat": 0.0, "lat": 38.90220466666667, "fusion_lon": 0.0, "rental_uris": {"ios": "https://dc.lft.to/lastmile_qr_scan", "android": "https://dc.lft.to/lastmile_qr_scan"}, "lon": -76.93175633333334, "bike_id": "a636acc8d976d1e6e76b8687ad8f4f5a", "type": "electric_bike", "name": "a636acc8d976d1e6e76b8687ad8f4f5a"}, {"is_disabled": 0, "is_reserved": 0, "fusion_lat": 0.0, "lat": 38.920717833333335, "fusion_lon": 0.0, "rental_uris": {"ios": "https://dc.lft.to/lastmile_qr_scan", "android": "https://dc.lft.to/lastmile_qr_scan"}, "lon": -77.0243, "bike_id": "065893a116129a70c03a174e1205c5af", "type": "electric_scooter", "name": "065893a116129a70c03a174e1205c5af"}, {"is_disabled": 0, "is_reserved": 0, "fusion_lat": 0.0, "lat": 38.89785966666667, "fusion_lon": 0.0, "rental_uris": {"ios": "https://dc.lft.to/lastmile_qr_scan", "android": "https://dc.lft.to/lastmile_qr_scan"}, "lon": -76.97166583333333, "bike_id": "639d93c6b9297d7b5fe7b1fb24dbdbee", "type": "electric_scooter", "name": "639d93c6b9297d7b5fe7b1fb24dbdbee"}, {"is_disabled": 0, "is_reserved": 0, "fusion_lat": 0.0, "lat": 38.911753833333336, "fusion_lon": 0.0, "rental_uris": {"ios": "https://dc.lft.to/lastmile_qr_scan", "android": "https://dc.lft.to/lastmile_qr_scan"}, "lon": -77.01076566666667, "bike_id": "4e2c756c443c67665a351c85a5c4e023", "type": "electric_scooter", "name": "4e2c756c443c67665a351c85a5c4e023"}, {"is_disabled": 0, "is_reserved": 0, "fusion_lat": 0.0, "lat": 38.924578833333335, "fusion_lon": 0.0, "rental_uris": {"ios": "https://dc.lft.to/lastmile_qr_scan", "android": "https://dc.lft.to/lastmile_qr_scan"}, "lon": -77.0575765, "bike_id": "df62da250bd05bdb519854880351ecaf", "type": "electric_scooter", "name": "df62da250bd05bdb519854880351ecaf"}, {"is_disabled": 0, "is_reserved": 0, "fusion_lat": 0.0, "lat": 38.88727516666667, "fusion_lon": 0.0, "rental_uris": {"ios": "https://dc.lft.to/lastmile_qr_scan", "android": "https://dc.lft.to/lastmile_qr_scan"}, "lon": -77.03188266666666, "bike_id": "c0887d809b42a676643eea679b54470e", "type": "electric_scooter", "name": "c0887d809b42a676643eea679b54470e"}, {"is_disabled": 0, "is_reserved": 0, "fusion_lat": 0.0, "lat": 38.905126, "fusion_lon": 0.0, "rental_uris": {"ios": "https://dc.lft.to/lastmile_qr_scan", "android": "https://dc.lft.to/lastmile_qr_scan"}, "lon": -77.04841083333334, "bike_id": "2b8e0a3b3e7d0d0d1a1061787fda672e", "type": "electric_scooter", "name": "2b8e0a3b3e7d0d0d1a1061787fda672e"}, {"is_disabled": 0, "is_reserved": 0, "fusion_lat": 0.0, "lat": 38.928642333333336, "fusion_lon": 0.0, "rental_uris": {"ios": "https://dc.lft.to/lastmile_qr_scan", "android": "https://dc.lft.to/lastmile_qr_scan"}, "lon": -77.03045816666666, "bike_id": "7f6d6fe2664b26a75307b0313957b7c1", "type": "electric_scooter", "name": "7f6d6fe2664b26a75307b0313957b7c1"}, {"is_disabled": 0, "is_reserved": 0, "fusion_lat": 0.0, "lat": 38.89205916666667, "fusion_lon": 0.0, "rental_uris": {"ios": "https://dc.lft.to/lastmile_qr_scan", "android": "https://dc.lft.to/lastmile_qr_scan"}, "lon": -76.929202, "bike_id": "b4e694bc41b9f20e97076b6dfadda331", "type": "electric_scooter", "name": "b4e694bc41b9f20e97076b6dfadda331"}, {"is_disabled": 0, "is_reserved": 0, "fusion_lat": 0.0, "lat": 38.893984833333334, "fusion_lon": 0.0, "rental_uris": {"ios": "https://dc.lft.to/lastmile_qr_scan", "android": "https://dc.lft.to/lastmile_qr_scan"}, "lon": -77.0236995, "bike_id": "c2d5c37d8f21b0763d1e18749f8f25a3", "type": "electric_scooter", "name": "c2d5c37d8f21b0763d1e18749f8f25a3"}, {"is_disabled": 0, "is_reserved": 0, "fusion_lat": 0.0, "lat": 38.884044, "fusion_lon": 0.0, "rental_uris": {"ios": "https://dc.lft.to/lastmile_qr_scan", "android": "https://dc.lft.to/lastmile_qr_scan"}, "lon": -77.04579666666666, "bike_id": "722cf3afb089cc74b82d85b58d26f7e1", "type": "electric_bike", "name": "722cf3afb089cc74b82d85b58d26f7e1"}, {"is_disabled": 0, "is_reserved": 0, "fusion_lat": 0.0, "lat": 38.927134, "fusion_lon": 0.0, "rental_uris": {"ios": "https://dc.lft.to/lastmile_qr_scan", "android": "https://dc.lft.to/lastmile_qr_scan"}, "lon": -77.0210385, "bike_id": "c43edd3f011fcaac81def098bac07131", "type": "electric_scooter", "name": "c43edd3f011fcaac81def098bac07131"}, {"is_disabled": 0, "is_reserved": 0, "fusion_lat": 0.0, "lat": 38.89926833333333, "fusion_lon": 0.0, "rental_uris": {"ios": "https://dc.lft.to/lastmile_qr_scan", "android": "https://dc.lft.to/lastmile_qr_scan"}, "lon": -77.001601, "bike_id": "32b4cbbe1cc95c1acfece64dd94d250b", "type": "electric_bike", "name": "32b4cbbe1cc95c1acfece64dd94d250b"}, {"is_disabled": 0, "is_reserved": 0, "fusion_lat": 0.0, "lat": 38.909253, "fusion_lon": 0.0, "rental_uris": {"ios": "https://dc.lft.to/lastmile_qr_scan", "android": "https://dc.lft.to/lastmile_qr_scan"}, "lon": -77.0457935, "bike_id": "bed95645d934801b38f9f8a1e5fde18c", "type": "electric_scooter", "name": "bed95645d934801b38f9f8a1e5fde18c"}, {"is_disabled": 0, "is_reserved": 0, "fusion_lat": 0.0, "lat": 38.9166, "fusion_lon": 0.0, "rental_uris": {"ios": "https://dc.lft.to/lastmile_qr_scan", "android": "https://dc.lft.to/lastmile_qr_scan"}, "lon": -77.000479, "bike_id": "ebc4f0f64cd092fcd4368b5134e48677", "type": "electric_scooter", "name": "ebc4f0f64cd092fcd4368b5134e48677"}, {"is_disabled": 0, "is_reserved": 0, "fusion_lat": 0.0, "lat": 38.946322, "fusion_lon": 0.0, "rental_uris": {"ios": "https://dc.lft.to/lastmile_qr_scan", "android": "https://dc.lft.to/lastmile_qr_scan"}, "lon": -77.0184275, "bike_id": "56974dd492a67b44a82fe82247ab02e7", "type": "electric_scooter", "name": "56974dd492a67b44a82fe82247ab02e7"}, {"is_disabled": 0, "is_reserved": 0, "fusion_lat": 0.0, "lat": 38.917663166666664, "fusion_lon": 0.0, "rental_uris": {"ios": "https://dc.lft.to/lastmile_qr_scan", "android": "https://dc.lft.to/lastmile_qr_scan"}, "lon": -77.02341583333333, "bike_id": "242f72040b9de38a29e437cd09c62220", "type": "electric_scooter", "name": "242f72040b9de38a29e437cd09c62220"}, {"is_disabled": 0, "is_reserved": 0, "fusion_lat": 0.0, "lat": 38.90289533333333, "fusion_lon": 0.0, "rental_uris": {"ios": "https://dc.lft.to/lastmile_qr_scan", "android": "https://dc.lft.to/lastmile_qr_scan"}, "lon": -77.01221066666666, "bike_id": "56501312e509b14d6cada4aa5b4e3b51", "type": "electric_scooter", "name": "56501312e509b14d6cada4aa5b4e3b51"}, {"is_disabled": 0, "is_reserved": 0, "fusion_lat": 0.0, "lat": 38.920203666666666, "fusion_lon": 0.0, "rental_uris": {"ios": "https://dc.lft.to/lastmile_qr_scan", "android": "https://dc.lft.to/lastmile_qr_scan"}, "lon": -77.03158416666666, "bike_id": "45416ef5b737cb84d60d51a82acbd862", "type": "electric_scooter", "name": "45416ef5b737cb84d60d51a82acbd862"}, {"is_disabled": 0, "is_reserved": 0, "fusion_lat": 0.0, "lat": 38.885728, "fusion_lon": 0.0, "rental_uris": {"ios": "https://dc.lft.to/lastmile_qr_scan", "android": "https://dc.lft.to/lastmile_qr_scan"}, "lon": -77.01996733333333, "bike_id": "079679832234936c4ecc00406bccc34f", "type": "electric_scooter", "name": "079679832234936c4ecc00406bccc34f"}, {"is_disabled": 0, "is_reserved": 0, "fusion_lat": 0.0, "lat": 38.94586566666667, "fusion_lon": 0.0, "rental_uris": {"ios": "https://dc.lft.to/lastmile_qr_scan", "android": "https://dc.lft.to/lastmile_qr_scan"}, "lon": -77.02031233333334, "bike_id": "a0a4134caba3554673ab7e8fcaf054df", "type": "electric_scooter", "name": "a0a4134caba3554673ab7e8fcaf054df"}, {"is_disabled": 0, "is_reserved": 0, "fusion_lat": 0.0, "lat": 38.92375166666667, "fusion_lon": 0.0, "rental_uris": {"ios": "https://dc.lft.to/lastmile_qr_scan", "android": "https://dc.lft.to/lastmile_qr_scan"}, "lon": -77.04024666666666, "bike_id": "8d7e447b34993bf79c633c6af580816f", "type": "electric_scooter", "name": "8d7e447b34993bf79c633c6af580816f"}, {"is_disabled": 0, "is_reserved": 0, "fusion_lat": 0.0, "lat": 38.84274416666667, "fusion_lon": 0.0, "rental_uris": {"ios": "https://dc.lft.to/lastmile_qr_scan", "android": "https://dc.lft.to/lastmile_qr_scan"}, "lon": -76.988405, "bike_id": "933adc4e511ff21fe17f0675f93f4c30", "type": "electric_bike", "name": "933adc4e511ff21fe17f0675f93f4c30"}, {"is_disabled": 0, "is_reserved": 0, "fusion_lat": 0.0, "lat": 38.91047116666667, "fusion_lon": 0.0, "rental_uris": {"ios": "https://dc.lft.to/lastmile_qr_scan", "android": "https://dc.lft.to/lastmile_qr_scan"}, "lon": -77.015091, "bike_id": "b6a4efffa751fa3aa82ed5d39d87ea94", "type": "electric_scooter", "name": "b6a4efffa751fa3aa82ed5d39d87ea94"}, {"is_disabled": 0, "is_reserved": 0, "fusion_lat": 0.0, "lat": 38.906397, "fusion_lon": 0.0, "rental_uris": {"ios": "https://dc.lft.to/lastmile_qr_scan", "android": "https://dc.lft.to/lastmile_qr_scan"}, "lon": -77.04560666666667, "bike_id": "147fb98703d9334b41babb9ed4b161b0", "type": "electric_scooter", "name": "147fb98703d9334b41babb9ed4b161b0"}, {"is_disabled": 0, "is_reserved": 0, "fusion_lat": 0.0, "lat": 38.80671066666667, "fusion_lon": 0.0, "rental_uris": {"ios": "https://dc.lft.to/lastmile_qr_scan", "android": "https://dc.lft.to/lastmile_qr_scan"}, "lon": -77.06915116666667, "bike_id": "a63c1eb89fe37e70c3d042290b4e54bb", "type": "electric_bike", "name": "a63c1eb89fe37e70c3d042290b4e54bb"}, {"is_disabled": 0, "is_reserved": 0, "fusion_lat": 0.0, "lat": 38.934243333333335, "fusion_lon": 0.0, "rental_uris": {"ios": "https://dc.lft.to/lastmile_qr_scan", "android": "https://dc.lft.to/lastmile_qr_scan"}, "lon": -77.04310716666667, "bike_id": "0dfbee9c3f16ac011dd917d24401ba3c", "type": "electric_scooter", "name": "0dfbee9c3f16ac011dd917d24401ba3c"}, {"is_disabled": 0, "is_reserved": 0, "fusion_lat": 0.0, "lat": 38.90232733333333, "fusion_lon": 0.0, "rental_uris": {"ios": "https://dc.lft.to/lastmile_qr_scan", "android": "https://dc.lft.to/lastmile_qr_scan"}, "lon": -77.01503116666666, "bike_id": "19cb5cdf99cf52eedec6bf4a82d8e669", "type": "electric_scooter", "name": "19cb5cdf99cf52eedec6bf4a82d8e669"}, {"is_disabled": 0, "is_reserved": 0, "fusion_lat": 0.0, "lat": 38.91882483333333, "fusion_lon": 0.0, "rental_uris": {"ios": "https://dc.lft.to/lastmile_qr_scan", "android": "https://dc.lft.to/lastmile_qr_scan"}, "lon": -77.04176916666667, "bike_id": "9fe3ca82de9de293b3796cda3674db12", "type": "electric_scooter", "name": "9fe3ca82de9de293b3796cda3674db12"}, {"is_disabled": 0, "is_reserved": 0, "fusion_lat": 0.0, "lat": 38.827598333333334, "fusion_lon": 0.0, "rental_uris": {"ios": "https://dc.lft.to/lastmile_qr_scan", "android": "https://dc.lft.to/lastmile_qr_scan"}, "lon": -77.05029183333333, "bike_id": "22dfcb1d05824bd416660e603b02a1da", "type": "electric_bike", "name": "22dfcb1d05824bd416660e603b02a1da"}, {"is_disabled": 0, "is_reserved": 0, "fusion_lat": 0.0, "lat": 38.9147735, "fusion_lon": 0.0, "rental_uris": {"ios": "https://dc.lft.to/lastmile_qr_scan", "android": "https://dc.lft.to/lastmile_qr_scan"}, "lon": -77.0428565, "bike_id": "dbd69ca3c1db70ae1a4b275e335148b1", "type": "electric_scooter", "name": "dbd69ca3c1db70ae1a4b275e335148b1"}, {"is_disabled": 0, "is_reserved": 0, "fusion_lat": 0.0, "lat": 38.919936166666666, "fusion_lon": 0.0, "rental_uris": {"ios": "https://dc.lft.to/lastmile_qr_scan", "android": "https://dc.lft.to/lastmile_qr_scan"}, "lon": -77.03220366666666, "bike_id": "769a56235721b88a1338a8189ca05aca", "type": "electric_scooter", "name": "769a56235721b88a1338a8189ca05aca"}, {"is_disabled": 0, "is_reserved": 0, "fusion_lat": 0.0, "lat": 38.892221666666664, "fusion_lon": 0.0, "rental_uris": {"ios": "https://dc.lft.to/lastmile_qr_scan", "android": "https://dc.lft.to/lastmile_qr_scan"}, "lon": -77.03344433333334, "bike_id": "0b8af30920858f092389f79682b6409c", "type": "electric_scooter", "name": "0b8af30920858f092389f79682b6409c"}, {"is_disabled": 0, "is_reserved": 0, "fusion_lat": 0.0, "lat": 38.93117733333333, "fusion_lon": 0.0, "rental_uris": {"ios": "https://dc.lft.to/lastmile_qr_scan", "android": "https://dc.lft.to/lastmile_qr_scan"}, "lon": -77.02069216666666, "bike_id": "448afdce76f0b12850eafa9ec3ed0b3d", "type": "electric_scooter", "name": "448afdce76f0b12850eafa9ec3ed0b3d"}, {"is_disabled": 0, "is_reserved": 0, "fusion_lat": 0.0, "lat": 38.92657633333334, "fusion_lon": 0.0, "rental_uris": {"ios": "https://dc.lft.to/lastmile_qr_scan", "android": "https://dc.lft.to/lastmile_qr_scan"}, "lon": -77.02425083333333, "bike_id": "a9b775a2d893bf1517e20d74587bded8", "type": "electric_scooter", "name": "a9b775a2d893bf1517e20d74587bded8"}, {"is_disabled": 0, "is_reserved": 0, "fusion_lat": 0.0, "lat": 38.923559833333336, "fusion_lon": 0.0, "rental_uris": {"ios": "https://dc.lft.to/lastmile_qr_scan", "android": "https://dc.lft.to/lastmile_qr_scan"}, "lon": -77.04389566666667, "bike_id": "17d6464257b38ad1ae89dc5e67498790", "type": "electric_scooter", "name": "17d6464257b38ad1ae89dc5e67498790"}, {"is_disabled": 0, "is_reserved": 0, "fusion_lat": 0.0, "lat": 38.91105266666667, "fusion_lon": 0.0, "rental_uris": {"ios": "https://dc.lft.to/lastmile_qr_scan", "android": "https://dc.lft.to/lastmile_qr_scan"}, "lon": -77.003738, "bike_id": "b33588125119aef8983085200d12f366", "type": "electric_scooter", "name": "b33588125119aef8983085200d12f366"}, {"is_disabled": 0, "is_reserved": 0, "fusion_lat": 0.0, "lat": 38.920673, "fusion_lon": 0.0, "rental_uris": {"ios": "https://dc.lft.to/lastmile_qr_scan", "android": "https://dc.lft.to/lastmile_qr_scan"}, "lon": -77.0235525, "bike_id": "76771f2a86eb48cad7ed0ae2b5cb4e53", "type": "electric_scooter", "name": "76771f2a86eb48cad7ed0ae2b5cb4e53"}, {"is_disabled": 0, "is_reserved": 0, "fusion_lat": 0.0, "lat": 38.92352783333333, "fusion_lon": 0.0, "rental_uris": {"ios": "https://dc.lft.to/lastmile_qr_scan", "android": "https://dc.lft.to/lastmile_qr_scan"}, "lon": -77.07310916666667, "bike_id": "2d9dbdf4cbcf1bd73a725608b796138e", "type": "electric_scooter", "name": "2d9dbdf4cbcf1bd73a725608b796138e"}, {"is_disabled": 0, "is_reserved": 0, "fusion_lat": 0.0, "lat": 38.93699566666667, "fusion_lon": 0.0, "rental_uris": {"ios": "https://dc.lft.to/lastmile_qr_scan", "android": "https://dc.lft.to/lastmile_qr_scan"}, "lon": -77.05599033333333, "bike_id": "84bbc6e7d6459ee4b58e792c99f7861a", "type": "electric_scooter", "name": "84bbc6e7d6459ee4b58e792c99f7861a"}, {"is_disabled": 0, "is_reserved": 0, "fusion_lat": 0.0, "lat": 38.91405366666667, "fusion_lon": 0.0, "rental_uris": {"ios": "https://dc.lft.to/lastmile_qr_scan", "android": "https://dc.lft.to/lastmile_qr_scan"}, "lon": -77.04380966666666, "bike_id": "5f301d013f261a44c91cc4228885a9e2", "type": "electric_scooter", "name": "5f301d013f261a44c91cc4228885a9e2"}, {"is_disabled": 0, "is_reserved": 0, "fusion_lat": 0.0, "lat": 38.92653333333333, "fusion_lon": 0.0, "rental_uris": {"ios": "https://dc.lft.to/lastmile_qr_scan", "android": "https://dc.lft.to/lastmile_qr_scan"}, "lon": -77.02446433333333, "bike_id": "08f5313f5ad34ccf2953255856f0b163", "type": "electric_scooter", "name": "08f5313f5ad34ccf2953255856f0b163"}, {"is_disabled": 0, "is_reserved": 0, "fusion_lat": 0.0, "lat": 38.938549333333334, "fusion_lon": 0.0, "rental_uris": {"ios": "https://dc.lft.to/lastmile_qr_scan", "android": "https://dc.lft.to/lastmile_qr_scan"}, "lon": -76.99432433333334, "bike_id": "73897ec1162aa457d0ec5900e473643d", "type": "electric_scooter", "name": "73897ec1162aa457d0ec5900e473643d"}, {"is_disabled": 0, "is_reserved": 0, "fusion_lat": 0.0, "lat": 38.902292833333334, "fusion_lon": 0.0, "rental_uris": {"ios": "https://dc.lft.to/lastmile_qr_scan", "android": "https://dc.lft.to/lastmile_qr_scan"}, "lon": -77.01437366666667, "bike_id": "cd4179f882aefdfdc2d442262a6cc589", "type": "electric_scooter", "name": "cd4179f882aefdfdc2d442262a6cc589"}, {"is_disabled": 0, "is_reserved": 0, "fusion_lat": 0.0, "lat": 38.876575833333334, "fusion_lon": 0.0, "rental_uris": {"ios": "https://dc.lft.to/lastmile_qr_scan", "android": "https://dc.lft.to/lastmile_qr_scan"}, "lon": -77.00189733333333, "bike_id": "298e583d0563ca45c7f80900e1eec53f", "type": "electric_scooter", "name": "298e583d0563ca45c7f80900e1eec53f"}, {"is_disabled": 0, "is_reserved": 0, "fusion_lat": 0.0, "lat": 38.93552433333333, "fusion_lon": 0.0, "rental_uris": {"ios": "https://dc.lft.to/lastmile_qr_scan", "android": "https://dc.lft.to/lastmile_qr_scan"}, "lon": -77.0770285, "bike_id": "9f2a80c8d7fa24ced60796f259020bb1", "type": "electric_scooter", "name": "9f2a80c8d7fa24ced60796f259020bb1"}, {"is_disabled": 0, "is_reserved": 0, "fusion_lat": 0.0, "lat": 38.92384116666667, "fusion_lon": 0.0, "rental_uris": {"ios": "https://dc.lft.to/lastmile_qr_scan", "android": "https://dc.lft.to/lastmile_qr_scan"}, "lon": -77.040232, "bike_id": "2e88dee2420fae0eb1c0c53b6f47e99f", "type": "electric_scooter", "name": "2e88dee2420fae0eb1c0c53b6f47e99f"}, {"is_disabled": 0, "is_reserved": 0, "fusion_lat": 0.0, "lat": 38.922406, "fusion_lon": 0.0, "rental_uris": {"ios": "https://dc.lft.to/lastmile_qr_scan", "android": "https://dc.lft.to/lastmile_qr_scan"}, "lon": -77.036604, "bike_id": "25cafa92c8a2e48d39cf16131681beb3", "type": "electric_scooter", "name": "25cafa92c8a2e48d39cf16131681beb3"}, {"is_disabled": 0, "is_reserved": 0, "fusion_lat": 0.0, "lat": 38.87451, "fusion_lon": 0.0, "rental_uris": {"ios": "https://dc.lft.to/lastmile_qr_scan", "android": "https://dc.lft.to/lastmile_qr_scan"}, "lon": -77.00939233333334, "bike_id": "9588acae84fefd896fb8e1a238467346", "type": "electric_scooter", "name": "9588acae84fefd896fb8e1a238467346"}, {"is_disabled": 0, "is_reserved": 0, "fusion_lat": 0.0, "lat": 38.8854095, "fusion_lon": 0.0, "rental_uris": {"ios": "https://dc.lft.to/lastmile_qr_scan", "android": "https://dc.lft.to/lastmile_qr_scan"}, "lon": -76.95971816666666, "bike_id": "b2fa931fdb77e641fa8dca67b7b0c8ea", "type": "electric_scooter", "name": "b2fa931fdb77e641fa8dca67b7b0c8ea"}, {"is_disabled": 0, "is_reserved": 0, "fusion_lat": 0.0, "lat": 38.882966333333336, "fusion_lon": 0.0, "rental_uris": {"ios": "https://dc.lft.to/lastmile_qr_scan", "android": "https://dc.lft.to/lastmile_qr_scan"}, "lon": -77.008894, "bike_id": "172360da76b9d92c15dd9810f0e82dbe", "type": "electric_scooter", "name": "172360da76b9d92c15dd9810f0e82dbe"}, {"is_disabled": 0, "is_reserved": 0, "fusion_lat": 0.0, "lat": 38.8966675, "fusion_lon": 0.0, "rental_uris": {"ios": "https://dc.lft.to/lastmile_qr_scan", "android": "https://dc.lft.to/lastmile_qr_scan"}, "lon": -76.9320775, "bike_id": "6548378177e9331105b5d78a5578af48", "type": "electric_scooter", "name": "6548378177e9331105b5d78a5578af48"}, {"is_disabled": 0, "is_reserved": 0, "fusion_lat": 0.0, "lat": 38.9180555, "fusion_lon": 0.0, "rental_uris": {"ios": "https://dc.lft.to/lastmile_qr_scan", "android": "https://dc.lft.to/lastmile_qr_scan"}, "lon": -77.024909, "bike_id": "c60cd42f6ff94d30b792eeb6e6580c0a", "type": "electric_scooter", "name": "c60cd42f6ff94d30b792eeb6e6580c0a"}, {"is_disabled": 0, "is_reserved": 0, "fusion_lat": 0.0, "lat": 38.93530666666667, "fusion_lon": 0.0, "rental_uris": {"ios": "https://dc.lft.to/lastmile_qr_scan", "android": "https://dc.lft.to/lastmile_qr_scan"}, "lon": -77.023493, "bike_id": "e4b39a8eada70b93a42d33ecf9264a94", "type": "electric_scooter", "name": "e4b39a8eada70b93a42d33ecf9264a94"}, {"is_disabled": 0, "is_reserved": 0, "fusion_lat": 0.0, "lat": 38.93674, "fusion_lon": 0.0, "rental_uris": {"ios": "https://dc.lft.to/lastmile_qr_scan", "android": "https://dc.lft.to/lastmile_qr_scan"}, "lon": -77.02282883333334, "bike_id": "3c7124586701125567cfec716aeda61f", "type": "electric_scooter", "name": "3c7124586701125567cfec716aeda61f"}, {"is_disabled": 0, "is_reserved": 0, "fusion_lat": 0.0, "lat": 38.91607283333333, "fusion_lon": 0.0, "rental_uris": {"ios": "https://dc.lft.to/lastmile_qr_scan", "android": "https://dc.lft.to/lastmile_qr_scan"}, "lon": -77.02297366666667, "bike_id": "637277ffcbfad3fd354423f0f1446c95", "type": "electric_scooter", "name": "637277ffcbfad3fd354423f0f1446c95"}, {"is_disabled": 0, "is_reserved": 0, "fusion_lat": 0.0, "lat": 38.92661016666667, "fusion_lon": 0.0, "rental_uris": {"ios": "https://dc.lft.to/lastmile_qr_scan", "android": "https://dc.lft.to/lastmile_qr_scan"}, "lon": -77.05201483333333, "bike_id": "342b235867d59de5f83a030ef6f9c97d", "type": "electric_scooter", "name": "342b235867d59de5f83a030ef6f9c97d"}, {"is_disabled": 0, "is_reserved": 0, "fusion_lat": 0.0, "lat": 38.905078, "fusion_lon": 0.0, "rental_uris": {"ios": "https://dc.lft.to/lastmile_qr_scan", "android": "https://dc.lft.to/lastmile_qr_scan"}, "lon": -76.95201633333333, "bike_id": "9e0ecfed51f5392199fcf57d99d2947e", "type": "electric_scooter", "name": "9e0ecfed51f5392199fcf57d99d2947e"}, {"is_disabled": 0, "is_reserved": 0, "fusion_lat": 0.0, "lat": 38.86010783333333, "fusion_lon": 0.0, "rental_uris": {"ios": "https://dc.lft.to/lastmile_qr_scan", "android": "https://dc.lft.to/lastmile_qr_scan"}, "lon": -77.06523466666667, "bike_id": "7040480e60d421ba3c68885a68766f5d", "type": "electric_bike", "name": "7040480e60d421ba3c68885a68766f5d"}, {"is_disabled": 0, "is_reserved": 0, "fusion_lat": 0.0, "lat": 38.9051495, "fusion_lon": 0.0, "rental_uris": {"ios": "https://dc.lft.to/lastmile_qr_scan", "android": "https://dc.lft.to/lastmile_qr_scan"}, "lon": -76.95193566666667, "bike_id": "fddb996a4dc0b0062143af78025a5df2", "type": "electric_scooter", "name": "fddb996a4dc0b0062143af78025a5df2"}, {"is_disabled": 0, "is_reserved": 0, "fusion_lat": 0.0, "lat": 38.91643083333334, "fusion_lon": 0.0, "rental_uris": {"ios": "https://dc.lft.to/lastmile_qr_scan", "android": "https://dc.lft.to/lastmile_qr_scan"}, "lon": -77.02300583333333, "bike_id": "0c5cf396b54633db5eecff9f29c4a442", "type": "electric_scooter", "name": "0c5cf396b54633db5eecff9f29c4a442"}, {"is_disabled": 0, "is_reserved": 0, "fusion_lat": 0.0, "lat": 38.91669533333334, "fusion_lon": 0.0, "rental_uris": {"ios": "https://dc.lft.to/lastmile_qr_scan", "android": "https://dc.lft.to/lastmile_qr_scan"}, "lon": -77.0469925, "bike_id": "252df122c57649b8bb03f9c8bd17e66d", "type": "electric_bike", "name": "252df122c57649b8bb03f9c8bd17e66d"}, {"is_disabled": 0, "is_reserved": 0, "fusion_lat": 0.0, "lat": 38.9558715, "fusion_lon": 0.0, "rental_uris": {"ios": "https://dc.lft.to/lastmile_qr_scan", "android": "https://dc.lft.to/lastmile_qr_scan"}, "lon": -77.01782716666666, "bike_id": "292840985543da88e74672e444e7ad42", "type": "electric_scooter", "name": "292840985543da88e74672e444e7ad42"}, {"is_disabled": 0, "is_reserved": 0, "fusion_lat": 0.0, "lat": 38.921979, "fusion_lon": 0.0, "rental_uris": {"ios": "https://dc.lft.to/lastmile_qr_scan", "android": "https://dc.lft.to/lastmile_qr_scan"}, "lon": -77.02043966666666, "bike_id": "b518eb7dcab8b066e79d950427c7c793", "type": "electric_scooter", "name": "b518eb7dcab8b066e79d950427c7c793"}, {"is_disabled": 0, "is_reserved": 0, "fusion_lat": 0.0, "lat": 39.026467333333336, "fusion_lon": 0.0, "rental_uris": {"ios": "https://dc.lft.to/lastmile_qr_scan", "android": "https://dc.lft.to/lastmile_qr_scan"}, "lon": -77.03684716666666, "bike_id": "6de6f7d59c344bccb7a3340ffd5f9d3b", "type": "electric_bike", "name": "6de6f7d59c344bccb7a3340ffd5f9d3b"}, {"is_disabled": 0, "is_reserved": 0, "fusion_lat": 0.0, "lat": 38.92049516666667, "fusion_lon": 0.0, "rental_uris": {"ios": "https://dc.lft.to/lastmile_qr_scan", "android": "https://dc.lft.to/lastmile_qr_scan"}, "lon": -77.0312465, "bike_id": "165067afb2defddb9079e0b963c42831", "type": "electric_scooter", "name": "165067afb2defddb9079e0b963c42831"}, {"is_disabled": 0, "is_reserved": 0, "fusion_lat": 0.0, "lat": 38.90116916666667, "fusion_lon": 0.0, "rental_uris": {"ios": "https://dc.lft.to/lastmile_qr_scan", "android": "https://dc.lft.to/lastmile_qr_scan"}, "lon": -76.9811685, "bike_id": "6831e7c292f385a037757d1a2829f0e8", "type": "electric_scooter", "name": "6831e7c292f385a037757d1a2829f0e8"}, {"is_disabled": 0, "is_reserved": 0, "fusion_lat": 0.0, "lat": 38.914123000000004, "fusion_lon": 0.0, "rental_uris": {"ios": "https://dc.lft.to/lastmile_qr_scan", "android": "https://dc.lft.to/lastmile_qr_scan"}, "lon": -77.052072, "bike_id": "66205484a57a0efa967e4093a5f2720a", "type": "electric_scooter", "name": "66205484a57a0efa967e4093a5f2720a"}, {"is_disabled": 0, "is_reserved": 0, "fusion_lat": 0.0, "lat": 38.90143833333333, "fusion_lon": 0.0, "rental_uris": {"ios": "https://dc.lft.to/lastmile_qr_scan", "android": "https://dc.lft.to/lastmile_qr_scan"}, "lon": -76.974037, "bike_id": "2170b56c6f05bb0ca9d5cae521ab528c", "type": "electric_scooter", "name": "2170b56c6f05bb0ca9d5cae521ab528c"}, {"is_disabled": 0, "is_reserved": 0, "fusion_lat": 0.0, "lat": 38.896825166666666, "fusion_lon": 0.0, "rental_uris": {"ios": "https://dc.lft.to/lastmile_qr_scan", "android": "https://dc.lft.to/lastmile_qr_scan"}, "lon": -77.02414383333333, "bike_id": "b43b92d0bce9adb8b09719eb9b53d413", "type": "electric_bike", "name": "b43b92d0bce9adb8b09719eb9b53d413"}, {"is_disabled": 0, "is_reserved": 0, "fusion_lat": 0.0, "lat": 38.9268045, "fusion_lon": 0.0, "rental_uris": {"ios": "https://dc.lft.to/lastmile_qr_scan", "android": "https://dc.lft.to/lastmile_qr_scan"}, "lon": -76.99561266666667, "bike_id": "c280c49c9fb881271a246f1333ff5cdb", "type": "electric_scooter", "name": "c280c49c9fb881271a246f1333ff5cdb"}, {"is_disabled": 0, "is_reserved": 0, "fusion_lat": 0.0, "lat": 38.943327, "fusion_lon": 0.0, "rental_uris": {"ios": "https://dc.lft.to/lastmile_qr_scan", "android": "https://dc.lft.to/lastmile_qr_scan"}, "lon": -77.02691266666666, "bike_id": "d084348a9cce466349d8bc2cfecac73e", "type": "electric_scooter", "name": "d084348a9cce466349d8bc2cfecac73e"}, {"is_disabled": 0, "is_reserved": 0, "fusion_lat": 0.0, "lat": 38.886212, "fusion_lon": 0.0, "rental_uris": {"ios": "https://dc.lft.to/lastmile_qr_scan", "android": "https://dc.lft.to/lastmile_qr_scan"}, "lon": -76.92635233333333, "bike_id": "78311584eeafe46877db1d8bdc2ce666", "type": "electric_scooter", "name": "78311584eeafe46877db1d8bdc2ce666"}, {"is_disabled": 0, "is_reserved": 0, "fusion_lat": 0.0, "lat": 38.927541, "fusion_lon": 0.0, "rental_uris": {"ios": "https://dc.lft.to/lastmile_qr_scan", "android": "https://dc.lft.to/lastmile_qr_scan"}, "lon": -77.052535, "bike_id": "30542eecc75baa4a111ca2c164160c70", "type": "electric_scooter", "name": "30542eecc75baa4a111ca2c164160c70"}, {"is_disabled": 0, "is_reserved": 0, "fusion_lat": 0.0, "lat": 38.89251333333333, "fusion_lon": 0.0, "rental_uris": {"ios": "https://dc.lft.to/lastmile_qr_scan", "android": "https://dc.lft.to/lastmile_qr_scan"}, "lon": -77.0395435, "bike_id": "502b6ac6aa1f2036d3115f1cfc556534", "type": "electric_scooter", "name": "502b6ac6aa1f2036d3115f1cfc556534"}, {"is_disabled": 0, "is_reserved": 0, "fusion_lat": 0.0, "lat": 38.9243665, "fusion_lon": 0.0, "rental_uris": {"ios": "https://dc.lft.to/lastmile_qr_scan", "android": "https://dc.lft.to/lastmile_qr_scan"}, "lon": -77.03397666666666, "bike_id": "e748fc5ebe4730ec08fc294d923d2f6a", "type": "electric_scooter", "name": "e748fc5ebe4730ec08fc294d923d2f6a"}, {"is_disabled": 0, "is_reserved": 0, "fusion_lat": 0.0, "lat": 38.9207005, "fusion_lon": 0.0, "rental_uris": {"ios": "https://dc.lft.to/lastmile_qr_scan", "android": "https://dc.lft.to/lastmile_qr_scan"}, "lon": -77.025634, "bike_id": "37fb97dbbd16d34fe071b1a3c8531608", "type": "electric_scooter", "name": "37fb97dbbd16d34fe071b1a3c8531608"}, {"is_disabled": 0, "is_reserved": 0, "fusion_lat": 0.0, "lat": 38.9419815, "fusion_lon": 0.0, "rental_uris": {"ios": "https://dc.lft.to/lastmile_qr_scan", "android": "https://dc.lft.to/lastmile_qr_scan"}, "lon": -77.02566983333334, "bike_id": "4af63f4b57be837de60dc4d3fda19e67", "type": "electric_scooter", "name": "4af63f4b57be837de60dc4d3fda19e67"}, {"is_disabled": 0, "is_reserved": 0, "fusion_lat": 0.0, "lat": 38.917767, "fusion_lon": 0.0, "rental_uris": {"ios": "https://dc.lft.to/lastmile_qr_scan", "android": "https://dc.lft.to/lastmile_qr_scan"}, "lon": -77.0235565, "bike_id": "66c29e798c056dc5eeb9025216edf33e", "type": "electric_scooter", "name": "66c29e798c056dc5eeb9025216edf33e"}, {"is_disabled": 0, "is_reserved": 0, "fusion_lat": 0.0, "lat": 38.89813616666667, "fusion_lon": 0.0, "rental_uris": {"ios": "https://dc.lft.to/lastmile_qr_scan", "android": "https://dc.lft.to/lastmile_qr_scan"}, "lon": -77.002077, "bike_id": "229cb38452b4ed41ff639d2b0092d1c1", "type": "electric_scooter", "name": "229cb38452b4ed41ff639d2b0092d1c1"}, {"is_disabled": 0, "is_reserved": 0, "fusion_lat": 0.0, "lat": 38.9045035, "fusion_lon": 0.0, "rental_uris": {"ios": "https://dc.lft.to/lastmile_qr_scan", "android": "https://dc.lft.to/lastmile_qr_scan"}, "lon": -76.93273316666667, "bike_id": "fbbef67d5efcf26efc4c050949deddcf", "type": "electric_scooter", "name": "fbbef67d5efcf26efc4c050949deddcf"}, {"is_disabled": 0, "is_reserved": 0, "fusion_lat": 0.0, "lat": 38.92199516666667, "fusion_lon": 0.0, "rental_uris": {"ios": "https://dc.lft.to/lastmile_qr_scan", "android": "https://dc.lft.to/lastmile_qr_scan"}, "lon": -77.01837383333333, "bike_id": "ba011db6a1b35a43efd854c696ad57c3", "type": "electric_scooter", "name": "ba011db6a1b35a43efd854c696ad57c3"}, {"is_disabled": 0, "is_reserved": 0, "fusion_lat": 0.0, "lat": 38.93978333333333, "fusion_lon": 0.0, "rental_uris": {"ios": "https://dc.lft.to/lastmile_qr_scan", "android": "https://dc.lft.to/lastmile_qr_scan"}, "lon": -77.02892516666667, "bike_id": "8d78a30b0e0ffc055e66e482acdc7475", "type": "electric_scooter", "name": "8d78a30b0e0ffc055e66e482acdc7475"}, {"is_disabled": 0, "is_reserved": 0, "fusion_lat": 0.0, "lat": 38.8922915, "fusion_lon": 0.0, "rental_uris": {"ios": "https://dc.lft.to/lastmile_qr_scan", "android": "https://dc.lft.to/lastmile_qr_scan"}, "lon": -77.04650166666667, "bike_id": "cda46001cf38fe47781c56698ea4c822", "type": "electric_scooter", "name": "cda46001cf38fe47781c56698ea4c822"}, {"is_disabled": 0, "is_reserved": 0, "fusion_lat": 0.0, "lat": 38.85897333333333, "fusion_lon": 0.0, "rental_uris": {"ios": "https://dc.lft.to/lastmile_qr_scan", "android": "https://dc.lft.to/lastmile_qr_scan"}, "lon": -77.09554033333333, "bike_id": "d364ea45bc6eaeac743de2a03fda3d3c", "type": "electric_bike", "name": "d364ea45bc6eaeac743de2a03fda3d3c"}, {"is_disabled": 0, "is_reserved": 0, "fusion_lat": 0.0, "lat": 38.8925985, "fusion_lon": 0.0, "rental_uris": {"ios": "https://dc.lft.to/lastmile_qr_scan", "android": "https://dc.lft.to/lastmile_qr_scan"}, "lon": -77.0502305, "bike_id": "eff235550b2988a22c9bad0d21163541", "type": "electric_scooter", "name": "eff235550b2988a22c9bad0d21163541"}, {"is_disabled": 0, "is_reserved": 0, "fusion_lat": 0.0, "lat": 38.937349, "fusion_lon": 0.0, "rental_uris": {"ios": "https://dc.lft.to/lastmile_qr_scan", "android": "https://dc.lft.to/lastmile_qr_scan"}, "lon": -77.07357716666667, "bike_id": "497ae9efb04a7b4b3372b3ffef827bfd", "type": "electric_scooter", "name": "497ae9efb04a7b4b3372b3ffef827bfd"}, {"is_disabled": 0, "is_reserved": 0, "fusion_lat": 0.0, "lat": 38.9570295, "fusion_lon": 0.0, "rental_uris": {"ios": "https://dc.lft.to/lastmile_qr_scan", "android": "https://dc.lft.to/lastmile_qr_scan"}, "lon": -77.35970016666667, "bike_id": "9cddc342d90dec68d573ca366af26a24", "type": "electric_bike", "name": "9cddc342d90dec68d573ca366af26a24"}, {"is_disabled": 0, "is_reserved": 0, "fusion_lat": 0.0, "lat": 39.084297166666666, "fusion_lon": 0.0, "rental_uris": {"ios": "https://dc.lft.to/lastmile_qr_scan", "android": "https://dc.lft.to/lastmile_qr_scan"}, "lon": -76.951384, "bike_id": "a4a86f7ec0a85147d9c77e297ce4ef89", "type": "electric_bike", "name": "a4a86f7ec0a85147d9c77e297ce4ef89"}, {"is_disabled": 0, "is_reserved": 0, "fusion_lat": 0.0, "lat": 38.8844485, "fusion_lon": 0.0, "rental_uris": {"ios": "https://dc.lft.to/lastmile_qr_scan", "android": "https://dc.lft.to/lastmile_qr_scan"}, "lon": -77.00896483333334, "bike_id": "5556be5ae995e85ebdfd260787c15be3", "type": "electric_scooter", "name": "5556be5ae995e85ebdfd260787c15be3"}, {"is_disabled": 0, "is_reserved": 0, "fusion_lat": 0.0, "lat": 38.883982333333336, "fusion_lon": 0.0, "rental_uris": {"ios": "https://dc.lft.to/lastmile_qr_scan", "android": "https://dc.lft.to/lastmile_qr_scan"}, "lon": -76.93041383333333, "bike_id": "94eaef18e5fe29dc0983138cd088cc72", "type": "electric_scooter", "name": "94eaef18e5fe29dc0983138cd088cc72"}, {"is_disabled": 0, "is_reserved": 0, "fusion_lat": 0.0, "lat": 38.908387166666664, "fusion_lon": 0.0, "rental_uris": {"ios": "https://dc.lft.to/lastmile_qr_scan", "android": "https://dc.lft.to/lastmile_qr_scan"}, "lon": -77.0006615, "bike_id": "1ab5e6fd20fc083344d01411db36f5bc", "type": "electric_scooter", "name": "1ab5e6fd20fc083344d01411db36f5bc"}, {"is_disabled": 0, "is_reserved": 0, "fusion_lat": 0.0, "lat": 38.88376733333333, "fusion_lon": 0.0, "rental_uris": {"ios": "https://dc.lft.to/lastmile_qr_scan", "android": "https://dc.lft.to/lastmile_qr_scan"}, "lon": -76.9237095, "bike_id": "963da45a1fa2662095af333ef670ca9a", "type": "electric_bike", "name": "963da45a1fa2662095af333ef670ca9a"}, {"is_disabled": 0, "is_reserved": 0, "fusion_lat": 0.0, "lat": 38.905402333333335, "fusion_lon": 0.0, "rental_uris": {"ios": "https://dc.lft.to/lastmile_qr_scan", "android": "https://dc.lft.to/lastmile_qr_scan"}, "lon": -77.04862216666666, "bike_id": "b3d6537116e3b0f32af9d0e141f56ef8", "type": "electric_scooter", "name": "b3d6537116e3b0f32af9d0e141f56ef8"}, {"is_disabled": 0, "is_reserved": 0, "fusion_lat": 0.0, "lat": 38.906115666666665, "fusion_lon": 0.0, "rental_uris": {"ios": "https://dc.lft.to/lastmile_qr_scan", "android": "https://dc.lft.to/lastmile_qr_scan"}, "lon": -77.03356183333334, "bike_id": "df03a6c60880ee0a1c63c9a78581c5cd", "type": "electric_scooter", "name": "df03a6c60880ee0a1c63c9a78581c5cd"}, {"is_disabled": 0, "is_reserved": 0, "fusion_lat": 0.0, "lat": 38.8955315, "fusion_lon": 0.0, "rental_uris": {"ios": "https://dc.lft.to/lastmile_qr_scan", "android": "https://dc.lft.to/lastmile_qr_scan"}, "lon": -77.01626033333334, "bike_id": "ad3aa810522d37ce5b010c8fd0d700cc", "type": "electric_scooter", "name": "ad3aa810522d37ce5b010c8fd0d700cc"}, {"is_disabled": 0, "is_reserved": 0, "fusion_lat": 0.0, "lat": 38.923461833333334, "fusion_lon": 0.0, "rental_uris": {"ios": "https://dc.lft.to/lastmile_qr_scan", "android": "https://dc.lft.to/lastmile_qr_scan"}, "lon": -77.0352035, "bike_id": "d1caabeb10a75d4892ac3d6bff4174cf", "type": "electric_scooter", "name": "d1caabeb10a75d4892ac3d6bff4174cf"}, {"is_disabled": 0, "is_reserved": 0, "fusion_lat": 0.0, "lat": 38.9256665, "fusion_lon": 0.0, "rental_uris": {"ios": "https://dc.lft.to/lastmile_qr_scan", "android": "https://dc.lft.to/lastmile_qr_scan"}, "lon": -77.02283733333333, "bike_id": "50bca489f8f37fb2c28deb965d1dd8cf", "type": "electric_scooter", "name": "50bca489f8f37fb2c28deb965d1dd8cf"}, {"is_disabled": 0, "is_reserved": 0, "fusion_lat": 0.0, "lat": 38.923907, "fusion_lon": 0.0, "rental_uris": {"ios": "https://dc.lft.to/lastmile_qr_scan", "android": "https://dc.lft.to/lastmile_qr_scan"}, "lon": -77.0088985, "bike_id": "71fb9613c56562ba67913be5bfc588cd", "type": "electric_scooter", "name": "71fb9613c56562ba67913be5bfc588cd"}, {"is_disabled": 0, "is_reserved": 0, "fusion_lat": 0.0, "lat": 38.941952, "fusion_lon": 0.0, "rental_uris": {"ios": "https://dc.lft.to/lastmile_qr_scan", "android": "https://dc.lft.to/lastmile_qr_scan"}, "lon": -77.08823716666667, "bike_id": "9be192b5b459a0cc612293efce1ede09", "type": "electric_scooter", "name": "9be192b5b459a0cc612293efce1ede09"}, {"is_disabled": 0, "is_reserved": 0, "fusion_lat": 0.0, "lat": 38.92905433333333, "fusion_lon": 0.0, "rental_uris": {"ios": "https://dc.lft.to/lastmile_qr_scan", "android": "https://dc.lft.to/lastmile_qr_scan"}, "lon": -77.02613366666667, "bike_id": "f1dc62dd839ba3e628f1af348d5e8865", "type": "electric_scooter", "name": "f1dc62dd839ba3e628f1af348d5e8865"}, {"is_disabled": 0, "is_reserved": 0, "fusion_lat": 0.0, "lat": 38.876886, "fusion_lon": 0.0, "rental_uris": {"ios": "https://dc.lft.to/lastmile_qr_scan", "android": "https://dc.lft.to/lastmile_qr_scan"}, "lon": -77.0176535, "bike_id": "e539a932634ca14808189c5cf69c18ff", "type": "electric_scooter", "name": "e539a932634ca14808189c5cf69c18ff"}, {"is_disabled": 0, "is_reserved": 0, "fusion_lat": 0.0, "lat": 38.87600483333333, "fusion_lon": 0.0, "rental_uris": {"ios": "https://dc.lft.to/lastmile_qr_scan", "android": "https://dc.lft.to/lastmile_qr_scan"}, "lon": -77.00825883333333, "bike_id": "4f7763327199e4033a6599ed8167a73d", "type": "electric_scooter", "name": "4f7763327199e4033a6599ed8167a73d"}, {"is_disabled": 0, "is_reserved": 0, "fusion_lat": 0.0, "lat": 38.92779566666667, "fusion_lon": 0.0, "rental_uris": {"ios": "https://dc.lft.to/lastmile_qr_scan", "android": "https://dc.lft.to/lastmile_qr_scan"}, "lon": -77.02793533333333, "bike_id": "c14fcf6d096fa3e6904e9236b4bcb834", "type": "electric_scooter", "name": "c14fcf6d096fa3e6904e9236b4bcb834"}, {"is_disabled": 0, "is_reserved": 0, "fusion_lat": 0.0, "lat": 38.9187945, "fusion_lon": 0.0, "rental_uris": {"ios": "https://dc.lft.to/lastmile_qr_scan", "android": "https://dc.lft.to/lastmile_qr_scan"}, "lon": -77.03556483333334, "bike_id": "ed3700db196902ecb06b93d389d5a489", "type": "electric_scooter", "name": "ed3700db196902ecb06b93d389d5a489"}, {"is_disabled": 0, "is_reserved": 0, "fusion_lat": 0.0, "lat": 38.92969333333333, "fusion_lon": 0.0, "rental_uris": {"ios": "https://dc.lft.to/lastmile_qr_scan", "android": "https://dc.lft.to/lastmile_qr_scan"}, "lon": -77.03080666666666, "bike_id": "b4013aa901ea390888819b6735dbe35b", "type": "electric_scooter", "name": "b4013aa901ea390888819b6735dbe35b"}, {"is_disabled": 0, "is_reserved": 0, "fusion_lat": 0.0, "lat": 38.8996575, "fusion_lon": 0.0, "rental_uris": {"ios": "https://dc.lft.to/lastmile_qr_scan", "android": "https://dc.lft.to/lastmile_qr_scan"}, "lon": -77.05042783333333, "bike_id": "e5b5f132d0256a4d6556bbb6fef6e91e", "type": "electric_scooter", "name": "e5b5f132d0256a4d6556bbb6fef6e91e"}, {"is_disabled": 0, "is_reserved": 0, "fusion_lat": 0.0, "lat": 38.911096, "fusion_lon": 0.0, "rental_uris": {"ios": "https://dc.lft.to/lastmile_qr_scan", "android": "https://dc.lft.to/lastmile_qr_scan"}, "lon": -77.021708, "bike_id": "f179ea0ac86f7398a7e91db454308c3b", "type": "electric_scooter", "name": "f179ea0ac86f7398a7e91db454308c3b"}, {"is_disabled": 0, "is_reserved": 0, "fusion_lat": 0.0, "lat": 38.902635333333336, "fusion_lon": 0.0, "rental_uris": {"ios": "https://dc.lft.to/lastmile_qr_scan", "android": "https://dc.lft.to/lastmile_qr_scan"}, "lon": -77.00215583333333, "bike_id": "1c2f8237b65180d2e95a344c17ec04b7", "type": "electric_scooter", "name": "1c2f8237b65180d2e95a344c17ec04b7"}, {"is_disabled": 0, "is_reserved": 0, "fusion_lat": 0.0, "lat": 38.92205516666667, "fusion_lon": 0.0, "rental_uris": {"ios": "https://dc.lft.to/lastmile_qr_scan", "android": "https://dc.lft.to/lastmile_qr_scan"}, "lon": -77.08200866666667, "bike_id": "872205b99e2055e3240ced68b727f7e6", "type": "electric_bike", "name": "872205b99e2055e3240ced68b727f7e6"}, {"is_disabled": 0, "is_reserved": 0, "fusion_lat": 0.0, "lat": 38.95686883333333, "fusion_lon": 0.0, "rental_uris": {"ios": "https://dc.lft.to/lastmile_qr_scan", "android": "https://dc.lft.to/lastmile_qr_scan"}, "lon": -77.02230533333334, "bike_id": "0df95fcf9340094c2d76ddc1848e1c04", "type": "electric_scooter", "name": "0df95fcf9340094c2d76ddc1848e1c04"}, {"is_disabled": 0, "is_reserved": 0, "fusion_lat": 0.0, "lat": 38.95749033333333, "fusion_lon": 0.0, "rental_uris": {"ios": "https://dc.lft.to/lastmile_qr_scan", "android": "https://dc.lft.to/lastmile_qr_scan"}, "lon": -77.02206766666667, "bike_id": "5a2256510ec5892710b088460976e2d1", "type": "electric_scooter", "name": "5a2256510ec5892710b088460976e2d1"}, {"is_disabled": 0, "is_reserved": 0, "fusion_lat": 0.0, "lat": 38.87496183333333, "fusion_lon": 0.0, "rental_uris": {"ios": "https://dc.lft.to/lastmile_qr_scan", "android": "https://dc.lft.to/lastmile_qr_scan"}, "lon": -77.0007635, "bike_id": "719654728c8b200cf966b616f1aeda6d", "type": "electric_scooter", "name": "719654728c8b200cf966b616f1aeda6d"}, {"is_disabled": 0, "is_reserved": 0, "fusion_lat": 0.0, "lat": 38.8962055, "fusion_lon": 0.0, "rental_uris": {"ios": "https://dc.lft.to/lastmile_qr_scan", "android": "https://dc.lft.to/lastmile_qr_scan"}, "lon": -76.9075135, "bike_id": "ed619b8213c5f189dce85831e5ed905e", "type": "electric_bike", "name": "ed619b8213c5f189dce85831e5ed905e"}, {"is_disabled": 0, "is_reserved": 0, "fusion_lat": 0.0, "lat": 38.92291433333333, "fusion_lon": 0.0, "rental_uris": {"ios": "https://dc.lft.to/lastmile_qr_scan", "android": "https://dc.lft.to/lastmile_qr_scan"}, "lon": -77.029723, "bike_id": "6b634fa6aa59c4338eca8cdab96397fa", "type": "electric_scooter", "name": "6b634fa6aa59c4338eca8cdab96397fa"}, {"is_disabled": 0, "is_reserved": 0, "fusion_lat": 0.0, "lat": 38.885414833333336, "fusion_lon": 0.0, "rental_uris": {"ios": "https://dc.lft.to/lastmile_qr_scan", "android": "https://dc.lft.to/lastmile_qr_scan"}, "lon": -76.92363266666666, "bike_id": "b66cf4ff02a666363dbc936106eb8120", "type": "electric_scooter", "name": "b66cf4ff02a666363dbc936106eb8120"}, {"is_disabled": 0, "is_reserved": 0, "fusion_lat": 0.0, "lat": 38.9133785, "fusion_lon": 0.0, "rental_uris": {"ios": "https://dc.lft.to/lastmile_qr_scan", "android": "https://dc.lft.to/lastmile_qr_scan"}, "lon": -77.0162325, "bike_id": "69f10be25834aaf3848f0a6dbac69f7d", "type": "electric_scooter", "name": "69f10be25834aaf3848f0a6dbac69f7d"}, {"is_disabled": 0, "is_reserved": 0, "fusion_lat": 0.0, "lat": 38.8942525, "fusion_lon": 0.0, "rental_uris": {"ios": "https://dc.lft.to/lastmile_qr_scan", "android": "https://dc.lft.to/lastmile_qr_scan"}, "lon": -77.010878, "bike_id": "babc2fe62f3f619f5180f245d3682fe7", "type": "electric_scooter", "name": "babc2fe62f3f619f5180f245d3682fe7"}, {"is_disabled": 0, "is_reserved": 0, "fusion_lat": 0.0, "lat": 38.885295166666666, "fusion_lon": 0.0, "rental_uris": {"ios": "https://dc.lft.to/lastmile_qr_scan", "android": "https://dc.lft.to/lastmile_qr_scan"}, "lon": -76.9804885, "bike_id": "5895b1db1521a57b385e49ce3ab296c8", "type": "electric_scooter", "name": "5895b1db1521a57b385e49ce3ab296c8"}, {"is_disabled": 0, "is_reserved": 0, "fusion_lat": 0.0, "lat": 38.9311245, "fusion_lon": 0.0, "rental_uris": {"ios": "https://dc.lft.to/lastmile_qr_scan", "android": "https://dc.lft.to/lastmile_qr_scan"}, "lon": -77.03842283333333, "bike_id": "ceb69eed291a7cede04f5f95f8807695", "type": "electric_scooter", "name": "ceb69eed291a7cede04f5f95f8807695"}, {"is_disabled": 0, "is_reserved": 0, "fusion_lat": 0.0, "lat": 38.88289666666667, "fusion_lon": 0.0, "rental_uris": {"ios": "https://dc.lft.to/lastmile_qr_scan", "android": "https://dc.lft.to/lastmile_qr_scan"}, "lon": -76.98615733333334, "bike_id": "e4e2d71f7d9c83ad99849f1aa797595e", "type": "electric_scooter", "name": "e4e2d71f7d9c83ad99849f1aa797595e"}, {"is_disabled": 0, "is_reserved": 0, "fusion_lat": 0.0, "lat": 38.9192315, "fusion_lon": 0.0, "rental_uris": {"ios": "https://dc.lft.to/lastmile_qr_scan", "android": "https://dc.lft.to/lastmile_qr_scan"}, "lon": -77.027125, "bike_id": "8d55cf136b49ba0f8f82fdd4bffa9058", "type": "electric_scooter", "name": "8d55cf136b49ba0f8f82fdd4bffa9058"}, {"is_disabled": 0, "is_reserved": 0, "fusion_lat": 0.0, "lat": 38.870720666666664, "fusion_lon": 0.0, "rental_uris": {"ios": "https://dc.lft.to/lastmile_qr_scan", "android": "https://dc.lft.to/lastmile_qr_scan"}, "lon": -77.11024583333334, "bike_id": "5ae51369a1603ac8843f7533cca4fc4a", "type": "electric_bike", "name": "5ae51369a1603ac8843f7533cca4fc4a"}, {"is_disabled": 0, "is_reserved": 0, "fusion_lat": 0.0, "lat": 38.886248, "fusion_lon": 0.0, "rental_uris": {"ios": "https://dc.lft.to/lastmile_qr_scan", "android": "https://dc.lft.to/lastmile_qr_scan"}, "lon": -77.02823366666667, "bike_id": "119a78ff4fcd7327da061e2ae55d5972", "type": "electric_scooter", "name": "119a78ff4fcd7327da061e2ae55d5972"}, {"is_disabled": 0, "is_reserved": 0, "fusion_lat": 0.0, "lat": 38.868108, "fusion_lon": 0.0, "rental_uris": {"ios": "https://dc.lft.to/lastmile_qr_scan", "android": "https://dc.lft.to/lastmile_qr_scan"}, "lon": -76.9801655, "bike_id": "f1252c330d34ba36d20d0fa991a06a29", "type": "electric_bike", "name": "f1252c330d34ba36d20d0fa991a06a29"}, {"is_disabled": 0, "is_reserved": 0, "fusion_lat": 0.0, "lat": 38.879228499999996, "fusion_lon": 0.0, "rental_uris": {"ios": "https://dc.lft.to/lastmile_qr_scan", "android": "https://dc.lft.to/lastmile_qr_scan"}, "lon": -77.00862566666666, "bike_id": "eb5194fa7a124319caad5dc898bb2edb", "type": "electric_scooter", "name": "eb5194fa7a124319caad5dc898bb2edb"}, {"is_disabled": 0, "is_reserved": 0, "fusion_lat": 0.0, "lat": 38.9386015, "fusion_lon": 0.0, "rental_uris": {"ios": "https://dc.lft.to/lastmile_qr_scan", "android": "https://dc.lft.to/lastmile_qr_scan"}, "lon": -77.0316385, "bike_id": "5b0725f2fdc5c8246baf3bdca5e674c7", "type": "electric_scooter", "name": "5b0725f2fdc5c8246baf3bdca5e674c7"}, {"is_disabled": 0, "is_reserved": 0, "fusion_lat": 0.0, "lat": 38.89823166666667, "fusion_lon": 0.0, "rental_uris": {"ios": "https://dc.lft.to/lastmile_qr_scan", "android": "https://dc.lft.to/lastmile_qr_scan"}, "lon": -77.033374, "bike_id": "9bcebcb533caf1ed0cde27b025285d46", "type": "electric_scooter", "name": "9bcebcb533caf1ed0cde27b025285d46"}, {"is_disabled": 0, "is_reserved": 0, "fusion_lat": 0.0, "lat": 38.94727983333333, "fusion_lon": 0.0, "rental_uris": {"ios": "https://dc.lft.to/lastmile_qr_scan", "android": "https://dc.lft.to/lastmile_qr_scan"}, "lon": -77.01940466666667, "bike_id": "37dcea0f6bae2a887931d42470c01be3", "type": "electric_scooter", "name": "37dcea0f6bae2a887931d42470c01be3"}, {"is_disabled": 0, "is_reserved": 0, "fusion_lat": 0.0, "lat": 38.896634666666664, "fusion_lon": 0.0, "rental_uris": {"ios": "https://dc.lft.to/lastmile_qr_scan", "android": "https://dc.lft.to/lastmile_qr_scan"}, "lon": -76.93207783333334, "bike_id": "93993a29abaa1f51596aef8dd9a48a2d", "type": "electric_scooter", "name": "93993a29abaa1f51596aef8dd9a48a2d"}, {"is_disabled": 0, "is_reserved": 0, "fusion_lat": 0.0, "lat": 38.911219, "fusion_lon": 0.0, "rental_uris": {"ios": "https://dc.lft.to/lastmile_qr_scan", "android": "https://dc.lft.to/lastmile_qr_scan"}, "lon": -77.04255016666667, "bike_id": "7aa678061827951693afccddc41b5a81", "type": "electric_scooter", "name": "7aa678061827951693afccddc41b5a81"}, {"is_disabled": 0, "is_reserved": 0, "fusion_lat": 0.0, "lat": 38.863663, "fusion_lon": 0.0, "rental_uris": {"ios": "https://dc.lft.to/lastmile_qr_scan", "android": "https://dc.lft.to/lastmile_qr_scan"}, "lon": -76.97006666666667, "bike_id": "1a59afdc0b924d55eea9f6c4a374a416", "type": "electric_bike", "name": "1a59afdc0b924d55eea9f6c4a374a416"}, {"is_disabled": 0, "is_reserved": 0, "fusion_lat": 0.0, "lat": 38.892436333333336, "fusion_lon": 0.0, "rental_uris": {"ios": "https://dc.lft.to/lastmile_qr_scan", "android": "https://dc.lft.to/lastmile_qr_scan"}, "lon": -77.0395845, "bike_id": "19278615a8afa3ae64a1854d4ce46370", "type": "electric_scooter", "name": "19278615a8afa3ae64a1854d4ce46370"}, {"is_disabled": 0, "is_reserved": 0, "fusion_lat": 0.0, "lat": 38.87661883333333, "fusion_lon": 0.0, "rental_uris": {"ios": "https://dc.lft.to/lastmile_qr_scan", "android": "https://dc.lft.to/lastmile_qr_scan"}, "lon": -77.00884133333334, "bike_id": "16be10df17a626d67efb392118313930", "type": "electric_scooter", "name": "16be10df17a626d67efb392118313930"}, {"is_disabled": 0, "is_reserved": 0, "fusion_lat": 0.0, "lat": 38.9061615, "fusion_lon": 0.0, "rental_uris": {"ios": "https://dc.lft.to/lastmile_qr_scan", "android": "https://dc.lft.to/lastmile_qr_scan"}, "lon": -77.0297685, "bike_id": "4058be226b8d5d178fc641a41340f5d8", "type": "electric_scooter", "name": "4058be226b8d5d178fc641a41340f5d8"}, {"is_disabled": 0, "is_reserved": 0, "fusion_lat": 0.0, "lat": 38.88360933333333, "fusion_lon": 0.0, "rental_uris": {"ios": "https://dc.lft.to/lastmile_qr_scan", "android": "https://dc.lft.to/lastmile_qr_scan"}, "lon": -76.92791966666667, "bike_id": "9e8224314da7191ff47919b8e8489434", "type": "electric_scooter", "name": "9e8224314da7191ff47919b8e8489434"}, {"is_disabled": 0, "is_reserved": 0, "fusion_lat": 0.0, "lat": 38.92865166666667, "fusion_lon": 0.0, "rental_uris": {"ios": "https://dc.lft.to/lastmile_qr_scan", "android": "https://dc.lft.to/lastmile_qr_scan"}, "lon": -77.07891083333334, "bike_id": "a3e03c2addd77cce53cd16efa19905ab", "type": "electric_scooter", "name": "a3e03c2addd77cce53cd16efa19905ab"}, {"is_disabled": 0, "is_reserved": 0, "fusion_lat": 0.0, "lat": 38.9015855, "fusion_lon": 0.0, "rental_uris": {"ios": "https://dc.lft.to/lastmile_qr_scan", "android": "https://dc.lft.to/lastmile_qr_scan"}, "lon": -77.02510616666666, "bike_id": "382c80090503d5a388fb5ffff2576eaf", "type": "electric_scooter", "name": "382c80090503d5a388fb5ffff2576eaf"}, {"is_disabled": 0, "is_reserved": 0, "fusion_lat": 0.0, "lat": 38.902629166666664, "fusion_lon": 0.0, "rental_uris": {"ios": "https://dc.lft.to/lastmile_qr_scan", "android": "https://dc.lft.to/lastmile_qr_scan"}, "lon": -76.9284665, "bike_id": "05d872dec65718d8e734ffcf5aaa14bd", "type": "electric_scooter", "name": "05d872dec65718d8e734ffcf5aaa14bd"}, {"is_disabled": 0, "is_reserved": 0, "fusion_lat": 0.0, "lat": 38.898925166666665, "fusion_lon": 0.0, "rental_uris": {"ios": "https://dc.lft.to/lastmile_qr_scan", "android": "https://dc.lft.to/lastmile_qr_scan"}, "lon": -77.01964666666667, "bike_id": "e7f4afeb8e3f68bba25bdb9cf4480074", "type": "electric_scooter", "name": "e7f4afeb8e3f68bba25bdb9cf4480074"}, {"is_disabled": 0, "is_reserved": 0, "fusion_lat": 0.0, "lat": 38.918325333333335, "fusion_lon": 0.0, "rental_uris": {"ios": "https://dc.lft.to/lastmile_qr_scan", "android": "https://dc.lft.to/lastmile_qr_scan"}, "lon": -77.02282766666667, "bike_id": "39f50673a2875afcfb7e086dde0083be", "type": "electric_scooter", "name": "39f50673a2875afcfb7e086dde0083be"}, {"is_disabled": 0, "is_reserved": 0, "fusion_lat": 0.0, "lat": 38.90961, "fusion_lon": 0.0, "rental_uris": {"ios": "https://dc.lft.to/lastmile_qr_scan", "android": "https://dc.lft.to/lastmile_qr_scan"}, "lon": -77.02573483333333, "bike_id": "9eae800fd7f088f75430937ef24483a9", "type": "electric_scooter", "name": "9eae800fd7f088f75430937ef24483a9"}, {"is_disabled": 0, "is_reserved": 0, "fusion_lat": 0.0, "lat": 38.88022766666667, "fusion_lon": 0.0, "rental_uris": {"ios": "https://dc.lft.to/lastmile_qr_scan", "android": "https://dc.lft.to/lastmile_qr_scan"}, "lon": -76.943235, "bike_id": "4972e5759236e08d806220c96cd4368b", "type": "electric_scooter", "name": "4972e5759236e08d806220c96cd4368b"}, {"is_disabled": 0, "is_reserved": 0, "fusion_lat": 0.0, "lat": 38.84641416666667, "fusion_lon": 0.0, "rental_uris": {"ios": "https://dc.lft.to/lastmile_qr_scan", "android": "https://dc.lft.to/lastmile_qr_scan"}, "lon": -77.00365833333333, "bike_id": "08fda04f95a94ea174d674dd52cf6992", "type": "electric_scooter", "name": "08fda04f95a94ea174d674dd52cf6992"}, {"is_disabled": 0, "is_reserved": 0, "fusion_lat": 0.0, "lat": 38.84618416666667, "fusion_lon": 0.0, "rental_uris": {"ios": "https://dc.lft.to/lastmile_qr_scan", "android": "https://dc.lft.to/lastmile_qr_scan"}, "lon": -76.97836633333333, "bike_id": "b60d82950692377e64bb91544bd565d3", "type": "electric_bike", "name": "b60d82950692377e64bb91544bd565d3"}, {"is_disabled": 0, "is_reserved": 0, "fusion_lat": 0.0, "lat": 38.90050983333333, "fusion_lon": 0.0, "rental_uris": {"ios": "https://dc.lft.to/lastmile_qr_scan", "android": "https://dc.lft.to/lastmile_qr_scan"}, "lon": -77.017858, "bike_id": "6dbc7f8a9df177fe135498c259c69185", "type": "electric_scooter", "name": "6dbc7f8a9df177fe135498c259c69185"}, {"is_disabled": 0, "is_reserved": 0, "fusion_lat": 0.0, "lat": 38.906392333333336, "fusion_lon": 0.0, "rental_uris": {"ios": "https://dc.lft.to/lastmile_qr_scan", "android": "https://dc.lft.to/lastmile_qr_scan"}, "lon": -77.07017866666666, "bike_id": "c144d6f0374e93d89ae06ea7409fc7f8", "type": "electric_scooter", "name": "c144d6f0374e93d89ae06ea7409fc7f8"}, {"is_disabled": 0, "is_reserved": 0, "fusion_lat": 0.0, "lat": 38.88708366666667, "fusion_lon": 0.0, "rental_uris": {"ios": "https://dc.lft.to/lastmile_qr_scan", "android": "https://dc.lft.to/lastmile_qr_scan"}, "lon": -76.983395, "bike_id": "b4a1dc7437366532cc825643de3d8e54", "type": "electric_scooter", "name": "b4a1dc7437366532cc825643de3d8e54"}, {"is_disabled": 0, "is_reserved": 0, "fusion_lat": 0.0, "lat": 38.912731, "fusion_lon": 0.0, "rental_uris": {"ios": "https://dc.lft.to/lastmile_qr_scan", "android": "https://dc.lft.to/lastmile_qr_scan"}, "lon": -77.04661233333333, "bike_id": "4ed7e4921aa58d409ec507e1dc0c2463", "type": "electric_scooter", "name": "4ed7e4921aa58d409ec507e1dc0c2463"}, {"is_disabled": 0, "is_reserved": 0, "fusion_lat": 0.0, "lat": 39.04236916666667, "fusion_lon": 0.0, "rental_uris": {"ios": "https://dc.lft.to/lastmile_qr_scan", "android": "https://dc.lft.to/lastmile_qr_scan"}, "lon": -76.997358, "bike_id": "f419acfeda5631b740fa3e33382bbabb", "type": "electric_bike", "name": "f419acfeda5631b740fa3e33382bbabb"}, {"is_disabled": 0, "is_reserved": 0, "fusion_lat": 0.0, "lat": 38.89472333333333, "fusion_lon": 0.0, "rental_uris": {"ios": "https://dc.lft.to/lastmile_qr_scan", "android": "https://dc.lft.to/lastmile_qr_scan"}, "lon": -77.00267666666667, "bike_id": "d82bcd5586a44f9355a7041319ffd41e", "type": "electric_scooter", "name": "d82bcd5586a44f9355a7041319ffd41e"}, {"is_disabled": 0, "is_reserved": 0, "fusion_lat": 0.0, "lat": 38.9507555, "fusion_lon": 0.0, "rental_uris": {"ios": "https://dc.lft.to/lastmile_qr_scan", "android": "https://dc.lft.to/lastmile_qr_scan"}, "lon": -76.99597016666667, "bike_id": "69a3b97846d4f4df31df934008ddcd8a", "type": "electric_bike", "name": "69a3b97846d4f4df31df934008ddcd8a"}, {"is_disabled": 0, "is_reserved": 0, "fusion_lat": 0.0, "lat": 38.87564066666667, "fusion_lon": 0.0, "rental_uris": {"ios": "https://dc.lft.to/lastmile_qr_scan", "android": "https://dc.lft.to/lastmile_qr_scan"}, "lon": -77.047051, "bike_id": "b33aed36f7da01733c4b438dd2b8fe3c", "type": "electric_bike", "name": "b33aed36f7da01733c4b438dd2b8fe3c"}, {"is_disabled": 0, "is_reserved": 0, "fusion_lat": 0.0, "lat": 38.90886066666667, "fusion_lon": 0.0, "rental_uris": {"ios": "https://dc.lft.to/lastmile_qr_scan", "android": "https://dc.lft.to/lastmile_qr_scan"}, "lon": -77.04659566666666, "bike_id": "c5454947f64a537c22a2bd83df535db0", "type": "electric_scooter", "name": "c5454947f64a537c22a2bd83df535db0"}, {"is_disabled": 0, "is_reserved": 0, "fusion_lat": 0.0, "lat": 38.90755766666667, "fusion_lon": 0.0, "rental_uris": {"ios": "https://dc.lft.to/lastmile_qr_scan", "android": "https://dc.lft.to/lastmile_qr_scan"}, "lon": -77.00025866666667, "bike_id": "e92bedb69ae6a436303d23a98d11512f", "type": "electric_scooter", "name": "e92bedb69ae6a436303d23a98d11512f"}, {"is_disabled": 0, "is_reserved": 0, "fusion_lat": 0.0, "lat": 38.998494, "fusion_lon": 0.0, "rental_uris": {"ios": "https://dc.lft.to/lastmile_qr_scan", "android": "https://dc.lft.to/lastmile_qr_scan"}, "lon": -77.00248483333333, "bike_id": "75b9c68eee6b24f0ca2ef48e730f8e5f", "type": "electric_bike", "name": "75b9c68eee6b24f0ca2ef48e730f8e5f"}, {"is_disabled": 0, "is_reserved": 0, "fusion_lat": 0.0, "lat": 38.95354433333333, "fusion_lon": 0.0, "rental_uris": {"ios": "https://dc.lft.to/lastmile_qr_scan", "android": "https://dc.lft.to/lastmile_qr_scan"}, "lon": -76.98093066666667, "bike_id": "89c78d17d24a8bbc58f991fda20c17ad", "type": "electric_bike", "name": "89c78d17d24a8bbc58f991fda20c17ad"}, {"is_disabled": 0, "is_reserved": 0, "fusion_lat": 0.0, "lat": 38.93661183333333, "fusion_lon": 0.0, "rental_uris": {"ios": "https://dc.lft.to/lastmile_qr_scan", "android": "https://dc.lft.to/lastmile_qr_scan"}, "lon": -77.066067, "bike_id": "94682b85a74c4a2234ee5070e189042a", "type": "electric_scooter", "name": "94682b85a74c4a2234ee5070e189042a"}, {"is_disabled": 0, "is_reserved": 0, "fusion_lat": 0.0, "lat": 38.895006333333335, "fusion_lon": 0.0, "rental_uris": {"ios": "https://dc.lft.to/lastmile_qr_scan", "android": "https://dc.lft.to/lastmile_qr_scan"}, "lon": -77.022857, "bike_id": "e9c324d73309aaf695d4c30035bb2782", "type": "electric_scooter", "name": "e9c324d73309aaf695d4c30035bb2782"}, {"is_disabled": 0, "is_reserved": 0, "fusion_lat": 0.0, "lat": 38.92890216666667, "fusion_lon": 0.0, "rental_uris": {"ios": "https://dc.lft.to/lastmile_qr_scan", "android": "https://dc.lft.to/lastmile_qr_scan"}, "lon": -77.01940383333333, "bike_id": "1b627ee0d318960ab4e2f4c3f2412dba", "type": "electric_scooter", "name": "1b627ee0d318960ab4e2f4c3f2412dba"}, {"is_disabled": 0, "is_reserved": 0, "fusion_lat": 0.0, "lat": 38.920793333333336, "fusion_lon": 0.0, "rental_uris": {"ios": "https://dc.lft.to/lastmile_qr_scan", "android": "https://dc.lft.to/lastmile_qr_scan"}, "lon": -77.02431416666667, "bike_id": "ae8fc445a9d98f6f7551a5e4a4142e83", "type": "electric_scooter", "name": "ae8fc445a9d98f6f7551a5e4a4142e83"}, {"is_disabled": 0, "is_reserved": 0, "fusion_lat": 0.0, "lat": 38.928494666666666, "fusion_lon": 0.0, "rental_uris": {"ios": "https://dc.lft.to/lastmile_qr_scan", "android": "https://dc.lft.to/lastmile_qr_scan"}, "lon": -77.03729983333334, "bike_id": "422143a7712e94561112afe8b9def778", "type": "electric_scooter", "name": "422143a7712e94561112afe8b9def778"}, {"is_disabled": 0, "is_reserved": 0, "fusion_lat": 0.0, "lat": 38.91806583333333, "fusion_lon": 0.0, "rental_uris": {"ios": "https://dc.lft.to/lastmile_qr_scan", "android": "https://dc.lft.to/lastmile_qr_scan"}, "lon": -77.0000195, "bike_id": "9c14804e2fba4882679a1b7013db90e6", "type": "electric_scooter", "name": "9c14804e2fba4882679a1b7013db90e6"}, {"is_disabled": 0, "is_reserved": 0, "fusion_lat": 0.0, "lat": 38.91183083333333, "fusion_lon": 0.0, "rental_uris": {"ios": "https://dc.lft.to/lastmile_qr_scan", "android": "https://dc.lft.to/lastmile_qr_scan"}, "lon": -77.01208433333333, "bike_id": "54a2ecfece8a872744eeb033c9a82d13", "type": "electric_scooter", "name": "54a2ecfece8a872744eeb033c9a82d13"}, {"is_disabled": 0, "is_reserved": 0, "fusion_lat": 0.0, "lat": 38.8883875, "fusion_lon": 0.0, "rental_uris": {"ios": "https://dc.lft.to/lastmile_qr_scan", "android": "https://dc.lft.to/lastmile_qr_scan"}, "lon": -77.0490535, "bike_id": "d3e84e84be48f70db648d154494ac1a7", "type": "electric_scooter", "name": "d3e84e84be48f70db648d154494ac1a7"}, {"is_disabled": 0, "is_reserved": 0, "fusion_lat": 0.0, "lat": 38.881860833333334, "fusion_lon": 0.0, "rental_uris": {"ios": "https://dc.lft.to/lastmile_qr_scan", "android": "https://dc.lft.to/lastmile_qr_scan"}, "lon": -77.00353566666666, "bike_id": "c7cd0930e8ae518f3245163678743bb0", "type": "electric_scooter", "name": "c7cd0930e8ae518f3245163678743bb0"}, {"is_disabled": 0, "is_reserved": 0, "fusion_lat": 0.0, "lat": 38.924308833333335, "fusion_lon": 0.0, "rental_uris": {"ios": "https://dc.lft.to/lastmile_qr_scan", "android": "https://dc.lft.to/lastmile_qr_scan"}, "lon": -77.01945216666667, "bike_id": "45581041d2bd186e4025e8aa794fd566", "type": "electric_scooter", "name": "45581041d2bd186e4025e8aa794fd566"}, {"is_disabled": 0, "is_reserved": 0, "fusion_lat": 0.0, "lat": 38.8993035, "fusion_lon": 0.0, "rental_uris": {"ios": "https://dc.lft.to/lastmile_qr_scan", "android": "https://dc.lft.to/lastmile_qr_scan"}, "lon": -76.93760333333333, "bike_id": "e348d51606618e4996b8ab13ad266d72", "type": "electric_scooter", "name": "e348d51606618e4996b8ab13ad266d72"}, {"is_disabled": 0, "is_reserved": 0, "fusion_lat": 0.0, "lat": 38.91743783333333, "fusion_lon": 0.0, "rental_uris": {"ios": "https://dc.lft.to/lastmile_qr_scan", "android": "https://dc.lft.to/lastmile_qr_scan"}, "lon": -77.010842, "bike_id": "0b3ca2b13087718cea0a36d68eba20e5", "type": "electric_scooter", "name": "0b3ca2b13087718cea0a36d68eba20e5"}, {"is_disabled": 0, "is_reserved": 0, "fusion_lat": 0.0, "lat": 38.92826183333333, "fusion_lon": 0.0, "rental_uris": {"ios": "https://dc.lft.to/lastmile_qr_scan", "android": "https://dc.lft.to/lastmile_qr_scan"}, "lon": -77.05966266666667, "bike_id": "bae8c1fa3bb27aa6e460882d634df6d9", "type": "electric_bike", "name": "bae8c1fa3bb27aa6e460882d634df6d9"}, {"is_disabled": 0, "is_reserved": 0, "fusion_lat": 0.0, "lat": 38.87082266666667, "fusion_lon": 0.0, "rental_uris": {"ios": "https://dc.lft.to/lastmile_qr_scan", "android": "https://dc.lft.to/lastmile_qr_scan"}, "lon": -77.01080283333333, "bike_id": "35772a81b4b02efc4ad04d8577992b30", "type": "electric_scooter", "name": "35772a81b4b02efc4ad04d8577992b30"}, {"is_disabled": 0, "is_reserved": 0, "fusion_lat": 0.0, "lat": 38.8763055, "fusion_lon": 0.0, "rental_uris": {"ios": "https://dc.lft.to/lastmile_qr_scan", "android": "https://dc.lft.to/lastmile_qr_scan"}, "lon": -77.00208983333333, "bike_id": "138c32808096337e33ef2540bceefd3c", "type": "electric_scooter", "name": "138c32808096337e33ef2540bceefd3c"}, {"is_disabled": 0, "is_reserved": 0, "fusion_lat": 0.0, "lat": 38.88974266666666, "fusion_lon": 0.0, "rental_uris": {"ios": "https://dc.lft.to/lastmile_qr_scan", "android": "https://dc.lft.to/lastmile_qr_scan"}, "lon": -76.98177816666667, "bike_id": "8b919e9f289699e4b846763855dfdda1", "type": "electric_scooter", "name": "8b919e9f289699e4b846763855dfdda1"}, {"is_disabled": 0, "is_reserved": 0, "fusion_lat": 0.0, "lat": 38.916495166666664, "fusion_lon": 0.0, "rental_uris": {"ios": "https://dc.lft.to/lastmile_qr_scan", "android": "https://dc.lft.to/lastmile_qr_scan"}, "lon": -77.00953066666666, "bike_id": "918ae53671eac954766be64ec91b1090", "type": "electric_scooter", "name": "918ae53671eac954766be64ec91b1090"}, {"is_disabled": 0, "is_reserved": 0, "fusion_lat": 0.0, "lat": 38.87858, "fusion_lon": 0.0, "rental_uris": {"ios": "https://dc.lft.to/lastmile_qr_scan", "android": "https://dc.lft.to/lastmile_qr_scan"}, "lon": -77.00751966666667, "bike_id": "a568d2112530d78bc3a02ff0236d26b2", "type": "electric_scooter", "name": "a568d2112530d78bc3a02ff0236d26b2"}, {"is_disabled": 0, "is_reserved": 0, "fusion_lat": 0.0, "lat": 38.897361, "fusion_lon": 0.0, "rental_uris": {"ios": "https://dc.lft.to/lastmile_qr_scan", "android": "https://dc.lft.to/lastmile_qr_scan"}, "lon": -77.04641983333333, "bike_id": "0dc74a17af41084b41838ae94ecede1f", "type": "electric_scooter", "name": "0dc74a17af41084b41838ae94ecede1f"}, {"is_disabled": 0, "is_reserved": 0, "fusion_lat": 0.0, "lat": 38.866227333333335, "fusion_lon": 0.0, "rental_uris": {"ios": "https://dc.lft.to/lastmile_qr_scan", "android": "https://dc.lft.to/lastmile_qr_scan"}, "lon": -76.98998166666667, "bike_id": "a281a1e09649ef5d05cb99215603be23", "type": "electric_bike", "name": "a281a1e09649ef5d05cb99215603be23"}, {"is_disabled": 0, "is_reserved": 0, "fusion_lat": 0.0, "lat": 38.8787555, "fusion_lon": 0.0, "rental_uris": {"ios": "https://dc.lft.to/lastmile_qr_scan", "android": "https://dc.lft.to/lastmile_qr_scan"}, "lon": -77.0231735, "bike_id": "c88287e5b9b7a80c45bdd9d7166a19ac", "type": "electric_scooter", "name": "c88287e5b9b7a80c45bdd9d7166a19ac"}, {"is_disabled": 0, "is_reserved": 0, "fusion_lat": 0.0, "lat": 38.908397, "fusion_lon": 0.0, "rental_uris": {"ios": "https://dc.lft.to/lastmile_qr_scan", "android": "https://dc.lft.to/lastmile_qr_scan"}, "lon": -77.05806616666666, "bike_id": "a6c7b66880a3c08fb1c5a1042f30ce26", "type": "electric_scooter", "name": "a6c7b66880a3c08fb1c5a1042f30ce26"}, {"is_disabled": 0, "is_reserved": 0, "fusion_lat": 0.0, "lat": 38.919534666666664, "fusion_lon": 0.0, "rental_uris": {"ios": "https://dc.lft.to/lastmile_qr_scan", "android": "https://dc.lft.to/lastmile_qr_scan"}, "lon": -77.07868516666667, "bike_id": "6486fedebec42ca21cf89351e01872ef", "type": "electric_scooter", "name": "6486fedebec42ca21cf89351e01872ef"}, {"is_disabled": 0, "is_reserved": 0, "fusion_lat": 0.0, "lat": 38.990982, "fusion_lon": 0.0, "rental_uris": {"ios": "https://dc.lft.to/lastmile_qr_scan", "android": "https://dc.lft.to/lastmile_qr_scan"}, "lon": -76.99370883333333, "bike_id": "aeac357f2b0f19702c4a92447515f9f3", "type": "electric_bike", "name": "aeac357f2b0f19702c4a92447515f9f3"}, {"is_disabled": 0, "is_reserved": 0, "fusion_lat": 0.0, "lat": 38.920938166666666, "fusion_lon": 0.0, "rental_uris": {"ios": "https://dc.lft.to/lastmile_qr_scan", "android": "https://dc.lft.to/lastmile_qr_scan"}, "lon": -77.0317215, "bike_id": "c6357bae9cf52e75ee9c27d782d36f69", "type": "electric_scooter", "name": "c6357bae9cf52e75ee9c27d782d36f69"}, {"is_disabled": 0, "is_reserved": 0, "fusion_lat": 0.0, "lat": 38.848589833333335, "fusion_lon": 0.0, "rental_uris": {"ios": "https://dc.lft.to/lastmile_qr_scan", "android": "https://dc.lft.to/lastmile_qr_scan"}, "lon": -77.06829716666667, "bike_id": "1172d45bb476f76e4613a50fd0bc3af6", "type": "electric_bike", "name": "1172d45bb476f76e4613a50fd0bc3af6"}, {"is_disabled": 0, "is_reserved": 0, "fusion_lat": 0.0, "lat": 38.90658966666667, "fusion_lon": 0.0, "rental_uris": {"ios": "https://dc.lft.to/lastmile_qr_scan", "android": "https://dc.lft.to/lastmile_qr_scan"}, "lon": -77.048733, "bike_id": "b420881a027c0426ecd66ba39a7876f7", "type": "electric_scooter", "name": "b420881a027c0426ecd66ba39a7876f7"}, {"is_disabled": 0, "is_reserved": 0, "fusion_lat": 0.0, "lat": 38.895246, "fusion_lon": 0.0, "rental_uris": {"ios": "https://dc.lft.to/lastmile_qr_scan", "android": "https://dc.lft.to/lastmile_qr_scan"}, "lon": -77.0217785, "bike_id": "f0c82e0919595cd565fa1131140dcc26", "type": "electric_scooter", "name": "f0c82e0919595cd565fa1131140dcc26"}, {"is_disabled": 0, "is_reserved": 0, "fusion_lat": 0.0, "lat": 38.92426483333333, "fusion_lon": 0.0, "rental_uris": {"ios": "https://dc.lft.to/lastmile_qr_scan", "android": "https://dc.lft.to/lastmile_qr_scan"}, "lon": -77.042439, "bike_id": "faf1dbd42c52b75f64e810c7bee0a52f", "type": "electric_scooter", "name": "faf1dbd42c52b75f64e810c7bee0a52f"}, {"is_disabled": 0, "is_reserved": 0, "fusion_lat": 0.0, "lat": 38.879321, "fusion_lon": 0.0, "rental_uris": {"ios": "https://dc.lft.to/lastmile_qr_scan", "android": "https://dc.lft.to/lastmile_qr_scan"}, "lon": -77.00763733333334, "bike_id": "96ccf88cd887ec83892a6507e2e72c6d", "type": "electric_scooter", "name": "96ccf88cd887ec83892a6507e2e72c6d"}, {"is_disabled": 0, "is_reserved": 0, "fusion_lat": 0.0, "lat": 38.8040765, "fusion_lon": 0.0, "rental_uris": {"ios": "https://dc.lft.to/lastmile_qr_scan", "android": "https://dc.lft.to/lastmile_qr_scan"}, "lon": -77.11323483333334, "bike_id": "9f0e82afed4db55593f12a97764ff290", "type": "electric_bike", "name": "9f0e82afed4db55593f12a97764ff290"}, {"is_disabled": 0, "is_reserved": 0, "fusion_lat": 0.0, "lat": 38.9080165, "fusion_lon": 0.0, "rental_uris": {"ios": "https://dc.lft.to/lastmile_qr_scan", "android": "https://dc.lft.to/lastmile_qr_scan"}, "lon": -77.038369, "bike_id": "ac490fe43e9eb0d1338d2dd5e9c1ad5f", "type": "electric_scooter", "name": "ac490fe43e9eb0d1338d2dd5e9c1ad5f"}, {"is_disabled": 0, "is_reserved": 0, "fusion_lat": 0.0, "lat": 38.91816433333334, "fusion_lon": 0.0, "rental_uris": {"ios": "https://dc.lft.to/lastmile_qr_scan", "android": "https://dc.lft.to/lastmile_qr_scan"}, "lon": -77.0252645, "bike_id": "d26fdf0ca84ed6599949a8257e1fe985", "type": "electric_scooter", "name": "d26fdf0ca84ed6599949a8257e1fe985"}, {"is_disabled": 0, "is_reserved": 0, "fusion_lat": 0.0, "lat": 38.9305635, "fusion_lon": 0.0, "rental_uris": {"ios": "https://dc.lft.to/lastmile_qr_scan", "android": "https://dc.lft.to/lastmile_qr_scan"}, "lon": -77.02657033333334, "bike_id": "5a1c3a94c18adb3d564af220d21f761c", "type": "electric_scooter", "name": "5a1c3a94c18adb3d564af220d21f761c"}, {"is_disabled": 0, "is_reserved": 0, "fusion_lat": 0.0, "lat": 38.918017166666665, "fusion_lon": 0.0, "rental_uris": {"ios": "https://dc.lft.to/lastmile_qr_scan", "android": "https://dc.lft.to/lastmile_qr_scan"}, "lon": -77.03442166666666, "bike_id": "d55bdf86394d5ffd441dc8f6f32e6c18", "type": "electric_scooter", "name": "d55bdf86394d5ffd441dc8f6f32e6c18"}, {"is_disabled": 0, "is_reserved": 0, "fusion_lat": 0.0, "lat": 38.9065055, "fusion_lon": 0.0, "rental_uris": {"ios": "https://dc.lft.to/lastmile_qr_scan", "android": "https://dc.lft.to/lastmile_qr_scan"}, "lon": -77.011737, "bike_id": "e737c8723dca4b1ae206cc72680e3f13", "type": "electric_scooter", "name": "e737c8723dca4b1ae206cc72680e3f13"}, {"is_disabled": 0, "is_reserved": 0, "fusion_lat": 0.0, "lat": 38.8559265, "fusion_lon": 0.0, "rental_uris": {"ios": "https://dc.lft.to/lastmile_qr_scan", "android": "https://dc.lft.to/lastmile_qr_scan"}, "lon": -76.97290316666667, "bike_id": "2ee2c646dd9c3be786d2f83606166cb0", "type": "electric_bike", "name": "2ee2c646dd9c3be786d2f83606166cb0"}, {"is_disabled": 0, "is_reserved": 0, "fusion_lat": 0.0, "lat": 38.96157316666667, "fusion_lon": 0.0, "rental_uris": {"ios": "https://dc.lft.to/lastmile_qr_scan", "android": "https://dc.lft.to/lastmile_qr_scan"}, "lon": -77.0278875, "bike_id": "905e9b6a3f7b86e71b7da5b50f49b80c", "type": "electric_scooter", "name": "905e9b6a3f7b86e71b7da5b50f49b80c"}, {"is_disabled": 0, "is_reserved": 0, "fusion_lat": 0.0, "lat": 38.941393833333336, "fusion_lon": 0.0, "rental_uris": {"ios": "https://dc.lft.to/lastmile_qr_scan", "android": "https://dc.lft.to/lastmile_qr_scan"}, "lon": -77.02324383333334, "bike_id": "9b7f4415d739223589fbf6dc802e9a9d", "type": "electric_scooter", "name": "9b7f4415d739223589fbf6dc802e9a9d"}, {"is_disabled": 0, "is_reserved": 0, "fusion_lat": 0.0, "lat": 38.92030033333333, "fusion_lon": 0.0, "rental_uris": {"ios": "https://dc.lft.to/lastmile_qr_scan", "android": "https://dc.lft.to/lastmile_qr_scan"}, "lon": -77.01119716666666, "bike_id": "d9526744c6ebe415e35ef82611bc2523", "type": "electric_scooter", "name": "d9526744c6ebe415e35ef82611bc2523"}, {"is_disabled": 0, "is_reserved": 0, "fusion_lat": 0.0, "lat": 38.92065133333333, "fusion_lon": 0.0, "rental_uris": {"ios": "https://dc.lft.to/lastmile_qr_scan", "android": "https://dc.lft.to/lastmile_qr_scan"}, "lon": -77.02571933333333, "bike_id": "c98bdb00842ad48f935e1c7bc97b4fcf", "type": "electric_scooter", "name": "c98bdb00842ad48f935e1c7bc97b4fcf"}, {"is_disabled": 0, "is_reserved": 0, "fusion_lat": 0.0, "lat": 38.887708833333335, "fusion_lon": 0.0, "rental_uris": {"ios": "https://dc.lft.to/lastmile_qr_scan", "android": "https://dc.lft.to/lastmile_qr_scan"}, "lon": -76.93262466666667, "bike_id": "2786a0a51cf5000b5fc072a22040359f", "type": "electric_scooter", "name": "2786a0a51cf5000b5fc072a22040359f"}, {"is_disabled": 0, "is_reserved": 0, "fusion_lat": 0.0, "lat": 38.921524166666664, "fusion_lon": 0.0, "rental_uris": {"ios": "https://dc.lft.to/lastmile_qr_scan", "android": "https://dc.lft.to/lastmile_qr_scan"}, "lon": -77.03658866666666, "bike_id": "691467ff1e47a5acc333c5c3a48cccd2", "type": "electric_scooter", "name": "691467ff1e47a5acc333c5c3a48cccd2"}, {"is_disabled": 0, "is_reserved": 0, "fusion_lat": 0.0, "lat": 38.911171, "fusion_lon": 0.0, "rental_uris": {"ios": "https://dc.lft.to/lastmile_qr_scan", "android": "https://dc.lft.to/lastmile_qr_scan"}, "lon": -77.032958, "bike_id": "baae62b1a239368bd76ee1e358d4a910", "type": "electric_scooter", "name": "baae62b1a239368bd76ee1e358d4a910"}, {"is_disabled": 0, "is_reserved": 0, "fusion_lat": 0.0, "lat": 38.900450666666664, "fusion_lon": 0.0, "rental_uris": {"ios": "https://dc.lft.to/lastmile_qr_scan", "android": "https://dc.lft.to/lastmile_qr_scan"},