{"data": {"bikes": [{"name": "7e8eba353e3c46b433255c2fac5b6383", "fusion_lat": 0.0, "type": "electric_scooter", "lat": 38.89601016666667, "is_reserved": 0, "is_disabled": 0, "fusion_lon": 0.0, "bike_id": "7e8eba353e3c46b433255c2fac5b6383", "lon": -77.05069816666666, "rental_uris": {"ios": "https://dc.lft.to/lastmile_qr_scan", "android": "https://dc.lft.to/lastmile_qr_scan"}}, {"name": "063524c4d8b111dfcc6c07ddf3567edf", "fusion_lat": 0.0, "type": "electric_scooter", "lat": 38.89947866666667, "is_reserved": 0, "is_disabled": 0, "fusion_lon": 0.0, "bike_id": "063524c4d8b111dfcc6c07ddf3567edf", "lon": -77.03200233333334, "rental_uris": {"ios": "https://dc.lft.to/lastmile_qr_scan", "android": "https://dc.lft.to/lastmile_qr_scan"}}, {"name": "2f3ac6d5bf653648e374bf6e4e4428a3", "fusion_lat": 0.0, "type": "electric_scooter", "lat": 38.872887, "is_reserved": 0, "is_disabled": 0, "fusion_lon": 0.0, "bike_id": "2f3ac6d5bf653648e374bf6e4e4428a3", "lon": -77.00986916666666, "rental_uris": {"ios": "https://dc.lft.to/lastmile_qr_scan", "android": "https://dc.lft.to/lastmile_qr_scan"}}, {"name": "1218b1a312505428e4f583d6f7320cfc", "fusion_lat": 0.0, "type": "electric_scooter", "lat": 38.926700333333336, "is_reserved": 0, "is_disabled": 0, "fusion_lon": 0.0, "bike_id": "1218b1a312505428e4f583d6f7320cfc", "lon": -77.014994, "rental_uris": {"ios": "https://dc.lft.to/lastmile_qr_scan", "android": "https://dc.lft.to/lastmile_qr_scan"}}, {"name": "16ce21a1bc213bf8b4d92822cee7955a", "fusion_lat": 0.0, "type": "electric_scooter", "lat": 38.9324485, "is_reserved": 0, "is_disabled": 0, "fusion_lon": 0.0, "bike_id": "16ce21a1bc213bf8b4d92822cee7955a", "lon": -77.0324535, "rental_uris": {"ios": "https://dc.lft.to/lastmile_qr_scan", "android": "https://dc.lft.to/lastmile_qr_scan"}}, {"name": "45e31f9a2d98d6d5d7bab9838c9e7894", "fusion_lat": 0.0, "type": "electric_bike", "lat": 38.8977935, "is_reserved": 0, "is_disabled": 0, "fusion_lon": 0.0, "bike_id": "45e31f9a2d98d6d5d7bab9838c9e7894", "lon": -76.90435516666666, "rental_uris": {"ios": "https://dc.lft.to/lastmile_qr_scan", "android": "https://dc.lft.to/lastmile_qr_scan"}}, {"name": "48b6cf6afdccce77b2056b145b699970", "fusion_lat": 0.0, "type": "electric_bike", "lat": 38.946219666666664, "is_reserved": 0, "is_disabled": 0, "fusion_lon": 0.0, "bike_id": "48b6cf6afdccce77b2056b145b699970", "lon": -76.94631716666666, "rental_uris": {"ios": "https://dc.lft.to/lastmile_qr_scan", "android": "https://dc.lft.to/lastmile_qr_scan"}}, {"name": "82024d64ef2082edc568a2f389bdbfc6", "fusion_lat": 0.0, "type": "electric_scooter", "lat": 38.90288733333333, "is_reserved": 0, "is_disabled": 0, "fusion_lon": 0.0, "bike_id": "82024d64ef2082edc568a2f389bdbfc6", "lon": -77.03866283333333, "rental_uris": {"ios": "https://dc.lft.to/lastmile_qr_scan", "android": "https://dc.lft.to/lastmile_qr_scan"}}, {"name": "40b9e566d3939d6a7bea273046f4ca3a", "fusion_lat": 0.0, "type": "electric_scooter", "lat": 38.9311655, "is_reserved": 0, "is_disabled": 0, "fusion_lon": 0.0, "bike_id": "40b9e566d3939d6a7bea273046f4ca3a", "lon": -77.02087816666666, "rental_uris": {"ios": "https://dc.lft.to/lastmile_qr_scan", "android": "https://dc.lft.to/lastmile_qr_scan"}}, {"name": "ddebc047b26e022833fcad22eac40f2a", "fusion_lat": 0.0, "type": "electric_scooter", "lat": 38.90559416666667, "is_reserved": 0, "is_disabled": 0, "fusion_lon": 0.0, "bike_id": "ddebc047b26e022833fcad22eac40f2a", "lon": -77.0438345, "rental_uris": {"ios": "https://dc.lft.to/lastmile_qr_scan", "android": "https://dc.lft.to/lastmile_qr_scan"}}, {"name": "f03b5615eace6ba4066aaecd519b6fc6", "fusion_lat": 0.0, "type": "electric_scooter", "lat": 38.89756533333333, "is_reserved": 0, "is_disabled": 0, "fusion_lon": 0.0, "bike_id": "f03b5615eace6ba4066aaecd519b6fc6", "lon": -77.00766166666666, "rental_uris": {"ios": "https://dc.lft.to/lastmile_qr_scan", "android": "https://dc.lft.to/lastmile_qr_scan"}}, {"name": "20b90643a79981c12cb1b1fdb9c42fd0", "fusion_lat": 0.0, "type": "electric_bike", "lat": 38.90849933333333, "is_reserved": 0, "is_disabled": 0, "fusion_lon": 0.0, "bike_id": "20b90643a79981c12cb1b1fdb9c42fd0", "lon": -77.02280133333333, "rental_uris": {"ios": "https://dc.lft.to/lastmile_qr_scan", "android": "https://dc.lft.to/lastmile_qr_scan"}}, {"name": "7feb5fe144ed4f8abe093f81b186bc40", "fusion_lat": 0.0, "type": "electric_scooter", "lat": 38.931222, "is_reserved": 0, "is_disabled": 0, "fusion_lon": 0.0, "bike_id": "7feb5fe144ed4f8abe093f81b186bc40", "lon": -77.0360395, "rental_uris": {"ios": "https://dc.lft.to/lastmile_qr_scan", "android": "https://dc.lft.to/lastmile_qr_scan"}}, {"name": "2e360ecee48548adeeed9ebc2f2debcd", "fusion_lat": 0.0, "type": "electric_scooter", "lat": 38.93900633333333, "is_reserved": 0, "is_disabled": 0, "fusion_lon": 0.0, "bike_id": "2e360ecee48548adeeed9ebc2f2debcd", "lon": -77.03282933333334, "rental_uris": {"ios": "https://dc.lft.to/lastmile_qr_scan", "android": "https://dc.lft.to/lastmile_qr_scan"}}, {"name": "80ad01a9a20b5ff02dd5479cd0f3f43d", "fusion_lat": 0.0, "type": "electric_scooter", "lat": 38.898846, "is_reserved": 0, "is_disabled": 0, "fusion_lon": 0.0, "bike_id": "80ad01a9a20b5ff02dd5479cd0f3f43d", "lon": -77.03339, "rental_uris": {"ios": "https://dc.lft.to/lastmile_qr_scan", "android": "https://dc.lft.to/lastmile_qr_scan"}}, {"name": "0a3152e71d01fa016c34f9f65fd9fdc7", "fusion_lat": 0.0, "type": "electric_scooter", "lat": 38.90013583333333, "is_reserved": 0, "is_disabled": 0, "fusion_lon": 0.0, "bike_id": "0a3152e71d01fa016c34f9f65fd9fdc7", "lon": -77.03313233333333, "rental_uris": {"ios": "https://dc.lft.to/lastmile_qr_scan", "android": "https://dc.lft.to/lastmile_qr_scan"}}, {"name": "689737c930ca6c793b74c298eafd6681", "fusion_lat": 0.0, "type": "electric_scooter", "lat": 38.91117033333333, "is_reserved": 0, "is_disabled": 0, "fusion_lon": 0.0, "bike_id": "689737c930ca6c793b74c298eafd6681", "lon": -77.03296416666667, "rental_uris": {"ios": "https://dc.lft.to/lastmile_qr_scan", "android": "https://dc.lft.to/lastmile_qr_scan"}}, {"name": "0ae61b09dd63d4841232ffd308c2fc2c", "fusion_lat": 0.0, "type": "electric_scooter", "lat": 38.90022716666667, "is_reserved": 0, "is_disabled": 0, "fusion_lon": 0.0, "bike_id": "0ae61b09dd63d4841232ffd308c2fc2c", "lon": -77.011258, "rental_uris": {"ios": "https://dc.lft.to/lastmile_qr_scan", "android": "https://dc.lft.to/lastmile_qr_scan"}}, {"name": "42388bacaf7586da81d0947e55a7fe90", "fusion_lat": 0.0, "type": "electric_scooter", "lat": 38.924843333333335, "is_reserved": 0, "is_disabled": 0, "fusion_lon": 0.0, "bike_id": "42388bacaf7586da81d0947e55a7fe90", "lon": -77.027165, "rental_uris": {"ios": "https://dc.lft.to/lastmile_qr_scan", "android": "https://dc.lft.to/lastmile_qr_scan"}}, {"name": "51fedc137648f75b0e156b59f36be849", "fusion_lat": 0.0, "type": "electric_scooter", "lat": 38.866586833333336, "is_reserved": 0, "is_disabled": 0, "fusion_lon": 0.0, "bike_id": "51fedc137648f75b0e156b59f36be849", "lon": -76.98883783333333, "rental_uris": {"ios": "https://dc.lft.to/lastmile_qr_scan", "android": "https://dc.lft.to/lastmile_qr_scan"}}, {"name": "e6ea1a593854af4cea6bd954e27b4f2b", "fusion_lat": 0.0, "type": "electric_scooter", "lat": 38.924792, "is_reserved": 0, "is_disabled": 0, "fusion_lon": 0.0, "bike_id": "e6ea1a593854af4cea6bd954e27b4f2b", "lon": -77.02894916666666, "rental_uris": {"ios": "https://dc.lft.to/lastmile_qr_scan", "android": "https://dc.lft.to/lastmile_qr_scan"}}, {"name": "9f6e50818971a1bf7117138fbc84039b", "fusion_lat": 0.0, "type": "electric_scooter", "lat": 38.911098, "is_reserved": 0, "is_disabled": 0, "fusion_lon": 0.0, "bike_id": "9f6e50818971a1bf7117138fbc84039b", "lon": -77.01186283333334, "rental_uris": {"ios": "https://dc.lft.to/lastmile_qr_scan", "android": "https://dc.lft.to/lastmile_qr_scan"}}, {"name": "71d643547a6c8c833ed47cdfac234662", "fusion_lat": 0.0, "type": "electric_scooter", "lat": 38.90376783333333, "is_reserved": 0, "is_disabled": 0, "fusion_lon": 0.0, "bike_id": "71d643547a6c8c833ed47cdfac234662", "lon": -77.0450255, "rental_uris": {"ios": "https://dc.lft.to/lastmile_qr_scan", "android": "https://dc.lft.to/lastmile_qr_scan"}}, {"name": "01c0365cc7b73d0f0b4badefe3330e08", "fusion_lat": 0.0, "type": "electric_scooter", "lat": 38.90272616666667, "is_reserved": 0, "is_disabled": 0, "fusion_lon": 0.0, "bike_id": "01c0365cc7b73d0f0b4badefe3330e08", "lon": -77.04588566666666, "rental_uris": {"ios": "https://dc.lft.to/lastmile_qr_scan", "android": "https://dc.lft.to/lastmile_qr_scan"}}, {"name": "4af1fd64e04d4e577f961a6d22ce5117", "fusion_lat": 0.0, "type": "electric_scooter", "lat": 38.896144666666665, "is_reserved": 0, "is_disabled": 0, "fusion_lon": 0.0, "bike_id": "4af1fd64e04d4e577f961a6d22ce5117", "lon": -77.0101395, "rental_uris": {"ios": "https://dc.lft.to/lastmile_qr_scan", "android": "https://dc.lft.to/lastmile_qr_scan"}}, {"name": "9ffc81eac8954fb0f33f3477ca1160ff", "fusion_lat": 0.0, "type": "electric_scooter", "lat": 38.910114166666666, "is_reserved": 0, "is_disabled": 0, "fusion_lon": 0.0, "bike_id": "9ffc81eac8954fb0f33f3477ca1160ff", "lon": -76.9938855, "rental_uris": {"ios": "https://dc.lft.to/lastmile_qr_scan", "android": "https://dc.lft.to/lastmile_qr_scan"}}, {"name": "22a2c6975d508cf55968476ff34bc8d4", "fusion_lat": 0.0, "type": "electric_scooter", "lat": 38.924993666666666, "is_reserved": 0, "is_disabled": 0, "fusion_lon": 0.0, "bike_id": "22a2c6975d508cf55968476ff34bc8d4", "lon": -77.03879566666667, "rental_uris": {"ios": "https://dc.lft.to/lastmile_qr_scan", "android": "https://dc.lft.to/lastmile_qr_scan"}}, {"name": "640d9929c41dd55977ad8968b963c2c3", "fusion_lat": 0.0, "type": "electric_scooter", "lat": 38.91107433333333, "is_reserved": 0, "is_disabled": 0, "fusion_lon": 0.0, "bike_id": "640d9929c41dd55977ad8968b963c2c3", "lon": -77.042231, "rental_uris": {"ios": "https://dc.lft.to/lastmile_qr_scan", "android": "https://dc.lft.to/lastmile_qr_scan"}}, {"name": "c50da76fe9ca7bdfc9193a3aeff1a955", "fusion_lat": 0.0, "type": "electric_scooter", "lat": 38.90522216666667, "is_reserved": 0, "is_disabled": 0, "fusion_lon": 0.0, "bike_id": "c50da76fe9ca7bdfc9193a3aeff1a955", "lon": -77.06626016666667, "rental_uris": {"ios": "https://dc.lft.to/lastmile_qr_scan", "android": "https://dc.lft.to/lastmile_qr_scan"}}, {"name": "5309f4d0b9766d741c1ee05df368ab9c", "fusion_lat": 0.0, "type": "electric_scooter", "lat": 38.915515166666665, "is_reserved": 0, "is_disabled": 0, "fusion_lon": 0.0, "bike_id": "5309f4d0b9766d741c1ee05df368ab9c", "lon": -77.024512, "rental_uris": {"ios": "https://dc.lft.to/lastmile_qr_scan", "android": "https://dc.lft.to/lastmile_qr_scan"}}, {"name": "468c809b85e249c6fa608785118d6592", "fusion_lat": 0.0, "type": "electric_scooter", "lat": 38.90279733333333, "is_reserved": 0, "is_disabled": 0, "fusion_lon": 0.0, "bike_id": "468c809b85e249c6fa608785118d6592", "lon": -77.03059333333333, "rental_uris": {"ios": "https://dc.lft.to/lastmile_qr_scan", "android": "https://dc.lft.to/lastmile_qr_scan"}}, {"name": "f2ea099c78da2346214e8fcb5d028cf3", "fusion_lat": 0.0, "type": "electric_scooter", "lat": 38.88869116666667, "is_reserved": 0, "is_disabled": 0, "fusion_lon": 0.0, "bike_id": "f2ea099c78da2346214e8fcb5d028cf3", "lon": -77.03026466666667, "rental_uris": {"ios": "https://dc.lft.to/lastmile_qr_scan", "android": "https://dc.lft.to/lastmile_qr_scan"}}, {"name": "614be8a606a8308d03fcf3a978ad2734", "fusion_lat": 0.0, "type": "electric_bike", "lat": 38.94274266666667, "is_reserved": 0, "is_disabled": 0, "fusion_lon": 0.0, "bike_id": "614be8a606a8308d03fcf3a978ad2734", "lon": -76.98075816666666, "rental_uris": {"ios": "https://dc.lft.to/lastmile_qr_scan", "android": "https://dc.lft.to/lastmile_qr_scan"}}, {"name": "dbc457d5421803c32f639e7190a82a26", "fusion_lat": 0.0, "type": "electric_scooter", "lat": 38.9360165, "is_reserved": 0, "is_disabled": 0, "fusion_lon": 0.0, "bike_id": "dbc457d5421803c32f639e7190a82a26", "lon": -77.05855483333333, "rental_uris": {"ios": "https://dc.lft.to/lastmile_qr_scan", "android": "https://dc.lft.to/lastmile_qr_scan"}}, {"name": "dce996f5eceb0298592f7515f7d8899f", "fusion_lat": 0.0, "type": "electric_scooter", "lat": 38.922881833333335, "is_reserved": 0, "is_disabled": 0, "fusion_lon": 0.0, "bike_id": "dce996f5eceb0298592f7515f7d8899f", "lon": -77.042533, "rental_uris": {"ios": "https://dc.lft.to/lastmile_qr_scan", "android": "https://dc.lft.to/lastmile_qr_scan"}}, {"name": "fc61a13f88ba46ad6912649fd60c4ba4", "fusion_lat": 0.0, "type": "electric_scooter", "lat": 38.898841166666664, "is_reserved": 0, "is_disabled": 0, "fusion_lon": 0.0, "bike_id": "fc61a13f88ba46ad6912649fd60c4ba4", "lon": -76.93175666666667, "rental_uris": {"ios": "https://dc.lft.to/lastmile_qr_scan", "android": "https://dc.lft.to/lastmile_qr_scan"}}, {"name": "2cea0de5de8bc3b38b5d35bc5a238101", "fusion_lat": 0.0, "type": "electric_scooter", "lat": 38.928953, "is_reserved": 0, "is_disabled": 0, "fusion_lon": 0.0, "bike_id": "2cea0de5de8bc3b38b5d35bc5a238101", "lon": -77.02500166666667, "rental_uris": {"ios": "https://dc.lft.to/lastmile_qr_scan", "android": "https://dc.lft.to/lastmile_qr_scan"}}, {"name": "c03fd25dfd8e1154f98377e8c79b1aa8", "fusion_lat": 0.0, "type": "electric_scooter", "lat": 38.919064, "is_reserved": 0, "is_disabled": 0, "fusion_lon": 0.0, "bike_id": "c03fd25dfd8e1154f98377e8c79b1aa8", "lon": -77.03441333333333, "rental_uris": {"ios": "https://dc.lft.to/lastmile_qr_scan", "android": "https://dc.lft.to/lastmile_qr_scan"}}, {"name": "33c574c899584da2e0c7fd3f34fab89e", "fusion_lat": 0.0, "type": "electric_scooter", "lat": 38.9147985, "is_reserved": 0, "is_disabled": 0, "fusion_lon": 0.0, "bike_id": "33c574c899584da2e0c7fd3f34fab89e", "lon": -77.04605566666666, "rental_uris": {"ios": "https://dc.lft.to/lastmile_qr_scan", "android": "https://dc.lft.to/lastmile_qr_scan"}}, {"name": "cf30e58fdca32af0f04cca326f7e3967", "fusion_lat": 0.0, "type": "electric_scooter", "lat": 38.903312166666666, "is_reserved": 0, "is_disabled": 0, "fusion_lon": 0.0, "bike_id": "cf30e58fdca32af0f04cca326f7e3967", "lon": -77.02523233333334, "rental_uris": {"ios": "https://dc.lft.to/lastmile_qr_scan", "android": "https://dc.lft.to/lastmile_qr_scan"}}, {"name": "49eaef9660bcfcd1c57183cd10bb0b80", "fusion_lat": 0.0, "type": "electric_scooter", "lat": 38.94835716666667, "is_reserved": 0, "is_disabled": 0, "fusion_lon": 0.0, "bike_id": "49eaef9660bcfcd1c57183cd10bb0b80", "lon": -77.02555066666666, "rental_uris": {"ios": "https://dc.lft.to/lastmile_qr_scan", "android": "https://dc.lft.to/lastmile_qr_scan"}}, {"name": "e193f228e5ff5fbca5e681268e049218", "fusion_lat": 0.0, "type": "electric_scooter", "lat": 38.90137166666667, "is_reserved": 0, "is_disabled": 0, "fusion_lon": 0.0, "bike_id": "e193f228e5ff5fbca5e681268e049218", "lon": -77.0475185, "rental_uris": {"ios": "https://dc.lft.to/lastmile_qr_scan", "android": "https://dc.lft.to/lastmile_qr_scan"}}, {"name": "41106c999c5296c986730e8a2a42a2ce", "fusion_lat": 0.0, "type": "electric_scooter", "lat": 38.923743, "is_reserved": 0, "is_disabled": 0, "fusion_lon": 0.0, "bike_id": "41106c999c5296c986730e8a2a42a2ce", "lon": -77.01911316666667, "rental_uris": {"ios": "https://dc.lft.to/lastmile_qr_scan", "android": "https://dc.lft.to/lastmile_qr_scan"}}, {"name": "e3b4a8f6139088b5943cdda6993ec04e", "fusion_lat": 0.0, "type": "electric_scooter", "lat": 38.941807, "is_reserved": 0, "is_disabled": 0, "fusion_lon": 0.0, "bike_id": "e3b4a8f6139088b5943cdda6993ec04e", "lon": -77.02489316666667, "rental_uris": {"ios": "https://dc.lft.to/lastmile_qr_scan", "android": "https://dc.lft.to/lastmile_qr_scan"}}, {"name": "4a159b590ecfbb4e71138feaa6208012", "fusion_lat": 0.0, "type": "electric_scooter", "lat": 38.86204433333333, "is_reserved": 0, "is_disabled": 0, "fusion_lon": 0.0, "bike_id": "4a159b590ecfbb4e71138feaa6208012", "lon": -76.99463433333334, "rental_uris": {"ios": "https://dc.lft.to/lastmile_qr_scan", "android": "https://dc.lft.to/lastmile_qr_scan"}}, {"name": "7f520d94c3dbbe84c04961fd59276fcc", "fusion_lat": 0.0, "type": "electric_scooter", "lat": 38.87752966666667, "is_reserved": 0, "is_disabled": 0, "fusion_lon": 0.0, "bike_id": "7f520d94c3dbbe84c04961fd59276fcc", "lon": -76.972428, "rental_uris": {"ios": "https://dc.lft.to/lastmile_qr_scan", "android": "https://dc.lft.to/lastmile_qr_scan"}}, {"name": "49b364021c93925735c66c6c36812fc4", "fusion_lat": 0.0, "type": "electric_scooter", "lat": 38.92879933333333, "is_reserved": 0, "is_disabled": 0, "fusion_lon": 0.0, "bike_id": "49b364021c93925735c66c6c36812fc4", "lon": -77.02707033333333, "rental_uris": {"ios": "https://dc.lft.to/lastmile_qr_scan", "android": "https://dc.lft.to/lastmile_qr_scan"}}, {"name": "f87a321ab4efa7cef2b9e44cc41e1bd0", "fusion_lat": 0.0, "type": "electric_scooter", "lat": 38.910091333333334, "is_reserved": 0, "is_disabled": 0, "fusion_lon": 0.0, "bike_id": "f87a321ab4efa7cef2b9e44cc41e1bd0", "lon": -76.99677466666667, "rental_uris": {"ios": "https://dc.lft.to/lastmile_qr_scan", "android": "https://dc.lft.to/lastmile_qr_scan"}}, {"name": "ad0aa2008990370b7892894265aa06b4", "fusion_lat": 0.0, "type": "electric_scooter", "lat": 38.906530833333335, "is_reserved": 0, "is_disabled": 0, "fusion_lon": 0.0, "bike_id": "ad0aa2008990370b7892894265aa06b4", "lon": -77.04329933333334, "rental_uris": {"ios": "https://dc.lft.to/lastmile_qr_scan", "android": "https://dc.lft.to/lastmile_qr_scan"}}, {"name": "4c26d210d2156f3c8e2db33c2f9daced", "fusion_lat": 0.0, "type": "electric_scooter", "lat": 38.90004733333333, "is_reserved": 0, "is_disabled": 0, "fusion_lon": 0.0, "bike_id": "4c26d210d2156f3c8e2db33c2f9daced", "lon": -77.04035883333333, "rental_uris": {"ios": "https://dc.lft.to/lastmile_qr_scan", "android": "https://dc.lft.to/lastmile_qr_scan"}}, {"name": "d4d3cc3d98c2b5977013ab8c2a359561", "fusion_lat": 0.0, "type": "electric_scooter", "lat": 38.939128, "is_reserved": 0, "is_disabled": 0, "fusion_lon": 0.0, "bike_id": "d4d3cc3d98c2b5977013ab8c2a359561", "lon": -77.06044766666666, "rental_uris": {"ios": "https://dc.lft.to/lastmile_qr_scan", "android": "https://dc.lft.to/lastmile_qr_scan"}}, {"name": "197df085d457e3c116aa466ab92ae391", "fusion_lat": 0.0, "type": "electric_scooter", "lat": 38.901355333333335, "is_reserved": 0, "is_disabled": 0, "fusion_lon": 0.0, "bike_id": "197df085d457e3c116aa466ab92ae391", "lon": -77.04707933333333, "rental_uris": {"ios": "https://dc.lft.to/lastmile_qr_scan", "android": "https://dc.lft.to/lastmile_qr_scan"}}, {"name": "21642f84cdf4bcf0dea3ffcc3906a274", "fusion_lat": 0.0, "type": "electric_scooter", "lat": 38.8802475, "is_reserved": 0, "is_disabled": 0, "fusion_lon": 0.0, "bike_id": "21642f84cdf4bcf0dea3ffcc3906a274", "lon": -76.98837066666667, "rental_uris": {"ios": "https://dc.lft.to/lastmile_qr_scan", "android": "https://dc.lft.to/lastmile_qr_scan"}}, {"name": "626fdc0bb1ad2421fa97f09f0785b256", "fusion_lat": 0.0, "type": "electric_scooter", "lat": 38.899636666666666, "is_reserved": 0, "is_disabled": 0, "fusion_lon": 0.0, "bike_id": "626fdc0bb1ad2421fa97f09f0785b256", "lon": -77.05295716666667, "rental_uris": {"ios": "https://dc.lft.to/lastmile_qr_scan", "android": "https://dc.lft.to/lastmile_qr_scan"}}, {"name": "fcc1d6a1d36e28f09107b1b155191016", "fusion_lat": 0.0, "type": "electric_scooter", "lat": 38.8831875, "is_reserved": 0, "is_disabled": 0, "fusion_lon": 0.0, "bike_id": "fcc1d6a1d36e28f09107b1b155191016", "lon": -77.0153045, "rental_uris": {"ios": "https://dc.lft.to/lastmile_qr_scan", "android": "https://dc.lft.to/lastmile_qr_scan"}}, {"name": "68ed081a8fe3573ebbd8c7cd4df794c9", "fusion_lat": 0.0, "type": "electric_scooter", "lat": 38.927338, "is_reserved": 0, "is_disabled": 0, "fusion_lon": 0.0, "bike_id": "68ed081a8fe3573ebbd8c7cd4df794c9", "lon": -77.02487316666667, "rental_uris": {"ios": "https://dc.lft.to/lastmile_qr_scan", "android": "https://dc.lft.to/lastmile_qr_scan"}}, {"name": "8c21e141b1d953a0b2094b012885c1d6", "fusion_lat": 0.0, "type": "electric_scooter", "lat": 38.90044866666667, "is_reserved": 0, "is_disabled": 0, "fusion_lon": 0.0, "bike_id": "8c21e141b1d953a0b2094b012885c1d6", "lon": -77.00727733333333, "rental_uris": {"ios": "https://dc.lft.to/lastmile_qr_scan", "android": "https://dc.lft.to/lastmile_qr_scan"}}, {"name": "f55451168cbc81cdfdb6adfd1dda8733", "fusion_lat": 0.0, "type": "electric_scooter", "lat": 38.920917333333335, "is_reserved": 0, "is_disabled": 0, "fusion_lon": 0.0, "bike_id": "f55451168cbc81cdfdb6adfd1dda8733", "lon": -77.03978333333333, "rental_uris": {"ios": "https://dc.lft.to/lastmile_qr_scan", "android": "https://dc.lft.to/lastmile_qr_scan"}}, {"name": "dedebee1133bcd67f3a0afa60a6c5c4a", "fusion_lat": 0.0, "type": "electric_scooter", "lat": 38.89912966666667, "is_reserved": 0, "is_disabled": 0, "fusion_lon": 0.0, "bike_id": "dedebee1133bcd67f3a0afa60a6c5c4a", "lon": -77.03305133333333, "rental_uris": {"ios": "https://dc.lft.to/lastmile_qr_scan", "android": "https://dc.lft.to/lastmile_qr_scan"}}, {"name": "7dd9110e106b033ecb8991bb1a9b706e", "fusion_lat": 0.0, "type": "electric_bike", "lat": 38.854187833333334, "is_reserved": 0, "is_disabled": 0, "fusion_lon": 0.0, "bike_id": "7dd9110e106b033ecb8991bb1a9b706e", "lon": -76.909743, "rental_uris": {"ios": "https://dc.lft.to/lastmile_qr_scan", "android": "https://dc.lft.to/lastmile_qr_scan"}}, {"name": "1f78ce845b0f1b49f60f7f09e3e545c8", "fusion_lat": 0.0, "type": "electric_scooter", "lat": 38.9290535, "is_reserved": 0, "is_disabled": 0, "fusion_lon": 0.0, "bike_id": "1f78ce845b0f1b49f60f7f09e3e545c8", "lon": -77.02159533333334, "rental_uris": {"ios": "https://dc.lft.to/lastmile_qr_scan", "android": "https://dc.lft.to/lastmile_qr_scan"}}, {"name": "cdcf34f9251aa86d962df3f4a2e71c46", "fusion_lat": 0.0, "type": "electric_bike", "lat": 39.02683016666667, "is_reserved": 0, "is_disabled": 0, "fusion_lon": 0.0, "bike_id": "cdcf34f9251aa86d962df3f4a2e71c46", "lon": -77.12604033333334, "rental_uris": {"ios": "https://dc.lft.to/lastmile_qr_scan", "android": "https://dc.lft.to/lastmile_qr_scan"}}, {"name": "5090b72f3070bee150436b611003111a", "fusion_lat": 0.0, "type": "electric_scooter", "lat": 38.912646333333335, "is_reserved": 0, "is_disabled": 0, "fusion_lon": 0.0, "bike_id": "5090b72f3070bee150436b611003111a", "lon": -77.031448, "rental_uris": {"ios": "https://dc.lft.to/lastmile_qr_scan", "android": "https://dc.lft.to/lastmile_qr_scan"}}, {"name": "6023b1eafe05e095f42a8e63afc10418", "fusion_lat": 0.0, "type": "electric_scooter", "lat": 38.876711, "is_reserved": 0, "is_disabled": 0, "fusion_lon": 0.0, "bike_id": "6023b1eafe05e095f42a8e63afc10418", "lon": -77.017834, "rental_uris": {"ios": "https://dc.lft.to/lastmile_qr_scan", "android": "https://dc.lft.to/lastmile_qr_scan"}}, {"name": "6e7a97842068f4940fc6f59a1bdd5890", "fusion_lat": 0.0, "type": "electric_bike", "lat": 38.8104855, "is_reserved": 0, "is_disabled": 0, "fusion_lon": 0.0, "bike_id": "6e7a97842068f4940fc6f59a1bdd5890", "lon": -77.0850705, "rental_uris": {"ios": "https://dc.lft.to/lastmile_qr_scan", "android": "https://dc.lft.to/lastmile_qr_scan"}}, {"name": "0b56d2d387d2e6bbf3112b8a30b02680", "fusion_lat": 0.0, "type": "electric_scooter", "lat": 38.935291, "is_reserved": 0, "is_disabled": 0, "fusion_lon": 0.0, "bike_id": "0b56d2d387d2e6bbf3112b8a30b02680", "lon": -77.03396566666666, "rental_uris": {"ios": "https://dc.lft.to/lastmile_qr_scan", "android": "https://dc.lft.to/lastmile_qr_scan"}}, {"name": "c001a99f84124b3b3aaf28e9f21038b2", "fusion_lat": 0.0, "type": "electric_scooter", "lat": 38.904361333333334, "is_reserved": 0, "is_disabled": 0, "fusion_lon": 0.0, "bike_id": "c001a99f84124b3b3aaf28e9f21038b2", "lon": -77.0533035, "rental_uris": {"ios": "https://dc.lft.to/lastmile_qr_scan", "android": "https://dc.lft.to/lastmile_qr_scan"}}, {"name": "a3f9f17537ecad23b23b950be3d5a313", "fusion_lat": 0.0, "type": "electric_scooter", "lat": 38.89525116666667, "is_reserved": 0, "is_disabled": 0, "fusion_lon": 0.0, "bike_id": "a3f9f17537ecad23b23b950be3d5a313", "lon": -76.9488955, "rental_uris": {"ios": "https://dc.lft.to/lastmile_qr_scan", "android": "https://dc.lft.to/lastmile_qr_scan"}}, {"name": "96c6b7f0462f741fd2f96fb39fc3d6f6", "fusion_lat": 0.0, "type": "electric_scooter", "lat": 38.92165583333333, "is_reserved": 0, "is_disabled": 0, "fusion_lon": 0.0, "bike_id": "96c6b7f0462f741fd2f96fb39fc3d6f6", "lon": -76.9939925, "rental_uris": {"ios": "https://dc.lft.to/lastmile_qr_scan", "android": "https://dc.lft.to/lastmile_qr_scan"}}, {"name": "407eb21b571a12f2093e3a8c553e97b1", "fusion_lat": 0.0, "type": "electric_scooter", "lat": 38.89356183333334, "is_reserved": 0, "is_disabled": 0, "fusion_lon": 0.0, "bike_id": "407eb21b571a12f2093e3a8c553e97b1", "lon": -77.00332533333334, "rental_uris": {"ios": "https://dc.lft.to/lastmile_qr_scan", "android": "https://dc.lft.to/lastmile_qr_scan"}}, {"name": "8dc4f12d5324328ad334dabbbc241a6a", "fusion_lat": 0.0, "type": "electric_scooter", "lat": 38.9056895, "is_reserved": 0, "is_disabled": 0, "fusion_lon": 0.0, "bike_id": "8dc4f12d5324328ad334dabbbc241a6a", "lon": -77.004127, "rental_uris": {"ios": "https://dc.lft.to/lastmile_qr_scan", "android": "https://dc.lft.to/lastmile_qr_scan"}}, {"name": "bb9d303352fd75387600cdd4fd689e61", "fusion_lat": 0.0, "type": "electric_bike", "lat": 38.900820333333336, "is_reserved": 0, "is_disabled": 0, "fusion_lon": 0.0, "bike_id": "bb9d303352fd75387600cdd4fd689e61", "lon": -77.0590555, "rental_uris": {"ios": "https://dc.lft.to/lastmile_qr_scan", "android": "https://dc.lft.to/lastmile_qr_scan"}}, {"name": "2ed9b3f1a97c34ff7e2b15d8d04fb166", "fusion_lat": 0.0, "type": "electric_bike", "lat": 38.896709, "is_reserved": 0, "is_disabled": 0, "fusion_lon": 0.0, "bike_id": "2ed9b3f1a97c34ff7e2b15d8d04fb166", "lon": -77.0069305, "rental_uris": {"ios": "https://dc.lft.to/lastmile_qr_scan", "android": "https://dc.lft.to/lastmile_qr_scan"}}, {"name": "9273298a8445a78229047229f4227303", "fusion_lat": 0.0, "type": "electric_scooter", "lat": 38.93244166666667, "is_reserved": 0, "is_disabled": 0, "fusion_lon": 0.0, "bike_id": "9273298a8445a78229047229f4227303", "lon": -77.03243833333333, "rental_uris": {"ios": "https://dc.lft.to/lastmile_qr_scan", "android": "https://dc.lft.to/lastmile_qr_scan"}}, {"name": "d15f974c9315ae8a6ce2707ae75378f5", "fusion_lat": 0.0, "type": "electric_scooter", "lat": 38.90663816666667, "is_reserved": 0, "is_disabled": 0, "fusion_lon": 0.0, "bike_id": "d15f974c9315ae8a6ce2707ae75378f5", "lon": -77.0385005, "rental_uris": {"ios": "https://dc.lft.to/lastmile_qr_scan", "android": "https://dc.lft.to/lastmile_qr_scan"}}, {"name": "f417076c0ad8fc3a658c6d362e1da1df", "fusion_lat": 0.0, "type": "electric_scooter", "lat": 38.909873833333336, "is_reserved": 0, "is_disabled": 0, "fusion_lon": 0.0, "bike_id": "f417076c0ad8fc3a658c6d362e1da1df", "lon": -77.03193066666667, "rental_uris": {"ios": "https://dc.lft.to/lastmile_qr_scan", "android": "https://dc.lft.to/lastmile_qr_scan"}}, {"name": "236618817473f6434a67bbef034c8577", "fusion_lat": 0.0, "type": "electric_scooter", "lat": 38.910775, "is_reserved": 0, "is_disabled": 0, "fusion_lon": 0.0, "bike_id": "236618817473f6434a67bbef034c8577", "lon": -77.03027616666667, "rental_uris": {"ios": "https://dc.lft.to/lastmile_qr_scan", "android": "https://dc.lft.to/lastmile_qr_scan"}}, {"name": "fc1ede4a3f09beba53bc50d4e34f84ba", "fusion_lat": 0.0, "type": "electric_scooter", "lat": 38.9349815, "is_reserved": 0, "is_disabled": 0, "fusion_lon": 0.0, "bike_id": "fc1ede4a3f09beba53bc50d4e34f84ba", "lon": -77.028463, "rental_uris": {"ios": "https://dc.lft.to/lastmile_qr_scan", "android": "https://dc.lft.to/lastmile_qr_scan"}}, {"name": "0e566a69df4704eab88d27042a763735", "fusion_lat": 0.0, "type": "electric_bike", "lat": 38.854382333333334, "is_reserved": 0, "is_disabled": 0, "fusion_lon": 0.0, "bike_id": "0e566a69df4704eab88d27042a763735", "lon": -77.1170425, "rental_uris": {"ios": "https://dc.lft.to/lastmile_qr_scan", "android": "https://dc.lft.to/lastmile_qr_scan"}}, {"name": "89e68a1104084b72b933989a6c801d6b", "fusion_lat": 0.0, "type": "electric_scooter", "lat": 38.88716433333333, "is_reserved": 0, "is_disabled": 0, "fusion_lon": 0.0, "bike_id": "89e68a1104084b72b933989a6c801d6b", "lon": -77.02214016666667, "rental_uris": {"ios": "https://dc.lft.to/lastmile_qr_scan", "android": "https://dc.lft.to/lastmile_qr_scan"}}, {"name": "8abd858e9760257330b6e805110a9515", "fusion_lat": 0.0, "type": "electric_scooter", "lat": 38.90639216666667, "is_reserved": 0, "is_disabled": 0, "fusion_lon": 0.0, "bike_id": "8abd858e9760257330b6e805110a9515", "lon": -77.00597166666667, "rental_uris": {"ios": "https://dc.lft.to/lastmile_qr_scan", "android": "https://dc.lft.to/lastmile_qr_scan"}}, {"name": "6c5ed53463fff08f4becc4f655d0adad", "fusion_lat": 0.0, "type": "electric_scooter", "lat": 38.90718433333333, "is_reserved": 0, "is_disabled": 0, "fusion_lon": 0.0, "bike_id": "6c5ed53463fff08f4becc4f655d0adad", "lon": -77.02507116666666, "rental_uris": {"ios": "https://dc.lft.to/lastmile_qr_scan", "android": "https://dc.lft.to/lastmile_qr_scan"}}, {"name": "39a345639bfc49a62f7580b8841bb5f2", "fusion_lat": 0.0, "type": "electric_scooter", "lat": 38.895228333333336, "is_reserved": 0, "is_disabled": 0, "fusion_lon": 0.0, "bike_id": "39a345639bfc49a62f7580b8841bb5f2", "lon": -77.01614033333334, "rental_uris": {"ios": "https://dc.lft.to/lastmile_qr_scan", "android": "https://dc.lft.to/lastmile_qr_scan"}}, {"name": "893b086a63a9e64cab7dab87ea3613b8", "fusion_lat": 0.0, "type": "electric_scooter", "lat": 38.900019666666665, "is_reserved": 0, "is_disabled": 0, "fusion_lon": 0.0, "bike_id": "893b086a63a9e64cab7dab87ea3613b8", "lon": -76.998511, "rental_uris": {"ios": "https://dc.lft.to/lastmile_qr_scan", "android": "https://dc.lft.to/lastmile_qr_scan"}}, {"name": "307ccd83fdb85ac707344a285ac4fdad", "fusion_lat": 0.0, "type": "electric_bike", "lat": 38.91066283333333, "is_reserved": 0, "is_disabled": 0, "fusion_lon": 0.0, "bike_id": "307ccd83fdb85ac707344a285ac4fdad", "lon": -77.0045555, "rental_uris": {"ios": "https://dc.lft.to/lastmile_qr_scan", "android": "https://dc.lft.to/lastmile_qr_scan"}}, {"name": "3ff1f5038f33778a40d0ef9f46a2799d", "fusion_lat": 0.0, "type": "electric_scooter", "lat": 38.92339883333333, "is_reserved": 0, "is_disabled": 0, "fusion_lon": 0.0, "bike_id": "3ff1f5038f33778a40d0ef9f46a2799d", "lon": -77.05094666666666, "rental_uris": {"ios": "https://dc.lft.to/lastmile_qr_scan", "android": "https://dc.lft.to/lastmile_qr_scan"}}, {"name": "3dcf6bb7607d0eb0bd9cc5489868b0b8", "fusion_lat": 0.0, "type": "electric_scooter", "lat": 38.941794333333334, "is_reserved": 0, "is_disabled": 0, "fusion_lon": 0.0, "bike_id": "3dcf6bb7607d0eb0bd9cc5489868b0b8", "lon": -77.03091633333334, "rental_uris": {"ios": "https://dc.lft.to/lastmile_qr_scan", "android": "https://dc.lft.to/lastmile_qr_scan"}}, {"name": "8792a0c98e62b0a0e69b18c4400dccca", "fusion_lat": 0.0, "type": "electric_scooter", "lat": 38.863734, "is_reserved": 0, "is_disabled": 0, "fusion_lon": 0.0, "bike_id": "8792a0c98e62b0a0e69b18c4400dccca", "lon": -76.99058816666667, "rental_uris": {"ios": "https://dc.lft.to/lastmile_qr_scan", "android": "https://dc.lft.to/lastmile_qr_scan"}}, {"name": "d2839cfd90a5d55178b731baed9499fd", "fusion_lat": 0.0, "type": "electric_scooter", "lat": 38.940478, "is_reserved": 0, "is_disabled": 0, "fusion_lon": 0.0, "bike_id": "d2839cfd90a5d55178b731baed9499fd", "lon": -77.03284683333334, "rental_uris": {"ios": "https://dc.lft.to/lastmile_qr_scan", "android": "https://dc.lft.to/lastmile_qr_scan"}}, {"name": "915543ea3d68475af73a8906441b8928", "fusion_lat": 0.0, "type": "electric_scooter", "lat": 38.903606, "is_reserved": 0, "is_disabled": 0, "fusion_lon": 0.0, "bike_id": "915543ea3d68475af73a8906441b8928", "lon": -77.0505265, "rental_uris": {"ios": "https://dc.lft.to/lastmile_qr_scan", "android": "https://dc.lft.to/lastmile_qr_scan"}}, {"name": "8e46763ed68404c6e3a92d14a41200e4", "fusion_lat": 0.0, "type": "electric_scooter", "lat": 38.89353966666667, "is_reserved": 0, "is_disabled": 0, "fusion_lon": 0.0, "bike_id": "8e46763ed68404c6e3a92d14a41200e4", "lon": -77.01983766666666, "rental_uris": {"ios": "https://dc.lft.to/lastmile_qr_scan", "android": "https://dc.lft.to/lastmile_qr_scan"}}, {"name": "4f7b861b3012cbe5ed77897f0d80e500", "fusion_lat": 0.0, "type": "electric_bike", "lat": 38.89222183333333, "is_reserved": 0, "is_disabled": 0, "fusion_lon": 0.0, "bike_id": "4f7b861b3012cbe5ed77897f0d80e500", "lon": -76.970259, "rental_uris": {"ios": "https://dc.lft.to/lastmile_qr_scan", "android": "https://dc.lft.to/lastmile_qr_scan"}}, {"name": "b18e01465551ef46fa7b6105212595a1", "fusion_lat": 0.0, "type": "electric_scooter", "lat": 38.89766933333333, "is_reserved": 0, "is_disabled": 0, "fusion_lon": 0.0, "bike_id": "b18e01465551ef46fa7b6105212595a1", "lon": -76.97722633333333, "rental_uris": {"ios": "https://dc.lft.to/lastmile_qr_scan", "android": "https://dc.lft.to/lastmile_qr_scan"}}, {"name": "2e24f289cf00cfb40a388304ba8d0b24", "fusion_lat": 0.0, "type": "electric_bike", "lat": 38.854040166666664, "is_reserved": 0, "is_disabled": 0, "fusion_lon": 0.0, "bike_id": "2e24f289cf00cfb40a388304ba8d0b24", "lon": -77.11824133333333, "rental_uris": {"ios": "https://dc.lft.to/lastmile_qr_scan", "android": "https://dc.lft.to/lastmile_qr_scan"}}, {"name": "7dee30883aefb617514d982a6759a6bf", "fusion_lat": 0.0, "type": "electric_scooter", "lat": 38.94268366666667, "is_reserved": 0, "is_disabled": 0, "fusion_lon": 0.0, "bike_id": "7dee30883aefb617514d982a6759a6bf", "lon": -77.03256966666666, "rental_uris": {"ios": "https://dc.lft.to/lastmile_qr_scan", "android": "https://dc.lft.to/lastmile_qr_scan"}}, {"name": "fcbbb6d0bd876f2556ef8cfec563d3d5", "fusion_lat": 0.0, "type": "electric_scooter", "lat": 38.917029, "is_reserved": 0, "is_disabled": 0, "fusion_lon": 0.0, "bike_id": "fcbbb6d0bd876f2556ef8cfec563d3d5", "lon": -77.03002783333334, "rental_uris": {"ios": "https://dc.lft.to/lastmile_qr_scan", "android": "https://dc.lft.to/lastmile_qr_scan"}}, {"name": "114419a89640f1f1dc03d868983f2370", "fusion_lat": 0.0, "type": "electric_scooter", "lat": 38.90359866666667, "is_reserved": 0, "is_disabled": 0, "fusion_lon": 0.0, "bike_id": "114419a89640f1f1dc03d868983f2370", "lon": -77.02054583333333, "rental_uris": {"ios": "https://dc.lft.to/lastmile_qr_scan", "android": "https://dc.lft.to/lastmile_qr_scan"}}, {"name": "59b5c32928c55975f5c0c9c41c6502fd", "fusion_lat": 0.0, "type": "electric_scooter", "lat": 38.88412783333333, "is_reserved": 0, "is_disabled": 0, "fusion_lon": 0.0, "bike_id": "59b5c32928c55975f5c0c9c41c6502fd", "lon": -76.97599733333334, "rental_uris": {"ios": "https://dc.lft.to/lastmile_qr_scan", "android": "https://dc.lft.to/lastmile_qr_scan"}}, {"name": "30936cd1fea8226550929ecd4c640e66", "fusion_lat": 0.0, "type": "electric_scooter", "lat": 38.942016833333334, "is_reserved": 0, "is_disabled": 0, "fusion_lon": 0.0, "bike_id": "30936cd1fea8226550929ecd4c640e66", "lon": -77.02510766666667, "rental_uris": {"ios": "https://dc.lft.to/lastmile_qr_scan", "android": "https://dc.lft.to/lastmile_qr_scan"}}, {"name": "083be6e1acd9bd0c9c94f52f58b3690b", "fusion_lat": 0.0, "type": "electric_scooter", "lat": 38.89687766666667, "is_reserved": 0, "is_disabled": 0, "fusion_lon": 0.0, "bike_id": "083be6e1acd9bd0c9c94f52f58b3690b", "lon": -77.0121535, "rental_uris": {"ios": "https://dc.lft.to/lastmile_qr_scan", "android": "https://dc.lft.to/lastmile_qr_scan"}}, {"name": "4ed2a1746ddec3613a4360c6c1f90a72", "fusion_lat": 0.0, "type": "electric_scooter", "lat": 38.917745333333336, "is_reserved": 0, "is_disabled": 0, "fusion_lon": 0.0, "bike_id": "4ed2a1746ddec3613a4360c6c1f90a72", "lon": -77.02306566666667, "rental_uris": {"ios": "https://dc.lft.to/lastmile_qr_scan", "android": "https://dc.lft.to/lastmile_qr_scan"}}, {"name": "ae30fff18e4a9e27f6cf7f22d831c955", "fusion_lat": 0.0, "type": "electric_scooter", "lat": 38.90324183333333, "is_reserved": 0, "is_disabled": 0, "fusion_lon": 0.0, "bike_id": "ae30fff18e4a9e27f6cf7f22d831c955", "lon": -77.038633, "rental_uris": {"ios": "https://dc.lft.to/lastmile_qr_scan", "android": "https://dc.lft.to/lastmile_qr_scan"}}, {"name": "22e7367c27d102b576203cf286ad6e4c", "fusion_lat": 0.0, "type": "electric_scooter", "lat": 38.90251, "is_reserved": 0, "is_disabled": 0, "fusion_lon": 0.0, "bike_id": "22e7367c27d102b576203cf286ad6e4c", "lon": -77.02696283333333, "rental_uris": {"ios": "https://dc.lft.to/lastmile_qr_scan", "android": "https://dc.lft.to/lastmile_qr_scan"}}, {"name": "c2c41f5ad9ecde61f7365b7d75bec243", "fusion_lat": 0.0, "type": "electric_scooter", "lat": 38.915307166666665, "is_reserved": 0, "is_disabled": 0, "fusion_lon": 0.0, "bike_id": "c2c41f5ad9ecde61f7365b7d75bec243", "lon": -77.04435216666667, "rental_uris": {"ios": "https://dc.lft.to/lastmile_qr_scan", "android": "https://dc.lft.to/lastmile_qr_scan"}}, {"name": "8c1219caa88bd2080eaadd7023513730", "fusion_lat": 0.0, "type": "electric_scooter", "lat": 38.89235883333333, "is_reserved": 0, "is_disabled": 0, "fusion_lon": 0.0, "bike_id": "8c1219caa88bd2080eaadd7023513730", "lon": -77.02803, "rental_uris": {"ios": "https://dc.lft.to/lastmile_qr_scan", "android": "https://dc.lft.to/lastmile_qr_scan"}}, {"name": "0fd76f5dca43488c0411a642941cc46b", "fusion_lat": 0.0, "type": "electric_scooter", "lat": 38.9032135, "is_reserved": 0, "is_disabled": 0, "fusion_lon": 0.0, "bike_id": "0fd76f5dca43488c0411a642941cc46b", "lon": -77.0533345, "rental_uris": {"ios": "https://dc.lft.to/lastmile_qr_scan", "android": "https://dc.lft.to/lastmile_qr_scan"}}, {"name": "f8a93c9ee3a17d3435f38a0831320d81", "fusion_lat": 0.0, "type": "electric_scooter", "lat": 38.935428333333334, "is_reserved": 0, "is_disabled": 0, "fusion_lon": 0.0, "bike_id": "f8a93c9ee3a17d3435f38a0831320d81", "lon": -77.08183833333334, "rental_uris": {"ios": "https://dc.lft.to/lastmile_qr_scan", "android": "https://dc.lft.to/lastmile_qr_scan"}}, {"name": "edcd70407ec2b8a039d269037c69419e", "fusion_lat": 0.0, "type": "electric_bike", "lat": 38.917206, "is_reserved": 0, "is_disabled": 0, "fusion_lon": 0.0, "bike_id": "edcd70407ec2b8a039d269037c69419e", "lon": -76.98866066666666, "rental_uris": {"ios": "https://dc.lft.to/lastmile_qr_scan", "android": "https://dc.lft.to/lastmile_qr_scan"}}, {"name": "a03b61500d3c14ce422fd7d209e92da1", "fusion_lat": 0.0, "type": "electric_bike", "lat": 38.965323833333336, "is_reserved": 0, "is_disabled": 0, "fusion_lon": 0.0, "bike_id": "a03b61500d3c14ce422fd7d209e92da1", "lon": -77.03515116666667, "rental_uris": {"ios": "https://dc.lft.to/lastmile_qr_scan", "android": "https://dc.lft.to/lastmile_qr_scan"}}, {"name": "c4433a614f7c74da003456246c4457f8", "fusion_lat": 0.0, "type": "electric_scooter", "lat": 38.876800833333334, "is_reserved": 0, "is_disabled": 0, "fusion_lon": 0.0, "bike_id": "c4433a614f7c74da003456246c4457f8", "lon": -77.000727, "rental_uris": {"ios": "https://dc.lft.to/lastmile_qr_scan", "android": "https://dc.lft.to/lastmile_qr_scan"}}, {"name": "a5358532117da095ade0191455cdcb4b", "fusion_lat": 0.0, "type": "electric_scooter", "lat": 38.897343666666664, "is_reserved": 0, "is_disabled": 0, "fusion_lon": 0.0, "bike_id": "a5358532117da095ade0191455cdcb4b", "lon": -77.01309783333333, "rental_uris": {"ios": "https://dc.lft.to/lastmile_qr_scan", "android": "https://dc.lft.to/lastmile_qr_scan"}}, {"name": "cf94d8b449757830449066df6c0e7f83", "fusion_lat": 0.0, "type": "electric_scooter", "lat": 38.920201, "is_reserved": 0, "is_disabled": 0, "fusion_lon": 0.0, "bike_id": "cf94d8b449757830449066df6c0e7f83", "lon": -77.02590533333333, "rental_uris": {"ios": "https://dc.lft.to/lastmile_qr_scan", "android": "https://dc.lft.to/lastmile_qr_scan"}}, {"name": "2dd5041352e0548027c2fcea16bc6ec2", "fusion_lat": 0.0, "type": "electric_bike", "lat": 38.8983365, "is_reserved": 0, "is_disabled": 0, "fusion_lon": 0.0, "bike_id": "2dd5041352e0548027c2fcea16bc6ec2", "lon": -77.11800883333333, "rental_uris": {"ios": "https://dc.lft.to/lastmile_qr_scan", "android": "https://dc.lft.to/lastmile_qr_scan"}}, {"name": "d7b481e5f481fd46971a297284228846", "fusion_lat": 0.0, "type": "electric_scooter", "lat": 38.91271716666667, "is_reserved": 0, "is_disabled": 0, "fusion_lon": 0.0, "bike_id": "d7b481e5f481fd46971a297284228846", "lon": -77.045103, "rental_uris": {"ios": "https://dc.lft.to/lastmile_qr_scan", "android": "https://dc.lft.to/lastmile_qr_scan"}}, {"name": "ba32e556e36366909849def108165503", "fusion_lat": 0.0, "type": "electric_scooter", "lat": 38.93364833333333, "is_reserved": 0, "is_disabled": 0, "fusion_lon": 0.0, "bike_id": "ba32e556e36366909849def108165503", "lon": -77.0572705, "rental_uris": {"ios": "https://dc.lft.to/lastmile_qr_scan", "android": "https://dc.lft.to/lastmile_qr_scan"}}, {"name": "808d5ea95fbfae2c113e1737577fad8a", "fusion_lat": 0.0, "type": "electric_scooter", "lat": 38.86695733333333, "is_reserved": 0, "is_disabled": 0, "fusion_lon": 0.0, "bike_id": "808d5ea95fbfae2c113e1737577fad8a", "lon": -76.98711216666666, "rental_uris": {"ios": "https://dc.lft.to/lastmile_qr_scan", "android": "https://dc.lft.to/lastmile_qr_scan"}}, {"name": "5c81e4e9ccb144b60c5f00bf068e1783", "fusion_lat": 0.0, "type": "electric_bike", "lat": 38.896819666666666, "is_reserved": 0, "is_disabled": 0, "fusion_lon": 0.0, "bike_id": "5c81e4e9ccb144b60c5f00bf068e1783", "lon": -76.94063733333333, "rental_uris": {"ios": "https://dc.lft.to/lastmile_qr_scan", "android": "https://dc.lft.to/lastmile_qr_scan"}}, {"name": "b8c0f52634b27633b33d020268708e78", "fusion_lat": 0.0, "type": "electric_scooter", "lat": 38.90023933333333, "is_reserved": 0, "is_disabled": 0, "fusion_lon": 0.0, "bike_id": "b8c0f52634b27633b33d020268708e78", "lon": -76.9986995, "rental_uris": {"ios": "https://dc.lft.to/lastmile_qr_scan", "android": "https://dc.lft.to/lastmile_qr_scan"}}, {"name": "f8e9af9c27dbbdf446915729719f01b9", "fusion_lat": 0.0, "type": "electric_scooter", "lat": 38.90719633333333, "is_reserved": 0, "is_disabled": 0, "fusion_lon": 0.0, "bike_id": "f8e9af9c27dbbdf446915729719f01b9", "lon": -77.02502883333334, "rental_uris": {"ios": "https://dc.lft.to/lastmile_qr_scan", "android": "https://dc.lft.to/lastmile_qr_scan"}}, {"name": "6685e9da5075fd1c22060f90452062b2", "fusion_lat": 0.0, "type": "electric_scooter", "lat": 38.910803, "is_reserved": 0, "is_disabled": 0, "fusion_lon": 0.0, "bike_id": "6685e9da5075fd1c22060f90452062b2", "lon": -77.04475433333333, "rental_uris": {"ios": "https://dc.lft.to/lastmile_qr_scan", "android": "https://dc.lft.to/lastmile_qr_scan"}}, {"name": "3b8b6d3b86af18793fe51af925012c18", "fusion_lat": 0.0, "type": "electric_scooter", "lat": 38.9175975, "is_reserved": 0, "is_disabled": 0, "fusion_lon": 0.0, "bike_id": "3b8b6d3b86af18793fe51af925012c18", "lon": -77.0270795, "rental_uris": {"ios": "https://dc.lft.to/lastmile_qr_scan", "android": "https://dc.lft.to/lastmile_qr_scan"}}, {"name": "ce09254c292bea9f38b67115c298cc60", "fusion_lat": 0.0, "type": "electric_scooter", "lat": 38.906826333333335, "is_reserved": 0, "is_disabled": 0, "fusion_lon": 0.0, "bike_id": "ce09254c292bea9f38b67115c298cc60", "lon": -77.02696133333333, "rental_uris": {"ios": "https://dc.lft.to/lastmile_qr_scan", "android": "https://dc.lft.to/lastmile_qr_scan"}}, {"name": "b63e505b409ee885323b9d487c079676", "fusion_lat": 0.0, "type": "electric_scooter", "lat": 38.8961135, "is_reserved": 0, "is_disabled": 0, "fusion_lon": 0.0, "bike_id": "b63e505b409ee885323b9d487c079676", "lon": -77.02316, "rental_uris": {"ios": "https://dc.lft.to/lastmile_qr_scan", "android": "https://dc.lft.to/lastmile_qr_scan"}}, {"name": "3d1d960663a7e6ab912b8d6c8bb0d3b9", "fusion_lat": 0.0, "type": "electric_scooter", "lat": 38.9096375, "is_reserved": 0, "is_disabled": 0, "fusion_lon": 0.0, "bike_id": "3d1d960663a7e6ab912b8d6c8bb0d3b9", "lon": -77.03864616666667, "rental_uris": {"ios": "https://dc.lft.to/lastmile_qr_scan", "android": "https://dc.lft.to/lastmile_qr_scan"}}, {"name": "ad4e018d97c1b36e0b3ae86d4b5b3e34", "fusion_lat": 0.0, "type": "electric_bike", "lat": 38.886330666666666, "is_reserved": 0, "is_disabled": 0, "fusion_lon": 0.0, "bike_id": "ad4e018d97c1b36e0b3ae86d4b5b3e34", "lon": -76.95459366666667, "rental_uris": {"ios": "https://dc.lft.to/lastmile_qr_scan", "android": "https://dc.lft.to/lastmile_qr_scan"}}, {"name": "039dcc6664066c9a3bf588ef18fa526a", "fusion_lat": 0.0, "type": "electric_scooter", "lat": 38.923808, "is_reserved": 0, "is_disabled": 0, "fusion_lon": 0.0, "bike_id": "039dcc6664066c9a3bf588ef18fa526a", "lon": -77.02954416666667, "rental_uris": {"ios": "https://dc.lft.to/lastmile_qr_scan", "android": "https://dc.lft.to/lastmile_qr_scan"}}, {"name": "f84ccc7fa8d8af6916a1c6bc43834c81", "fusion_lat": 0.0, "type": "electric_scooter", "lat": 38.89473016666667, "is_reserved": 0, "is_disabled": 0, "fusion_lon": 0.0, "bike_id": "f84ccc7fa8d8af6916a1c6bc43834c81", "lon": -77.00335133333333, "rental_uris": {"ios": "https://dc.lft.to/lastmile_qr_scan", "android": "https://dc.lft.to/lastmile_qr_scan"}}, {"name": "e785cb4331f072156c6a72d02b4eac37", "fusion_lat": 0.0, "type": "electric_scooter", "lat": 38.913463166666666, "is_reserved": 0, "is_disabled": 0, "fusion_lon": 0.0, "bike_id": "e785cb4331f072156c6a72d02b4eac37", "lon": -77.03197533333334, "rental_uris": {"ios": "https://dc.lft.to/lastmile_qr_scan", "android": "https://dc.lft.to/lastmile_qr_scan"}}, {"name": "868ac4ebdefa5499019f55d9289fc153", "fusion_lat": 0.0, "type": "electric_bike", "lat": 38.86753683333333, "is_reserved": 0, "is_disabled": 0, "fusion_lon": 0.0, "bike_id": "868ac4ebdefa5499019f55d9289fc153", "lon": -76.94539, "rental_uris": {"ios": "https://dc.lft.to/lastmile_qr_scan", "android": "https://dc.lft.to/lastmile_qr_scan"}}, {"name": "9ed72807af0dbe08da0c30b1292a4df2", "fusion_lat": 0.0, "type": "electric_scooter", "lat": 38.914035, "is_reserved": 0, "is_disabled": 0, "fusion_lon": 0.0, "bike_id": "9ed72807af0dbe08da0c30b1292a4df2", "lon": -77.008377, "rental_uris": {"ios": "https://dc.lft.to/lastmile_qr_scan", "android": "https://dc.lft.to/lastmile_qr_scan"}}, {"name": "a1c776a1e50cf4e7eb8caa04bdbb5780", "fusion_lat": 0.0, "type": "electric_scooter", "lat": 38.91559733333333, "is_reserved": 0, "is_disabled": 0, "fusion_lon": 0.0, "bike_id": "a1c776a1e50cf4e7eb8caa04bdbb5780", "lon": -77.05214866666667, "rental_uris": {"ios": "https://dc.lft.to/lastmile_qr_scan", "android": "https://dc.lft.to/lastmile_qr_scan"}}, {"name": "6c1c124feda639687e36525a6563b917", "fusion_lat": 0.0, "type": "electric_scooter", "lat": 38.90148816666667, "is_reserved": 0, "is_disabled": 0, "fusion_lon": 0.0, "bike_id": "6c1c124feda639687e36525a6563b917", "lon": -77.04681283333333, "rental_uris": {"ios": "https://dc.lft.to/lastmile_qr_scan", "android": "https://dc.lft.to/lastmile_qr_scan"}}, {"name": "9617419748e07f96359ec123595622c9", "fusion_lat": 0.0, "type": "electric_scooter", "lat": 38.898845333333334, "is_reserved": 0, "is_disabled": 0, "fusion_lon": 0.0, "bike_id": "9617419748e07f96359ec123595622c9", "lon": -77.0334, "rental_uris": {"ios": "https://dc.lft.to/lastmile_qr_scan", "android": "https://dc.lft.to/lastmile_qr_scan"}}, {"name": "c589f6f8c992ac9147f2da0f661e4242", "fusion_lat": 0.0, "type": "electric_scooter", "lat": 38.89813683333333, "is_reserved": 0, "is_disabled": 0, "fusion_lon": 0.0, "bike_id": "c589f6f8c992ac9147f2da0f661e4242", "lon": -77.03136633333334, "rental_uris": {"ios": "https://dc.lft.to/lastmile_qr_scan", "android": "https://dc.lft.to/lastmile_qr_scan"}}, {"name": "9420975aef5f37621be63e0979e5c146", "fusion_lat": 0.0, "type": "electric_bike", "lat": 38.8998655, "is_reserved": 0, "is_disabled": 0, "fusion_lon": 0.0, "bike_id": "9420975aef5f37621be63e0979e5c146", "lon": -77.0213125, "rental_uris": {"ios": "https://dc.lft.to/lastmile_qr_scan", "android": "https://dc.lft.to/lastmile_qr_scan"}}, {"name": "b14cf743da9e418bfc53424a96e0abaa", "fusion_lat": 0.0, "type": "electric_scooter", "lat": 38.917573166666664, "is_reserved": 0, "is_disabled": 0, "fusion_lon": 0.0, "bike_id": "b14cf743da9e418bfc53424a96e0abaa", "lon": -77.027063, "rental_uris": {"ios": "https://dc.lft.to/lastmile_qr_scan", "android": "https://dc.lft.to/lastmile_qr_scan"}}, {"name": "a14f4a335c52f4b08111a2404383e062", "fusion_lat": 0.0, "type": "electric_scooter", "lat": 38.89215633333333, "is_reserved": 0, "is_disabled": 0, "fusion_lon": 0.0, "bike_id": "a14f4a335c52f4b08111a2404383e062", "lon": -77.0214775, "rental_uris": {"ios": "https://dc.lft.to/lastmile_qr_scan", "android": "https://dc.lft.to/lastmile_qr_scan"}}, {"name": "7c1b182acc26e6886c31535a6f770eaf", "fusion_lat": 0.0, "type": "electric_scooter", "lat": 38.907680166666665, "is_reserved": 0, "is_disabled": 0, "fusion_lon": 0.0, "bike_id": "7c1b182acc26e6886c31535a6f770eaf", "lon": -77.0357045, "rental_uris": {"ios": "https://dc.lft.to/lastmile_qr_scan", "android": "https://dc.lft.to/lastmile_qr_scan"}}, {"name": "8377ad557ccf937a3caea51af31a7ba6", "fusion_lat": 0.0, "type": "electric_scooter", "lat": 38.91121583333333, "is_reserved": 0, "is_disabled": 0, "fusion_lon": 0.0, "bike_id": "8377ad557ccf937a3caea51af31a7ba6", "lon": -77.038258, "rental_uris": {"ios": "https://dc.lft.to/lastmile_qr_scan", "android": "https://dc.lft.to/lastmile_qr_scan"}}, {"name": "20fe967cd4608032fe34afac460cb70c", "fusion_lat": 0.0, "type": "electric_scooter", "lat": 38.902701, "is_reserved": 0, "is_disabled": 0, "fusion_lon": 0.0, "bike_id": "20fe967cd4608032fe34afac460cb70c", "lon": -77.04261483333333, "rental_uris": {"ios": "https://dc.lft.to/lastmile_qr_scan", "android": "https://dc.lft.to/lastmile_qr_scan"}}, {"name": "106db4246b794cbafc3cd65a977adca4", "fusion_lat": 0.0, "type": "electric_scooter", "lat": 38.9289545, "is_reserved": 0, "is_disabled": 0, "fusion_lon": 0.0, "bike_id": "106db4246b794cbafc3cd65a977adca4", "lon": -77.03264016666667, "rental_uris": {"ios": "https://dc.lft.to/lastmile_qr_scan", "android": "https://dc.lft.to/lastmile_qr_scan"}}, {"name": "95d8aa4ad33a2cd50defe18c9be6fd7a", "fusion_lat": 0.0, "type": "electric_scooter", "lat": 38.863709166666666, "is_reserved": 0, "is_disabled": 0, "fusion_lon": 0.0, "bike_id": "95d8aa4ad33a2cd50defe18c9be6fd7a", "lon": -76.99060166666666, "rental_uris": {"ios": "https://dc.lft.to/lastmile_qr_scan", "android": "https://dc.lft.to/lastmile_qr_scan"}}, {"name": "458c9ca6485297ebbfd1f6e187bf1e5f", "fusion_lat": 0.0, "type": "electric_scooter", "lat": 38.928065333333336, "is_reserved": 0, "is_disabled": 0, "fusion_lon": 0.0, "bike_id": "458c9ca6485297ebbfd1f6e187bf1e5f", "lon": -77.04328383333333, "rental_uris": {"ios": "https://dc.lft.to/lastmile_qr_scan", "android": "https://dc.lft.to/lastmile_qr_scan"}}, {"name": "6af6adad66cb1fefab3f30abb92b3aac", "fusion_lat": 0.0, "type": "electric_scooter", "lat": 38.914968, "is_reserved": 0, "is_disabled": 0, "fusion_lon": 0.0, "bike_id": "6af6adad66cb1fefab3f30abb92b3aac", "lon": -76.983493, "rental_uris": {"ios": "https://dc.lft.to/lastmile_qr_scan", "android": "https://dc.lft.to/lastmile_qr_scan"}}, {"name": "5a9eb5cdf9aec43bb422789b6a97775c", "fusion_lat": 0.0, "type": "electric_scooter", "lat": 38.86656266666667, "is_reserved": 0, "is_disabled": 0, "fusion_lon": 0.0, "bike_id": "5a9eb5cdf9aec43bb422789b6a97775c", "lon": -76.98883283333333, "rental_uris": {"ios": "https://dc.lft.to/lastmile_qr_scan", "android": "https://dc.lft.to/lastmile_qr_scan"}}, {"name": "cc69454882c4078d57a6ad86acf243b9", "fusion_lat": 0.0, "type": "electric_scooter", "lat": 38.8938905, "is_reserved": 0, "is_disabled": 0, "fusion_lon": 0.0, "bike_id": "cc69454882c4078d57a6ad86acf243b9", "lon": -77.02984433333333, "rental_uris": {"ios": "https://dc.lft.to/lastmile_qr_scan", "android": "https://dc.lft.to/lastmile_qr_scan"}}, {"name": "b73a17a19e185e1ea7fd077183b6f2e9", "fusion_lat": 0.0, "type": "electric_scooter", "lat": 38.93863366666667, "is_reserved": 0, "is_disabled": 0, "fusion_lon": 0.0, "bike_id": "b73a17a19e185e1ea7fd077183b6f2e9", "lon": -77.02484816666667, "rental_uris": {"ios": "https://dc.lft.to/lastmile_qr_scan", "android": "https://dc.lft.to/lastmile_qr_scan"}}, {"name": "a4c96989c3a39474926115cbfc73a952", "fusion_lat": 0.0, "type": "electric_scooter", "lat": 38.91250433333333, "is_reserved": 0, "is_disabled": 0, "fusion_lon": 0.0, "bike_id": "a4c96989c3a39474926115cbfc73a952", "lon": -77.03865233333333, "rental_uris": {"ios": "https://dc.lft.to/lastmile_qr_scan", "android": "https://dc.lft.to/lastmile_qr_scan"}}, {"name": "ec9990e94430a201cfc5e074ceff83d1", "fusion_lat": 0.0, "type": "electric_scooter", "lat": 38.91109866666667, "is_reserved": 0, "is_disabled": 0, "fusion_lon": 0.0, "bike_id": "ec9990e94430a201cfc5e074ceff83d1", "lon": -77.03847433333334, "rental_uris": {"ios": "https://dc.lft.to/lastmile_qr_scan", "android": "https://dc.lft.to/lastmile_qr_scan"}}, {"name": "55852548a5e189ac8cf77e54087effbe", "fusion_lat": 0.0, "type": "electric_scooter", "lat": 38.902709, "is_reserved": 0, "is_disabled": 0, "fusion_lon": 0.0, "bike_id": "55852548a5e189ac8cf77e54087effbe", "lon": -77.0531735, "rental_uris": {"ios": "https://dc.lft.to/lastmile_qr_scan", "android": "https://dc.lft.to/lastmile_qr_scan"}}, {"name": "666d912d8c5bf8d778e0bb4cb85c2391", "fusion_lat": 0.0, "type": "electric_scooter", "lat": 38.9006475, "is_reserved": 0, "is_disabled": 0, "fusion_lon": 0.0, "bike_id": "666d912d8c5bf8d778e0bb4cb85c2391", "lon": -77.04531816666666, "rental_uris": {"ios": "https://dc.lft.to/lastmile_qr_scan", "android": "https://dc.lft.to/lastmile_qr_scan"}}, {"name": "d129e65ff3ddf5a5de5647a518db3b79", "fusion_lat": 0.0, "type": "electric_scooter", "lat": 38.90655816666667, "is_reserved": 0, "is_disabled": 0, "fusion_lon": 0.0, "bike_id": "d129e65ff3ddf5a5de5647a518db3b79", "lon": -77.03868816666666, "rental_uris": {"ios": "https://dc.lft.to/lastmile_qr_scan", "android": "https://dc.lft.to/lastmile_qr_scan"}}, {"name": "1cb990ba527e8ed66e874bd6dd84cd3f", "fusion_lat": 0.0, "type": "electric_scooter", "lat": 38.91720983333333, "is_reserved": 0, "is_disabled": 0, "fusion_lon": 0.0, "bike_id": "1cb990ba527e8ed66e874bd6dd84cd3f", "lon": -77.04172783333334, "rental_uris": {"ios": "https://dc.lft.to/lastmile_qr_scan", "android": "https://dc.lft.to/lastmile_qr_scan"}}, {"name": "afbd5157e756f172eebb7da1a036a20a", "fusion_lat": 0.0, "type": "electric_scooter", "lat": 38.920354833333334, "is_reserved": 0, "is_disabled": 0, "fusion_lon": 0.0, "bike_id": "afbd5157e756f172eebb7da1a036a20a", "lon": -77.07149666666666, "rental_uris": {"ios": "https://dc.lft.to/lastmile_qr_scan", "android": "https://dc.lft.to/lastmile_qr_scan"}}, {"name": "d147ca199110decd9c8d78075dbaf778", "fusion_lat": 0.0, "type": "electric_scooter", "lat": 38.90123216666667, "is_reserved": 0, "is_disabled": 0, "fusion_lon": 0.0, "bike_id": "d147ca199110decd9c8d78075dbaf778", "lon": -77.04221666666666, "rental_uris": {"ios": "https://dc.lft.to/lastmile_qr_scan", "android": "https://dc.lft.to/lastmile_qr_scan"}}, {"name": "c558e5d687156e5d74b78dba1af2b3ea", "fusion_lat": 0.0, "type": "electric_scooter", "lat": 38.89708866666667, "is_reserved": 0, "is_disabled": 0, "fusion_lon": 0.0, "bike_id": "c558e5d687156e5d74b78dba1af2b3ea", "lon": -77.03315, "rental_uris": {"ios": "https://dc.lft.to/lastmile_qr_scan", "android": "https://dc.lft.to/lastmile_qr_scan"}}, {"name": "bffc09376e0a98e25a3a20662845a678", "fusion_lat": 0.0, "type": "electric_scooter", "lat": 38.945988666666665, "is_reserved": 0, "is_disabled": 0, "fusion_lon": 0.0, "bike_id": "bffc09376e0a98e25a3a20662845a678", "lon": -77.0297375, "rental_uris": {"ios": "https://dc.lft.to/lastmile_qr_scan", "android": "https://dc.lft.to/lastmile_qr_scan"}}, {"name": "a5c12d2d7e30742e9a8e3876e4d40c09", "fusion_lat": 0.0, "type": "electric_scooter", "lat": 38.90392816666667, "is_reserved": 0, "is_disabled": 0, "fusion_lon": 0.0, "bike_id": "a5c12d2d7e30742e9a8e3876e4d40c09", "lon": -77.0384235, "rental_uris": {"ios": "https://dc.lft.to/lastmile_qr_scan", "android": "https://dc.lft.to/lastmile_qr_scan"}}, {"name": "a3b1557117b48b3a9c82d8d1ac90bbae", "fusion_lat": 0.0, "type": "electric_scooter", "lat": 38.900519833333334, "is_reserved": 0, "is_disabled": 0, "fusion_lon": 0.0, "bike_id": "a3b1557117b48b3a9c82d8d1ac90bbae", "lon": -77.0006975, "rental_uris": {"ios": "https://dc.lft.to/lastmile_qr_scan", "android": "https://dc.lft.to/lastmile_qr_scan"}}, {"name": "410ab50093bf8872f8aefeafe92750ee", "fusion_lat": 0.0, "type": "electric_scooter", "lat": 38.909641666666666, "is_reserved": 0, "is_disabled": 0, "fusion_lon": 0.0, "bike_id": "410ab50093bf8872f8aefeafe92750ee", "lon": -77.03943433333333, "rental_uris": {"ios": "https://dc.lft.to/lastmile_qr_scan", "android": "https://dc.lft.to/lastmile_qr_scan"}}, {"name": "2830423afe9ac0f2c874a354dbd03201", "fusion_lat": 0.0, "type": "electric_scooter", "lat": 38.916053833333336, "is_reserved": 0, "is_disabled": 0, "fusion_lon": 0.0, "bike_id": "2830423afe9ac0f2c874a354dbd03201", "lon": -77.04161916666666, "rental_uris": {"ios": "https://dc.lft.to/lastmile_qr_scan", "android": "https://dc.lft.to/lastmile_qr_scan"}}, {"name": "a927f35a276118930fab63d0bb17af51", "fusion_lat": 0.0, "type": "electric_scooter", "lat": 38.8835465, "is_reserved": 0, "is_disabled": 0, "fusion_lon": 0.0, "bike_id": "a927f35a276118930fab63d0bb17af51", "lon": -76.99613233333334, "rental_uris": {"ios": "https://dc.lft.to/lastmile_qr_scan", "android": "https://dc.lft.to/lastmile_qr_scan"}}, {"name": "b21c45deb979736e2d84a1365429f59c", "fusion_lat": 0.0, "type": "electric_scooter", "lat": 38.8901535, "is_reserved": 0, "is_disabled": 0, "fusion_lon": 0.0, "bike_id": "b21c45deb979736e2d84a1365429f59c", "lon": -76.937377, "rental_uris": {"ios": "https://dc.lft.to/lastmile_qr_scan", "android": "https://dc.lft.to/lastmile_qr_scan"}}, {"name": "0ee777ad25a4c417a882e32af06d8dce", "fusion_lat": 0.0, "type": "electric_scooter", "lat": 38.92354366666667, "is_reserved": 0, "is_disabled": 0, "fusion_lon": 0.0, "bike_id": "0ee777ad25a4c417a882e32af06d8dce", "lon": -77.0508125, "rental_uris": {"ios": "https://dc.lft.to/lastmile_qr_scan", "android": "https://dc.lft.to/lastmile_qr_scan"}}, {"name": "b08fc82e4a25dbbbefb2a045c9b0cb2b", "fusion_lat": 0.0, "type": "electric_scooter", "lat": 38.90053733333333, "is_reserved": 0, "is_disabled": 0, "fusion_lon": 0.0, "bike_id": "b08fc82e4a25dbbbefb2a045c9b0cb2b", "lon": -77.0073785, "rental_uris": {"ios": "https://dc.lft.to/lastmile_qr_scan", "android": "https://dc.lft.to/lastmile_qr_scan"}}, {"name": "1fd3f769ff77b9299ddf7dea726fbe6e", "fusion_lat": 0.0, "type": "electric_scooter", "lat": 38.936012, "is_reserved": 0, "is_disabled": 0, "fusion_lon": 0.0, "bike_id": "1fd3f769ff77b9299ddf7dea726fbe6e", "lon": -77.05861066666667, "rental_uris": {"ios": "https://dc.lft.to/lastmile_qr_scan", "android": "https://dc.lft.to/lastmile_qr_scan"}}, {"name": "a7ae5557ee4de7e4864085b1f67b801c", "fusion_lat": 0.0, "type": "electric_scooter", "lat": 38.90863183333333, "is_reserved": 0, "is_disabled": 0, "fusion_lon": 0.0, "bike_id": "a7ae5557ee4de7e4864085b1f67b801c", "lon": -76.986215, "rental_uris": {"ios": "https://dc.lft.to/lastmile_qr_scan", "android": "https://dc.lft.to/lastmile_qr_scan"}}, {"name": "8bad815bddf93a0edc09b0334ad77794", "fusion_lat": 0.0, "type": "electric_scooter", "lat": 38.9179945, "is_reserved": 0, "is_disabled": 0, "fusion_lon": 0.0, "bike_id": "8bad815bddf93a0edc09b0334ad77794", "lon": -77.0145185, "rental_uris": {"ios": "https://dc.lft.to/lastmile_qr_scan", "android": "https://dc.lft.to/lastmile_qr_scan"}}, {"name": "b9225ea9a39eb6aa187ec30fc112a53a", "fusion_lat": 0.0, "type": "electric_scooter", "lat": 38.94041766666667, "is_reserved": 0, "is_disabled": 0, "fusion_lon": 0.0, "bike_id": "b9225ea9a39eb6aa187ec30fc112a53a", "lon": -77.02978416666667, "rental_uris": {"ios": "https://dc.lft.to/lastmile_qr_scan", "android": "https://dc.lft.to/lastmile_qr_scan"}}, {"name": "010b9ac455b9c262f601bb2c49141154", "fusion_lat": 0.0, "type": "electric_scooter", "lat": 38.9001815, "is_reserved": 0, "is_disabled": 0, "fusion_lon": 0.0, "bike_id": "010b9ac455b9c262f601bb2c49141154", "lon": -77.0115045, "rental_uris": {"ios": "https://dc.lft.to/lastmile_qr_scan", "android": "https://dc.lft.to/lastmile_qr_scan"}}, {"name": "6b2905a0d9f0d923fa1f180676959601", "fusion_lat": 0.0, "type": "electric_scooter", "lat": 38.96560316666667, "is_reserved": 0, "is_disabled": 0, "fusion_lon": 0.0, "bike_id": "6b2905a0d9f0d923fa1f180676959601", "lon": -77.01619366666667, "rental_uris": {"ios": "https://dc.lft.to/lastmile_qr_scan", "android": "https://dc.lft.to/lastmile_qr_scan"}}, {"name": "c71e1ecc5b3452d722489f4ef4ea766a", "fusion_lat": 0.0, "type": "electric_bike", "lat": 38.928649666666665, "is_reserved": 0, "is_disabled": 0, "fusion_lon": 0.0, "bike_id": "c71e1ecc5b3452d722489f4ef4ea766a", "lon": -76.96109316666667, "rental_uris": {"ios": "https://dc.lft.to/lastmile_qr_scan", "android": "https://dc.lft.to/lastmile_qr_scan"}}, {"name": "0bd90deede35893c731702d9efdaee78", "fusion_lat": 0.0, "type": "electric_scooter", "lat": 38.88470433333333, "is_reserved": 0, "is_disabled": 0, "fusion_lon": 0.0, "bike_id": "0bd90deede35893c731702d9efdaee78", "lon": -77.02838166666666, "rental_uris": {"ios": "https://dc.lft.to/lastmile_qr_scan", "android": "https://dc.lft.to/lastmile_qr_scan"}}, {"name": "c7f62265a44e6f6805baa81498c7167b", "fusion_lat": 0.0, "type": "electric_scooter", "lat": 38.93859233333333, "is_reserved": 0, "is_disabled": 0, "fusion_lon": 0.0, "bike_id": "c7f62265a44e6f6805baa81498c7167b", "lon": -77.02651216666666, "rental_uris": {"ios": "https://dc.lft.to/lastmile_qr_scan", "android": "https://dc.lft.to/lastmile_qr_scan"}}, {"name": "dad2c43d54370daa9b874c94312524c5", "fusion_lat": 0.0, "type": "electric_bike", "lat": 38.93000133333334, "is_reserved": 0, "is_disabled": 0, "fusion_lon": 0.0, "bike_id": "dad2c43d54370daa9b874c94312524c5", "lon": -77.0108495, "rental_uris": {"ios": "https://dc.lft.to/lastmile_qr_scan", "android": "https://dc.lft.to/lastmile_qr_scan"}}, {"name": "e657731507aa8a6650378c2f268e687a", "fusion_lat": 0.0, "type": "electric_scooter", "lat": 38.897312166666666, "is_reserved": 0, "is_disabled": 0, "fusion_lon": 0.0, "bike_id": "e657731507aa8a6650378c2f268e687a", "lon": -77.03251483333334, "rental_uris": {"ios": "https://dc.lft.to/lastmile_qr_scan", "android": "https://dc.lft.to/lastmile_qr_scan"}}, {"name": "89c4c474565e722e82e33f7deddf3811", "fusion_lat": 0.0, "type": "electric_scooter", "lat": 38.9077685, "is_reserved": 0, "is_disabled": 0, "fusion_lon": 0.0, "bike_id": "89c4c474565e722e82e33f7deddf3811", "lon": -77.0716865, "rental_uris": {"ios": "https://dc.lft.to/lastmile_qr_scan", "android": "https://dc.lft.to/lastmile_qr_scan"}}, {"name": "aba4cae1422b0037ddefe2e32e9f3898", "fusion_lat": 0.0, "type": "electric_bike", "lat": 38.970896833333335, "is_reserved": 0, "is_disabled": 0, "fusion_lon": 0.0, "bike_id": "aba4cae1422b0037ddefe2e32e9f3898", "lon": -77.0696445, "rental_uris": {"ios": "https://dc.lft.to/lastmile_qr_scan", "android": "https://dc.lft.to/lastmile_qr_scan"}}, {"name": "9b378ff28c8c204344ebf98fef97af18", "fusion_lat": 0.0, "type": "electric_scooter", "lat": 38.9027265, "is_reserved": 0, "is_disabled": 0, "fusion_lon": 0.0, "bike_id": "9b378ff28c8c204344ebf98fef97af18", "lon": -77.046123, "rental_uris": {"ios": "https://dc.lft.to/lastmile_qr_scan", "android": "https://dc.lft.to/lastmile_qr_scan"}}, {"name": "c895d693ade6f6009a6d504ceadcc1d3", "fusion_lat": 0.0, "type": "electric_scooter", "lat": 38.9353745, "is_reserved": 0, "is_disabled": 0, "fusion_lon": 0.0, "bike_id": "c895d693ade6f6009a6d504ceadcc1d3", "lon": -77.03409916666666, "rental_uris": {"ios": "https://dc.lft.to/lastmile_qr_scan", "android": "https://dc.lft.to/lastmile_qr_scan"}}, {"name": "5782b69b4ae523b33a9de863e2385866", "fusion_lat": 0.0, "type": "electric_scooter", "lat": 38.890138666666665, "is_reserved": 0, "is_disabled": 0, "fusion_lon": 0.0, "bike_id": "5782b69b4ae523b33a9de863e2385866", "lon": -76.93736266666667, "rental_uris": {"ios": "https://dc.lft.to/lastmile_qr_scan", "android": "https://dc.lft.to/lastmile_qr_scan"}}, {"name": "a5d2a845385ecaf1b1ddbf2742183399", "fusion_lat": 0.0, "type": "electric_scooter", "lat": 38.89888066666666, "is_reserved": 0, "is_disabled": 0, "fusion_lon": 0.0, "bike_id": "a5d2a845385ecaf1b1ddbf2742183399", "lon": -77.03292483333334, "rental_uris": {"ios": "https://dc.lft.to/lastmile_qr_scan", "android": "https://dc.lft.to/lastmile_qr_scan"}}, {"name": "bbf81426288e08e28af8254868e01c3c", "fusion_lat": 0.0, "type": "electric_scooter", "lat": 38.8765795, "is_reserved": 0, "is_disabled": 0, "fusion_lon": 0.0, "bike_id": "bbf81426288e08e28af8254868e01c3c", "lon": -77.0045715, "rental_uris": {"ios": "https://dc.lft.to/lastmile_qr_scan", "android": "https://dc.lft.to/lastmile_qr_scan"}}, {"name": "92a2bd0ea15dd9c6aaa9b5829cce8354", "fusion_lat": 0.0, "type": "electric_scooter", "lat": 38.90016716666667, "is_reserved": 0, "is_disabled": 0, "fusion_lon": 0.0, "bike_id": "92a2bd0ea15dd9c6aaa9b5829cce8354", "lon": -77.01111133333333, "rental_uris": {"ios": "https://dc.lft.to/lastmile_qr_scan", "android": "https://dc.lft.to/lastmile_qr_scan"}}, {"name": "75ba954fbe761b2480c0acd828f3bfde", "fusion_lat": 0.0, "type": "electric_scooter", "lat": 38.89509, "is_reserved": 0, "is_disabled": 0, "fusion_lon": 0.0, "bike_id": "75ba954fbe761b2480c0acd828f3bfde", "lon": -77.010967, "rental_uris": {"ios": "https://dc.lft.to/lastmile_qr_scan", "android": "https://dc.lft.to/lastmile_qr_scan"}}, {"name": "16d7215b616affdae1db657f08fb11bd", "fusion_lat": 0.0, "type": "electric_scooter", "lat": 38.90598166666667, "is_reserved": 0, "is_disabled": 0, "fusion_lon": 0.0, "bike_id": "16d7215b616affdae1db657f08fb11bd", "lon": -77.00274566666667, "rental_uris": {"ios": "https://dc.lft.to/lastmile_qr_scan", "android": "https://dc.lft.to/lastmile_qr_scan"}}, {"name": "ffb2acfaf2a4854eac7bc536bf5def6a", "fusion_lat": 0.0, "type": "electric_scooter", "lat": 38.91002433333333, "is_reserved": 0, "is_disabled": 0, "fusion_lon": 0.0, "bike_id": "ffb2acfaf2a4854eac7bc536bf5def6a", "lon": -77.04010466666666, "rental_uris": {"ios": "https://dc.lft.to/lastmile_qr_scan", "android": "https://dc.lft.to/lastmile_qr_scan"}}, {"name": "9a8c710b9d35f6e6f5468bc496ef8fe7", "fusion_lat": 0.0, "type": "electric_scooter", "lat": 38.91336783333333, "is_reserved": 0, "is_disabled": 0, "fusion_lon": 0.0, "bike_id": "9a8c710b9d35f6e6f5468bc496ef8fe7", "lon": -77.04871783333333, "rental_uris": {"ios": "https://dc.lft.to/lastmile_qr_scan", "android": "https://dc.lft.to/lastmile_qr_scan"}}, {"name": "7f730c0c7be30759bd8fc943fdf23afd", "fusion_lat": 0.0, "type": "electric_scooter", "lat": 38.9026575, "is_reserved": 0, "is_disabled": 0, "fusion_lon": 0.0, "bike_id": "7f730c0c7be30759bd8fc943fdf23afd", "lon": -77.0531225, "rental_uris": {"ios": "https://dc.lft.to/lastmile_qr_scan", "android": "https://dc.lft.to/lastmile_qr_scan"}}, {"name": "6e73d81b3d8d9ed2dc9ff741001c5f88", "fusion_lat": 0.0, "type": "electric_scooter", "lat": 38.906823833333334, "is_reserved": 0, "is_disabled": 0, "fusion_lon": 0.0, "bike_id": "6e73d81b3d8d9ed2dc9ff741001c5f88", "lon": -77.03825566666667, "rental_uris": {"ios": "https://dc.lft.to/lastmile_qr_scan", "android": "https://dc.lft.to/lastmile_qr_scan"}}, {"name": "e8c371cad4f220d64801032eea1a247c", "fusion_lat": 0.0, "type": "electric_scooter", "lat": 38.909506666666665, "is_reserved": 0, "is_disabled": 0, "fusion_lon": 0.0, "bike_id": "e8c371cad4f220d64801032eea1a247c", "lon": -77.04661333333334, "rental_uris": {"ios": "https://dc.lft.to/lastmile_qr_scan", "android": "https://dc.lft.to/lastmile_qr_scan"}}, {"name": "ac1d75a7e6a75432a90c18d6bf4a05a3", "fusion_lat": 0.0, "type": "electric_scooter", "lat": 38.926333666666665, "is_reserved": 0, "is_disabled": 0, "fusion_lon": 0.0, "bike_id": "ac1d75a7e6a75432a90c18d6bf4a05a3", "lon": -77.0378735, "rental_uris": {"ios": "https://dc.lft.to/lastmile_qr_scan", "android": "https://dc.lft.to/lastmile_qr_scan"}}, {"name": "9b99f24bafa80c2536138aeeb0415a91", "fusion_lat": 0.0, "type": "electric_scooter", "lat": 38.905332666666666, "is_reserved": 0, "is_disabled": 0, "fusion_lon": 0.0, "bike_id": "9b99f24bafa80c2536138aeeb0415a91", "lon": -77.03457316666666, "rental_uris": {"ios": "https://dc.lft.to/lastmile_qr_scan", "android": "https://dc.lft.to/lastmile_qr_scan"}}, {"name": "ad42c7b65b36e65b9a616eddd97363ef", "fusion_lat": 0.0, "type": "electric_bike", "lat": 38.839818666666666, "is_reserved": 0, "is_disabled": 0, "fusion_lon": 0.0, "bike_id": "ad42c7b65b36e65b9a616eddd97363ef", "lon": -77.00561233333333, "rental_uris": {"ios": "https://dc.lft.to/lastmile_qr_scan", "android": "https://dc.lft.to/lastmile_qr_scan"}}, {"name": "c01edb334b1951dcbd15e20d07d51d46", "fusion_lat": 0.0, "type": "electric_scooter", "lat": 38.907212333333334, "is_reserved": 0, "is_disabled": 0, "fusion_lon": 0.0, "bike_id": "c01edb334b1951dcbd15e20d07d51d46", "lon": -77.02889616666667, "rental_uris": {"ios": "https://dc.lft.to/lastmile_qr_scan", "android": "https://dc.lft.to/lastmile_qr_scan"}}, {"name": "f85294996dca364e7ec2c61ddeed080d", "fusion_lat": 0.0, "type": "electric_scooter", "lat": 38.937683166666666, "is_reserved": 0, "is_disabled": 0, "fusion_lon": 0.0, "bike_id": "f85294996dca364e7ec2c61ddeed080d", "lon": -77.0244225, "rental_uris": {"ios": "https://dc.lft.to/lastmile_qr_scan", "android": "https://dc.lft.to/lastmile_qr_scan"}}, {"name": "2c1b6631918da272c60ad662d1733f0c", "fusion_lat": 0.0, "type": "electric_scooter", "lat": 38.929787166666664, "is_reserved": 0, "is_disabled": 0, "fusion_lon": 0.0, "bike_id": "2c1b6631918da272c60ad662d1733f0c", "lon": -77.01450833333334, "rental_uris": {"ios": "https://dc.lft.to/lastmile_qr_scan", "android": "https://dc.lft.to/lastmile_qr_scan"}}, {"name": "aadf2bbf0aae227de34f113c8f57c3f0", "fusion_lat": 0.0, "type": "electric_scooter", "lat": 38.9216895, "is_reserved": 0, "is_disabled": 0, "fusion_lon": 0.0, "bike_id": "aadf2bbf0aae227de34f113c8f57c3f0", "lon": -77.03831216666667, "rental_uris": {"ios": "https://dc.lft.to/lastmile_qr_scan", "android": "https://dc.lft.to/lastmile_qr_scan"}}, {"name": "ce264f31499897f87c67a9891191071a", "fusion_lat": 0.0, "type": "electric_scooter", "lat": 38.8999735, "is_reserved": 0, "is_disabled": 0, "fusion_lon": 0.0, "bike_id": "ce264f31499897f87c67a9891191071a", "lon": -77.02183866666667, "rental_uris": {"ios": "https://dc.lft.to/lastmile_qr_scan", "android": "https://dc.lft.to/lastmile_qr_scan"}}, {"name": "641660b63bdc6980faff974c9bdb5f0b", "fusion_lat": 0.0, "type": "electric_scooter", "lat": 38.91248216666666, "is_reserved": 0, "is_disabled": 0, "fusion_lon": 0.0, "bike_id": "641660b63bdc6980faff974c9bdb5f0b", "lon": -77.03842316666666, "rental_uris": {"ios": "https://dc.lft.to/lastmile_qr_scan", "android": "https://dc.lft.to/lastmile_qr_scan"}}, {"name": "636e1a083fb0827760582e8866cda040", "fusion_lat": 0.0, "type": "electric_scooter", "lat": 38.90084733333333, "is_reserved": 0, "is_disabled": 0, "fusion_lon": 0.0, "bike_id": "636e1a083fb0827760582e8866cda040", "lon": -77.04957733333333, "rental_uris": {"ios": "https://dc.lft.to/lastmile_qr_scan", "android": "https://dc.lft.to/lastmile_qr_scan"}}, {"name": "c9d59f9cce40b195f7b1cf4ce413e9ce", "fusion_lat": 0.0, "type": "electric_scooter", "lat": 38.866591666666665, "is_reserved": 0, "is_disabled": 0, "fusion_lon": 0.0, "bike_id": "c9d59f9cce40b195f7b1cf4ce413e9ce", "lon": -76.99015783333333, "rental_uris": {"ios": "https://dc.lft.to/lastmile_qr_scan", "android": "https://dc.lft.to/lastmile_qr_scan"}}, {"name": "3a4f3813a76c04da625d084f04f9612e", "fusion_lat": 0.0, "type": "electric_scooter", "lat": 38.899530166666665, "is_reserved": 0, "is_disabled": 0, "fusion_lon": 0.0, "bike_id": "3a4f3813a76c04da625d084f04f9612e", "lon": -76.9856325, "rental_uris": {"ios": "https://dc.lft.to/lastmile_qr_scan", "android": "https://dc.lft.to/lastmile_qr_scan"}}, {"name": "e51d3f6c3ecd28deb61d66408d195239", "fusion_lat": 0.0, "type": "electric_scooter", "lat": 38.915632333333335, "is_reserved": 0, "is_disabled": 0, "fusion_lon": 0.0, "bike_id": "e51d3f6c3ecd28deb61d66408d195239", "lon": -77.03833216666666, "rental_uris": {"ios": "https://dc.lft.to/lastmile_qr_scan", "android": "https://dc.lft.to/lastmile_qr_scan"}}, {"name": "590765f5cb179121cc481b36f545540f", "fusion_lat": 0.0, "type": "electric_bike", "lat": 38.862758166666666, "is_reserved": 0, "is_disabled": 0, "fusion_lon": 0.0, "bike_id": "590765f5cb179121cc481b36f545540f", "lon": -77.05973166666666, "rental_uris": {"ios": "https://dc.lft.to/lastmile_qr_scan", "android": "https://dc.lft.to/lastmile_qr_scan"}}, {"name": "75b6eaf2554f1807057bd6b5d76b4c81", "fusion_lat": 0.0, "type": "electric_scooter", "lat": 38.891952, "is_reserved": 0, "is_disabled": 0, "fusion_lon": 0.0, "bike_id": "75b6eaf2554f1807057bd6b5d76b4c81", "lon": -77.00290583333333, "rental_uris": {"ios": "https://dc.lft.to/lastmile_qr_scan", "android": "https://dc.lft.to/lastmile_qr_scan"}}, {"name": "d0dd628051b65bf5063c5332839ebaa2", "fusion_lat": 0.0, "type": "electric_scooter", "lat": 38.88450733333333, "is_reserved": 0, "is_disabled": 0, "fusion_lon": 0.0, "bike_id": "d0dd628051b65bf5063c5332839ebaa2", "lon": -77.02604183333334, "rental_uris": {"ios": "https://dc.lft.to/lastmile_qr_scan", "android": "https://dc.lft.to/lastmile_qr_scan"}}, {"name": "da518ca9c97dd6fdc39d8c9ed056e54e", "fusion_lat": 0.0, "type": "electric_scooter", "lat": 38.9126475, "is_reserved": 0, "is_disabled": 0, "fusion_lon": 0.0, "bike_id": "da518ca9c97dd6fdc39d8c9ed056e54e", "lon": -77.031398, "rental_uris": {"ios": "https://dc.lft.to/lastmile_qr_scan", "android": "https://dc.lft.to/lastmile_qr_scan"}}, {"name": "e40a7fbde4479a8d982208e7151eac05", "fusion_lat": 0.0, "type": "electric_scooter", "lat": 38.899937666666666, "is_reserved": 0, "is_disabled": 0, "fusion_lon": 0.0, "bike_id": "e40a7fbde4479a8d982208e7151eac05", "lon": -76.98560333333333, "rental_uris": {"ios": "https://dc.lft.to/lastmile_qr_scan", "android": "https://dc.lft.to/lastmile_qr_scan"}}, {"name": "83b5bb4085ab5dac77217e516a6bc1e9", "fusion_lat": 0.0, "type": "electric_scooter", "lat": 38.89845116666667, "is_reserved": 0, "is_disabled": 0, "fusion_lon": 0.0, "bike_id": "83b5bb4085ab5dac77217e516a6bc1e9", "lon": -77.03957533333333, "rental_uris": {"ios": "https://dc.lft.to/lastmile_qr_scan", "android": "https://dc.lft.to/lastmile_qr_scan"}}, {"name": "766dc7612fcc0c8804e62d418c0dfc15", "fusion_lat": 0.0, "type": "electric_scooter", "lat": 38.91189133333334, "is_reserved": 0, "is_disabled": 0, "fusion_lon": 0.0, "bike_id": "766dc7612fcc0c8804e62d418c0dfc15", "lon": -77.04009833333333, "rental_uris": {"ios": "https://dc.lft.to/lastmile_qr_scan", "android": "https://dc.lft.to/lastmile_qr_scan"}}, {"name": "2937f9aff416a65be48bf8b8a01a3d58", "fusion_lat": 0.0, "type": "electric_scooter", "lat": 38.9140335, "is_reserved": 0, "is_disabled": 0, "fusion_lon": 0.0, "bike_id": "2937f9aff416a65be48bf8b8a01a3d58", "lon": -77.0389945, "rental_uris": {"ios": "https://dc.lft.to/lastmile_qr_scan", "android": "https://dc.lft.to/lastmile_qr_scan"}}, {"name": "8a5e084d17e775a155089beba1fa179f", "fusion_lat": 0.0, "type": "electric_bike", "lat": 38.8966995, "is_reserved": 0, "is_disabled": 0, "fusion_lon": 0.0, "bike_id": "8a5e084d17e775a155089beba1fa179f", "lon": -77.05018433333333, "rental_uris": {"ios": "https://dc.lft.to/lastmile_qr_scan", "android": "https://dc.lft.to/lastmile_qr_scan"}}, {"name": "02c446bd84d4eb81159de1e4a9f259ff", "fusion_lat": 0.0, "type": "electric_scooter", "lat": 38.91756516666667, "is_reserved": 0, "is_disabled": 0, "fusion_lon": 0.0, "bike_id": "02c446bd84d4eb81159de1e4a9f259ff", "lon": -77.02703433333333, "rental_uris": {"ios": "https://dc.lft.to/lastmile_qr_scan", "android": "https://dc.lft.to/lastmile_qr_scan"}}, {"name": "210de1feabc1ed78dcc1653aa8637519", "fusion_lat": 0.0, "type": "electric_scooter", "lat": 38.89869183333333, "is_reserved": 0, "is_disabled": 0, "fusion_lon": 0.0, "bike_id": "210de1feabc1ed78dcc1653aa8637519", "lon": -77.03192433333334, "rental_uris": {"ios": "https://dc.lft.to/lastmile_qr_scan", "android": "https://dc.lft.to/lastmile_qr_scan"}}, {"name": "978f490b038c0a76c3cbcdac857abf96", "fusion_lat": 0.0, "type": "electric_scooter", "lat": 38.903661, "is_reserved": 0, "is_disabled": 0, "fusion_lon": 0.0, "bike_id": "978f490b038c0a76c3cbcdac857abf96", "lon": -77.03392233333334, "rental_uris": {"ios": "https://dc.lft.to/lastmile_qr_scan", "android": "https://dc.lft.to/lastmile_qr_scan"}}, {"name": "d8e7652d0536a709033172fb13b6e733", "fusion_lat": 0.0, "type": "electric_bike", "lat": 38.8882225, "is_reserved": 0, "is_disabled": 0, "fusion_lon": 0.0, "bike_id": "d8e7652d0536a709033172fb13b6e733", "lon": -77.04941216666667, "rental_uris": {"ios": "https://dc.lft.to/lastmile_qr_scan", "android": "https://dc.lft.to/lastmile_qr_scan"}}, {"name": "ad5cc8baf9dbc7f1282b4130c445f78f", "fusion_lat": 0.0, "type": "electric_scooter", "lat": 38.874322166666666, "is_reserved": 0, "is_disabled": 0, "fusion_lon": 0.0, "bike_id": "ad5cc8baf9dbc7f1282b4130c445f78f", "lon": -77.02063066666666, "rental_uris": {"ios": "https://dc.lft.to/lastmile_qr_scan", "android": "https://dc.lft.to/lastmile_qr_scan"}}, {"name": "e46ae6e581d92136da0eacbeb2bd868c", "fusion_lat": 0.0, "type": "electric_bike", "lat": 38.96384066666667, "is_reserved": 0, "is_disabled": 0, "fusion_lon": 0.0, "bike_id": "e46ae6e581d92136da0eacbeb2bd868c", "lon": -76.98311466666667, "rental_uris": {"ios": "https://dc.lft.to/lastmile_qr_scan", "android": "https://dc.lft.to/lastmile_qr_scan"}}, {"name": "48d690029bfc844f65d87e4d6b30c16a", "fusion_lat": 0.0, "type": "electric_scooter", "lat": 38.895223333333334, "is_reserved": 0, "is_disabled": 0, "fusion_lon": 0.0, "bike_id": "48d690029bfc844f65d87e4d6b30c16a", "lon": -77.04853566666667, "rental_uris": {"ios": "https://dc.lft.to/lastmile_qr_scan", "android": "https://dc.lft.to/lastmile_qr_scan"}}, {"name": "7e410744744ddc456455119945e7eaab", "fusion_lat": 0.0, "type": "electric_scooter", "lat": 38.89095566666667, "is_reserved": 0, "is_disabled": 0, "fusion_lon": 0.0, "bike_id": "7e410744744ddc456455119945e7eaab", "lon": -76.982056, "rental_uris": {"ios": "https://dc.lft.to/lastmile_qr_scan", "android": "https://dc.lft.to/lastmile_qr_scan"}}, {"name": "3b94efc50b99da4e19d79586421f6591", "fusion_lat": 0.0, "type": "electric_scooter", "lat": 38.923529, "is_reserved": 0, "is_disabled": 0, "fusion_lon": 0.0, "bike_id": "3b94efc50b99da4e19d79586421f6591", "lon": -77.050828, "rental_uris": {"ios": "https://dc.lft.to/lastmile_qr_scan", "android": "https://dc.lft.to/lastmile_qr_scan"}}, {"name": "c8cf19998c0a227e3307a825c8c09077", "fusion_lat": 0.0, "type": "electric_scooter", "lat": 38.894008666666664, "is_reserved": 0, "is_disabled": 0, "fusion_lon": 0.0, "bike_id": "c8cf19998c0a227e3307a825c8c09077", "lon": -76.94800083333334, "rental_uris": {"ios": "https://dc.lft.to/lastmile_qr_scan", "android": "https://dc.lft.to/lastmile_qr_scan"}}, {"name": "d1d238044a6b1f0bfa73723118261fae", "fusion_lat": 0.0, "type": "electric_scooter", "lat": 38.93330816666667, "is_reserved": 0, "is_disabled": 0, "fusion_lon": 0.0, "bike_id": "d1d238044a6b1f0bfa73723118261fae", "lon": -77.03263666666666, "rental_uris": {"ios": "https://dc.lft.to/lastmile_qr_scan", "android": "https://dc.lft.to/lastmile_qr_scan"}}, {"name": "ed31b06cd1e358fdaa4e0e44649010af", "fusion_lat": 0.0, "type": "electric_scooter", "lat": 38.857088833333336, "is_reserved": 0, "is_disabled": 0, "fusion_lon": 0.0, "bike_id": "ed31b06cd1e358fdaa4e0e44649010af", "lon": -76.98126, "rental_uris": {"ios": "https://dc.lft.to/lastmile_qr_scan", "android": "https://dc.lft.to/lastmile_qr_scan"}}, {"name": "e1b6f6fc2cb48cb535eebd600c6495fa", "fusion_lat": 0.0, "type": "electric_scooter", "lat": 38.88741816666667, "is_reserved": 0, "is_disabled": 0, "fusion_lon": 0.0, "bike_id": "e1b6f6fc2cb48cb535eebd600c6495fa", "lon": -77.02128316666666, "rental_uris": {"ios": "https://dc.lft.to/lastmile_qr_scan", "android": "https://dc.lft.to/lastmile_qr_scan"}}, {"name": "bd14f526e81eea493e4df7645239ae04", "fusion_lat": 0.0, "type": "electric_scooter", "lat": 38.9223625, "is_reserved": 0, "is_disabled": 0, "fusion_lon": 0.0, "bike_id": "bd14f526e81eea493e4df7645239ae04", "lon": -77.04239766666667, "rental_uris": {"ios": "https://dc.lft.to/lastmile_qr_scan", "android": "https://dc.lft.to/lastmile_qr_scan"}}, {"name": "80de5e63b78fb0880606857eda75e891", "fusion_lat": 0.0, "type": "electric_scooter", "lat": 38.9227565, "is_reserved": 0, "is_disabled": 0, "fusion_lon": 0.0, "bike_id": "80de5e63b78fb0880606857eda75e891", "lon": -77.04244866666667, "rental_uris": {"ios": "https://dc.lft.to/lastmile_qr_scan", "android": "https://dc.lft.to/lastmile_qr_scan"}}, {"name": "a8342834d8e138ad59c1a17a74ae27c5", "fusion_lat": 0.0, "type": "electric_scooter", "lat": 38.935789666666665, "is_reserved": 0, "is_disabled": 0, "fusion_lon": 0.0, "bike_id": "a8342834d8e138ad59c1a17a74ae27c5", "lon": -76.99097983333333, "rental_uris": {"ios": "https://dc.lft.to/lastmile_qr_scan", "android": "https://dc.lft.to/lastmile_qr_scan"}}, {"name": "40d3c0c00d0ff6af0b632f60836dc24d", "fusion_lat": 0.0, "type": "electric_bike", "lat": 38.838089833333335, "is_reserved": 0, "is_disabled": 0, "fusion_lon": 0.0, "bike_id": "40d3c0c00d0ff6af0b632f60836dc24d", "lon": -77.09521166666667, "rental_uris": {"ios": "https://dc.lft.to/lastmile_qr_scan", "android": "https://dc.lft.to/lastmile_qr_scan"}}, {"name": "bd7a82a0785ac585fe67bba13a77e6d2", "fusion_lat": 0.0, "type": "electric_scooter", "lat": 38.884310666666664, "is_reserved": 0, "is_disabled": 0, "fusion_lon": 0.0, "bike_id": "bd7a82a0785ac585fe67bba13a77e6d2", "lon": -76.95749816666667, "rental_uris": {"ios": "https://dc.lft.to/lastmile_qr_scan", "android": "https://dc.lft.to/lastmile_qr_scan"}}, {"name": "3617ce9844adca84c9d4d7e0bc5df8b3", "fusion_lat": 0.0, "type": "electric_scooter", "lat": 38.897217833333336, "is_reserved": 0, "is_disabled": 0, "fusion_lon": 0.0, "bike_id": "3617ce9844adca84c9d4d7e0bc5df8b3", "lon": -77.0266065, "rental_uris": {"ios": "https://dc.lft.to/lastmile_qr_scan", "android": "https://dc.lft.to/lastmile_qr_scan"}}, {"name": "d747f151f77db2a9a8e165723668d26e", "fusion_lat": 0.0, "type": "electric_scooter", "lat": 38.915139833333335, "is_reserved": 0, "is_disabled": 0, "fusion_lon": 0.0, "bike_id": "d747f151f77db2a9a8e165723668d26e", "lon": -77.04488483333333, "rental_uris": {"ios": "https://dc.lft.to/lastmile_qr_scan", "android": "https://dc.lft.to/lastmile_qr_scan"}}, {"name": "5a13dca818bf7879b45855b3e3d6f0ca", "fusion_lat": 0.0, "type": "electric_scooter", "lat": 38.90484633333333, "is_reserved": 0, "is_disabled": 0, "fusion_lon": 0.0, "bike_id": "5a13dca818bf7879b45855b3e3d6f0ca", "lon": -77.04188516666666, "rental_uris": {"ios": "https://dc.lft.to/lastmile_qr_scan", "android": "https://dc.lft.to/lastmile_qr_scan"}}, {"name": "5bd90a6a097016468a1fd83f4ce37fe8", "fusion_lat": 0.0, "type": "electric_scooter", "lat": 38.91404633333333, "is_reserved": 0, "is_disabled": 0, "fusion_lon": 0.0, "bike_id": "5bd90a6a097016468a1fd83f4ce37fe8", "lon": -77.04566916666667, "rental_uris": {"ios": "https://dc.lft.to/lastmile_qr_scan", "android": "https://dc.lft.to/lastmile_qr_scan"}}, {"name": "23c57651b102b54c1e1fa49d85ee63e9", "fusion_lat": 0.0, "type": "electric_scooter", "lat": 38.9024935, "is_reserved": 0, "is_disabled": 0, "fusion_lon": 0.0, "bike_id": "23c57651b102b54c1e1fa49d85ee63e9", "lon": -77.00255083333333, "rental_uris": {"ios": "https://dc.lft.to/lastmile_qr_scan", "android": "https://dc.lft.to/lastmile_qr_scan"}}, {"name": "77087912ed69c21c00fe783cade6f054", "fusion_lat": 0.0, "type": "electric_scooter", "lat": 38.89966616666667, "is_reserved": 0, "is_disabled": 0, "fusion_lon": 0.0, "bike_id": "77087912ed69c21c00fe783cade6f054", "lon": -77.03377366666666, "rental_uris": {"ios": "https://dc.lft.to/lastmile_qr_scan", "android": "https://dc.lft.to/lastmile_qr_scan"}}, {"name": "80587b4e54a6ffd2e4fcbc3102573b45", "fusion_lat": 0.0, "type": "electric_scooter", "lat": 38.901482, "is_reserved": 0, "is_disabled": 0, "fusion_lon": 0.0, "bike_id": "80587b4e54a6ffd2e4fcbc3102573b45", "lon": -76.93063283333333, "rental_uris": {"ios": "https://dc.lft.to/lastmile_qr_scan", "android": "https://dc.lft.to/lastmile_qr_scan"}}, {"name": "3200bb9853e91e5666a83d25b89d2188", "fusion_lat": 0.0, "type": "electric_scooter", "lat": 38.895304333333335, "is_reserved": 0, "is_disabled": 0, "fusion_lon": 0.0, "bike_id": "3200bb9853e91e5666a83d25b89d2188", "lon": -77.04643266666666, "rental_uris": {"ios": "https://dc.lft.to/lastmile_qr_scan", "android": "https://dc.lft.to/lastmile_qr_scan"}}, {"name": "59b3a0780d748e27ff6ee32934c5a637", "fusion_lat": 0.0, "type": "electric_scooter", "lat": 38.9252735, "is_reserved": 0, "is_disabled": 0, "fusion_lon": 0.0, "bike_id": "59b3a0780d748e27ff6ee32934c5a637", "lon": -77.05547416666667, "rental_uris": {"ios": "https://dc.lft.to/lastmile_qr_scan", "android": "https://dc.lft.to/lastmile_qr_scan"}}, {"name": "dd017211381acb1e32b04304a7227c34", "fusion_lat": 0.0, "type": "electric_scooter", "lat": 38.896602666666666, "is_reserved": 0, "is_disabled": 0, "fusion_lon": 0.0, "bike_id": "dd017211381acb1e32b04304a7227c34", "lon": -77.05127383333334, "rental_uris": {"ios": "https://dc.lft.to/lastmile_qr_scan", "android": "https://dc.lft.to/lastmile_qr_scan"}}, {"name": "e81f53065b28d0b2cb539dd12cdaef9b", "fusion_lat": 0.0, "type": "electric_scooter", "lat": 38.9245365, "is_reserved": 0, "is_disabled": 0, "fusion_lon": 0.0, "bike_id": "e81f53065b28d0b2cb539dd12cdaef9b", "lon": -77.03966916666667, "rental_uris": {"ios": "https://dc.lft.to/lastmile_qr_scan", "android": "https://dc.lft.to/lastmile_qr_scan"}}, {"name": "e81743cd08cc94af2a9ebc5dc9c42dea", "fusion_lat": 0.0, "type": "electric_scooter", "lat": 38.866549166666665, "is_reserved": 0, "is_disabled": 0, "fusion_lon": 0.0, "bike_id": "e81743cd08cc94af2a9ebc5dc9c42dea", "lon": -76.98886516666667, "rental_uris": {"ios": "https://dc.lft.to/lastmile_qr_scan", "android": "https://dc.lft.to/lastmile_qr_scan"}}, {"name": "91dd4677e31330fcfe90909259a29be7", "fusion_lat": 0.0, "type": "electric_scooter", "lat": 38.90816816666667, "is_reserved": 0, "is_disabled": 0, "fusion_lon": 0.0, "bike_id": "91dd4677e31330fcfe90909259a29be7", "lon": -77.0006755, "rental_uris": {"ios": "https://dc.lft.to/lastmile_qr_scan", "android": "https://dc.lft.to/lastmile_qr_scan"}}, {"name": "f06c9c6106b3696d7d77ea96d4ac0700", "fusion_lat": 0.0, "type": "electric_scooter", "lat": 38.87682316666667, "is_reserved": 0, "is_disabled": 0, "fusion_lon": 0.0, "bike_id": "f06c9c6106b3696d7d77ea96d4ac0700", "lon": -77.00070183333334, "rental_uris": {"ios": "https://dc.lft.to/lastmile_qr_scan", "android": "https://dc.lft.to/lastmile_qr_scan"}}, {"name": "ddf9fdcba2b52a8ea8166e378210c8c8", "fusion_lat": 0.0, "type": "electric_scooter", "lat": 38.92012783333333, "is_reserved": 0, "is_disabled": 0, "fusion_lon": 0.0, "bike_id": "ddf9fdcba2b52a8ea8166e378210c8c8", "lon": -77.03972483333334, "rental_uris": {"ios": "https://dc.lft.to/lastmile_qr_scan", "android": "https://dc.lft.to/lastmile_qr_scan"}}, {"name": "37765c0bbf445d0bb6b30e579c0c3110", "fusion_lat": 0.0, "type": "electric_scooter", "lat": 38.872274, "is_reserved": 0, "is_disabled": 0, "fusion_lon": 0.0, "bike_id": "37765c0bbf445d0bb6b30e579c0c3110", "lon": -77.0116315, "rental_uris": {"ios": "https://dc.lft.to/lastmile_qr_scan", "android": "https://dc.lft.to/lastmile_qr_scan"}}, {"name": "d0d7f1fefefa91f7fc649b87bc6cd876", "fusion_lat": 0.0, "type": "electric_scooter", "lat": 38.903688833333334, "is_reserved": 0, "is_disabled": 0, "fusion_lon": 0.0, "bike_id": "d0d7f1fefefa91f7fc649b87bc6cd876", "lon": -77.03891116666667, "rental_uris": {"ios": "https://dc.lft.to/lastmile_qr_scan", "android": "https://dc.lft.to/lastmile_qr_scan"}}, {"name": "1b1c73535b73d839af805d8a4b032fe2", "fusion_lat": 0.0, "type": "electric_bike", "lat": 39.03048716666667, "is_reserved": 0, "is_disabled": 0, "fusion_lon": 0.0, "bike_id": "1b1c73535b73d839af805d8a4b032fe2", "lon": -77.09480533333333, "rental_uris": {"ios": "https://dc.lft.to/lastmile_qr_scan", "android": "https://dc.lft.to/lastmile_qr_scan"}}, {"name": "431fb2fe68b4ab52dd66f30bfe81906b", "fusion_lat": 0.0, "type": "electric_scooter", "lat": 38.892166833333334, "is_reserved": 0, "is_disabled": 0, "fusion_lon": 0.0, "bike_id": "431fb2fe68b4ab52dd66f30bfe81906b", "lon": -77.02144516666667, "rental_uris": {"ios": "https://dc.lft.to/lastmile_qr_scan", "android": "https://dc.lft.to/lastmile_qr_scan"}}, {"name": "d0541b7af808059e212931dfd5db5fcd", "fusion_lat": 0.0, "type": "electric_scooter", "lat": 38.9366695, "is_reserved": 0, "is_disabled": 0, "fusion_lon": 0.0, "bike_id": "d0541b7af808059e212931dfd5db5fcd", "lon": -77.03587483333334, "rental_uris": {"ios": "https://dc.lft.to/lastmile_qr_scan", "android": "https://dc.lft.to/lastmile_qr_scan"}}, {"name": "28a9515db619d1cdd08fb11f18619dbb", "fusion_lat": 0.0, "type": "electric_scooter", "lat": 38.903736, "is_reserved": 0, "is_disabled": 0, "fusion_lon": 0.0, "bike_id": "28a9515db619d1cdd08fb11f18619dbb", "lon": -77.01737366666667, "rental_uris": {"ios": "https://dc.lft.to/lastmile_qr_scan", "android": "https://dc.lft.to/lastmile_qr_scan"}}, {"name": "47f5b4120f680fd2ceeca74ae72c3aa2", "fusion_lat": 0.0, "type": "electric_scooter", "lat": 38.8921895, "is_reserved": 0, "is_disabled": 0, "fusion_lon": 0.0, "bike_id": "47f5b4120f680fd2ceeca74ae72c3aa2", "lon": -77.02651433333334, "rental_uris": {"ios": "https://dc.lft.to/lastmile_qr_scan", "android": "https://dc.lft.to/lastmile_qr_scan"}}, {"name": "94ab22fd99e814d874af43735808b838", "fusion_lat": 0.0, "type": "electric_scooter", "lat": 38.90549633333333, "is_reserved": 0, "is_disabled": 0, "fusion_lon": 0.0, "bike_id": "94ab22fd99e814d874af43735808b838", "lon": -77.0450755, "rental_uris": {"ios": "https://dc.lft.to/lastmile_qr_scan", "android": "https://dc.lft.to/lastmile_qr_scan"}}, {"name": "68efcc77b76cfae922e759d50edfade6", "fusion_lat": 0.0, "type": "electric_scooter", "lat": 38.8936585, "is_reserved": 0, "is_disabled": 0, "fusion_lon": 0.0, "bike_id": "68efcc77b76cfae922e759d50edfade6", "lon": -77.04779416666666, "rental_uris": {"ios": "https://dc.lft.to/lastmile_qr_scan", "android": "https://dc.lft.to/lastmile_qr_scan"}}, {"name": "b6f6456629863589240acecc8f0e2361", "fusion_lat": 0.0, "type": "electric_scooter", "lat": 38.88434516666667, "is_reserved": 0, "is_disabled": 0, "fusion_lon": 0.0, "bike_id": "b6f6456629863589240acecc8f0e2361", "lon": -76.99595016666666, "rental_uris": {"ios": "https://dc.lft.to/lastmile_qr_scan", "android": "https://dc.lft.to/lastmile_qr_scan"}}, {"name": "8d8dc81627ef5348fa2f9dd43e1fa31d", "fusion_lat": 0.0, "type": "electric_scooter", "lat": 38.9180415, "is_reserved": 0, "is_disabled": 0, "fusion_lon": 0.0, "bike_id": "8d8dc81627ef5348fa2f9dd43e1fa31d", "lon": -77.00165933333334, "rental_uris": {"ios": "https://dc.lft.to/lastmile_qr_scan", "android": "https://dc.lft.to/lastmile_qr_scan"}}, {"name": "4131f5da0c4350cdc4f9814f7e75e36c", "fusion_lat": 0.0, "type": "electric_scooter", "lat": 38.905299, "is_reserved": 0, "is_disabled": 0, "fusion_lon": 0.0, "bike_id": "4131f5da0c4350cdc4f9814f7e75e36c", "lon": -77.053311, "rental_uris": {"ios": "https://dc.lft.to/lastmile_qr_scan", "android": "https://dc.lft.to/lastmile_qr_scan"}}, {"name": "7a9ee7f8914856ceddf3db76dce02e85", "fusion_lat": 0.0, "type": "electric_scooter", "lat": 38.899185333333335, "is_reserved": 0, "is_disabled": 0, "fusion_lon": 0.0, "bike_id": "7a9ee7f8914856ceddf3db76dce02e85", "lon": -77.03933866666667, "rental_uris": {"ios": "https://dc.lft.to/lastmile_qr_scan", "android": "https://dc.lft.to/lastmile_qr_scan"}}, {"name": "e36496be89d33100904fa579ade23561", "fusion_lat": 0.0, "type": "electric_scooter", "lat": 38.8635215, "is_reserved": 0, "is_disabled": 0, "fusion_lon": 0.0, "bike_id": "e36496be89d33100904fa579ade23561", "lon": -76.99071, "rental_uris": {"ios": "https://dc.lft.to/lastmile_qr_scan", "android": "https://dc.lft.to/lastmile_qr_scan"}}, {"name": "2ca60f1f03dcfa8d23c1d16b597b7322", "fusion_lat": 0.0, "type": "electric_scooter", "lat": 38.896107666666666, "is_reserved": 0, "is_disabled": 0, "fusion_lon": 0.0, "bike_id": "2ca60f1f03dcfa8d23c1d16b597b7322", "lon": -77.026782, "rental_uris": {"ios": "https://dc.lft.to/lastmile_qr_scan", "android": "https://dc.lft.to/lastmile_qr_scan"}}, {"name": "e3a3438839d7fcf595ff4956c6bfc5bc", "fusion_lat": 0.0, "type": "electric_scooter", "lat": 38.94205266666667, "is_reserved": 0, "is_disabled": 0, "fusion_lon": 0.0, "bike_id": "e3a3438839d7fcf595ff4956c6bfc5bc", "lon": -77.035868, "rental_uris": {"ios": "https://dc.lft.to/lastmile_qr_scan", "android": "https://dc.lft.to/lastmile_qr_scan"}}, {"name": "37744ea10de5f050d3aaaba286a4e327", "fusion_lat": 0.0, "type": "electric_scooter", "lat": 38.92293433333333, "is_reserved": 0, "is_disabled": 0, "fusion_lon": 0.0, "bike_id": "37744ea10de5f050d3aaaba286a4e327", "lon": -77.04205416666667, "rental_uris": {"ios": "https://dc.lft.to/lastmile_qr_scan", "android": "https://dc.lft.to/lastmile_qr_scan"}}, {"name": "ef21a58073a5a469963875c473ba453f", "fusion_lat": 0.0, "type": "electric_scooter", "lat": 38.923717, "is_reserved": 0, "is_disabled": 0, "fusion_lon": 0.0, "bike_id": "ef21a58073a5a469963875c473ba453f", "lon": -77.0191755, "rental_uris": {"ios": "https://dc.lft.to/lastmile_qr_scan", "android": "https://dc.lft.to/lastmile_qr_scan"}}, {"name": "d81e495b16149781aeaef9c54036fade", "fusion_lat": 0.0, "type": "electric_scooter", "lat": 38.913274333333334, "is_reserved": 0, "is_disabled": 0, "fusion_lon": 0.0, "bike_id": "d81e495b16149781aeaef9c54036fade", "lon": -77.0483565, "rental_uris": {"ios": "https://dc.lft.to/lastmile_qr_scan", "android": "https://dc.lft.to/lastmile_qr_scan"}}, {"name": "feac881fe746e1681a0e9895399fd2ca", "fusion_lat": 0.0, "type": "electric_scooter", "lat": 38.89824433333333, "is_reserved": 0, "is_disabled": 0, "fusion_lon": 0.0, "bike_id": "feac881fe746e1681a0e9895399fd2ca", "lon": -76.98777983333333, "rental_uris": {"ios": "https://dc.lft.to/lastmile_qr_scan", "android": "https://dc.lft.to/lastmile_qr_scan"}}, {"name": "74ea2c80d89988c3d75d8b16255f27f0", "fusion_lat": 0.0, "type": "electric_scooter", "lat": 38.9038335, "is_reserved": 0, "is_disabled": 0, "fusion_lon": 0.0, "bike_id": "74ea2c80d89988c3d75d8b16255f27f0", "lon": -77.03630316666667, "rental_uris": {"ios": "https://dc.lft.to/lastmile_qr_scan", "android": "https://dc.lft.to/lastmile_qr_scan"}}, {"name": "78584cd7fb5f8e18eef7cbed9c948ee6", "fusion_lat": 0.0, "type": "electric_scooter", "lat": 38.90359266666667, "is_reserved": 0, "is_disabled": 0, "fusion_lon": 0.0, "bike_id": "78584cd7fb5f8e18eef7cbed9c948ee6", "lon": -77.0354865, "rental_uris": {"ios": "https://dc.lft.to/lastmile_qr_scan", "android": "https://dc.lft.to/lastmile_qr_scan"}}, {"name": "39a4a312c9d8cebf5cefc2662abd57b1", "fusion_lat": 0.0, "type": "electric_scooter", "lat": 38.90128383333333, "is_reserved": 0, "is_disabled": 0, "fusion_lon": 0.0, "bike_id": "39a4a312c9d8cebf5cefc2662abd57b1", "lon": -77.04994433333333, "rental_uris": {"ios": "https://dc.lft.to/lastmile_qr_scan", "android": "https://dc.lft.to/lastmile_qr_scan"}}, {"name": "74197ccd3354de68ea633e59cf2a32b8", "fusion_lat": 0.0, "type": "electric_scooter", "lat": 38.906121666666664, "is_reserved": 0, "is_disabled": 0, "fusion_lon": 0.0, "bike_id": "74197ccd3354de68ea633e59cf2a32b8", "lon": -77.03997533333333, "rental_uris": {"ios": "https://dc.lft.to/lastmile_qr_scan", "android": "https://dc.lft.to/lastmile_qr_scan"}}, {"name": "a70c3f49f504648876220fb1f584a6b3", "fusion_lat": 0.0, "type": "electric_scooter", "lat": 38.898503166666664, "is_reserved": 0, "is_disabled": 0, "fusion_lon": 0.0, "bike_id": "a70c3f49f504648876220fb1f584a6b3", "lon": -77.0161155, "rental_uris": {"ios": "https://dc.lft.to/lastmile_qr_scan", "android": "https://dc.lft.to/lastmile_qr_scan"}}, {"name": "13889c9b6431916e0cf219710489a5d4", "fusion_lat": 0.0, "type": "electric_scooter", "lat": 38.90279116666667, "is_reserved": 0, "is_disabled": 0, "fusion_lon": 0.0, "bike_id": "13889c9b6431916e0cf219710489a5d4", "lon": -77.04195433333334, "rental_uris": {"ios": "https://dc.lft.to/lastmile_qr_scan", "android": "https://dc.lft.to/lastmile_qr_scan"}}, {"name": "8ffd991c8f6eb2b10810649e0721a77c", "fusion_lat": 0.0, "type": "electric_scooter", "lat": 38.91193333333333, "is_reserved": 0, "is_disabled": 0, "fusion_lon": 0.0, "bike_id": "8ffd991c8f6eb2b10810649e0721a77c", "lon": -77.01195366666667, "rental_uris": {"ios": "https://dc.lft.to/lastmile_qr_scan", "android": "https://dc.lft.to/lastmile_qr_scan"}}, {"name": "eb09f15e63e08fd6ba262ab9cd1e6b33", "fusion_lat": 0.0, "type": "electric_scooter", "lat": 38.898823, "is_reserved": 0, "is_disabled": 0, "fusion_lon": 0.0, "bike_id": "eb09f15e63e08fd6ba262ab9cd1e6b33", "lon": -76.9317635, "rental_uris": {"ios": "https://dc.lft.to/lastmile_qr_scan", "android": "https://dc.lft.to/lastmile_qr_scan"}}, {"name": "6a6b00d58c9c756bd79af3b32bba7682", "fusion_lat": 0.0, "type": "electric_scooter", "lat": 38.88048083333334, "is_reserved": 0, "is_disabled": 0, "fusion_lon": 0.0, "bike_id": "6a6b00d58c9c756bd79af3b32bba7682", "lon": -77.0133005, "rental_uris": {"ios": "https://dc.lft.to/lastmile_qr_scan", "android": "https://dc.lft.to/lastmile_qr_scan"}}, {"name": "859d7b6ff45a7917f55d33bdd4f36b83", "fusion_lat": 0.0, "type": "electric_scooter", "lat": 38.9181755, "is_reserved": 0, "is_disabled": 0, "fusion_lon": 0.0, "bike_id": "859d7b6ff45a7917f55d33bdd4f36b83", "lon": -77.0344965, "rental_uris": {"ios": "https://dc.lft.to/lastmile_qr_scan", "android": "https://dc.lft.to/lastmile_qr_scan"}}, {"name": "24bf1893abd95c8a383d96edbf0b17cb", "fusion_lat": 0.0, "type": "electric_scooter", "lat": 38.901212666666666, "is_reserved": 0, "is_disabled": 0, "fusion_lon": 0.0, "bike_id": "24bf1893abd95c8a383d96edbf0b17cb", "lon": -77.04993783333333, "rental_uris": {"ios": "https://dc.lft.to/lastmile_qr_scan", "android": "https://dc.lft.to/lastmile_qr_scan"}}, {"name": "c816070f97e24466bcd0a3f12ac32bc7", "fusion_lat": 0.0, "type": "electric_scooter", "lat": 38.890141, "is_reserved": 0, "is_disabled": 0, "fusion_lon": 0.0, "bike_id": "c816070f97e24466bcd0a3f12ac32bc7", "lon": -76.93718416666667, "rental_uris": {"ios": "https://dc.lft.to/lastmile_qr_scan", "android": "https://dc.lft.to/lastmile_qr_scan"}}, {"name": "add3076607507f6fe573a7b2e3a56d9c", "fusion_lat": 0.0, "type": "electric_scooter", "lat": 38.92244783333334, "is_reserved": 0, "is_disabled": 0, "fusion_lon": 0.0, "bike_id": "add3076607507f6fe573a7b2e3a56d9c", "lon": -77.03466733333333, "rental_uris": {"ios": "https://dc.lft.to/lastmile_qr_scan", "android": "https://dc.lft.to/lastmile_qr_scan"}}, {"name": "b7bdb6de181cffd020d7adca79d4a934", "fusion_lat": 0.0, "type": "electric_scooter", "lat": 38.929669833333335, "is_reserved": 0, "is_disabled": 0, "fusion_lon": 0.0, "bike_id": "b7bdb6de181cffd020d7adca79d4a934", "lon": -77.0053095, "rental_uris": {"ios": "https://dc.lft.to/lastmile_qr_scan", "android": "https://dc.lft.to/lastmile_qr_scan"}}, {"name": "2738a2a1ac64caa0c9bf5840ef4a8ba2", "fusion_lat": 0.0, "type": "electric_scooter", "lat": 38.896042, "is_reserved": 0, "is_disabled": 0, "fusion_lon": 0.0, "bike_id": "2738a2a1ac64caa0c9bf5840ef4a8ba2", "lon": -77.01116666666667, "rental_uris": {"ios": "https://dc.lft.to/lastmile_qr_scan", "android": "https://dc.lft.to/lastmile_qr_scan"}}, {"name": "153391f83111d64d54ce7784d6e19921", "fusion_lat": 0.0, "type": "electric_scooter", "lat": 38.906642, "is_reserved": 0, "is_disabled": 0, "fusion_lon": 0.0, "bike_id": "153391f83111d64d54ce7784d6e19921", "lon": -77.03858533333333, "rental_uris": {"ios": "https://dc.lft.to/lastmile_qr_scan", "android": "https://dc.lft.to/lastmile_qr_scan"}},