{"data": {"bikes": [{"is_disabled": 0, "type": "electric_scooter", "is_reserved": 0, "lat": 38.910663666666665, "rental_uris": {"ios": "https://dc.lft.to/lastmile_qr_scan", "android": "https://dc.lft.to/lastmile_qr_scan"}, "fusion_lon": 0.0, "fusion_lat": 0.0, "bike_id": "efb80500308c043d264d0b208f3d5542", "name": "efb80500308c043d264d0b208f3d5542", "lon": -77.02293716666667}, {"is_disabled": 0, "type": "electric_scooter", "is_reserved": 0, "lat": 38.956386, "rental_uris": {"ios": "https://dc.lft.to/lastmile_qr_scan", "android": "https://dc.lft.to/lastmile_qr_scan"}, "fusion_lon": 0.0, "fusion_lat": 0.0, "bike_id": "e2edf8c8f5e753edceb22e60143342e0", "name": "e2edf8c8f5e753edceb22e60143342e0", "lon": -77.03300533333334}, {"is_disabled": 0, "type": "electric_scooter", "is_reserved": 0, "lat": 38.902502166666665, "rental_uris": {"ios": "https://dc.lft.to/lastmile_qr_scan", "android": "https://dc.lft.to/lastmile_qr_scan"}, "fusion_lon": 0.0, "fusion_lat": 0.0, "bike_id": "4d9323cf54dfa9e735f5982f34564472", "name": "4d9323cf54dfa9e735f5982f34564472", "lon": -77.04592766666667}, {"is_disabled": 0, "type": "electric_scooter", "is_reserved": 0, "lat": 38.906634333333336, "rental_uris": {"ios": "https://dc.lft.to/lastmile_qr_scan", "android": "https://dc.lft.to/lastmile_qr_scan"}, "fusion_lon": 0.0, "fusion_lat": 0.0, "bike_id": "e6873a0aa89a0da4e5c69bb028db13cf", "name": "e6873a0aa89a0da4e5c69bb028db13cf", "lon": -77.0462695}, {"is_disabled": 0, "type": "electric_scooter", "is_reserved": 0, "lat": 38.901819833333334, "rental_uris": {"ios": "https://dc.lft.to/lastmile_qr_scan", "android": "https://dc.lft.to/lastmile_qr_scan"}, "fusion_lon": 0.0, "fusion_lat": 0.0, "bike_id": "df41084abf9eb4a3e01b625c4ed180fd", "name": "df41084abf9eb4a3e01b625c4ed180fd", "lon": -76.9300375}, {"is_disabled": 0, "type": "electric_scooter", "is_reserved": 0, "lat": 38.90879966666667, "rental_uris": {"ios": "https://dc.lft.to/lastmile_qr_scan", "android": "https://dc.lft.to/lastmile_qr_scan"}, "fusion_lon": 0.0, "fusion_lat": 0.0, "bike_id": "23b544afe520c076d0f3440bfac7fcb0", "name": "23b544afe520c076d0f3440bfac7fcb0", "lon": -77.04330416666667}, {"is_disabled": 0, "type": "electric_scooter", "is_reserved": 0, "lat": 38.91401033333333, "rental_uris": {"ios": "https://dc.lft.to/lastmile_qr_scan", "android": "https://dc.lft.to/lastmile_qr_scan"}, "fusion_lon": 0.0, "fusion_lat": 0.0, "bike_id": "8fa51a895d4c753fc24628dfb534de11", "name": "8fa51a895d4c753fc24628dfb534de11", "lon": -77.04283483333333}, {"is_disabled": 0, "type": "electric_scooter", "is_reserved": 0, "lat": 38.86372816666667, "rental_uris": {"ios": "https://dc.lft.to/lastmile_qr_scan", "android": "https://dc.lft.to/lastmile_qr_scan"}, "fusion_lon": 0.0, "fusion_lat": 0.0, "bike_id": "ab9f5ec30b0a135b9eb814a541112f12", "name": "ab9f5ec30b0a135b9eb814a541112f12", "lon": -76.99031433333333}, {"is_disabled": 0, "type": "electric_scooter", "is_reserved": 0, "lat": 38.914223, "rental_uris": {"ios": "https://dc.lft.to/lastmile_qr_scan", "android": "https://dc.lft.to/lastmile_qr_scan"}, "fusion_lon": 0.0, "fusion_lat": 0.0, "bike_id": "b7b98c4a96d79a0491a5875c5ed4b9f3", "name": "b7b98c4a96d79a0491a5875c5ed4b9f3", "lon": -77.03199}, {"is_disabled": 0, "type": "electric_scooter", "is_reserved": 0, "lat": 38.898354833333336, "rental_uris": {"ios": "https://dc.lft.to/lastmile_qr_scan", "android": "https://dc.lft.to/lastmile_qr_scan"}, "fusion_lon": 0.0, "fusion_lat": 0.0, "bike_id": "46c067a1d05949d3c996e1a927e12139", "name": "46c067a1d05949d3c996e1a927e12139", "lon": -77.029784}, {"is_disabled": 0, "type": "electric_bike", "is_reserved": 0, "lat": 39.05187983333333, "rental_uris": {"ios": "https://dc.lft.to/lastmile_qr_scan", "android": "https://dc.lft.to/lastmile_qr_scan"}, "fusion_lon": 0.0, "fusion_lat": 0.0, "bike_id": "bb30b7cff55b4ccd6c30029136a7cd4f", "name": "bb30b7cff55b4ccd6c30029136a7cd4f", "lon": -77.1091945}, {"is_disabled": 0, "type": "electric_scooter", "is_reserved": 0, "lat": 38.905605, "rental_uris": {"ios": "https://dc.lft.to/lastmile_qr_scan", "android": "https://dc.lft.to/lastmile_qr_scan"}, "fusion_lon": 0.0, "fusion_lat": 0.0, "bike_id": "d5532e970744f5f0bfbfe55e789be3da", "name": "d5532e970744f5f0bfbfe55e789be3da", "lon": -77.03993616666666}, {"is_disabled": 0, "type": "electric_scooter", "is_reserved": 0, "lat": 38.9280165, "rental_uris": {"ios": "https://dc.lft.to/lastmile_qr_scan", "android": "https://dc.lft.to/lastmile_qr_scan"}, "fusion_lon": 0.0, "fusion_lat": 0.0, "bike_id": "dba4fea4030cd3a6b202a101ddba6b8c", "name": "dba4fea4030cd3a6b202a101ddba6b8c", "lon": -77.02619666666666}, {"is_disabled": 0, "type": "electric_scooter", "is_reserved": 0, "lat": 38.90754, "rental_uris": {"ios": "https://dc.lft.to/lastmile_qr_scan", "android": "https://dc.lft.to/lastmile_qr_scan"}, "fusion_lon": 0.0, "fusion_lat": 0.0, "bike_id": "694e49a886843a59a30a1b6c243eaf8f", "name": "694e49a886843a59a30a1b6c243eaf8f", "lon": -77.00359316666666}, {"is_disabled": 0, "type": "electric_bike", "is_reserved": 0, "lat": 38.81937966666667, "rental_uris": {"ios": "https://dc.lft.to/lastmile_qr_scan", "android": "https://dc.lft.to/lastmile_qr_scan"}, "fusion_lon": 0.0, "fusion_lat": 0.0, "bike_id": "a1c3c17b197020bdab87817a36e882ec", "name": "a1c3c17b197020bdab87817a36e882ec", "lon": -77.00204333333333}, {"is_disabled": 0, "type": "electric_bike", "is_reserved": 0, "lat": 38.91573133333333, "rental_uris": {"ios": "https://dc.lft.to/lastmile_qr_scan", "android": "https://dc.lft.to/lastmile_qr_scan"}, "fusion_lon": 0.0, "fusion_lat": 0.0, "bike_id": "39abd91305370d450a148140748938c5", "name": "39abd91305370d450a148140748938c5", "lon": -76.993229}, {"is_disabled": 0, "type": "electric_scooter", "is_reserved": 0, "lat": 38.949574166666665, "rental_uris": {"ios": "https://dc.lft.to/lastmile_qr_scan", "android": "https://dc.lft.to/lastmile_qr_scan"}, "fusion_lon": 0.0, "fusion_lat": 0.0, "bike_id": "86512732911768a002b23b407c4e9cf9", "name": "86512732911768a002b23b407c4e9cf9", "lon": -77.027258}, {"is_disabled": 0, "type": "electric_scooter", "is_reserved": 0, "lat": 38.90621383333333, "rental_uris": {"ios": "https://dc.lft.to/lastmile_qr_scan", "android": "https://dc.lft.to/lastmile_qr_scan"}, "fusion_lon": 0.0, "fusion_lat": 0.0, "bike_id": "2473029579042f0e2307f68b64aa8894", "name": "2473029579042f0e2307f68b64aa8894", "lon": -77.05013016666666}, {"is_disabled": 0, "type": "electric_scooter", "is_reserved": 0, "lat": 38.9037355, "rental_uris": {"ios": "https://dc.lft.to/lastmile_qr_scan", "android": "https://dc.lft.to/lastmile_qr_scan"}, "fusion_lon": 0.0, "fusion_lat": 0.0, "bike_id": "2eb13fdd5f5b7c6112c8ff87f1873ecf", "name": "2eb13fdd5f5b7c6112c8ff87f1873ecf", "lon": -77.03653016666667}, {"is_disabled": 0, "type": "electric_scooter", "is_reserved": 0, "lat": 38.90090433333334, "rental_uris": {"ios": "https://dc.lft.to/lastmile_qr_scan", "android": "https://dc.lft.to/lastmile_qr_scan"}, "fusion_lon": 0.0, "fusion_lat": 0.0, "bike_id": "dd00de0d3a8813247dc66a4215e7d036", "name": "dd00de0d3a8813247dc66a4215e7d036", "lon": -77.05057883333333}, {"is_disabled": 0, "type": "electric_scooter", "is_reserved": 0, "lat": 38.89736933333333, "rental_uris": {"ios": "https://dc.lft.to/lastmile_qr_scan", "android": "https://dc.lft.to/lastmile_qr_scan"}, "fusion_lon": 0.0, "fusion_lat": 0.0, "bike_id": "9e7f42263979ab7357a84f1bd29f94da", "name": "9e7f42263979ab7357a84f1bd29f94da", "lon": -77.0216765}, {"is_disabled": 0, "type": "electric_scooter", "is_reserved": 0, "lat": 38.944622333333335, "rental_uris": {"ios": "https://dc.lft.to/lastmile_qr_scan", "android": "https://dc.lft.to/lastmile_qr_scan"}, "fusion_lon": 0.0, "fusion_lat": 0.0, "bike_id": "50c5fae697457893d91041848e4f625b", "name": "50c5fae697457893d91041848e4f625b", "lon": -77.00659583333334}, {"is_disabled": 0, "type": "electric_bike", "is_reserved": 0, "lat": 38.86742983333333, "rental_uris": {"ios": "https://dc.lft.to/lastmile_qr_scan", "android": "https://dc.lft.to/lastmile_qr_scan"}, "fusion_lon": 0.0, "fusion_lat": 0.0, "bike_id": "7cac93362eb25090b6fa3e9828d2b18b", "name": "7cac93362eb25090b6fa3e9828d2b18b", "lon": -77.11708866666666}, {"is_disabled": 0, "type": "electric_scooter", "is_reserved": 0, "lat": 38.89222183333333, "rental_uris": {"ios": "https://dc.lft.to/lastmile_qr_scan", "android": "https://dc.lft.to/lastmile_qr_scan"}, "fusion_lon": 0.0, "fusion_lat": 0.0, "bike_id": "812f7c24a90f0b110283d01174de811f", "name": "812f7c24a90f0b110283d01174de811f", "lon": -77.03170433333334}, {"is_disabled": 0, "type": "electric_scooter", "is_reserved": 0, "lat": 38.882625166666664, "rental_uris": {"ios": "https://dc.lft.to/lastmile_qr_scan", "android": "https://dc.lft.to/lastmile_qr_scan"}, "fusion_lon": 0.0, "fusion_lat": 0.0, "bike_id": "e3cc0dbac5ba48135cee7e04f9cd3af4", "name": "e3cc0dbac5ba48135cee7e04f9cd3af4", "lon": -77.00369983333333}, {"is_disabled": 0, "type": "electric_scooter", "is_reserved": 0, "lat": 38.94645633333333, "rental_uris": {"ios": "https://dc.lft.to/lastmile_qr_scan", "android": "https://dc.lft.to/lastmile_qr_scan"}, "fusion_lon": 0.0, "fusion_lat": 0.0, "bike_id": "493f2472ecf143a308f477ad2c99f76f", "name": "493f2472ecf143a308f477ad2c99f76f", "lon": -77.0310865}, {"is_disabled": 0, "type": "electric_scooter", "is_reserved": 0, "lat": 38.90388883333333, "rental_uris": {"ios": "https://dc.lft.to/lastmile_qr_scan", "android": "https://dc.lft.to/lastmile_qr_scan"}, "fusion_lon": 0.0, "fusion_lat": 0.0, "bike_id": "cf0950ef0af3159ff93e9dea20e5090a", "name": "cf0950ef0af3159ff93e9dea20e5090a", "lon": -77.03719416666667}, {"is_disabled": 0, "type": "electric_scooter", "is_reserved": 0, "lat": 38.919241666666665, "rental_uris": {"ios": "https://dc.lft.to/lastmile_qr_scan", "android": "https://dc.lft.to/lastmile_qr_scan"}, "fusion_lon": 0.0, "fusion_lat": 0.0, "bike_id": "6b8fd990e2c59850bfde44c3259e9873", "name": "6b8fd990e2c59850bfde44c3259e9873", "lon": -77.03179983333334}, {"is_disabled": 0, "type": "electric_scooter", "is_reserved": 0, "lat": 38.914003666666666, "rental_uris": {"ios": "https://dc.lft.to/lastmile_qr_scan", "android": "https://dc.lft.to/lastmile_qr_scan"}, "fusion_lon": 0.0, "fusion_lat": 0.0, "bike_id": "0ca4269173c1a0bdf89988b332af9904", "name": "0ca4269173c1a0bdf89988b332af9904", "lon": -77.04344516666667}, {"is_disabled": 0, "type": "electric_bike", "is_reserved": 0, "lat": 38.880450333333336, "rental_uris": {"ios": "https://dc.lft.to/lastmile_qr_scan", "android": "https://dc.lft.to/lastmile_qr_scan"}, "fusion_lon": 0.0, "fusion_lat": 0.0, "bike_id": "61fcc9201f35553471af65738a85180d", "name": "61fcc9201f35553471af65738a85180d", "lon": -76.98628566666666}, {"is_disabled": 0, "type": "electric_scooter", "is_reserved": 0, "lat": 38.902763666666665, "rental_uris": {"ios": "https://dc.lft.to/lastmile_qr_scan", "android": "https://dc.lft.to/lastmile_qr_scan"}, "fusion_lon": 0.0, "fusion_lat": 0.0, "bike_id": "628fe92faefe533f815e20e2001feb55", "name": "628fe92faefe533f815e20e2001feb55", "lon": -77.0461315}, {"is_disabled": 0, "type": "electric_scooter", "is_reserved": 0, "lat": 38.91626883333333, "rental_uris": {"ios": "https://dc.lft.to/lastmile_qr_scan", "android": "https://dc.lft.to/lastmile_qr_scan"}, "fusion_lon": 0.0, "fusion_lat": 0.0, "bike_id": "9f8e84f70e89c2941bb43011ee52cfcf", "name": "9f8e84f70e89c2941bb43011ee52cfcf", "lon": -77.03192383333334}, {"is_disabled": 0, "type": "electric_scooter", "is_reserved": 0, "lat": 38.922562166666665, "rental_uris": {"ios": "https://dc.lft.to/lastmile_qr_scan", "android": "https://dc.lft.to/lastmile_qr_scan"}, "fusion_lon": 0.0, "fusion_lat": 0.0, "bike_id": "766e61aca3d7ba432eafaa771af3df99", "name": "766e61aca3d7ba432eafaa771af3df99", "lon": -77.02970683333334}, {"is_disabled": 0, "type": "electric_scooter", "is_reserved": 0, "lat": 38.86670316666667, "rental_uris": {"ios": "https://dc.lft.to/lastmile_qr_scan", "android": "https://dc.lft.to/lastmile_qr_scan"}, "fusion_lon": 0.0, "fusion_lat": 0.0, "bike_id": "79fe9cc7ca8a6c6f6583e53e3c5aab1e", "name": "79fe9cc7ca8a6c6f6583e53e3c5aab1e", "lon": -76.9888015}, {"is_disabled": 0, "type": "electric_scooter", "is_reserved": 0, "lat": 38.92458666666667, "rental_uris": {"ios": "https://dc.lft.to/lastmile_qr_scan", "android": "https://dc.lft.to/lastmile_qr_scan"}, "fusion_lon": 0.0, "fusion_lat": 0.0, "bike_id": "d6725324c6d228068ff566109aa98589", "name": "d6725324c6d228068ff566109aa98589", "lon": -77.041085}, {"is_disabled": 0, "type": "electric_bike", "is_reserved": 0, "lat": 38.8867835, "rental_uris": {"ios": "https://dc.lft.to/lastmile_qr_scan", "android": "https://dc.lft.to/lastmile_qr_scan"}, "fusion_lon": 0.0, "fusion_lat": 0.0, "bike_id": "f464e95ffb5ec705e61c4c2cf7521652", "name": "f464e95ffb5ec705e61c4c2cf7521652", "lon": -77.16092283333333}, {"is_disabled": 0, "type": "electric_scooter", "is_reserved": 0, "lat": 38.917798, "rental_uris": {"ios": "https://dc.lft.to/lastmile_qr_scan", "android": "https://dc.lft.to/lastmile_qr_scan"}, "fusion_lon": 0.0, "fusion_lat": 0.0, "bike_id": "7a3c2cd21804a8441611403c57e7cbb3", "name": "7a3c2cd21804a8441611403c57e7cbb3", "lon": -77.02301033333333}, {"is_disabled": 0, "type": "electric_scooter", "is_reserved": 0, "lat": 38.899468166666665, "rental_uris": {"ios": "https://dc.lft.to/lastmile_qr_scan", "android": "https://dc.lft.to/lastmile_qr_scan"}, "fusion_lon": 0.0, "fusion_lat": 0.0, "bike_id": "8d7ffcb095817c8adc7f1a0e352616b0", "name": "8d7ffcb095817c8adc7f1a0e352616b0", "lon": -77.01431316666667}, {"is_disabled": 0, "type": "electric_scooter", "is_reserved": 0, "lat": 38.919579166666665, "rental_uris": {"ios": "https://dc.lft.to/lastmile_qr_scan", "android": "https://dc.lft.to/lastmile_qr_scan"}, "fusion_lon": 0.0, "fusion_lat": 0.0, "bike_id": "643e0f2428108e685e30f354d972235c", "name": "643e0f2428108e685e30f354d972235c", "lon": -77.02361716666667}, {"is_disabled": 0, "type": "electric_scooter", "is_reserved": 0, "lat": 38.92244, "rental_uris": {"ios": "https://dc.lft.to/lastmile_qr_scan", "android": "https://dc.lft.to/lastmile_qr_scan"}, "fusion_lon": 0.0, "fusion_lat": 0.0, "bike_id": "a3cd6bb8915abc5f21bb62237ebd4706", "name": "a3cd6bb8915abc5f21bb62237ebd4706", "lon": -77.02237966666667}, {"is_disabled": 0, "type": "electric_bike", "is_reserved": 0, "lat": 38.802204, "rental_uris": {"ios": "https://dc.lft.to/lastmile_qr_scan", "android": "https://dc.lft.to/lastmile_qr_scan"}, "fusion_lon": 0.0, "fusion_lat": 0.0, "bike_id": "646a78c346990677861296db93f17c7c", "name": "646a78c346990677861296db93f17c7c", "lon": -77.0792085}, {"is_disabled": 0, "type": "electric_scooter", "is_reserved": 0, "lat": 38.90867016666667, "rental_uris": {"ios": "https://dc.lft.to/lastmile_qr_scan", "android": "https://dc.lft.to/lastmile_qr_scan"}, "fusion_lon": 0.0, "fusion_lat": 0.0, "bike_id": "1bc885be97b9571f00fbc32f8993515a", "name": "1bc885be97b9571f00fbc32f8993515a", "lon": -77.03262366666667}, {"is_disabled": 0, "type": "electric_bike", "is_reserved": 0, "lat": 38.8578785, "rental_uris": {"ios": "https://dc.lft.to/lastmile_qr_scan", "android": "https://dc.lft.to/lastmile_qr_scan"}, "fusion_lon": 0.0, "fusion_lat": 0.0, "bike_id": "41459f6af5e789abba39731c7a9145b1", "name": "41459f6af5e789abba39731c7a9145b1", "lon": -77.09964383333333}, {"is_disabled": 0, "type": "electric_scooter", "is_reserved": 0, "lat": 38.951912666666665, "rental_uris": {"ios": "https://dc.lft.to/lastmile_qr_scan", "android": "https://dc.lft.to/lastmile_qr_scan"}, "fusion_lon": 0.0, "fusion_lat": 0.0, "bike_id": "6d100a28f2d936395b443db093cd6a45", "name": "6d100a28f2d936395b443db093cd6a45", "lon": -77.06662816666666}, {"is_disabled": 0, "type": "electric_scooter", "is_reserved": 0, "lat": 38.90369583333333, "rental_uris": {"ios": "https://dc.lft.to/lastmile_qr_scan", "android": "https://dc.lft.to/lastmile_qr_scan"}, "fusion_lon": 0.0, "fusion_lat": 0.0, "bike_id": "c6681279b081f63adeb566758dfe1f33", "name": "c6681279b081f63adeb566758dfe1f33", "lon": -77.03209983333333}, {"is_disabled": 0, "type": "electric_scooter", "is_reserved": 0, "lat": 38.927836, "rental_uris": {"ios": "https://dc.lft.to/lastmile_qr_scan", "android": "https://dc.lft.to/lastmile_qr_scan"}, "fusion_lon": 0.0, "fusion_lat": 0.0, "bike_id": "fe784a60c9675d721e3ec3e773495fd7", "name": "fe784a60c9675d721e3ec3e773495fd7", "lon": -77.05305066666666}, {"is_disabled": 0, "type": "electric_scooter", "is_reserved": 0, "lat": 38.92251316666667, "rental_uris": {"ios": "https://dc.lft.to/lastmile_qr_scan", "android": "https://dc.lft.to/lastmile_qr_scan"}, "fusion_lon": 0.0, "fusion_lat": 0.0, "bike_id": "679be862d22b519607b2d363787fc0d3", "name": "679be862d22b519607b2d363787fc0d3", "lon": -77.03468916666667}, {"is_disabled": 0, "type": "electric_scooter", "is_reserved": 0, "lat": 38.91414233333333, "rental_uris": {"ios": "https://dc.lft.to/lastmile_qr_scan", "android": "https://dc.lft.to/lastmile_qr_scan"}, "fusion_lon": 0.0, "fusion_lat": 0.0, "bike_id": "f089683b53523fb050331d158bce3cd8", "name": "f089683b53523fb050331d158bce3cd8", "lon": -77.00975083333333}, {"is_disabled": 0, "type": "electric_scooter", "is_reserved": 0, "lat": 38.890553833333335, "rental_uris": {"ios": "https://dc.lft.to/lastmile_qr_scan", "android": "https://dc.lft.to/lastmile_qr_scan"}, "fusion_lon": 0.0, "fusion_lat": 0.0, "bike_id": "8a3f9aba850ba3f64bc02ff4b852a55c", "name": "8a3f9aba850ba3f64bc02ff4b852a55c", "lon": -76.93767683333333}, {"is_disabled": 0, "type": "electric_scooter", "is_reserved": 0, "lat": 38.8875255, "rental_uris": {"ios": "https://dc.lft.to/lastmile_qr_scan", "android": "https://dc.lft.to/lastmile_qr_scan"}, "fusion_lon": 0.0, "fusion_lat": 0.0, "bike_id": "510f931df6fe9d804af861008fcd0422", "name": "510f931df6fe9d804af861008fcd0422", "lon": -76.99851916666667}, {"is_disabled": 0, "type": "electric_scooter", "is_reserved": 0, "lat": 38.909424, "rental_uris": {"ios": "https://dc.lft.to/lastmile_qr_scan", "android": "https://dc.lft.to/lastmile_qr_scan"}, "fusion_lon": 0.0, "fusion_lat": 0.0, "bike_id": "5b158175d2154a4bcd040f3e7c6b0922", "name": "5b158175d2154a4bcd040f3e7c6b0922", "lon": -77.05525066666667}, {"is_disabled": 0, "type": "electric_scooter", "is_reserved": 0, "lat": 38.892219, "rental_uris": {"ios": "https://dc.lft.to/lastmile_qr_scan", "android": "https://dc.lft.to/lastmile_qr_scan"}, "fusion_lon": 0.0, "fusion_lat": 0.0, "bike_id": "5ef10fb7bf04dc39e1db9576cebfb264", "name": "5ef10fb7bf04dc39e1db9576cebfb264", "lon": -77.04512616666666}, {"is_disabled": 0, "type": "electric_scooter", "is_reserved": 0, "lat": 38.933855333333334, "rental_uris": {"ios": "https://dc.lft.to/lastmile_qr_scan", "android": "https://dc.lft.to/lastmile_qr_scan"}, "fusion_lon": 0.0, "fusion_lat": 0.0, "bike_id": "2fefec50e8bdacec65136010c4571811", "name": "2fefec50e8bdacec65136010c4571811", "lon": -77.05769166666667}, {"is_disabled": 0, "type": "electric_scooter", "is_reserved": 0, "lat": 38.892200333333335, "rental_uris": {"ios": "https://dc.lft.to/lastmile_qr_scan", "android": "https://dc.lft.to/lastmile_qr_scan"}, "fusion_lon": 0.0, "fusion_lat": 0.0, "bike_id": "0aaf53dccc0f70b665709dbcaf4650d1", "name": "0aaf53dccc0f70b665709dbcaf4650d1", "lon": -77.04515666666667}, {"is_disabled": 0, "type": "electric_scooter", "is_reserved": 0, "lat": 38.926868666666664, "rental_uris": {"ios": "https://dc.lft.to/lastmile_qr_scan", "android": "https://dc.lft.to/lastmile_qr_scan"}, "fusion_lon": 0.0, "fusion_lat": 0.0, "bike_id": "10ec763f9e69fb12c854a1439982025e", "name": "10ec763f9e69fb12c854a1439982025e", "lon": -77.0373925}, {"is_disabled": 0, "type": "electric_scooter", "is_reserved": 0, "lat": 38.928027, "rental_uris": {"ios": "https://dc.lft.to/lastmile_qr_scan", "android": "https://dc.lft.to/lastmile_qr_scan"}, "fusion_lon": 0.0, "fusion_lat": 0.0, "bike_id": "a7f44c06ea532d99b1406978f88b4f77", "name": "a7f44c06ea532d99b1406978f88b4f77", "lon": -77.03125983333334}, {"is_disabled": 0, "type": "electric_scooter", "is_reserved": 0, "lat": 38.9002165, "rental_uris": {"ios": "https://dc.lft.to/lastmile_qr_scan", "android": "https://dc.lft.to/lastmile_qr_scan"}, "fusion_lon": 0.0, "fusion_lat": 0.0, "bike_id": "a1d8326886a576b5dadc840c0a41397f", "name": "a1d8326886a576b5dadc840c0a41397f", "lon": -77.00086183333333}, {"is_disabled": 0, "type": "electric_scooter", "is_reserved": 0, "lat": 38.942026, "rental_uris": {"ios": "https://dc.lft.to/lastmile_qr_scan", "android": "https://dc.lft.to/lastmile_qr_scan"}, "fusion_lon": 0.0, "fusion_lat": 0.0, "bike_id": "f7c1c66370617c87d99ca317866ce437", "name": "f7c1c66370617c87d99ca317866ce437", "lon": -77.01836816666666}, {"is_disabled": 0, "type": "electric_scooter", "is_reserved": 0, "lat": 38.885863666666665, "rental_uris": {"ios": "https://dc.lft.to/lastmile_qr_scan", "android": "https://dc.lft.to/lastmile_qr_scan"}, "fusion_lon": 0.0, "fusion_lat": 0.0, "bike_id": "5dae559037fff32a7e9399d44decfd38", "name": "5dae559037fff32a7e9399d44decfd38", "lon": -77.0200095}, {"is_disabled": 0, "type": "electric_scooter", "is_reserved": 0, "lat": 38.9084975, "rental_uris": {"ios": "https://dc.lft.to/lastmile_qr_scan", "android": "https://dc.lft.to/lastmile_qr_scan"}, "fusion_lon": 0.0, "fusion_lat": 0.0, "bike_id": "5237e25e1891f52c3bba99492cf42edb", "name": "5237e25e1891f52c3bba99492cf42edb", "lon": -77.0447915}, {"is_disabled": 0, "type": "electric_scooter", "is_reserved": 0, "lat": 38.9100985, "rental_uris": {"ios": "https://dc.lft.to/lastmile_qr_scan", "android": "https://dc.lft.to/lastmile_qr_scan"}, "fusion_lon": 0.0, "fusion_lat": 0.0, "bike_id": "9dc4235be9c4dfa2dc365f46a7e2c11c", "name": "9dc4235be9c4dfa2dc365f46a7e2c11c", "lon": -77.0382445}, {"is_disabled": 0, "type": "electric_scooter", "is_reserved": 0, "lat": 38.922151, "rental_uris": {"ios": "https://dc.lft.to/lastmile_qr_scan", "android": "https://dc.lft.to/lastmile_qr_scan"}, "fusion_lon": 0.0, "fusion_lat": 0.0, "bike_id": "9c8eac242f0a7c77f60e57ff315fbbbd", "name": "9c8eac242f0a7c77f60e57ff315fbbbd", "lon": -77.03527416666667}, {"is_disabled": 0, "type": "electric_scooter", "is_reserved": 0, "lat": 38.893415166666664, "rental_uris": {"ios": "https://dc.lft.to/lastmile_qr_scan", "android": "https://dc.lft.to/lastmile_qr_scan"}, "fusion_lon": 0.0, "fusion_lat": 0.0, "bike_id": "3c1ad5849e2b00f4bc53625bd0a4a030", "name": "3c1ad5849e2b00f4bc53625bd0a4a030", "lon": -77.001996}, {"is_disabled": 0, "type": "electric_scooter", "is_reserved": 0, "lat": 38.89220516666666, "rental_uris": {"ios": "https://dc.lft.to/lastmile_qr_scan", "android": "https://dc.lft.to/lastmile_qr_scan"}, "fusion_lon": 0.0, "fusion_lat": 0.0, "bike_id": "aae05fb8b561ed4ccd07a372d367398a", "name": "aae05fb8b561ed4ccd07a372d367398a", "lon": -77.045178}, {"is_disabled": 0, "type": "electric_bike", "is_reserved": 0, "lat": 38.896051, "rental_uris": {"ios": "https://dc.lft.to/lastmile_qr_scan", "android": "https://dc.lft.to/lastmile_qr_scan"}, "fusion_lon": 0.0, "fusion_lat": 0.0, "bike_id": "ac961302495b08fdae4ed2a9e5331fe8", "name": "ac961302495b08fdae4ed2a9e5331fe8", "lon": -77.0221575}, {"is_disabled": 0, "type": "electric_bike", "is_reserved": 0, "lat": 38.855072666666665, "rental_uris": {"ios": "https://dc.lft.to/lastmile_qr_scan", "android": "https://dc.lft.to/lastmile_qr_scan"}, "fusion_lon": 0.0, "fusion_lat": 0.0, "bike_id": "42e97c8bf2fe9970c485bf418513a965", "name": "42e97c8bf2fe9970c485bf418513a965", "lon": -77.12022166666667}, {"is_disabled": 0, "type": "electric_scooter", "is_reserved": 0, "lat": 38.8968995, "rental_uris": {"ios": "https://dc.lft.to/lastmile_qr_scan", "android": "https://dc.lft.to/lastmile_qr_scan"}, "fusion_lon": 0.0, "fusion_lat": 0.0, "bike_id": "22d947373bbcf498e6a1c5eac480afd5", "name": "22d947373bbcf498e6a1c5eac480afd5", "lon": -77.00499116666667}, {"is_disabled": 0, "type": "electric_scooter", "is_reserved": 0, "lat": 38.893575, "rental_uris": {"ios": "https://dc.lft.to/lastmile_qr_scan", "android": "https://dc.lft.to/lastmile_qr_scan"}, "fusion_lon": 0.0, "fusion_lat": 0.0, "bike_id": "2c6472dd1b158bffa13e2d5fb2006057", "name": "2c6472dd1b158bffa13e2d5fb2006057", "lon": -77.04188866666667}, {"is_disabled": 0, "type": "electric_scooter", "is_reserved": 0, "lat": 38.922386, "rental_uris": {"ios": "https://dc.lft.to/lastmile_qr_scan", "android": "https://dc.lft.to/lastmile_qr_scan"}, "fusion_lon": 0.0, "fusion_lat": 0.0, "bike_id": "bd791119af8f50cb7a1d3c02765c4701", "name": "bd791119af8f50cb7a1d3c02765c4701", "lon": -77.034086}, {"is_disabled": 0, "type": "electric_scooter", "is_reserved": 0, "lat": 38.91400733333333, "rental_uris": {"ios": "https://dc.lft.to/lastmile_qr_scan", "android": "https://dc.lft.to/lastmile_qr_scan"}, "fusion_lon": 0.0, "fusion_lat": 0.0, "bike_id": "8125b58f01e7772f4a7b921de2318945", "name": "8125b58f01e7772f4a7b921de2318945", "lon": -77.032323}, {"is_disabled": 0, "type": "electric_scooter", "is_reserved": 0, "lat": 38.90291416666667, "rental_uris": {"ios": "https://dc.lft.to/lastmile_qr_scan", "android": "https://dc.lft.to/lastmile_qr_scan"}, "fusion_lon": 0.0, "fusion_lat": 0.0, "bike_id": "ab85d739b6cd1b13749bf93a79e87343", "name": "ab85d739b6cd1b13749bf93a79e87343", "lon": -77.04528016666667}, {"is_disabled": 0, "type": "electric_scooter", "is_reserved": 0, "lat": 38.897510833333335, "rental_uris": {"ios": "https://dc.lft.to/lastmile_qr_scan", "android": "https://dc.lft.to/lastmile_qr_scan"}, "fusion_lon": 0.0, "fusion_lat": 0.0, "bike_id": "99b2ab9b5e6d952ffd1a852d88d513ba", "name": "99b2ab9b5e6d952ffd1a852d88d513ba", "lon": -76.941928}, {"is_disabled": 0, "type": "electric_scooter", "is_reserved": 0, "lat": 38.8442525, "rental_uris": {"ios": "https://dc.lft.to/lastmile_qr_scan", "android": "https://dc.lft.to/lastmile_qr_scan"}, "fusion_lon": 0.0, "fusion_lat": 0.0, "bike_id": "8bff8f5611821518520489f807e22483", "name": "8bff8f5611821518520489f807e22483", "lon": -76.99775466666667}, {"is_disabled": 0, "type": "electric_scooter", "is_reserved": 0, "lat": 38.915609833333335, "rental_uris": {"ios": "https://dc.lft.to/lastmile_qr_scan", "android": "https://dc.lft.to/lastmile_qr_scan"}, "fusion_lon": 0.0, "fusion_lat": 0.0, "bike_id": "c69655222b08571cc9303c66b1ce2aad", "name": "c69655222b08571cc9303c66b1ce2aad", "lon": -77.03126166666667}, {"is_disabled": 0, "type": "electric_scooter", "is_reserved": 0, "lat": 38.915212833333335, "rental_uris": {"ios": "https://dc.lft.to/lastmile_qr_scan", "android": "https://dc.lft.to/lastmile_qr_scan"}, "fusion_lon": 0.0, "fusion_lat": 0.0, "bike_id": "7437dffe335630ae9e609d41314049fd", "name": "7437dffe335630ae9e609d41314049fd", "lon": -77.048657}, {"is_disabled": 0, "type": "electric_scooter", "is_reserved": 0, "lat": 38.89771116666667, "rental_uris": {"ios": "https://dc.lft.to/lastmile_qr_scan", "android": "https://dc.lft.to/lastmile_qr_scan"}, "fusion_lon": 0.0, "fusion_lat": 0.0, "bike_id": "7c7dd810f28441228a15f0a5cf0109f8", "name": "7c7dd810f28441228a15f0a5cf0109f8", "lon": -77.01226483333333}, {"is_disabled": 0, "type": "electric_scooter", "is_reserved": 0, "lat": 38.88429383333333, "rental_uris": {"ios": "https://dc.lft.to/lastmile_qr_scan", "android": "https://dc.lft.to/lastmile_qr_scan"}, "fusion_lon": 0.0, "fusion_lat": 0.0, "bike_id": "723329679420bc1e098399cd1c4940ef", "name": "723329679420bc1e098399cd1c4940ef", "lon": -76.95754616666666}, {"is_disabled": 0, "type": "electric_scooter", "is_reserved": 0, "lat": 38.8935945, "rental_uris": {"ios": "https://dc.lft.to/lastmile_qr_scan", "android": "https://dc.lft.to/lastmile_qr_scan"}, "fusion_lon": 0.0, "fusion_lat": 0.0, "bike_id": "08505e0b9ceed74f139a367292601848", "name": "08505e0b9ceed74f139a367292601848", "lon": -76.94959416666667}, {"is_disabled": 0, "type": "electric_scooter", "is_reserved": 0, "lat": 38.901694666666664, "rental_uris": {"ios": "https://dc.lft.to/lastmile_qr_scan", "android": "https://dc.lft.to/lastmile_qr_scan"}, "fusion_lon": 0.0, "fusion_lat": 0.0, "bike_id": "5d39505ff58635a7439bf31d571ed2b9", "name": "5d39505ff58635a7439bf31d571ed2b9", "lon": -76.98077016666667}, {"is_disabled": 0, "type": "electric_bike", "is_reserved": 0, "lat": 38.92897933333333, "rental_uris": {"ios": "https://dc.lft.to/lastmile_qr_scan", "android": "https://dc.lft.to/lastmile_qr_scan"}, "fusion_lon": 0.0, "fusion_lat": 0.0, "bike_id": "9964f381a1eaf403bbf920cc943bb95a", "name": "9964f381a1eaf403bbf920cc943bb95a", "lon": -77.105955}, {"is_disabled": 0, "type": "electric_scooter", "is_reserved": 0, "lat": 38.9084985, "rental_uris": {"ios": "https://dc.lft.to/lastmile_qr_scan", "android": "https://dc.lft.to/lastmile_qr_scan"}, "fusion_lon": 0.0, "fusion_lat": 0.0, "bike_id": "df5bf4948de35d7bd51b01b4572dccc8", "name": "df5bf4948de35d7bd51b01b4572dccc8", "lon": -77.0436145}, {"is_disabled": 0, "type": "electric_scooter", "is_reserved": 0, "lat": 38.905537833333334, "rental_uris": {"ios": "https://dc.lft.to/lastmile_qr_scan", "android": "https://dc.lft.to/lastmile_qr_scan"}, "fusion_lon": 0.0, "fusion_lat": 0.0, "bike_id": "98ed9055a3778e3497ed68386ca3027c", "name": "98ed9055a3778e3497ed68386ca3027c", "lon": -77.0347225}, {"is_disabled": 0, "type": "electric_scooter", "is_reserved": 0, "lat": 38.90313483333333, "rental_uris": {"ios": "https://dc.lft.to/lastmile_qr_scan", "android": "https://dc.lft.to/lastmile_qr_scan"}, "fusion_lon": 0.0, "fusion_lat": 0.0, "bike_id": "bfd3fb873e8c62ab1023d9bc35c62185", "name": "bfd3fb873e8c62ab1023d9bc35c62185", "lon": -77.01190616666666}, {"is_disabled": 0, "type": "electric_scooter", "is_reserved": 0, "lat": 38.911667333333334, "rental_uris": {"ios": "https://dc.lft.to/lastmile_qr_scan", "android": "https://dc.lft.to/lastmile_qr_scan"}, "fusion_lon": 0.0, "fusion_lat": 0.0, "bike_id": "b22c7bcab38ae94088d9eeebf5a87c30", "name": "b22c7bcab38ae94088d9eeebf5a87c30", "lon": -77.04487616666667}, {"is_disabled": 0, "type": "electric_scooter", "is_reserved": 0, "lat": 38.908567166666664, "rental_uris": {"ios": "https://dc.lft.to/lastmile_qr_scan", "android": "https://dc.lft.to/lastmile_qr_scan"}, "fusion_lon": 0.0, "fusion_lat": 0.0, "bike_id": "944f387e0abae360b2e9c6e486dfcf20", "name": "944f387e0abae360b2e9c6e486dfcf20", "lon": -77.04481266666667}, {"is_disabled": 0, "type": "electric_scooter", "is_reserved": 0, "lat": 38.90242716666667, "rental_uris": {"ios": "https://dc.lft.to/lastmile_qr_scan", "android": "https://dc.lft.to/lastmile_qr_scan"}, "fusion_lon": 0.0, "fusion_lat": 0.0, "bike_id": "132e2413f8b23242d7b62f8a20b4e781", "name": "132e2413f8b23242d7b62f8a20b4e781", "lon": -77.0317545}, {"is_disabled": 0, "type": "electric_bike", "is_reserved": 0, "lat": 38.872863, "rental_uris": {"ios": "https://dc.lft.to/lastmile_qr_scan", "android": "https://dc.lft.to/lastmile_qr_scan"}, "fusion_lon": 0.0, "fusion_lat": 0.0, "bike_id": "7960304bec2f12bfe77fa43899a6540f", "name": "7960304bec2f12bfe77fa43899a6540f", "lon": -77.2332135}, {"is_disabled": 0, "type": "electric_bike", "is_reserved": 0, "lat": 38.88188516666666, "rental_uris": {"ios": "https://dc.lft.to/lastmile_qr_scan", "android": "https://dc.lft.to/lastmile_qr_scan"}, "fusion_lon": 0.0, "fusion_lat": 0.0, "bike_id": "2b92ebf05ae9c9937ea60318476537f2", "name": "2b92ebf05ae9c9937ea60318476537f2", "lon": -77.24483283333333}, {"is_disabled": 0, "type": "electric_scooter", "is_reserved": 0, "lat": 38.9097535, "rental_uris": {"ios": "https://dc.lft.to/lastmile_qr_scan", "android": "https://dc.lft.to/lastmile_qr_scan"}, "fusion_lon": 0.0, "fusion_lat": 0.0, "bike_id": "2707f07fc108b1fd2ac9fad022155cd3", "name": "2707f07fc108b1fd2ac9fad022155cd3", "lon": -77.047034}, {"is_disabled": 0, "type": "electric_scooter", "is_reserved": 0, "lat": 38.90145583333333, "rental_uris": {"ios": "https://dc.lft.to/lastmile_qr_scan", "android": "https://dc.lft.to/lastmile_qr_scan"}, "fusion_lon": 0.0, "fusion_lat": 0.0, "bike_id": "cb2bf260d59027b21f8f18a51028f6c1", "name": "cb2bf260d59027b21f8f18a51028f6c1", "lon": -77.00356933333333}, {"is_disabled": 0, "type": "electric_scooter", "is_reserved": 0, "lat": 38.892256, "rental_uris": {"ios": "https://dc.lft.to/lastmile_qr_scan", "android": "https://dc.lft.to/lastmile_qr_scan"}, "fusion_lon": 0.0, "fusion_lat": 0.0, "bike_id": "6b1d2fd9148c91777afcb72c9c7e5826", "name": "6b1d2fd9148c91777afcb72c9c7e5826", "lon": -77.04327916666666}, {"is_disabled": 0, "type": "electric_scooter", "is_reserved": 0, "lat": 38.9615975, "rental_uris": {"ios": "https://dc.lft.to/lastmile_qr_scan", "android": "https://dc.lft.to/lastmile_qr_scan"}, "fusion_lon": 0.0, "fusion_lat": 0.0, "bike_id": "3674fc147e754923dcf8e420f735c025", "name": "3674fc147e754923dcf8e420f735c025", "lon": -77.032338}, {"is_disabled": 0, "type": "electric_scooter", "is_reserved": 0, "lat": 38.862464833333334, "rental_uris": {"ios": "https://dc.lft.to/lastmile_qr_scan", "android": "https://dc.lft.to/lastmile_qr_scan"}, "fusion_lon": 0.0, "fusion_lat": 0.0, "bike_id": "e785b82e355716e65712b3cd006a9e53", "name": "e785b82e355716e65712b3cd006a9e53", "lon": -76.99532766666667}, {"is_disabled": 0, "type": "electric_scooter", "is_reserved": 0, "lat": 38.91115383333333, "rental_uris": {"ios": "https://dc.lft.to/lastmile_qr_scan", "android": "https://dc.lft.to/lastmile_qr_scan"}, "fusion_lon": 0.0, "fusion_lat": 0.0, "bike_id": "d385bec26ac5b7cb1f76b0b3687efe3c", "name": "d385bec26ac5b7cb1f76b0b3687efe3c", "lon": -77.0423725}, {"is_disabled": 0, "type": "electric_scooter", "is_reserved": 0, "lat": 38.8903485, "rental_uris": {"ios": "https://dc.lft.to/lastmile_qr_scan", "android": "https://dc.lft.to/lastmile_qr_scan"}, "fusion_lon": 0.0, "fusion_lat": 0.0, "bike_id": "bba45718acd24fb2f1d27920000d0e61", "name": "bba45718acd24fb2f1d27920000d0e61", "lon": -76.93752583333334}, {"is_disabled": 0, "type": "electric_scooter", "is_reserved": 0, "lat": 38.88330883333333, "rental_uris": {"ios": "https://dc.lft.to/lastmile_qr_scan", "android": "https://dc.lft.to/lastmile_qr_scan"}, "fusion_lon": 0.0, "fusion_lat": 0.0, "bike_id": "a990576d1534b78d71fcdf636dd5756a", "name": "a990576d1534b78d71fcdf636dd5756a", "lon": -77.021665}, {"is_disabled": 0, "type": "electric_scooter", "is_reserved": 0, "lat": 38.918171, "rental_uris": {"ios": "https://dc.lft.to/lastmile_qr_scan", "android": "https://dc.lft.to/lastmile_qr_scan"}, "fusion_lon": 0.0, "fusion_lat": 0.0, "bike_id": "bbf4f401e17b6920dc04681511cbb861", "name": "bbf4f401e17b6920dc04681511cbb861", "lon": -77.02718066666667}, {"is_disabled": 0, "type": "electric_bike", "is_reserved": 0, "lat": 38.916473833333335, "rental_uris": {"ios": "https://dc.lft.to/lastmile_qr_scan", "android": "https://dc.lft.to/lastmile_qr_scan"}, "fusion_lon": 0.0, "fusion_lat": 0.0, "bike_id": "ef440b40d81f6a135e8c8c3f92b466f6", "name": "ef440b40d81f6a135e8c8c3f92b466f6", "lon": -76.97170016666666}, {"is_disabled": 0, "type": "electric_scooter", "is_reserved": 0, "lat": 38.9036705, "rental_uris": {"ios": "https://dc.lft.to/lastmile_qr_scan", "android": "https://dc.lft.to/lastmile_qr_scan"}, "fusion_lon": 0.0, "fusion_lat": 0.0, "bike_id": "d722f0e6cce74754157728ceae08bea0", "name": "d722f0e6cce74754157728ceae08bea0", "lon": -77.04171066666666}, {"is_disabled": 0, "type": "electric_bike", "is_reserved": 0, "lat": 38.8792315, "rental_uris": {"ios": "https://dc.lft.to/lastmile_qr_scan", "android": "https://dc.lft.to/lastmile_qr_scan"}, "fusion_lon": 0.0, "fusion_lat": 0.0, "bike_id": "47a3fe3e055bb84b990ea30e94d139f5", "name": "47a3fe3e055bb84b990ea30e94d139f5", "lon": -77.02381183333334}, {"is_disabled": 0, "type": "electric_scooter", "is_reserved": 0, "lat": 38.920587, "rental_uris": {"ios": "https://dc.lft.to/lastmile_qr_scan", "android": "https://dc.lft.to/lastmile_qr_scan"}, "fusion_lon": 0.0, "fusion_lat": 0.0, "bike_id": "07181ad05d154a8c853af8ac68aa2f1c", "name": "07181ad05d154a8c853af8ac68aa2f1c", "lon": -77.03395583333334}, {"is_disabled": 0, "type": "electric_bike", "is_reserved": 0, "lat": 38.8716735, "rental_uris": {"ios": "https://dc.lft.to/lastmile_qr_scan", "android": "https://dc.lft.to/lastmile_qr_scan"}, "fusion_lon": 0.0, "fusion_lat": 0.0, "bike_id": "d9196d2f3d03f354d6bc1477004f1005", "name": "d9196d2f3d03f354d6bc1477004f1005", "lon": -77.01287}, {"is_disabled": 0, "type": "electric_scooter", "is_reserved": 0, "lat": 38.913644166666664, "rental_uris": {"ios": "https://dc.lft.to/lastmile_qr_scan", "android": "https://dc.lft.to/lastmile_qr_scan"}, "fusion_lon": 0.0, "fusion_lat": 0.0, "bike_id": "e84b4a7a6322a6a249b913695fcbec6e", "name": "e84b4a7a6322a6a249b913695fcbec6e", "lon": -77.04493233333334}, {"is_disabled": 0, "type": "electric_scooter", "is_reserved": 0, "lat": 38.90440733333333, "rental_uris": {"ios": "https://dc.lft.to/lastmile_qr_scan", "android": "https://dc.lft.to/lastmile_qr_scan"}, "fusion_lon": 0.0, "fusion_lat": 0.0, "bike_id": "a8f9e7bb3804c19fde9dddb60ea2e3ee", "name": "a8f9e7bb3804c19fde9dddb60ea2e3ee", "lon": -76.97916083333334}, {"is_disabled": 0, "type": "electric_scooter", "is_reserved": 0, "lat": 38.93084016666667, "rental_uris": {"ios": "https://dc.lft.to/lastmile_qr_scan", "android": "https://dc.lft.to/lastmile_qr_scan"}, "fusion_lon": 0.0, "fusion_lat": 0.0, "bike_id": "5ab13de25aba488af548d38a1a8486b9", "name": "5ab13de25aba488af548d38a1a8486b9", "lon": -77.028044}, {"is_disabled": 0, "type": "electric_scooter", "is_reserved": 0, "lat": 38.89323483333333, "rental_uris": {"ios": "https://dc.lft.to/lastmile_qr_scan", "android": "https://dc.lft.to/lastmile_qr_scan"}, "fusion_lon": 0.0, "fusion_lat": 0.0, "bike_id": "348258c74ccfd302024d29f17e2e8cf5", "name": "348258c74ccfd302024d29f17e2e8cf5", "lon": -77.05585183333334}, {"is_disabled": 0, "type": "electric_scooter", "is_reserved": 0, "lat": 38.89221883333333, "rental_uris": {"ios": "https://dc.lft.to/lastmile_qr_scan", "android": "https://dc.lft.to/lastmile_qr_scan"}, "fusion_lon": 0.0, "fusion_lat": 0.0, "bike_id": "2f7a8cf1888b2a968eae5d2a9dbf8272", "name": "2f7a8cf1888b2a968eae5d2a9dbf8272", "lon": -77.00311466666666}, {"is_disabled": 0, "type": "electric_scooter", "is_reserved": 0, "lat": 38.926112333333336, "rental_uris": {"ios": "https://dc.lft.to/lastmile_qr_scan", "android": "https://dc.lft.to/lastmile_qr_scan"}, "fusion_lon": 0.0, "fusion_lat": 0.0, "bike_id": "bbe1eb8704ad7e41429dcfe707f43e53", "name": "bbe1eb8704ad7e41429dcfe707f43e53", "lon": -77.02166066666666}, {"is_disabled": 0, "type": "electric_scooter", "is_reserved": 0, "lat": 38.86659616666667, "rental_uris": {"ios": "https://dc.lft.to/lastmile_qr_scan", "android": "https://dc.lft.to/lastmile_qr_scan"}, "fusion_lon": 0.0, "fusion_lat": 0.0, "bike_id": "30904249d053ec67edc8e25d9db88c8d", "name": "30904249d053ec67edc8e25d9db88c8d", "lon": -76.9888955}, {"is_disabled": 0, "type": "electric_scooter", "is_reserved": 0, "lat": 38.909596, "rental_uris": {"ios": "https://dc.lft.to/lastmile_qr_scan", "android": "https://dc.lft.to/lastmile_qr_scan"}, "fusion_lon": 0.0, "fusion_lat": 0.0, "bike_id": "14222f74188d18df9e9776e38a465431", "name": "14222f74188d18df9e9776e38a465431", "lon": -77.04622916666666}, {"is_disabled": 0, "type": "electric_scooter", "is_reserved": 0, "lat": 38.87996483333333, "rental_uris": {"ios": "https://dc.lft.to/lastmile_qr_scan", "android": "https://dc.lft.to/lastmile_qr_scan"}, "fusion_lon": 0.0, "fusion_lat": 0.0, "bike_id": "337d9a7a307101480df6394d43ec03e9", "name": "337d9a7a307101480df6394d43ec03e9", "lon": -76.98545633333333}, {"is_disabled": 0, "type": "electric_scooter", "is_reserved": 0, "lat": 38.905324666666665, "rental_uris": {"ios": "https://dc.lft.to/lastmile_qr_scan", "android": "https://dc.lft.to/lastmile_qr_scan"}, "fusion_lon": 0.0, "fusion_lat": 0.0, "bike_id": "15f8c96707602d34659e65b528d4b92d", "name": "15f8c96707602d34659e65b528d4b92d", "lon": -77.05110216666667}, {"is_disabled": 0, "type": "electric_scooter", "is_reserved": 0, "lat": 38.87630683333333, "rental_uris": {"ios": "https://dc.lft.to/lastmile_qr_scan", "android": "https://dc.lft.to/lastmile_qr_scan"}, "fusion_lon": 0.0, "fusion_lat": 0.0, "bike_id": "417d3c6324f1295d80cc9a79e1a27103", "name": "417d3c6324f1295d80cc9a79e1a27103", "lon": -77.00462516666667}, {"is_disabled": 0, "type": "electric_scooter", "is_reserved": 0, "lat": 38.882707, "rental_uris": {"ios": "https://dc.lft.to/lastmile_qr_scan", "android": "https://dc.lft.to/lastmile_qr_scan"}, "fusion_lon": 0.0, "fusion_lat": 0.0, "bike_id": "2d89b808b0783585320f69a7dfc60e23", "name": "2d89b808b0783585320f69a7dfc60e23", "lon": -76.990197}, {"is_disabled": 0, "type": "electric_scooter", "is_reserved": 0, "lat": 38.9158575, "rental_uris": {"ios": "https://dc.lft.to/lastmile_qr_scan", "android": "https://dc.lft.to/lastmile_qr_scan"}, "fusion_lon": 0.0, "fusion_lat": 0.0, "bike_id": "3c3910a9057dfd3d4c3cfe023e34621a", "name": "3c3910a9057dfd3d4c3cfe023e34621a", "lon": -77.0415665}, {"is_disabled": 0, "type": "electric_scooter", "is_reserved": 0, "lat": 38.9234315, "rental_uris": {"ios": "https://dc.lft.to/lastmile_qr_scan", "android": "https://dc.lft.to/lastmile_qr_scan"}, "fusion_lon": 0.0, "fusion_lat": 0.0, "bike_id": "ca918ad607fe954deeb5a1ab9ff02333", "name": "ca918ad607fe954deeb5a1ab9ff02333", "lon": -77.05126266666667}, {"is_disabled": 0, "type": "electric_scooter", "is_reserved": 0, "lat": 38.844291, "rental_uris": {"ios": "https://dc.lft.to/lastmile_qr_scan", "android": "https://dc.lft.to/lastmile_qr_scan"}, "fusion_lon": 0.0, "fusion_lat": 0.0, "bike_id": "19ed0ca5a3cc221efb9cc06549a4cf8c", "name": "19ed0ca5a3cc221efb9cc06549a4cf8c", "lon": -76.997058}, {"is_disabled": 0, "type": "electric_scooter", "is_reserved": 0, "lat": 38.91468283333333, "rental_uris": {"ios": "https://dc.lft.to/lastmile_qr_scan", "android": "https://dc.lft.to/lastmile_qr_scan"}, "fusion_lon": 0.0, "fusion_lat": 0.0, "bike_id": "fec59be716bb4e5b9c4948efc80ee564", "name": "fec59be716bb4e5b9c4948efc80ee564", "lon": -77.032067}, {"is_disabled": 0, "type": "electric_scooter", "is_reserved": 0, "lat": 38.911264833333334, "rental_uris": {"ios": "https://dc.lft.to/lastmile_qr_scan", "android": "https://dc.lft.to/lastmile_qr_scan"}, "fusion_lon": 0.0, "fusion_lat": 0.0, "bike_id": "2234f70377fb4a75284f23e3c1976621", "name": "2234f70377fb4a75284f23e3c1976621", "lon": -77.02694983333333}, {"is_disabled": 0, "type": "electric_scooter", "is_reserved": 0, "lat": 38.89358133333333, "rental_uris": {"ios": "https://dc.lft.to/lastmile_qr_scan", "android": "https://dc.lft.to/lastmile_qr_scan"}, "fusion_lon": 0.0, "fusion_lat": 0.0, "bike_id": "deab57ce3f541ef436d39051d439a398", "name": "deab57ce3f541ef436d39051d439a398", "lon": -77.0033845}, {"is_disabled": 0, "type": "electric_scooter", "is_reserved": 0, "lat": 38.909587, "rental_uris": {"ios": "https://dc.lft.to/lastmile_qr_scan", "android": "https://dc.lft.to/lastmile_qr_scan"}, "fusion_lon": 0.0, "fusion_lat": 0.0, "bike_id": "a0327ac937ab21cc42963086e695975d", "name": "a0327ac937ab21cc42963086e695975d", "lon": -77.02287583333333}, {"is_disabled": 0, "type": "electric_bike", "is_reserved": 0, "lat": 38.904855833333336, "rental_uris": {"ios": "https://dc.lft.to/lastmile_qr_scan", "android": "https://dc.lft.to/lastmile_qr_scan"}, "fusion_lon": 0.0, "fusion_lat": 0.0, "bike_id": "060e4d3d398e3d848121891b849ba2b9", "name": "060e4d3d398e3d848121891b849ba2b9", "lon": -77.0679645}, {"is_disabled": 0, "type": "electric_scooter", "is_reserved": 0, "lat": 38.90308383333333, "rental_uris": {"ios": "https://dc.lft.to/lastmile_qr_scan", "android": "https://dc.lft.to/lastmile_qr_scan"}, "fusion_lon": 0.0, "fusion_lat": 0.0, "bike_id": "e2ce69a47b8ee1a768d0440830374c05", "name": "e2ce69a47b8ee1a768d0440830374c05", "lon": -77.040077}, {"is_disabled": 0, "type": "electric_scooter", "is_reserved": 0, "lat": 38.917201, "rental_uris": {"ios": "https://dc.lft.to/lastmile_qr_scan", "android": "https://dc.lft.to/lastmile_qr_scan"}, "fusion_lon": 0.0, "fusion_lat": 0.0, "bike_id": "191b80ac653475560cfca48a12d9f023", "name": "191b80ac653475560cfca48a12d9f023", "lon": -77.02969666666667}, {"is_disabled": 0, "type": "electric_scooter", "is_reserved": 0, "lat": 38.910417, "rental_uris": {"ios": "https://dc.lft.to/lastmile_qr_scan", "android": "https://dc.lft.to/lastmile_qr_scan"}, "fusion_lon": 0.0, "fusion_lat": 0.0, "bike_id": "7c36164d6aa69538e62ca668b3bb4d5b", "name": "7c36164d6aa69538e62ca668b3bb4d5b", "lon": -77.04825516666666}, {"is_disabled": 0, "type": "electric_scooter", "is_reserved": 0, "lat": 38.8997045, "rental_uris": {"ios": "https://dc.lft.to/lastmile_qr_scan", "android": "https://dc.lft.to/lastmile_qr_scan"}, "fusion_lon": 0.0, "fusion_lat": 0.0, "bike_id": "0e50ab7a13377be2db7e59e2729e04c5", "name": "0e50ab7a13377be2db7e59e2729e04c5", "lon": -76.93967633333334}, {"is_disabled": 0, "type": "electric_scooter", "is_reserved": 0, "lat": 38.8935235, "rental_uris": {"ios": "https://dc.lft.to/lastmile_qr_scan", "android": "https://dc.lft.to/lastmile_qr_scan"}, "fusion_lon": 0.0, "fusion_lat": 0.0, "bike_id": "6f8315412374c7bbe4dc529af579649a", "name": "6f8315412374c7bbe4dc529af579649a", "lon": -77.0414125}, {"is_disabled": 0, "type": "electric_scooter", "is_reserved": 0, "lat": 38.916823666666666, "rental_uris": {"ios": "https://dc.lft.to/lastmile_qr_scan", "android": "https://dc.lft.to/lastmile_qr_scan"}, "fusion_lon": 0.0, "fusion_lat": 0.0, "bike_id": "e7cd8b332b2466dd3e699f2ebfac43f6", "name": "e7cd8b332b2466dd3e699f2ebfac43f6", "lon": -77.03691683333334}, {"is_disabled": 0, "type": "electric_scooter", "is_reserved": 0, "lat": 38.900342, "rental_uris": {"ios": "https://dc.lft.to/lastmile_qr_scan", "android": "https://dc.lft.to/lastmile_qr_scan"}, "fusion_lon": 0.0, "fusion_lat": 0.0, "bike_id": "93fce4d2be93c72df1e0af2ce5270478", "name": "93fce4d2be93c72df1e0af2ce5270478", "lon": -77.02905533333333}, {"is_disabled": 0, "type": "electric_scooter", "is_reserved": 0, "lat": 38.902610833333334, "rental_uris": {"ios": "https://dc.lft.to/lastmile_qr_scan", "android": "https://dc.lft.to/lastmile_qr_scan"}, "fusion_lon": 0.0, "fusion_lat": 0.0, "bike_id": "8dbea1ee8de17090be36472b91692191", "name": "8dbea1ee8de17090be36472b91692191", "lon": -77.03069933333333}, {"is_disabled": 0, "type": "electric_scooter", "is_reserved": 0, "lat": 38.9203535, "rental_uris": {"ios": "https://dc.lft.to/lastmile_qr_scan", "android": "https://dc.lft.to/lastmile_qr_scan"}, "fusion_lon": 0.0, "fusion_lat": 0.0, "bike_id": "94ddabd899f838f967d376a621e59e66", "name": "94ddabd899f838f967d376a621e59e66", "lon": -77.030799}, {"is_disabled": 0, "type": "electric_scooter", "is_reserved": 0, "lat": 38.923440166666666, "rental_uris": {"ios": "https://dc.lft.to/lastmile_qr_scan", "android": "https://dc.lft.to/lastmile_qr_scan"}, "fusion_lon": 0.0, "fusion_lat": 0.0, "bike_id": "cb6c10286af52b90b806c96dacbee7f7", "name": "cb6c10286af52b90b806c96dacbee7f7", "lon": -77.05124483333333}, {"is_disabled": 0, "type": "electric_scooter", "is_reserved": 0, "lat": 38.900243333333336, "rental_uris": {"ios": "https://dc.lft.to/lastmile_qr_scan", "android": "https://dc.lft.to/lastmile_qr_scan"}, "fusion_lon": 0.0, "fusion_lat": 0.0, "bike_id": "6d96edad4f0f31d232e80a0af0b5eb8b", "name": "6d96edad4f0f31d232e80a0af0b5eb8b", "lon": -76.988257}, {"is_disabled": 0, "type": "electric_scooter", "is_reserved": 0, "lat": 38.91634883333333, "rental_uris": {"ios": "https://dc.lft.to/lastmile_qr_scan", "android": "https://dc.lft.to/lastmile_qr_scan"}, "fusion_lon": 0.0, "fusion_lat": 0.0, "bike_id": "183aaec7302c517275793f7270626cf0", "name": "183aaec7302c517275793f7270626cf0", "lon": -77.03281666666666}, {"is_disabled": 0, "type": "electric_scooter", "is_reserved": 0, "lat": 38.927486, "rental_uris": {"ios": "https://dc.lft.to/lastmile_qr_scan", "android": "https://dc.lft.to/lastmile_qr_scan"}, "fusion_lon": 0.0, "fusion_lat": 0.0, "bike_id": "ee25704cf73ce14048dc98f9efe5a28a", "name": "ee25704cf73ce14048dc98f9efe5a28a", "lon": -77.02483833333334}, {"is_disabled": 0, "type": "electric_scooter", "is_reserved": 0, "lat": 38.91195833333333, "rental_uris": {"ios": "https://dc.lft.to/lastmile_qr_scan", "android": "https://dc.lft.to/lastmile_qr_scan"}, "fusion_lon": 0.0, "fusion_lat": 0.0, "bike_id": "e98ddb8ab2eb3d72312334cbb1fad7bb", "name": "e98ddb8ab2eb3d72312334cbb1fad7bb", "lon": -77.03157733333333}, {"is_disabled": 0, "type": "electric_scooter", "is_reserved": 0, "lat": 38.921456666666664, "rental_uris": {"ios": "https://dc.lft.to/lastmile_qr_scan", "android": "https://dc.lft.to/lastmile_qr_scan"}, "fusion_lon": 0.0, "fusion_lat": 0.0, "bike_id": "cd57dfad653db74e130d4b6a0e4856e5", "name": "cd57dfad653db74e130d4b6a0e4856e5", "lon": -77.0350145}, {"is_disabled": 0, "type": "electric_scooter", "is_reserved": 0, "lat": 38.9154245, "rental_uris": {"ios": "https://dc.lft.to/lastmile_qr_scan", "android": "https://dc.lft.to/lastmile_qr_scan"}, "fusion_lon": 0.0, "fusion_lat": 0.0, "bike_id": "9cf398b6a3b432153d5904ff40b3a978", "name": "9cf398b6a3b432153d5904ff40b3a978", "lon": -77.02975116666667}, {"is_disabled": 0, "type": "electric_scooter", "is_reserved": 0, "lat": 38.90232916666667, "rental_uris": {"ios": "https://dc.lft.to/lastmile_qr_scan", "android": "https://dc.lft.to/lastmile_qr_scan"}, "fusion_lon": 0.0, "fusion_lat": 0.0, "bike_id": "90b7768f9417e2c191c0f4e7df80eead", "name": "90b7768f9417e2c191c0f4e7df80eead", "lon": -77.06090066666667}, {"is_disabled": 0, "type": "electric_scooter", "is_reserved": 0, "lat": 38.881122500000004, "rental_uris": {"ios": "https://dc.lft.to/lastmile_qr_scan", "android": "https://dc.lft.to/lastmile_qr_scan"}, "fusion_lon": 0.0, "fusion_lat": 0.0, "bike_id": "2678afe556e398399c7e57f6983fad7f", "name": "2678afe556e398399c7e57f6983fad7f", "lon": -77.016604}, {"is_disabled": 0, "type": "electric_scooter", "is_reserved": 0, "lat": 38.92806816666667, "rental_uris": {"ios": "https://dc.lft.to/lastmile_qr_scan", "android": "https://dc.lft.to/lastmile_qr_scan"}, "fusion_lon": 0.0, "fusion_lat": 0.0, "bike_id": "5d70dd26ae6196705ed0b81090e3761f", "name": "5d70dd26ae6196705ed0b81090e3761f", "lon": -77.03585366666667}, {"is_disabled": 0, "type": "electric_scooter", "is_reserved": 0, "lat": 38.90767233333333, "rental_uris": {"ios": "https://dc.lft.to/lastmile_qr_scan", "android": "https://dc.lft.to/lastmile_qr_scan"}, "fusion_lon": 0.0, "fusion_lat": 0.0, "bike_id": "83e347c0e6afa65b9acf37d098cd4686", "name": "83e347c0e6afa65b9acf37d098cd4686", "lon": -77.00235033333334}, {"is_disabled": 0, "type": "electric_scooter", "is_reserved": 0, "lat": 38.9285175, "rental_uris": {"ios": "https://dc.lft.to/lastmile_qr_scan", "android": "https://dc.lft.to/lastmile_qr_scan"}, "fusion_lon": 0.0, "fusion_lat": 0.0, "bike_id": "19da8ec405154b18830658ea716c1518", "name": "19da8ec405154b18830658ea716c1518", "lon": -77.0339835}, {"is_disabled": 0, "type": "electric_scooter", "is_reserved": 0, "lat": 38.900237, "rental_uris": {"ios": "https://dc.lft.to/lastmile_qr_scan", "android": "https://dc.lft.to/lastmile_qr_scan"}, "fusion_lon": 0.0, "fusion_lat": 0.0, "bike_id": "909e903f608728ea868b9dc6ee974fe1", "name": "909e903f608728ea868b9dc6ee974fe1", "lon": -76.99992766666666}, {"is_disabled": 0, "type": "electric_scooter", "is_reserved": 0, "lat": 38.8843025, "rental_uris": {"ios": "https://dc.lft.to/lastmile_qr_scan", "android": "https://dc.lft.to/lastmile_qr_scan"}, "fusion_lon": 0.0, "fusion_lat": 0.0, "bike_id": "59602e50bfc61241c67daadb3b1663d2", "name": "59602e50bfc61241c67daadb3b1663d2", "lon": -77.02985116666666}, {"is_disabled": 0, "type": "electric_scooter", "is_reserved": 0, "lat": 38.9141505, "rental_uris": {"ios": "https://dc.lft.to/lastmile_qr_scan", "android": "https://dc.lft.to/lastmile_qr_scan"}, "fusion_lon": 0.0, "fusion_lat": 0.0, "bike_id": "2532d94d6914906686f77279592f65ba", "name": "2532d94d6914906686f77279592f65ba", "lon": -77.02811833333334}, {"is_disabled": 0, "type": "electric_scooter", "is_reserved": 0, "lat": 38.893843, "rental_uris": {"ios": "https://dc.lft.to/lastmile_qr_scan", "android": "https://dc.lft.to/lastmile_qr_scan"}, "fusion_lon": 0.0, "fusion_lat": 0.0, "bike_id": "fb58cd1540bc9a57e18ecfc9280f6685", "name": "fb58cd1540bc9a57e18ecfc9280f6685", "lon": -76.95017233333333}, {"is_disabled": 0, "type": "electric_scooter", "is_reserved": 0, "lat": 38.92499216666667, "rental_uris": {"ios": "https://dc.lft.to/lastmile_qr_scan", "android": "https://dc.lft.to/lastmile_qr_scan"}, "fusion_lon": 0.0, "fusion_lat": 0.0, "bike_id": "99e6b4cab07cc24f22ea0dfa75d57c86", "name": "99e6b4cab07cc24f22ea0dfa75d57c86", "lon": -77.03799}, {"is_disabled": 0, "type": "electric_bike", "is_reserved": 0, "lat": 38.9127905, "rental_uris": {"ios": "https://dc.lft.to/lastmile_qr_scan", "android": "https://dc.lft.to/lastmile_qr_scan"}, "fusion_lon": 0.0, "fusion_lat": 0.0, "bike_id": "482ebabfc2e7470c6d9e1fc86d03df3b", "name": "482ebabfc2e7470c6d9e1fc86d03df3b", "lon": -77.0782705}, {"is_disabled": 0, "type": "electric_bike", "is_reserved": 0, "lat": 38.959527666666666, "rental_uris": {"ios": "https://dc.lft.to/lastmile_qr_scan", "android": "https://dc.lft.to/lastmile_qr_scan"}, "fusion_lon": 0.0, "fusion_lat": 0.0, "bike_id": "891596bd6e6bf5f3d8b8d44abc5d67da", "name": "891596bd6e6bf5f3d8b8d44abc5d67da", "lon": -77.10091533333333}, {"is_disabled": 0, "type": "electric_scooter", "is_reserved": 0, "lat": 38.91676733333333, "rental_uris": {"ios": "https://dc.lft.to/lastmile_qr_scan", "android": "https://dc.lft.to/lastmile_qr_scan"}, "fusion_lon": 0.0, "fusion_lat": 0.0, "bike_id": "e2ba51a0ed385b96ff6ba5c47c9ef8f5", "name": "e2ba51a0ed385b96ff6ba5c47c9ef8f5", "lon": -77.03782533333333}, {"is_disabled": 0, "type": "electric_scooter", "is_reserved": 0, "lat": 38.940858166666665, "rental_uris": {"ios": "https://dc.lft.to/lastmile_qr_scan", "android": "https://dc.lft.to/lastmile_qr_scan"}, "fusion_lon": 0.0, "fusion_lat": 0.0, "bike_id": "62d93ba57ed3b1b0c54f44f7a3088fb0", "name": "62d93ba57ed3b1b0c54f44f7a3088fb0", "lon": -77.02720983333333}, {"is_disabled": 0, "type": "electric_scooter", "is_reserved": 0, "lat": 38.920429, "rental_uris": {"ios": "https://dc.lft.to/lastmile_qr_scan", "android": "https://dc.lft.to/lastmile_qr_scan"}, "fusion_lon": 0.0, "fusion_lat": 0.0, "bike_id": "6e8723e2655ba113cccc4143bee4cece", "name": "6e8723e2655ba113cccc4143bee4cece", "lon": -77.0341475}, {"is_disabled": 0, "type": "electric_scooter", "is_reserved": 0, "lat": 38.877047, "rental_uris": {"ios": "https://dc.lft.to/lastmile_qr_scan", "android": "https://dc.lft.to/lastmile_qr_scan"}, "fusion_lon": 0.0, "fusion_lat": 0.0, "bike_id": "853ca5da4e99b5f26de815d16d4c4188", "name": "853ca5da4e99b5f26de815d16d4c4188", "lon": -77.01758733333334}, {"is_disabled": 0, "type": "electric_scooter", "is_reserved": 0, "lat": 38.903633, "rental_uris": {"ios": "https://dc.lft.to/lastmile_qr_scan", "android": "https://dc.lft.to/lastmile_qr_scan"}, "fusion_lon": 0.0, "fusion_lat": 0.0, "bike_id": "5bb2a8a37246ca05d41499b37eaabb18", "name": "5bb2a8a37246ca05d41499b37eaabb18", "lon": -76.9986145}, {"is_disabled": 0, "type": "electric_scooter", "is_reserved": 0, "lat": 38.902928833333334, "rental_uris": {"ios": "https://dc.lft.to/lastmile_qr_scan", "android": "https://dc.lft.to/lastmile_qr_scan"}, "fusion_lon": 0.0, "fusion_lat": 0.0, "bike_id": "17cff2ab2fa7d2f4d54c4f3372f69d7a", "name": "17cff2ab2fa7d2f4d54c4f3372f69d7a", "lon": -77.03827266666667}, {"is_disabled": 0, "type": "electric_scooter", "is_reserved": 0, "lat": 38.912628833333336, "rental_uris": {"ios": "https://dc.lft.to/lastmile_qr_scan", "android": "https://dc.lft.to/lastmile_qr_scan"}, "fusion_lon": 0.0, "fusion_lat": 0.0, "bike_id": "f4f56581c48a21dbb92ae1cc05fb8a85", "name": "f4f56581c48a21dbb92ae1cc05fb8a85", "lon": -77.03726083333333}, {"is_disabled": 0, "type": "electric_scooter", "is_reserved": 0, "lat": 38.903577, "rental_uris": {"ios": "https://dc.lft.to/lastmile_qr_scan", "android": "https://dc.lft.to/lastmile_qr_scan"}, "fusion_lon": 0.0, "fusion_lat": 0.0, "bike_id": "b86b761acad9004656b21cd8bf337380", "name": "b86b761acad9004656b21cd8bf337380", "lon": -77.0175185}, {"is_disabled": 0, "type": "electric_scooter", "is_reserved": 0, "lat": 38.892200333333335, "rental_uris": {"ios": "https://dc.lft.to/lastmile_qr_scan", "android": "https://dc.lft.to/lastmile_qr_scan"}, "fusion_lon": 0.0, "fusion_lat": 0.0, "bike_id": "1a6bbabfc6224d42551e20d29a8275f1", "name": "1a6bbabfc6224d42551e20d29a8275f1", "lon": -77.02219766666667}, {"is_disabled": 0, "type": "electric_scooter", "is_reserved": 0, "lat": 38.89336683333333, "rental_uris": {"ios": "https://dc.lft.to/lastmile_qr_scan", "android": "https://dc.lft.to/lastmile_qr_scan"}, "fusion_lon": 0.0, "fusion_lat": 0.0, "bike_id": "dd4b00a28b634e07d1d0535974c780c7", "name": "dd4b00a28b634e07d1d0535974c780c7", "lon": -77.01376633333334}, {"is_disabled": 0, "type": "electric_scooter", "is_reserved": 0, "lat": 38.906211166666665, "rental_uris": {"ios": "https://dc.lft.to/lastmile_qr_scan", "android": "https://dc.lft.to/lastmile_qr_scan"}, "fusion_lon": 0.0, "fusion_lat": 0.0, "bike_id": "73741060f03c94de6e63f0a9a32b0638", "name": "73741060f03c94de6e63f0a9a32b0638", "lon": -77.0345535}, {"is_disabled": 0, "type": "electric_scooter", "is_reserved": 0, "lat": 38.928035333333334, "rental_uris": {"ios": "https://dc.lft.to/lastmile_qr_scan", "android": "https://dc.lft.to/lastmile_qr_scan"}, "fusion_lon": 0.0, "fusion_lat": 0.0, "bike_id": "2a6d5409edf21a544f4c4a58e82ea87d", "name": "2a6d5409edf21a544f4c4a58e82ea87d", "lon": -77.03402433333333}, {"is_disabled": 0, "type": "electric_scooter", "is_reserved": 0, "lat": 38.91056316666667, "rental_uris": {"ios": "https://dc.lft.to/lastmile_qr_scan", "android": "https://dc.lft.to/lastmile_qr_scan"}, "fusion_lon": 0.0, "fusion_lat": 0.0, "bike_id": "c8344fb3247a9111fe338fef3e7f0a10", "name": "c8344fb3247a9111fe338fef3e7f0a10", "lon": -77.041057}, {"is_disabled": 0, "type": "electric_scooter", "is_reserved": 0, "lat": 38.923780666666666, "rental_uris": {"ios": "https://dc.lft.to/lastmile_qr_scan", "android": "https://dc.lft.to/lastmile_qr_scan"}, "fusion_lon": 0.0, "fusion_lat": 0.0, "bike_id": "0acf248f18ce5b8e2f541f883cc5a00d", "name": "0acf248f18ce5b8e2f541f883cc5a00d", "lon": -77.03133566666666}, {"is_disabled": 0, "type": "electric_scooter", "is_reserved": 0, "lat": 38.90132766666667, "rental_uris": {"ios": "https://dc.lft.to/lastmile_qr_scan", "android": "https://dc.lft.to/lastmile_qr_scan"}, "fusion_lon": 0.0, "fusion_lat": 0.0, "bike_id": "a5e17697da95bf3cfce6a23fe9018355", "name": "a5e17697da95bf3cfce6a23fe9018355", "lon": -77.026934}, {"is_disabled": 0, "type": "electric_bike", "is_reserved": 0, "lat": 38.83806366666666, "rental_uris": {"ios": "https://dc.lft.to/lastmile_qr_scan", "android": "https://dc.lft.to/lastmile_qr_scan"}, "fusion_lon": 0.0, "fusion_lat": 0.0, "bike_id": "ea4fb8d48f0a0a2bf04420bfc53222bf", "name": "ea4fb8d48f0a0a2bf04420bfc53222bf", "lon": -77.09527366666667}, {"is_disabled": 0, "type": "electric_scooter", "is_reserved": 0, "lat": 38.91100483333334, "rental_uris": {"ios": "https://dc.lft.to/lastmile_qr_scan", "android": "https://dc.lft.to/lastmile_qr_scan"}, "fusion_lon": 0.0, "fusion_lat": 0.0, "bike_id": "c37a2093da13af955aef478b817f5d5a", "name": "c37a2093da13af955aef478b817f5d5a", "lon": -77.04831466666667}, {"is_disabled": 0, "type": "electric_bike", "is_reserved": 0, "lat": 38.931294, "rental_uris": {"ios": "https://dc.lft.to/lastmile_qr_scan", "android": "https://dc.lft.to/lastmile_qr_scan"}, "fusion_lon": 0.0, "fusion_lat": 0.0, "bike_id": "5dec925c50fcada885849c93a232cbad", "name": "5dec925c50fcada885849c93a232cbad", "lon": -77.078459}, {"is_disabled": 0, "type": "electric_bike", "is_reserved": 0, "lat": 38.917960666666666, "rental_uris": {"ios": "https://dc.lft.to/lastmile_qr_scan", "android": "https://dc.lft.to/lastmile_qr_scan"}, "fusion_lon": 0.0, "fusion_lat": 0.0, "bike_id": "25dca1d7383536efe49d342c446f5872", "name": "25dca1d7383536efe49d342c446f5872", "lon": -77.22349016666666}, {"is_disabled": 0, "type": "electric_scooter", "is_reserved": 0, "lat": 38.902651, "rental_uris": {"ios": "https://dc.lft.to/lastmile_qr_scan", "android": "https://dc.lft.to/lastmile_qr_scan"}, "fusion_lon": 0.0, "fusion_lat": 0.0, "bike_id": "4f109664e3cda4ee9939e3a8a5bf99c5", "name": "4f109664e3cda4ee9939e3a8a5bf99c5", "lon": -77.05316766666667}, {"is_disabled": 0, "type": "electric_scooter", "is_reserved": 0, "lat": 38.94957183333333, "rental_uris": {"ios": "https://dc.lft.to/lastmile_qr_scan", "android": "https://dc.lft.to/lastmile_qr_scan"}, "fusion_lon": 0.0, "fusion_lat": 0.0, "bike_id": "94e1f82d7a5e8797f82d559a371bc3d9", "name": "94e1f82d7a5e8797f82d559a371bc3d9", "lon": -77.0272565}, {"is_disabled": 0, "type": "electric_scooter", "is_reserved": 0, "lat": 38.906503, "rental_uris": {"ios": "https://dc.lft.to/lastmile_qr_scan", "android": "https://dc.lft.to/lastmile_qr_scan"}, "fusion_lon": 0.0, "fusion_lat": 0.0, "bike_id": "c3655039e11bbea8b0e7e527dc32a88b", "name": "c3655039e11bbea8b0e7e527dc32a88b", "lon": -77.048681}, {"is_disabled": 0, "type": "electric_scooter", "is_reserved": 0, "lat": 38.9058405, "rental_uris": {"ios": "https://dc.lft.to/lastmile_qr_scan", "android": "https://dc.lft.to/lastmile_qr_scan"}, "fusion_lon": 0.0, "fusion_lat": 0.0, "bike_id": "2fab7f558fcb94ecb117005ff9c710b6", "name": "2fab7f558fcb94ecb117005ff9c710b6", "lon": -77.04454683333333}, {"is_disabled": 0, "type": "electric_scooter", "is_reserved": 0, "lat": 38.89219966666667, "rental_uris": {"ios": "https://dc.lft.to/lastmile_qr_scan", "android": "https://dc.lft.to/lastmile_qr_scan"}, "fusion_lon": 0.0, "fusion_lat": 0.0, "bike_id": "0cd264287d99be1582cfac25e82ef763", "name": "0cd264287d99be1582cfac25e82ef763", "lon": -77.04329816666667}, {"is_disabled": 0, "type": "electric_scooter", "is_reserved": 0, "lat": 38.93590366666667, "rental_uris": {"ios": "https://dc.lft.to/lastmile_qr_scan", "android": "https://dc.lft.to/lastmile_qr_scan"}, "fusion_lon": 0.0, "fusion_lat": 0.0, "bike_id": "403b5f35785d919e7116e1c62e7c9db5", "name": "403b5f35785d919e7116e1c62e7c9db5", "lon": -77.0351785}, {"is_disabled": 0, "type": "electric_scooter", "is_reserved": 0, "lat": 38.89731416666667, "rental_uris": {"ios": "https://dc.lft.to/lastmile_qr_scan", "android": "https://dc.lft.to/lastmile_qr_scan"}, "fusion_lon": 0.0, "fusion_lat": 0.0, "bike_id": "d1e6d2038d6a3878ca5f48379113e1a9", "name": "d1e6d2038d6a3878ca5f48379113e1a9", "lon": -77.02717383333334}, {"is_disabled": 0, "type": "electric_scooter", "is_reserved": 0, "lat": 38.905227833333335, "rental_uris": {"ios": "https://dc.lft.to/lastmile_qr_scan", "android": "https://dc.lft.to/lastmile_qr_scan"}, "fusion_lon": 0.0, "fusion_lat": 0.0, "bike_id": "0e582d8c3142eab31317369e9eb7bc87", "name": "0e582d8c3142eab31317369e9eb7bc87", "lon": -77.041674}, {"is_disabled": 0, "type": "electric_scooter", "is_reserved": 0, "lat": 38.892208333333336, "rental_uris": {"ios": "https://dc.lft.to/lastmile_qr_scan", "android": "https://dc.lft.to/lastmile_qr_scan"}, "fusion_lon": 0.0, "fusion_lat": 0.0, "bike_id": "95dee0037045c95c0819458575a72415", "name": "95dee0037045c95c0819458575a72415", "lon": -77.02587716666666}, {"is_disabled": 0, "type": "electric_scooter", "is_reserved": 0, "lat": 38.9008225, "rental_uris": {"ios": "https://dc.lft.to/lastmile_qr_scan", "android": "https://dc.lft.to/lastmile_qr_scan"}, "fusion_lon": 0.0, "fusion_lat": 0.0, "bike_id": "b782a7dc27763876c0adc71a99d5e242", "name": "b782a7dc27763876c0adc71a99d5e242", "lon": -77.04920183333333}, {"is_disabled": 0, "type": "electric_scooter", "is_reserved": 0, "lat": 38.932214, "rental_uris": {"ios": "https://dc.lft.to/lastmile_qr_scan", "android": "https://dc.lft.to/lastmile_qr_scan"}, "fusion_lon": 0.0, "fusion_lat": 0.0, "bike_id": "d0733cd8e2cc41cf5915fd5808f0fb00", "name": "d0733cd8e2cc41cf5915fd5808f0fb00", "lon": -77.03388566666666}, {"is_disabled": 0, "type": "electric_scooter", "is_reserved": 0, "lat": 38.909493166666664, "rental_uris": {"ios": "https://dc.lft.to/lastmile_qr_scan", "android": "https://dc.lft.to/lastmile_qr_scan"}, "fusion_lon": 0.0, "fusion_lat": 0.0, "bike_id": "2f27533fb15f20143f27e5b5cc2b8ad7", "name": "2f27533fb15f20143f27e5b5cc2b8ad7", "lon": -77.021884}, {"is_disabled": 0, "type": "electric_scooter", "is_reserved": 0, "lat": 38.86646266666666, "rental_uris": {"ios": "https://dc.lft.to/lastmile_qr_scan", "android": "https://dc.lft.to/lastmile_qr_scan"}, "fusion_lon": 0.0, "fusion_lat": 0.0, "bike_id": "507bb9c4bd90520a8e5acff441e5f659", "name": "507bb9c4bd90520a8e5acff441e5f659", "lon": -76.985391}, {"is_disabled": 0, "type": "electric_scooter", "is_reserved": 0, "lat": 38.93779683333333, "rental_uris": {"ios": "https://dc.lft.to/lastmile_qr_scan", "android": "https://dc.lft.to/lastmile_qr_scan"}, "fusion_lon": 0.0, "fusion_lat": 0.0, "bike_id": "fb6808ccfdc918b70fb4eb4f39fc9216", "name": "fb6808ccfdc918b70fb4eb4f39fc9216", "lon": -77.02318233333334}, {"is_disabled": 0, "type": "electric_scooter", "is_reserved": 0, "lat": 38.8994645, "rental_uris": {"ios": "https://dc.lft.to/lastmile_qr_scan", "android": "https://dc.lft.to/lastmile_qr_scan"}, "fusion_lon": 0.0, "fusion_lat": 0.0, "bike_id": "dcf58bfc9fb3dc3b50b5ddc5a4bff1eb", "name": "dcf58bfc9fb3dc3b50b5ddc5a4bff1eb", "lon": -77.021351}, {"is_disabled": 0, "type": "electric_scooter", "is_reserved": 0, "lat": 38.91856966666667, "rental_uris": {"ios": "https://dc.lft.to/lastmile_qr_scan", "android": "https://dc.lft.to/lastmile_qr_scan"}, "fusion_lon": 0.0, "fusion_lat": 0.0, "bike_id": "55e4ce6cec0b92e16940e42eb9636267", "name": "55e4ce6cec0b92e16940e42eb9636267", "lon": -77.04165083333334}, {"is_disabled": 0, "type": "electric_scooter", "is_reserved": 0, "lat": 38.915961833333334, "rental_uris": {"ios": "https://dc.lft.to/lastmile_qr_scan", "android": "https://dc.lft.to/lastmile_qr_scan"}, "fusion_lon": 0.0, "fusion_lat": 0.0, "bike_id": "601bee13ee86c8e286bc4c4b274dbd15", "name": "601bee13ee86c8e286bc4c4b274dbd15", "lon": -77.02299583333334}, {"is_disabled": 0, "type": "electric_scooter", "is_reserved": 0, "lat": 38.8971705, "rental_uris": {"ios": "https://dc.lft.to/lastmile_qr_scan", "android": "https://dc.lft.to/lastmile_qr_scan"}, "fusion_lon": 0.0, "fusion_lat": 0.0, "bike_id": "b9d7ce3e441a1f7126702687a1f43b1d", "name": "b9d7ce3e441a1f7126702687a1f43b1d", "lon": -77.02168283333333}, {"is_disabled": 0, "type": "electric_scooter", "is_reserved": 0, "lat": 38.89839383333333, "rental_uris": {"ios": "https://dc.lft.to/lastmile_qr_scan", "android": "https://dc.lft.to/lastmile_qr_scan"}, "fusion_lon": 0.0, "fusion_lat": 0.0, "bike_id": "f69e87a4f51b2cf2c9a2892a47f0d6ea", "name": "f69e87a4f51b2cf2c9a2892a47f0d6ea", "lon": -76.946369}, {"is_disabled": 0, "type": "electric_scooter", "is_reserved": 0, "lat": 38.934085, "rental_uris": {"ios": "https://dc.lft.to/lastmile_qr_scan", "android": "https://dc.lft.to/lastmile_qr_scan"}, "fusion_lon": 0.0, "fusion_lat": 0.0, "bike_id": "01c8634663a09ccafc382fdb69fb4bf0", "name": "01c8634663a09ccafc382fdb69fb4bf0", "lon": -77.02472233333333}, {"is_disabled": 0, "type": "electric_scooter", "is_reserved": 0, "lat": 38.86218133333333, "rental_uris": {"ios": "https://dc.lft.to/lastmile_qr_scan", "android": "https://dc.lft.to/lastmile_qr_scan"}, "fusion_lon": 0.0, "fusion_lat": 0.0, "bike_id": "2bec33709da7db45df9a1fd54f98d051", "name": "2bec33709da7db45df9a1fd54f98d051", "lon": -76.99462516666667}, {"is_disabled": 0, "type": "electric_scooter", "is_reserved": 0, "lat": 38.9234315, "rental_uris": {"ios": "https://dc.lft.to/lastmile_qr_scan", "android": "https://dc.lft.to/lastmile_qr_scan"}, "fusion_lon": 0.0, "fusion_lat": 0.0, "bike_id": "7609bfbf679a83e848fc2e6e6d0d46a8", "name": "7609bfbf679a83e848fc2e6e6d0d46a8", "lon": -77.01916816666666}, {"is_disabled": 0, "type": "electric_bike", "is_reserved": 0, "lat": 38.985035333333336, "rental_uris": {"ios": "https://dc.lft.to/lastmile_qr_scan", "android": "https://dc.lft.to/lastmile_qr_scan"}, "fusion_lon": 0.0, "fusion_lat": 0.0, "bike_id": "21d0f5dcd9ad0122cb35a35514b81ce2", "name": "21d0f5dcd9ad0122cb35a35514b81ce2", "lon": -76.98202316666666}, {"is_disabled": 0, "type": "electric_scooter", "is_reserved": 0, "lat": 38.92330416666667, "rental_uris": {"ios": "https://dc.lft.to/lastmile_qr_scan", "android": "https://dc.lft.to/lastmile_qr_scan"}, "fusion_lon": 0.0, "fusion_lat": 0.0, "bike_id": "86058e7fa7c1137a88fba82c848c691f", "name": "86058e7fa7c1137a88fba82c848c691f", "lon": -77.04630583333334}, {"is_disabled": 0, "type": "electric_scooter", "is_reserved": 0, "lat": 38.911162, "rental_uris": {"ios": "https://dc.lft.to/lastmile_qr_scan", "android": "https://dc.lft.to/lastmile_qr_scan"}, "fusion_lon": 0.0, "fusion_lat": 0.0, "bike_id": "853f860a2e98b8716d7e0ef91fd446c1", "name": "853f860a2e98b8716d7e0ef91fd446c1", "lon": -77.0069975}, {"is_disabled": 0, "type": "electric_scooter", "is_reserved": 0, "lat": 38.9340235, "rental_uris": {"ios": "https://dc.lft.to/lastmile_qr_scan", "android": "https://dc.lft.to/lastmile_qr_scan"}, "fusion_lon": 0.0, "fusion_lat": 0.0, "bike_id": "c4fbe723bbccaa200e23d654209e8c6d", "name": "c4fbe723bbccaa200e23d654209e8c6d", "lon": -77.02101266666666}, {"is_disabled": 0, "type": "electric_scooter", "is_reserved": 0, "lat": 38.89728566666667, "rental_uris": {"ios": "https://dc.lft.to/lastmile_qr_scan", "android": "https://dc.lft.to/lastmile_qr_scan"}, "fusion_lon": 0.0, "fusion_lat": 0.0, "bike_id": "a05f6f4f27b3a87a0f0ab05c22c3e104", "name": "a05f6f4f27b3a87a0f0ab05c22c3e104", "lon": -77.02328066666666}, {"is_disabled": 0, "type": "electric_scooter", "is_reserved": 0, "lat": 38.88625416666667, "rental_uris": {"ios": "https://dc.lft.to/lastmile_qr_scan", "android": "https://dc.lft.to/lastmile_qr_scan"}, "fusion_lon": 0.0, "fusion_lat": 0.0, "bike_id": "88742bfa376198deb43c3dd390735b3c", "name": "88742bfa376198deb43c3dd390735b3c", "lon": -76.946857}, {"is_disabled": 0, "type": "electric_scooter", "is_reserved": 0, "lat": 38.96387633333333, "rental_uris": {"ios": "https://dc.lft.to/lastmile_qr_scan", "android": "https://dc.lft.to/lastmile_qr_scan"}, "fusion_lon": 0.0, "fusion_lat": 0.0, "bike_id": "adfc765c980f55ee43b8d94cbb3243a8", "name": "adfc765c980f55ee43b8d94cbb3243a8", "lon": -77.035043}, {"is_disabled": 0, "type": "electric_scooter", "is_reserved": 0, "lat": 38.894958, "rental_uris": {"ios": "https://dc.lft.to/lastmile_qr_scan", "android": "https://dc.lft.to/lastmile_qr_scan"}, "fusion_lon": 0.0, "fusion_lat": 0.0, "bike_id": "23a624ac01eb5c9bf1e83210e33e160b", "name": "23a624ac01eb5c9bf1e83210e33e160b", "lon": -76.94947283333333}, {"is_disabled": 0, "type": "electric_scooter", "is_reserved": 0, "lat": 38.91570266666667, "rental_uris": {"ios": "https://dc.lft.to/lastmile_qr_scan", "android": "https://dc.lft.to/lastmile_qr_scan"}, "fusion_lon": 0.0, "fusion_lat": 0.0, "bike_id": "d7ccc416b71b142842ec14763bbd9673", "name": "d7ccc416b71b142842ec14763bbd9673", "lon": -77.03253283333333}, {"is_disabled": 0, "type": "electric_scooter", "is_reserved": 0, "lat": 38.90568483333333, "rental_uris": {"ios": "https://dc.lft.to/lastmile_qr_scan", "android": "https://dc.lft.to/lastmile_qr_scan"}, "fusion_lon": 0.0, "fusion_lat": 0.0, "bike_id": "64532325d8e1918ced28b8c7d45e9c9f", "name": "64532325d8e1918ced28b8c7d45e9c9f", "lon": -77.03073933333333}, {"is_disabled": 0, "type": "electric_bike", "is_reserved": 0, "lat": 38.87701, "rental_uris": {"ios": "https://dc.lft.to/lastmile_qr_scan", "android": "https://dc.lft.to/lastmile_qr_scan"}, "fusion_lon": 0.0, "fusion_lat": 0.0, "bike_id": "1e5ce197bee6d6e4d25a41523cf16540", "name": "1e5ce197bee6d6e4d25a41523cf16540", "lon": -77.011709}, {"is_disabled": 0, "type": "electric_scooter", "is_reserved": 0, "lat": 38.8877265, "rental_uris": {"ios": "https://dc.lft.to/lastmile_qr_scan", "android": "https://dc.lft.to/lastmile_qr_scan"}, "fusion_lon": 0.0, "fusion_lat": 0.0, "bike_id": "5feec4d358b2c515fb932a40b60b1e70", "name": "5feec4d358b2c515fb932a40b60b1e70", "lon": -76.99767383333334}, {"is_disabled": 0, "type": "electric_bike", "is_reserved": 0, "lat": 38.9827365, "rental_uris": {"ios": "https://dc.lft.to/lastmile_qr_scan", "android": "https://dc.lft.to/lastmile_qr_scan"}, "fusion_lon": 0.0, "fusion_lat": 0.0, "bike_id": "52ddb7736d2cec4da6fe69ee97eeba9b", "name": "52ddb7736d2cec4da6fe69ee97eeba9b", "lon": -77.017741}, {"is_disabled": 0, "type": "electric_scooter", "is_reserved": 0, "lat": 38.917773, "rental_uris": {"ios": "https://dc.lft.to/lastmile_qr_scan", "android": "https://dc.lft.to/lastmile_qr_scan"}, "fusion_lon": 0.0, "fusion_lat": 0.0, "bike_id": "879b33bb18984ce33783ecfe5b29e411", "name": "879b33bb18984ce33783ecfe5b29e411", "lon": -77.0411085}, {"is_disabled": 0, "type": "electric_scooter", "is_reserved": 0, "lat": 38.894505833333334, "rental_uris": {"ios": "https://dc.lft.to/lastmile_qr_scan", "android": "https://dc.lft.to/lastmile_qr_scan"}, "fusion_lon": 0.0, "fusion_lat": 0.0, "bike_id": "71dd131a7139f492ac7ed510b19eb978", "name": "71dd131a7139f492ac7ed510b19eb978", "lon": -76.97810466666667}, {"is_disabled": 0, "type": "electric_scooter", "is_reserved": 0, "lat": 38.8922075, "rental_uris": {"ios": "https://dc.lft.to/lastmile_qr_scan", "android": "https://dc.lft.to/lastmile_qr_scan"}, "fusion_lon": 0.0, "fusion_lat": 0.0, "bike_id": "ea994b4b9c9387e2e5183f7eadf2ddb6", "name": "ea994b4b9c9387e2e5183f7eadf2ddb6", "lon": -77.041865}, {"is_disabled": 0, "type": "electric_scooter", "is_reserved": 0, "lat": 38.941105, "rental_uris": {"ios": "https://dc.lft.to/lastmile_qr_scan", "android": "https://dc.lft.to/lastmile_qr_scan"}, "fusion_lon": 0.0, "fusion_lat": 0.0, "bike_id": "51e6a0ead37be468b0a156cc4d8df423", "name": "51e6a0ead37be468b0a156cc4d8df423", "lon": -77.020937}, {"is_disabled": 0, "type": "electric_scooter", "is_reserved": 0, "lat": 38.92269983333333, "rental_uris": {"ios": "https://dc.lft.to/lastmile_qr_scan", "android": "https://dc.lft.to/lastmile_qr_scan"}, "fusion_lon": 0.0, "fusion_lat": 0.0, "bike_id": "3839f154f3d0eb8ff37c8ca9f9161188", "name": "3839f154f3d0eb8ff37c8ca9f9161188", "lon": -77.02530783333333}, {"is_disabled": 0, "type": "electric_scooter", "is_reserved": 0, "lat": 38.905504, "rental_uris": {"ios": "https://dc.lft.to/lastmile_qr_scan", "android": "https://dc.lft.to/lastmile_qr_scan"}, "fusion_lon": 0.0, "fusion_lat": 0.0, "bike_id": "621ea9ead4da6556535a6b8bc1f5f46c", "name": "621ea9ead4da6556535a6b8bc1f5f46c", "lon": -77.046635}, {"is_disabled": 0, "type": "electric_scooter", "is_reserved": 0, "lat": 38.897548666666665, "rental_uris": {"ios": "https://dc.lft.to/lastmile_qr_scan", "android": "https://dc.lft.to/lastmile_qr_scan"}, "fusion_lon": 0.0, "fusion_lat": 0.0, "bike_id": "9ef0a0eea91616a76d983637c36b32c9", "name": "9ef0a0eea91616a76d983637c36b32c9", "lon": -77.02924966666667}, {"is_disabled": 0, "type": "electric_scooter", "is_reserved": 0, "lat": 38.9021225, "rental_uris": {"ios": "https://dc.lft.to/lastmile_qr_scan", "android": "https://dc.lft.to/lastmile_qr_scan"}, "fusion_lon": 0.0, "fusion_lat": 0.0, "bike_id": "144d1773ee72fb47bb25ad36161e0694", "name": "144d1773ee72fb47bb25ad36161e0694", "lon": -77.04826966666667}, {"is_disabled": 0, "type": "electric_scooter", "is_reserved": 0, "lat": 38.92663183333333, "rental_uris": {"ios": "https://dc.lft.to/lastmile_qr_scan", "android": "https://dc.lft.to/lastmile_qr_scan"}, "fusion_lon": 0.0, "fusion_lat": 0.0, "bike_id": "1a790ee373fef521b8bd5c3d806ab59b", "name": "1a790ee373fef521b8bd5c3d806ab59b", "lon": -76.99553666666667}, {"is_disabled": 0, "type": "electric_scooter", "is_reserved": 0, "lat": 38.90966983333333, "rental_uris": {"ios": "https://dc.lft.to/lastmile_qr_scan", "android": "https://dc.lft.to/lastmile_qr_scan"}, "fusion_lon": 0.0, "fusion_lat": 0.0, "bike_id": "e7ca94ae559f85da96b8228aae1f4623", "name": "e7ca94ae559f85da96b8228aae1f4623", "lon": -77.02480516666667}, {"is_disabled": 0, "type": "electric_scooter", "is_reserved": 0, "lat": 38.945183166666666, "rental_uris": {"ios": "https://dc.lft.to/lastmile_qr_scan", "android": "https://dc.lft.to/lastmile_qr_scan"}, "fusion_lon": 0.0, "fusion_lat": 0.0, "bike_id": "b98b5aa8801e14d8253bd16b38fefb47", "name": "b98b5aa8801e14d8253bd16b38fefb47", "lon": -76.97947066666667}, {"is_disabled": 0, "type": "electric_bike", "is_reserved": 0, "lat": 38.95190316666667, "rental_uris": {"ios": "https://dc.lft.to/lastmile_qr_scan", "android": "https://dc.lft.to/lastmile_qr_scan"}, "fusion_lon": 0.0, "fusion_lat": 0.0, "bike_id": "0e9a3d8088757e79effde9331798dc1a", "name": "0e9a3d8088757e79effde9331798dc1a", "lon": -76.9693485}, {"is_disabled": 0, "type": "electric_scooter", "is_reserved": 0, "lat": 38.90726766666667, "rental_uris": {"ios": "https://dc.lft.to/lastmile_qr_scan", "android": "https://dc.lft.to/lastmile_qr_scan"}, "fusion_lon": 0.0, "fusion_lat": 0.0, "bike_id": "ca6fe85fdd25c54e6479cc19aaa2e3a1", "name": "ca6fe85fdd25c54e6479cc19aaa2e3a1", "lon": -77.02949983333333}, {"is_disabled": 0, "type": "electric_scooter", "is_reserved": 0, "lat": 38.893552166666666, "rental_uris": {"ios": "https://dc.lft.to/lastmile_qr_scan", "android": "https://dc.lft.to/lastmile_qr_scan"}, "fusion_lon": 0.0, "fusion_lat": 0.0, "bike_id": "d21ff3d3ef249e479830148701205fb7", "name": "d21ff3d3ef249e479830148701205fb7", "lon": -77.0033575}, {"is_disabled": 0, "type": "electric_scooter", "is_reserved": 0, "lat": 38.911193833333336, "rental_uris": {"ios": "https://dc.lft.to/lastmile_qr_scan", "android": "https://dc.lft.to/lastmile_qr_scan"}, "fusion_lon": 0.0, "fusion_lat": 0.0, "bike_id": "76c196a308a92e238520e2cc1f98aeae", "name": "76c196a308a92e238520e2cc1f98aeae", "lon": -77.04235966666667}, {"is_disabled": 0, "type": "electric_scooter", "is_reserved": 0, "lat": 38.88517066666667, "rental_uris": {"ios": "https://dc.lft.to/lastmile_qr_scan", "android": "https://dc.lft.to/lastmile_qr_scan"}, "fusion_lon": 0.0, "fusion_lat": 0.0, "bike_id": "a2471ebc11bd038dd2839f7542255e6b", "name": "a2471ebc11bd038dd2839f7542255e6b", "lon": -76.92875166666667}, {"is_disabled": 0, "type": "electric_bike", "is_reserved": 0, "lat": 38.850279, "rental_uris": {"ios": "https://dc.lft.to/lastmile_qr_scan", "android": "https://dc.lft.to/lastmile_qr_scan"}, "fusion_lon": 0.0, "fusion_lat": 0.0, "bike_id": "9a9276004beeb119b20d3f98102ca76b", "name": "9a9276004beeb119b20d3f98102ca76b", "lon": -77.09806966666666}, {"is_disabled": 0, "type": "electric_scooter", "is_reserved": 0, "lat": 38.907387, "rental_uris": {"ios": "https://dc.lft.to/lastmile_qr_scan", "android": "https://dc.lft.to/lastmile_qr_scan"}, "fusion_lon": 0.0, "fusion_lat": 0.0, "bike_id": "7df6dc1c6ca97dc5cde8101d1bad7266", "name": "7df6dc1c6ca97dc5cde8101d1bad7266", "lon": -77.001474}, {"is_disabled": 0, "type": "electric_scooter", "is_reserved": 0, "lat": 38.91783083333333, "rental_uris": {"ios": "https://dc.lft.to/lastmile_qr_scan", "android": "https://dc.lft.to/lastmile_qr_scan"}, "fusion_lon": 0.0, "fusion_lat": 0.0, "bike_id": "e3428e20522831453c205be489ce598c", "name": "e3428e20522831453c205be489ce598c", "lon": -77.0230885}, {"is_disabled": 0, "type": "electric_scooter", "is_reserved": 0, "lat": 38.89573333333333, "rental_uris": {"ios": "https://dc.lft.to/lastmile_qr_scan", "android": "https://dc.lft.to/lastmile_qr_scan"}, "fusion_lon": 0.0, "fusion_lat": 0.0, "bike_id": "db0e658516fc36a0e5c791d292d3f098", "name": "db0e658516fc36a0e5c791d292d3f098", "lon": -77.03181083333334}, {"is_disabled": 0, "type": "electric_bike", "is_reserved": 0, "lat": 38.857905333333335, "rental_uris": {"ios": "https://dc.lft.to/lastmile_qr_scan", "android": "https://dc.lft.to/lastmile_qr_scan"}, "fusion_lon": 0.0, "fusion_lat": 0.0, "bike_id": "dc0595eeebca32525daff267efe1f0d5", "name": "dc0595eeebca32525daff267efe1f0d5", "lon": -77.0996725}, {"is_disabled": 0, "type": "electric_scooter", "is_reserved": 0, "lat": 38.89614916666667, "rental_uris": {"ios": "https://dc.lft.to/lastmile_qr_scan", "android": "https://dc.lft.to/lastmile_qr_scan"}, "fusion_lon": 0.0, "fusion_lat": 0.0, "bike_id": "3502f450c4d9ea229b908d1b3d6c7dba", "name": "3502f450c4d9ea229b908d1b3d6c7dba", "lon": -77.04617633333334}, {"is_disabled": 0, "type": "electric_scooter", "is_reserved": 0, "lat": 38.91815066666667, "rental_uris": {"ios": "https://dc.lft.to/lastmile_qr_scan", "android": "https://dc.lft.to/lastmile_qr_scan"}, "fusion_lon": 0.0, "fusion_lat": 0.0, "bike_id": "754412367d36caa6d3e7f415f9b7d8de", "name": "754412367d36caa6d3e7f415f9b7d8de", "lon": -77.03827066666666}, {"is_disabled": 0, "type": "electric_scooter", "is_reserved": 0, "lat": 38.924134333333335, "rental_uris": {"ios": "https://dc.lft.to/lastmile_qr_scan", "android": "https://dc.lft.to/lastmile_qr_scan"}, "fusion_lon": 0.0, "fusion_lat": 0.0, "bike_id": "47ebab921d4a423d49e7dddb57e4a719", "name": "47ebab921d4a423d49e7dddb57e4a719", "lon": -77.05060133333333}, {"is_disabled": 0, "type": "electric_bike", "is_reserved": 0, "lat": 38.9033035, "rental_uris": {"ios": "https://dc.lft.to/lastmile_qr_scan", "android": "https://dc.lft.to/lastmile_qr_scan"}, "fusion_lon": 0.0, "fusion_lat": 0.0, "bike_id": "4dd50b9f30997ce5b00b47fcf08e50b7", "name": "4dd50b9f30997ce5b00b47fcf08e50b7", "lon": -76.97597666666667}, {"is_disabled": 0, "type": "electric_scooter", "is_reserved": 0, "lat": 38.892237333333334, "rental_uris": {"ios": "https://dc.lft.to/lastmile_qr_scan", "android": "https://dc.lft.to/lastmile_qr_scan"}, "fusion_lon": 0.0, "fusion_lat": 0.0, "bike_id": "d4b11c82c999acdd6a8115c9e678a104", "name": "d4b11c82c999acdd6a8115c9e678a104", "lon": -77.04657816666666}, {"is_disabled": 0, "type": "electric_scooter", "is_reserved": 0, "lat": 38.904923, "rental_uris": {"ios": "https://dc.lft.to/lastmile_qr_scan", "android": "https://dc.lft.to/lastmile_qr_scan"}, "fusion_lon": 0.0, "fusion_lat": 0.0, "bike_id": "27a75187df6ad05a629621c2b8f404db", "name": "27a75187df6ad05a629621c2b8f404db", "lon": -76.94961266666667}, {"is_disabled": 0, "type": "electric_scooter", "is_reserved": 0, "lat": 38.917291666666664, "rental_uris": {"ios": "https://dc.lft.to/lastmile_qr_scan", "android": "https://dc.lft.to/lastmile_qr_scan"}, "fusion_lon": 0.0, "fusion_lat": 0.0, "bike_id": "c8821be86773e0287e9c4ae99183542f", "name": "c8821be86773e0287e9c4ae99183542f", "lon": -77.04179016666667}, {"is_disabled": 0, "type": "electric_scooter", "is_reserved": 0, "lat": 38.920359, "rental_uris": {"ios": "https://dc.lft.to/lastmile_qr_scan", "android": "https://dc.lft.to/lastmile_qr_scan"}, "fusion_lon": 0.0, "fusion_lat": 0.0, "bike_id": "1fe5c690c80304d386c86767fbe66106", "name": "1fe5c690c80304d386c86767fbe66106", "lon": -77.031213}, {"is_disabled": 0, "type": "electric_scooter", "is_reserved": 0, "lat": 38.8719375, "rental_uris": {"ios": "https://dc.lft.to/lastmile_qr_scan", "android": "https://dc.lft.to/lastmile_qr_scan"}, "fusion_lon": 0.0, "fusion_lat": 0.0, "bike_id": "4b8d7c746d6f5f92ce4f1a8bb58ed5e4", "name": "4b8d7c746d6f5f92ce4f1a8bb58ed5e4", "lon": -77.006215}, {"is_disabled": 0, "type": "electric_scooter", "is_reserved": 0, "lat": 38.934763333333336, "rental_uris": {"ios": "https://dc.lft.to/lastmile_qr_scan", "android": "https://dc.lft.to/lastmile_qr_scan"}, "fusion_lon": 0.0, "fusion_lat": 0.0, "bike_id": "547ea76a46666b7bc90981f3f1a76338", "name": "547ea76a46666b7bc90981f3f1a76338", "lon": -77.072658}, {"is_disabled": 0, "type": "electric_scooter", "is_reserved": 0, "lat": 38.88777616666667, "rental_uris": {"ios": "https://dc.lft.to/lastmile_qr_scan", "android": "https://dc.lft.to/lastmile_qr_scan"}, "fusion_lon": 0.0, "fusion_lat": 0.0, "bike_id": "905899ed27daae834d24e1bbea1e6fc4", "name": "905899ed27daae834d24e1bbea1e6fc4", "lon": -76.9512775}, {"is_disabled": 0, "type": "electric_scooter", "is_reserved": 0, "lat": 38.920161666666665, "rental_uris": {"ios": "https://dc.lft.to/lastmile_qr_scan", "android": "https://dc.lft.to/lastmile_qr_scan"}, "fusion_lon": 0.0, "fusion_lat": 0.0, "bike_id": "00e5e3c4304df4e376990cd8bc01012d", "name": "00e5e3c4304df4e376990cd8bc01012d", "lon": -77.0441075}, {"is_disabled": 0, "type": "electric_scooter", "is_reserved": 0, "lat": 38.91486416666667, "rental_uris": {"ios": "https://dc.lft.to/lastmile_qr_scan", "android": "https://dc.lft.to/lastmile_qr_scan"}, "fusion_lon": 0.0, "fusion_lat": 0.0, "bike_id": "938c7d0256494f73c5046e95910618c3", "name": "938c7d0256494f73c5046e95910618c3", "lon": -77.03129733333333}, {"is_disabled": 0, "type": "electric_scooter", "is_reserved": 0, "lat": 38.910486166666665, "rental_uris": {"ios": "https://dc.lft.to/lastmile_qr_scan", "android": "https://dc.lft.to/lastmile_qr_scan"}, "fusion_lon": 0.0, "fusion_lat": 0.0, "bike_id": "045a8a29f799824d917b03bb83dbda8b", "name": "045a8a29f799824d917b03bb83dbda8b", "lon": -77.0435375}, {"is_disabled": 0, "type": "electric_scooter", "is_reserved": 0, "lat": 38.902704666666665, "rental_uris": {"ios": "https://dc.lft.to/lastmile_qr_scan", "android": "https://dc.lft.to/lastmile_qr_scan"}, "fusion_lon": 0.0, "fusion_lat": 0.0, "bike_id": "d2bbb719737f16c6331ae756b8c40bbc", "name": "d2bbb719737f16c6331ae756b8c40bbc", "lon": -77.034797}, {"is_disabled": 0, "type": "electric_scooter", "is_reserved": 0, "lat": 38.926432166666665, "rental_uris": {"ios": "https://dc.lft.to/lastmile_qr_scan", "android": "https://dc.lft.to/lastmile_qr_scan"}, "fusion_lon": 0.0, "fusion_lat": 0.0, "bike_id": "7de0655b8ccf47fbb36158697807ca4a", "name": "7de0655b8ccf47fbb36158697807ca4a", "lon": -77.03707}, {"is_disabled": 0, "type": "electric_scooter", "is_reserved": 0, "lat": 38.909606333333336, "rental_uris": {"ios": "https://dc.lft.to/lastmile_qr_scan", "android": "https://dc.lft.to/lastmile_qr_scan"}, "fusion_lon": 0.0, "fusion_lat": 0.0, "bike_id": "995468360aa19c2b60ee11cd83cf1911", "name": "995468360aa19c2b60ee11cd83cf1911", "lon": -77.03260883333333}, {"is_disabled": 0, "type": "electric_scooter", "is_reserved": 0, "lat": 38.92706783333333, "rental_uris": {"ios": "https://dc.lft.to/lastmile_qr_scan", "android": "https://dc.lft.to/lastmile_qr_scan"}, "fusion_lon": 0.0, "fusion_lat": 0.0, "bike_id": "53dc0d086254b526cea69f7ae72e00c7", "name": "53dc0d086254b526cea69f7ae72e00c7", "lon": -77.0209045}, {"is_disabled": 0, "type": "electric_scooter", "is_reserved": 0, "lat": 38.90254916666667, "rental_uris": {"ios": "https://dc.lft.to/lastmile_qr_scan", "android": "https://dc.lft.to/lastmile_qr_scan"}, "fusion_lon": 0.0, "fusion_lat": 0.0, "bike_id": "b5a04385a93d03eea914f8ce782d718f", "name": "b5a04385a93d03eea914f8ce782d718f", "lon": -77.03466433333334}, {"is_disabled": 0, "type": "electric_scooter", "is_reserved": 0, "lat": 38.9638905, "rental_uris": {"ios": "https://dc.lft.to/lastmile_qr_scan", "android": "https://dc.lft.to/lastmile_qr_scan"}, "fusion_lon": 0.0, "fusion_lat": 0.0, "bike_id": "473a139c9fbecd5c15c339644ea976d7", "name": "473a139c9fbecd5c15c339644ea976d7", "lon": -77.02594933333333}, {"is_disabled": 0, "type": "electric_scooter", "is_reserved": 0, "lat": 38.894792833333334, "rental_uris": {"ios": "https://dc.lft.to/lastmile_qr_scan", "android": "https://dc.lft.to/lastmile_qr_scan"}, "fusion_lon": 0.0, "fusion_lat": 0.0, "bike_id": "6e0ed147003a5500f138f9a62bd0096d", "name": "6e0ed147003a5500f138f9a62bd0096d", "lon": -77.00141783333333}, {"is_disabled": 0, "type": "electric_bike", "is_reserved": 0, "lat": 38.9003445, "rental_uris": {"ios": "https://dc.lft.to/lastmile_qr_scan", "android": "https://dc.lft.to/lastmile_qr_scan"}, "fusion_lon": 0.0, "fusion_lat": 0.0, "bike_id": "e01fc0db93b87d873e2d92aa79789767", "name": "e01fc0db93b87d873e2d92aa79789767", "lon": -77.04087783333334}, {"is_disabled": 0, "type": "electric_scooter", "is_reserved": 0, "lat": 38.907953166666665, "rental_uris": {"ios": "https://dc.lft.to/lastmile_qr_scan", "android": "https://dc.lft.to/lastmile_qr_scan"}, "fusion_lon": 0.0, "fusion_lat": 0.0, "bike_id": "3946c89324a5aef387bff3df820eaeb7", "name": "3946c89324a5aef387bff3df820eaeb7", "lon": -76.99733283333333}, {"is_disabled": 0, "type": "electric_scooter", "is_reserved": 0, "lat": 38.86523783333333, "rental_uris": {"ios": "https://dc.lft.to/lastmile_qr_scan", "android": "https://dc.lft.to/lastmile_qr_scan"}, "fusion_lon": 0.0, "fusion_lat": 0.0, "bike_id": "d70937da2fae288b2b87c4f884227c73", "name": "d70937da2fae288b2b87c4f884227c73", "lon": -76.9860335}, {"is_disabled": 0, "type": "electric_bike", "is_reserved": 0, "lat": 39.056362166666666, "rental_uris": {"ios": "https://dc.lft.to/lastmile_qr_scan", "android": "https://dc.lft.to/lastmile_qr_scan"}, "fusion_lon": 0.0, "fusion_lat": 0.0, "bike_id": "a250ec2064f8c3536e33e0ff402f22b8", "name": "a250ec2064f8c3536e33e0ff402f22b8", "lon": -77.12528233333333}, {"is_disabled": 0, "type": "electric_scooter", "is_reserved": 0, "lat": 38.899043666666664, "rental_uris": {"ios": "https://dc.lft.to/lastmile_qr_scan", "android": "https://dc.lft.to/lastmile_qr_scan"}, "fusion_lon": 0.0, "fusion_lat": 0.0, "bike_id": "10f93277b67c244547cf2a6ff22a4e16", "name": "10f93277b67c244547cf2a6ff22a4e16", "lon": -76.99504366666666}, {"is_disabled": 0, "type": "electric_scooter", "is_reserved": 0, "lat": 38.898427166666664, "rental_uris": {"ios": "https://dc.lft.to/lastmile_qr_scan", "android": "https://dc.lft.to/lastmile_qr_scan"}, "fusion_lon": 0.0, "fusion_lat": 0.0, "bike_id": "f14c4bcb8ad7866b368925bb3e2536f7", "name": "f14c4bcb8ad7866b368925bb3e2536f7", "lon": -76.946398}, {"is_disabled": 0, "type": "electric_scooter", "is_reserved": 0, "lat": 38.908298333333335, "rental_uris": {"ios": "https://dc.lft.to/lastmile_qr_scan", "android": "https://dc.lft.to/lastmile_qr_scan"}, "fusion_lon": 0.0, "fusion_lat": 0.0, "bike_id": "8d24f643094c9ae34fad7beadce96a10", "name": "8d24f643094c9ae34fad7beadce96a10", "lon": -77.0396515}, {"is_disabled": 0, "type": "electric_scooter", "is_reserved": 0, "lat": 38.92347433333333, "rental_uris": {"ios": "https://dc.lft.to/lastmile_qr_scan", "android": "https://dc.lft.to/lastmile_qr_scan"}, "fusion_lon": 0.0, "fusion_lat": 0.0, "bike_id": "75b047c78c28da024d89df60f4ecbe07", "name": "75b047c78c28da024d89df60f4ecbe07", "lon": -77.04359783333334}, {"is_disabled": 0, "type": "electric_scooter", "is_reserved": 0, "lat": 38.92647216666667, "rental_uris": {"ios": "https://dc.lft.to/lastmile_qr_scan", "android": "https://dc.lft.to/lastmile_qr_scan"}, "fusion_lon": 0.0, "fusion_lat": 0.0, "bike_id": "4332eb050e021114040667fe70c1ea18", "name": "4332eb050e021114040667fe70c1ea18", "lon": -77.03706583333333}, {"is_disabled": 0, "type": "electric_scooter", "is_reserved": 0, "lat": 38.90042566666666, "rental_uris": {"ios": "https://dc.lft.to/lastmile_qr_scan", "android": "https://dc.lft.to/lastmile_qr_scan"}, "fusion_lon": 0.0, "fusion_lat": 0.0, "bike_id": "17bf9e83473194bf2ec16dac36c4d622", "name": "17bf9e83473194bf2ec16dac36c4d622", "lon": -77.048532}, {"is_disabled": 0, "type": "electric_scooter", "is_reserved": 0, "lat": 38.9195595, "rental_uris": {"ios": "https://dc.lft.to/lastmile_qr_scan", "android": "https://dc.lft.to/lastmile_qr_scan"}, "fusion_lon": 0.0, "fusion_lat": 0.0, "bike_id": "a96531466a2fdd8597adfe870526e584", "name": "a96531466a2fdd8597adfe870526e584", "lon": -77.02359516666667}, {"is_disabled": 0, "type": "electric_scooter", "is_reserved": 0, "lat": 38.9360335, "rental_uris": {"ios": "https://dc.lft.to/lastmile_qr_scan", "android": "https://dc.lft.to/lastmile_qr_scan"}, "fusion_lon": 0.0, "fusion_lat": 0.0, "bike_id": "dc40793a142cd7a4842b9fcd045e6968", "name": "dc40793a142cd7a4842b9fcd045e6968", "lon": -77.05858433333333}, {"is_disabled": 0, "type": "electric_scooter", "is_reserved": 0, "lat": 38.923668666666664, "rental_uris": {"ios": "https://dc.lft.to/lastmile_qr_scan", "android": "https://dc.lft.to/lastmile_qr_scan"}, "fusion_lon": 0.0, "fusion_lat": 0.0, "bike_id": "59ede8e16f9876688b2bfecaeba3bc70", "name": "59ede8e16f9876688b2bfecaeba3bc70", "lon": -77.02966366666666}, {"is_disabled": 0, "type": "electric_scooter", "is_reserved": 0, "lat": 38.9337935, "rental_uris": {"ios": "https://dc.lft.to/lastmile_qr_scan", "android": "https://dc.lft.to/lastmile_qr_scan"}, "fusion_lon": 0.0, "fusion_lat": 0.0, "bike_id": "71078155dd239c80a170339b7f94448a", "name": "71078155dd239c80a170339b7f94448a", "lon": -77.05768}, {"is_disabled": 0, "type": "electric_scooter", "is_reserved": 0, "lat": 38.9094795, "rental_uris": {"ios": "https://dc.lft.to/lastmile_qr_scan", "android": "https://dc.lft.to/lastmile_qr_scan"}, "fusion_lon": 0.0, "fusion_lat": 0.0, "bike_id": "ed81e49e4d7a1cb1cb87f4b439581a72", "name": "ed81e49e4d7a1cb1cb87f4b439581a72", "lon": -77.04825616666666}, {"is_disabled": 0, "type": "electric_scooter", "is_reserved": 0, "lat": 38.91178516666667, "rental_uris": {"ios": "https://dc.lft.to/lastmile_qr_scan", "android": "https://dc.lft.to/lastmile_qr_scan"}, "fusion_lon": 0.0, "fusion_lat": 0.0, "bike_id": "d2bdf392070e0bb9b7c795836d7b00c9", "name": "d2bdf392070e0bb9b7c795836d7b00c9", "lon": -77.0325075}, {"is_disabled": 0, "type": "electric_scooter", "is_reserved": 0, "lat": 38.938785, "rental_uris": {"ios": "https://dc.lft.to/lastmile_qr_scan", "android": "https://dc.lft.to/lastmile_qr_scan"}, "fusion_lon": 0.0, "fusion_lat": 0.0, "bike_id": "62fb4390b99da13c50b16881508382e9", "name": "62fb4390b99da13c50b16881508382e9", "lon": -77.024681}, {"is_disabled": 0, "type": "electric_scooter", "is_reserved": 0, "lat": 38.9038625, "rental_uris": {"ios": "https://dc.lft.to/lastmile_qr_scan", "android": "https://dc.lft.to/lastmile_qr_scan"}, "fusion_lon": 0.0, "fusion_lat": 0.0, "bike_id": "28700efde44efe218da342116748032b", "name": "28700efde44efe218da342116748032b", "lon": -77.0447285}, {"is_disabled": 0, "type": "electric_bike", "is_reserved": 0, "lat": 38.8934715, "rental_uris": {"ios": "https://dc.lft.to/lastmile_qr_scan", "android": "https://dc.lft.to/lastmile_qr_scan"}, "fusion_lon": 0.0, "fusion_lat": 0.0, "bike_id": "9db9bfb4cd6dc29b170624bd4d11d375", "name": "9db9bfb4cd6dc29b170624bd4d11d375", "lon": -77.18744633333333}, {"is_disabled": 0, "type": "electric_scooter", "is_reserved": 0, "lat": 38.911842666666665, "rental_uris": {"ios": "https://dc.lft.to/lastmile_qr_scan", "android": "https://dc.lft.to/lastmile_qr_scan"}, "fusion_lon": 0.0, "fusion_lat": 0.0, "bike_id": "fa6f34df8cd0af29ced3728886babc58", "name": "fa6f34df8cd0af29ced3728886babc58", "lon": -77.00555566666667}, {"is_disabled": 0, "type": "electric_scooter", "is_reserved": 0, "lat": 38.911165833333335, "rental_uris": {"ios": "https://dc.lft.to/lastmile_qr_scan", "android": "https://dc.lft.to/lastmile_qr_scan"}, "fusion_lon": 0.0, "fusion_lat": 0.0, "bike_id": "f1452e89e218b28c490418a87b85cc3d", "name": "f1452e89e218b28c490418a87b85cc3d", "lon": -77.04233233333333}, {"is_disabled": 0, "type": "electric_bike", "is_reserved": 0, "lat": 39.01565316666667, "rental_uris": {"ios": "https://dc.lft.to/lastmile_qr_scan", "android": "https://dc.lft.to/lastmile_qr_scan"}, "fusion_lon": 0.0, "fusion_lat": 0.0, "bike_id": "6ae4c68518fd66a864af6060440d8aa3", "name": "6ae4c68518fd66a864af6060440d8aa3", "lon": -77.04418833333334}, {"is_disabled": 0, "type": "electric_scooter", "is_reserved": 0, "lat": 38.89219583333333, "rental_uris": {"ios": "https://dc.lft.to/lastmile_qr_scan", "android": "https://dc.lft.to/lastmile_qr_scan"}, "fusion_lon": 0.0, "fusion_lat": 0.0, "bike_id": "563156b4994032642ce07809ae6c0d71", "name": "563156b4994032642ce07809ae6c0d71", "lon": -77.043688}, {"is_disabled": 0, "type": "electric_scooter", "is_reserved": 0, "lat": 38.90834516666666, "rental_uris": {"ios": "https://dc.lft.to/lastmile_qr_scan", "android": "https://dc.lft.to/lastmile_qr_scan"}, "fusion_lon": 0.0, "fusion_lat": 0.0, "bike_id": "4b1724171b9688b16f4c2d8819d980e0", "name": "4b1724171b9688b16f4c2d8819d980e0", "lon": -77.02197733333334}, {"is_disabled": 0, "type": "electric_bike", "is_reserved": 0, "lat": 38.949156333333335, "rental_uris": {"ios": "https://dc.lft.to/lastmile_qr_scan", "android": "https://dc.lft.to/lastmile_qr_scan"}, "fusion_lon": 0.0, "fusion_lat": 0.0, "bike_id": "6e9a56e0704d8f3657faae6aae8d9c37", "name": "6e9a56e0704d8f3657faae6aae8d9c37", "lon": -77.0079455}, {"is_disabled": 0, "type": "electric_scooter", "is_reserved": 0, "lat": 38.90033066666667, "rental_uris": {"ios": "https://dc.lft.to/lastmile_qr_scan", "android": "https://dc.lft.to/lastmile_qr_scan"}, "fusion_lon": 0.0, "fusion_lat": 0.0, "bike_id": "3e44b77c5b682bc91113b0734cd624eb", "name": "3e44b77c5b682bc91113b0734cd624eb", "lon": -76.99368316666667}, {"is_disabled": 0, "type": "electric_scooter", "is_reserved": 0, "lat": 38.876946833333335, "rental_uris": {"ios": "https://dc.lft.to/lastmile_qr_scan", "android": "https://dc.lft.to/lastmile_qr_scan"}, "fusion_lon": 0.0, "fusion_lat": 0.0, "bike_id": "6ecafa58c0b145b095574691ed29f4c7", "name": "6ecafa58c0b145b095574691ed29f4c7", "lon": -77.01767533333333}, {"is_disabled": 0, "type": "electric_scooter", "is_reserved": 0, "lat": 38.92248633333333, "rental_uris": {"ios": "https://dc.lft.to/lastmile_qr_scan", "android": "https://dc.lft.to/lastmile_qr_scan"}, "fusion_lon": 0.0, "fusion_lat": 0.0, "bike_id": "b2ef0651236d571a9c9759690e45924c", "name": "b2ef0651236d571a9c9759690e45924c", "lon": -77.03074883333333}, {"is_disabled": 0, "type": "electric_scooter", "is_reserved": 0, "lat": 38.91555, "rental_uris": {"ios": "https://dc.lft.to/lastmile_qr_scan", "android": "https://dc.lft.to/lastmile_qr_scan"}, "fusion_lon": 0.0, "fusion_lat": 0.0, "bike_id": "293729895a502ca1ceb162679a0de223", "name": "293729895a502ca1ceb162679a0de223", "lon": -77.03128333333333}, {"is_disabled": 0, "type": "electric_scooter", "is_reserved": 0, "lat": 38.9132985, "rental_uris": {"ios": "https://dc.lft.to/lastmile_qr_scan", "android": "https://dc.lft.to/lastmile_qr_scan"}, "fusion_lon": 0.0, "fusion_lat": 0.0, "bike_id": "2479ba19a6d059ed11f4651ee21413ac", "name": "2479ba19a6d059ed11f4651ee21413ac", "lon": -77.0428015}, {"is_disabled": 0, "type": "electric_bike", "is_reserved": 0, "lat": 38.91872883333333, "rental_uris": {"ios": "https://dc.lft.to/lastmile_qr_scan", "android": "https://dc.lft.to/lastmile_qr_scan"}, "fusion_lon": 0.0, "fusion_lat": 0.0, "bike_id": "6dffb09df6f3d68d71212d8a882d1848", "name": "6dffb09df6f3d68d71212d8a882d1848", "lon": -77.0248675}, {"is_disabled": 0, "type": "electric_scooter", "is_reserved": 0, "lat": 38.91809516666667, "rental_uris": {"ios": "https://dc.lft.to/lastmile_qr_scan", "android": "https://dc.lft.to/lastmile_qr_scan"}, "fusion_lon": 0.0, "fusion_lat": 0.0, "bike_id": "411c222c569a16dd8822bbc04c846183", "name": "411c222c569a16dd8822bbc04c846183", "lon": -77.02719283333333}, {"is_disabled": 0, "type": "electric_scooter", "is_reserved": 0, "lat": 38.923187, "rental_uris": {"ios": "https://dc.lft.to/lastmile_qr_scan", "android": "https://dc.lft.to/lastmile_qr_scan"}, "fusion_lon": 0.0, "fusion_lat": 0.0, "bike_id": "2429ee1e62396b8418c2ef3e2a209f5b", "name": "2429ee1e62396b8418c2ef3e2a209f5b", "lon": -77.02975416666666}, {"is_disabled": 0, "type": "electric_scooter", "is_reserved": 0, "lat": 38.90912733333333, "rental_uris": {"ios": "https://dc.lft.to/lastmile_qr_scan", "android": "https://dc.lft.to/lastmile_qr_scan"}, "fusion_lon": 0.0, "fusion_lat": 0.0, "bike_id": "ce6e14debc0f920afae9426fe95c45b3", "name": "ce6e14debc0f920afae9426fe95c45b3", "lon": -77.03181983333333}, {"is_disabled": 0, "type": "electric_scooter", "is_reserved": 0, "lat": 38.861180166666664, "rental_uris": {"ios": "https://dc.lft.to/lastmile_qr_scan", "android": "https://dc.lft.to/lastmile_qr_scan"}, "fusion_lon": 0.0, "fusion_lat": 0.0, "bike_id": "32f813a66dde36fbc819e2ab8ea4288f", "name": "32f813a66dde36fbc819e2ab8ea4288f", "lon": -76.98385633333334}, {"is_disabled": 0, "type": "electric_scooter", "is_reserved": 0, "lat": 38.91733933333333, "rental_uris": {"ios": "https://dc.lft.to/lastmile_qr_scan", "android": "https://dc.lft.to/lastmile_qr_scan"}, "fusion_lon": 0.0, "fusion_lat": 0.0, "bike_id": "f2e6f1c879be418b56f58a9a44d5d8da", "name": "f2e6f1c879be418b56f58a9a44d5d8da", "lon": -77.04174766666667}, {"is_disabled": 0, "type": "electric_scooter", "is_reserved": 0, "lat": 38.9146685, "rental_uris": {"ios": "https://dc.lft.to/lastmile_qr_scan", "android": "https://dc.lft.to/lastmile_qr_scan"},