{"data": {"bikes": [{"fusion_lat": 0.0, "name": "54e6a6962408c9331328e6492643f22f", "is_disabled": 0, "rental_uris": {"android": "https://dc.lft.to/lastmile_qr_scan", "ios": "https://dc.lft.to/lastmile_qr_scan"}, "fusion_lon": 0.0, "lat": 38.91811083333333, "bike_id": "54e6a6962408c9331328e6492643f22f", "type": "electric_scooter", "is_reserved": 0, "lon": -77.02687116666667}, {"fusion_lat": 0.0, "name": "6734aa116b75630810a2b731dbb8d015", "is_disabled": 0, "rental_uris": {"android": "https://dc.lft.to/lastmile_qr_scan", "ios": "https://dc.lft.to/lastmile_qr_scan"}, "fusion_lon": 0.0, "lat": 38.992296833333334, "bike_id": "6734aa116b75630810a2b731dbb8d015", "type": "electric_bike", "is_reserved": 0, "lon": -76.94430383333334}, {"fusion_lat": 0.0, "name": "6b8569d3dd556c72e3b856272823c80b", "is_disabled": 0, "rental_uris": {"android": "https://dc.lft.to/lastmile_qr_scan", "ios": "https://dc.lft.to/lastmile_qr_scan"}, "fusion_lon": 0.0, "lat": 38.923609166666665, "bike_id": "6b8569d3dd556c72e3b856272823c80b", "type": "electric_scooter", "is_reserved": 0, "lon": -77.04034316666667}, {"fusion_lat": 0.0, "name": "cbbf6ded68ee4bd008f7828665397819", "is_disabled": 0, "rental_uris": {"android": "https://dc.lft.to/lastmile_qr_scan", "ios": "https://dc.lft.to/lastmile_qr_scan"}, "fusion_lon": 0.0, "lat": 38.95313483333334, "bike_id": "cbbf6ded68ee4bd008f7828665397819", "type": "electric_scooter", "is_reserved": 0, "lon": -77.0224975}, {"fusion_lat": 0.0, "name": "6c5ed304736553bcf6791577e81cf377", "is_disabled": 0, "rental_uris": {"android": "https://dc.lft.to/lastmile_qr_scan", "ios": "https://dc.lft.to/lastmile_qr_scan"}, "fusion_lon": 0.0, "lat": 38.916967166666666, "bike_id": "6c5ed304736553bcf6791577e81cf377", "type": "electric_scooter", "is_reserved": 0, "lon": -77.03123766666667}, {"fusion_lat": 0.0, "name": "63b6eaa0b9439dc0cab91d6fd6f306b2", "is_disabled": 0, "rental_uris": {"android": "https://dc.lft.to/lastmile_qr_scan", "ios": "https://dc.lft.to/lastmile_qr_scan"}, "fusion_lon": 0.0, "lat": 38.855088, "bike_id": "63b6eaa0b9439dc0cab91d6fd6f306b2", "type": "electric_scooter", "is_reserved": 0, "lon": -76.965338}, {"fusion_lat": 0.0, "name": "0c12562fd84801b184eec67f6aa35cba", "is_disabled": 0, "rental_uris": {"android": "https://dc.lft.to/lastmile_qr_scan", "ios": "https://dc.lft.to/lastmile_qr_scan"}, "fusion_lon": 0.0, "lat": 38.9051005, "bike_id": "0c12562fd84801b184eec67f6aa35cba", "type": "electric_bike", "is_reserved": 0, "lon": -77.060258}, {"fusion_lat": 0.0, "name": "ea712c7afc03e473ea21de0071afe92e", "is_disabled": 0, "rental_uris": {"android": "https://dc.lft.to/lastmile_qr_scan", "ios": "https://dc.lft.to/lastmile_qr_scan"}, "fusion_lon": 0.0, "lat": 38.93023, "bike_id": "ea712c7afc03e473ea21de0071afe92e", "type": "electric_scooter", "is_reserved": 0, "lon": -77.03793416666667}, {"fusion_lat": 0.0, "name": "fbba9b1c4465eef0f611052fc3e27f4a", "is_disabled": 0, "rental_uris": {"android": "https://dc.lft.to/lastmile_qr_scan", "ios": "https://dc.lft.to/lastmile_qr_scan"}, "fusion_lon": 0.0, "lat": 38.9353765, "bike_id": "fbba9b1c4465eef0f611052fc3e27f4a", "type": "electric_scooter", "is_reserved": 0, "lon": -77.02350783333333}, {"fusion_lat": 0.0, "name": "cf1f24f9206da23d90cd9d03b0934177", "is_disabled": 0, "rental_uris": {"android": "https://dc.lft.to/lastmile_qr_scan", "ios": "https://dc.lft.to/lastmile_qr_scan"}, "fusion_lon": 0.0, "lat": 38.93130583333333, "bike_id": "cf1f24f9206da23d90cd9d03b0934177", "type": "electric_scooter", "is_reserved": 0, "lon": -77.03289966666667}, {"fusion_lat": 0.0, "name": "cdcc7971ed29478e4d247ed4ce4bb6a3", "is_disabled": 0, "rental_uris": {"android": "https://dc.lft.to/lastmile_qr_scan", "ios": "https://dc.lft.to/lastmile_qr_scan"}, "fusion_lon": 0.0, "lat": 38.88506433333333, "bike_id": "cdcc7971ed29478e4d247ed4ce4bb6a3", "type": "electric_scooter", "is_reserved": 0, "lon": -77.0006355}, {"fusion_lat": 0.0, "name": "8ab1a98d99d8a72faa6a2684905300f1", "is_disabled": 0, "rental_uris": {"android": "https://dc.lft.to/lastmile_qr_scan", "ios": "https://dc.lft.to/lastmile_qr_scan"}, "fusion_lon": 0.0, "lat": 38.88439283333334, "bike_id": "8ab1a98d99d8a72faa6a2684905300f1", "type": "electric_scooter", "is_reserved": 0, "lon": -77.00347033333334}, {"fusion_lat": 0.0, "name": "9e2728e6b0acb8266a2cbed73cf1f30e", "is_disabled": 0, "rental_uris": {"android": "https://dc.lft.to/lastmile_qr_scan", "ios": "https://dc.lft.to/lastmile_qr_scan"}, "fusion_lon": 0.0, "lat": 38.89713416666667, "bike_id": "9e2728e6b0acb8266a2cbed73cf1f30e", "type": "electric_scooter", "is_reserved": 0, "lon": -77.00739883333334}, {"fusion_lat": 0.0, "name": "2af40166554046c6bb22f1f9da64221b", "is_disabled": 0, "rental_uris": {"android": "https://dc.lft.to/lastmile_qr_scan", "ios": "https://dc.lft.to/lastmile_qr_scan"}, "fusion_lon": 0.0, "lat": 38.83403066666666, "bike_id": "2af40166554046c6bb22f1f9da64221b", "type": "electric_bike", "is_reserved": 0, "lon": -77.003256}, {"fusion_lat": 0.0, "name": "ba11a361cfdf316acb583cc9a7e3969c", "is_disabled": 0, "rental_uris": {"android": "https://dc.lft.to/lastmile_qr_scan", "ios": "https://dc.lft.to/lastmile_qr_scan"}, "fusion_lon": 0.0, "lat": 38.904126833333336, "bike_id": "ba11a361cfdf316acb583cc9a7e3969c", "type": "electric_scooter", "is_reserved": 0, "lon": -76.97332233333333}, {"fusion_lat": 0.0, "name": "ecbcd1430a21c5b84cae7fffc9efd14b", "is_disabled": 0, "rental_uris": {"android": "https://dc.lft.to/lastmile_qr_scan", "ios": "https://dc.lft.to/lastmile_qr_scan"}, "fusion_lon": 0.0, "lat": 38.935798, "bike_id": "ecbcd1430a21c5b84cae7fffc9efd14b", "type": "electric_scooter", "is_reserved": 0, "lon": -77.01925266666667}, {"fusion_lat": 0.0, "name": "cf2312ae876852ed812ada4841018b3c", "is_disabled": 0, "rental_uris": {"android": "https://dc.lft.to/lastmile_qr_scan", "ios": "https://dc.lft.to/lastmile_qr_scan"}, "fusion_lon": 0.0, "lat": 38.922500166666666, "bike_id": "cf2312ae876852ed812ada4841018b3c", "type": "electric_scooter", "is_reserved": 0, "lon": -77.03385366666667}, {"fusion_lat": 0.0, "name": "a62bdc0ce7eb3f75ae773ad43f90619b", "is_disabled": 0, "rental_uris": {"android": "https://dc.lft.to/lastmile_qr_scan", "ios": "https://dc.lft.to/lastmile_qr_scan"}, "fusion_lon": 0.0, "lat": 38.93093016666667, "bike_id": "a62bdc0ce7eb3f75ae773ad43f90619b", "type": "electric_scooter", "is_reserved": 0, "lon": -77.02364483333334}, {"fusion_lat": 0.0, "name": "85e1f90b3535f15d2b28c597b2884c12", "is_disabled": 0, "rental_uris": {"android": "https://dc.lft.to/lastmile_qr_scan", "ios": "https://dc.lft.to/lastmile_qr_scan"}, "fusion_lon": 0.0, "lat": 38.91554333333333, "bike_id": "85e1f90b3535f15d2b28c597b2884c12", "type": "electric_scooter", "is_reserved": 0, "lon": -77.03663266666666}, {"fusion_lat": 0.0, "name": "eea42f762d7683dc7d33db0d7c4632a9", "is_disabled": 0, "rental_uris": {"android": "https://dc.lft.to/lastmile_qr_scan", "ios": "https://dc.lft.to/lastmile_qr_scan"}, "fusion_lon": 0.0, "lat": 38.89766, "bike_id": "eea42f762d7683dc7d33db0d7c4632a9", "type": "electric_scooter", "is_reserved": 0, "lon": -77.05151216666667}, {"fusion_lat": 0.0, "name": "2373a7b7f9a671d309b3831c8edc5c18", "is_disabled": 0, "rental_uris": {"android": "https://dc.lft.to/lastmile_qr_scan", "ios": "https://dc.lft.to/lastmile_qr_scan"}, "fusion_lon": 0.0, "lat": 38.897194166666665, "bike_id": "2373a7b7f9a671d309b3831c8edc5c18", "type": "electric_scooter", "is_reserved": 0, "lon": -77.04557683333333}, {"fusion_lat": 0.0, "name": "64232de1c1e768277537a495ddf7a62c", "is_disabled": 0, "rental_uris": {"android": "https://dc.lft.to/lastmile_qr_scan", "ios": "https://dc.lft.to/lastmile_qr_scan"}, "fusion_lon": 0.0, "lat": 38.91781966666667, "bike_id": "64232de1c1e768277537a495ddf7a62c", "type": "electric_scooter", "is_reserved": 0, "lon": -77.0230385}, {"fusion_lat": 0.0, "name": "f2840572d62ca61c406713e4e0e3ff0e", "is_disabled": 0, "rental_uris": {"android": "https://dc.lft.to/lastmile_qr_scan", "ios": "https://dc.lft.to/lastmile_qr_scan"}, "fusion_lon": 0.0, "lat": 39.07055916666667, "bike_id": "f2840572d62ca61c406713e4e0e3ff0e", "type": "electric_bike", "is_reserved": 0, "lon": -77.1148325}, {"fusion_lat": 0.0, "name": "14b9c05970b048394e291971c353a793", "is_disabled": 0, "rental_uris": {"android": "https://dc.lft.to/lastmile_qr_scan", "ios": "https://dc.lft.to/lastmile_qr_scan"}, "fusion_lon": 0.0, "lat": 38.907407166666665, "bike_id": "14b9c05970b048394e291971c353a793", "type": "electric_scooter", "is_reserved": 0, "lon": -77.04225966666667}, {"fusion_lat": 0.0, "name": "86cf9b88bea0c75f0ba123e8265b11cf", "is_disabled": 0, "rental_uris": {"android": "https://dc.lft.to/lastmile_qr_scan", "ios": "https://dc.lft.to/lastmile_qr_scan"}, "fusion_lon": 0.0, "lat": 38.9001705, "bike_id": "86cf9b88bea0c75f0ba123e8265b11cf", "type": "electric_scooter", "is_reserved": 0, "lon": -76.98695133333334}, {"fusion_lat": 0.0, "name": "6b9e66ae77fe23bb534b57d5d1351a11", "is_disabled": 0, "rental_uris": {"android": "https://dc.lft.to/lastmile_qr_scan", "ios": "https://dc.lft.to/lastmile_qr_scan"}, "fusion_lon": 0.0, "lat": 38.935530666666665, "bike_id": "6b9e66ae77fe23bb534b57d5d1351a11", "type": "electric_scooter", "is_reserved": 0, "lon": -77.0345965}, {"fusion_lat": 0.0, "name": "839ddf3a0fe83d84263d697b94246e32", "is_disabled": 0, "rental_uris": {"android": "https://dc.lft.to/lastmile_qr_scan", "ios": "https://dc.lft.to/lastmile_qr_scan"}, "fusion_lon": 0.0, "lat": 38.92569183333333, "bike_id": "839ddf3a0fe83d84263d697b94246e32", "type": "electric_scooter", "is_reserved": 0, "lon": -77.022776}, {"fusion_lat": 0.0, "name": "7d1270719a0e94c3c27543d0a2d27702", "is_disabled": 0, "rental_uris": {"android": "https://dc.lft.to/lastmile_qr_scan", "ios": "https://dc.lft.to/lastmile_qr_scan"}, "fusion_lon": 0.0, "lat": 38.91724, "bike_id": "7d1270719a0e94c3c27543d0a2d27702", "type": "electric_scooter", "is_reserved": 0, "lon": -77.00817766666667}, {"fusion_lat": 0.0, "name": "6f7fa080afd2433ad417137e0a78045b", "is_disabled": 0, "rental_uris": {"android": "https://dc.lft.to/lastmile_qr_scan", "ios": "https://dc.lft.to/lastmile_qr_scan"}, "fusion_lon": 0.0, "lat": 38.90502883333333, "bike_id": "6f7fa080afd2433ad417137e0a78045b", "type": "electric_scooter", "is_reserved": 0, "lon": -77.05816166666666}, {"fusion_lat": 0.0, "name": "032c937a2d9b89f0e7f885cbe37de9f7", "is_disabled": 0, "rental_uris": {"android": "https://dc.lft.to/lastmile_qr_scan", "ios": "https://dc.lft.to/lastmile_qr_scan"}, "fusion_lon": 0.0, "lat": 38.9299785, "bike_id": "032c937a2d9b89f0e7f885cbe37de9f7", "type": "electric_bike", "is_reserved": 0, "lon": -77.07153716666667}, {"fusion_lat": 0.0, "name": "c545ad79a66c7669ab239d299eac739b", "is_disabled": 0, "rental_uris": {"android": "https://dc.lft.to/lastmile_qr_scan", "ios": "https://dc.lft.to/lastmile_qr_scan"}, "fusion_lon": 0.0, "lat": 38.924595, "bike_id": "c545ad79a66c7669ab239d299eac739b", "type": "electric_scooter", "is_reserved": 0, "lon": -76.99334216666666}, {"fusion_lat": 0.0, "name": "1773811f0b0fa0374cbeda2315078686", "is_disabled": 0, "rental_uris": {"android": "https://dc.lft.to/lastmile_qr_scan", "ios": "https://dc.lft.to/lastmile_qr_scan"}, "fusion_lon": 0.0, "lat": 38.86264933333333, "bike_id": "1773811f0b0fa0374cbeda2315078686", "type": "electric_bike", "is_reserved": 0, "lon": -76.98348483333334}, {"fusion_lat": 0.0, "name": "b50eef2f87beee1781d1c5cf76015a91", "is_disabled": 0, "rental_uris": {"android": "https://dc.lft.to/lastmile_qr_scan", "ios": "https://dc.lft.to/lastmile_qr_scan"}, "fusion_lon": 0.0, "lat": 38.9009675, "bike_id": "b50eef2f87beee1781d1c5cf76015a91", "type": "electric_scooter", "is_reserved": 0, "lon": -77.01942783333334}, {"fusion_lat": 0.0, "name": "7d1b391d397feee6999b8c9b9d734eff", "is_disabled": 0, "rental_uris": {"android": "https://dc.lft.to/lastmile_qr_scan", "ios": "https://dc.lft.to/lastmile_qr_scan"}, "fusion_lon": 0.0, "lat": 38.88462116666667, "bike_id": "7d1b391d397feee6999b8c9b9d734eff", "type": "electric_scooter", "is_reserved": 0, "lon": -77.02582966666667}, {"fusion_lat": 0.0, "name": "da8551e34632c1ef143103c5a38b113a", "is_disabled": 0, "rental_uris": {"android": "https://dc.lft.to/lastmile_qr_scan", "ios": "https://dc.lft.to/lastmile_qr_scan"}, "fusion_lon": 0.0, "lat": 38.85795733333333, "bike_id": "da8551e34632c1ef143103c5a38b113a", "type": "electric_bike", "is_reserved": 0, "lon": -76.98715616666667}, {"fusion_lat": 0.0, "name": "121839cc0d90445118eef7e0be8df420", "is_disabled": 0, "rental_uris": {"android": "https://dc.lft.to/lastmile_qr_scan", "ios": "https://dc.lft.to/lastmile_qr_scan"}, "fusion_lon": 0.0, "lat": 38.89474233333333, "bike_id": "121839cc0d90445118eef7e0be8df420", "type": "electric_scooter", "is_reserved": 0, "lon": -77.02182883333333}, {"fusion_lat": 0.0, "name": "f2ed654337c056b62e1eb2f0788cc86b", "is_disabled": 0, "rental_uris": {"android": "https://dc.lft.to/lastmile_qr_scan", "ios": "https://dc.lft.to/lastmile_qr_scan"}, "fusion_lon": 0.0, "lat": 38.91025916666667, "bike_id": "f2ed654337c056b62e1eb2f0788cc86b", "type": "electric_scooter", "is_reserved": 0, "lon": -77.00755466666666}, {"fusion_lat": 0.0, "name": "ce28b44b2c4ece0d7657a634db043542", "is_disabled": 0, "rental_uris": {"android": "https://dc.lft.to/lastmile_qr_scan", "ios": "https://dc.lft.to/lastmile_qr_scan"}, "fusion_lon": 0.0, "lat": 38.897446, "bike_id": "ce28b44b2c4ece0d7657a634db043542", "type": "electric_bike", "is_reserved": 0, "lon": -77.00742016666666}, {"fusion_lat": 0.0, "name": "e2d8ddf19f9a7d60db6bb418b24672ef", "is_disabled": 0, "rental_uris": {"android": "https://dc.lft.to/lastmile_qr_scan", "ios": "https://dc.lft.to/lastmile_qr_scan"}, "fusion_lon": 0.0, "lat": 38.920575, "bike_id": "e2d8ddf19f9a7d60db6bb418b24672ef", "type": "electric_scooter", "is_reserved": 0, "lon": -76.99859166666667}, {"fusion_lat": 0.0, "name": "a07aa32a9b29fae163739a20eb47847c", "is_disabled": 0, "rental_uris": {"android": "https://dc.lft.to/lastmile_qr_scan", "ios": "https://dc.lft.to/lastmile_qr_scan"}, "fusion_lon": 0.0, "lat": 38.923624833333335, "bike_id": "a07aa32a9b29fae163739a20eb47847c", "type": "electric_scooter", "is_reserved": 0, "lon": -77.0424205}, {"fusion_lat": 0.0, "name": "40fc01834a66f345c87ef0512f098cd0", "is_disabled": 0, "rental_uris": {"android": "https://dc.lft.to/lastmile_qr_scan", "ios": "https://dc.lft.to/lastmile_qr_scan"}, "fusion_lon": 0.0, "lat": 38.920642, "bike_id": "40fc01834a66f345c87ef0512f098cd0", "type": "electric_scooter", "is_reserved": 0, "lon": -77.0419285}, {"fusion_lat": 0.0, "name": "67207ef2bf0209cbef69a76ede293bc3", "is_disabled": 0, "rental_uris": {"android": "https://dc.lft.to/lastmile_qr_scan", "ios": "https://dc.lft.to/lastmile_qr_scan"}, "fusion_lon": 0.0, "lat": 38.8961215, "bike_id": "67207ef2bf0209cbef69a76ede293bc3", "type": "electric_scooter", "is_reserved": 0, "lon": -77.00924616666667}, {"fusion_lat": 0.0, "name": "4c9924bf79bf60c39cbf6998cd3b7364", "is_disabled": 0, "rental_uris": {"android": "https://dc.lft.to/lastmile_qr_scan", "ios": "https://dc.lft.to/lastmile_qr_scan"}, "fusion_lon": 0.0, "lat": 38.806767666666666, "bike_id": "4c9924bf79bf60c39cbf6998cd3b7364", "type": "electric_bike", "is_reserved": 0, "lon": -77.06917483333334}, {"fusion_lat": 0.0, "name": "2d8940f69384d71b2e597ee2255773a7", "is_disabled": 0, "rental_uris": {"android": "https://dc.lft.to/lastmile_qr_scan", "ios": "https://dc.lft.to/lastmile_qr_scan"}, "fusion_lon": 0.0, "lat": 38.897120666666666, "bike_id": "2d8940f69384d71b2e597ee2255773a7", "type": "electric_scooter", "is_reserved": 0, "lon": -77.01960483333333}, {"fusion_lat": 0.0, "name": "d1c538df7e768ee39462f0b574aa83d7", "is_disabled": 0, "rental_uris": {"android": "https://dc.lft.to/lastmile_qr_scan", "ios": "https://dc.lft.to/lastmile_qr_scan"}, "fusion_lon": 0.0, "lat": 38.87050383333333, "bike_id": "d1c538df7e768ee39462f0b574aa83d7", "type": "electric_scooter", "is_reserved": 0, "lon": -77.009751}, {"fusion_lat": 0.0, "name": "b988fb4eee60693ccc416e2b86b8c16f", "is_disabled": 0, "rental_uris": {"android": "https://dc.lft.to/lastmile_qr_scan", "ios": "https://dc.lft.to/lastmile_qr_scan"}, "fusion_lon": 0.0, "lat": 38.89220066666667, "bike_id": "b988fb4eee60693ccc416e2b86b8c16f", "type": "electric_scooter", "is_reserved": 0, "lon": -77.02365833333333}, {"fusion_lat": 0.0, "name": "962d13743cf26d687e9b3c363f995cc1", "is_disabled": 0, "rental_uris": {"android": "https://dc.lft.to/lastmile_qr_scan", "ios": "https://dc.lft.to/lastmile_qr_scan"}, "fusion_lon": 0.0, "lat": 38.88447566666667, "bike_id": "962d13743cf26d687e9b3c363f995cc1", "type": "electric_scooter", "is_reserved": 0, "lon": -76.99389983333333}, {"fusion_lat": 0.0, "name": "62bb8be62e7d372dca0a45893df8670f", "is_disabled": 0, "rental_uris": {"android": "https://dc.lft.to/lastmile_qr_scan", "ios": "https://dc.lft.to/lastmile_qr_scan"}, "fusion_lon": 0.0, "lat": 38.9374065, "bike_id": "62bb8be62e7d372dca0a45893df8670f", "type": "electric_scooter", "is_reserved": 0, "lon": -77.03590366666667}, {"fusion_lat": 0.0, "name": "fd5192e3c780de3cc54861fa3877e43f", "is_disabled": 0, "rental_uris": {"android": "https://dc.lft.to/lastmile_qr_scan", "ios": "https://dc.lft.to/lastmile_qr_scan"}, "fusion_lon": 0.0, "lat": 38.91273783333333, "bike_id": "fd5192e3c780de3cc54861fa3877e43f", "type": "electric_scooter", "is_reserved": 0, "lon": -77.0225725}, {"fusion_lat": 0.0, "name": "394c4f9112a1d5666b79d79dfbf39821", "is_disabled": 0, "rental_uris": {"android": "https://dc.lft.to/lastmile_qr_scan", "ios": "https://dc.lft.to/lastmile_qr_scan"}, "fusion_lon": 0.0, "lat": 38.908632833333336, "bike_id": "394c4f9112a1d5666b79d79dfbf39821", "type": "electric_scooter", "is_reserved": 0, "lon": -77.0473805}, {"fusion_lat": 0.0, "name": "58dd66966708ba4e53242c07ef6c8f30", "is_disabled": 0, "rental_uris": {"android": "https://dc.lft.to/lastmile_qr_scan", "ios": "https://dc.lft.to/lastmile_qr_scan"}, "fusion_lon": 0.0, "lat": 38.9073145, "bike_id": "58dd66966708ba4e53242c07ef6c8f30", "type": "electric_scooter", "is_reserved": 0, "lon": -77.0505675}, {"fusion_lat": 0.0, "name": "31cc1d587b4663d583ccb3cd0eb9f994", "is_disabled": 0, "rental_uris": {"android": "https://dc.lft.to/lastmile_qr_scan", "ios": "https://dc.lft.to/lastmile_qr_scan"}, "fusion_lon": 0.0, "lat": 38.917089833333335, "bike_id": "31cc1d587b4663d583ccb3cd0eb9f994", "type": "electric_bike", "is_reserved": 0, "lon": -77.04493116666667}, {"fusion_lat": 0.0, "name": "01ed91395e32231193576cdb3f50a18d", "is_disabled": 0, "rental_uris": {"android": "https://dc.lft.to/lastmile_qr_scan", "ios": "https://dc.lft.to/lastmile_qr_scan"}, "fusion_lon": 0.0, "lat": 38.90052216666667, "bike_id": "01ed91395e32231193576cdb3f50a18d", "type": "electric_scooter", "is_reserved": 0, "lon": -77.0199545}, {"fusion_lat": 0.0, "name": "39ebfa95eb08229f8358436d0b46c3b8", "is_disabled": 0, "rental_uris": {"android": "https://dc.lft.to/lastmile_qr_scan", "ios": "https://dc.lft.to/lastmile_qr_scan"}, "fusion_lon": 0.0, "lat": 38.898756166666665, "bike_id": "39ebfa95eb08229f8358436d0b46c3b8", "type": "electric_scooter", "is_reserved": 0, "lon": -76.93185116666666}, {"fusion_lat": 0.0, "name": "1b93650a2c7b180ee6f8be2836eb7b22", "is_disabled": 0, "rental_uris": {"android": "https://dc.lft.to/lastmile_qr_scan", "ios": "https://dc.lft.to/lastmile_qr_scan"}, "fusion_lon": 0.0, "lat": 39.05254866666667, "bike_id": "1b93650a2c7b180ee6f8be2836eb7b22", "type": "electric_bike", "is_reserved": 0, "lon": -77.08066416666666}, {"fusion_lat": 0.0, "name": "3ec3de287debfa9365703aa33f501563", "is_disabled": 0, "rental_uris": {"android": "https://dc.lft.to/lastmile_qr_scan", "ios": "https://dc.lft.to/lastmile_qr_scan"}, "fusion_lon": 0.0, "lat": 38.933677333333335, "bike_id": "3ec3de287debfa9365703aa33f501563", "type": "electric_scooter", "is_reserved": 0, "lon": -77.02420766666667}, {"fusion_lat": 0.0, "name": "39fb086401b3646a282374c40b08ab9e", "is_disabled": 0, "rental_uris": {"android": "https://dc.lft.to/lastmile_qr_scan", "ios": "https://dc.lft.to/lastmile_qr_scan"}, "fusion_lon": 0.0, "lat": 38.89728133333333, "bike_id": "39fb086401b3646a282374c40b08ab9e", "type": "electric_scooter", "is_reserved": 0, "lon": -77.02713633333333}, {"fusion_lat": 0.0, "name": "79abbd3078b6ced2555e38c96f6328a2", "is_disabled": 0, "rental_uris": {"android": "https://dc.lft.to/lastmile_qr_scan", "ios": "https://dc.lft.to/lastmile_qr_scan"}, "fusion_lon": 0.0, "lat": 38.9352475, "bike_id": "79abbd3078b6ced2555e38c96f6328a2", "type": "electric_scooter", "is_reserved": 0, "lon": -77.07268866666666}, {"fusion_lat": 0.0, "name": "b6ff1a1bfd808bbbf8f24f3480ab9dbe", "is_disabled": 0, "rental_uris": {"android": "https://dc.lft.to/lastmile_qr_scan", "ios": "https://dc.lft.to/lastmile_qr_scan"}, "fusion_lon": 0.0, "lat": 38.915637, "bike_id": "b6ff1a1bfd808bbbf8f24f3480ab9dbe", "type": "electric_scooter", "is_reserved": 0, "lon": -77.0385595}, {"fusion_lat": 0.0, "name": "1eaad3749853f6dfd8232ee20b6f19bf", "is_disabled": 0, "rental_uris": {"android": "https://dc.lft.to/lastmile_qr_scan", "ios": "https://dc.lft.to/lastmile_qr_scan"}, "fusion_lon": 0.0, "lat": 38.8944355, "bike_id": "1eaad3749853f6dfd8232ee20b6f19bf", "type": "electric_scooter", "is_reserved": 0, "lon": -76.93676633333334}, {"fusion_lat": 0.0, "name": "c85fb80407310405b685defecd05e245", "is_disabled": 0, "rental_uris": {"android": "https://dc.lft.to/lastmile_qr_scan", "ios": "https://dc.lft.to/lastmile_qr_scan"}, "fusion_lon": 0.0, "lat": 38.898512833333335, "bike_id": "c85fb80407310405b685defecd05e245", "type": "electric_scooter", "is_reserved": 0, "lon": -76.99029883333333}, {"fusion_lat": 0.0, "name": "df2369d3ccaad12e7d3babadc9577e6c", "is_disabled": 0, "rental_uris": {"android": "https://dc.lft.to/lastmile_qr_scan", "ios": "https://dc.lft.to/lastmile_qr_scan"}, "fusion_lon": 0.0, "lat": 38.84755116666667, "bike_id": "df2369d3ccaad12e7d3babadc9577e6c", "type": "electric_scooter", "is_reserved": 0, "lon": -76.99500166666667}, {"fusion_lat": 0.0, "name": "0de4067ffdfc0abfb8a3be8061481233", "is_disabled": 0, "rental_uris": {"android": "https://dc.lft.to/lastmile_qr_scan", "ios": "https://dc.lft.to/lastmile_qr_scan"}, "fusion_lon": 0.0, "lat": 38.88744633333334, "bike_id": "0de4067ffdfc0abfb8a3be8061481233", "type": "electric_scooter", "is_reserved": 0, "lon": -77.01436033333333}, {"fusion_lat": 0.0, "name": "84a9f3c585fe018fe0da5220fcd8f4b4", "is_disabled": 0, "rental_uris": {"android": "https://dc.lft.to/lastmile_qr_scan", "ios": "https://dc.lft.to/lastmile_qr_scan"}, "fusion_lon": 0.0, "lat": 38.892224666666664, "bike_id": "84a9f3c585fe018fe0da5220fcd8f4b4", "type": "electric_scooter", "is_reserved": 0, "lon": -77.02777783333333}, {"fusion_lat": 0.0, "name": "21eb92d36bb3a2c054f456ce1c8f76fe", "is_disabled": 0, "rental_uris": {"android": "https://dc.lft.to/lastmile_qr_scan", "ios": "https://dc.lft.to/lastmile_qr_scan"}, "fusion_lon": 0.0, "lat": 38.914170666666664, "bike_id": "21eb92d36bb3a2c054f456ce1c8f76fe", "type": "electric_scooter", "is_reserved": 0, "lon": -77.02827366666666}, {"fusion_lat": 0.0, "name": "0eaf30977542b8ebfc38678ff143e2f9", "is_disabled": 0, "rental_uris": {"android": "https://dc.lft.to/lastmile_qr_scan", "ios": "https://dc.lft.to/lastmile_qr_scan"}, "fusion_lon": 0.0, "lat": 38.907660666666665, "bike_id": "0eaf30977542b8ebfc38678ff143e2f9", "type": "electric_scooter", "is_reserved": 0, "lon": -77.0501505}, {"fusion_lat": 0.0, "name": "4eb0150db759446a15d643c18bc46910", "is_disabled": 0, "rental_uris": {"android": "https://dc.lft.to/lastmile_qr_scan", "ios": "https://dc.lft.to/lastmile_qr_scan"}, "fusion_lon": 0.0, "lat": 38.91211583333333, "bike_id": "4eb0150db759446a15d643c18bc46910", "type": "electric_scooter", "is_reserved": 0, "lon": -77.03663116666667}, {"fusion_lat": 0.0, "name": "c159882bb6e4131d6e076effdd57fe27", "is_disabled": 0, "rental_uris": {"android": "https://dc.lft.to/lastmile_qr_scan", "ios": "https://dc.lft.to/lastmile_qr_scan"}, "fusion_lon": 0.0, "lat": 38.93718466666667, "bike_id": "c159882bb6e4131d6e076effdd57fe27", "type": "electric_scooter", "is_reserved": 0, "lon": -77.02455966666666}, {"fusion_lat": 0.0, "name": "d2959575ab0d38e441b5e270f3397543", "is_disabled": 0, "rental_uris": {"android": "https://dc.lft.to/lastmile_qr_scan", "ios": "https://dc.lft.to/lastmile_qr_scan"}, "fusion_lon": 0.0, "lat": 38.946349833333336, "bike_id": "d2959575ab0d38e441b5e270f3397543", "type": "electric_scooter", "is_reserved": 0, "lon": -77.09544}, {"fusion_lat": 0.0, "name": "b20a6048907db621a19a7360c9ca8068", "is_disabled": 0, "rental_uris": {"android": "https://dc.lft.to/lastmile_qr_scan", "ios": "https://dc.lft.to/lastmile_qr_scan"}, "fusion_lon": 0.0, "lat": 38.9027605, "bike_id": "b20a6048907db621a19a7360c9ca8068", "type": "electric_scooter", "is_reserved": 0, "lon": -77.029641}, {"fusion_lat": 0.0, "name": "c7408c88a797a80214c8ec13d0494766", "is_disabled": 0, "rental_uris": {"android": "https://dc.lft.to/lastmile_qr_scan", "ios": "https://dc.lft.to/lastmile_qr_scan"}, "fusion_lon": 0.0, "lat": 38.92079116666667, "bike_id": "c7408c88a797a80214c8ec13d0494766", "type": "electric_scooter", "is_reserved": 0, "lon": -77.01480666666667}, {"fusion_lat": 0.0, "name": "fe18e9870d04c1fe3f239c5b08d8e209", "is_disabled": 0, "rental_uris": {"android": "https://dc.lft.to/lastmile_qr_scan", "ios": "https://dc.lft.to/lastmile_qr_scan"}, "fusion_lon": 0.0, "lat": 38.91808316666667, "bike_id": "fe18e9870d04c1fe3f239c5b08d8e209", "type": "electric_scooter", "is_reserved": 0, "lon": -77.02685783333334}, {"fusion_lat": 0.0, "name": "610f174a736ed0f1a178d5ae438b1ab5", "is_disabled": 0, "rental_uris": {"android": "https://dc.lft.to/lastmile_qr_scan", "ios": "https://dc.lft.to/lastmile_qr_scan"}, "fusion_lon": 0.0, "lat": 38.90793383333333, "bike_id": "610f174a736ed0f1a178d5ae438b1ab5", "type": "electric_scooter", "is_reserved": 0, "lon": -77.011067}, {"fusion_lat": 0.0, "name": "7df28f7c6974e2681ad6a766ccfa077e", "is_disabled": 0, "rental_uris": {"android": "https://dc.lft.to/lastmile_qr_scan", "ios": "https://dc.lft.to/lastmile_qr_scan"}, "fusion_lon": 0.0, "lat": 38.9155825, "bike_id": "7df28f7c6974e2681ad6a766ccfa077e", "type": "electric_scooter", "is_reserved": 0, "lon": -77.03065866666667}, {"fusion_lat": 0.0, "name": "bd1d18208cd4b9685d1dc6504bf9238e", "is_disabled": 0, "rental_uris": {"android": "https://dc.lft.to/lastmile_qr_scan", "ios": "https://dc.lft.to/lastmile_qr_scan"}, "fusion_lon": 0.0, "lat": 38.9363315, "bike_id": "bd1d18208cd4b9685d1dc6504bf9238e", "type": "electric_scooter", "is_reserved": 0, "lon": -77.03661383333333}, {"fusion_lat": 0.0, "name": "9e2c43ab7ffb14df2e877a0395fd55f7", "is_disabled": 0, "rental_uris": {"android": "https://dc.lft.to/lastmile_qr_scan", "ios": "https://dc.lft.to/lastmile_qr_scan"}, "fusion_lon": 0.0, "lat": 38.907101833333336, "bike_id": "9e2c43ab7ffb14df2e877a0395fd55f7", "type": "electric_scooter", "is_reserved": 0, "lon": -77.03210033333333}, {"fusion_lat": 0.0, "name": "c93f805e9d651cb3cdcdf8f967849bec", "is_disabled": 0, "rental_uris": {"android": "https://dc.lft.to/lastmile_qr_scan", "ios": "https://dc.lft.to/lastmile_qr_scan"}, "fusion_lon": 0.0, "lat": 38.925519, "bike_id": "c93f805e9d651cb3cdcdf8f967849bec", "type": "electric_scooter", "is_reserved": 0, "lon": -77.07760066666667}, {"fusion_lat": 0.0, "name": "1d122904eb5f5c0850df5f41e9e463c7", "is_disabled": 0, "rental_uris": {"android": "https://dc.lft.to/lastmile_qr_scan", "ios": "https://dc.lft.to/lastmile_qr_scan"}, "fusion_lon": 0.0, "lat": 38.91956316666667, "bike_id": "1d122904eb5f5c0850df5f41e9e463c7", "type": "electric_scooter", "is_reserved": 0, "lon": -77.07096916666667}, {"fusion_lat": 0.0, "name": "96a83b0fe3faf1d51f86b29cdf0a0011", "is_disabled": 0, "rental_uris": {"android": "https://dc.lft.to/lastmile_qr_scan", "ios": "https://dc.lft.to/lastmile_qr_scan"}, "fusion_lon": 0.0, "lat": 38.913109166666665, "bike_id": "96a83b0fe3faf1d51f86b29cdf0a0011", "type": "electric_scooter", "is_reserved": 0, "lon": -77.0487965}, {"fusion_lat": 0.0, "name": "7d4eda4c88ec5bb65d8abaf71721b29f", "is_disabled": 0, "rental_uris": {"android": "https://dc.lft.to/lastmile_qr_scan", "ios": "https://dc.lft.to/lastmile_qr_scan"}, "fusion_lon": 0.0, "lat": 38.9376475, "bike_id": "7d4eda4c88ec5bb65d8abaf71721b29f", "type": "electric_scooter", "is_reserved": 0, "lon": -77.0325945}, {"fusion_lat": 0.0, "name": "266007c750b4c684916a8a35ae93afb9", "is_disabled": 0, "rental_uris": {"android": "https://dc.lft.to/lastmile_qr_scan", "ios": "https://dc.lft.to/lastmile_qr_scan"}, "fusion_lon": 0.0, "lat": 38.804960666666666, "bike_id": "266007c750b4c684916a8a35ae93afb9", "type": "electric_bike", "is_reserved": 0, "lon": -77.10161983333333}, {"fusion_lat": 0.0, "name": "bca5e45a4b44a84a8826ceedfa4120a7", "is_disabled": 0, "rental_uris": {"android": "https://dc.lft.to/lastmile_qr_scan", "ios": "https://dc.lft.to/lastmile_qr_scan"}, "fusion_lon": 0.0, "lat": 38.878343, "bike_id": "bca5e45a4b44a84a8826ceedfa4120a7", "type": "electric_scooter", "is_reserved": 0, "lon": -76.96319983333333}, {"fusion_lat": 0.0, "name": "5423513c07784c86562601e0f9ad6796", "is_disabled": 0, "rental_uris": {"android": "https://dc.lft.to/lastmile_qr_scan", "ios": "https://dc.lft.to/lastmile_qr_scan"}, "fusion_lon": 0.0, "lat": 38.920388333333335, "bike_id": "5423513c07784c86562601e0f9ad6796", "type": "electric_scooter", "is_reserved": 0, "lon": -77.01728683333333}, {"fusion_lat": 0.0, "name": "88e904344f53c8080928e06422b97260", "is_disabled": 0, "rental_uris": {"android": "https://dc.lft.to/lastmile_qr_scan", "ios": "https://dc.lft.to/lastmile_qr_scan"}, "fusion_lon": 0.0, "lat": 38.892867, "bike_id": "88e904344f53c8080928e06422b97260", "type": "electric_scooter", "is_reserved": 0, "lon": -76.98307183333333}, {"fusion_lat": 0.0, "name": "b9f32a33a8b429127ef2d5f450b32be6", "is_disabled": 0, "rental_uris": {"android": "https://dc.lft.to/lastmile_qr_scan", "ios": "https://dc.lft.to/lastmile_qr_scan"}, "fusion_lon": 0.0, "lat": 38.9279345, "bike_id": "b9f32a33a8b429127ef2d5f450b32be6", "type": "electric_scooter", "is_reserved": 0, "lon": -77.03214416666667}, {"fusion_lat": 0.0, "name": "ef028567718ed7a71aa8a406c6c5b413", "is_disabled": 0, "rental_uris": {"android": "https://dc.lft.to/lastmile_qr_scan", "ios": "https://dc.lft.to/lastmile_qr_scan"}, "fusion_lon": 0.0, "lat": 38.948779, "bike_id": "ef028567718ed7a71aa8a406c6c5b413", "type": "electric_scooter", "is_reserved": 0, "lon": -77.0268755}, {"fusion_lat": 0.0, "name": "798d9ba6f442701666b81054e81e7afd", "is_disabled": 0, "rental_uris": {"android": "https://dc.lft.to/lastmile_qr_scan", "ios": "https://dc.lft.to/lastmile_qr_scan"}, "fusion_lon": 0.0, "lat": 38.887468166666665, "bike_id": "798d9ba6f442701666b81054e81e7afd", "type": "electric_scooter", "is_reserved": 0, "lon": -77.02570016666667}, {"fusion_lat": 0.0, "name": "f6f36760319fb7d76ecaa0abab7d15a0", "is_disabled": 0, "rental_uris": {"android": "https://dc.lft.to/lastmile_qr_scan", "ios": "https://dc.lft.to/lastmile_qr_scan"}, "fusion_lon": 0.0, "lat": 38.9228845, "bike_id": "f6f36760319fb7d76ecaa0abab7d15a0", "type": "electric_scooter", "is_reserved": 0, "lon": -77.02245466666666}, {"fusion_lat": 0.0, "name": "4804ea67f49a0d2e68ff577a2be2c87d", "is_disabled": 0, "rental_uris": {"android": "https://dc.lft.to/lastmile_qr_scan", "ios": "https://dc.lft.to/lastmile_qr_scan"}, "fusion_lon": 0.0, "lat": 38.90562516666667, "bike_id": "4804ea67f49a0d2e68ff577a2be2c87d", "type": "electric_scooter", "is_reserved": 0, "lon": -77.00585}, {"fusion_lat": 0.0, "name": "b37c4dca52cd2e73cf142216b98ac94f", "is_disabled": 0, "rental_uris": {"android": "https://dc.lft.to/lastmile_qr_scan", "ios": "https://dc.lft.to/lastmile_qr_scan"}, "fusion_lon": 0.0, "lat": 38.89223166666667, "bike_id": "b37c4dca52cd2e73cf142216b98ac94f", "type": "electric_scooter", "is_reserved": 0, "lon": -77.04370566666667}, {"fusion_lat": 0.0, "name": "8c270aa33762c4cc74cc5a2525666e4f", "is_disabled": 0, "rental_uris": {"android": "https://dc.lft.to/lastmile_qr_scan", "ios": "https://dc.lft.to/lastmile_qr_scan"}, "fusion_lon": 0.0, "lat": 38.903816166666665, "bike_id": "8c270aa33762c4cc74cc5a2525666e4f", "type": "electric_scooter", "is_reserved": 0, "lon": -77.00188933333334}, {"fusion_lat": 0.0, "name": "a34d0dda900b1e62d21c6fc1a2a099e9", "is_disabled": 0, "rental_uris": {"android": "https://dc.lft.to/lastmile_qr_scan", "ios": "https://dc.lft.to/lastmile_qr_scan"}, "fusion_lon": 0.0, "lat": 38.913973666666664, "bike_id": "a34d0dda900b1e62d21c6fc1a2a099e9", "type": "electric_scooter", "is_reserved": 0, "lon": -77.0220295}, {"fusion_lat": 0.0, "name": "3b977665e7d8f844a745efc5f8917eea", "is_disabled": 0, "rental_uris": {"android": "https://dc.lft.to/lastmile_qr_scan", "ios": "https://dc.lft.to/lastmile_qr_scan"}, "fusion_lon": 0.0, "lat": 38.88109716666666, "bike_id": "3b977665e7d8f844a745efc5f8917eea", "type": "electric_scooter", "is_reserved": 0, "lon": -77.0165}, {"fusion_lat": 0.0, "name": "7deb14ddaf2be424a1e35d9bcfcdc11f", "is_disabled": 0, "rental_uris": {"android": "https://dc.lft.to/lastmile_qr_scan", "ios": "https://dc.lft.to/lastmile_qr_scan"}, "fusion_lon": 0.0, "lat": 38.997772166666664, "bike_id": "7deb14ddaf2be424a1e35d9bcfcdc11f", "type": "electric_bike", "is_reserved": 0, "lon": -77.04715316666666}, {"fusion_lat": 0.0, "name": "2458be33f89eb8bf8e8ff848e2e85e69", "is_disabled": 0, "rental_uris": {"android": "https://dc.lft.to/lastmile_qr_scan", "ios": "https://dc.lft.to/lastmile_qr_scan"}, "fusion_lon": 0.0, "lat": 38.94127316666667, "bike_id": "2458be33f89eb8bf8e8ff848e2e85e69", "type": "electric_scooter", "is_reserved": 0, "lon": -77.0265265}, {"fusion_lat": 0.0, "name": "38a96988168b20763ec3a3d0e88c6367", "is_disabled": 0, "rental_uris": {"android": "https://dc.lft.to/lastmile_qr_scan", "ios": "https://dc.lft.to/lastmile_qr_scan"}, "fusion_lon": 0.0, "lat": 38.907644, "bike_id": "38a96988168b20763ec3a3d0e88c6367", "type": "electric_scooter", "is_reserved": 0, "lon": -77.07108633333333}, {"fusion_lat": 0.0, "name": "07af5a35f9857323e8cdf40be9cade91", "is_disabled": 0, "rental_uris": {"android": "https://dc.lft.to/lastmile_qr_scan", "ios": "https://dc.lft.to/lastmile_qr_scan"}, "fusion_lon": 0.0, "lat": 38.902936833333335, "bike_id": "07af5a35f9857323e8cdf40be9cade91", "type": "electric_scooter", "is_reserved": 0, "lon": -76.9763655}, {"fusion_lat": 0.0, "name": "bf6609196e153bf47d322e43947ddcfe", "is_disabled": 0, "rental_uris": {"android": "https://dc.lft.to/lastmile_qr_scan", "ios": "https://dc.lft.to/lastmile_qr_scan"}, "fusion_lon": 0.0, "lat": 38.91652966666667, "bike_id": "bf6609196e153bf47d322e43947ddcfe", "type": "electric_scooter", "is_reserved": 0, "lon": -77.03162966666666}, {"fusion_lat": 0.0, "name": "b65071330d718cfea04b46fb0ea98497", "is_disabled": 0, "rental_uris": {"android": "https://dc.lft.to/lastmile_qr_scan", "ios": "https://dc.lft.to/lastmile_qr_scan"}, "fusion_lon": 0.0, "lat": 38.807616833333334, "bike_id": "b65071330d718cfea04b46fb0ea98497", "type": "electric_bike", "is_reserved": 0, "lon": -77.09464766666666}, {"fusion_lat": 0.0, "name": "33f170d69407c2edd72672ae97dec36d", "is_disabled": 0, "rental_uris": {"android": "https://dc.lft.to/lastmile_qr_scan", "ios": "https://dc.lft.to/lastmile_qr_scan"}, "fusion_lon": 0.0, "lat": 38.91824, "bike_id": "33f170d69407c2edd72672ae97dec36d", "type": "electric_scooter", "is_reserved": 0, "lon": -77.03435833333333}, {"fusion_lat": 0.0, "name": "8f749ffc108ba0f162e52f3b1f78e9f9", "is_disabled": 0, "rental_uris": {"android": "https://dc.lft.to/lastmile_qr_scan", "ios": "https://dc.lft.to/lastmile_qr_scan"}, "fusion_lon": 0.0, "lat": 38.924135666666665, "bike_id": "8f749ffc108ba0f162e52f3b1f78e9f9", "type": "electric_scooter", "is_reserved": 0, "lon": -77.02105866666666}, {"fusion_lat": 0.0, "name": "42fa5ed73f1471886271674a6cd37c43", "is_disabled": 0, "rental_uris": {"android": "https://dc.lft.to/lastmile_qr_scan", "ios": "https://dc.lft.to/lastmile_qr_scan"}, "fusion_lon": 0.0, "lat": 38.923596333333336, "bike_id": "42fa5ed73f1471886271674a6cd37c43", "type": "electric_scooter", "is_reserved": 0, "lon": -77.05084316666667}, {"fusion_lat": 0.0, "name": "6088340f7b28efc72260dbeb779f3d2f", "is_disabled": 0, "rental_uris": {"android": "https://dc.lft.to/lastmile_qr_scan", "ios": "https://dc.lft.to/lastmile_qr_scan"}, "fusion_lon": 0.0, "lat": 38.94978416666667, "bike_id": "6088340f7b28efc72260dbeb779f3d2f", "type": "electric_scooter", "is_reserved": 0, "lon": -77.02445416666667}, {"fusion_lat": 0.0, "name": "988fc938460f00abb55301c9a431e313", "is_disabled": 0, "rental_uris": {"android": "https://dc.lft.to/lastmile_qr_scan", "ios": "https://dc.lft.to/lastmile_qr_scan"}, "fusion_lon": 0.0, "lat": 38.917227, "bike_id": "988fc938460f00abb55301c9a431e313", "type": "electric_scooter", "is_reserved": 0, "lon": -77.0297125}, {"fusion_lat": 0.0, "name": "2c71d4ef0a6cfe483cf58ef4fbd3914b", "is_disabled": 0, "rental_uris": {"android": "https://dc.lft.to/lastmile_qr_scan", "ios": "https://dc.lft.to/lastmile_qr_scan"}, "fusion_lon": 0.0, "lat": 38.9063725, "bike_id": "2c71d4ef0a6cfe483cf58ef4fbd3914b", "type": "electric_scooter", "is_reserved": 0, "lon": -77.03142183333334}, {"fusion_lat": 0.0, "name": "a73c7872b8a259a105ce25a0cd816588", "is_disabled": 0, "rental_uris": {"android": "https://dc.lft.to/lastmile_qr_scan", "ios": "https://dc.lft.to/lastmile_qr_scan"}, "fusion_lon": 0.0, "lat": 38.915404833333334, "bike_id": "a73c7872b8a259a105ce25a0cd816588", "type": "electric_scooter", "is_reserved": 0, "lon": -77.03206333333333}, {"fusion_lat": 0.0, "name": "7a2354adf685ce85b906c846d61feed5", "is_disabled": 0, "rental_uris": {"android": "https://dc.lft.to/lastmile_qr_scan", "ios": "https://dc.lft.to/lastmile_qr_scan"}, "fusion_lon": 0.0, "lat": 38.92455016666667, "bike_id": "7a2354adf685ce85b906c846d61feed5", "type": "electric_scooter", "is_reserved": 0, "lon": -77.03977183333333}, {"fusion_lat": 0.0, "name": "a29bc77d914ca516e04651fc546cde8a", "is_disabled": 0, "rental_uris": {"android": "https://dc.lft.to/lastmile_qr_scan", "ios": "https://dc.lft.to/lastmile_qr_scan"}, "fusion_lon": 0.0, "lat": 38.887138666666665, "bike_id": "a29bc77d914ca516e04651fc546cde8a", "type": "electric_scooter", "is_reserved": 0, "lon": -76.99668966666667}, {"fusion_lat": 0.0, "name": "0d00155c72259e96c2ddb5fd4a239f2a", "is_disabled": 0, "rental_uris": {"android": "https://dc.lft.to/lastmile_qr_scan", "ios": "https://dc.lft.to/lastmile_qr_scan"}, "fusion_lon": 0.0, "lat": 38.91693816666667, "bike_id": "0d00155c72259e96c2ddb5fd4a239f2a", "type": "electric_scooter", "is_reserved": 0, "lon": -77.03498616666667}, {"fusion_lat": 0.0, "name": "1d828faaf06c00e50eec3dffe978eb87", "is_disabled": 0, "rental_uris": {"android": "https://dc.lft.to/lastmile_qr_scan", "ios": "https://dc.lft.to/lastmile_qr_scan"}, "fusion_lon": 0.0, "lat": 38.892255666666664, "bike_id": "1d828faaf06c00e50eec3dffe978eb87", "type": "electric_scooter", "is_reserved": 0, "lon": -77.05033183333333}, {"fusion_lat": 0.0, "name": "98daf54625ae8f04a3601be687782064", "is_disabled": 0, "rental_uris": {"android": "https://dc.lft.to/lastmile_qr_scan", "ios": "https://dc.lft.to/lastmile_qr_scan"}, "fusion_lon": 0.0, "lat": 38.9221245, "bike_id": "98daf54625ae8f04a3601be687782064", "type": "electric_scooter", "is_reserved": 0, "lon": -77.04240433333334}, {"fusion_lat": 0.0, "name": "eb93f41cf63d9c491c1878c15b494208", "is_disabled": 0, "rental_uris": {"android": "https://dc.lft.to/lastmile_qr_scan", "ios": "https://dc.lft.to/lastmile_qr_scan"}, "fusion_lon": 0.0, "lat": 38.909592333333336, "bike_id": "eb93f41cf63d9c491c1878c15b494208", "type": "electric_scooter", "is_reserved": 0, "lon": -77.02715183333333}, {"fusion_lat": 0.0, "name": "180ffce207dc8a699f8adc63e63e12d5", "is_disabled": 0, "rental_uris": {"android": "https://dc.lft.to/lastmile_qr_scan", "ios": "https://dc.lft.to/lastmile_qr_scan"}, "fusion_lon": 0.0, "lat": 38.97363466666667, "bike_id": "180ffce207dc8a699f8adc63e63e12d5", "type": "electric_scooter", "is_reserved": 0, "lon": -77.01292683333334}, {"fusion_lat": 0.0, "name": "a86cce18dc707fd9aceff5bfc730dbdc", "is_disabled": 0, "rental_uris": {"android": "https://dc.lft.to/lastmile_qr_scan", "ios": "https://dc.lft.to/lastmile_qr_scan"}, "fusion_lon": 0.0, "lat": 38.90350133333333, "bike_id": "a86cce18dc707fd9aceff5bfc730dbdc", "type": "electric_scooter", "is_reserved": 0, "lon": -76.97474183333334}, {"fusion_lat": 0.0, "name": "f2e134b89d2df823a9e4207f478afa12", "is_disabled": 0, "rental_uris": {"android": "https://dc.lft.to/lastmile_qr_scan", "ios": "https://dc.lft.to/lastmile_qr_scan"}, "fusion_lon": 0.0, "lat": 38.89829233333333, "bike_id": "f2e134b89d2df823a9e4207f478afa12", "type": "electric_scooter", "is_reserved": 0, "lon": -77.0467265}, {"fusion_lat": 0.0, "name": "037c257fcd39d0f5182d20db9a68f206", "is_disabled": 0, "rental_uris": {"android": "https://dc.lft.to/lastmile_qr_scan", "ios": "https://dc.lft.to/lastmile_qr_scan"}, "fusion_lon": 0.0, "lat": 38.92104033333333, "bike_id": "037c257fcd39d0f5182d20db9a68f206", "type": "electric_scooter", "is_reserved": 0, "lon": -77.046979}, {"fusion_lat": 0.0, "name": "b3516488a276b6ce6e23c1768904dbf8", "is_disabled": 0, "rental_uris": {"android": "https://dc.lft.to/lastmile_qr_scan", "ios": "https://dc.lft.to/lastmile_qr_scan"}, "fusion_lon": 0.0, "lat": 38.90926133333333, "bike_id": "b3516488a276b6ce6e23c1768904dbf8", "type": "electric_scooter", "is_reserved": 0, "lon": -77.0626185}, {"fusion_lat": 0.0, "name": "aee778264ac369a9ee4361aa05920898", "is_disabled": 0, "rental_uris": {"android": "https://dc.lft.to/lastmile_qr_scan", "ios": "https://dc.lft.to/lastmile_qr_scan"}, "fusion_lon": 0.0, "lat": 38.91690216666667, "bike_id": "aee778264ac369a9ee4361aa05920898", "type": "electric_scooter", "is_reserved": 0, "lon": -77.025962}, {"fusion_lat": 0.0, "name": "1ceb5dd7022d376b87ef6120af4bcfeb", "is_disabled": 0, "rental_uris": {"android": "https://dc.lft.to/lastmile_qr_scan", "ios": "https://dc.lft.to/lastmile_qr_scan"}, "fusion_lon": 0.0, "lat": 38.883229166666666, "bike_id": "1ceb5dd7022d376b87ef6120af4bcfeb", "type": "electric_scooter", "is_reserved": 0, "lon": -77.01460533333334}, {"fusion_lat": 0.0, "name": "4dac70e97cdef4305ba39334d5100aaa", "is_disabled": 0, "rental_uris": {"android": "https://dc.lft.to/lastmile_qr_scan", "ios": "https://dc.lft.to/lastmile_qr_scan"}, "fusion_lon": 0.0, "lat": 38.934672, "bike_id": "4dac70e97cdef4305ba39334d5100aaa", "type": "electric_scooter", "is_reserved": 0, "lon": -77.0339975}, {"fusion_lat": 0.0, "name": "4c1f76cc493d1305cb805d1bfe317a37", "is_disabled": 0, "rental_uris": {"android": "https://dc.lft.to/lastmile_qr_scan", "ios": "https://dc.lft.to/lastmile_qr_scan"}, "fusion_lon": 0.0, "lat": 38.90095066666667, "bike_id": "4c1f76cc493d1305cb805d1bfe317a37", "type": "electric_scooter", "is_reserved": 0, "lon": -77.05074883333333}, {"fusion_lat": 0.0, "name": "05f999b183ec4829c27afb1faa5059f2", "is_disabled": 0, "rental_uris": {"android": "https://dc.lft.to/lastmile_qr_scan", "ios": "https://dc.lft.to/lastmile_qr_scan"}, "fusion_lon": 0.0, "lat": 38.93878733333333, "bike_id": "05f999b183ec4829c27afb1faa5059f2", "type": "electric_scooter", "is_reserved": 0, "lon": -77.02464633333334}, {"fusion_lat": 0.0, "name": "f4189abb98737db293624c93cec0fff9", "is_disabled": 0, "rental_uris": {"android": "https://dc.lft.to/lastmile_qr_scan", "ios": "https://dc.lft.to/lastmile_qr_scan"}, "fusion_lon": 0.0, "lat": 38.9382595, "bike_id": "f4189abb98737db293624c93cec0fff9", "type": "electric_scooter", "is_reserved": 0, "lon": -77.02646716666666}, {"fusion_lat": 0.0, "name": "1da814f4668bfbbd69e14da4b817c5c8", "is_disabled": 0, "rental_uris": {"android": "https://dc.lft.to/lastmile_qr_scan", "ios": "https://dc.lft.to/lastmile_qr_scan"}, "fusion_lon": 0.0, "lat": 38.911097, "bike_id": "1da814f4668bfbbd69e14da4b817c5c8", "type": "electric_scooter", "is_reserved": 0, "lon": -77.04247466666666}, {"fusion_lat": 0.0, "name": "101de0fbf4afb8b7a1d9838f4b0d28b4", "is_disabled": 0, "rental_uris": {"android": "https://dc.lft.to/lastmile_qr_scan", "ios": "https://dc.lft.to/lastmile_qr_scan"}, "fusion_lon": 0.0, "lat": 38.91040433333333, "bike_id": "101de0fbf4afb8b7a1d9838f4b0d28b4", "type": "electric_scooter", "is_reserved": 0, "lon": -77.01284983333333}, {"fusion_lat": 0.0, "name": "a1f3f9d3a4cc73a58d05ebf3732669b1", "is_disabled": 0, "rental_uris": {"android": "https://dc.lft.to/lastmile_qr_scan", "ios": "https://dc.lft.to/lastmile_qr_scan"}, "fusion_lon": 0.0, "lat": 38.915512666666665, "bike_id": "a1f3f9d3a4cc73a58d05ebf3732669b1", "type": "electric_scooter", "is_reserved": 0, "lon": -77.03254283333334}, {"fusion_lat": 0.0, "name": "831cfb00c7d25707a658d72de37a9563", "is_disabled": 0, "rental_uris": {"android": "https://dc.lft.to/lastmile_qr_scan", "ios": "https://dc.lft.to/lastmile_qr_scan"}, "fusion_lon": 0.0, "lat": 38.892681, "bike_id": "831cfb00c7d25707a658d72de37a9563", "type": "electric_scooter", "is_reserved": 0, "lon": -77.03373033333334}, {"fusion_lat": 0.0, "name": "b0f9b65ba26bf95c09b753c36bd6c34a", "is_disabled": 0, "rental_uris": {"android": "https://dc.lft.to/lastmile_qr_scan", "ios": "https://dc.lft.to/lastmile_qr_scan"}, "fusion_lon": 0.0, "lat": 38.91147983333333, "bike_id": "b0f9b65ba26bf95c09b753c36bd6c34a", "type": "electric_scooter", "is_reserved": 0, "lon": -77.02195066666667}, {"fusion_lat": 0.0, "name": "d0e14b6946fd7168c881769497682495", "is_disabled": 0, "rental_uris": {"android": "https://dc.lft.to/lastmile_qr_scan", "ios": "https://dc.lft.to/lastmile_qr_scan"}, "fusion_lon": 0.0, "lat": 38.900020833333336, "bike_id": "d0e14b6946fd7168c881769497682495", "type": "electric_scooter", "is_reserved": 0, "lon": -77.0292505}, {"fusion_lat": 0.0, "name": "4dd3cf2b529ed6909ca8773d42b35011", "is_disabled": 0, "rental_uris": {"android": "https://dc.lft.to/lastmile_qr_scan", "ios": "https://dc.lft.to/lastmile_qr_scan"}, "fusion_lon": 0.0, "lat": 38.813331, "bike_id": "4dd3cf2b529ed6909ca8773d42b35011", "type": "electric_bike", "is_reserved": 0, "lon": -77.05085533333333}, {"fusion_lat": 0.0, "name": "d8cdabb37b601d6c252ec95a2cfee555", "is_disabled": 0, "rental_uris": {"android": "https://dc.lft.to/lastmile_qr_scan", "ios": "https://dc.lft.to/lastmile_qr_scan"}, "fusion_lon": 0.0, "lat": 38.916878833333335, "bike_id": "d8cdabb37b601d6c252ec95a2cfee555", "type": "electric_scooter", "is_reserved": 0, "lon": -77.02882333333334}, {"fusion_lat": 0.0, "name": "48c1a1fe1d2a4a055464747e2caabbda", "is_disabled": 0, "rental_uris": {"android": "https://dc.lft.to/lastmile_qr_scan", "ios": "https://dc.lft.to/lastmile_qr_scan"}, "fusion_lon": 0.0, "lat": 38.91605716666667, "bike_id": "48c1a1fe1d2a4a055464747e2caabbda", "type": "electric_scooter", "is_reserved": 0, "lon": -77.043427}, {"fusion_lat": 0.0, "name": "99b37196307af31585a4fe4dd38a6d87", "is_disabled": 0, "rental_uris": {"android": "https://dc.lft.to/lastmile_qr_scan", "ios": "https://dc.lft.to/lastmile_qr_scan"}, "fusion_lon": 0.0, "lat": 38.941524666666666, "bike_id": "99b37196307af31585a4fe4dd38a6d87", "type": "electric_bike", "is_reserved": 0, "lon": -77.0020015}, {"fusion_lat": 0.0, "name": "b44348aefbc01f185aa332ed77438e3e", "is_disabled": 0, "rental_uris": {"android": "https://dc.lft.to/lastmile_qr_scan", "ios": "https://dc.lft.to/lastmile_qr_scan"}, "fusion_lon": 0.0, "lat": 38.9297365, "bike_id": "b44348aefbc01f185aa332ed77438e3e", "type": "electric_scooter", "is_reserved": 0, "lon": -77.0314175}, {"fusion_lat": 0.0, "name": "bd747b5aed35fd628483323abc8dfa30", "is_disabled": 0, "rental_uris": {"android": "https://dc.lft.to/lastmile_qr_scan", "ios": "https://dc.lft.to/lastmile_qr_scan"}, "fusion_lon": 0.0, "lat": 38.8921985, "bike_id": "bd747b5aed35fd628483323abc8dfa30", "type": "electric_scooter", "is_reserved": 0, "lon": -77.02414666666667}, {"fusion_lat": 0.0, "name": "0841473700c6766caddb9defd017c26f", "is_disabled": 0, "rental_uris": {"android": "https://dc.lft.to/lastmile_qr_scan", "ios": "https://dc.lft.to/lastmile_qr_scan"}, "fusion_lon": 0.0, "lat": 38.987865666666664, "bike_id": "0841473700c6766caddb9defd017c26f", "type": "electric_bike", "is_reserved": 0, "lon": -77.14099466666667}, {"fusion_lat": 0.0, "name": "57b3496695c20b53d4e882731222ffb0", "is_disabled": 0, "rental_uris": {"android": "https://dc.lft.to/lastmile_qr_scan", "ios": "https://dc.lft.to/lastmile_qr_scan"}, "fusion_lon": 0.0, "lat": 38.91916716666667, "bike_id": "57b3496695c20b53d4e882731222ffb0", "type": "electric_scooter", "is_reserved": 0, "lon": -77.0334385}, {"fusion_lat": 0.0, "name": "a28049e19a1d263f9e2db878bfd4e547", "is_disabled": 0, "rental_uris": {"android": "https://dc.lft.to/lastmile_qr_scan", "ios": "https://dc.lft.to/lastmile_qr_scan"}, "fusion_lon": 0.0, "lat": 38.9170755, "bike_id": "a28049e19a1d263f9e2db878bfd4e547", "type": "electric_scooter", "is_reserved": 0, "lon": -77.008656}, {"fusion_lat": 0.0, "name": "2ffd1c396a18f8e111a43d10c1a469d1", "is_disabled": 0, "rental_uris": {"android": "https://dc.lft.to/lastmile_qr_scan", "ios": "https://dc.lft.to/lastmile_qr_scan"}, "fusion_lon": 0.0, "lat": 38.90239366666667, "bike_id": "2ffd1c396a18f8e111a43d10c1a469d1", "type": "electric_scooter", "is_reserved": 0, "lon": -77.05979133333334}, {"fusion_lat": 0.0, "name": "33e3a7c5a560e380caea9f36b28d44b5", "is_disabled": 0, "rental_uris": {"android": "https://dc.lft.to/lastmile_qr_scan", "ios": "https://dc.lft.to/lastmile_qr_scan"}, "fusion_lon": 0.0, "lat": 38.88513233333333, "bike_id": "33e3a7c5a560e380caea9f36b28d44b5", "type": "electric_scooter", "is_reserved": 0, "lon": -76.9976315}, {"fusion_lat": 0.0, "name": "9d793563488922001ad064582cc51518", "is_disabled": 0, "rental_uris": {"android": "https://dc.lft.to/lastmile_qr_scan", "ios": "https://dc.lft.to/lastmile_qr_scan"}, "fusion_lon": 0.0, "lat": 38.941676333333334, "bike_id": "9d793563488922001ad064582cc51518", "type": "electric_bike", "is_reserved": 0, "lon": -76.9664715}, {"fusion_lat": 0.0, "name": "2c7dbc9e09ea2c36a8d9a7c31ce2cd7a", "is_disabled": 0, "rental_uris": {"android": "https://dc.lft.to/lastmile_qr_scan", "ios": "https://dc.lft.to/lastmile_qr_scan"}, "fusion_lon": 0.0, "lat": 38.90719633333333, "bike_id": "2c7dbc9e09ea2c36a8d9a7c31ce2cd7a", "type": "electric_scooter", "is_reserved": 0, "lon": -77.02891383333333}, {"fusion_lat": 0.0, "name": "3b4ee8b39e7e0470a77b6353dafcbc95", "is_disabled": 0, "rental_uris": {"android": "https://dc.lft.to/lastmile_qr_scan", "ios": "https://dc.lft.to/lastmile_qr_scan"}, "fusion_lon": 0.0, "lat": 38.930767333333336, "bike_id": "3b4ee8b39e7e0470a77b6353dafcbc95", "type": "electric_scooter", "is_reserved": 0, "lon": -77.0776275}, {"fusion_lat": 0.0, "name": "e677017b45b9a979037d415bc336f9c6", "is_disabled": 0, "rental_uris": {"android": "https://dc.lft.to/lastmile_qr_scan", "ios": "https://dc.lft.to/lastmile_qr_scan"}, "fusion_lon": 0.0, "lat": 38.9191555, "bike_id": "e677017b45b9a979037d415bc336f9c6", "type": "electric_scooter", "is_reserved": 0, "lon": -77.04153566666666}, {"fusion_lat": 0.0, "name": "b774c7ab6a0c08ebed324e3f127d68e0", "is_disabled": 0, "rental_uris": {"android": "https://dc.lft.to/lastmile_qr_scan", "ios": "https://dc.lft.to/lastmile_qr_scan"}, "fusion_lon": 0.0, "lat": 38.90394416666667, "bike_id": "b774c7ab6a0c08ebed324e3f127d68e0", "type": "electric_scooter", "is_reserved": 0, "lon": -76.9900635}, {"fusion_lat": 0.0, "name": "65f2578cb54e807a5666cbd690b25d96", "is_disabled": 0, "rental_uris": {"android": "https://dc.lft.to/lastmile_qr_scan", "ios": "https://dc.lft.to/lastmile_qr_scan"}, "fusion_lon": 0.0, "lat": 38.95235683333333, "bike_id": "65f2578cb54e807a5666cbd690b25d96", "type": "electric_scooter", "is_reserved": 0, "lon": -76.99007883333333}, {"fusion_lat": 0.0, "name": "ed116cb33b6413f896608cbca5c9a7de", "is_disabled": 0, "rental_uris": {"android": "https://dc.lft.to/lastmile_qr_scan", "ios": "https://dc.lft.to/lastmile_qr_scan"}, "fusion_lon": 0.0, "lat": 38.935261, "bike_id": "ed116cb33b6413f896608cbca5c9a7de", "type": "electric_scooter", "is_reserved": 0, "lon": -77.032647}, {"fusion_lat": 0.0, "name": "8f139092c03c1f97645b91b445bafb55", "is_disabled": 0, "rental_uris": {"android": "https://dc.lft.to/lastmile_qr_scan", "ios": "https://dc.lft.to/lastmile_qr_scan"}, "fusion_lon": 0.0, "lat": 38.902575666666664, "bike_id": "8f139092c03c1f97645b91b445bafb55", "type": "electric_scooter", "is_reserved": 0, "lon": -76.97454283333333}, {"fusion_lat": 0.0, "name": "4e8f5f264a2a24c3ceaca85dd3ba631a", "is_disabled": 0, "rental_uris": {"android": "https://dc.lft.to/lastmile_qr_scan", "ios": "https://dc.lft.to/lastmile_qr_scan"}, "fusion_lon": 0.0, "lat": 38.904119, "bike_id": "4e8f5f264a2a24c3ceaca85dd3ba631a", "type": "electric_scooter", "is_reserved": 0, "lon": -76.973297}, {"fusion_lat": 0.0, "name": "5c74f8eef5bf0fb9d4d65128afac29bc", "is_disabled": 0, "rental_uris": {"android": "https://dc.lft.to/lastmile_qr_scan", "ios": "https://dc.lft.to/lastmile_qr_scan"}, "fusion_lon": 0.0, "lat": 38.9231925, "bike_id": "5c74f8eef5bf0fb9d4d65128afac29bc", "type": "electric_scooter", "is_reserved": 0, "lon": -77.02039583333334}, {"fusion_lat": 0.0, "name": "983400cec376acf8e82b4a75a8e412e6", "is_disabled": 0, "rental_uris": {"android": "https://dc.lft.to/lastmile_qr_scan", "ios": "https://dc.lft.to/lastmile_qr_scan"}, "fusion_lon": 0.0, "lat": 38.90180066666667, "bike_id": "983400cec376acf8e82b4a75a8e412e6", "type": "electric_scooter", "is_reserved": 0, "lon": -77.02307266666666}, {"fusion_lat": 0.0, "name": "8ee23d29e83d01569a66438b6cdd886a", "is_disabled": 0, "rental_uris": {"android": "https://dc.lft.to/lastmile_qr_scan", "ios": "https://dc.lft.to/lastmile_qr_scan"}, "fusion_lon": 0.0, "lat": 38.92928633333333, "bike_id": "8ee23d29e83d01569a66438b6cdd886a", "type": "electric_scooter", "is_reserved": 0, "lon": -77.02340183333334}, {"fusion_lat": 0.0, "name": "10e0d7ee7704056084b4a350c23c5c30", "is_disabled": 0, "rental_uris": {"android": "https://dc.lft.to/lastmile_qr_scan", "ios": "https://dc.lft.to/lastmile_qr_scan"}, "fusion_lon": 0.0, "lat": 38.89562766666667, "bike_id": "10e0d7ee7704056084b4a350c23c5c30", "type": "electric_scooter", "is_reserved": 0, "lon": -76.99430833333334}, {"fusion_lat": 0.0, "name": "8b6529f48fc277d4ebc16c48a3cd4e4e", "is_disabled": 0, "rental_uris": {"android": "https://dc.lft.to/lastmile_qr_scan", "ios": "https://dc.lft.to/lastmile_qr_scan"}, "fusion_lon": 0.0, "lat": 39.01416433333333, "bike_id": "8b6529f48fc277d4ebc16c48a3cd4e4e", "type": "electric_bike", "is_reserved": 0, "lon": -77.04499533333333}, {"fusion_lat": 0.0, "name": "0b28f5644ff35ed94ee9b1ac8753e598", "is_disabled": 0, "rental_uris": {"android": "https://dc.lft.to/lastmile_qr_scan", "ios": "https://dc.lft.to/lastmile_qr_scan"}, "fusion_lon": 0.0, "lat": 38.911230833333335, "bike_id": "0b28f5644ff35ed94ee9b1ac8753e598", "type": "electric_scooter", "is_reserved": 0, "lon": -77.0318335}, {"fusion_lat": 0.0, "name": "a4d126149060d42faf258a32a15c2916", "is_disabled": 0, "rental_uris": {"android": "https://dc.lft.to/lastmile_qr_scan", "ios": "https://dc.lft.to/lastmile_qr_scan"}, "fusion_lon": 0.0, "lat": 38.89705433333334, "bike_id": "a4d126149060d42faf258a32a15c2916", "type": "electric_scooter", "is_reserved": 0, "lon": -77.02411483333333}, {"fusion_lat": 0.0, "name": "8e0b18be32f7b5b16a2cc24a96415f87", "is_disabled": 0, "rental_uris": {"android": "https://dc.lft.to/lastmile_qr_scan", "ios": "https://dc.lft.to/lastmile_qr_scan"}, "fusion_lon": 0.0, "lat": 38.885074, "bike_id": "8e0b18be32f7b5b16a2cc24a96415f87", "type": "electric_scooter", "is_reserved": 0, "lon": -76.99752983333333}, {"fusion_lat": 0.0, "name": "6b699dd9ffcdbb68b386e07141a317d6", "is_disabled": 0, "rental_uris": {"android": "https://dc.lft.to/lastmile_qr_scan", "ios": "https://dc.lft.to/lastmile_qr_scan"}, "fusion_lon": 0.0, "lat": 38.9172335, "bike_id": "6b699dd9ffcdbb68b386e07141a317d6", "type": "electric_scooter", "is_reserved": 0, "lon": -77.0280135}, {"fusion_lat": 0.0, "name": "92a3be26438de6e997b04fc2fb402fa8", "is_disabled": 0, "rental_uris": {"android": "https://dc.lft.to/lastmile_qr_scan", "ios": "https://dc.lft.to/lastmile_qr_scan"}, "fusion_lon": 0.0, "lat": 38.92169166666667, "bike_id": "92a3be26438de6e997b04fc2fb402fa8", "type": "electric_scooter", "is_reserved": 0, "lon": -77.0207805}, {"fusion_lat": 0.0, "name": "b04b2cef1875dff3813af890a90b1c16", "is_disabled": 0, "rental_uris": {"android": "https://dc.lft.to/lastmile_qr_scan", "ios": "https://dc.lft.to/lastmile_qr_scan"}, "fusion_lon": 0.0, "lat": 38.92243583333333, "bike_id": "b04b2cef1875dff3813af890a90b1c16", "type": "electric_scooter", "is_reserved": 0, "lon": -77.03030133333333}, {"fusion_lat": 0.0, "name": "37d4afc6eb37691d8570171fdb5b79ec", "is_disabled": 0, "rental_uris": {"android": "https://dc.lft.to/lastmile_qr_scan", "ios": "https://dc.lft.to/lastmile_qr_scan"}, "fusion_lon": 0.0, "lat": 38.84351383333333, "bike_id": "37d4afc6eb37691d8570171fdb5b79ec", "type": "electric_bike", "is_reserved": 0, "lon": -76.97822633333334}, {"fusion_lat": 0.0, "name": "5e49fddc07b0a608f9c726e37d8978d6", "is_disabled": 0, "rental_uris": {"android": "https://dc.lft.to/lastmile_qr_scan", "ios": "https://dc.lft.to/lastmile_qr_scan"}, "fusion_lon": 0.0, "lat": 38.88360383333333, "bike_id": "5e49fddc07b0a608f9c726e37d8978d6", "type": "electric_scooter", "is_reserved": 0, "lon": -76.94160383333333}, {"fusion_lat": 0.0, "name": "3cc6f1fc2a5d30eb3ad130937afeeb39", "is_disabled": 0, "rental_uris": {"android": "https://dc.lft.to/lastmile_qr_scan", "ios": "https://dc.lft.to/lastmile_qr_scan"}, "fusion_lon": 0.0, "lat": 38.91161833333334, "bike_id": "3cc6f1fc2a5d30eb3ad130937afeeb39", "type": "electric_bike", "is_reserved": 0, "lon": -77.00273833333334}, {"fusion_lat": 0.0, "name": "a934c95ac538d45009ddfc1872e45750", "is_disabled": 0, "rental_uris": {"android": "https://dc.lft.to/lastmile_qr_scan", "ios": "https://dc.lft.to/lastmile_qr_scan"}, "fusion_lon": 0.0, "lat": 38.877224, "bike_id": "a934c95ac538d45009ddfc1872e45750", "type": "electric_scooter", "is_reserved": 0, "lon": -77.00326833333334}, {"fusion_lat": 0.0, "name": "c882dc727e52717c63043182de94630b", "is_disabled": 0, "rental_uris": {"android": "https://dc.lft.to/lastmile_qr_scan", "ios": "https://dc.lft.to/lastmile_qr_scan"}, "fusion_lon": 0.0, "lat": 38.925384, "bike_id": "c882dc727e52717c63043182de94630b", "type": "electric_scooter", "is_reserved": 0, "lon": -77.051163}, {"fusion_lat": 0.0, "name": "ffcb72ef5fc2e2997c5033c1b0fb39f0", "is_disabled": 0, "rental_uris": {"android": "https://dc.lft.to/lastmile_qr_scan", "ios": "https://dc.lft.to/lastmile_qr_scan"}, "fusion_lon": 0.0, "lat": 38.945046833333336, "bike_id": "ffcb72ef5fc2e2997c5033c1b0fb39f0", "type": "electric_scooter", "is_reserved": 0, "lon": -77.03151}, {"fusion_lat": 0.0, "name": "2a6dbf1360ffd735d06e4de05f8287d3", "is_disabled": 0, "rental_uris": {"android": "https://dc.lft.to/lastmile_qr_scan", "ios": "https://dc.lft.to/lastmile_qr_scan"}, "fusion_lon": 0.0, "lat": 38.905164, "bike_id": "2a6dbf1360ffd735d06e4de05f8287d3", "type": "electric_scooter", "is_reserved": 0, "lon": -77.06433333333334}, {"fusion_lat": 0.0, "name": "55d8161aa6b32cc8cab2835e7d8c1d6b", "is_disabled": 0, "rental_uris": {"android": "https://dc.lft.to/lastmile_qr_scan", "ios": "https://dc.lft.to/lastmile_qr_scan"}, "fusion_lon": 0.0, "lat": 38.962331166666665, "bike_id": "55d8161aa6b32cc8cab2835e7d8c1d6b", "type": "electric_bike", "is_reserved": 0, "lon": -77.02622016666666}, {"fusion_lat": 0.0, "name": "34b6588da164ac70df87ae8bd5c03521", "is_disabled": 0, "rental_uris": {"android": "https://dc.lft.to/lastmile_qr_scan", "ios": "https://dc.lft.to/lastmile_qr_scan"}, "fusion_lon": 0.0, "lat": 38.905245, "bike_id": "34b6588da164ac70df87ae8bd5c03521", "type": "electric_scooter", "is_reserved": 0, "lon": -77.0597045}, {"fusion_lat": 0.0, "name": "69f9c1ea1045ffad43033f21d49d2fd3", "is_disabled": 0, "rental_uris": {"android": "https://dc.lft.to/lastmile_qr_scan", "ios": "https://dc.lft.to/lastmile_qr_scan"}, "fusion_lon": 0.0, "lat": 38.91500883333333, "bike_id": "69f9c1ea1045ffad43033f21d49d2fd3", "type": "electric_scooter", "is_reserved": 0, "lon": -77.03181383333333}, {"fusion_lat": 0.0, "name": "5d34921378542f94d5969befefff73ba", "is_disabled": 0, "rental_uris": {"android": "https://dc.lft.to/lastmile_qr_scan", "ios": "https://dc.lft.to/lastmile_qr_scan"}, "fusion_lon": 0.0, "lat": 38.923435833333336, "bike_id": "5d34921378542f94d5969befefff73ba", "type": "electric_scooter", "is_reserved": 0, "lon": -77.001849}, {"fusion_lat": 0.0, "name": "b41fb0a2c8f25a08c000d7ccf3e882a2", "is_disabled": 0, "rental_uris": {"android": "https://dc.lft.to/lastmile_qr_scan", "ios": "https://dc.lft.to/lastmile_qr_scan"}, "fusion_lon": 0.0, "lat": 38.9056095, "bike_id": "b41fb0a2c8f25a08c000d7ccf3e882a2", "type": "electric_scooter", "is_reserved": 0, "lon": -77.0058095}, {"fusion_lat": 0.0, "name": "8b2eac461dd2c37c408a2657a77acb1b", "is_disabled": 0, "rental_uris": {"android": "https://dc.lft.to/lastmile_qr_scan", "ios": "https://dc.lft.to/lastmile_qr_scan"}, "fusion_lon": 0.0, "lat": 38.93915633333334, "bike_id": "8b2eac461dd2c37c408a2657a77acb1b", "type": "electric_scooter", "is_reserved": 0, "lon": -77.02797333333334}, {"fusion_lat": 0.0, "name": "266a5a49dc6c82f694a09e8bf86b46d9", "is_disabled": 0, "rental_uris": {"android": "https://dc.lft.to/lastmile_qr_scan", "ios": "https://dc.lft.to/lastmile_qr_scan"}, "fusion_lon": 0.0, "lat": 38.91029833333333, "bike_id": "266a5a49dc6c82f694a09e8bf86b46d9", "type": "electric_scooter", "is_reserved": 0, "lon": -77.00757833333333}, {"fusion_lat": 0.0, "name": "49fb9642aa4eda25969aa6612e4f86c4", "is_disabled": 0, "rental_uris": {"android": "https://dc.lft.to/lastmile_qr_scan", "ios": "https://dc.lft.to/lastmile_qr_scan"}, "fusion_lon": 0.0, "lat": 38.8842625, "bike_id": "49fb9642aa4eda25969aa6612e4f86c4", "type": "electric_scooter", "is_reserved": 0, "lon": -77.01981816666667}, {"fusion_lat": 0.0, "name": "2ea077882c3ba7c4ce028586f21f1e33", "is_disabled": 0, "rental_uris": {"android": "https://dc.lft.to/lastmile_qr_scan", "ios": "https://dc.lft.to/lastmile_qr_scan"}, "fusion_lon": 0.0, "lat": 38.9002465, "bike_id": "2ea077882c3ba7c4ce028586f21f1e33", "type": "electric_scooter", "is_reserved": 0, "lon": -76.99134966666666}, {"fusion_lat": 0.0, "name": "3189fa3d3ab6f9b82417d02f8c613990", "is_disabled": 0, "rental_uris": {"android": "https://dc.lft.to/lastmile_qr_scan", "ios": "https://dc.lft.to/lastmile_qr_scan"}, "fusion_lon": 0.0, "lat": 38.961452666666666, "bike_id": "3189fa3d3ab6f9b82417d02f8c613990", "type": "electric_bike", "is_reserved": 0, "lon": -77.03244766666667}, {"fusion_lat": 0.0, "name": "62bf690f4b6bd912452059e441a2776d", "is_disabled": 0, "rental_uris": {"android": "https://dc.lft.to/lastmile_qr_scan", "ios": "https://dc.lft.to/lastmile_qr_scan"}, "fusion_lon": 0.0, "lat": 38.899331333333336, "bike_id": "62bf690f4b6bd912452059e441a2776d", "type": "electric_scooter", "is_reserved": 0, "lon": -77.00357816666667}, {"fusion_lat": 0.0, "name": "b391ada8b02eb9132e2338d55d4d7fbc", "is_disabled": 0, "rental_uris": {"android": "https://dc.lft.to/lastmile_qr_scan", "ios": "https://dc.lft.to/lastmile_qr_scan"}, "fusion_lon": 0.0, "lat": 38.937076833333336, "bike_id": "b391ada8b02eb9132e2338d55d4d7fbc", "type": "electric_scooter", "is_reserved": 0, "lon": -77.0239965}, {"fusion_lat": 0.0, "name": "010fce14863585cfebcfcc8f5c058d38", "is_disabled": 0, "rental_uris": {"android": "https://dc.lft.to/lastmile_qr_scan", "ios": "https://dc.lft.to/lastmile_qr_scan"}, "fusion_lon": 0.0, "lat": 38.90028483333333, "bike_id": "010fce14863585cfebcfcc8f5c058d38", "type": "electric_scooter", "is_reserved": 0, "lon": -76.9977255}, {"fusion_lat": 0.0, "name": "ea39850c10aa8d049961c85bda169e39", "is_disabled": 0, "rental_uris": {"android": "https://dc.lft.to/lastmile_qr_scan", "ios": "https://dc.lft.to/lastmile_qr_scan"}, "fusion_lon": 0.0, "lat": 38.9025085, "bike_id": "ea39850c10aa8d049961c85bda169e39", "type": "electric_scooter", "is_reserved": 0, "lon": -77.01939083333333}, {"fusion_lat": 0.0, "name": "28b467e0459516b68a13040a5f93b0d5", "is_disabled": 0, "rental_uris": {"android": "https://dc.lft.to/lastmile_qr_scan", "ios": "https://dc.lft.to/lastmile_qr_scan"}, "fusion_lon": 0.0, "lat": 38.918440333333336, "bike_id": "28b467e0459516b68a13040a5f93b0d5", "type": "electric_scooter", "is_reserved": 0, "lon": -76.96534733333333}, {"fusion_lat": 0.0, "name": "d4a0b057e886a1b99a3d70b7a27d67f8", "is_disabled": 0, "rental_uris": {"android": "https://dc.lft.to/lastmile_qr_scan", "ios": "https://dc.lft.to/lastmile_qr_scan"}, "fusion_lon": 0.0, "lat": 38.91354033333333, "bike_id": "d4a0b057e886a1b99a3d70b7a27d67f8", "type": "electric_scooter", "is_reserved": 0, "lon": -77.0332985}, {"fusion_lat": 0.0, "name": "43eff8738670e9aea3ef8d4adcb2a4a3", "is_disabled": 0, "rental_uris": {"android": "https://dc.lft.to/lastmile_qr_scan", "ios": "https://dc.lft.to/lastmile_qr_scan"}, "fusion_lon": 0.0, "lat": 38.901058666666664, "bike_id": "43eff8738670e9aea3ef8d4adcb2a4a3", "type": "electric_scooter", "is_reserved": 0, "lon": -77.02434516666666}, {"fusion_lat": 0.0, "name": "18b90e9ae3bf1a02f5a4c3929f5445a9", "is_disabled": 0, "rental_uris": {"android": "https://dc.lft.to/lastmile_qr_scan", "ios": "https://dc.lft.to/lastmile_qr_scan"}, "fusion_lon": 0.0, "lat": 38.91664383333333, "bike_id": "18b90e9ae3bf1a02f5a4c3929f5445a9", "type": "electric_scooter", "is_reserved": 0, "lon": -77.02822066666667}, {"fusion_lat": 0.0, "name": "9843aa860891a33b3639ce3e10fce8c3", "is_disabled": 0, "rental_uris": {"android": "https://dc.lft.to/lastmile_qr_scan", "ios": "https://dc.lft.to/lastmile_qr_scan"}, "fusion_lon": 0.0, "lat": 38.984758166666666, "bike_id": "9843aa860891a33b3639ce3e10fce8c3", "type": "electric_scooter", "is_reserved": 0, "lon": -77.02637983333334}, {"fusion_lat": 0.0, "name": "61d3c803bcc59d2f895067c3a2df20ea", "is_disabled": 0, "rental_uris": {"android": "https://dc.lft.to/lastmile_qr_scan", "ios": "https://dc.lft.to/lastmile_qr_scan"}, "fusion_lon": 0.0, "lat": 38.90185983333333, "bike_id": "61d3c803bcc59d2f895067c3a2df20ea", "type": "electric_scooter", "is_reserved": 0, "lon": -77.0260165}, {"fusion_lat": 0.0, "name": "95d7cf13fb7c9f097708d9a47e028018", "is_disabled": 0, "rental_uris": {"android": "https://dc.lft.to/lastmile_qr_scan", "ios": "https://dc.lft.to/lastmile_qr_scan"}, "fusion_lon": 0.0, "lat": 38.9213765, "bike_id": "95d7cf13fb7c9f097708d9a47e028018", "type": "electric_scooter", "is_reserved": 0, "lon": -77.01800166666666}, {"fusion_lat": 0.0, "name": "eaad84b97c78cead128bb27c49d2b9d2", "is_disabled": 0, "rental_uris": {"android": "https://dc.lft.to/lastmile_qr_scan", "ios": "https://dc.lft.to/lastmile_qr_scan"}, "fusion_lon": 0.0, "lat": 38.926588, "bike_id": "eaad84b97c78cead128bb27c49d2b9d2", "type": "electric_scooter", "is_reserved": 0, "lon": -77.03711633333333}, {"fusion_lat": 0.0, "name": "9d5a66b11939b5e78ce46c7ee5d588d1", "is_disabled": 0, "rental_uris": {"android": "https://dc.lft.to/lastmile_qr_scan", "ios": "https://dc.lft.to/lastmile_qr_scan"}, "fusion_lon": 0.0, "lat": 38.88761933333333, "bike_id": "9d5a66b11939b5e78ce46c7ee5d588d1", "type": "electric_scooter", "is_reserved": 0, "lon": -76.99465933333333}, {"fusion_lat": 0.0, "name": "62fe16bc33357bbc074e55d4a92d604e", "is_disabled": 0, "rental_uris": {"android": "https://dc.lft.to/lastmile_qr_scan", "ios": "https://dc.lft.to/lastmile_qr_scan"}, "fusion_lon": 0.0, "lat": 38.92485466666667, "bike_id": "62fe16bc33357bbc074e55d4a92d604e", "type": "electric_scooter", "is_reserved": 0, "lon": -77.0283955}, {"fusion_lat": 0.0, "name": "f694a0278071d9ead468a12a99dad836", "is_disabled": 0, "rental_uris": {"android": "https://dc.lft.to/lastmile_qr_scan", "ios": "https://dc.lft.to/lastmile_qr_scan"}, "fusion_lon": 0.0, "lat": 38.91607283333333, "bike_id": "f694a0278071d9ead468a12a99dad836", "type": "electric_scooter", "is_reserved": 0, "lon": -77.0460585}, {"fusion_lat": 0.0, "name": "cb53b700755d27967174db3471122d26", "is_disabled": 0, "rental_uris": {"android": "https://dc.lft.to/lastmile_qr_scan", "ios": "https://dc.lft.to/lastmile_qr_scan"}, "fusion_lon": 0.0, "lat": 38.916198, "bike_id": "cb53b700755d27967174db3471122d26", "type": "electric_scooter", "is_reserved": 0, "lon": -77.04548683333333}, {"fusion_lat": 0.0, "name": "292f5c4b795b6f6ee5c343fad043cb37", "is_disabled": 0, "rental_uris": {"android": "https://dc.lft.to/lastmile_qr_scan", "ios": "https://dc.lft.to/lastmile_qr_scan"}, "fusion_lon": 0.0, "lat": 38.91455416666667, "bike_id": "292f5c4b795b6f6ee5c343fad043cb37", "type": "electric_scooter", "is_reserved": 0, "lon": -77.0722565}, {"fusion_lat": 0.0, "name": "c9768789cd169d3f0bdc7cf9cbe598cc", "is_disabled": 0, "rental_uris": {"android": "https://dc.lft.to/lastmile_qr_scan", "ios": "https://dc.lft.to/lastmile_qr_scan"}, "fusion_lon": 0.0, "lat": 38.9205255, "bike_id": "c9768789cd169d3f0bdc7cf9cbe598cc", "type": "electric_scooter", "is_reserved": 0, "lon": -77.04406233333333}, {"fusion_lat": 0.0, "name": "01f61699460d506f3927fe71a76e8b9f", "is_disabled": 0, "rental_uris": {"android": "https://dc.lft.to/lastmile_qr_scan", "ios": "https://dc.lft.to/lastmile_qr_scan"}, "fusion_lon": 0.0, "lat": 38.9131575, "bike_id": "01f61699460d506f3927fe71a76e8b9f", "type": "electric_scooter", "is_reserved": 0, "lon": -77.014368}, {"fusion_lat": 0.0, "name": "58948114dd0f213a80c2bf293d2fee30", "is_disabled": 0, "rental_uris": {"android": "https://dc.lft.to/lastmile_qr_scan", "ios": "https://dc.lft.to/lastmile_qr_scan"}, "fusion_lon": 0.0, "lat": 38.92266516666667, "bike_id": "58948114dd0f213a80c2bf293d2fee30", "type": "electric_scooter", "is_reserved": 0, "lon": -77.03664266666667}, {"fusion_lat": 0.0, "name": "df8f1ad64515364130e9d28f66b9a887", "is_disabled": 0, "rental_uris": {"android": "https://dc.lft.to/lastmile_qr_scan", "ios": "https://dc.lft.to/lastmile_qr_scan"}, "fusion_lon": 0.0, "lat": 38.922909833333335, "bike_id": "df8f1ad64515364130e9d28f66b9a887", "type": "electric_scooter", "is_reserved": 0, "lon": -77.0424895}, {"fusion_lat": 0.0, "name": "442d08e3335ad226cb7f7cd745bbb097", "is_disabled": 0, "rental_uris": {"android": "https://dc.lft.to/lastmile_qr_scan", "ios": "https://dc.lft.to/lastmile_qr_scan"}, "fusion_lon": 0.0, "lat": 38.9274075, "bike_id": "442d08e3335ad226cb7f7cd745bbb097", "type": "electric_scooter", "is_reserved": 0, "lon": -77.03384733333333}, {"fusion_lat": 0.0, "name": "f95567b6e643fb513c695be30c524074", "is_disabled": 0, "rental_uris": {"android": "https://dc.lft.to/lastmile_qr_scan", "ios": "https://dc.lft.to/lastmile_qr_scan"}, "fusion_lon": 0.0, "lat": 38.877493333333334, "bike_id": "f95567b6e643fb513c695be30c524074", "type": "electric_scooter", "is_reserved": 0, "lon": -77.0035}, {"fusion_lat": 0.0, "name": "93dc76c726c0cac8e814ea258684c7bb", "is_disabled": 0, "rental_uris": {"android": "https://dc.lft.to/lastmile_qr_scan", "ios": "https://dc.lft.to/lastmile_qr_scan"}, "fusion_lon": 0.0, "lat": 38.8965975, "bike_id": "93dc76c726c0cac8e814ea258684c7bb", "type": "electric_scooter", "is_reserved": 0, "lon": -77.05133183333334}, {"fusion_lat": 0.0, "name": "45d0a65ac74cda58cce9a93c91feb08c", "is_disabled": 0, "rental_uris": {"android": "https://dc.lft.to/lastmile_qr_scan", "ios": "https://dc.lft.to/lastmile_qr_scan"}, "fusion_lon": 0.0, "lat": 38.876650166666664, "bike_id": "45d0a65ac74cda58cce9a93c91feb08c", "type": "electric_scooter", "is_reserved": 0, "lon": -76.99625266666666}, {"fusion_lat": 0.0, "name": "c74f01cb0f8599cbad4ac52763f14cca", "is_disabled": 0, "rental_uris": {"android": "https://dc.lft.to/lastmile_qr_scan", "ios": "https://dc.lft.to/lastmile_qr_scan"}, "fusion_lon": 0.0, "lat": 38.9247955, "bike_id": "c74f01cb0f8599cbad4ac52763f14cca", "type": "electric_scooter", "is_reserved": 0, "lon": -77.03919433333333}, {"fusion_lat": 0.0, "name": "62ade531b3e9df51ca15e3c67a9638a8", "is_disabled": 0, "rental_uris": {"android": "https://dc.lft.to/lastmile_qr_scan", "ios": "https://dc.lft.to/lastmile_qr_scan"}, "fusion_lon": 0.0, "lat": 38.906225666666664, "bike_id": "62ade531b3e9df51ca15e3c67a9638a8", "type": "electric_scooter", "is_reserved": 0, "lon": -77.06293616666666}, {"fusion_lat": 0.0, "name": "9cb52dcb38b6716c093b7142d98ba30e", "is_disabled": 0, "rental_uris": {"android": "https://dc.lft.to/lastmile_qr_scan", "ios": "https://dc.lft.to/lastmile_qr_scan"}, "fusion_lon": 0.0, "lat": 38.90066783333333, "bike_id": "9cb52dcb38b6716c093b7142d98ba30e", "type": "electric_scooter", "is_reserved": 0, "lon": -76.92743616666667}, {"fusion_lat": 0.0, "name": "01b9de770c620a899ee9eade0752c712", "is_disabled": 0, "rental_uris": {"android": "https://dc.lft.to/lastmile_qr_scan", "ios": "https://dc.lft.to/lastmile_qr_scan"}, "fusion_lon": 0.0, "lat": 38.880315333333336, "bike_id": "01b9de770c620a899ee9eade0752c712", "type": "electric_scooter", "is_reserved": 0, "lon": -77.02501433333333}, {"fusion_lat": 0.0, "name": "7434634b7d23cbef6d144c9666016d28", "is_disabled": 0, "rental_uris": {"android": "https://dc.lft.to/lastmile_qr_scan", "ios": "https://dc.lft.to/lastmile_qr_scan"}, "fusion_lon": 0.0, "lat": 38.877500166666664, "bike_id": "7434634b7d23cbef6d144c9666016d28", "type": "electric_scooter", "is_reserved": 0, "lon": -77.0142425}, {"fusion_lat": 0.0, "name": "07c050e80fee0bdbc5e5d5fcc9358c19", "is_disabled": 0, "rental_uris": {"android": "https://dc.lft.to/lastmile_qr_scan", "ios": "https://dc.lft.to/lastmile_qr_scan"}, "fusion_lon": 0.0, "lat": 38.89548683333334, "bike_id": "07c050e80fee0bdbc5e5d5fcc9358c19", "type": "electric_scooter", "is_reserved": 0, "lon": -76.94965}, {"fusion_lat": 0.0, "name": "408ce42ad1cf6bc3af4493a03e7b6cd7", "is_disabled": 0, "rental_uris": {"android": "https://dc.lft.to/lastmile_qr_scan", "ios": "https://dc.lft.to/lastmile_qr_scan"}, "fusion_lon": 0.0, "lat": 38.9230985, "bike_id": "408ce42ad1cf6bc3af4493a03e7b6cd7", "type": "electric_scooter", "is_reserved": 0, "lon": -77.036618}, {"fusion_lat": 0.0, "name": "747c3b93eaf93905e3e5555dcb44491d", "is_disabled": 0, "rental_uris": {"android": "https://dc.lft.to/lastmile_qr_scan", "ios": "https://dc.lft.to/lastmile_qr_scan"}, "fusion_lon": 0.0, "lat": 38.91516216666667, "bike_id": "747c3b93eaf93905e3e5555dcb44491d", "type": "electric_scooter", "is_reserved": 0, "lon": -77.02700583333333}, {"fusion_lat": 0.0, "name": "510fb8627f4eb079568cec0843e55d93", "is_disabled": 0, "rental_uris": {"android": "https://dc.lft.to/lastmile_qr_scan", "ios": "https://dc.lft.to/lastmile_qr_scan"}, "fusion_lon": 0.0, "lat": 38.94523916666667, "bike_id": "510fb8627f4eb079568cec0843e55d93", "type": "electric_scooter", "is_reserved": 0, "lon": -77.02273066666666}, {"fusion_lat": 0.0, "name": "a369f9afec7973a2bd6a2dd9b9856be9", "is_disabled": 0, "rental_uris": {"android": "https://dc.lft.to/lastmile_qr_scan", "ios": "https://dc.lft.to/lastmile_qr_scan"}, "fusion_lon": 0.0, "lat": 38.877097, "bike_id": "a369f9afec7973a2bd6a2dd9b9856be9", "type": "electric_scooter", "is_reserved": 0, "lon": -76.993833}, {"fusion_lat": 0.0, "name": "4e6e02592d517255fa4aa50446cff02f", "is_disabled": 0, "rental_uris": {"android": "https://dc.lft.to/lastmile_qr_scan", "ios": "https://dc.lft.to/lastmile_qr_scan"}, "fusion_lon": 0.0, "lat": 38.935045333333335, "bike_id": "4e6e02592d517255fa4aa50446cff02f", "type": "electric_scooter", "is_reserved": 0, "lon": -77.07363733333334}, {"fusion_lat": 0.0, "name": "c95d2ede437976c8f6de044320854298", "is_disabled": 0, "rental_uris": {"android": "https://dc.lft.to/lastmile_qr_scan", "ios": "https://dc.lft.to/lastmile_qr_scan"}, "fusion_lon": 0.0, "lat": 38.8934125, "bike_id": "c95d2ede437976c8f6de044320854298", "type": "electric_scooter", "is_reserved": 0, "lon": -76.94817866666666}, {"fusion_lat": 0.0, "name": "b948f1f22012a3b1f131e22d47b56192", "is_disabled": 0, "rental_uris": {"android": "https://dc.lft.to/lastmile_qr_scan", "ios": "https://dc.lft.to/lastmile_qr_scan"}, "fusion_lon": 0.0, "lat": 38.926528833333336, "bike_id": "b948f1f22012a3b1f131e22d47b56192", "type": "electric_scooter", "is_reserved": 0, "lon": -77.03713}, {"fusion_lat": 0.0, "name": "079936f829923ffc068916cdec4b5849", "is_disabled": 0, "rental_uris": {"android": "https://dc.lft.to/lastmile_qr_scan", "ios": "https://dc.lft.to/lastmile_qr_scan"}, "fusion_lon": 0.0, "lat": 38.89193916666667, "bike_id": "079936f829923ffc068916cdec4b5849", "type": "electric_scooter", "is_reserved": 0, "lon": -77.02230733333333}, {"fusion_lat": 0.0, "name": "5f4dfb29fba9eed9d88aba099e32ba90", "is_disabled": 0, "rental_uris": {"android": "https://dc.lft.to/lastmile_qr_scan", "ios": "https://dc.lft.to/lastmile_qr_scan"}, "fusion_lon": 0.0, "lat": 38.983904333333335, "bike_id": "5f4dfb29fba9eed9d88aba099e32ba90", "type": "electric_scooter", "is_reserved": 0, "lon": -77.02631516666666}, {"fusion_lat": 0.0, "name": "2a30110aa43b0db3e68c09ab94f857ff", "is_disabled": 0, "rental_uris": {"android": "https://dc.lft.to/lastmile_qr_scan", "ios": "https://dc.lft.to/lastmile_qr_scan"}, "fusion_lon": 0.0, "lat": 38.91778466666667, "bike_id": "2a30110aa43b0db3e68c09ab94f857ff", "type": "electric_scooter", "is_reserved": 0, "lon": -77.04097266666666}, {"fusion_lat": 0.0, "name": "83f45b161c9744102f13768bd2e3f2d2", "is_disabled": 0, "rental_uris": {"android": "https://dc.lft.to/lastmile_qr_scan", "ios": "https://dc.lft.to/lastmile_qr_scan"}, "fusion_lon": 0.0, "lat": 38.88126916666667, "bike_id": "83f45b161c9744102f13768bd2e3f2d2", "type": "electric_scooter", "is_reserved": 0, "lon": -77.01646116666667}, {"fusion_lat": 0.0, "name": "b8af130f3bc6ddbc4a6a90dd67efbfc6", "is_disabled": 0, "rental_uris": {"android": "https://dc.lft.to/lastmile_qr_scan", "ios": "https://dc.lft.to/lastmile_qr_scan"}, "fusion_lon": 0.0, "lat": 38.90022733333333, "bike_id": "b8af130f3bc6ddbc4a6a90dd67efbfc6", "type": "electric_scooter", "is_reserved": 0, "lon": -76.98854766666666}, {"fusion_lat": 0.0, "name": "cbdb68a755c47d66c5b4faa248b50b76", "is_disabled": 0, "rental_uris": {"android": "https://dc.lft.to/lastmile_qr_scan", "ios": "https://dc.lft.to/lastmile_qr_scan"}, "fusion_lon": 0.0, "lat": 38.92077666666667, "bike_id": "cbdb68a755c47d66c5b4faa248b50b76", "type": "electric_scooter", "is_reserved": 0, "lon": -77.004441}, {"fusion_lat": 0.0, "name": "7c8f08f565b7084cf61528604bd1a70f", "is_disabled": 0, "rental_uris": {"android": "https://dc.lft.to/lastmile_qr_scan", "ios": "https://dc.lft.to/lastmile_qr_scan"}, "fusion_lon": 0.0, "lat": 38.93380616666666, "bike_id": "7c8f08f565b7084cf61528604bd1a70f", "type": "electric_scooter", "is_reserved": 0, "lon": -77.038866}, {"fusion_lat": 0.0, "name": "a66ef6b73794e180dea5819c738d78e9", "is_disabled": 0, "rental_uris": {"android": "https://dc.lft.to/lastmile_qr_scan", "ios": "https://dc.lft.to/lastmile_qr_scan"}, "fusion_lon": 0.0, "lat": 38.87491416666667, "bike_id": "a66ef6b73794e180dea5819c738d78e9", "type": "electric_scooter", "is_reserved": 0, "lon": -77.00042266666667}, {"fusion_lat": 0.0, "name": "79ed24543dcf0ce55531448f199ed4c4", "is_disabled": 0, "rental_uris": {"android": "https://dc.lft.to/lastmile_qr_scan", "ios": "https://dc.lft.to/lastmile_qr_scan"}, "fusion_lon": 0.0, "lat": 38.90495083333333, "bike_id": "79ed24543dcf0ce55531448f199ed4c4", "type": "electric_scooter", "is_reserved": 0, "lon": -77.04868}, {"fusion_lat": 0.0, "name": "2eaf967d00becd5363931b747b7f183f", "is_disabled": 0, "rental_uris": {"android": "https://dc.lft.to/lastmile_qr_scan", "ios": "https://dc.lft.to/lastmile_qr_scan"}, "fusion_lon": 0.0, "lat": 38.9197125, "bike_id": "2eaf967d00becd5363931b747b7f183f", "type": "electric_scooter", "is_reserved": 0, "lon": -77.032121}, {"fusion_lat": 0.0, "name": "8d2bfa7d575260866a00ab27a0bbf184", "is_disabled": 0, "rental_uris": {"android": "https://dc.lft.to/lastmile_qr_scan", "ios": "https://dc.lft.to/lastmile_qr_scan"}, "fusion_lon": 0.0, "lat": 38.903838666666665, "bike_id": "8d2bfa7d575260866a00ab27a0bbf184", "type": "electric_scooter", "is_reserved": 0, "lon": -77.0459845}, {"fusion_lat": 0.0, "name": "32a9b9fc56568f553168f440a214b3a0", "is_disabled": 0, "rental_uris": {"android": "https://dc.lft.to/lastmile_qr_scan", "ios": "https://dc.lft.to/lastmile_qr_scan"}, "fusion_lon": 0.0, "lat": 38.8831205, "bike_id": "32a9b9fc56568f553168f440a214b3a0", "type": "electric_scooter", "is_reserved": 0, "lon": -76.9949195}, {"fusion_lat": 0.0, "name": "7b90489c28d82f8b39f13b7546edf1e5", "is_disabled": 0, "rental_uris": {"android": "https://dc.lft.to/lastmile_qr_scan", "ios": "https://dc.lft.to/lastmile_qr_scan"}, "fusion_lon": 0.0, "lat": 38.95896583333333, "bike_id": "7b90489c28d82f8b39f13b7546edf1e5", "type": "electric_scooter", "is_reserved": 0, "lon": -77.007578}, {"fusion_lat": 0.0, "name": "8b9a72690e4201e6a880c625e3a523f9", "is_disabled": 0, "rental_uris": {"android": "https://dc.lft.to/lastmile_qr_scan", "ios": "https://dc.lft.to/lastmile_qr_scan"}, "fusion_lon": 0.0, "lat": 38.897014166666665, "bike_id": "8b9a72690e4201e6a880c625e3a523f9", "type": "electric_scooter", "is_reserved": 0, "lon": -77.0434635}, {"fusion_lat": 0.0, "name": "7df2926c6b2318d12e915f2dcc912750", "is_disabled": 0, "rental_uris": {"android": "https://dc.lft.to/lastmile_qr_scan", "ios": "https://dc.lft.to/lastmile_qr_scan"}, "fusion_lon": 0.0, "lat": 38.899552666666665, "bike_id": "7df2926c6b2318d12e915f2dcc912750", "type": "electric_scooter", "is_reserved": 0, "lon": -77.0151215}, {"fusion_lat": 0.0, "name": "4b1808ba57789e7a5cbe39ba75d46215", "is_disabled": 0, "rental_uris": {"android": "https://dc.lft.to/lastmile_qr_scan", "ios": "https://dc.lft.to/lastmile_qr_scan"}, "fusion_lon": 0.0, "lat": 38.90378033333333, "bike_id": "4b1808ba57789e7a5cbe39ba75d46215", "type": "electric_scooter", "is_reserved": 0, "lon": -77.05025066666667}, {"fusion_lat": 0.0, "name": "31a0cdcfe35e96e51724ad4ff25066d0", "is_disabled": 0, "rental_uris": {"android": "https://dc.lft.to/lastmile_qr_scan", "ios": "https://dc.lft.to/lastmile_qr_scan"}, "fusion_lon": 0.0, "lat": 38.936056, "bike_id": "31a0cdcfe35e96e51724ad4ff25066d0", "type": "electric_scooter", "is_reserved": 0, "lon": -77.02296266666667}, {"fusion_lat": 0.0, "name": "4b03b2a2e8b4095000dde256e1ec4ec1", "is_disabled": 0, "rental_uris": {"android": "https://dc.lft.to/lastmile_qr_scan", "ios": "https://dc.lft.to/lastmile_qr_scan"}, "fusion_lon": 0.0, "lat": 38.95874583333333, "bike_id": "4b03b2a2e8b4095000dde256e1ec4ec1", "type": "electric_bike", "is_reserved": 0, "lon": -76.97053266666667}, {"fusion_lat": 0.0, "name": "92021a06c95c1e7b2848ecf9d5a91ef3", "is_disabled": 0, "rental_uris": {"android": "https://dc.lft.to/lastmile_qr_scan", "ios": "https://dc.lft.to/lastmile_qr_scan"}, "fusion_lon": 0.0, "lat": 38.95216, "bike_id": "92021a06c95c1e7b2848ecf9d5a91ef3", "type": "electric_bike", "is_reserved": 0, "lon": -77.00262933333333}, {"fusion_lat": 0.0, "name": "681e07d66462da715aeb1ddbc84d4c18", "is_disabled": 0, "rental_uris": {"android": "https://dc.lft.to/lastmile_qr_scan", "ios": "https://dc.lft.to/lastmile_qr_scan"}, "fusion_lon": 0.0, "lat": 38.9199055, "bike_id": "681e07d66462da715aeb1ddbc84d4c18", "type": "electric_scooter", "is_reserved": 0, "lon": -77.03328383333333}, {"fusion_lat": 0.0, "name": "eff85e80f5f004b41d315b61c42a58a0", "is_disabled": 0, "rental_uris": {"android": "https://dc.lft.to/lastmile_qr_scan", "ios": "https://dc.lft.to/lastmile_qr_scan"}, "fusion_lon": 0.0, "lat": 38.956361333333334, "bike_id": "eff85e80f5f004b41d315b61c42a58a0", "type": "electric_scooter", "is_reserved": 0, "lon": -77.03306716666667}, {"fusion_lat": 0.0, "name": "07e7b0218177aeeb2816023760619201", "is_disabled": 0, "rental_uris": {"android": "https://dc.lft.to/lastmile_qr_scan", "ios": "https://dc.lft.to/lastmile_qr_scan"}, "fusion_lon": 0.0, "lat": 38.90624316666667, "bike_id": "07e7b0218177aeeb2816023760619201", "type": "electric_scooter", "is_reserved": 0, "lon": -77.029713}, {"fusion_lat": 0.0, "name": "f816f358b260c9293089467fb6422739", "is_disabled": 0, "rental_uris": {"android": "https://dc.lft.to/lastmile_qr_scan", "ios": "https://dc.lft.to/lastmile_qr_scan"}, "fusion_lon": 0.0, "lat": 38.921875, "bike_id": "f816f358b260c9293089467fb6422739", "type": "electric_scooter", "is_reserved": 0, "lon": -77.0434685}, {"fusion_lat": 0.0, "name": "87587ad2492998c413ca4a6b70d56a06", "is_disabled": 0, "rental_uris": {"android": "https://dc.lft.to/lastmile_qr_scan", "ios": "https://dc.lft.to/lastmile_qr_scan"}, "fusion_lon": 0.0, "lat": 38.91996266666666, "bike_id": "87587ad2492998c413ca4a6b70d56a06", "type": "electric_scooter", "is_reserved": 0, "lon": -77.07190233333333}, {"fusion_lat": 0.0, "name": "5abc81cbba046d72c5eae6d202338c74", "is_disabled": 0, "rental_uris": {"android": "https://dc.lft.to/lastmile_qr_scan", "ios": "https://dc.lft.to/lastmile_qr_scan"}, "fusion_lon": 0.0, "lat": 38.8829965, "bike_id": "5abc81cbba046d72c5eae6d202338c74", "type": "electric_scooter", "is_reserved": 0, "lon": -76.94855916666667}, {"fusion_lat": 0.0, "name": "f395c6914c8025dda5eef15902a68c0d", "is_disabled": 0, "rental_uris": {"android": "https://dc.lft.to/lastmile_qr_scan", "ios": "https://dc.lft.to/lastmile_qr_scan"}, "fusion_lon": 0.0, "lat": 38.93581833333333, "bike_id": "f395c6914c8025dda5eef15902a68c0d", "type": "electric_scooter", "is_reserved": 0, "lon": -77.02847866666667}, {"fusion_lat": 0.0, "name": "82aa51698dc95602f80caa215aee7a4e", "is_disabled": 0, "rental_uris": {"android": "https://dc.lft.to/lastmile_qr_scan", "ios": "https://dc.lft.to/lastmile_qr_scan"}, "fusion_lon": 0.0, "lat": 38.882251833333335, "bike_id": "82aa51698dc95602f80caa215aee7a4e", "type": "electric_scooter", "is_reserved": 0, "lon": -77.02934866666666}, {"fusion_lat": 0.0, "name": "48eb309ef8140043a499c91c2a7e34f6", "is_disabled": 0, "rental_uris": {"android": "https://dc.lft.to/lastmile_qr_scan", "ios": "https://dc.lft.to/lastmile_qr_scan"}, "fusion_lon": 0.0, "lat": 38.952230666666665, "bike_id": "48eb309ef8140043a499c91c2a7e34f6", "type": "electric_scooter", "is_reserved": 0, "lon": -77.08217416666666}, {"fusion_lat": 0.0, "name": "0ce9cb1e56ac788bc123b14d0f976fa7", "is_disabled": 0, "rental_uris": {"android": "https://dc.lft.to/lastmile_qr_scan", "ios": "https://dc.lft.to/lastmile_qr_scan"}, "fusion_lon": 0.0, "lat": 38.9314895, "bike_id": "0ce9cb1e56ac788bc123b14d0f976fa7", "type": "electric_scooter", "is_reserved": 0, "lon": -77.0395525}, {"fusion_lat": 0.0, "name": "1a418da57857adffcda836532e53e441", "is_disabled": 0, "rental_uris": {"android": "https://dc.lft.to/lastmile_qr_scan", "ios": "https://dc.lft.to/lastmile_qr_scan"}, "fusion_lon": 0.0, "lat": 38.906637833333335, "bike_id": "1a418da57857adffcda836532e53e441", "type": "electric_scooter", "is_reserved": 0, "lon": -77.026944}, {"fusion_lat": 0.0, "name": "85b3947b3eeb9e2585113aed5be8db8c", "is_disabled": 0, "rental_uris": {"android": "https://dc.lft.to/lastmile_qr_scan", "ios": "https://dc.lft.to/lastmile_qr_scan"}, "fusion_lon": 0.0, "lat": 38.9485605, "bike_id": "85b3947b3eeb9e2585113aed5be8db8c", "type": "electric_scooter", "is_reserved": 0, "lon": -77.0257035}, {"fusion_lat": 0.0, "name": "0c0bf4ea56f76cccfdcd02bd1cd0e42e", "is_disabled": 0, "rental_uris": {"android": "https://dc.lft.to/lastmile_qr_scan", "ios": "https://dc.lft.to/lastmile_qr_scan"}, "fusion_lon": 0.0, "lat": 38.854074, "bike_id": "0c0bf4ea56f76cccfdcd02bd1cd0e42e", "type": "electric_bike", "is_reserved": 0, "lon": -77.12073716666667}, {"fusion_lat": 0.0, "name": "5be0495cfedbaa71d909f663fb24a138", "is_disabled": 0, "rental_uris": {"android": "https://dc.lft.to/lastmile_qr_scan", "ios": "https://dc.lft.to/lastmile_qr_scan"}, "fusion_lon": 0.0, "lat": 38.92050716666667, "bike_id": "5be0495cfedbaa71d909f663fb24a138", "type": "electric_scooter", "is_reserved": 0, "lon": -77.0339525}, {"fusion_lat": 0.0, "name": "18c81a7473a1037da8d28f91f57a2c68", "is_disabled": 0, "rental_uris": {"android": "https://dc.lft.to/lastmile_qr_scan", "ios": "https://dc.lft.to/lastmile_qr_scan"}, "fusion_lon": 0.0, "lat": 38.92962133333333, "bike_id": "18c81a7473a1037da8d28f91f57a2c68", "type": "electric_scooter", "is_reserved": 0, "lon": -77.02014066666666}, {"fusion_lat": 0.0, "name": "a14db4f6f5789dfdadba922921bcc901", "is_disabled": 0, "rental_uris": {"android": "https://dc.lft.to/lastmile_qr_scan", "ios": "https://dc.lft.to/lastmile_qr_scan"}, "fusion_lon": 0.0, "lat": 38.85894366666667, "bike_id": "a14db4f6f5789dfdadba922921bcc901", "type": "electric_bike", "is_reserved": 0, "lon": -77.09541583333333}, {"fusion_lat": 0.0, "name": "45f6cc981944a645f980366b38daa49f", "is_disabled": 0, "rental_uris": {"android": "https://dc.lft.to/lastmile_qr_scan", "ios": "https://dc.lft.to/lastmile_qr_scan"}, "fusion_lon": 0.0, "lat": 38.899464333333334, "bike_id": "45f6cc981944a645f980366b38daa49f", "type": "electric_scooter", "is_reserved": 0, "lon": -77.05359116666666}, {"fusion_lat": 0.0, "name": "08e7b292cb17592705da596a2965c1ff", "is_disabled": 0, "rental_uris": {"android": "https://dc.lft.to/lastmile_qr_scan", "ios": "https://dc.lft.to/lastmile_qr_scan"}, "fusion_lon": 0.0, "lat": 38.9095645, "bike_id": "08e7b292cb17592705da596a2965c1ff", "type": "electric_scooter", "is_reserved": 0, "lon": -77.02382783333333}, {"fusion_lat": 0.0, "name": "942d495ccdf01ba179d407b8c3e35933", "is_disabled": 0, "rental_uris": {"android": "https://dc.lft.to/lastmile_qr_scan", "ios": "https://dc.lft.to/lastmile_qr_scan"}, "fusion_lon": 0.0, "lat": 38.90939916666667, "bike_id": "942d495ccdf01ba179d407b8c3e35933", "type": "electric_scooter", "is_reserved": 0, "lon": -77.0212255}, {"fusion_lat": 0.0, "name": "4a0003c5103ea265babd4e24c0dc314e", "is_disabled": 0, "rental_uris": {"android": "https://dc.lft.to/lastmile_qr_scan", "ios": "https://dc.lft.to/lastmile_qr_scan"}, "fusion_lon": 0.0, "lat": 38.889884333333335, "bike_id": "4a0003c5103ea265babd4e24c0dc314e", "type": "electric_scooter", "is_reserved": 0, "lon": -76.99632166666666}, {"fusion_lat": 0.0, "name": "ee4e1fddfe8cd4e78bc365626f72646c", "is_disabled": 0, "rental_uris": {"android": "https://dc.lft.to/lastmile_qr_scan", "ios": "https://dc.lft.to/lastmile_qr_scan"}, "fusion_lon": 0.0, "lat": 38.9055855, "bike_id": "ee4e1fddfe8cd4e78bc365626f72646c", "type": "electric_scooter", "is_reserved": 0, "lon": -77.03439616666667}, {"fusion_lat": 0.0, "name": "bde316ed9c85f0c48c8b41ce86d200f6", "is_disabled": 0, "rental_uris": {"android": "https://dc.lft.to/lastmile_qr_scan", "ios": "https://dc.lft.to/lastmile_qr_scan"}, "fusion_lon": 0.0, "lat": 38.939475333333334, "bike_id": "bde316ed9c85f0c48c8b41ce86d200f6", "type": "electric_scooter", "is_reserved": 0, "lon": -77.03321166666667}, {"fusion_lat": 0.0, "name": "c99bf2f05c65301489b858c51330131b", "is_disabled": 0, "rental_uris": {"android": "https://dc.lft.to/lastmile_qr_scan", "ios": "https://dc.lft.to/lastmile_qr_scan"}, "fusion_lon": 0.0, "lat": 38.889901333333334, "bike_id": "c99bf2f05c65301489b858c51330131b", "type": "electric_scooter", "is_reserved": 0, "lon": -76.98739283333333}, {"fusion_lat": 0.0, "name": "d6d58d1736044703fba3103a9c9a6d83", "is_disabled": 0, "rental_uris": {"android": "https://dc.lft.to/lastmile_qr_scan", "ios": "https://dc.lft.to/lastmile_qr_scan"}, "fusion_lon": 0.0, "lat": 38.9003935, "bike_id": "d6d58d1736044703fba3103a9c9a6d83", "type": "electric_scooter", "is_reserved": 0, "lon": -77.00199183333334}, {"fusion_lat": 0.0, "name": "17cb2b1bbe68cc7e4c650dc3fed58ad3", "is_disabled": 0, "rental_uris": {"android": "https://dc.lft.to/lastmile_qr_scan", "ios": "https://dc.lft.to/lastmile_qr_scan"}, "fusion_lon": 0.0, "lat": 38.9173605, "bike_id": "17cb2b1bbe68cc7e4c650dc3fed58ad3", "type": "electric_scooter", "is_reserved": 0, "lon": -77.04829383333333}, {"fusion_lat": 0.0, "name": "6d56f1666deb1ae307369e01adc6e20c", "is_disabled": 0, "rental_uris": {"android": "https://dc.lft.to/lastmile_qr_scan", "ios": "https://dc.lft.to/lastmile_qr_scan"}, "fusion_lon": 0.0, "lat": 38.9126595, "bike_id": "6d56f1666deb1ae307369e01adc6e20c", "type": "electric_scooter", "is_reserved": 0, "lon": -77.04474766666667}, {"fusion_lat": 0.0, "name": "75421cd07b9b0fe677aced791f3f5c37", "is_disabled": 0, "rental_uris": {"android": "https://dc.lft.to/lastmile_qr_scan", "ios": "https://dc.lft.to/lastmile_qr_scan"}, "fusion_lon": 0.0, "lat": 38.90404083333333, "bike_id": "75421cd07b9b0fe677aced791f3f5c37", "type": "electric_scooter", "is_reserved": 0, "lon": -77.005771}, {"fusion_lat": 0.0, "name": "686be9e854409908991090d4c9d45b09", "is_disabled": 0, "rental_uris": {"android": "https://dc.lft.to/lastmile_qr_scan", "ios": "https://dc.lft.to/lastmile_qr_scan"}, "fusion_lon": 0.0, "lat": 38.913228, "bike_id": "686be9e854409908991090d4c9d45b09", "type": "electric_scooter", "is_reserved": 0, "lon": -77.0365285}, {"fusion_lat": 0.0, "name": "f3dcb6b8c6ccdf16871b35cc4c39887a", "is_disabled": 0, "rental_uris": {"android": "https://dc.lft.to/lastmile_qr_scan", "ios": "https://dc.lft.to/lastmile_qr_scan"}, "fusion_lon": 0.0, "lat": 38.896843, "bike_id": "f3dcb6b8c6ccdf16871b35cc4c39887a", "type": "electric_scooter", "is_reserved": 0, "lon": -77.0054935}, {"fusion_lat": 0.0, "name": "32b4b3b47c168d57a56e40196eefe82f", "is_disabled": 0, "rental_uris": {"android": "https://dc.lft.to/lastmile_qr_scan", "ios": "https://dc.lft.to/lastmile_qr_scan"}, "fusion_lon": 0.0, "lat": 38.88062433333333, "bike_id": "32b4b3b47c168d57a56e40196eefe82f", "type": "electric_scooter", "is_reserved": 0, "lon": -76.985034}, {"fusion_lat": 0.0, "name": "b7c68ff59697137c824f4374113bea10", "is_disabled": 0, "rental_uris": {"android": "https://dc.lft.to/lastmile_qr_scan", "ios": "https://dc.lft.to/lastmile_qr_scan"}, "fusion_lon": 0.0, "lat": 38.92272466666667, "bike_id": "b7c68ff59697137c824f4374113bea10", "type": "electric_scooter", "is_reserved": 0, "lon": -77.036746}, {"fusion_lat": 0.0, "name": "ae5d09884d22fad44b1dbb8dc6ab528c", "is_disabled": 0, "rental_uris": {"android": "https://dc.lft.to/lastmile_qr_scan", "ios": "https://dc.lft.to/lastmile_qr_scan"}, "fusion_lon": 0.0, "lat": 38.96670233333333, "bike_id": "ae5d09884d22fad44b1dbb8dc6ab528c", "type": "electric_scooter", "is_reserved": 0, "lon": -77.02548583333333}, {"fusion_lat": 0.0, "name": "631b4d8b9439a35dc67b94fc8a471d32", "is_disabled": 0, "rental_uris": {"android": "https://dc.lft.to/lastmile_qr_scan", "ios": "https://dc.lft.to/lastmile_qr_scan"}, "fusion_lon": 0.0, "lat": 38.897292666666665, "bike_id": "631b4d8b9439a35dc67b94fc8a471d32", "type": "electric_scooter", "is_reserved": 0, "lon": -77.04534416666667}, {"fusion_lat": 0.0, "name": "ad3a225abb1e78869580a6b9007cfd8e", "is_disabled": 0, "rental_uris": {"android": "https://dc.lft.to/lastmile_qr_scan", "ios": "https://dc.lft.to/lastmile_qr_scan"}, "fusion_lon": 0.0, "lat": 38.92816, "bike_id": "ad3a225abb1e78869580a6b9007cfd8e", "type": "electric_scooter", "is_reserved": 0, "lon": -77.04358833333333}, {"fusion_lat": 0.0, "name": "1fa97a8cb5b86847545bcf0a436fc567", "is_disabled": 0, "rental_uris": {"android": "https://dc.lft.to/lastmile_qr_scan", "ios": "https://dc.lft.to/lastmile_qr_scan"}, "fusion_lon": 0.0, "lat": 38.887411166666666, "bike_id": "1fa97a8cb5b86847545bcf0a436fc567", "type": "electric_scooter", "is_reserved": 0, "lon": -77.01533833333333}, {"fusion_lat": 0.0, "name": "9a0e319eaa628f3c190e0869063437c5", "is_disabled": 0, "rental_uris": {"android": "https://dc.lft.to/lastmile_qr_scan", "ios": "https://dc.lft.to/lastmile_qr_scan"}, "fusion_lon": 0.0, "lat": 38.928254, "bike_id": "9a0e319eaa628f3c190e0869063437c5", "type": "electric_scooter", "is_reserved": 0, "lon": -77.02257483333334}, {"fusion_lat": 0.0, "name": "00be0bd965a07f8a2e321b5756aac3b9", "is_disabled": 0, "rental_uris": {"android": "https://dc.lft.to/lastmile_qr_scan", "ios": "https://dc.lft.to/lastmile_qr_scan"}, "fusion_lon": 0.0, "lat": 38.9249635, "bike_id": "00be0bd965a07f8a2e321b5756aac3b9", "type": "electric_scooter", "is_reserved": 0, "lon": -77.05752933333333}, {"fusion_lat": 0.0, "name": "22b7a1b898bb6589be552d8fda50eab5", "is_disabled": 0, "rental_uris": {"android": "https://dc.lft.to/lastmile_qr_scan", "ios": "https://dc.lft.to/lastmile_qr_scan"}, "fusion_lon": 0.0, "lat": 38.92613633333333, "bike_id": "22b7a1b898bb6589be552d8fda50eab5", "type": "electric_scooter", "is_reserved": 0, "lon": -77.03961383333333}, {"fusion_lat": 0.0, "name": "52b9910793d55fae114a800e6f81ab74", "is_disabled": 0, "rental_uris": {"android": "https://dc.lft.to/lastmile_qr_scan", "ios": "https://dc.lft.to/lastmile_qr_scan"}, "fusion_lon": 0.0, "lat": 38.89598816666667, "bike_id": "52b9910793d55fae114a800e6f81ab74", "type": "electric_scooter", "is_reserved": 0, "lon": -77.0252315}, {"fusion_lat": 0.0, "name": "25600f55a20ca817523ea778fd617a9a", "is_disabled": 0, "rental_uris": {"android": "https://dc.lft.to/lastmile_qr_scan", "ios": "https://dc.lft.to/lastmile_qr_scan"}, "fusion_lon": 0.0, "lat": 38.90956533333333, "bike_id": "25600f55a20ca817523ea778fd617a9a", "type": "electric_scooter", "is_reserved": 0, "lon": -77.0486225}, {"fusion_lat": 0.0, "name": "dce8826a602c34e73f456b5f6f1c00f5", "is_disabled": 0, "rental_uris": {"android": "https://dc.lft.to/lastmile_qr_scan", "ios": "https://dc.lft.to/lastmile_qr_scan"}, "fusion_lon": 0.0, "lat": 38.8968635, "bike_id": "dce8826a602c34e73f456b5f6f1c00f5", "type": "electric_scooter", "is_reserved": 0, "lon": -77.00798}, {"fusion_lat": 0.0, "name": "7b516ca4582e11e02b310873e43741e9", "is_disabled": 0, "rental_uris": {"android": "https://dc.lft.to/lastmile_qr_scan", "ios": "https://dc.lft.to/lastmile_qr_scan"}, "fusion_lon": 0.0, "lat": 38.90454833333333, "bike_id": "7b516ca4582e11e02b310873e43741e9", "type": "electric_scooter", "is_reserved": 0, "lon": -77.00164466666666}, {"fusion_lat": 0.0, "name": "7d2e8c83f196bc89c9a797682535b1b9", "is_disabled": 0, "rental_uris": {"android": "https://dc.lft.to/lastmile_qr_scan", "ios": "https://dc.lft.to/lastmile_qr_scan"}, "fusion_lon": 0.0, "lat": 38.885249, "bike_id": "7d2e8c83f196bc89c9a797682535b1b9", "type": "electric_scooter", "is_reserved": 0, "lon": -77.01521666666666}, {"fusion_lat": 0.0, "name": "4ad6a732d715325cad1a3c0e26967c34", "is_disabled": 0, "rental_uris": {"android": "https://dc.lft.to/lastmile_qr_scan", "ios": "https://dc.lft.to/lastmile_qr_scan"}, "fusion_lon": 0.0, "lat": 38.90427016666667, "bike_id": "4ad6a732d715325cad1a3c0e26967c34", "type": "electric_scooter", "is_reserved": 0, "lon": -76.94976066666666}, {"fusion_lat": 0.0, "name": "a071306d2e205f25fdd88f81c313411b", "is_disabled": 0, "rental_uris": {"android": "https://dc.lft.to/lastmile_qr_scan", "ios": "https://dc.lft.to/lastmile_qr_scan"}, "fusion_lon": 0.0, "lat": 38.94075433333333, "bike_id": "a071306d2e205f25fdd88f81c313411b", "type": "electric_scooter", "is_reserved": 0, "lon": -77.02383816666666}, {"fusion_lat": 0.0, "name": "d8ff0c397bf5567520313ee9df53d905", "is_disabled": 0, "rental_uris": {"android": "https://dc.lft.to/lastmile_qr_scan", "ios": "https://dc.lft.to/lastmile_qr_scan"}, "fusion_lon": 0.0, "lat": 38.909606333333336, "bike_id": "d8ff0c397bf5567520313ee9df53d905", "type": "electric_scooter", "is_reserved": 0, "lon": -77.01041583333334}, {"fusion_lat": 0.0, "name": "2685553b4efbf7a13590ddc1f23d2e64", "is_disabled": 0, "rental_uris": {"android": "https://dc.lft.to/lastmile_qr_scan", "ios": "https://dc.lft.to/lastmile_qr_scan"}, "fusion_lon": 0.0, "lat": 38.908381, "bike_id": "2685553b4efbf7a13590ddc1f23d2e64", "type": "electric_scooter", "is_reserved": 0, "lon": -77.034436}, {"fusion_lat": 0.0, "name": "44abab289880d6007cb321c075fed148", "is_disabled": 0, "rental_uris": {"android": "https://dc.lft.to/lastmile_qr_scan", "ios": "https://dc.lft.to/lastmile_qr_scan"}, "fusion_lon": 0.0, "lat": 38.907782833333336, "bike_id": "44abab289880d6007cb321c075fed148", "type": "electric_scooter", "is_reserved": 0, "lon": -77.01862916666667},