{"data": {"bikes": [{"fusion_lon": 0.0, "bike_id": "b62160b0fe6b65f58387bd7fb314a5d3", "lon": -77.07877266666667, "type": "electric_scooter", "is_disabled": 0, "rental_uris": {"ios": "https://dc.lft.to/lastmile_qr_scan", "android": "https://dc.lft.to/lastmile_qr_scan"}, "is_reserved": 0, "fusion_lat": 0.0, "name": "b62160b0fe6b65f58387bd7fb314a5d3", "lat": 38.893127166666666}, {"fusion_lon": 0.0, "bike_id": "0fd969899de6d6a437e19890afd12284", "lon": -77.03843616666667, "type": "electric_scooter", "is_disabled": 0, "rental_uris": {"ios": "https://dc.lft.to/lastmile_qr_scan", "android": "https://dc.lft.to/lastmile_qr_scan"}, "is_reserved": 0, "fusion_lat": 0.0, "name": "0fd969899de6d6a437e19890afd12284", "lat": 38.90773183333334}, {"fusion_lon": 0.0, "bike_id": "deb867c21273c6f513786c50c14f7a14", "lon": -77.04677733333334, "type": "electric_scooter", "is_disabled": 0, "rental_uris": {"ios": "https://dc.lft.to/lastmile_qr_scan", "android": "https://dc.lft.to/lastmile_qr_scan"}, "is_reserved": 0, "fusion_lat": 0.0, "name": "deb867c21273c6f513786c50c14f7a14", "lat": 38.89556833333333}, {"fusion_lon": 0.0, "bike_id": "22e7b338e04b20cb3ca098ea2db281a4", "lon": -77.03628466666666, "type": "electric_scooter", "is_disabled": 0, "rental_uris": {"ios": "https://dc.lft.to/lastmile_qr_scan", "android": "https://dc.lft.to/lastmile_qr_scan"}, "is_reserved": 0, "fusion_lat": 0.0, "name": "22e7b338e04b20cb3ca098ea2db281a4", "lat": 38.90570833333334}, {"fusion_lon": 0.0, "bike_id": "894cd2357fe3357454c1eb801d30ba5e", "lon": -77.09962333333333, "type": "electric_scooter", "is_disabled": 0, "rental_uris": {"ios": "https://dc.lft.to/lastmile_qr_scan", "android": "https://dc.lft.to/lastmile_qr_scan"}, "is_reserved": 0, "fusion_lat": 0.0, "name": "894cd2357fe3357454c1eb801d30ba5e", "lat": 38.949721333333336}, {"fusion_lon": 0.0, "bike_id": "dee3b2ff7a43d32ce8d44729bf36dcce", "lon": -77.040051, "type": "electric_scooter", "is_disabled": 0, "rental_uris": {"ios": "https://dc.lft.to/lastmile_qr_scan", "android": "https://dc.lft.to/lastmile_qr_scan"}, "is_reserved": 0, "fusion_lat": 0.0, "name": "dee3b2ff7a43d32ce8d44729bf36dcce", "lat": 38.934274333333335}, {"fusion_lon": 0.0, "bike_id": "bd7ef212a5ba872ce9ee0217f573d9eb", "lon": -77.04490516666667, "type": "electric_scooter", "is_disabled": 0, "rental_uris": {"ios": "https://dc.lft.to/lastmile_qr_scan", "android": "https://dc.lft.to/lastmile_qr_scan"}, "is_reserved": 0, "fusion_lat": 0.0, "name": "bd7ef212a5ba872ce9ee0217f573d9eb", "lat": 38.89243583333333}, {"fusion_lon": 0.0, "bike_id": "27b0fe9e1cfb51217cb7c202d6a05734", "lon": -77.00604433333334, "type": "electric_scooter", "is_disabled": 0, "rental_uris": {"ios": "https://dc.lft.to/lastmile_qr_scan", "android": "https://dc.lft.to/lastmile_qr_scan"}, "is_reserved": 0, "fusion_lat": 0.0, "name": "27b0fe9e1cfb51217cb7c202d6a05734", "lat": 38.90571116666667}, {"fusion_lon": 0.0, "bike_id": "aed195cae7f15356bfb167d19b83bd4f", "lon": -77.009358, "type": "electric_scooter", "is_disabled": 0, "rental_uris": {"ios": "https://dc.lft.to/lastmile_qr_scan", "android": "https://dc.lft.to/lastmile_qr_scan"}, "is_reserved": 0, "fusion_lat": 0.0, "name": "aed195cae7f15356bfb167d19b83bd4f", "lat": 38.89556233333333}, {"fusion_lon": 0.0, "bike_id": "9d16f3a09b6904baed05b226a2f7b279", "lon": -77.08068283333333, "type": "electric_bike", "is_disabled": 0, "rental_uris": {"ios": "https://dc.lft.to/lastmile_qr_scan", "android": "https://dc.lft.to/lastmile_qr_scan"}, "is_reserved": 0, "fusion_lat": 0.0, "name": "9d16f3a09b6904baed05b226a2f7b279", "lat": 39.052533}, {"fusion_lon": 0.0, "bike_id": "d235b73d02f33f221f9b04f34e645344", "lon": -76.98524766666667, "type": "electric_bike", "is_disabled": 0, "rental_uris": {"ios": "https://dc.lft.to/lastmile_qr_scan", "android": "https://dc.lft.to/lastmile_qr_scan"}, "is_reserved": 0, "fusion_lat": 0.0, "name": "d235b73d02f33f221f9b04f34e645344", "lat": 38.86896616666667}, {"fusion_lon": 0.0, "bike_id": "7761a5fd853ff77a10678d7bb07c6488", "lon": -76.985504, "type": "electric_scooter", "is_disabled": 0, "rental_uris": {"ios": "https://dc.lft.to/lastmile_qr_scan", "android": "https://dc.lft.to/lastmile_qr_scan"}, "is_reserved": 0, "fusion_lat": 0.0, "name": "7761a5fd853ff77a10678d7bb07c6488", "lat": 38.899764833333336}, {"fusion_lon": 0.0, "bike_id": "45ef2b7a3cbe6927d5f8dc0f4c934f90", "lon": -77.04616183333333, "type": "electric_scooter", "is_disabled": 0, "rental_uris": {"ios": "https://dc.lft.to/lastmile_qr_scan", "android": "https://dc.lft.to/lastmile_qr_scan"}, "is_reserved": 0, "fusion_lat": 0.0, "name": "45ef2b7a3cbe6927d5f8dc0f4c934f90", "lat": 38.8961295}, {"fusion_lon": 0.0, "bike_id": "f72320fe0a527530affb7740863ff14b", "lon": -76.93748533333333, "type": "electric_scooter", "is_disabled": 0, "rental_uris": {"ios": "https://dc.lft.to/lastmile_qr_scan", "android": "https://dc.lft.to/lastmile_qr_scan"}, "is_reserved": 0, "fusion_lat": 0.0, "name": "f72320fe0a527530affb7740863ff14b", "lat": 38.8900975}, {"fusion_lon": 0.0, "bike_id": "43e700de53567d6ccb7478c773854557", "lon": -77.01230833333334, "type": "electric_scooter", "is_disabled": 0, "rental_uris": {"ios": "https://dc.lft.to/lastmile_qr_scan", "android": "https://dc.lft.to/lastmile_qr_scan"}, "is_reserved": 0, "fusion_lat": 0.0, "name": "43e700de53567d6ccb7478c773854557", "lat": 38.916959166666665}, {"fusion_lon": 0.0, "bike_id": "de8e05409dd73967ce339be01a54eaca", "lon": -77.02665216666666, "type": "electric_bike", "is_disabled": 0, "rental_uris": {"ios": "https://dc.lft.to/lastmile_qr_scan", "android": "https://dc.lft.to/lastmile_qr_scan"}, "is_reserved": 0, "fusion_lat": 0.0, "name": "de8e05409dd73967ce339be01a54eaca", "lat": 38.99441016666667}, {"fusion_lon": 0.0, "bike_id": "190e89edffa2c07d5566a56158a97e21", "lon": -77.00609483333334, "type": "electric_scooter", "is_disabled": 0, "rental_uris": {"ios": "https://dc.lft.to/lastmile_qr_scan", "android": "https://dc.lft.to/lastmile_qr_scan"}, "is_reserved": 0, "fusion_lat": 0.0, "name": "190e89edffa2c07d5566a56158a97e21", "lat": 38.87580883333333}, {"fusion_lon": 0.0, "bike_id": "8d73ef88c1d393ae2a7d6416172f9188", "lon": -77.03570833333333, "type": "electric_scooter", "is_disabled": 0, "rental_uris": {"ios": "https://dc.lft.to/lastmile_qr_scan", "android": "https://dc.lft.to/lastmile_qr_scan"}, "is_reserved": 0, "fusion_lat": 0.0, "name": "8d73ef88c1d393ae2a7d6416172f9188", "lat": 38.90848283333333}, {"fusion_lon": 0.0, "bike_id": "a68e80b2c58cfd2955cb8b23b9c0f0f7", "lon": -77.00470783333333, "type": "electric_scooter", "is_disabled": 0, "rental_uris": {"ios": "https://dc.lft.to/lastmile_qr_scan", "android": "https://dc.lft.to/lastmile_qr_scan"}, "is_reserved": 0, "fusion_lat": 0.0, "name": "a68e80b2c58cfd2955cb8b23b9c0f0f7", "lat": 38.874698}, {"fusion_lon": 0.0, "bike_id": "80c298c77ff0ea62bb07dff757eae4ae", "lon": -76.94620366666666, "type": "electric_scooter", "is_disabled": 0, "rental_uris": {"ios": "https://dc.lft.to/lastmile_qr_scan", "android": "https://dc.lft.to/lastmile_qr_scan"}, "is_reserved": 0, "fusion_lat": 0.0, "name": "80c298c77ff0ea62bb07dff757eae4ae", "lat": 38.898311166666666}, {"fusion_lon": 0.0, "bike_id": "9cbd833ad01aa6c24e59e5805c15f57a", "lon": -77.02953183333334, "type": "electric_scooter", "is_disabled": 0, "rental_uris": {"ios": "https://dc.lft.to/lastmile_qr_scan", "android": "https://dc.lft.to/lastmile_qr_scan"}, "is_reserved": 0, "fusion_lat": 0.0, "name": "9cbd833ad01aa6c24e59e5805c15f57a", "lat": 38.917292333333336}, {"fusion_lon": 0.0, "bike_id": "8e2032bf0a30ace26dd8f16a4431da0e", "lon": -77.02219016666666, "type": "electric_scooter", "is_disabled": 0, "rental_uris": {"ios": "https://dc.lft.to/lastmile_qr_scan", "android": "https://dc.lft.to/lastmile_qr_scan"}, "is_reserved": 0, "fusion_lat": 0.0, "name": "8e2032bf0a30ace26dd8f16a4431da0e", "lat": 38.92473783333333}, {"fusion_lon": 0.0, "bike_id": "74ce0be82fb46a28f29fdbcfeaff3295", "lon": -77.0281545, "type": "electric_scooter", "is_disabled": 0, "rental_uris": {"ios": "https://dc.lft.to/lastmile_qr_scan", "android": "https://dc.lft.to/lastmile_qr_scan"}, "is_reserved": 0, "fusion_lat": 0.0, "name": "74ce0be82fb46a28f29fdbcfeaff3295", "lat": 38.89512283333333}, {"fusion_lon": 0.0, "bike_id": "bd0d2fadd5db29e3fa04f4c2a7fc3d89", "lon": -77.045612, "type": "electric_scooter", "is_disabled": 0, "rental_uris": {"ios": "https://dc.lft.to/lastmile_qr_scan", "android": "https://dc.lft.to/lastmile_qr_scan"}, "is_reserved": 0, "fusion_lat": 0.0, "name": "bd0d2fadd5db29e3fa04f4c2a7fc3d89", "lat": 38.91316316666666}, {"fusion_lon": 0.0, "bike_id": "157f2343bf18a44a6b7f83b55e5e5bd3", "lon": -77.00208816666667, "type": "electric_scooter", "is_disabled": 0, "rental_uris": {"ios": "https://dc.lft.to/lastmile_qr_scan", "android": "https://dc.lft.to/lastmile_qr_scan"}, "is_reserved": 0, "fusion_lat": 0.0, "name": "157f2343bf18a44a6b7f83b55e5e5bd3", "lat": 38.900427666666666}, {"fusion_lon": 0.0, "bike_id": "d9173c40d4486d2bafa6a8f177e823f7", "lon": -77.05249266666667, "type": "electric_scooter", "is_disabled": 0, "rental_uris": {"ios": "https://dc.lft.to/lastmile_qr_scan", "android": "https://dc.lft.to/lastmile_qr_scan"}, "is_reserved": 0, "fusion_lat": 0.0, "name": "d9173c40d4486d2bafa6a8f177e823f7", "lat": 38.9254615}, {"fusion_lon": 0.0, "bike_id": "e2a3874a5f9a58b524190a4640e895b3", "lon": -76.99501083333334, "type": "electric_bike", "is_disabled": 0, "rental_uris": {"ios": "https://dc.lft.to/lastmile_qr_scan", "android": "https://dc.lft.to/lastmile_qr_scan"}, "is_reserved": 0, "fusion_lat": 0.0, "name": "e2a3874a5f9a58b524190a4640e895b3", "lat": 38.862127}, {"fusion_lon": 0.0, "bike_id": "39231923b48faf90cfb3d7f6cf5ac900", "lon": -76.98376816666666, "type": "electric_scooter", "is_disabled": 0, "rental_uris": {"ios": "https://dc.lft.to/lastmile_qr_scan", "android": "https://dc.lft.to/lastmile_qr_scan"}, "is_reserved": 0, "fusion_lat": 0.0, "name": "39231923b48faf90cfb3d7f6cf5ac900", "lat": 38.88999183333333}, {"fusion_lon": 0.0, "bike_id": "b14235e848af254e224f2f1d486c87b8", "lon": -77.04159816666666, "type": "electric_scooter", "is_disabled": 0, "rental_uris": {"ios": "https://dc.lft.to/lastmile_qr_scan", "android": "https://dc.lft.to/lastmile_qr_scan"}, "is_reserved": 0, "fusion_lat": 0.0, "name": "b14235e848af254e224f2f1d486c87b8", "lat": 38.90721516666667}, {"fusion_lon": 0.0, "bike_id": "d148a6766aaca37f8f2c1d2327cb8a39", "lon": -77.026963, "type": "electric_scooter", "is_disabled": 0, "rental_uris": {"ios": "https://dc.lft.to/lastmile_qr_scan", "android": "https://dc.lft.to/lastmile_qr_scan"}, "is_reserved": 0, "fusion_lat": 0.0, "name": "d148a6766aaca37f8f2c1d2327cb8a39", "lat": 38.90474833333333}, {"fusion_lon": 0.0, "bike_id": "f589bb802c559ac438a4805bc56ea6b3", "lon": -77.01555283333333, "type": "electric_scooter", "is_disabled": 0, "rental_uris": {"ios": "https://dc.lft.to/lastmile_qr_scan", "android": "https://dc.lft.to/lastmile_qr_scan"}, "is_reserved": 0, "fusion_lat": 0.0, "name": "f589bb802c559ac438a4805bc56ea6b3", "lat": 38.89173516666666}, {"fusion_lon": 0.0, "bike_id": "d8ccdd648454e6ad8807c02255d5f24d", "lon": -77.0709685, "type": "electric_scooter", "is_disabled": 0, "rental_uris": {"ios": "https://dc.lft.to/lastmile_qr_scan", "android": "https://dc.lft.to/lastmile_qr_scan"}, "is_reserved": 0, "fusion_lat": 0.0, "name": "d8ccdd648454e6ad8807c02255d5f24d", "lat": 38.91976566666666}, {"fusion_lon": 0.0, "bike_id": "ead46546ba8d5cf3eafc6e8687619017", "lon": -76.99514383333333, "type": "electric_scooter", "is_disabled": 0, "rental_uris": {"ios": "https://dc.lft.to/lastmile_qr_scan", "android": "https://dc.lft.to/lastmile_qr_scan"}, "is_reserved": 0, "fusion_lat": 0.0, "name": "ead46546ba8d5cf3eafc6e8687619017", "lat": 38.84742466666667}, {"fusion_lon": 0.0, "bike_id": "7bfb7179d2ca09166276ebd46ed19a6e", "lon": -77.04655016666666, "type": "electric_scooter", "is_disabled": 0, "rental_uris": {"ios": "https://dc.lft.to/lastmile_qr_scan", "android": "https://dc.lft.to/lastmile_qr_scan"}, "is_reserved": 0, "fusion_lat": 0.0, "name": "7bfb7179d2ca09166276ebd46ed19a6e", "lat": 38.899675}, {"fusion_lon": 0.0, "bike_id": "94b1d90d4789310a3443b694c9f1d053", "lon": -76.95204516666666, "type": "electric_scooter", "is_disabled": 0, "rental_uris": {"ios": "https://dc.lft.to/lastmile_qr_scan", "android": "https://dc.lft.to/lastmile_qr_scan"}, "is_reserved": 0, "fusion_lat": 0.0, "name": "94b1d90d4789310a3443b694c9f1d053", "lat": 38.904799}, {"fusion_lon": 0.0, "bike_id": "edf4189e2f293a855561318678d7821a", "lon": -77.04756466666667, "type": "electric_scooter", "is_disabled": 0, "rental_uris": {"ios": "https://dc.lft.to/lastmile_qr_scan", "android": "https://dc.lft.to/lastmile_qr_scan"}, "is_reserved": 0, "fusion_lat": 0.0, "name": "edf4189e2f293a855561318678d7821a", "lat": 38.90390383333333}, {"fusion_lon": 0.0, "bike_id": "0d368c792f4f2d71c5e78bac80ed4aee", "lon": -76.96304366666666, "type": "electric_bike", "is_disabled": 0, "rental_uris": {"ios": "https://dc.lft.to/lastmile_qr_scan", "android": "https://dc.lft.to/lastmile_qr_scan"}, "is_reserved": 0, "fusion_lat": 0.0, "name": "0d368c792f4f2d71c5e78bac80ed4aee", "lat": 38.89696333333333}, {"fusion_lon": 0.0, "bike_id": "f0edc874ad010fcc9056ff88d504c57d", "lon": -77.02968333333334, "type": "electric_scooter", "is_disabled": 0, "rental_uris": {"ios": "https://dc.lft.to/lastmile_qr_scan", "android": "https://dc.lft.to/lastmile_qr_scan"}, "is_reserved": 0, "fusion_lat": 0.0, "name": "f0edc874ad010fcc9056ff88d504c57d", "lat": 38.91678616666667}, {"fusion_lon": 0.0, "bike_id": "4dfdbe2f7b6dba620ea85489e09a10cc", "lon": -77.07614933333333, "type": "electric_scooter", "is_disabled": 0, "rental_uris": {"ios": "https://dc.lft.to/lastmile_qr_scan", "android": "https://dc.lft.to/lastmile_qr_scan"}, "is_reserved": 0, "fusion_lat": 0.0, "name": "4dfdbe2f7b6dba620ea85489e09a10cc", "lat": 38.907181333333334}, {"fusion_lon": 0.0, "bike_id": "daf39271519eb90a4e40aec412dc62cf", "lon": -77.021413, "type": "electric_scooter", "is_disabled": 0, "rental_uris": {"ios": "https://dc.lft.to/lastmile_qr_scan", "android": "https://dc.lft.to/lastmile_qr_scan"}, "is_reserved": 0, "fusion_lat": 0.0, "name": "daf39271519eb90a4e40aec412dc62cf", "lat": 38.924502833333335}, {"fusion_lon": 0.0, "bike_id": "5e489f6d6c5ca8dca13791d44959fa7c", "lon": -76.99373016666667, "type": "electric_scooter", "is_disabled": 0, "rental_uris": {"ios": "https://dc.lft.to/lastmile_qr_scan", "android": "https://dc.lft.to/lastmile_qr_scan"}, "is_reserved": 0, "fusion_lat": 0.0, "name": "5e489f6d6c5ca8dca13791d44959fa7c", "lat": 38.88935716666667}, {"fusion_lon": 0.0, "bike_id": "f27bc75923f187bfcaf0108024c20dd1", "lon": -77.0728, "type": "electric_scooter", "is_disabled": 0, "rental_uris": {"ios": "https://dc.lft.to/lastmile_qr_scan", "android": "https://dc.lft.to/lastmile_qr_scan"}, "is_reserved": 0, "fusion_lat": 0.0, "name": "f27bc75923f187bfcaf0108024c20dd1", "lat": 38.9347485}, {"fusion_lon": 0.0, "bike_id": "6f9047d5ab364a364faba0d698a65cdf", "lon": -77.020346, "type": "electric_scooter", "is_disabled": 0, "rental_uris": {"ios": "https://dc.lft.to/lastmile_qr_scan", "android": "https://dc.lft.to/lastmile_qr_scan"}, "is_reserved": 0, "fusion_lat": 0.0, "name": "6f9047d5ab364a364faba0d698a65cdf", "lat": 38.9244795}, {"fusion_lon": 0.0, "bike_id": "8666be20491c834da5885e7713ce9dea", "lon": -77.0328315, "type": "electric_scooter", "is_disabled": 0, "rental_uris": {"ios": "https://dc.lft.to/lastmile_qr_scan", "android": "https://dc.lft.to/lastmile_qr_scan"}, "is_reserved": 0, "fusion_lat": 0.0, "name": "8666be20491c834da5885e7713ce9dea", "lat": 38.8989515}, {"fusion_lon": 0.0, "bike_id": "9dd1336e97e90e4601dc23766feb1da8", "lon": -77.02206716666667, "type": "electric_scooter", "is_disabled": 0, "rental_uris": {"ios": "https://dc.lft.to/lastmile_qr_scan", "android": "https://dc.lft.to/lastmile_qr_scan"}, "is_reserved": 0, "fusion_lat": 0.0, "name": "9dd1336e97e90e4601dc23766feb1da8", "lat": 38.88714266666667}, {"fusion_lon": 0.0, "bike_id": "3bccce5554aba29802ccbdb892ed50c9", "lon": -77.00881383333333, "type": "electric_scooter", "is_disabled": 0, "rental_uris": {"ios": "https://dc.lft.to/lastmile_qr_scan", "android": "https://dc.lft.to/lastmile_qr_scan"}, "is_reserved": 0, "fusion_lat": 0.0, "name": "3bccce5554aba29802ccbdb892ed50c9", "lat": 38.91150183333333}, {"fusion_lon": 0.0, "bike_id": "1f63ca1eaa8b9aaa1f34882c47d70a56", "lon": -77.02953116666667, "type": "electric_scooter", "is_disabled": 0, "rental_uris": {"ios": "https://dc.lft.to/lastmile_qr_scan", "android": "https://dc.lft.to/lastmile_qr_scan"}, "is_reserved": 0, "fusion_lat": 0.0, "name": "1f63ca1eaa8b9aaa1f34882c47d70a56", "lat": 38.932541}, {"fusion_lon": 0.0, "bike_id": "b0cfa01163a2c29d1136c99cbd40351f", "lon": -76.98984416666667, "type": "electric_scooter", "is_disabled": 0, "rental_uris": {"ios": "https://dc.lft.to/lastmile_qr_scan", "android": "https://dc.lft.to/lastmile_qr_scan"}, "is_reserved": 0, "fusion_lat": 0.0, "name": "b0cfa01163a2c29d1136c99cbd40351f", "lat": 38.92444416666667}, {"fusion_lon": 0.0, "bike_id": "c2fc2acbcd43255173818c36f19ee41f", "lon": -77.01221616666666, "type": "electric_scooter", "is_disabled": 0, "rental_uris": {"ios": "https://dc.lft.to/lastmile_qr_scan", "android": "https://dc.lft.to/lastmile_qr_scan"}, "is_reserved": 0, "fusion_lat": 0.0, "name": "c2fc2acbcd43255173818c36f19ee41f", "lat": 38.9203665}, {"fusion_lon": 0.0, "bike_id": "6b20a4d7d63b8609e3abd774d03f7e71", "lon": -77.0074035, "type": "electric_scooter", "is_disabled": 0, "rental_uris": {"ios": "https://dc.lft.to/lastmile_qr_scan", "android": "https://dc.lft.to/lastmile_qr_scan"}, "is_reserved": 0, "fusion_lat": 0.0, "name": "6b20a4d7d63b8609e3abd774d03f7e71", "lat": 38.87850566666667}, {"fusion_lon": 0.0, "bike_id": "7268093027644afb99e88cbe0778a875", "lon": -77.0652685, "type": "electric_scooter", "is_disabled": 0, "rental_uris": {"ios": "https://dc.lft.to/lastmile_qr_scan", "android": "https://dc.lft.to/lastmile_qr_scan"}, "is_reserved": 0, "fusion_lat": 0.0, "name": "7268093027644afb99e88cbe0778a875", "lat": 38.9242135}, {"fusion_lon": 0.0, "bike_id": "bf19d247bc8cbe70b7d0c4aabfc2e892", "lon": -77.022376, "type": "electric_bike", "is_disabled": 0, "rental_uris": {"ios": "https://dc.lft.to/lastmile_qr_scan", "android": "https://dc.lft.to/lastmile_qr_scan"}, "is_reserved": 0, "fusion_lat": 0.0, "name": "bf19d247bc8cbe70b7d0c4aabfc2e892", "lat": 38.96442833333333}, {"fusion_lon": 0.0, "bike_id": "958a4623541e03c63ba20bfa18cc3386", "lon": -77.03997933333333, "type": "electric_scooter", "is_disabled": 0, "rental_uris": {"ios": "https://dc.lft.to/lastmile_qr_scan", "android": "https://dc.lft.to/lastmile_qr_scan"}, "is_reserved": 0, "fusion_lat": 0.0, "name": "958a4623541e03c63ba20bfa18cc3386", "lat": 38.9343665}, {"fusion_lon": 0.0, "bike_id": "6c500024da894b017d41118c87a5688d", "lon": -77.0220365, "type": "electric_scooter", "is_disabled": 0, "rental_uris": {"ios": "https://dc.lft.to/lastmile_qr_scan", "android": "https://dc.lft.to/lastmile_qr_scan"}, "is_reserved": 0, "fusion_lat": 0.0, "name": "6c500024da894b017d41118c87a5688d", "lat": 38.90204166666667}, {"fusion_lon": 0.0, "bike_id": "d79d0d221f526107cbdd1bcbe2819390", "lon": -77.031813, "type": "electric_scooter", "is_disabled": 0, "rental_uris": {"ios": "https://dc.lft.to/lastmile_qr_scan", "android": "https://dc.lft.to/lastmile_qr_scan"}, "is_reserved": 0, "fusion_lat": 0.0, "name": "d79d0d221f526107cbdd1bcbe2819390", "lat": 38.91426666666667}, {"fusion_lon": 0.0, "bike_id": "6223fe6e48b41dee55d571f2d004d0aa", "lon": -77.03195933333333, "type": "electric_scooter", "is_disabled": 0, "rental_uris": {"ios": "https://dc.lft.to/lastmile_qr_scan", "android": "https://dc.lft.to/lastmile_qr_scan"}, "is_reserved": 0, "fusion_lat": 0.0, "name": "6223fe6e48b41dee55d571f2d004d0aa", "lat": 38.9099015}, {"fusion_lon": 0.0, "bike_id": "ebf959d984967351f4d08f88d7601128", "lon": -77.0770315, "type": "electric_scooter", "is_disabled": 0, "rental_uris": {"ios": "https://dc.lft.to/lastmile_qr_scan", "android": "https://dc.lft.to/lastmile_qr_scan"}, "is_reserved": 0, "fusion_lat": 0.0, "name": "ebf959d984967351f4d08f88d7601128", "lat": 38.942854833333335}, {"fusion_lon": 0.0, "bike_id": "96ecc9078be7e549c20cde4bd50a3b7d", "lon": -77.03836016666666, "type": "electric_scooter", "is_disabled": 0, "rental_uris": {"ios": "https://dc.lft.to/lastmile_qr_scan", "android": "https://dc.lft.to/lastmile_qr_scan"}, "is_reserved": 0, "fusion_lat": 0.0, "name": "96ecc9078be7e549c20cde4bd50a3b7d", "lat": 38.907898333333335}, {"fusion_lon": 0.0, "bike_id": "f0e464c5f22f57f15758f768980dc7c1", "lon": -77.017968, "type": "electric_scooter", "is_disabled": 0, "rental_uris": {"ios": "https://dc.lft.to/lastmile_qr_scan", "android": "https://dc.lft.to/lastmile_qr_scan"}, "is_reserved": 0, "fusion_lat": 0.0, "name": "f0e464c5f22f57f15758f768980dc7c1", "lat": 38.9064775}, {"fusion_lon": 0.0, "bike_id": "698f8a0c876a45c6ec8d5cfcb83786fa", "lon": -77.0174445, "type": "electric_scooter", "is_disabled": 0, "rental_uris": {"ios": "https://dc.lft.to/lastmile_qr_scan", "android": "https://dc.lft.to/lastmile_qr_scan"}, "is_reserved": 0, "fusion_lat": 0.0, "name": "698f8a0c876a45c6ec8d5cfcb83786fa", "lat": 38.8773135}, {"fusion_lon": 0.0, "bike_id": "827082ddfb601713f3fdf779f931cd13", "lon": -77.01825383333333, "type": "electric_scooter", "is_disabled": 0, "rental_uris": {"ios": "https://dc.lft.to/lastmile_qr_scan", "android": "https://dc.lft.to/lastmile_qr_scan"}, "is_reserved": 0, "fusion_lat": 0.0, "name": "827082ddfb601713f3fdf779f931cd13", "lat": 38.921404833333334}, {"fusion_lon": 0.0, "bike_id": "ced20cc9d1a6804c826693befaeaef0d", "lon": -77.044999, "type": "electric_scooter", "is_disabled": 0, "rental_uris": {"ios": "https://dc.lft.to/lastmile_qr_scan", "android": "https://dc.lft.to/lastmile_qr_scan"}, "is_reserved": 0, "fusion_lat": 0.0, "name": "ced20cc9d1a6804c826693befaeaef0d", "lat": 38.915205}, {"fusion_lon": 0.0, "bike_id": "b003ac10cc8dc152466d4299e9d9cc63", "lon": -77.0171005, "type": "electric_scooter", "is_disabled": 0, "rental_uris": {"ios": "https://dc.lft.to/lastmile_qr_scan", "android": "https://dc.lft.to/lastmile_qr_scan"}, "is_reserved": 0, "fusion_lat": 0.0, "name": "b003ac10cc8dc152466d4299e9d9cc63", "lat": 38.92055366666666}, {"fusion_lon": 0.0, "bike_id": "83364fe85944160dc9ee7d756fb77e07", "lon": -77.041557, "type": "electric_scooter", "is_disabled": 0, "rental_uris": {"ios": "https://dc.lft.to/lastmile_qr_scan", "android": "https://dc.lft.to/lastmile_qr_scan"}, "is_reserved": 0, "fusion_lat": 0.0, "name": "83364fe85944160dc9ee7d756fb77e07", "lat": 38.92359583333333}, {"fusion_lon": 0.0, "bike_id": "60e9fb2a6006784590e2bea13094ddb9", "lon": -76.98463833333334, "type": "electric_scooter", "is_disabled": 0, "rental_uris": {"ios": "https://dc.lft.to/lastmile_qr_scan", "android": "https://dc.lft.to/lastmile_qr_scan"}, "is_reserved": 0, "fusion_lat": 0.0, "name": "60e9fb2a6006784590e2bea13094ddb9", "lat": 38.897755}, {"fusion_lon": 0.0, "bike_id": "954a717dd6201a66e2615998201d7f43", "lon": -77.05322666666666, "type": "electric_scooter", "is_disabled": 0, "rental_uris": {"ios": "https://dc.lft.to/lastmile_qr_scan", "android": "https://dc.lft.to/lastmile_qr_scan"}, "is_reserved": 0, "fusion_lat": 0.0, "name": "954a717dd6201a66e2615998201d7f43", "lat": 38.90263783333333}, {"fusion_lon": 0.0, "bike_id": "f75fcb27671fdffbd384ca008cffbd7b", "lon": -77.02141816666666, "type": "electric_scooter", "is_disabled": 0, "rental_uris": {"ios": "https://dc.lft.to/lastmile_qr_scan", "android": "https://dc.lft.to/lastmile_qr_scan"}, "is_reserved": 0, "fusion_lat": 0.0, "name": "f75fcb27671fdffbd384ca008cffbd7b", "lat": 38.931195833333334}, {"fusion_lon": 0.0, "bike_id": "3f72b65c6ae0422caa8ce8a407e2bb93", "lon": -77.03783683333333, "type": "electric_scooter", "is_disabled": 0, "rental_uris": {"ios": "https://dc.lft.to/lastmile_qr_scan", "android": "https://dc.lft.to/lastmile_qr_scan"}, "is_reserved": 0, "fusion_lat": 0.0, "name": "3f72b65c6ae0422caa8ce8a407e2bb93", "lat": 38.92189116666667}, {"fusion_lon": 0.0, "bike_id": "586201e630fceef246d897ed993c1946", "lon": -77.01770266666666, "type": "electric_scooter", "is_disabled": 0, "rental_uris": {"ios": "https://dc.lft.to/lastmile_qr_scan", "android": "https://dc.lft.to/lastmile_qr_scan"}, "is_reserved": 0, "fusion_lat": 0.0, "name": "586201e630fceef246d897ed993c1946", "lat": 38.89235933333333}, {"fusion_lon": 0.0, "bike_id": "4a393084fb4d52d13c3403ec45e366d4", "lon": -76.96717783333334, "type": "electric_scooter", "is_disabled": 0, "rental_uris": {"ios": "https://dc.lft.to/lastmile_qr_scan", "android": "https://dc.lft.to/lastmile_qr_scan"}, "is_reserved": 0, "fusion_lat": 0.0, "name": "4a393084fb4d52d13c3403ec45e366d4", "lat": 38.860688833333334}, {"fusion_lon": 0.0, "bike_id": "8dd50b838e1ea7d6528f418856da3e68", "lon": -77.01156233333333, "type": "electric_scooter", "is_disabled": 0, "rental_uris": {"ios": "https://dc.lft.to/lastmile_qr_scan", "android": "https://dc.lft.to/lastmile_qr_scan"}, "is_reserved": 0, "fusion_lat": 0.0, "name": "8dd50b838e1ea7d6528f418856da3e68", "lat": 38.916134166666666}, {"fusion_lon": 0.0, "bike_id": "8bd7106a4549f56c60087fa2686277ec", "lon": -77.04013683333334, "type": "electric_scooter", "is_disabled": 0, "rental_uris": {"ios": "https://dc.lft.to/lastmile_qr_scan", "android": "https://dc.lft.to/lastmile_qr_scan"}, "is_reserved": 0, "fusion_lat": 0.0, "name": "8bd7106a4549f56c60087fa2686277ec", "lat": 38.908432833333336}, {"fusion_lon": 0.0, "bike_id": "25e3abaa52f056c9e345a7764eec6be1", "lon": -77.03672983333334, "type": "electric_scooter", "is_disabled": 0, "rental_uris": {"ios": "https://dc.lft.to/lastmile_qr_scan", "android": "https://dc.lft.to/lastmile_qr_scan"}, "is_reserved": 0, "fusion_lat": 0.0, "name": "25e3abaa52f056c9e345a7764eec6be1", "lat": 38.93169566666667}, {"fusion_lon": 0.0, "bike_id": "fb3768e1fbaf824c0e77afe1d8201a0f", "lon": -77.0430125, "type": "electric_bike", "is_disabled": 0, "rental_uris": {"ios": "https://dc.lft.to/lastmile_qr_scan", "android": "https://dc.lft.to/lastmile_qr_scan"}, "is_reserved": 0, "fusion_lat": 0.0, "name": "fb3768e1fbaf824c0e77afe1d8201a0f", "lat": 39.03434}, {"fusion_lon": 0.0, "bike_id": "04f4e9210069e112e306fed03a5098b2", "lon": -77.00605, "type": "electric_scooter", "is_disabled": 0, "rental_uris": {"ios": "https://dc.lft.to/lastmile_qr_scan", "android": "https://dc.lft.to/lastmile_qr_scan"}, "is_reserved": 0, "fusion_lat": 0.0, "name": "04f4e9210069e112e306fed03a5098b2", "lat": 38.91125866666667}, {"fusion_lon": 0.0, "bike_id": "935292124975d60b234b18f6c5247c65", "lon": -77.05746516666666, "type": "electric_scooter", "is_disabled": 0, "rental_uris": {"ios": "https://dc.lft.to/lastmile_qr_scan", "android": "https://dc.lft.to/lastmile_qr_scan"}, "is_reserved": 0, "fusion_lat": 0.0, "name": "935292124975d60b234b18f6c5247c65", "lat": 38.933995833333334}, {"fusion_lon": 0.0, "bike_id": "12bf10a27a1d2710062ac910e95352bf", "lon": -77.02220566666666, "type": "electric_scooter", "is_disabled": 0, "rental_uris": {"ios": "https://dc.lft.to/lastmile_qr_scan", "android": "https://dc.lft.to/lastmile_qr_scan"}, "is_reserved": 0, "fusion_lat": 0.0, "name": "12bf10a27a1d2710062ac910e95352bf", "lat": 38.89984183333333}, {"fusion_lon": 0.0, "bike_id": "cb3bce46ea767aa70f4306e1dd47ba31", "lon": -77.00253483333333, "type": "electric_scooter", "is_disabled": 0, "rental_uris": {"ios": "https://dc.lft.to/lastmile_qr_scan", "android": "https://dc.lft.to/lastmile_qr_scan"}, "is_reserved": 0, "fusion_lat": 0.0, "name": "cb3bce46ea767aa70f4306e1dd47ba31", "lat": 38.9089745}, {"fusion_lon": 0.0, "bike_id": "78f152ef77d54d02c1c77ba0e906af26", "lon": -77.031643, "type": "electric_scooter", "is_disabled": 0, "rental_uris": {"ios": "https://dc.lft.to/lastmile_qr_scan", "android": "https://dc.lft.to/lastmile_qr_scan"}, "is_reserved": 0, "fusion_lat": 0.0, "name": "78f152ef77d54d02c1c77ba0e906af26", "lat": 38.917964}, {"fusion_lon": 0.0, "bike_id": "16bec819b21148afa4199cf7907edf48", "lon": -77.04488283333333, "type": "electric_scooter", "is_disabled": 0, "rental_uris": {"ios": "https://dc.lft.to/lastmile_qr_scan", "android": "https://dc.lft.to/lastmile_qr_scan"}, "is_reserved": 0, "fusion_lat": 0.0, "name": "16bec819b21148afa4199cf7907edf48", "lat": 38.892399166666664}, {"fusion_lon": 0.0, "bike_id": "a28946a993f920a7bf51c7e8b523dccd", "lon": -77.02232966666666, "type": "electric_scooter", "is_disabled": 0, "rental_uris": {"ios": "https://dc.lft.to/lastmile_qr_scan", "android": "https://dc.lft.to/lastmile_qr_scan"}, "is_reserved": 0, "fusion_lat": 0.0, "name": "a28946a993f920a7bf51c7e8b523dccd", "lat": 38.91360133333333}, {"fusion_lon": 0.0, "bike_id": "852015936e7dc8c126ccf1555ad2437f", "lon": -77.00337916666666, "type": "electric_scooter", "is_disabled": 0, "rental_uris": {"ios": "https://dc.lft.to/lastmile_qr_scan", "android": "https://dc.lft.to/lastmile_qr_scan"}, "is_reserved": 0, "fusion_lat": 0.0, "name": "852015936e7dc8c126ccf1555ad2437f", "lat": 38.89363266666667}, {"fusion_lon": 0.0, "bike_id": "0f7f9f11840f739aadda988c4de41c4b", "lon": -77.0274755, "type": "electric_scooter", "is_disabled": 0, "rental_uris": {"ios": "https://dc.lft.to/lastmile_qr_scan", "android": "https://dc.lft.to/lastmile_qr_scan"}, "is_reserved": 0, "fusion_lat": 0.0, "name": "0f7f9f11840f739aadda988c4de41c4b", "lat": 38.96610666666667}, {"fusion_lon": 0.0, "bike_id": "f2bb82dca1b8a2b542f216bda8162baa", "lon": -77.057421, "type": "electric_scooter", "is_disabled": 0, "rental_uris": {"ios": "https://dc.lft.to/lastmile_qr_scan", "android": "https://dc.lft.to/lastmile_qr_scan"}, "is_reserved": 0, "fusion_lat": 0.0, "name": "f2bb82dca1b8a2b542f216bda8162baa", "lat": 38.93402066666667}, {"fusion_lon": 0.0, "bike_id": "54eed3100969ec6f16d4428511cddd3e", "lon": -77.02811816666667, "type": "electric_scooter", "is_disabled": 0, "rental_uris": {"ios": "https://dc.lft.to/lastmile_qr_scan", "android": "https://dc.lft.to/lastmile_qr_scan"}, "is_reserved": 0, "fusion_lat": 0.0, "name": "54eed3100969ec6f16d4428511cddd3e", "lat": 38.916586833333334}, {"fusion_lon": 0.0, "bike_id": "e08b53947fa2c6d4e4789c254ea958dc", "lon": -77.03126983333334, "type": "electric_scooter", "is_disabled": 0, "rental_uris": {"ios": "https://dc.lft.to/lastmile_qr_scan", "android": "https://dc.lft.to/lastmile_qr_scan"}, "is_reserved": 0, "fusion_lat": 0.0, "name": "e08b53947fa2c6d4e4789c254ea958dc", "lat": 38.92031583333333}, {"fusion_lon": 0.0, "bike_id": "7e7d7577bc7df5c47a576f5a1fcc5c22", "lon": -76.99891283333334, "type": "electric_scooter", "is_disabled": 0, "rental_uris": {"ios": "https://dc.lft.to/lastmile_qr_scan", "android": "https://dc.lft.to/lastmile_qr_scan"}, "is_reserved": 0, "fusion_lat": 0.0, "name": "7e7d7577bc7df5c47a576f5a1fcc5c22", "lat": 38.89606116666667}, {"fusion_lon": 0.0, "bike_id": "4fd0005f7d223492562a2b0718aca467", "lon": -76.98709533333333, "type": "electric_scooter", "is_disabled": 0, "rental_uris": {"ios": "https://dc.lft.to/lastmile_qr_scan", "android": "https://dc.lft.to/lastmile_qr_scan"}, "is_reserved": 0, "fusion_lat": 0.0, "name": "4fd0005f7d223492562a2b0718aca467", "lat": 38.86541166666667}, {"fusion_lon": 0.0, "bike_id": "5f483dda7c798f5f0210cfcb428765ae", "lon": -77.02600216666667, "type": "electric_scooter", "is_disabled": 0, "rental_uris": {"ios": "https://dc.lft.to/lastmile_qr_scan", "android": "https://dc.lft.to/lastmile_qr_scan"}, "is_reserved": 0, "fusion_lat": 0.0, "name": "5f483dda7c798f5f0210cfcb428765ae", "lat": 38.916937833333336}, {"fusion_lon": 0.0, "bike_id": "3466c69de63bbdcad38a513789a15935", "lon": -76.99535366666667, "type": "electric_scooter", "is_disabled": 0, "rental_uris": {"ios": "https://dc.lft.to/lastmile_qr_scan", "android": "https://dc.lft.to/lastmile_qr_scan"}, "is_reserved": 0, "fusion_lat": 0.0, "name": "3466c69de63bbdcad38a513789a15935", "lat": 38.862703333333336}, {"fusion_lon": 0.0, "bike_id": "dcb6f417bf492cdc5da226d2e9385a5b", "lon": -77.03329783333334, "type": "electric_bike", "is_disabled": 0, "rental_uris": {"ios": "https://dc.lft.to/lastmile_qr_scan", "android": "https://dc.lft.to/lastmile_qr_scan"}, "is_reserved": 0, "fusion_lat": 0.0, "name": "dcb6f417bf492cdc5da226d2e9385a5b", "lat": 38.972017666666666}, {"fusion_lon": 0.0, "bike_id": "2ba5687a02af1f93af49f6220b4c6dd5", "lon": -77.0200275, "type": "electric_scooter", "is_disabled": 0, "rental_uris": {"ios": "https://dc.lft.to/lastmile_qr_scan", "android": "https://dc.lft.to/lastmile_qr_scan"}, "is_reserved": 0, "fusion_lat": 0.0, "name": "2ba5687a02af1f93af49f6220b4c6dd5", "lat": 38.909834000000004}, {"fusion_lon": 0.0, "bike_id": "97f9d26f018659ea6226149502842a33", "lon": -76.96264483333333, "type": "electric_bike", "is_disabled": 0, "rental_uris": {"ios": "https://dc.lft.to/lastmile_qr_scan", "android": "https://dc.lft.to/lastmile_qr_scan"}, "is_reserved": 0, "fusion_lat": 0.0, "name": "97f9d26f018659ea6226149502842a33", "lat": 38.88250133333333}, {"fusion_lon": 0.0, "bike_id": "d952ba7d355c2e244cd3362bcbbfd776", "lon": -77.063805, "type": "electric_scooter", "is_disabled": 0, "rental_uris": {"ios": "https://dc.lft.to/lastmile_qr_scan", "android": "https://dc.lft.to/lastmile_qr_scan"}, "is_reserved": 0, "fusion_lat": 0.0, "name": "d952ba7d355c2e244cd3362bcbbfd776", "lat": 38.905144666666665}, {"fusion_lon": 0.0, "bike_id": "4c73dcf634b241a8495e21b50bf673b4", "lon": -77.08179283333334, "type": "electric_bike", "is_disabled": 0, "rental_uris": {"ios": "https://dc.lft.to/lastmile_qr_scan", "android": "https://dc.lft.to/lastmile_qr_scan"}, "is_reserved": 0, "fusion_lat": 0.0, "name": "4c73dcf634b241a8495e21b50bf673b4", "lat": 38.88874283333333}, {"fusion_lon": 0.0, "bike_id": "4c9506a766e28a8a8d141c08f8063ffe", "lon": -77.01144666666667, "type": "electric_scooter", "is_disabled": 0, "rental_uris": {"ios": "https://dc.lft.to/lastmile_qr_scan", "android": "https://dc.lft.to/lastmile_qr_scan"}, "is_reserved": 0, "fusion_lat": 0.0, "name": "4c9506a766e28a8a8d141c08f8063ffe", "lat": 38.906594}, {"fusion_lon": 0.0, "bike_id": "dd47cbd363ea953872933f65ddd0148f", "lon": -76.99768183333333, "type": "electric_scooter", "is_disabled": 0, "rental_uris": {"ios": "https://dc.lft.to/lastmile_qr_scan", "android": "https://dc.lft.to/lastmile_qr_scan"}, "is_reserved": 0, "fusion_lat": 0.0, "name": "dd47cbd363ea953872933f65ddd0148f", "lat": 38.927035000000004}, {"fusion_lon": 0.0, "bike_id": "c9514b2bfbe3b5b53dddef6ebfb70caf", "lon": -77.01581833333333, "type": "electric_scooter", "is_disabled": 0, "rental_uris": {"ios": "https://dc.lft.to/lastmile_qr_scan", "android": "https://dc.lft.to/lastmile_qr_scan"}, "is_reserved": 0, "fusion_lat": 0.0, "name": "c9514b2bfbe3b5b53dddef6ebfb70caf", "lat": 38.8999255}, {"fusion_lon": 0.0, "bike_id": "63e74a5b8829d90e65100f942eb85c5f", "lon": -77.02091783333333, "type": "electric_scooter", "is_disabled": 0, "rental_uris": {"ios": "https://dc.lft.to/lastmile_qr_scan", "android": "https://dc.lft.to/lastmile_qr_scan"}, "is_reserved": 0, "fusion_lat": 0.0, "name": "63e74a5b8829d90e65100f942eb85c5f", "lat": 38.932665166666666}, {"fusion_lon": 0.0, "bike_id": "b728f25c0be43db0d585539b07225b84", "lon": -77.048782, "type": "electric_scooter", "is_disabled": 0, "rental_uris": {"ios": "https://dc.lft.to/lastmile_qr_scan", "android": "https://dc.lft.to/lastmile_qr_scan"}, "is_reserved": 0, "fusion_lat": 0.0, "name": "b728f25c0be43db0d585539b07225b84", "lat": 38.8923745}, {"fusion_lon": 0.0, "bike_id": "09b277995b7f3e091599106758d1f9f3", "lon": -77.03354016666667, "type": "electric_scooter", "is_disabled": 0, "rental_uris": {"ios": "https://dc.lft.to/lastmile_qr_scan", "android": "https://dc.lft.to/lastmile_qr_scan"}, "is_reserved": 0, "fusion_lat": 0.0, "name": "09b277995b7f3e091599106758d1f9f3", "lat": 38.927535166666665}, {"fusion_lon": 0.0, "bike_id": "24fc422e0a0f8073e1abf878f0e5b4c7", "lon": -77.02820566666666, "type": "electric_scooter", "is_disabled": 0, "rental_uris": {"ios": "https://dc.lft.to/lastmile_qr_scan", "android": "https://dc.lft.to/lastmile_qr_scan"}, "is_reserved": 0, "fusion_lat": 0.0, "name": "24fc422e0a0f8073e1abf878f0e5b4c7", "lat": 38.91142116666666}, {"fusion_lon": 0.0, "bike_id": "af8ed088110137a84e0e72c7e491a2ab", "lon": -77.02215016666666, "type": "electric_scooter", "is_disabled": 0, "rental_uris": {"ios": "https://dc.lft.to/lastmile_qr_scan", "android": "https://dc.lft.to/lastmile_qr_scan"}, "is_reserved": 0, "fusion_lat": 0.0, "name": "af8ed088110137a84e0e72c7e491a2ab", "lat": 38.920869}, {"fusion_lon": 0.0, "bike_id": "b1a6fda8acf9ddddcecca2c7ae29dce6", "lon": -77.0304855, "type": "electric_scooter", "is_disabled": 0, "rental_uris": {"ios": "https://dc.lft.to/lastmile_qr_scan", "android": "https://dc.lft.to/lastmile_qr_scan"}, "is_reserved": 0, "fusion_lat": 0.0, "name": "b1a6fda8acf9ddddcecca2c7ae29dce6", "lat": 38.92322883333333}, {"fusion_lon": 0.0, "bike_id": "66d8e622a23fc6de91499504e534672d", "lon": -77.0324825, "type": "electric_scooter", "is_disabled": 0, "rental_uris": {"ios": "https://dc.lft.to/lastmile_qr_scan", "android": "https://dc.lft.to/lastmile_qr_scan"}, "is_reserved": 0, "fusion_lat": 0.0, "name": "66d8e622a23fc6de91499504e534672d", "lat": 38.90552533333333}, {"fusion_lon": 0.0, "bike_id": "ab46ccc640ffa80f76bb34ee772e9c6d", "lon": -77.0487105, "type": "electric_scooter", "is_disabled": 0, "rental_uris": {"ios": "https://dc.lft.to/lastmile_qr_scan", "android": "https://dc.lft.to/lastmile_qr_scan"}, "is_reserved": 0, "fusion_lat": 0.0, "name": "ab46ccc640ffa80f76bb34ee772e9c6d", "lat": 38.90463066666667}, {"fusion_lon": 0.0, "bike_id": "d4e909e6d523381204a2106dd126f1ff", "lon": -77.02204583333334, "type": "electric_scooter", "is_disabled": 0, "rental_uris": {"ios": "https://dc.lft.to/lastmile_qr_scan", "android": "https://dc.lft.to/lastmile_qr_scan"}, "is_reserved": 0, "fusion_lat": 0.0, "name": "d4e909e6d523381204a2106dd126f1ff", "lat": 38.915486}, {"fusion_lon": 0.0, "bike_id": "bb64b3347ad91b1d1d9d1952a40f58da", "lon": -77.02616233333333, "type": "electric_scooter", "is_disabled": 0, "rental_uris": {"ios": "https://dc.lft.to/lastmile_qr_scan", "android": "https://dc.lft.to/lastmile_qr_scan"}, "is_reserved": 0, "fusion_lat": 0.0, "name": "bb64b3347ad91b1d1d9d1952a40f58da", "lat": 38.91685316666667}, {"fusion_lon": 0.0, "bike_id": "c0616f9f6c4636859f85c77ee860462b", "lon": -77.00941666666667, "type": "electric_scooter", "is_disabled": 0, "rental_uris": {"ios": "https://dc.lft.to/lastmile_qr_scan", "android": "https://dc.lft.to/lastmile_qr_scan"}, "is_reserved": 0, "fusion_lat": 0.0, "name": "c0616f9f6c4636859f85c77ee860462b", "lat": 38.89654783333334}, {"fusion_lon": 0.0, "bike_id": "51ea785efd275ed627230653e8c3dd59", "lon": -77.01026283333333, "type": "electric_bike", "is_disabled": 0, "rental_uris": {"ios": "https://dc.lft.to/lastmile_qr_scan", "android": "https://dc.lft.to/lastmile_qr_scan"}, "is_reserved": 0, "fusion_lat": 0.0, "name": "51ea785efd275ed627230653e8c3dd59", "lat": 38.95601383333333}, {"fusion_lon": 0.0, "bike_id": "f2b22beb018cf6f39c3c10bc9321e45a", "lon": -77.0242185, "type": "electric_scooter", "is_disabled": 0, "rental_uris": {"ios": "https://dc.lft.to/lastmile_qr_scan", "android": "https://dc.lft.to/lastmile_qr_scan"}, "is_reserved": 0, "fusion_lat": 0.0, "name": "f2b22beb018cf6f39c3c10bc9321e45a", "lat": 38.892244}, {"fusion_lon": 0.0, "bike_id": "cd676abc72dd71b55fa823f2e4832eac", "lon": -77.00466716666666, "type": "electric_scooter", "is_disabled": 0, "rental_uris": {"ios": "https://dc.lft.to/lastmile_qr_scan", "android": "https://dc.lft.to/lastmile_qr_scan"}, "is_reserved": 0, "fusion_lat": 0.0, "name": "cd676abc72dd71b55fa823f2e4832eac", "lat": 38.9119255}, {"fusion_lon": 0.0, "bike_id": "5be73a3af3aca5bc799fee26ad5b2849", "lon": -77.0037455, "type": "electric_scooter", "is_disabled": 0, "rental_uris": {"ios": "https://dc.lft.to/lastmile_qr_scan", "android": "https://dc.lft.to/lastmile_qr_scan"}, "is_reserved": 0, "fusion_lat": 0.0, "name": "5be73a3af3aca5bc799fee26ad5b2849", "lat": 38.897313833333335}, {"fusion_lon": 0.0, "bike_id": "5ff842b913cc524b0928a7e62e59cf7c", "lon": -77.03442733333333, "type": "electric_scooter", "is_disabled": 0, "rental_uris": {"ios": "https://dc.lft.to/lastmile_qr_scan", "android": "https://dc.lft.to/lastmile_qr_scan"}, "is_reserved": 0, "fusion_lat": 0.0, "name": "5ff842b913cc524b0928a7e62e59cf7c", "lat": 38.91803916666667}, {"fusion_lon": 0.0, "bike_id": "bd09b9077bd7575b209856dc07b24b88", "lon": -76.9792455, "type": "electric_scooter", "is_disabled": 0, "rental_uris": {"ios": "https://dc.lft.to/lastmile_qr_scan", "android": "https://dc.lft.to/lastmile_qr_scan"}, "is_reserved": 0, "fusion_lat": 0.0, "name": "bd09b9077bd7575b209856dc07b24b88", "lat": 38.90247633333333}, {"fusion_lon": 0.0, "bike_id": "83c57f7e5e0a1b3d3426cad52a14aec3", "lon": -77.04409183333334, "type": "electric_scooter", "is_disabled": 0, "rental_uris": {"ios": "https://dc.lft.to/lastmile_qr_scan", "android": "https://dc.lft.to/lastmile_qr_scan"}, "is_reserved": 0, "fusion_lat": 0.0, "name": "83c57f7e5e0a1b3d3426cad52a14aec3", "lat": 38.908978833333336}, {"fusion_lon": 0.0, "bike_id": "39c93509b9678457582b5e6602d4b527", "lon": -77.04024516666666, "type": "electric_scooter", "is_disabled": 0, "rental_uris": {"ios": "https://dc.lft.to/lastmile_qr_scan", "android": "https://dc.lft.to/lastmile_qr_scan"}, "is_reserved": 0, "fusion_lat": 0.0, "name": "39c93509b9678457582b5e6602d4b527", "lat": 38.924691833333334}, {"fusion_lon": 0.0, "bike_id": "67036b076eb1116b4d87cb142f0722e5", "lon": -76.977204, "type": "electric_scooter", "is_disabled": 0, "rental_uris": {"ios": "https://dc.lft.to/lastmile_qr_scan", "android": "https://dc.lft.to/lastmile_qr_scan"}, "is_reserved": 0, "fusion_lat": 0.0, "name": "67036b076eb1116b4d87cb142f0722e5", "lat": 38.88824066666667}, {"fusion_lon": 0.0, "bike_id": "84ea447d403198269067632b5f45511b", "lon": -77.03314583333334, "type": "electric_scooter", "is_disabled": 0, "rental_uris": {"ios": "https://dc.lft.to/lastmile_qr_scan", "android": "https://dc.lft.to/lastmile_qr_scan"}, "is_reserved": 0, "fusion_lat": 0.0, "name": "84ea447d403198269067632b5f45511b", "lat": 38.90965216666667}, {"fusion_lon": 0.0, "bike_id": "b0d95dc2b7e3ba53ee82ee0b4fc9ccda", "lon": -77.001714, "type": "electric_scooter", "is_disabled": 0, "rental_uris": {"ios": "https://dc.lft.to/lastmile_qr_scan", "android": "https://dc.lft.to/lastmile_qr_scan"}, "is_reserved": 0, "fusion_lat": 0.0, "name": "b0d95dc2b7e3ba53ee82ee0b4fc9ccda", "lat": 38.87373083333333}, {"fusion_lon": 0.0, "bike_id": "42737f0f97370c3d32a3a7cf608c6df3", "lon": -76.956924, "type": "electric_bike", "is_disabled": 0, "rental_uris": {"ios": "https://dc.lft.to/lastmile_qr_scan", "android": "https://dc.lft.to/lastmile_qr_scan"}, "is_reserved": 0, "fusion_lat": 0.0, "name": "42737f0f97370c3d32a3a7cf608c6df3", "lat": 38.850941}, {"fusion_lon": 0.0, "bike_id": "df39f16bf7a697ef1c40258749421bea", "lon": -77.0122945, "type": "electric_scooter", "is_disabled": 0, "rental_uris": {"ios": "https://dc.lft.to/lastmile_qr_scan", "android": "https://dc.lft.to/lastmile_qr_scan"}, "is_reserved": 0, "fusion_lat": 0.0, "name": "df39f16bf7a697ef1c40258749421bea", "lat": 38.8934785}, {"fusion_lon": 0.0, "bike_id": "562257cba2c8fb65e574d5af4e85bd85", "lon": -77.01731633333333, "type": "electric_scooter", "is_disabled": 0, "rental_uris": {"ios": "https://dc.lft.to/lastmile_qr_scan", "android": "https://dc.lft.to/lastmile_qr_scan"}, "is_reserved": 0, "fusion_lat": 0.0, "name": "562257cba2c8fb65e574d5af4e85bd85", "lat": 38.94319933333333}, {"fusion_lon": 0.0, "bike_id": "51f51136e3e77c18fed2d142414d5312", "lon": -76.997796, "type": "electric_scooter", "is_disabled": 0, "rental_uris": {"ios": "https://dc.lft.to/lastmile_qr_scan", "android": "https://dc.lft.to/lastmile_qr_scan"}, "is_reserved": 0, "fusion_lat": 0.0, "name": "51f51136e3e77c18fed2d142414d5312", "lat": 38.900419666666664}, {"fusion_lon": 0.0, "bike_id": "12663e5bd08a955f04b96cae040cb5fa", "lon": -77.01956883333334, "type": "electric_scooter", "is_disabled": 0, "rental_uris": {"ios": "https://dc.lft.to/lastmile_qr_scan", "android": "https://dc.lft.to/lastmile_qr_scan"}, "is_reserved": 0, "fusion_lat": 0.0, "name": "12663e5bd08a955f04b96cae040cb5fa", "lat": 38.923308}, {"fusion_lon": 0.0, "bike_id": "3b4c1b43eed2e781850041d8a5d13701", "lon": -77.05146366666666, "type": "electric_scooter", "is_disabled": 0, "rental_uris": {"ios": "https://dc.lft.to/lastmile_qr_scan", "android": "https://dc.lft.to/lastmile_qr_scan"}, "is_reserved": 0, "fusion_lat": 0.0, "name": "3b4c1b43eed2e781850041d8a5d13701", "lat": 38.90630733333333}, {"fusion_lon": 0.0, "bike_id": "3b5800ba5eab15dc4f56ce21be0827d9", "lon": -77.0194555, "type": "electric_scooter", "is_disabled": 0, "rental_uris": {"ios": "https://dc.lft.to/lastmile_qr_scan", "android": "https://dc.lft.to/lastmile_qr_scan"}, "is_reserved": 0, "fusion_lat": 0.0, "name": "3b5800ba5eab15dc4f56ce21be0827d9", "lat": 38.92420533333333}, {"fusion_lon": 0.0, "bike_id": "68a55a867312964ed0525e5b89cee394", "lon": -77.02839983333334, "type": "electric_bike", "is_disabled": 0, "rental_uris": {"ios": "https://dc.lft.to/lastmile_qr_scan", "android": "https://dc.lft.to/lastmile_qr_scan"}, "is_reserved": 0, "fusion_lat": 0.0, "name": "68a55a867312964ed0525e5b89cee394", "lat": 38.9426745}, {"fusion_lon": 0.0, "bike_id": "ab465722503498194347067eea72c25c", "lon": -77.0200625, "type": "electric_scooter", "is_disabled": 0, "rental_uris": {"ios": "https://dc.lft.to/lastmile_qr_scan", "android": "https://dc.lft.to/lastmile_qr_scan"}, "is_reserved": 0, "fusion_lat": 0.0, "name": "ab465722503498194347067eea72c25c", "lat": 38.96445533333333}, {"fusion_lon": 0.0, "bike_id": "bf3e5da86ada5981d031f2aeb32f1556", "lon": -77.0475645, "type": "electric_scooter", "is_disabled": 0, "rental_uris": {"ios": "https://dc.lft.to/lastmile_qr_scan", "android": "https://dc.lft.to/lastmile_qr_scan"}, "is_reserved": 0, "fusion_lat": 0.0, "name": "bf3e5da86ada5981d031f2aeb32f1556", "lat": 38.901434}, {"fusion_lon": 0.0, "bike_id": "b1f65b09a2216c33c58b1835ec942a72", "lon": -77.0417015, "type": "electric_scooter", "is_disabled": 0, "rental_uris": {"ios": "https://dc.lft.to/lastmile_qr_scan", "android": "https://dc.lft.to/lastmile_qr_scan"}, "is_reserved": 0, "fusion_lat": 0.0, "name": "b1f65b09a2216c33c58b1835ec942a72", "lat": 38.899625}, {"fusion_lon": 0.0, "bike_id": "84c3b056818e207b78cc33ba7547ecaa", "lon": -77.0287155, "type": "electric_scooter", "is_disabled": 0, "rental_uris": {"ios": "https://dc.lft.to/lastmile_qr_scan", "android": "https://dc.lft.to/lastmile_qr_scan"}, "is_reserved": 0, "fusion_lat": 0.0, "name": "84c3b056818e207b78cc33ba7547ecaa", "lat": 38.932834666666665}, {"fusion_lon": 0.0, "bike_id": "48fe11b89b9bda75497886295ad0dae0", "lon": -77.01558266666666, "type": "electric_scooter", "is_disabled": 0, "rental_uris": {"ios": "https://dc.lft.to/lastmile_qr_scan", "android": "https://dc.lft.to/lastmile_qr_scan"}, "is_reserved": 0, "fusion_lat": 0.0, "name": "48fe11b89b9bda75497886295ad0dae0", "lat": 38.91472433333333}, {"fusion_lon": 0.0, "bike_id": "9284d7d532cdc294905e3abded8dc04b", "lon": -76.98842316666666, "type": "electric_bike", "is_disabled": 0, "rental_uris": {"ios": "https://dc.lft.to/lastmile_qr_scan", "android": "https://dc.lft.to/lastmile_qr_scan"}, "is_reserved": 0, "fusion_lat": 0.0, "name": "9284d7d532cdc294905e3abded8dc04b", "lat": 38.84276333333333}, {"fusion_lon": 0.0, "bike_id": "0e8cc8ba5e368b25a38d5201628480d3", "lon": -77.02691733333333, "type": "electric_scooter", "is_disabled": 0, "rental_uris": {"ios": "https://dc.lft.to/lastmile_qr_scan", "android": "https://dc.lft.to/lastmile_qr_scan"}, "is_reserved": 0, "fusion_lat": 0.0, "name": "0e8cc8ba5e368b25a38d5201628480d3", "lat": 38.90857466666667}, {"fusion_lon": 0.0, "bike_id": "ec75c0fabbab2df6ec6851e7a977d800", "lon": -77.02107466666666, "type": "electric_scooter", "is_disabled": 0, "rental_uris": {"ios": "https://dc.lft.to/lastmile_qr_scan", "android": "https://dc.lft.to/lastmile_qr_scan"}, "is_reserved": 0, "fusion_lat": 0.0, "name": "ec75c0fabbab2df6ec6851e7a977d800", "lat": 38.9225845}, {"fusion_lon": 0.0, "bike_id": "50145021f9af895605226720f19d1829", "lon": -77.01953016666667, "type": "electric_scooter", "is_disabled": 0, "rental_uris": {"ios": "https://dc.lft.to/lastmile_qr_scan", "android": "https://dc.lft.to/lastmile_qr_scan"}, "is_reserved": 0, "fusion_lat": 0.0, "name": "50145021f9af895605226720f19d1829", "lat": 38.922594333333336}, {"fusion_lon": 0.0, "bike_id": "80a314724401880dd3aba0ecf79e1469", "lon": -77.0091915, "type": "electric_scooter", "is_disabled": 0, "rental_uris": {"ios": "https://dc.lft.to/lastmile_qr_scan", "android": "https://dc.lft.to/lastmile_qr_scan"}, "is_reserved": 0, "fusion_lat": 0.0, "name": "80a314724401880dd3aba0ecf79e1469", "lat": 38.897878166666665}, {"fusion_lon": 0.0, "bike_id": "bf66b313536948fe8f8eaa006141d097", "lon": -77.02059783333333, "type": "electric_scooter", "is_disabled": 0, "rental_uris": {"ios": "https://dc.lft.to/lastmile_qr_scan", "android": "https://dc.lft.to/lastmile_qr_scan"}, "is_reserved": 0, "fusion_lat": 0.0, "name": "bf66b313536948fe8f8eaa006141d097", "lat": 38.913596166666665}, {"fusion_lon": 0.0, "bike_id": "7e93960f216848f5479da3702ffd1559", "lon": -77.0435385, "type": "electric_scooter", "is_disabled": 0, "rental_uris": {"ios": "https://dc.lft.to/lastmile_qr_scan", "android": "https://dc.lft.to/lastmile_qr_scan"}, "is_reserved": 0, "fusion_lat": 0.0, "name": "7e93960f216848f5479da3702ffd1559", "lat": 38.906071}, {"fusion_lon": 0.0, "bike_id": "2f288111a44c4dc23ff5b55d35551291", "lon": -76.99078683333333, "type": "electric_bike", "is_disabled": 0, "rental_uris": {"ios": "https://dc.lft.to/lastmile_qr_scan", "android": "https://dc.lft.to/lastmile_qr_scan"}, "is_reserved": 0, "fusion_lat": 0.0, "name": "2f288111a44c4dc23ff5b55d35551291", "lat": 38.898362}, {"fusion_lon": 0.0, "bike_id": "5beb748cf7aa9ba10a7f90a61f4620c9", "lon": -77.04108016666666, "type": "electric_scooter", "is_disabled": 0, "rental_uris": {"ios": "https://dc.lft.to/lastmile_qr_scan", "android": "https://dc.lft.to/lastmile_qr_scan"}, "is_reserved": 0, "fusion_lat": 0.0, "name": "5beb748cf7aa9ba10a7f90a61f4620c9", "lat": 38.898325666666665}, {"fusion_lon": 0.0, "bike_id": "a9d4f7766b4b64f569e379879b584540", "lon": -77.03571666666667, "type": "electric_bike", "is_disabled": 0, "rental_uris": {"ios": "https://dc.lft.to/lastmile_qr_scan", "android": "https://dc.lft.to/lastmile_qr_scan"}, "is_reserved": 0, "fusion_lat": 0.0, "name": "a9d4f7766b4b64f569e379879b584540", "lat": 38.9646545}, {"fusion_lon": 0.0, "bike_id": "56a26496ece581c65123cd1d6be59fec", "lon": -77.01867383333334, "type": "electric_scooter", "is_disabled": 0, "rental_uris": {"ios": "https://dc.lft.to/lastmile_qr_scan", "android": "https://dc.lft.to/lastmile_qr_scan"}, "is_reserved": 0, "fusion_lat": 0.0, "name": "56a26496ece581c65123cd1d6be59fec", "lat": 38.97370466666667}, {"fusion_lon": 0.0, "bike_id": "a9dbdfb2d59e1409c7c9198f1dd4d82e", "lon": -77.03866583333334, "type": "electric_scooter", "is_disabled": 0, "rental_uris": {"ios": "https://dc.lft.to/lastmile_qr_scan", "android": "https://dc.lft.to/lastmile_qr_scan"}, "is_reserved": 0, "fusion_lat": 0.0, "name": "a9dbdfb2d59e1409c7c9198f1dd4d82e", "lat": 38.925508}, {"fusion_lon": 0.0, "bike_id": "ab9bd33a45a35bcca35db81894eaf753", "lon": -77.00606583333334, "type": "electric_scooter", "is_disabled": 0, "rental_uris": {"ios": "https://dc.lft.to/lastmile_qr_scan", "android": "https://dc.lft.to/lastmile_qr_scan"}, "is_reserved": 0, "fusion_lat": 0.0, "name": "ab9bd33a45a35bcca35db81894eaf753", "lat": 38.91120133333333}, {"fusion_lon": 0.0, "bike_id": "dc9acf9a88c8434e2111d50842e34030", "lon": -77.03509566666666, "type": "electric_scooter", "is_disabled": 0, "rental_uris": {"ios": "https://dc.lft.to/lastmile_qr_scan", "android": "https://dc.lft.to/lastmile_qr_scan"}, "is_reserved": 0, "fusion_lat": 0.0, "name": "dc9acf9a88c8434e2111d50842e34030", "lat": 38.926383666666666}, {"fusion_lon": 0.0, "bike_id": "ea7e067fdea4daab4b92cc6cd05abd5a", "lon": -77.0420895, "type": "electric_scooter", "is_disabled": 0, "rental_uris": {"ios": "https://dc.lft.to/lastmile_qr_scan", "android": "https://dc.lft.to/lastmile_qr_scan"}, "is_reserved": 0, "fusion_lat": 0.0, "name": "ea7e067fdea4daab4b92cc6cd05abd5a", "lat": 38.9170085}, {"fusion_lon": 0.0, "bike_id": "4876c441fd3d8da80c24349d0d6a0cfd", "lon": -77.00305283333333, "type": "electric_scooter", "is_disabled": 0, "rental_uris": {"ios": "https://dc.lft.to/lastmile_qr_scan", "android": "https://dc.lft.to/lastmile_qr_scan"}, "is_reserved": 0, "fusion_lat": 0.0, "name": "4876c441fd3d8da80c24349d0d6a0cfd", "lat": 38.87637683333333}, {"fusion_lon": 0.0, "bike_id": "cbef6270aaaf82bba7aa28f737afc14e", "lon": -77.04771016666666, "type": "electric_scooter", "is_disabled": 0, "rental_uris": {"ios": "https://dc.lft.to/lastmile_qr_scan", "android": "https://dc.lft.to/lastmile_qr_scan"}, "is_reserved": 0, "fusion_lat": 0.0, "name": "cbef6270aaaf82bba7aa28f737afc14e", "lat": 38.91877483333333}, {"fusion_lon": 0.0, "bike_id": "948b23d7a0bec097095475564e312436", "lon": -77.01350433333333, "type": "electric_scooter", "is_disabled": 0, "rental_uris": {"ios": "https://dc.lft.to/lastmile_qr_scan", "android": "https://dc.lft.to/lastmile_qr_scan"}, "is_reserved": 0, "fusion_lat": 0.0, "name": "948b23d7a0bec097095475564e312436", "lat": 38.956776833333336}, {"fusion_lon": 0.0, "bike_id": "2c98a477cbdeffbb764ea3cc9003f225", "lon": -77.0886345, "type": "electric_scooter", "is_disabled": 0, "rental_uris": {"ios": "https://dc.lft.to/lastmile_qr_scan", "android": "https://dc.lft.to/lastmile_qr_scan"}, "is_reserved": 0, "fusion_lat": 0.0, "name": "2c98a477cbdeffbb764ea3cc9003f225", "lat": 38.93382833333333}, {"fusion_lon": 0.0, "bike_id": "cbe3ea72cf82c43ee4ab287e788c2451", "lon": -77.024824, "type": "electric_scooter", "is_disabled": 0, "rental_uris": {"ios": "https://dc.lft.to/lastmile_qr_scan", "android": "https://dc.lft.to/lastmile_qr_scan"}, "is_reserved": 0, "fusion_lat": 0.0, "name": "cbe3ea72cf82c43ee4ab287e788c2451", "lat": 38.941995}, {"fusion_lon": 0.0, "bike_id": "2b1e1a78891207cfe56cfcc48cc1010b", "lon": -77.0454245, "type": "electric_scooter", "is_disabled": 0, "rental_uris": {"ios": "https://dc.lft.to/lastmile_qr_scan", "android": "https://dc.lft.to/lastmile_qr_scan"}, "is_reserved": 0, "fusion_lat": 0.0, "name": "2b1e1a78891207cfe56cfcc48cc1010b", "lat": 38.934416}, {"fusion_lon": 0.0, "bike_id": "c0cf284469ced090baaf65239970bd01", "lon": -77.03985416666667, "type": "electric_scooter", "is_disabled": 0, "rental_uris": {"ios": "https://dc.lft.to/lastmile_qr_scan", "android": "https://dc.lft.to/lastmile_qr_scan"}, "is_reserved": 0, "fusion_lat": 0.0, "name": "c0cf284469ced090baaf65239970bd01", "lat": 38.9037605}, {"fusion_lon": 0.0, "bike_id": "8d3a1c24c38b839711a31c2eb06d8c38", "lon": -77.029639, "type": "electric_scooter", "is_disabled": 0, "rental_uris": {"ios": "https://dc.lft.to/lastmile_qr_scan", "android": "https://dc.lft.to/lastmile_qr_scan"}, "is_reserved": 0, "fusion_lat": 0.0, "name": "8d3a1c24c38b839711a31c2eb06d8c38", "lat": 38.94225}, {"fusion_lon": 0.0, "bike_id": "f072db5c5aa67d9d046080802ee4a88f", "lon": -77.02337, "type": "electric_scooter", "is_disabled": 0, "rental_uris": {"ios": "https://dc.lft.to/lastmile_qr_scan", "android": "https://dc.lft.to/lastmile_qr_scan"}, "is_reserved": 0, "fusion_lat": 0.0, "name": "f072db5c5aa67d9d046080802ee4a88f", "lat": 38.89610033333334}, {"fusion_lon": 0.0, "bike_id": "803e90a76e10f3056f1e1d8f2ed7d56c", "lon": -77.032396, "type": "electric_scooter", "is_disabled": 0, "rental_uris": {"ios": "https://dc.lft.to/lastmile_qr_scan", "android": "https://dc.lft.to/lastmile_qr_scan"}, "is_reserved": 0, "fusion_lat": 0.0, "name": "803e90a76e10f3056f1e1d8f2ed7d56c", "lat": 38.915685833333335}, {"fusion_lon": 0.0, "bike_id": "7a5643a893813f6c3788455b6e57656f", "lon": -77.026624, "type": "electric_scooter", "is_disabled": 0, "rental_uris": {"ios": "https://dc.lft.to/lastmile_qr_scan", "android": "https://dc.lft.to/lastmile_qr_scan"}, "is_reserved": 0, "fusion_lat": 0.0, "name": "7a5643a893813f6c3788455b6e57656f", "lat": 38.931037}, {"fusion_lon": 0.0, "bike_id": "218840d86617f69554d80c8bd37afb5a", "lon": -77.0224165, "type": "electric_scooter", "is_disabled": 0, "rental_uris": {"ios": "https://dc.lft.to/lastmile_qr_scan", "android": "https://dc.lft.to/lastmile_qr_scan"}, "is_reserved": 0, "fusion_lat": 0.0, "name": "218840d86617f69554d80c8bd37afb5a", "lat": 38.914192}, {"fusion_lon": 0.0, "bike_id": "018bac086a8977f08d76a126e9f3315d", "lon": -76.99620116666667, "type": "electric_scooter", "is_disabled": 0, "rental_uris": {"ios": "https://dc.lft.to/lastmile_qr_scan", "android": "https://dc.lft.to/lastmile_qr_scan"}, "is_reserved": 0, "fusion_lat": 0.0, "name": "018bac086a8977f08d76a126e9f3315d", "lat": 38.89470933333333}, {"fusion_lon": 0.0, "bike_id": "52e32f154b20ce62421afb6a84476d2d", "lon": -77.0332165, "type": "electric_scooter", "is_disabled": 0, "rental_uris": {"ios": "https://dc.lft.to/lastmile_qr_scan", "android": "https://dc.lft.to/lastmile_qr_scan"}, "is_reserved": 0, "fusion_lat": 0.0, "name": "52e32f154b20ce62421afb6a84476d2d", "lat": 38.91025066666667}, {"fusion_lon": 0.0, "bike_id": "9acd6a8693684fd9dc73ea3962fa0042", "lon": -77.00388483333333, "type": "electric_bike", "is_disabled": 0, "rental_uris": {"ios": "https://dc.lft.to/lastmile_qr_scan", "android": "https://dc.lft.to/lastmile_qr_scan"}, "is_reserved": 0, "fusion_lat": 0.0, "name": "9acd6a8693684fd9dc73ea3962fa0042", "lat": 38.836131}, {"fusion_lon": 0.0, "bike_id": "e2905fda03ae0d16410bd54446be3070", "lon": -77.00650166666667, "type": "electric_scooter", "is_disabled": 0, "rental_uris": {"ios": "https://dc.lft.to/lastmile_qr_scan", "android": "https://dc.lft.to/lastmile_qr_scan"}, "is_reserved": 0, "fusion_lat": 0.0, "name": "e2905fda03ae0d16410bd54446be3070", "lat": 38.871943}, {"fusion_lon": 0.0, "bike_id": "0a00b980018a92d5fe3a42f4950e7643", "lon": -77.01768233333334, "type": "electric_scooter", "is_disabled": 0, "rental_uris": {"ios": "https://dc.lft.to/lastmile_qr_scan", "android": "https://dc.lft.to/lastmile_qr_scan"}, "is_reserved": 0, "fusion_lat": 0.0, "name": "0a00b980018a92d5fe3a42f4950e7643", "lat": 38.906424666666666}, {"fusion_lon": 0.0, "bike_id": "ab6d4a89be106eb8b88d73bebf8c75c0", "lon": -77.078052, "type": "electric_bike", "is_disabled": 0, "rental_uris": {"ios": "https://dc.lft.to/lastmile_qr_scan", "android": "https://dc.lft.to/lastmile_qr_scan"}, "is_reserved": 0, "fusion_lat": 0.0, "name": "ab6d4a89be106eb8b88d73bebf8c75c0", "lat": 38.945248666666664}, {"fusion_lon": 0.0, "bike_id": "8ddb6caffa311e5f809eb93f2487673e", "lon": -77.04163916666667, "type": "electric_scooter", "is_disabled": 0, "rental_uris": {"ios": "https://dc.lft.to/lastmile_qr_scan", "android": "https://dc.lft.to/lastmile_qr_scan"}, "is_reserved": 0, "fusion_lat": 0.0, "name": "8ddb6caffa311e5f809eb93f2487673e", "lat": 38.90728466666667}, {"fusion_lon": 0.0, "bike_id": "4bc6b3413e08f3c9a92e917895f6deb8", "lon": -77.02614633333333, "type": "electric_scooter", "is_disabled": 0, "rental_uris": {"ios": "https://dc.lft.to/lastmile_qr_scan", "android": "https://dc.lft.to/lastmile_qr_scan"}, "is_reserved": 0, "fusion_lat": 0.0, "name": "4bc6b3413e08f3c9a92e917895f6deb8", "lat": 38.892392666666666}, {"fusion_lon": 0.0, "bike_id": "a8ee7dfafe46f8a0849780df1e909bfd", "lon": -77.02328166666666, "type": "electric_scooter", "is_disabled": 0, "rental_uris": {"ios": "https://dc.lft.to/lastmile_qr_scan", "android": "https://dc.lft.to/lastmile_qr_scan"}, "is_reserved": 0, "fusion_lat": 0.0, "name": "a8ee7dfafe46f8a0849780df1e909bfd", "lat": 38.89732033333333}, {"fusion_lon": 0.0, "bike_id": "e4c5e655534f7776430ee5b2eb540669", "lon": -77.07461716666667, "type": "electric_scooter", "is_disabled": 0, "rental_uris": {"ios": "https://dc.lft.to/lastmile_qr_scan", "android": "https://dc.lft.to/lastmile_qr_scan"}, "is_reserved": 0, "fusion_lat": 0.0, "name": "e4c5e655534f7776430ee5b2eb540669", "lat": 38.93563066666667}, {"fusion_lon": 0.0, "bike_id": "0569ae9f50b24723eb0884c8e91cad9e", "lon": -77.00897033333334, "type": "electric_scooter", "is_disabled": 0, "rental_uris": {"ios": "https://dc.lft.to/lastmile_qr_scan", "android": "https://dc.lft.to/lastmile_qr_scan"}, "is_reserved": 0, "fusion_lat": 0.0, "name": "0569ae9f50b24723eb0884c8e91cad9e", "lat": 38.89957833333333}, {"fusion_lon": 0.0, "bike_id": "96acbc74c6af690ba55b3fe5c9a2b54e", "lon": -76.97331033333333, "type": "electric_scooter", "is_disabled": 0, "rental_uris": {"ios": "https://dc.lft.to/lastmile_qr_scan", "android": "https://dc.lft.to/lastmile_qr_scan"}, "is_reserved": 0, "fusion_lat": 0.0, "name": "96acbc74c6af690ba55b3fe5c9a2b54e", "lat": 38.904093833333334}, {"fusion_lon": 0.0, "bike_id": "efb461a3acc15cec19f26476949e4a58", "lon": -77.0350255, "type": "electric_scooter", "is_disabled": 0, "rental_uris": {"ios": "https://dc.lft.to/lastmile_qr_scan", "android": "https://dc.lft.to/lastmile_qr_scan"}, "is_reserved": 0, "fusion_lat": 0.0, "name": "efb461a3acc15cec19f26476949e4a58", "lat": 38.92356183333333}, {"fusion_lon": 0.0, "bike_id": "7903fb7b740befc8dd0e57d9277f5d24", "lon": -77.0585425, "type": "electric_scooter", "is_disabled": 0, "rental_uris": {"ios": "https://dc.lft.to/lastmile_qr_scan", "android": "https://dc.lft.to/lastmile_qr_scan"}, "is_reserved": 0, "fusion_lat": 0.0, "name": "7903fb7b740befc8dd0e57d9277f5d24", "lat": 38.935839333333334}, {"fusion_lon": 0.0, "bike_id": "a5a6f1625ec285ff2283b8effac9e74e", "lon": -77.00451683333333, "type": "electric_scooter", "is_disabled": 0, "rental_uris": {"ios": "https://dc.lft.to/lastmile_qr_scan", "android": "https://dc.lft.to/lastmile_qr_scan"}, "is_reserved": 0, "fusion_lat": 0.0, "name": "a5a6f1625ec285ff2283b8effac9e74e", "lat": 38.837957}, {"fusion_lon": 0.0, "bike_id": "b68b65bc77ab622e7c79f467a129c86b", "lon": -77.05742216666667, "type": "electric_scooter", "is_disabled": 0, "rental_uris": {"ios": "https://dc.lft.to/lastmile_qr_scan", "android": "https://dc.lft.to/lastmile_qr_scan"}, "is_reserved": 0, "fusion_lat": 0.0, "name": "b68b65bc77ab622e7c79f467a129c86b", "lat": 38.93536783333333}, {"fusion_lon": 0.0, "bike_id": "7194f4397514b1cf1d36ab6ac0275e7f", "lon": -77.02983616666667, "type": "electric_scooter", "is_disabled": 0, "rental_uris": {"ios": "https://dc.lft.to/lastmile_qr_scan", "android": "https://dc.lft.to/lastmile_qr_scan"}, "is_reserved": 0, "fusion_lat": 0.0, "name": "7194f4397514b1cf1d36ab6ac0275e7f", "lat": 38.911242}, {"fusion_lon": 0.0, "bike_id": "d6455a60e2dd0bfd87dffa21c97453f0", "lon": -77.0474405, "type": "electric_bike", "is_disabled": 0, "rental_uris": {"ios": "https://dc.lft.to/lastmile_qr_scan", "android": "https://dc.lft.to/lastmile_qr_scan"}, "is_reserved": 0, "fusion_lat": 0.0, "name": "d6455a60e2dd0bfd87dffa21c97453f0", "lat": 39.0002845}, {"fusion_lon": 0.0, "bike_id": "7739bf7043d5b6b3ddf14cfc66f3c1e7", "lon": -77.04998716666667, "type": "electric_scooter", "is_disabled": 0, "rental_uris": {"ios": "https://dc.lft.to/lastmile_qr_scan", "android": "https://dc.lft.to/lastmile_qr_scan"}, "is_reserved": 0, "fusion_lat": 0.0, "name": "7739bf7043d5b6b3ddf14cfc66f3c1e7", "lat": 38.90534733333333}, {"fusion_lon": 0.0, "bike_id": "6c81cc066aa08dedaef9c62e6658cef1", "lon": -77.07234366666667, "type": "electric_scooter", "is_disabled": 0, "rental_uris": {"ios": "https://dc.lft.to/lastmile_qr_scan", "android": "https://dc.lft.to/lastmile_qr_scan"}, "is_reserved": 0, "fusion_lat": 0.0, "name": "6c81cc066aa08dedaef9c62e6658cef1", "lat": 38.938545500000004}, {"fusion_lon": 0.0, "bike_id": "72b9513c036841e3e2945b44592ff215", "lon": -77.01915133333334, "type": "electric_scooter", "is_disabled": 0, "rental_uris": {"ios": "https://dc.lft.to/lastmile_qr_scan", "android": "https://dc.lft.to/lastmile_qr_scan"}, "is_reserved": 0, "fusion_lat": 0.0, "name": "72b9513c036841e3e2945b44592ff215", "lat": 38.92025366666667}, {"fusion_lon": 0.0, "bike_id": "340fd7c0e07872ad1d02aac833fb53c4", "lon": -77.07478366666666, "type": "electric_bike", "is_disabled": 0, "rental_uris": {"ios": "https://dc.lft.to/lastmile_qr_scan", "android": "https://dc.lft.to/lastmile_qr_scan"}, "is_reserved": 0, "fusion_lat": 0.0, "name": "340fd7c0e07872ad1d02aac833fb53c4", "lat": 38.92080133333333}, {"fusion_lon": 0.0, "bike_id": "dc0651f29419dc8167667ca725e62c7b", "lon": -77.00511666666667, "type": "electric_scooter", "is_disabled": 0, "rental_uris": {"ios": "https://dc.lft.to/lastmile_qr_scan", "android": "https://dc.lft.to/lastmile_qr_scan"}, "is_reserved": 0, "fusion_lat": 0.0, "name": "dc0651f29419dc8167667ca725e62c7b", "lat": 38.91794483333334}, {"fusion_lon": 0.0, "bike_id": "d15ca270fbb1618d7ac202ecedb63400", "lon": -76.98892916666667, "type": "electric_scooter", "is_disabled": 0, "rental_uris": {"ios": "https://dc.lft.to/lastmile_qr_scan", "android": "https://dc.lft.to/lastmile_qr_scan"}, "is_reserved": 0, "fusion_lat": 0.0, "name": "d15ca270fbb1618d7ac202ecedb63400", "lat": 38.861175}, {"fusion_lon": 0.0, "bike_id": "31407f37c31b7299b1bdae8d85f00ab7", "lon": -77.02752616666666, "type": "electric_scooter", "is_disabled": 0, "rental_uris": {"ios": "https://dc.lft.to/lastmile_qr_scan", "android": "https://dc.lft.to/lastmile_qr_scan"}, "is_reserved": 0, "fusion_lat": 0.0, "name": "31407f37c31b7299b1bdae8d85f00ab7", "lat": 38.96609866666667}, {"fusion_lon": 0.0, "bike_id": "7494a9ed847f49974a2f3ff9cd806186", "lon": -77.02186416666666, "type": "electric_scooter", "is_disabled": 0, "rental_uris": {"ios": "https://dc.lft.to/lastmile_qr_scan", "android": "https://dc.lft.to/lastmile_qr_scan"}, "is_reserved": 0, "fusion_lat": 0.0, "name": "7494a9ed847f49974a2f3ff9cd806186", "lat": 38.9188885}, {"fusion_lon": 0.0, "bike_id": "238f0f88e40455c112dfb50cb1ed4092", "lon": -76.99965066666667, "type": "electric_bike", "is_disabled": 0, "rental_uris": {"ios": "https://dc.lft.to/lastmile_qr_scan", "android": "https://dc.lft.to/lastmile_qr_scan"}, "is_reserved": 0, "fusion_lat": 0.0, "name": "238f0f88e40455c112dfb50cb1ed4092", "lat": 38.908657166666664}, {"fusion_lon": 0.0, "bike_id": "51573056ba2418dca6f95bad75a81a11", "lon": -76.993904, "type": "electric_scooter", "is_disabled": 0, "rental_uris": {"ios": "https://dc.lft.to/lastmile_qr_scan", "android": "https://dc.lft.to/lastmile_qr_scan"}, "is_reserved": 0, "fusion_lat": 0.0, "name": "51573056ba2418dca6f95bad75a81a11", "lat": 38.8920165}, {"fusion_lon": 0.0, "bike_id": "67428195bd6a8679cb742d4484d9b013", "lon": -76.90308, "type": "electric_bike", "is_disabled": 0, "rental_uris": {"ios": "https://dc.lft.to/lastmile_qr_scan", "android": "https://dc.lft.to/lastmile_qr_scan"}, "is_reserved": 0, "fusion_lat": 0.0, "name": "67428195bd6a8679cb742d4484d9b013", "lat": 39.003017}, {"fusion_lon": 0.0, "bike_id": "67e01eb08767384688bebafea529cae8", "lon": -77.005958, "type": "electric_scooter", "is_disabled": 0, "rental_uris": {"ios": "https://dc.lft.to/lastmile_qr_scan", "android": "https://dc.lft.to/lastmile_qr_scan"}, "is_reserved": 0, "fusion_lat": 0.0, "name": "67e01eb08767384688bebafea529cae8", "lat": 38.905561}, {"fusion_lon": 0.0, "bike_id": "d3cb14e2e63394d1610b4ed266865072", "lon": -77.03342733333334, "type": "electric_scooter", "is_disabled": 0, "rental_uris": {"ios": "https://dc.lft.to/lastmile_qr_scan", "android": "https://dc.lft.to/lastmile_qr_scan"}, "is_reserved": 0, "fusion_lat": 0.0, "name": "d3cb14e2e63394d1610b4ed266865072", "lat": 38.90278083333333}, {"fusion_lon": 0.0, "bike_id": "ded8e0e60f34cb383deac37b3f330a1e", "lon": -77.028312, "type": "electric_bike", "is_disabled": 0, "rental_uris": {"ios": "https://dc.lft.to/lastmile_qr_scan", "android": "https://dc.lft.to/lastmile_qr_scan"}, "is_reserved": 0, "fusion_lat": 0.0, "name": "ded8e0e60f34cb383deac37b3f330a1e", "lat": 38.92236716666667}, {"fusion_lon": 0.0, "bike_id": "c485a4cb55b3ffe7a0f39fded1c6cc18", "lon": -77.05090916666667, "type": "electric_bike", "is_disabled": 0, "rental_uris": {"ios": "https://dc.lft.to/lastmile_qr_scan", "android": "https://dc.lft.to/lastmile_qr_scan"}, "is_reserved": 0, "fusion_lat": 0.0, "name": "c485a4cb55b3ffe7a0f39fded1c6cc18", "lat": 38.81332833333333}, {"fusion_lon": 0.0, "bike_id": "fcfa1caaf94d26ddf09f3442f78a3cce", "lon": -76.933874, "type": "electric_scooter", "is_disabled": 0, "rental_uris": {"ios": "https://dc.lft.to/lastmile_qr_scan", "android": "https://dc.lft.to/lastmile_qr_scan"}, "is_reserved": 0, "fusion_lat": 0.0, "name": "fcfa1caaf94d26ddf09f3442f78a3cce", "lat": 38.89916683333333}, {"fusion_lon": 0.0, "bike_id": "1d1b75f293c91ed73339046059ba9390", "lon": -77.04861166666667, "type": "electric_scooter", "is_disabled": 0, "rental_uris": {"ios": "https://dc.lft.to/lastmile_qr_scan", "android": "https://dc.lft.to/lastmile_qr_scan"}, "is_reserved": 0, "fusion_lat": 0.0, "name": "1d1b75f293c91ed73339046059ba9390", "lat": 38.91334716666667}, {"fusion_lon": 0.0, "bike_id": "5bfda90f0ff2d54c18aa7fe73cb0523a", "lon": -77.046834, "type": "electric_scooter", "is_disabled": 0, "rental_uris": {"ios": "https://dc.lft.to/lastmile_qr_scan", "android": "https://dc.lft.to/lastmile_qr_scan"}, "is_reserved": 0, "fusion_lat": 0.0, "name": "5bfda90f0ff2d54c18aa7fe73cb0523a", "lat": 38.897368}, {"fusion_lon": 0.0, "bike_id": "bc252a8ecde6cc04f17e4b73c9ffdc4e", "lon": -77.001192, "type": "electric_scooter", "is_disabled": 0, "rental_uris": {"ios": "https://dc.lft.to/lastmile_qr_scan", "android": "https://dc.lft.to/lastmile_qr_scan"}, "is_reserved": 0, "fusion_lat": 0.0, "name": "bc252a8ecde6cc04f17e4b73c9ffdc4e", "lat": 38.876169166666664}, {"fusion_lon": 0.0, "bike_id": "3c2a94b8dcd25a609b562402dec8771e", "lon": -77.07165266666667, "type": "electric_bike", "is_disabled": 0, "rental_uris": {"ios": "https://dc.lft.to/lastmile_qr_scan", "android": "https://dc.lft.to/lastmile_qr_scan"}, "is_reserved": 0, "fusion_lat": 0.0, "name": "3c2a94b8dcd25a609b562402dec8771e", "lat": 38.90784583333333}, {"fusion_lon": 0.0, "bike_id": "e86a872f7327359276e324d8e436a30f", "lon": -77.01258816666666, "type": "electric_scooter", "is_disabled": 0, "rental_uris": {"ios": "https://dc.lft.to/lastmile_qr_scan", "android": "https://dc.lft.to/lastmile_qr_scan"}, "is_reserved": 0, "fusion_lat": 0.0, "name": "e86a872f7327359276e324d8e436a30f", "lat": 38.9001945}, {"fusion_lon": 0.0, "bike_id": "807c8e16f93a2a95a729fdcd45d9f695", "lon": -77.0191095, "type": "electric_scooter", "is_disabled": 0, "rental_uris": {"ios": "https://dc.lft.to/lastmile_qr_scan", "android": "https://dc.lft.to/lastmile_qr_scan"}, "is_reserved": 0, "fusion_lat": 0.0, "name": "807c8e16f93a2a95a729fdcd45d9f695", "lat": 38.89975866666666}, {"fusion_lon": 0.0, "bike_id": "627c2fb2a88410eb9847f369b55fe5c0", "lon": -76.99871783333333, "type": "electric_scooter", "is_disabled": 0, "rental_uris": {"ios": "https://dc.lft.to/lastmile_qr_scan", "android": "https://dc.lft.to/lastmile_qr_scan"}, "is_reserved": 0, "fusion_lat": 0.0, "name": "627c2fb2a88410eb9847f369b55fe5c0", "lat": 38.900209833333335}, {"fusion_lon": 0.0, "bike_id": "f74f812f058108ac3cb027e350831477", "lon": -77.034152, "type": "electric_scooter", "is_disabled": 0, "rental_uris": {"ios": "https://dc.lft.to/lastmile_qr_scan", "android": "https://dc.lft.to/lastmile_qr_scan"}, "is_reserved": 0, "fusion_lat": 0.0, "name": "f74f812f058108ac3cb027e350831477", "lat": 38.919116}, {"fusion_lon": 0.0, "bike_id": "e04a62c2c1617812c0532055a5e6c53a", "lon": -77.0219005, "type": "electric_scooter", "is_disabled": 0, "rental_uris": {"ios": "https://dc.lft.to/lastmile_qr_scan", "android": "https://dc.lft.to/lastmile_qr_scan"}, "is_reserved": 0, "fusion_lat": 0.0, "name": "e04a62c2c1617812c0532055a5e6c53a", "lat": 38.9199135}, {"fusion_lon": 0.0, "bike_id": "93781f9b6ee541ee04a819764d45eea9", "lon": -77.0420005, "type": "electric_scooter", "is_disabled": 0, "rental_uris": {"ios": "https://dc.lft.to/lastmile_qr_scan", "android": "https://dc.lft.to/lastmile_qr_scan"}, "is_reserved": 0, "fusion_lat": 0.0, "name": "93781f9b6ee541ee04a819764d45eea9", "lat": 38.89226883333333}, {"fusion_lon": 0.0, "bike_id": "a107b8349d79264ba3e0739c29e2fa0a", "lon": -77.03843983333333, "type": "electric_scooter", "is_disabled": 0, "rental_uris": {"ios": "https://dc.lft.to/lastmile_qr_scan", "android": "https://dc.lft.to/lastmile_qr_scan"}, "is_reserved": 0, "fusion_lat": 0.0, "name": "a107b8349d79264ba3e0739c29e2fa0a", "lat": 38.902816333333334}, {"fusion_lon": 0.0, "bike_id": "22d87474b8eb3569c1fb16e0f7098bcb", "lon": -77.02012016666667, "type": "electric_scooter", "is_disabled": 0, "rental_uris": {"ios": "https://dc.lft.to/lastmile_qr_scan", "android": "https://dc.lft.to/lastmile_qr_scan"}, "is_reserved": 0, "fusion_lat": 0.0, "name": "22d87474b8eb3569c1fb16e0f7098bcb", "lat": 38.92849733333333}, {"fusion_lon": 0.0, "bike_id": "0a2ed03b97473c7bf0388f8a75d77c66", "lon": -77.07269583333333, "type": "electric_scooter", "is_disabled": 0, "rental_uris": {"ios": "https://dc.lft.to/lastmile_qr_scan", "android": "https://dc.lft.to/lastmile_qr_scan"}, "is_reserved": 0, "fusion_lat": 0.0, "name": "0a2ed03b97473c7bf0388f8a75d77c66", "lat": 38.909168666666666}, {"fusion_lon": 0.0, "bike_id": "a7bed1c81ed5dd5afc49b3f55fd2dc4f", "lon": -76.9950435, "type": "electric_scooter", "is_disabled": 0, "rental_uris": {"ios": "https://dc.lft.to/lastmile_qr_scan", "android": "https://dc.lft.to/lastmile_qr_scan"}, "is_reserved": 0, "fusion_lat": 0.0, "name": "a7bed1c81ed5dd5afc49b3f55fd2dc4f", "lat": 38.899765333333335}, {"fusion_lon": 0.0, "bike_id": "ef432e59384942b26d6c5f486f0fd3b1", "lon": -76.99228133333334, "type": "electric_scooter", "is_disabled": 0, "rental_uris": {"ios": "https://dc.lft.to/lastmile_qr_scan", "android": "https://dc.lft.to/lastmile_qr_scan"}, "is_reserved": 0, "fusion_lat": 0.0, "name": "ef432e59384942b26d6c5f486f0fd3b1", "lat": 38.86292816666667}, {"fusion_lon": 0.0, "bike_id": "ef84eb3cc0f76428455b31ea1f58a987", "lon": -77.02927783333334, "type": "electric_scooter", "is_disabled": 0, "rental_uris": {"ios": "https://dc.lft.to/lastmile_qr_scan", "android": "https://dc.lft.to/lastmile_qr_scan"}, "is_reserved": 0, "fusion_lat": 0.0, "name": "ef84eb3cc0f76428455b31ea1f58a987", "lat": 38.89834416666667}, {"fusion_lon": 0.0, "bike_id": "394cb8a19712a9b54f99132a9ca50d97", "lon": -77.02702366666666, "type": "electric_scooter", "is_disabled": 0, "rental_uris": {"ios": "https://dc.lft.to/lastmile_qr_scan", "android": "https://dc.lft.to/lastmile_qr_scan"}, "is_reserved": 0, "fusion_lat": 0.0, "name": "394cb8a19712a9b54f99132a9ca50d97", "lat": 38.900211}, {"fusion_lon": 0.0, "bike_id": "ba0a976dc07322eef1b7742a80b47d7b", "lon": -76.996161, "type": "electric_scooter", "is_disabled": 0, "rental_uris": {"ios": "https://dc.lft.to/lastmile_qr_scan", "android": "https://dc.lft.to/lastmile_qr_scan"}, "is_reserved": 0, "fusion_lat": 0.0, "name": "ba0a976dc07322eef1b7742a80b47d7b", "lat": 38.88267183333333}, {"fusion_lon": 0.0, "bike_id": "fd074bfd9da0afd7740e3480fdf454c9", "lon": -77.0790485, "type": "electric_bike", "is_disabled": 0, "rental_uris": {"ios": "https://dc.lft.to/lastmile_qr_scan", "android": "https://dc.lft.to/lastmile_qr_scan"}, "is_reserved": 0, "fusion_lat": 0.0, "name": "fd074bfd9da0afd7740e3480fdf454c9", "lat": 38.8482355}, {"fusion_lon": 0.0, "bike_id": "2f550668e4ffe5125d864b809167a336", "lon": -77.05033233333333, "type": "electric_scooter", "is_disabled": 0, "rental_uris": {"ios": "https://dc.lft.to/lastmile_qr_scan", "android": "https://dc.lft.to/lastmile_qr_scan"}, "is_reserved": 0, "fusion_lat": 0.0, "name": "2f550668e4ffe5125d864b809167a336", "lat": 38.898329333333336}, {"fusion_lon": 0.0, "bike_id": "38605b2520100799f06f19bd0e0b3ff0", "lon": -77.01856, "type": "electric_scooter", "is_disabled": 0, "rental_uris": {"ios": "https://dc.lft.to/lastmile_qr_scan", "android": "https://dc.lft.to/lastmile_qr_scan"}, "is_reserved": 0, "fusion_lat": 0.0, "name": "38605b2520100799f06f19bd0e0b3ff0", "lat": 38.948903666666666}, {"fusion_lon": 0.0, "bike_id": "62e9734d3ed2f691b6c4a9b29c3f874e", "lon": -77.03466716666667, "type": "electric_scooter", "is_disabled": 0, "rental_uris": {"ios": "https://dc.lft.to/lastmile_qr_scan", "android": "https://dc.lft.to/lastmile_qr_scan"}, "is_reserved": 0, "fusion_lat": 0.0, "name": "62e9734d3ed2f691b6c4a9b29c3f874e", "lat": 38.908236333333335}, {"fusion_lon": 0.0, "bike_id": "f5ffe1651ef81bd5e1816f2bb7b45d83", "lon": -77.05006583333333, "type": "electric_scooter", "is_disabled": 0, "rental_uris": {"ios": "https://dc.lft.to/lastmile_qr_scan", "android": "https://dc.lft.to/lastmile_qr_scan"}, "is_reserved": 0, "fusion_lat": 0.0, "name": "f5ffe1651ef81bd5e1816f2bb7b45d83", "lat": 38.89935}, {"fusion_lon": 0.0, "bike_id": "76b9b581376817f67ca9abc516ce8cff", "lon": -77.0337645, "type": "electric_scooter", "is_disabled": 0, "rental_uris": {"ios": "https://dc.lft.to/lastmile_qr_scan", "android": "https://dc.lft.to/lastmile_qr_scan"}, "is_reserved": 0, "fusion_lat": 0.0, "name": "76b9b581376817f67ca9abc516ce8cff", "lat": 38.919691}, {"fusion_lon": 0.0, "bike_id": "178361110a1f19ab07259e9cde76d496", "lon": -77.043409, "type": "electric_scooter", "is_disabled": 0, "rental_uris": {"ios": "https://dc.lft.to/lastmile_qr_scan", "android": "https://dc.lft.to/lastmile_qr_scan"}, "is_reserved": 0, "fusion_lat": 0.0, "name": "178361110a1f19ab07259e9cde76d496", "lat": 38.906378833333335}, {"fusion_lon": 0.0, "bike_id": "0c0a55af7473afb22e7f9b5693221921", "lon": -76.96260716666667, "type": "electric_scooter", "is_disabled": 0, "rental_uris": {"ios": "https://dc.lft.to/lastmile_qr_scan", "android": "https://dc.lft.to/lastmile_qr_scan"}, "is_reserved": 0, "fusion_lat": 0.0, "name": "0c0a55af7473afb22e7f9b5693221921", "lat": 38.878691833333335}, {"fusion_lon": 0.0, "bike_id": "d91a647699e3364bcc189e1ac994f966", "lon": -77.02107216666667, "type": "electric_scooter", "is_disabled": 0, "rental_uris": {"ios": "https://dc.lft.to/lastmile_qr_scan", "android": "https://dc.lft.to/lastmile_qr_scan"}, "is_reserved": 0, "fusion_lat": 0.0, "name": "d91a647699e3364bcc189e1ac994f966", "lat": 38.90965516666667}, {"fusion_lon": 0.0, "bike_id": "24312aa0faba5119d06b61b02742cd89", "lon": -76.93755683333333, "type": "electric_scooter", "is_disabled": 0, "rental_uris": {"ios": "https://dc.lft.to/lastmile_qr_scan", "android": "https://dc.lft.to/lastmile_qr_scan"}, "is_reserved": 0, "fusion_lat": 0.0, "name": "24312aa0faba5119d06b61b02742cd89", "lat": 38.89050533333333}, {"fusion_lon": 0.0, "bike_id": "f94898611f2ecef3579c0b22c55fc73c", "lon": -77.03887433333334, "type": "electric_scooter", "is_disabled": 0, "rental_uris": {"ios": "https://dc.lft.to/lastmile_qr_scan", "android": "https://dc.lft.to/lastmile_qr_scan"}, "is_reserved": 0, "fusion_lat": 0.0, "name": "f94898611f2ecef3579c0b22c55fc73c", "lat": 38.90645133333334}, {"fusion_lon": 0.0, "bike_id": "6970c7cad4f074e21877508f60b48c41", "lon": -77.033064, "type": "electric_scooter", "is_disabled": 0, "rental_uris": {"ios": "https://dc.lft.to/lastmile_qr_scan", "android": "https://dc.lft.to/lastmile_qr_scan"}, "is_reserved": 0, "fusion_lat": 0.0, "name": "6970c7cad4f074e21877508f60b48c41", "lat": 38.928602833333336}, {"fusion_lon": 0.0, "bike_id": "2cfa561cc54c0858b72ba959e99cfd5d", "lon": -77.04297783333334, "type": "electric_scooter", "is_disabled": 0, "rental_uris": {"ios": "https://dc.lft.to/lastmile_qr_scan", "android": "https://dc.lft.to/lastmile_qr_scan"}, "is_reserved": 0, "fusion_lat": 0.0, "name": "2cfa561cc54c0858b72ba959e99cfd5d", "lat": 38.90846633333334}, {"fusion_lon": 0.0, "bike_id": "0f27b900af032336a7626f5b0841d6fe", "lon": -77.03458666666667, "type": "electric_scooter", "is_disabled": 0, "rental_uris": {"ios": "https://dc.lft.to/lastmile_qr_scan", "android": "https://dc.lft.to/lastmile_qr_scan"}, "is_reserved": 0, "fusion_lat": 0.0, "name": "0f27b900af032336a7626f5b0841d6fe", "lat": 38.9180435}, {"fusion_lon": 0.0, "bike_id": "f390eb5aa370e0f1761226a0cac7cc40", "lon": -77.02116033333333, "type": "electric_scooter", "is_disabled": 0, "rental_uris": {"ios": "https://dc.lft.to/lastmile_qr_scan", "android": "https://dc.lft.to/lastmile_qr_scan"}, "is_reserved": 0, "fusion_lat": 0.0, "name": "f390eb5aa370e0f1761226a0cac7cc40", "lat": 38.90487566666667}, {"fusion_lon": 0.0, "bike_id": "81a91172ddadca1e79c8f5910f4de88b", "lon": -77.00583366666666, "type": "electric_scooter", "is_disabled": 0, "rental_uris": {"ios": "https://dc.lft.to/lastmile_qr_scan", "android": "https://dc.lft.to/lastmile_qr_scan"}, "is_reserved": 0, "fusion_lat": 0.0, "name": "81a91172ddadca1e79c8f5910f4de88b", "lat": 38.90557116666667}, {"fusion_lon": 0.0, "bike_id": "e7cf0414cd137d2e333a4781c547b0db", "lon": -77.02221133333333, "type": "electric_scooter", "is_disabled": 0, "rental_uris": {"ios": "https://dc.lft.to/lastmile_qr_scan", "android": "https://dc.lft.to/lastmile_qr_scan"}, "is_reserved": 0, "fusion_lat": 0.0, "name": "e7cf0414cd137d2e333a4781c547b0db", "lat": 38.892183333333335}, {"fusion_lon": 0.0, "bike_id": "efc8ed174724269a04ea228a7bf579bb", "lon": -77.0305245, "type": "electric_scooter", "is_disabled": 0, "rental_uris": {"ios": "https://dc.lft.to/lastmile_qr_scan", "android": "https://dc.lft.to/lastmile_qr_scan"}, "is_reserved": 0, "fusion_lat": 0.0, "name": "efc8ed174724269a04ea228a7bf579bb", "lat": 38.916853833333334}, {"fusion_lon": 0.0, "bike_id": "a3d2bbedb89d717c6cfed1a8ab9b8a99", "lon": -76.99715183333333, "type": "electric_scooter", "is_disabled": 0, "rental_uris": {"ios": "https://dc.lft.to/lastmile_qr_scan", "android": "https://dc.lft.to/lastmile_qr_scan"}, "is_reserved": 0, "fusion_lat": 0.0, "name": "a3d2bbedb89d717c6cfed1a8ab9b8a99", "lat": 38.934427666666664}, {"fusion_lon": 0.0, "bike_id": "16db6268ef854a3840815ed597feea20", "lon": -77.03449816666667, "type": "electric_scooter", "is_disabled": 0, "rental_uris": {"ios": "https://dc.lft.to/lastmile_qr_scan", "android": "https://dc.lft.to/lastmile_qr_scan"}, "is_reserved": 0, "fusion_lat": 0.0, "name": "16db6268ef854a3840815ed597feea20", "lat": 38.905478333333335}, {"fusion_lon": 0.0, "bike_id": "b78a8a117131924ee5529f6996f0c992", "lon": -77.05268383333333, "type": "electric_bike", "is_disabled": 0, "rental_uris": {"ios": "https://dc.lft.to/lastmile_qr_scan", "android": "https://dc.lft.to/lastmile_qr_scan"}, "is_reserved": 0, "fusion_lat": 0.0, "name": "b78a8a117131924ee5529f6996f0c992", "lat": 38.96190766666667}, {"fusion_lon": 0.0, "bike_id": "40583ece477b829b906549caaaaf8d32", "lon": -77.024271, "type": "electric_scooter", "is_disabled": 0, "rental_uris": {"ios": "https://dc.lft.to/lastmile_qr_scan", "android": "https://dc.lft.to/lastmile_qr_scan"}, "is_reserved": 0, "fusion_lat": 0.0, "name": "40583ece477b829b906549caaaaf8d32", "lat": 38.93718333333333}, {"fusion_lon": 0.0, "bike_id": "bca1762e4e15cc59873891db54c057a7", "lon": -77.0010105, "type": "electric_scooter", "is_disabled": 0, "rental_uris": {"ios": "https://dc.lft.to/lastmile_qr_scan", "android": "https://dc.lft.to/lastmile_qr_scan"}, "is_reserved": 0, "fusion_lat": 0.0, "name": "bca1762e4e15cc59873891db54c057a7", "lat": 38.8738655}, {"fusion_lon": 0.0, "bike_id": "30ebc6a45ece58decccea538b0bd2ddc", "lon": -77.04166, "type": "electric_scooter", "is_disabled": 0, "rental_uris": {"ios": "https://dc.lft.to/lastmile_qr_scan", "android": "https://dc.lft.to/lastmile_qr_scan"}, "is_reserved": 0, "fusion_lat": 0.0, "name": "30ebc6a45ece58decccea538b0bd2ddc", "lat": 38.892363}, {"fusion_lon": 0.0, "bike_id": "b992e3fd8ce63d602a2317093178cbc5", "lon": -77.07142683333333, "type": "electric_scooter", "is_disabled": 0, "rental_uris": {"ios": "https://dc.lft.to/lastmile_qr_scan", "android": "https://dc.lft.to/lastmile_qr_scan"}, "is_reserved": 0, "fusion_lat": 0.0, "name": "b992e3fd8ce63d602a2317093178cbc5", "lat": 38.920286}, {"fusion_lon": 0.0, "bike_id": "08b787651f421f3bff2daafa80f2bc37", "lon": -77.0402845, "type": "electric_scooter", "is_disabled": 0, "rental_uris": {"ios": "https://dc.lft.to/lastmile_qr_scan", "android": "https://dc.lft.to/lastmile_qr_scan"}, "is_reserved": 0, "fusion_lat": 0.0, "name": "08b787651f421f3bff2daafa80f2bc37", "lat": 38.92465683333333}, {"fusion_lon": 0.0, "bike_id": "3ab597231e9717a5892794c6c9a0ef5b", "lon": -77.034508, "type": "electric_scooter", "is_disabled": 0, "rental_uris": {"ios": "https://dc.lft.to/lastmile_qr_scan", "android": "https://dc.lft.to/lastmile_qr_scan"}, "is_reserved": 0, "fusion_lat": 0.0, "name": "3ab597231e9717a5892794c6c9a0ef5b", "lat": 38.90814233333333}, {"fusion_lon": 0.0, "bike_id": "0f5bfb92ef0c450f24219acab2bc9216", "lon": -77.01940983333333, "type": "electric_scooter", "is_disabled": 0, "rental_uris": {"ios": "https://dc.lft.to/lastmile_qr_scan", "android": "https://dc.lft.to/lastmile_qr_scan"}, "is_reserved": 0, "fusion_lat": 0.0, "name": "0f5bfb92ef0c450f24219acab2bc9216", "lat": 38.908648166666666}, {"fusion_lon": 0.0, "bike_id": "40de4808e3dcdb4d50ecdee822da36d7", "lon": -76.93742483333334, "type": "electric_scooter", "is_disabled": 0, "rental_uris": {"ios": "https://dc.lft.to/lastmile_qr_scan", "android": "https://dc.lft.to/lastmile_qr_scan"}, "is_reserved": 0, "fusion_lat": 0.0, "name": "40de4808e3dcdb4d50ecdee822da36d7", "lat": 38.8901735}, {"fusion_lon": 0.0, "bike_id": "318ae657f688526c7138a402bf4de5c8", "lon": -77.029042, "type": "electric_scooter", "is_disabled": 0, "rental_uris": {"ios": "https://dc.lft.to/lastmile_qr_scan", "android": "https://dc.lft.to/lastmile_qr_scan"}, "is_reserved": 0, "fusion_lat": 0.0, "name": "318ae657f688526c7138a402bf4de5c8", "lat": 38.89973033333333}, {"fusion_lon": 0.0, "bike_id": "59282d583a1b777bae086aad7746881e", "lon": -77.011864, "type": "electric_scooter", "is_disabled": 0, "rental_uris": {"ios": "https://dc.lft.to/lastmile_qr_scan", "android": "https://dc.lft.to/lastmile_qr_scan"}, "is_reserved": 0, "fusion_lat": 0.0, "name": "59282d583a1b777bae086aad7746881e", "lat": 38.915579666666666}, {"fusion_lon": 0.0, "bike_id": "21f1f490d487090e3dd8cd16882e5b1b", "lon": -77.03722216666667, "type": "electric_scooter", "is_disabled": 0, "rental_uris": {"ios": "https://dc.lft.to/lastmile_qr_scan", "android": "https://dc.lft.to/lastmile_qr_scan"}, "is_reserved": 0, "fusion_lat": 0.0, "name": "21f1f490d487090e3dd8cd16882e5b1b", "lat": 38.93370916666667}, {"fusion_lon": 0.0, "bike_id": "98c5542a9b2e386aac91ae90712c3b49", "lon": -77.18306483333333, "type": "electric_bike", "is_disabled": 0, "rental_uris": {"ios": "https://dc.lft.to/lastmile_qr_scan", "android": "https://dc.lft.to/lastmile_qr_scan"}, "is_reserved": 0, "fusion_lat": 0.0, "name": "98c5542a9b2e386aac91ae90712c3b49", "lat": 39.09970083333333}, {"fusion_lon": 0.0, "bike_id": "720345f0da268f351649826f6f122fd8", "lon": -77.0517995, "type": "electric_scooter", "is_disabled": 0, "rental_uris": {"ios": "https://dc.lft.to/lastmile_qr_scan", "android": "https://dc.lft.to/lastmile_qr_scan"}, "is_reserved": 0, "fusion_lat": 0.0, "name": "720345f0da268f351649826f6f122fd8", "lat": 38.923445}, {"fusion_lon": 0.0, "bike_id": "10683efe89f9d61c5d97d7025315b4cd", "lon": -77.1265385, "type": "electric_bike", "is_disabled": 0, "rental_uris": {"ios": "https://dc.lft.to/lastmile_qr_scan", "android": "https://dc.lft.to/lastmile_qr_scan"}, "is_reserved": 0, "fusion_lat": 0.0, "name": "10683efe89f9d61c5d97d7025315b4cd", "lat": 38.819166333333335}, {"fusion_lon": 0.0, "bike_id": "b76052adf8bb503d5cc73bcf0757bbf4", "lon": -77.03778283333334, "type": "electric_bike", "is_disabled": 0, "rental_uris": {"ios": "https://dc.lft.to/lastmile_qr_scan", "android": "https://dc.lft.to/lastmile_qr_scan"}, "is_reserved": 0, "fusion_lat": 0.0, "name": "b76052adf8bb503d5cc73bcf0757bbf4", "lat": 38.99679}, {"fusion_lon": 0.0, "bike_id": "2afd177a1e5c43991ddcb20885caa72a", "lon": -77.04679366666667, "type": "electric_scooter", "is_disabled": 0, "rental_uris": {"ios": "https://dc.lft.to/lastmile_qr_scan", "android": "https://dc.lft.to/lastmile_qr_scan"}, "is_reserved": 0, "fusion_lat": 0.0, "name": "2afd177a1e5c43991ddcb20885caa72a", "lat": 38.89272366666667}, {"fusion_lon": 0.0, "bike_id": "a9ed5c228bba0964569008da02a7c291", "lon": -77.05350183333333, "type": "electric_scooter", "is_disabled": 0, "rental_uris": {"ios": "https://dc.lft.to/lastmile_qr_scan", "android": "https://dc.lft.to/lastmile_qr_scan"}, "is_reserved": 0, "fusion_lat": 0.0, "name": "a9ed5c228bba0964569008da02a7c291", "lat": 38.92720583333333}, {"fusion_lon": 0.0, "bike_id": "18ca2435be3aa8a38eb10f1bf9f55d98", "lon": -77.07307016666667, "type": "electric_scooter", "is_disabled": 0, "rental_uris": {"ios": "https://dc.lft.to/lastmile_qr_scan", "android": "https://dc.lft.to/lastmile_qr_scan"}, "is_reserved": 0, "fusion_lat": 0.0, "name": "18ca2435be3aa8a38eb10f1bf9f55d98", "lat": 38.93614733333333}, {"fusion_lon": 0.0, "bike_id": "297a7f62d1f322a31213d46aae6d0990", "lon": -77.02382516666667, "type": "electric_scooter", "is_disabled": 0, "rental_uris": {"ios": "https://dc.lft.to/lastmile_qr_scan", "android": "https://dc.lft.to/lastmile_qr_scan"}, "is_reserved": 0, "fusion_lat": 0.0, "name": "297a7f62d1f322a31213d46aae6d0990", "lat": 38.892012333333334}, {"fusion_lon": 0.0, "bike_id": "6babc01ab2a4d1f30e42eeef80588322", "lon": -77.04337083333333, "type": "electric_scooter", "is_disabled": 0, "rental_uris": {"ios": "https://dc.lft.to/lastmile_qr_scan", "android": "https://dc.lft.to/lastmile_qr_scan"}, "is_reserved": 0, "fusion_lat": 0.0, "name": "6babc01ab2a4d1f30e42eeef80588322", "lat": 38.922192}, {"fusion_lon": 0.0, "bike_id": "418a82f32c7061a9d29c5e616d6ea475", "lon": -76.9319015, "type": "electric_scooter", "is_disabled": 0, "rental_uris": {"ios": "https://dc.lft.to/lastmile_qr_scan", "android": "https://dc.lft.to/lastmile_qr_scan"}, "is_reserved": 0, "fusion_lat": 0.0, "name": "418a82f32c7061a9d29c5e616d6ea475", "lat": 38.89877283333333}, {"fusion_lon": 0.0, "bike_id": "37b288b72bc62299ff980cf636a9cb64", "lon": -77.041652, "type": "electric_scooter", "is_disabled": 0, "rental_uris": {"ios": "https://dc.lft.to/lastmile_qr_scan", "android": "https://dc.lft.to/lastmile_qr_scan"}, "is_reserved": 0, "fusion_lat": 0.0, "name": "37b288b72bc62299ff980cf636a9cb64", "lat": 38.892368833333336}, {"fusion_lon": 0.0, "bike_id": "f4f559d0399d31d8e72595376ebda277", "lon": -77.01359516666666, "type": "electric_scooter", "is_disabled": 0, "rental_uris": {"ios": "https://dc.lft.to/lastmile_qr_scan", "android": "https://dc.lft.to/lastmile_qr_scan"}, "is_reserved": 0, "fusion_lat": 0.0, "name": "f4f559d0399d31d8e72595376ebda277", "lat": 38.9287665}, {"fusion_lon": 0.0, "bike_id": "92bb5f0ec575d3bf18489a12c2d81a81", "lon": -77.017704, "type": "electric_scooter", "is_disabled": 0, "rental_uris": {"ios": "https://dc.lft.to/lastmile_qr_scan", "android": "https://dc.lft.to/lastmile_qr_scan"}, "is_reserved": 0, "fusion_lat": 0.0, "name": "92bb5f0ec575d3bf18489a12c2d81a81", "lat": 38.88449033333333}, {"fusion_lon": 0.0, "bike_id": "2d5c032981a136f6ff3c5da256b461b9", "lon": -77.03204366666667, "type": "electric_scooter", "is_disabled": 0, "rental_uris": {"ios": "https://dc.lft.to/lastmile_qr_scan", "android": "https://dc.lft.to/lastmile_qr_scan"}, "is_reserved": 0, "fusion_lat": 0.0, "name": "2d5c032981a136f6ff3c5da256b461b9", "lat": 38.90793766666667}, {"fusion_lon": 0.0, "bike_id": "5bbe5347f444d059abc98ec63f17e2c8", "lon": -76.9734185, "type": "electric_scooter", "is_disabled": 0, "rental_uris": {"ios": "https://dc.lft.to/lastmile_qr_scan", "android": "https://dc.lft.to/lastmile_qr_scan"}, "is_reserved": 0, "fusion_lat": 0.0, "name": "5bbe5347f444d059abc98ec63f17e2c8", "lat": 38.904893}, {"fusion_lon": 0.0, "bike_id": "54924fb32e1b486a90f24308a332a193", "lon": -77.024737, "type": "electric_scooter", "is_disabled": 0, "rental_uris": {"ios": "https://dc.lft.to/lastmile_qr_scan", "android": "https://dc.lft.to/lastmile_qr_scan"}, "is_reserved": 0, "fusion_lat": 0.0, "name": "54924fb32e1b486a90f24308a332a193", "lat": 38.9065505}, {"fusion_lon": 0.0, "bike_id": "3fdfd4d2d11c1c096753a537aba76c3b", "lon": -77.04344933333333, "type": "electric_scooter", "is_disabled": 0, "rental_uris": {"ios": "https://dc.lft.to/lastmile_qr_scan", "android": "https://dc.lft.to/lastmile_qr_scan"}, "is_reserved": 0, "fusion_lat": 0.0, "name": "3fdfd4d2d11c1c096753a537aba76c3b", "lat": 38.89740466666667}, {"fusion_lon": 0.0, "bike_id": "6f907f335ba302b46e52d76ee0346c23", "lon": -76.99982916666667, "type": "electric_scooter", "is_disabled": 0, "rental_uris": {"ios": "https://dc.lft.to/lastmile_qr_scan", "android": "https://dc.lft.to/lastmile_qr_scan"}, "is_reserved": 0, "fusion_lat": 0.0, "name": "6f907f335ba302b46e52d76ee0346c23", "lat": 38.90853766666667}, {"fusion_lon": 0.0, "bike_id": "bfca434b5d02d2facb602621391faee2", "lon": -77.04991166666667, "type": "electric_scooter", "is_disabled": 0, "rental_uris": {"ios": "https://dc.lft.to/lastmile_qr_scan", "android": "https://dc.lft.to/lastmile_qr_scan"}, "is_reserved": 0, "fusion_lat": 0.0, "name": "bfca434b5d02d2facb602621391faee2", "lat": 38.90114066666667}, {"fusion_lon": 0.0, "bike_id": "77ce54285ca769dfd8999facab359321", "lon": -77.02803616666667, "type": "electric_scooter", "is_disabled": 0, "rental_uris": {"ios": "https://dc.lft.to/lastmile_qr_scan", "android": "https://dc.lft.to/lastmile_qr_scan"}, "is_reserved": 0, "fusion_lat": 0.0, "name": "77ce54285ca769dfd8999facab359321", "lat": 38.90272433333333}, {"fusion_lon": 0.0, "bike_id": "58a52c4a577f95a64982b285c153af56", "lon": -77.03173216666667, "type": "electric_scooter", "is_disabled": 0, "rental_uris": {"ios": "https://dc.lft.to/lastmile_qr_scan", "android": "https://dc.lft.to/lastmile_qr_scan"}, "is_reserved": 0, "fusion_lat": 0.0, "name": "58a52c4a577f95a64982b285c153af56", "lat": 38.905296666666665}, {"fusion_lon": 0.0, "bike_id": "265bf67e4871cf58ae07036286240727", "lon": -77.0029575, "type": "electric_scooter", "is_disabled": 0, "rental_uris": {"ios": "https://dc.lft.to/lastmile_qr_scan", "android": "https://dc.lft.to/lastmile_qr_scan"}, "is_reserved": 0, "fusion_lat": 0.0, "name": "265bf67e4871cf58ae07036286240727", "lat": 38.876503666666665}, {"fusion_lon": 0.0, "bike_id": "8bbc0e2b629ffa75004450bffb388c31", "lon": -77.03182483333333, "type": "electric_scooter", "is_disabled": 0, "rental_uris": {"ios": "https://dc.lft.to/lastmile_qr_scan", "android": "https://dc.lft.to/lastmile_qr_scan"}, "is_reserved": 0, "fusion_lat": 0.0, "name": "8bbc0e2b629ffa75004450bffb388c31", "lat": 38.900795333333335}, {"fusion_lon": 0.0, "bike_id": "4987933dada31b6dabb2e4d0d98e261c", "lon": -77.03908083333333, "type": "electric_scooter", "is_disabled": 0, "rental_uris": {"ios": "https://dc.lft.to/lastmile_qr_scan", "android": "https://dc.lft.to/lastmile_qr_scan"}, "is_reserved": 0, "fusion_lat": 0.0, "name": "4987933dada31b6dabb2e4d0d98e261c", "lat": 38.944041}, {"fusion_lon": 0.0, "bike_id": "06cdae0e305dbfa086c71d2d65ba0311", "lon": -77.01700766666667, "type": "electric_scooter", "is_disabled": 0, "rental_uris": {"ios": "https://dc.lft.to/lastmile_qr_scan", "android": "https://dc.lft.to/lastmile_qr_scan"}, "is_reserved": 0, "fusion_lat": 0.0, "name": "06cdae0e305dbfa086c71d2d65ba0311", "lat": 38.9076555}, {"fusion_lon": 0.0, "bike_id": "b4b9f2fe8976e87f0bc3ec5f3a982bca", "lon": -77.0112945, "type": "electric_scooter", "is_disabled": 0, "rental_uris": {"ios": "https://dc.lft.to/lastmile_qr_scan", "android": "https://dc.lft.to/lastmile_qr_scan"}, "is_reserved": 0, "fusion_lat": 0.0, "name": "b4b9f2fe8976e87f0bc3ec5f3a982bca", "lat": 38.885232333333335}, {"fusion_lon": 0.0, "bike_id": "3c23ab2c40430a8e402001c82b0709d3", "lon": -77.00132033333334, "type": "electric_bike", "is_disabled": 0, "rental_uris": {"ios": "https://dc.lft.to/lastmile_qr_scan", "android": "https://dc.lft.to/lastmile_qr_scan"}, "is_reserved": 0, "fusion_lat": 0.0, "name": "3c23ab2c40430a8e402001c82b0709d3", "lat": 38.83577233333333}, {"fusion_lon": 0.0, "bike_id": "1e163c64d96095a6f293b022f8caec2e", "lon": -77.028109, "type": "electric_scooter", "is_disabled": 0, "rental_uris": {"ios": "https://dc.lft.to/lastmile_qr_scan", "android": "https://dc.lft.to/lastmile_qr_scan"}, "is_reserved": 0, "fusion_lat": 0.0, "name": "1e163c64d96095a6f293b022f8caec2e", "lat": 38.892350666666665}, {"fusion_lon": 0.0, "bike_id": "8212311885c241909043962a1c50272b", "lon": -77.060189, "type": "electric_scooter", "is_disabled": 0, "rental_uris": {"ios": "https://dc.lft.to/lastmile_qr_scan", "android": "https://dc.lft.to/lastmile_qr_scan"}, "is_reserved": 0, "fusion_lat": 0.0, "name": "8212311885c241909043962a1c50272b", "lat": 38.90443833333333}, {"fusion_lon": 0.0, "bike_id": "8df6a1e088ac1a3e6be8af73bb79ed85", "lon": -77.07786383333334, "type": "electric_bike", "is_disabled": 0, "rental_uris": {"ios": "https://dc.lft.to/lastmile_qr_scan", "android": "https://dc.lft.to/lastmile_qr_scan"}, "is_reserved": 0, "fusion_lat": 0.0, "name": "8df6a1e088ac1a3e6be8af73bb79ed85", "lat": 38.995968166666664}, {"fusion_lon": 0.0, "bike_id": "944c84c094988ae4c48aaee458e56941", "lon": -77.03279816666667, "type": "electric_scooter", "is_disabled": 0, "rental_uris": {"ios": "https://dc.lft.to/lastmile_qr_scan", "android": "https://dc.lft.to/lastmile_qr_scan"}, "is_reserved": 0, "fusion_lat": 0.0, "name": "944c84c094988ae4c48aaee458e56941", "lat": 38.92879833333333}, {"fusion_lon": 0.0, "bike_id": "20b88c4e20dd03500dc427696a6e501b", "lon": -77.01075166666666, "type": "electric_scooter", "is_disabled": 0, "rental_uris": {"ios": "https://dc.lft.to/lastmile_qr_scan", "android": "https://dc.lft.to/lastmile_qr_scan"}, "is_reserved": 0, "fusion_lat": 0.0, "name": "20b88c4e20dd03500dc427696a6e501b", "lat": 38.914168333333336}, {"fusion_lon": 0.0, "bike_id": "aebca2380d832e8a84801234087958c9", "lon": -77.044888, "type": "electric_scooter", "is_disabled": 0, "rental_uris": {"ios": "https://dc.lft.to/lastmile_qr_scan", "android": "https://dc.lft.to/lastmile_qr_scan"}, "is_reserved": 0, "fusion_lat": 0.0, "name": "aebca2380d832e8a84801234087958c9", "lat": 38.909008}, {"fusion_lon": 0.0, "bike_id": "a942479776776e6e48e4dd00155bf3cb", "lon": -77.02214816666667, "type": "electric_scooter", "is_disabled": 0, "rental_uris": {"ios": "https://dc.lft.to/lastmile_qr_scan", "android": "https://dc.lft.to/lastmile_qr_scan"}, "is_reserved": 0, "fusion_lat": 0.0, "name": "a942479776776e6e48e4dd00155bf3cb", "lat": 38.90546633333334}, {"fusion_lon": 0.0, "bike_id": "8a3ef15ed415e6e26343808875328972", "lon": -77.02658866666667, "type": "electric_scooter", "is_disabled": 0, "rental_uris": {"ios": "https://dc.lft.to/lastmile_qr_scan", "android": "https://dc.lft.to/lastmile_qr_scan"}, "is_reserved": 0, "fusion_lat": 0.0, "name": "8a3ef15ed415e6e26343808875328972", "lat": 38.892258}, {"fusion_lon": 0.0, "bike_id": "0b4ca119d96ce78b2b003c1999ab7bf6", "lon": -77.02213733333333, "type": "electric_scooter", "is_disabled": 0, "rental_uris": {"ios": "https://dc.lft.to/lastmile_qr_scan", "android": "https://dc.lft.to/lastmile_qr_scan"}, "is_reserved": 0, "fusion_lat": 0.0, "name": "0b4ca119d96ce78b2b003c1999ab7bf6", "lat": 38.922301833333336}, {"fusion_lon": 0.0, "bike_id": "664054ff82ff4911beed57341768ef9e", "lon": -77.0210835, "type": "electric_scooter", "is_disabled": 0, "rental_uris": {"ios": "https://dc.lft.to/lastmile_qr_scan", "android": "https://dc.lft.to/lastmile_qr_scan"}, "is_reserved": 0, "fusion_lat": 0.0, "name": "664054ff82ff4911beed57341768ef9e", "lat": 38.93443116666667}, {"fusion_lon": 0.0, "bike_id": "b3e6c3dde4cb92260ea9bc976b9ed1b0", "lon": -76.99152516666666, "type": "electric_scooter", "is_disabled": 0, "rental_uris": {"ios": "https://dc.lft.to/lastmile_qr_scan", "android": "https://dc.lft.to/lastmile_qr_scan"}, "is_reserved": 0, "fusion_lat": 0.0, "name": "b3e6c3dde4cb92260ea9bc976b9ed1b0", "lat": 38.84411816666667},