{"data": {"bikes": [{"fusion_lat": 0.0, "lon": -77.0488015, "is_reserved": 0, "bike_id": "8e9af472faa3b7d6a47d34cc4e85a492", "fusion_lon": 0.0, "rental_uris": {"android": "https://dc.lft.to/lastmile_qr_scan", "ios": "https://dc.lft.to/lastmile_qr_scan"}, "name": "8e9af472faa3b7d6a47d34cc4e85a492", "type": "electric_scooter", "lat": 38.901152833333335, "is_disabled": 0}, {"fusion_lat": 0.0, "lon": -77.02527066666667, "is_reserved": 0, "bike_id": "c699a05fa42982ee195f11653a86731f", "fusion_lon": 0.0, "rental_uris": {"android": "https://dc.lft.to/lastmile_qr_scan", "ios": "https://dc.lft.to/lastmile_qr_scan"}, "name": "c699a05fa42982ee195f11653a86731f", "type": "electric_scooter", "lat": 38.90087033333333, "is_disabled": 0}, {"fusion_lat": 0.0, "lon": -76.98349016666667, "is_reserved": 0, "bike_id": "cc83d1be91101fb52a37e203ebf06cbc", "fusion_lon": 0.0, "rental_uris": {"android": "https://dc.lft.to/lastmile_qr_scan", "ios": "https://dc.lft.to/lastmile_qr_scan"}, "name": "cc83d1be91101fb52a37e203ebf06cbc", "type": "electric_scooter", "lat": 38.89929566666667, "is_disabled": 0}, {"fusion_lat": 0.0, "lon": -77.0280615, "is_reserved": 0, "bike_id": "bcbae6367333154af40204a12c2c793b", "fusion_lon": 0.0, "rental_uris": {"android": "https://dc.lft.to/lastmile_qr_scan", "ios": "https://dc.lft.to/lastmile_qr_scan"}, "name": "bcbae6367333154af40204a12c2c793b", "type": "electric_scooter", "lat": 38.90977066666667, "is_disabled": 0}, {"fusion_lat": 0.0, "lon": -77.03646533333334, "is_reserved": 0, "bike_id": "f31aa65ab3fca4a45df4411c2e4f9db5", "fusion_lon": 0.0, "rental_uris": {"android": "https://dc.lft.to/lastmile_qr_scan", "ios": "https://dc.lft.to/lastmile_qr_scan"}, "name": "f31aa65ab3fca4a45df4411c2e4f9db5", "type": "electric_scooter", "lat": 38.921084, "is_disabled": 0}, {"fusion_lat": 0.0, "lon": -77.03208566666666, "is_reserved": 0, "bike_id": "e565522fb410018658b2e03df083e94a", "fusion_lon": 0.0, "rental_uris": {"android": "https://dc.lft.to/lastmile_qr_scan", "ios": "https://dc.lft.to/lastmile_qr_scan"}, "name": "e565522fb410018658b2e03df083e94a", "type": "electric_scooter", "lat": 38.91780083333333, "is_disabled": 0}, {"fusion_lat": 0.0, "lon": -77.032707, "is_reserved": 0, "bike_id": "5f3d0ae749c4d3cb58ddf7726f96436e", "fusion_lon": 0.0, "rental_uris": {"android": "https://dc.lft.to/lastmile_qr_scan", "ios": "https://dc.lft.to/lastmile_qr_scan"}, "name": "5f3d0ae749c4d3cb58ddf7726f96436e", "type": "electric_scooter", "lat": 38.928378333333335, "is_disabled": 0}, {"fusion_lat": 0.0, "lon": -77.03323016666667, "is_reserved": 0, "bike_id": "a5a7f0a68fdb4a5fd7586049cd727a57", "fusion_lon": 0.0, "rental_uris": {"android": "https://dc.lft.to/lastmile_qr_scan", "ios": "https://dc.lft.to/lastmile_qr_scan"}, "name": "a5a7f0a68fdb4a5fd7586049cd727a57", "type": "electric_scooter", "lat": 38.9170765, "is_disabled": 0}, {"fusion_lat": 0.0, "lon": -76.98531816666667, "is_reserved": 0, "bike_id": "adbd3c96131d99b267ae4ad5415f78f5", "fusion_lon": 0.0, "rental_uris": {"android": "https://dc.lft.to/lastmile_qr_scan", "ios": "https://dc.lft.to/lastmile_qr_scan"}, "name": "adbd3c96131d99b267ae4ad5415f78f5", "type": "electric_scooter", "lat": 38.86658666666666, "is_disabled": 0}, {"fusion_lat": 0.0, "lon": -77.04661383333334, "is_reserved": 0, "bike_id": "f718258c705c4c7208e3a89ac12f0054", "fusion_lon": 0.0, "rental_uris": {"android": "https://dc.lft.to/lastmile_qr_scan", "ios": "https://dc.lft.to/lastmile_qr_scan"}, "name": "f718258c705c4c7208e3a89ac12f0054", "type": "electric_scooter", "lat": 38.90336083333333, "is_disabled": 0}, {"fusion_lat": 0.0, "lon": -76.993918, "is_reserved": 0, "bike_id": "fe2272c4ffa3352bef149424b825d607", "fusion_lon": 0.0, "rental_uris": {"android": "https://dc.lft.to/lastmile_qr_scan", "ios": "https://dc.lft.to/lastmile_qr_scan"}, "name": "fe2272c4ffa3352bef149424b825d607", "type": "electric_bike", "lat": 38.90030983333333, "is_disabled": 0}, {"fusion_lat": 0.0, "lon": -76.9901565, "is_reserved": 0, "bike_id": "2f5e6f606bb413176ecade53c42d5684", "fusion_lon": 0.0, "rental_uris": {"android": "https://dc.lft.to/lastmile_qr_scan", "ios": "https://dc.lft.to/lastmile_qr_scan"}, "name": "2f5e6f606bb413176ecade53c42d5684", "type": "electric_scooter", "lat": 38.881833666666665, "is_disabled": 0}, {"fusion_lat": 0.0, "lon": -77.000631, "is_reserved": 0, "bike_id": "7927156fbb468e0628817c95a66711a8", "fusion_lon": 0.0, "rental_uris": {"android": "https://dc.lft.to/lastmile_qr_scan", "ios": "https://dc.lft.to/lastmile_qr_scan"}, "name": "7927156fbb468e0628817c95a66711a8", "type": "electric_scooter", "lat": 38.8998675, "is_disabled": 0}, {"fusion_lat": 0.0, "lon": -77.02535033333334, "is_reserved": 0, "bike_id": "7bd805b9aca9ca6b7b9a6aa4a405e97f", "fusion_lon": 0.0, "rental_uris": {"android": "https://dc.lft.to/lastmile_qr_scan", "ios": "https://dc.lft.to/lastmile_qr_scan"}, "name": "7bd805b9aca9ca6b7b9a6aa4a405e97f", "type": "electric_scooter", "lat": 38.92083916666667, "is_disabled": 0}, {"fusion_lat": 0.0, "lon": -77.0432335, "is_reserved": 0, "bike_id": "17e16dece549c3d380b377e5f655ea8d", "fusion_lon": 0.0, "rental_uris": {"android": "https://dc.lft.to/lastmile_qr_scan", "ios": "https://dc.lft.to/lastmile_qr_scan"}, "name": "17e16dece549c3d380b377e5f655ea8d", "type": "electric_scooter", "lat": 38.89220666666667, "is_disabled": 0}, {"fusion_lat": 0.0, "lon": -77.02504383333333, "is_reserved": 0, "bike_id": "82d42ecec43b7a4527f6a81c5c305263", "fusion_lon": 0.0, "rental_uris": {"android": "https://dc.lft.to/lastmile_qr_scan", "ios": "https://dc.lft.to/lastmile_qr_scan"}, "name": "82d42ecec43b7a4527f6a81c5c305263", "type": "electric_scooter", "lat": 38.93969166666667, "is_disabled": 0}, {"fusion_lat": 0.0, "lon": -77.007084, "is_reserved": 0, "bike_id": "cb99b49c80634d8997991ec0eadb7977", "fusion_lon": 0.0, "rental_uris": {"android": "https://dc.lft.to/lastmile_qr_scan", "ios": "https://dc.lft.to/lastmile_qr_scan"}, "name": "cb99b49c80634d8997991ec0eadb7977", "type": "electric_scooter", "lat": 38.9056075, "is_disabled": 0}, {"fusion_lat": 0.0, "lon": -77.04502333333333, "is_reserved": 0, "bike_id": "33991c3324ecc1221089d52aca33db74", "fusion_lon": 0.0, "rental_uris": {"android": "https://dc.lft.to/lastmile_qr_scan", "ios": "https://dc.lft.to/lastmile_qr_scan"}, "name": "33991c3324ecc1221089d52aca33db74", "type": "electric_scooter", "lat": 38.892380333333335, "is_disabled": 0}, {"fusion_lat": 0.0, "lon": -77.048172, "is_reserved": 0, "bike_id": "0a63794ce9d2353f4f7a9bfd9c9ab7c3", "fusion_lon": 0.0, "rental_uris": {"android": "https://dc.lft.to/lastmile_qr_scan", "ios": "https://dc.lft.to/lastmile_qr_scan"}, "name": "0a63794ce9d2353f4f7a9bfd9c9ab7c3", "type": "electric_scooter", "lat": 38.913309166666664, "is_disabled": 0}, {"fusion_lat": 0.0, "lon": -77.027981, "is_reserved": 0, "bike_id": "5aa41d14334eca1d558bdbbbba1cd3f6", "fusion_lon": 0.0, "rental_uris": {"android": "https://dc.lft.to/lastmile_qr_scan", "ios": "https://dc.lft.to/lastmile_qr_scan"}, "name": "5aa41d14334eca1d558bdbbbba1cd3f6", "type": "electric_scooter", "lat": 38.892311166666666, "is_disabled": 0}, {"fusion_lat": 0.0, "lon": -77.039597, "is_reserved": 0, "bike_id": "f2b29aebd3be9f7c120c8497415888f7", "fusion_lon": 0.0, "rental_uris": {"android": "https://dc.lft.to/lastmile_qr_scan", "ios": "https://dc.lft.to/lastmile_qr_scan"}, "name": "f2b29aebd3be9f7c120c8497415888f7", "type": "electric_scooter", "lat": 38.90124616666667, "is_disabled": 0}, {"fusion_lat": 0.0, "lon": -77.05334333333333, "is_reserved": 0, "bike_id": "649eced829ff8299b2ae8c89ec159d84", "fusion_lon": 0.0, "rental_uris": {"android": "https://dc.lft.to/lastmile_qr_scan", "ios": "https://dc.lft.to/lastmile_qr_scan"}, "name": "649eced829ff8299b2ae8c89ec159d84", "type": "electric_scooter", "lat": 38.902360333333334, "is_disabled": 0}, {"fusion_lat": 0.0, "lon": -76.98882933333333, "is_reserved": 0, "bike_id": "8f85bedb85e28a9a5e15f6c69ec7a5f5", "fusion_lon": 0.0, "rental_uris": {"android": "https://dc.lft.to/lastmile_qr_scan", "ios": "https://dc.lft.to/lastmile_qr_scan"}, "name": "8f85bedb85e28a9a5e15f6c69ec7a5f5", "type": "electric_scooter", "lat": 38.866589, "is_disabled": 0}, {"fusion_lat": 0.0, "lon": -76.987451, "is_reserved": 0, "bike_id": "65cdafc5dbcb34a6bddbdf8c268d5692", "fusion_lon": 0.0, "rental_uris": {"android": "https://dc.lft.to/lastmile_qr_scan", "ios": "https://dc.lft.to/lastmile_qr_scan"}, "name": "65cdafc5dbcb34a6bddbdf8c268d5692", "type": "electric_scooter", "lat": 38.8861275, "is_disabled": 0}, {"fusion_lat": 0.0, "lon": -77.032468, "is_reserved": 0, "bike_id": "cb71dbf88e4795787072156c0fd6fdef", "fusion_lon": 0.0, "rental_uris": {"android": "https://dc.lft.to/lastmile_qr_scan", "ios": "https://dc.lft.to/lastmile_qr_scan"}, "name": "cb71dbf88e4795787072156c0fd6fdef", "type": "electric_scooter", "lat": 38.9295925, "is_disabled": 0}, {"fusion_lat": 0.0, "lon": -77.05132366666666, "is_reserved": 0, "bike_id": "6f5de109040bec79b967f81e638df447", "fusion_lon": 0.0, "rental_uris": {"android": "https://dc.lft.to/lastmile_qr_scan", "ios": "https://dc.lft.to/lastmile_qr_scan"}, "name": "6f5de109040bec79b967f81e638df447", "type": "electric_scooter", "lat": 38.905270333333334, "is_disabled": 0}, {"fusion_lat": 0.0, "lon": -77.02429516666666, "is_reserved": 0, "bike_id": "decffe0d5d8ce9b256da630bcb1cdb0a", "fusion_lon": 0.0, "rental_uris": {"android": "https://dc.lft.to/lastmile_qr_scan", "ios": "https://dc.lft.to/lastmile_qr_scan"}, "name": "decffe0d5d8ce9b256da630bcb1cdb0a", "type": "electric_scooter", "lat": 38.93713133333333, "is_disabled": 0}, {"fusion_lat": 0.0, "lon": -77.02162783333333, "is_reserved": 0, "bike_id": "541f4a3a32a387e5bd3a5fd3aa1493f5", "fusion_lon": 0.0, "rental_uris": {"android": "https://dc.lft.to/lastmile_qr_scan", "ios": "https://dc.lft.to/lastmile_qr_scan"}, "name": "541f4a3a32a387e5bd3a5fd3aa1493f5", "type": "electric_scooter", "lat": 38.926127, "is_disabled": 0}, {"fusion_lat": 0.0, "lon": -77.04848466666667, "is_reserved": 0, "bike_id": "9df5e1d69174d593f399e6f53e8690e1", "fusion_lon": 0.0, "rental_uris": {"android": "https://dc.lft.to/lastmile_qr_scan", "ios": "https://dc.lft.to/lastmile_qr_scan"}, "name": "9df5e1d69174d593f399e6f53e8690e1", "type": "electric_scooter", "lat": 38.91967666666667, "is_disabled": 0}, {"fusion_lat": 0.0, "lon": -77.04111033333334, "is_reserved": 0, "bike_id": "b6620551a92fba8ce7e4dda26ad2cbf1", "fusion_lon": 0.0, "rental_uris": {"android": "https://dc.lft.to/lastmile_qr_scan", "ios": "https://dc.lft.to/lastmile_qr_scan"}, "name": "b6620551a92fba8ce7e4dda26ad2cbf1", "type": "electric_scooter", "lat": 38.912550833333334, "is_disabled": 0}, {"fusion_lat": 0.0, "lon": -77.00044, "is_reserved": 0, "bike_id": "c180e441dd30c92f3f0456d4c3a5d853", "fusion_lon": 0.0, "rental_uris": {"android": "https://dc.lft.to/lastmile_qr_scan", "ios": "https://dc.lft.to/lastmile_qr_scan"}, "name": "c180e441dd30c92f3f0456d4c3a5d853", "type": "electric_scooter", "lat": 38.9246565, "is_disabled": 0}, {"fusion_lat": 0.0, "lon": -77.02979133333334, "is_reserved": 0, "bike_id": "327dd9c18796d7a247b82f62e0bcbd53", "fusion_lon": 0.0, "rental_uris": {"android": "https://dc.lft.to/lastmile_qr_scan", "ios": "https://dc.lft.to/lastmile_qr_scan"}, "name": "327dd9c18796d7a247b82f62e0bcbd53", "type": "electric_scooter", "lat": 38.9328385, "is_disabled": 0}, {"fusion_lat": 0.0, "lon": -76.9985625, "is_reserved": 0, "bike_id": "95cf8baffddc3a7eff6abac61a9e8cdb", "fusion_lon": 0.0, "rental_uris": {"android": "https://dc.lft.to/lastmile_qr_scan", "ios": "https://dc.lft.to/lastmile_qr_scan"}, "name": "95cf8baffddc3a7eff6abac61a9e8cdb", "type": "electric_scooter", "lat": 38.8863405, "is_disabled": 0}, {"fusion_lat": 0.0, "lon": -77.0284715, "is_reserved": 0, "bike_id": "595a1916640c8fb875a6be64b96ec551", "fusion_lon": 0.0, "rental_uris": {"android": "https://dc.lft.to/lastmile_qr_scan", "ios": "https://dc.lft.to/lastmile_qr_scan"}, "name": "595a1916640c8fb875a6be64b96ec551", "type": "electric_scooter", "lat": 38.8875005, "is_disabled": 0}, {"fusion_lat": 0.0, "lon": -77.05010783333333, "is_reserved": 0, "bike_id": "d2fd71d6d95fdc6fa0bb9aa5f6f2d429", "fusion_lon": 0.0, "rental_uris": {"android": "https://dc.lft.to/lastmile_qr_scan", "ios": "https://dc.lft.to/lastmile_qr_scan"}, "name": "d2fd71d6d95fdc6fa0bb9aa5f6f2d429", "type": "electric_scooter", "lat": 38.90123766666667, "is_disabled": 0}, {"fusion_lat": 0.0, "lon": -77.04676716666667, "is_reserved": 0, "bike_id": "6b74c20fa1f0b18dd5552808922e4f0d", "fusion_lon": 0.0, "rental_uris": {"android": "https://dc.lft.to/lastmile_qr_scan", "ios": "https://dc.lft.to/lastmile_qr_scan"}, "name": "6b74c20fa1f0b18dd5552808922e4f0d", "type": "electric_bike", "lat": 38.89457683333333, "is_disabled": 0}, {"fusion_lat": 0.0, "lon": -77.02884683333333, "is_reserved": 0, "bike_id": "3f90f67eadc881bd4d7fc3393c573c75", "fusion_lon": 0.0, "rental_uris": {"android": "https://dc.lft.to/lastmile_qr_scan", "ios": "https://dc.lft.to/lastmile_qr_scan"}, "name": "3f90f67eadc881bd4d7fc3393c573c75", "type": "electric_scooter", "lat": 38.912736833333334, "is_disabled": 0}, {"fusion_lat": 0.0, "lon": -77.03880866666667, "is_reserved": 0, "bike_id": "bd64bc30e76929c480c096959d017791", "fusion_lon": 0.0, "rental_uris": {"android": "https://dc.lft.to/lastmile_qr_scan", "ios": "https://dc.lft.to/lastmile_qr_scan"}, "name": "bd64bc30e76929c480c096959d017791", "type": "electric_scooter", "lat": 38.892011333333336, "is_disabled": 0}, {"fusion_lat": 0.0, "lon": -77.07697916666666, "is_reserved": 0, "bike_id": "6a5b8c0450a7d7ec5238e4e135f8482c", "fusion_lon": 0.0, "rental_uris": {"android": "https://dc.lft.to/lastmile_qr_scan", "ios": "https://dc.lft.to/lastmile_qr_scan"}, "name": "6a5b8c0450a7d7ec5238e4e135f8482c", "type": "electric_bike", "lat": 38.895100166666666, "is_disabled": 0}, {"fusion_lat": 0.0, "lon": -76.9678215, "is_reserved": 0, "bike_id": "388707608711f3f402aec8f410b6ec5d", "fusion_lon": 0.0, "rental_uris": {"android": "https://dc.lft.to/lastmile_qr_scan", "ios": "https://dc.lft.to/lastmile_qr_scan"}, "name": "388707608711f3f402aec8f410b6ec5d", "type": "electric_scooter", "lat": 38.8733665, "is_disabled": 0}, {"fusion_lat": 0.0, "lon": -77.0510865, "is_reserved": 0, "bike_id": "a5369968cd9f5371a165231391e73b73", "fusion_lon": 0.0, "rental_uris": {"android": "https://dc.lft.to/lastmile_qr_scan", "ios": "https://dc.lft.to/lastmile_qr_scan"}, "name": "a5369968cd9f5371a165231391e73b73", "type": "electric_bike", "lat": 39.036710166666666, "is_disabled": 0}, {"fusion_lat": 0.0, "lon": -76.99818416666666, "is_reserved": 0, "bike_id": "e05fb4cc353162db15b9c4fd10634394", "fusion_lon": 0.0, "rental_uris": {"android": "https://dc.lft.to/lastmile_qr_scan", "ios": "https://dc.lft.to/lastmile_qr_scan"}, "name": "e05fb4cc353162db15b9c4fd10634394", "type": "electric_scooter", "lat": 38.907217333333335, "is_disabled": 0}, {"fusion_lat": 0.0, "lon": -77.0451365, "is_reserved": 0, "bike_id": "3d83a9448ec2c4fb313bafc71a95f65f", "fusion_lon": 0.0, "rental_uris": {"android": "https://dc.lft.to/lastmile_qr_scan", "ios": "https://dc.lft.to/lastmile_qr_scan"}, "name": "3d83a9448ec2c4fb313bafc71a95f65f", "type": "electric_scooter", "lat": 38.907842333333335, "is_disabled": 0}, {"fusion_lat": 0.0, "lon": -77.048715, "is_reserved": 0, "bike_id": "2e284a414e222062618c6f130d06bba2", "fusion_lon": 0.0, "rental_uris": {"android": "https://dc.lft.to/lastmile_qr_scan", "ios": "https://dc.lft.to/lastmile_qr_scan"}, "name": "2e284a414e222062618c6f130d06bba2", "type": "electric_scooter", "lat": 38.90573966666667, "is_disabled": 0}, {"fusion_lat": 0.0, "lon": -76.9940975, "is_reserved": 0, "bike_id": "89427234ca90e88b30862110f0cc5f28", "fusion_lon": 0.0, "rental_uris": {"android": "https://dc.lft.to/lastmile_qr_scan", "ios": "https://dc.lft.to/lastmile_qr_scan"}, "name": "89427234ca90e88b30862110f0cc5f28", "type": "electric_scooter", "lat": 38.877825666666666, "is_disabled": 0}, {"fusion_lat": 0.0, "lon": -77.04991333333334, "is_reserved": 0, "bike_id": "af268f1b53c9b785725fe12793cd8884", "fusion_lon": 0.0, "rental_uris": {"android": "https://dc.lft.to/lastmile_qr_scan", "ios": "https://dc.lft.to/lastmile_qr_scan"}, "name": "af268f1b53c9b785725fe12793cd8884", "type": "electric_scooter", "lat": 38.897338500000004, "is_disabled": 0}, {"fusion_lat": 0.0, "lon": -77.07843583333333, "is_reserved": 0, "bike_id": "77fbf6dd07eba2d89fac13411de3f013", "fusion_lon": 0.0, "rental_uris": {"android": "https://dc.lft.to/lastmile_qr_scan", "ios": "https://dc.lft.to/lastmile_qr_scan"}, "name": "77fbf6dd07eba2d89fac13411de3f013", "type": "electric_scooter", "lat": 38.931474333333334, "is_disabled": 0}, {"fusion_lat": 0.0, "lon": -77.0839995, "is_reserved": 0, "bike_id": "82db6294d5c6a2b2c47fc29134276ee2", "fusion_lon": 0.0, "rental_uris": {"android": "https://dc.lft.to/lastmile_qr_scan", "ios": "https://dc.lft.to/lastmile_qr_scan"}, "name": "82db6294d5c6a2b2c47fc29134276ee2", "type": "electric_scooter", "lat": 38.908026, "is_disabled": 0}, {"fusion_lat": 0.0, "lon": -77.033131, "is_reserved": 0, "bike_id": "1312a6419515149794ca3a8b21684acd", "fusion_lon": 0.0, "rental_uris": {"android": "https://dc.lft.to/lastmile_qr_scan", "ios": "https://dc.lft.to/lastmile_qr_scan"}, "name": "1312a6419515149794ca3a8b21684acd", "type": "electric_scooter", "lat": 38.90005383333333, "is_disabled": 0}, {"fusion_lat": 0.0, "lon": -77.01886183333333, "is_reserved": 0, "bike_id": "9c9897cc460caaed4349a759a488d9e1", "fusion_lon": 0.0, "rental_uris": {"android": "https://dc.lft.to/lastmile_qr_scan", "ios": "https://dc.lft.to/lastmile_qr_scan"}, "name": "9c9897cc460caaed4349a759a488d9e1", "type": "electric_scooter", "lat": 38.91010433333334, "is_disabled": 0}, {"fusion_lat": 0.0, "lon": -77.02869116666666, "is_reserved": 0, "bike_id": "d39d23dff601785ca1ae45288c794434", "fusion_lon": 0.0, "rental_uris": {"android": "https://dc.lft.to/lastmile_qr_scan", "ios": "https://dc.lft.to/lastmile_qr_scan"}, "name": "d39d23dff601785ca1ae45288c794434", "type": "electric_scooter", "lat": 38.925735, "is_disabled": 0}, {"fusion_lat": 0.0, "lon": -77.02608, "is_reserved": 0, "bike_id": "ea279001418fdcb0db0149e0780dbb08", "fusion_lon": 0.0, "rental_uris": {"android": "https://dc.lft.to/lastmile_qr_scan", "ios": "https://dc.lft.to/lastmile_qr_scan"}, "name": "ea279001418fdcb0db0149e0780dbb08", "type": "electric_scooter", "lat": 38.929865666666664, "is_disabled": 0}, {"fusion_lat": 0.0, "lon": -77.03690966666667, "is_reserved": 0, "bike_id": "cec9b4eb7e970ba4f50e8bf2925fd459", "fusion_lon": 0.0, "rental_uris": {"android": "https://dc.lft.to/lastmile_qr_scan", "ios": "https://dc.lft.to/lastmile_qr_scan"}, "name": "cec9b4eb7e970ba4f50e8bf2925fd459", "type": "electric_scooter", "lat": 38.916790166666665, "is_disabled": 0}, {"fusion_lat": 0.0, "lon": -76.95654516666667, "is_reserved": 0, "bike_id": "76bfc2ac8bc8a3fc32adaefa6646f742", "fusion_lon": 0.0, "rental_uris": {"android": "https://dc.lft.to/lastmile_qr_scan", "ios": "https://dc.lft.to/lastmile_qr_scan"}, "name": "76bfc2ac8bc8a3fc32adaefa6646f742", "type": "electric_scooter", "lat": 38.89551933333333, "is_disabled": 0}, {"fusion_lat": 0.0, "lon": -76.98476466666666, "is_reserved": 0, "bike_id": "ea9a90899b54639a90efa26198efaf9c", "fusion_lon": 0.0, "rental_uris": {"android": "https://dc.lft.to/lastmile_qr_scan", "ios": "https://dc.lft.to/lastmile_qr_scan"}, "name": "ea9a90899b54639a90efa26198efaf9c", "type": "electric_bike", "lat": 38.928927333333334, "is_disabled": 0}, {"fusion_lat": 0.0, "lon": -77.03553966666666, "is_reserved": 0, "bike_id": "2312a821e8455ccee6337b9f56c3d808", "fusion_lon": 0.0, "rental_uris": {"android": "https://dc.lft.to/lastmile_qr_scan", "ios": "https://dc.lft.to/lastmile_qr_scan"}, "name": "2312a821e8455ccee6337b9f56c3d808", "type": "electric_scooter", "lat": 38.908273333333334, "is_disabled": 0}, {"fusion_lat": 0.0, "lon": -76.99009216666667, "is_reserved": 0, "bike_id": "49d6291899901caa9391afef7aa2b7b7", "fusion_lon": 0.0, "rental_uris": {"android": "https://dc.lft.to/lastmile_qr_scan", "ios": "https://dc.lft.to/lastmile_qr_scan"}, "name": "49d6291899901caa9391afef7aa2b7b7", "type": "electric_scooter", "lat": 38.9038795, "is_disabled": 0}, {"fusion_lat": 0.0, "lon": -77.17840816666667, "is_reserved": 0, "bike_id": "ba5ddfce31dd5a42da032bd94e72f678", "fusion_lon": 0.0, "rental_uris": {"android": "https://dc.lft.to/lastmile_qr_scan", "ios": "https://dc.lft.to/lastmile_qr_scan"}, "name": "ba5ddfce31dd5a42da032bd94e72f678", "type": "electric_bike", "lat": 39.088555, "is_disabled": 0}, {"fusion_lat": 0.0, "lon": -77.02652883333333, "is_reserved": 0, "bike_id": "8f8cee57cc0f417d1e30170546c1a7e1", "fusion_lon": 0.0, "rental_uris": {"android": "https://dc.lft.to/lastmile_qr_scan", "ios": "https://dc.lft.to/lastmile_qr_scan"}, "name": "8f8cee57cc0f417d1e30170546c1a7e1", "type": "electric_scooter", "lat": 38.892189333333334, "is_disabled": 0}, {"fusion_lat": 0.0, "lon": -77.0208505, "is_reserved": 0, "bike_id": "2fa23e22f4c7ba06071f7c59ceaf4954", "fusion_lon": 0.0, "rental_uris": {"android": "https://dc.lft.to/lastmile_qr_scan", "ios": "https://dc.lft.to/lastmile_qr_scan"}, "name": "2fa23e22f4c7ba06071f7c59ceaf4954", "type": "electric_scooter", "lat": 38.8818665, "is_disabled": 0}, {"fusion_lat": 0.0, "lon": -77.0307915, "is_reserved": 0, "bike_id": "794daa433e812a971021fd755cf13e4c", "fusion_lon": 0.0, "rental_uris": {"android": "https://dc.lft.to/lastmile_qr_scan", "ios": "https://dc.lft.to/lastmile_qr_scan"}, "name": "794daa433e812a971021fd755cf13e4c", "type": "electric_scooter", "lat": 38.905714333333336, "is_disabled": 0}, {"fusion_lat": 0.0, "lon": -77.08772916666666, "is_reserved": 0, "bike_id": "62cf2c9ab88c4ce9f26c596d4f0053bd", "fusion_lon": 0.0, "rental_uris": {"android": "https://dc.lft.to/lastmile_qr_scan", "ios": "https://dc.lft.to/lastmile_qr_scan"}, "name": "62cf2c9ab88c4ce9f26c596d4f0053bd", "type": "electric_bike", "lat": 38.83899483333333, "is_disabled": 0}, {"fusion_lat": 0.0, "lon": -77.0511455, "is_reserved": 0, "bike_id": "9ff19eed202325a2d6b24088f79867de", "fusion_lon": 0.0, "rental_uris": {"android": "https://dc.lft.to/lastmile_qr_scan", "ios": "https://dc.lft.to/lastmile_qr_scan"}, "name": "9ff19eed202325a2d6b24088f79867de", "type": "electric_bike", "lat": 38.90180483333333, "is_disabled": 0}, {"fusion_lat": 0.0, "lon": -76.986514, "is_reserved": 0, "bike_id": "4433f05c8deae9e30deb948f3d711fb1", "fusion_lon": 0.0, "rental_uris": {"android": "https://dc.lft.to/lastmile_qr_scan", "ios": "https://dc.lft.to/lastmile_qr_scan"}, "name": "4433f05c8deae9e30deb948f3d711fb1", "type": "electric_scooter", "lat": 38.90610266666667, "is_disabled": 0}, {"fusion_lat": 0.0, "lon": -77.00796166666667, "is_reserved": 0, "bike_id": "b6b169aaa3f08766854eb7ed9eb48f27", "fusion_lon": 0.0, "rental_uris": {"android": "https://dc.lft.to/lastmile_qr_scan", "ios": "https://dc.lft.to/lastmile_qr_scan"}, "name": "b6b169aaa3f08766854eb7ed9eb48f27", "type": "electric_scooter", "lat": 38.89644716666667, "is_disabled": 0}, {"fusion_lat": 0.0, "lon": -76.97712366666667, "is_reserved": 0, "bike_id": "1fd085e161e6dd3c4f2236195325121e", "fusion_lon": 0.0, "rental_uris": {"android": "https://dc.lft.to/lastmile_qr_scan", "ios": "https://dc.lft.to/lastmile_qr_scan"}, "name": "1fd085e161e6dd3c4f2236195325121e", "type": "electric_scooter", "lat": 38.8877715, "is_disabled": 0}, {"fusion_lat": 0.0, "lon": -77.02728, "is_reserved": 0, "bike_id": "b58856f7ea0333da84de16830db13827", "fusion_lon": 0.0, "rental_uris": {"android": "https://dc.lft.to/lastmile_qr_scan", "ios": "https://dc.lft.to/lastmile_qr_scan"}, "name": "b58856f7ea0333da84de16830db13827", "type": "electric_scooter", "lat": 38.89752816666667, "is_disabled": 0}, {"fusion_lat": 0.0, "lon": -77.01884083333333, "is_reserved": 0, "bike_id": "1387340ed6a38802090061067ab5663f", "fusion_lon": 0.0, "rental_uris": {"android": "https://dc.lft.to/lastmile_qr_scan", "ios": "https://dc.lft.to/lastmile_qr_scan"}, "name": "1387340ed6a38802090061067ab5663f", "type": "electric_scooter", "lat": 38.897447, "is_disabled": 0}, {"fusion_lat": 0.0, "lon": -77.0036985, "is_reserved": 0, "bike_id": "beb5f604e60957ffcb8e022c08eedbab", "fusion_lon": 0.0, "rental_uris": {"android": "https://dc.lft.to/lastmile_qr_scan", "ios": "https://dc.lft.to/lastmile_qr_scan"}, "name": "beb5f604e60957ffcb8e022c08eedbab", "type": "electric_scooter", "lat": 38.8973155, "is_disabled": 0}, {"fusion_lat": 0.0, "lon": -77.07233183333334, "is_reserved": 0, "bike_id": "764320da2b3793cc4ff82ed20cdbb656", "fusion_lon": 0.0, "rental_uris": {"android": "https://dc.lft.to/lastmile_qr_scan", "ios": "https://dc.lft.to/lastmile_qr_scan"}, "name": "764320da2b3793cc4ff82ed20cdbb656", "type": "electric_scooter", "lat": 38.9400605, "is_disabled": 0}, {"fusion_lat": 0.0, "lon": -77.03264083333333, "is_reserved": 0, "bike_id": "4782d199fe047a460b1820a12f59e85e", "fusion_lon": 0.0, "rental_uris": {"android": "https://dc.lft.to/lastmile_qr_scan", "ios": "https://dc.lft.to/lastmile_qr_scan"}, "name": "4782d199fe047a460b1820a12f59e85e", "type": "electric_scooter", "lat": 38.928444666666664, "is_disabled": 0}, {"fusion_lat": 0.0, "lon": -76.97871533333333, "is_reserved": 0, "bike_id": "23d7cebe7e8f620b7a9756493f5edd57", "fusion_lon": 0.0, "rental_uris": {"android": "https://dc.lft.to/lastmile_qr_scan", "ios": "https://dc.lft.to/lastmile_qr_scan"}, "name": "23d7cebe7e8f620b7a9756493f5edd57", "type": "electric_scooter", "lat": 38.883047833333336, "is_disabled": 0}, {"fusion_lat": 0.0, "lon": -76.9951955, "is_reserved": 0, "bike_id": "673ce35e479ac7323d8d6a3bcb5ed532", "fusion_lon": 0.0, "rental_uris": {"android": "https://dc.lft.to/lastmile_qr_scan", "ios": "https://dc.lft.to/lastmile_qr_scan"}, "name": "673ce35e479ac7323d8d6a3bcb5ed532", "type": "electric_scooter", "lat": 38.895420333333334, "is_disabled": 0}, {"fusion_lat": 0.0, "lon": -77.02314483333333, "is_reserved": 0, "bike_id": "e7199fa48f15aa797e24c0eaa67870f4", "fusion_lon": 0.0, "rental_uris": {"android": "https://dc.lft.to/lastmile_qr_scan", "ios": "https://dc.lft.to/lastmile_qr_scan"}, "name": "e7199fa48f15aa797e24c0eaa67870f4", "type": "electric_scooter", "lat": 38.917746, "is_disabled": 0}, {"fusion_lat": 0.0, "lon": -77.02656283333333, "is_reserved": 0, "bike_id": "14856ca1743c50a680ab417478d8dae5", "fusion_lon": 0.0, "rental_uris": {"android": "https://dc.lft.to/lastmile_qr_scan", "ios": "https://dc.lft.to/lastmile_qr_scan"}, "name": "14856ca1743c50a680ab417478d8dae5", "type": "electric_scooter", "lat": 38.9781605, "is_disabled": 0}, {"fusion_lat": 0.0, "lon": -76.983803, "is_reserved": 0, "bike_id": "f00022ef87139c269ffff13ae6a9bb48", "fusion_lon": 0.0, "rental_uris": {"android": "https://dc.lft.to/lastmile_qr_scan", "ios": "https://dc.lft.to/lastmile_qr_scan"}, "name": "f00022ef87139c269ffff13ae6a9bb48", "type": "electric_scooter", "lat": 38.861275166666665, "is_disabled": 0}, {"fusion_lat": 0.0, "lon": -76.967739, "is_reserved": 0, "bike_id": "ff196ba42d8ebbc02540feb434e75102", "fusion_lon": 0.0, "rental_uris": {"android": "https://dc.lft.to/lastmile_qr_scan", "ios": "https://dc.lft.to/lastmile_qr_scan"}, "name": "ff196ba42d8ebbc02540feb434e75102", "type": "electric_scooter", "lat": 38.8592455, "is_disabled": 0}, {"fusion_lat": 0.0, "lon": -77.01892783333334, "is_reserved": 0, "bike_id": "fb6aed8dab9330957e293c536b874549", "fusion_lon": 0.0, "rental_uris": {"android": "https://dc.lft.to/lastmile_qr_scan", "ios": "https://dc.lft.to/lastmile_qr_scan"}, "name": "fb6aed8dab9330957e293c536b874549", "type": "electric_scooter", "lat": 38.904497666666664, "is_disabled": 0}, {"fusion_lat": 0.0, "lon": -77.0221025, "is_reserved": 0, "bike_id": "16b507a3ceb55d3b51ff4fe1ebb08bc0", "fusion_lon": 0.0, "rental_uris": {"android": "https://dc.lft.to/lastmile_qr_scan", "ios": "https://dc.lft.to/lastmile_qr_scan"}, "name": "16b507a3ceb55d3b51ff4fe1ebb08bc0", "type": "electric_scooter", "lat": 38.90205616666667, "is_disabled": 0}, {"fusion_lat": 0.0, "lon": -77.048817, "is_reserved": 0, "bike_id": "9d6c45438e3f051bb51da06edd4bf00c", "fusion_lon": 0.0, "rental_uris": {"android": "https://dc.lft.to/lastmile_qr_scan", "ios": "https://dc.lft.to/lastmile_qr_scan"}, "name": "9d6c45438e3f051bb51da06edd4bf00c", "type": "electric_scooter", "lat": 38.90117333333333, "is_disabled": 0}, {"fusion_lat": 0.0, "lon": -76.99616966666666, "is_reserved": 0, "bike_id": "925a4de8176d54d6f9fe7d2cec9cd4c6", "fusion_lon": 0.0, "rental_uris": {"android": "https://dc.lft.to/lastmile_qr_scan", "ios": "https://dc.lft.to/lastmile_qr_scan"}, "name": "925a4de8176d54d6f9fe7d2cec9cd4c6", "type": "electric_scooter", "lat": 38.88557633333333, "is_disabled": 0}, {"fusion_lat": 0.0, "lon": -77.04355883333334, "is_reserved": 0, "bike_id": "525cdcab385edbc41d60241a248a1753", "fusion_lon": 0.0, "rental_uris": {"android": "https://dc.lft.to/lastmile_qr_scan", "ios": "https://dc.lft.to/lastmile_qr_scan"}, "name": "525cdcab385edbc41d60241a248a1753", "type": "electric_scooter", "lat": 38.907244166666665, "is_disabled": 0}, {"fusion_lat": 0.0, "lon": -77.03413983333333, "is_reserved": 0, "bike_id": "fb001d96792f6a9052ff94813cfa718b", "fusion_lon": 0.0, "rental_uris": {"android": "https://dc.lft.to/lastmile_qr_scan", "ios": "https://dc.lft.to/lastmile_qr_scan"}, "name": "fb001d96792f6a9052ff94813cfa718b", "type": "electric_scooter", "lat": 38.9230945, "is_disabled": 0}, {"fusion_lat": 0.0, "lon": -77.02396866666666, "is_reserved": 0, "bike_id": "495f6471a13e1eee45d48ca858ee58c7", "fusion_lon": 0.0, "rental_uris": {"android": "https://dc.lft.to/lastmile_qr_scan", "ios": "https://dc.lft.to/lastmile_qr_scan"}, "name": "495f6471a13e1eee45d48ca858ee58c7", "type": "electric_scooter", "lat": 38.957097, "is_disabled": 0}, {"fusion_lat": 0.0, "lon": -77.0057595, "is_reserved": 0, "bike_id": "3551db2236b65d47858553330bfdfabf", "fusion_lon": 0.0, "rental_uris": {"android": "https://dc.lft.to/lastmile_qr_scan", "ios": "https://dc.lft.to/lastmile_qr_scan"}, "name": "3551db2236b65d47858553330bfdfabf", "type": "electric_scooter", "lat": 38.90566066666667, "is_disabled": 0}, {"fusion_lat": 0.0, "lon": -77.03076783333333, "is_reserved": 0, "bike_id": "1766c438dfebd1920e088ae4a8981371", "fusion_lon": 0.0, "rental_uris": {"android": "https://dc.lft.to/lastmile_qr_scan", "ios": "https://dc.lft.to/lastmile_qr_scan"}, "name": "1766c438dfebd1920e088ae4a8981371", "type": "electric_scooter", "lat": 38.917547, "is_disabled": 0}, {"fusion_lat": 0.0, "lon": -77.022347, "is_reserved": 0, "bike_id": "30418391464fe75ee2327afe5498013a", "fusion_lon": 0.0, "rental_uris": {"android": "https://dc.lft.to/lastmile_qr_scan", "ios": "https://dc.lft.to/lastmile_qr_scan"}, "name": "30418391464fe75ee2327afe5498013a", "type": "electric_bike", "lat": 38.9568915, "is_disabled": 0}, {"fusion_lat": 0.0, "lon": -77.0503315, "is_reserved": 0, "bike_id": "0e931a1603f311635990fe66eccad6e0", "fusion_lon": 0.0, "rental_uris": {"android": "https://dc.lft.to/lastmile_qr_scan", "ios": "https://dc.lft.to/lastmile_qr_scan"}, "name": "0e931a1603f311635990fe66eccad6e0", "type": "electric_scooter", "lat": 38.923775, "is_disabled": 0}, {"fusion_lat": 0.0, "lon": -76.99826133333333, "is_reserved": 0, "bike_id": "3e759be4b6f12e56ba0a5f565d6205c2", "fusion_lon": 0.0, "rental_uris": {"android": "https://dc.lft.to/lastmile_qr_scan", "ios": "https://dc.lft.to/lastmile_qr_scan"}, "name": "3e759be4b6f12e56ba0a5f565d6205c2", "type": "electric_scooter", "lat": 38.90854233333334, "is_disabled": 0}, {"fusion_lat": 0.0, "lon": -77.00590316666667, "is_reserved": 0, "bike_id": "a1246011801beb21e381bd553bc3de98", "fusion_lon": 0.0, "rental_uris": {"android": "https://dc.lft.to/lastmile_qr_scan", "ios": "https://dc.lft.to/lastmile_qr_scan"}, "name": "a1246011801beb21e381bd553bc3de98", "type": "electric_scooter", "lat": 38.9055675, "is_disabled": 0}, {"fusion_lat": 0.0, "lon": -76.993858, "is_reserved": 0, "bike_id": "3a1ad9271b72db92b3d299da1806b0f9", "fusion_lon": 0.0, "rental_uris": {"android": "https://dc.lft.to/lastmile_qr_scan", "ios": "https://dc.lft.to/lastmile_qr_scan"}, "name": "3a1ad9271b72db92b3d299da1806b0f9", "type": "electric_scooter", "lat": 38.89730766666667, "is_disabled": 0}, {"fusion_lat": 0.0, "lon": -76.92751016666666, "is_reserved": 0, "bike_id": "a84e8caa5d9bf97e3d472f7897f0611a", "fusion_lon": 0.0, "rental_uris": {"android": "https://dc.lft.to/lastmile_qr_scan", "ios": "https://dc.lft.to/lastmile_qr_scan"}, "name": "a84e8caa5d9bf97e3d472f7897f0611a", "type": "electric_scooter", "lat": 38.880550666666664, "is_disabled": 0}, {"fusion_lat": 0.0, "lon": -77.02391233333333, "is_reserved": 0, "bike_id": "2288eb74fb69705cefc59e91ccbf1804", "fusion_lon": 0.0, "rental_uris": {"android": "https://dc.lft.to/lastmile_qr_scan", "ios": "https://dc.lft.to/lastmile_qr_scan"}, "name": "2288eb74fb69705cefc59e91ccbf1804", "type": "electric_scooter", "lat": 38.90746083333333, "is_disabled": 0}, {"fusion_lat": 0.0, "lon": -77.00393683333333, "is_reserved": 0, "bike_id": "8f0f6d642f9c1e26607a3480bc957549", "fusion_lon": 0.0, "rental_uris": {"android": "https://dc.lft.to/lastmile_qr_scan", "ios": "https://dc.lft.to/lastmile_qr_scan"}, "name": "8f0f6d642f9c1e26607a3480bc957549", "type": "electric_scooter", "lat": 38.90562083333333, "is_disabled": 0}, {"fusion_lat": 0.0, "lon": -77.007758, "is_reserved": 0, "bike_id": "a156343af8ab5b88b5d746e1c374a7a6", "fusion_lon": 0.0, "rental_uris": {"android": "https://dc.lft.to/lastmile_qr_scan", "ios": "https://dc.lft.to/lastmile_qr_scan"}, "name": "a156343af8ab5b88b5d746e1c374a7a6", "type": "electric_scooter", "lat": 38.9066095, "is_disabled": 0}, {"fusion_lat": 0.0, "lon": -77.10329966666667, "is_reserved": 0, "bike_id": "3dda0d7449bd8760dc1525a670fa9798", "fusion_lon": 0.0, "rental_uris": {"android": "https://dc.lft.to/lastmile_qr_scan", "ios": "https://dc.lft.to/lastmile_qr_scan"}, "name": "3dda0d7449bd8760dc1525a670fa9798", "type": "electric_bike", "lat": 38.87418133333333, "is_disabled": 0}, {"fusion_lat": 0.0, "lon": -77.034795, "is_reserved": 0, "bike_id": "ee6e6e7ab99ff256049d7f41b50324d0", "fusion_lon": 0.0, "rental_uris": {"android": "https://dc.lft.to/lastmile_qr_scan", "ios": "https://dc.lft.to/lastmile_qr_scan"}, "name": "ee6e6e7ab99ff256049d7f41b50324d0", "type": "electric_scooter", "lat": 38.924830166666666, "is_disabled": 0}, {"fusion_lat": 0.0, "lon": -76.98778033333333, "is_reserved": 0, "bike_id": "fa05b0b5691c7dabdc48bebd47e6028c", "fusion_lon": 0.0, "rental_uris": {"android": "https://dc.lft.to/lastmile_qr_scan", "ios": "https://dc.lft.to/lastmile_qr_scan"}, "name": "fa05b0b5691c7dabdc48bebd47e6028c", "type": "electric_scooter", "lat": 38.844675, "is_disabled": 0}, {"fusion_lat": 0.0, "lon": -77.02919066666666, "is_reserved": 0, "bike_id": "8cce42cab9d1d38566d3a53acc0ad69b", "fusion_lon": 0.0, "rental_uris": {"android": "https://dc.lft.to/lastmile_qr_scan", "ios": "https://dc.lft.to/lastmile_qr_scan"}, "name": "8cce42cab9d1d38566d3a53acc0ad69b", "type": "electric_scooter", "lat": 38.903595833333334, "is_disabled": 0}, {"fusion_lat": 0.0, "lon": -77.0058525, "is_reserved": 0, "bike_id": "3fe7ee7421c67dbb05b187e9a5efefb1", "fusion_lon": 0.0, "rental_uris": {"android": "https://dc.lft.to/lastmile_qr_scan", "ios": "https://dc.lft.to/lastmile_qr_scan"}, "name": "3fe7ee7421c67dbb05b187e9a5efefb1", "type": "electric_scooter", "lat": 38.905590833333335, "is_disabled": 0}, {"fusion_lat": 0.0, "lon": -77.04026083333333, "is_reserved": 0, "bike_id": "8865f4eb27d78bc9c95cf6f85606c8a6", "fusion_lon": 0.0, "rental_uris": {"android": "https://dc.lft.to/lastmile_qr_scan", "ios": "https://dc.lft.to/lastmile_qr_scan"}, "name": "8865f4eb27d78bc9c95cf6f85606c8a6", "type": "electric_scooter", "lat": 38.895323833333336, "is_disabled": 0}, {"fusion_lat": 0.0, "lon": -77.04535133333333, "is_reserved": 0, "bike_id": "7eea1dd7f6f43f4d3c896d11486478af", "fusion_lon": 0.0, "rental_uris": {"android": "https://dc.lft.to/lastmile_qr_scan", "ios": "https://dc.lft.to/lastmile_qr_scan"}, "name": "7eea1dd7f6f43f4d3c896d11486478af", "type": "electric_scooter", "lat": 38.900608, "is_disabled": 0}, {"fusion_lat": 0.0, "lon": -77.00629083333334, "is_reserved": 0, "bike_id": "788d5d0dc9a16b883a73591b6843b62f", "fusion_lon": 0.0, "rental_uris": {"android": "https://dc.lft.to/lastmile_qr_scan", "ios": "https://dc.lft.to/lastmile_qr_scan"}, "name": "788d5d0dc9a16b883a73591b6843b62f", "type": "electric_scooter", "lat": 38.832756333333336, "is_disabled": 0}, {"fusion_lat": 0.0, "lon": -76.99408083333333, "is_reserved": 0, "bike_id": "1358d28dce51aecef1065bf4395910a2", "fusion_lon": 0.0, "rental_uris": {"android": "https://dc.lft.to/lastmile_qr_scan", "ios": "https://dc.lft.to/lastmile_qr_scan"}, "name": "1358d28dce51aecef1065bf4395910a2", "type": "electric_scooter", "lat": 38.87783183333333, "is_disabled": 0}, {"fusion_lat": 0.0, "lon": -77.002913, "is_reserved": 0, "bike_id": "fa35dea66fb2f28289581ffdb615faec", "fusion_lon": 0.0, "rental_uris": {"android": "https://dc.lft.to/lastmile_qr_scan", "ios": "https://dc.lft.to/lastmile_qr_scan"}, "name": "fa35dea66fb2f28289581ffdb615faec", "type": "electric_scooter", "lat": 38.8949905, "is_disabled": 0}, {"fusion_lat": 0.0, "lon": -77.0370555, "is_reserved": 0, "bike_id": "276d2b5b660d2c61ac262c19c633c515", "fusion_lon": 0.0, "rental_uris": {"android": "https://dc.lft.to/lastmile_qr_scan", "ios": "https://dc.lft.to/lastmile_qr_scan"}, "name": "276d2b5b660d2c61ac262c19c633c515", "type": "electric_scooter", "lat": 38.903569833333336, "is_disabled": 0}, {"fusion_lat": 0.0, "lon": -76.91972166666666, "is_reserved": 0, "bike_id": "f776bdd9735eb1fefb374d307de6d714", "fusion_lon": 0.0, "rental_uris": {"android": "https://dc.lft.to/lastmile_qr_scan", "ios": "https://dc.lft.to/lastmile_qr_scan"}, "name": "f776bdd9735eb1fefb374d307de6d714", "type": "electric_scooter", "lat": 38.90027666666667, "is_disabled": 0}, {"fusion_lat": 0.0, "lon": -77.0391155, "is_reserved": 0, "bike_id": "7eaa020289f9530b95489b88760c8ea1", "fusion_lon": 0.0, "rental_uris": {"android": "https://dc.lft.to/lastmile_qr_scan", "ios": "https://dc.lft.to/lastmile_qr_scan"}, "name": "7eaa020289f9530b95489b88760c8ea1", "type": "electric_scooter", "lat": 38.924189, "is_disabled": 0}, {"fusion_lat": 0.0, "lon": -77.0347045, "is_reserved": 0, "bike_id": "1b9055d5f560058c4a91b0392cfb0c3f", "fusion_lon": 0.0, "rental_uris": {"android": "https://dc.lft.to/lastmile_qr_scan", "ios": "https://dc.lft.to/lastmile_qr_scan"}, "name": "1b9055d5f560058c4a91b0392cfb0c3f", "type": "electric_scooter", "lat": 38.906510833333336, "is_disabled": 0}, {"fusion_lat": 0.0, "lon": -77.032366, "is_reserved": 0, "bike_id": "9947e04b998021a026112e3d56d325e4", "fusion_lon": 0.0, "rental_uris": {"android": "https://dc.lft.to/lastmile_qr_scan", "ios": "https://dc.lft.to/lastmile_qr_scan"}, "name": "9947e04b998021a026112e3d56d325e4", "type": "electric_scooter", "lat": 38.92875383333333, "is_disabled": 0}, {"fusion_lat": 0.0, "lon": -76.93759783333333, "is_reserved": 0, "bike_id": "39479d305a2b0dd5bd2cce5f3fb83b2e", "fusion_lon": 0.0, "rental_uris": {"android": "https://dc.lft.to/lastmile_qr_scan", "ios": "https://dc.lft.to/lastmile_qr_scan"}, "name": "39479d305a2b0dd5bd2cce5f3fb83b2e", "type": "electric_scooter", "lat": 38.89047816666667, "is_disabled": 0}, {"fusion_lat": 0.0, "lon": -77.03177633333334, "is_reserved": 0, "bike_id": "93fdb74468e104393bd36fb3278cc868", "fusion_lon": 0.0, "rental_uris": {"android": "https://dc.lft.to/lastmile_qr_scan", "ios": "https://dc.lft.to/lastmile_qr_scan"}, "name": "93fdb74468e104393bd36fb3278cc868", "type": "electric_scooter", "lat": 38.918093666666664, "is_disabled": 0}, {"fusion_lat": 0.0, "lon": -77.023789, "is_reserved": 0, "bike_id": "ff8a907e9506e0864641cc062426eece", "fusion_lon": 0.0, "rental_uris": {"android": "https://dc.lft.to/lastmile_qr_scan", "ios": "https://dc.lft.to/lastmile_qr_scan"}, "name": "ff8a907e9506e0864641cc062426eece", "type": "electric_scooter", "lat": 38.90215966666667, "is_disabled": 0}, {"fusion_lat": 0.0, "lon": -77.02488233333334, "is_reserved": 0, "bike_id": "f5ede659614458e0bcb4279cb0bd4232", "fusion_lon": 0.0, "rental_uris": {"android": "https://dc.lft.to/lastmile_qr_scan", "ios": "https://dc.lft.to/lastmile_qr_scan"}, "name": "f5ede659614458e0bcb4279cb0bd4232", "type": "electric_scooter", "lat": 38.93863533333333, "is_disabled": 0}, {"fusion_lat": 0.0, "lon": -77.03173516666666, "is_reserved": 0, "bike_id": "70b2da321eeb0ed14d006d63a34a032e", "fusion_lon": 0.0, "rental_uris": {"android": "https://dc.lft.to/lastmile_qr_scan", "ios": "https://dc.lft.to/lastmile_qr_scan"}, "name": "70b2da321eeb0ed14d006d63a34a032e", "type": "electric_scooter", "lat": 38.89959733333333, "is_disabled": 0}, {"fusion_lat": 0.0, "lon": -77.02227016666667, "is_reserved": 0, "bike_id": "2d7fcef2b2e9f2733a0e8ff067082f02", "fusion_lon": 0.0, "rental_uris": {"android": "https://dc.lft.to/lastmile_qr_scan", "ios": "https://dc.lft.to/lastmile_qr_scan"}, "name": "2d7fcef2b2e9f2733a0e8ff067082f02", "type": "electric_scooter", "lat": 38.89223883333333, "is_disabled": 0}, {"fusion_lat": 0.0, "lon": -76.99633216666666, "is_reserved": 0, "bike_id": "f2d051908de2ffef21489b86e4e34f49", "fusion_lon": 0.0, "rental_uris": {"android": "https://dc.lft.to/lastmile_qr_scan", "ios": "https://dc.lft.to/lastmile_qr_scan"}, "name": "f2d051908de2ffef21489b86e4e34f49", "type": "electric_scooter", "lat": 38.90015133333333, "is_disabled": 0}, {"fusion_lat": 0.0, "lon": -77.049896, "is_reserved": 0, "bike_id": "06db4bf7c6ce42bef799600b58e91511", "fusion_lon": 0.0, "rental_uris": {"android": "https://dc.lft.to/lastmile_qr_scan", "ios": "https://dc.lft.to/lastmile_qr_scan"}, "name": "06db4bf7c6ce42bef799600b58e91511", "type": "electric_scooter", "lat": 38.901056833333335, "is_disabled": 0}, {"fusion_lat": 0.0, "lon": -77.02699283333334, "is_reserved": 0, "bike_id": "e2a15547ff8d1c3b729bc9866be45bdf", "fusion_lon": 0.0, "rental_uris": {"android": "https://dc.lft.to/lastmile_qr_scan", "ios": "https://dc.lft.to/lastmile_qr_scan"}, "name": "e2a15547ff8d1c3b729bc9866be45bdf", "type": "electric_scooter", "lat": 38.924086, "is_disabled": 0}, {"fusion_lat": 0.0, "lon": -77.03428, "is_reserved": 0, "bike_id": "ff231ad976852cc8406f7c56a2f2f795", "fusion_lon": 0.0, "rental_uris": {"android": "https://dc.lft.to/lastmile_qr_scan", "ios": "https://dc.lft.to/lastmile_qr_scan"}, "name": "ff231ad976852cc8406f7c56a2f2f795", "type": "electric_scooter", "lat": 38.90718966666667, "is_disabled": 0}, {"fusion_lat": 0.0, "lon": -77.02273616666666, "is_reserved": 0, "bike_id": "bbb13714e3061c9706a2f445f613cad0", "fusion_lon": 0.0, "rental_uris": {"android": "https://dc.lft.to/lastmile_qr_scan", "ios": "https://dc.lft.to/lastmile_qr_scan"}, "name": "bbb13714e3061c9706a2f445f613cad0", "type": "electric_scooter", "lat": 38.8985025, "is_disabled": 0}, {"fusion_lat": 0.0, "lon": -77.04654966666666, "is_reserved": 0, "bike_id": "88060b047e501e65ade801dde770ce62", "fusion_lon": 0.0, "rental_uris": {"android": "https://dc.lft.to/lastmile_qr_scan", "ios": "https://dc.lft.to/lastmile_qr_scan"}, "name": "88060b047e501e65ade801dde770ce62", "type": "electric_scooter", "lat": 38.90553383333334, "is_disabled": 0}, {"fusion_lat": 0.0, "lon": -77.03168616666666, "is_reserved": 0, "bike_id": "10059429608af4a2104524c635fd90ac", "fusion_lon": 0.0, "rental_uris": {"android": "https://dc.lft.to/lastmile_qr_scan", "ios": "https://dc.lft.to/lastmile_qr_scan"}, "name": "10059429608af4a2104524c635fd90ac", "type": "electric_scooter", "lat": 38.91334533333333, "is_disabled": 0}, {"fusion_lat": 0.0, "lon": -77.06738516666667, "is_reserved": 0, "bike_id": "b05008bb6de01fe32dfea883142eafb9", "fusion_lon": 0.0, "rental_uris": {"android": "https://dc.lft.to/lastmile_qr_scan", "ios": "https://dc.lft.to/lastmile_qr_scan"}, "name": "b05008bb6de01fe32dfea883142eafb9", "type": "electric_scooter", "lat": 38.90691, "is_disabled": 0}, {"fusion_lat": 0.0, "lon": -77.04834966666667, "is_reserved": 0, "bike_id": "06faf2893b6c8f681e741d0d822b0565", "fusion_lon": 0.0, "rental_uris": {"android": "https://dc.lft.to/lastmile_qr_scan", "ios": "https://dc.lft.to/lastmile_qr_scan"}, "name": "06faf2893b6c8f681e741d0d822b0565", "type": "electric_scooter", "lat": 38.90487533333334, "is_disabled": 0}, {"fusion_lat": 0.0, "lon": -77.01775483333333, "is_reserved": 0, "bike_id": "06fee0c659e84307273aaef4f3bc44ce", "fusion_lon": 0.0, "rental_uris": {"android": "https://dc.lft.to/lastmile_qr_scan", "ios": "https://dc.lft.to/lastmile_qr_scan"}, "name": "06fee0c659e84307273aaef4f3bc44ce", "type": "electric_scooter", "lat": 38.887130166666665, "is_disabled": 0}, {"fusion_lat": 0.0, "lon": -77.0472545, "is_reserved": 0, "bike_id": "311eec95602a079e0fe1c067ada43e11", "fusion_lon": 0.0, "rental_uris": {"android": "https://dc.lft.to/lastmile_qr_scan", "ios": "https://dc.lft.to/lastmile_qr_scan"}, "name": "311eec95602a079e0fe1c067ada43e11", "type": "electric_scooter", "lat": 38.901961166666666, "is_disabled": 0}, {"fusion_lat": 0.0, "lon": -77.02156933333333, "is_reserved": 0, "bike_id": "3fd57e9cb123db821e289762995da29e", "fusion_lon": 0.0, "rental_uris": {"android": "https://dc.lft.to/lastmile_qr_scan", "ios": "https://dc.lft.to/lastmile_qr_scan"}, "name": "3fd57e9cb123db821e289762995da29e", "type": "electric_scooter", "lat": 38.92604016666667, "is_disabled": 0}, {"fusion_lat": 0.0, "lon": -77.0421375, "is_reserved": 0, "bike_id": "c696897fb3d5641b8be1f827ec83c598", "fusion_lon": 0.0, "rental_uris": {"android": "https://dc.lft.to/lastmile_qr_scan", "ios": "https://dc.lft.to/lastmile_qr_scan"}, "name": "c696897fb3d5641b8be1f827ec83c598", "type": "electric_scooter", "lat": 38.9169975, "is_disabled": 0}, {"fusion_lat": 0.0, "lon": -77.03392016666666, "is_reserved": 0, "bike_id": "5814b55b5fd06ec354f7c5e822844e8d", "fusion_lon": 0.0, "rental_uris": {"android": "https://dc.lft.to/lastmile_qr_scan", "ios": "https://dc.lft.to/lastmile_qr_scan"}, "name": "5814b55b5fd06ec354f7c5e822844e8d", "type": "electric_scooter", "lat": 38.92356866666667, "is_disabled": 0}, {"fusion_lat": 0.0, "lon": -76.98824383333333, "is_reserved": 0, "bike_id": "863a4a996abd9e437f9b594782256794", "fusion_lon": 0.0, "rental_uris": {"android": "https://dc.lft.to/lastmile_qr_scan", "ios": "https://dc.lft.to/lastmile_qr_scan"}, "name": "863a4a996abd9e437f9b594782256794", "type": "electric_scooter", "lat": 38.90032733333334, "is_disabled": 0}, {"fusion_lat": 0.0, "lon": -76.99648216666667, "is_reserved": 0, "bike_id": "2b79030a4ce47636e9d8a04cb84bf60e", "fusion_lon": 0.0, "rental_uris": {"android": "https://dc.lft.to/lastmile_qr_scan", "ios": "https://dc.lft.to/lastmile_qr_scan"}, "name": "2b79030a4ce47636e9d8a04cb84bf60e", "type": "electric_bike", "lat": 38.98824583333333, "is_disabled": 0}, {"fusion_lat": 0.0, "lon": -77.00748333333334, "is_reserved": 0, "bike_id": "350bcedfdb2623e341cedf44dee73cb2", "fusion_lon": 0.0, "rental_uris": {"android": "https://dc.lft.to/lastmile_qr_scan", "ios": "https://dc.lft.to/lastmile_qr_scan"}, "name": "350bcedfdb2623e341cedf44dee73cb2", "type": "electric_scooter", "lat": 38.900616666666664, "is_disabled": 0}, {"fusion_lat": 0.0, "lon": -77.02599966666666, "is_reserved": 0, "bike_id": "98e0265e855dab4c70735b44b567bcdb", "fusion_lon": 0.0, "rental_uris": {"android": "https://dc.lft.to/lastmile_qr_scan", "ios": "https://dc.lft.to/lastmile_qr_scan"}, "name": "98e0265e855dab4c70735b44b567bcdb", "type": "electric_scooter", "lat": 38.9258995, "is_disabled": 0}, {"fusion_lat": 0.0, "lon": -77.021584, "is_reserved": 0, "bike_id": "a09d5fa8570606e68a90fc618726a19c", "fusion_lon": 0.0, "rental_uris": {"android": "https://dc.lft.to/lastmile_qr_scan", "ios": "https://dc.lft.to/lastmile_qr_scan"}, "name": "a09d5fa8570606e68a90fc618726a19c", "type": "electric_scooter", "lat": 38.92903666666667, "is_disabled": 0}, {"fusion_lat": 0.0, "lon": -77.03836733333333, "is_reserved": 0, "bike_id": "c07f5274b5fdfd052e1e08271dd20f7e", "fusion_lon": 0.0, "rental_uris": {"android": "https://dc.lft.to/lastmile_qr_scan", "ios": "https://dc.lft.to/lastmile_qr_scan"}, "name": "c07f5274b5fdfd052e1e08271dd20f7e", "type": "electric_scooter", "lat": 38.908054, "is_disabled": 0}, {"fusion_lat": 0.0, "lon": -77.04496016666667, "is_reserved": 0, "bike_id": "92ba493b2d124e683bb10feb9b3ca8f3", "fusion_lon": 0.0, "rental_uris": {"android": "https://dc.lft.to/lastmile_qr_scan", "ios": "https://dc.lft.to/lastmile_qr_scan"}, "name": "92ba493b2d124e683bb10feb9b3ca8f3", "type": "electric_scooter", "lat": 38.90264583333333, "is_disabled": 0}, {"fusion_lat": 0.0, "lon": -77.0271325, "is_reserved": 0, "bike_id": "1066b4a452a3734478de37b73c8381f3", "fusion_lon": 0.0, "rental_uris": {"android": "https://dc.lft.to/lastmile_qr_scan", "ios": "https://dc.lft.to/lastmile_qr_scan"}, "name": "1066b4a452a3734478de37b73c8381f3", "type": "electric_scooter", "lat": 38.91803616666667, "is_disabled": 0}, {"fusion_lat": 0.0, "lon": -77.01763766666667, "is_reserved": 0, "bike_id": "d6d555ec1f853b6ee401ff1ef7bd24f9", "fusion_lon": 0.0, "rental_uris": {"android": "https://dc.lft.to/lastmile_qr_scan", "ios": "https://dc.lft.to/lastmile_qr_scan"}, "name": "d6d555ec1f853b6ee401ff1ef7bd24f9", "type": "electric_scooter", "lat": 38.876884, "is_disabled": 0}, {"fusion_lat": 0.0, "lon": -77.033504, "is_reserved": 0, "bike_id": "7480d1436711725a61ffc324ea566fcd", "fusion_lon": 0.0, "rental_uris": {"android": "https://dc.lft.to/lastmile_qr_scan", "ios": "https://dc.lft.to/lastmile_qr_scan"}, "name": "7480d1436711725a61ffc324ea566fcd", "type": "electric_scooter", "lat": 38.89237383333333, "is_disabled": 0}, {"fusion_lat": 0.0, "lon": -77.03427483333333, "is_reserved": 0, "bike_id": "3d4b6b0c7bb6a402fd8c12a6b51a4525", "fusion_lon": 0.0, "rental_uris": {"android": "https://dc.lft.to/lastmile_qr_scan", "ios": "https://dc.lft.to/lastmile_qr_scan"}, "name": "3d4b6b0c7bb6a402fd8c12a6b51a4525", "type": "electric_scooter", "lat": 38.919475166666665, "is_disabled": 0}, {"fusion_lat": 0.0, "lon": -77.02270133333333, "is_reserved": 0, "bike_id": "5f8a46b5a81cb8436158fdd3b8e92317", "fusion_lon": 0.0, "rental_uris": {"android": "https://dc.lft.to/lastmile_qr_scan", "ios": "https://dc.lft.to/lastmile_qr_scan"}, "name": "5f8a46b5a81cb8436158fdd3b8e92317", "type": "electric_scooter", "lat": 38.91227816666667, "is_disabled": 0}, {"fusion_lat": 0.0, "lon": -77.20835183333334, "is_reserved": 0, "bike_id": "e80f42b9c469c64736c90427d79dd858", "fusion_lon": 0.0, "rental_uris": {"android": "https://dc.lft.to/lastmile_qr_scan", "ios": "https://dc.lft.to/lastmile_qr_scan"}, "name": "e80f42b9c469c64736c90427d79dd858", "type": "electric_bike", "lat": 38.92456383333333, "is_disabled": 0}, {"fusion_lat": 0.0, "lon": -77.0565075, "is_reserved": 0, "bike_id": "c4a822b2d4cd26e03034e87d7bcc88d6", "fusion_lon": 0.0, "rental_uris": {"android": "https://dc.lft.to/lastmile_qr_scan", "ios": "https://dc.lft.to/lastmile_qr_scan"}, "name": "c4a822b2d4cd26e03034e87d7bcc88d6", "type": "electric_scooter", "lat": 38.90766583333333, "is_disabled": 0}, {"fusion_lat": 0.0, "lon": -76.970193, "is_reserved": 0, "bike_id": "a8b64ce6ccef6220d11a9e0a8dc38b76", "fusion_lon": 0.0, "rental_uris": {"android": "https://dc.lft.to/lastmile_qr_scan", "ios": "https://dc.lft.to/lastmile_qr_scan"}, "name": "a8b64ce6ccef6220d11a9e0a8dc38b76", "type": "electric_scooter", "lat": 38.92533733333333, "is_disabled": 0}, {"fusion_lat": 0.0, "lon": -76.98765983333334, "is_reserved": 0, "bike_id": "d791bb4de7d90fddbc0a20fd7efbe3d4", "fusion_lon": 0.0, "rental_uris": {"android": "https://dc.lft.to/lastmile_qr_scan", "ios": "https://dc.lft.to/lastmile_qr_scan"}, "name": "d791bb4de7d90fddbc0a20fd7efbe3d4", "type": "electric_scooter", "lat": 38.900287, "is_disabled": 0}, {"fusion_lat": 0.0, "lon": -76.99778383333333, "is_reserved": 0, "bike_id": "0461f3f2166d90216556c7a8b8f4fcb7", "fusion_lon": 0.0, "rental_uris": {"android": "https://dc.lft.to/lastmile_qr_scan", "ios": "https://dc.lft.to/lastmile_qr_scan"}, "name": "0461f3f2166d90216556c7a8b8f4fcb7", "type": "electric_scooter", "lat": 38.84429433333333, "is_disabled": 0}, {"fusion_lat": 0.0, "lon": -77.02853816666666, "is_reserved": 0, "bike_id": "fe12df3de3dcc980e9de0962cef4cd71", "fusion_lon": 0.0, "rental_uris": {"android": "https://dc.lft.to/lastmile_qr_scan", "ios": "https://dc.lft.to/lastmile_qr_scan"}, "name": "fe12df3de3dcc980e9de0962cef4cd71", "type": "electric_scooter", "lat": 38.922429666666666, "is_disabled": 0}, {"fusion_lat": 0.0, "lon": -77.03458833333333, "is_reserved": 0, "bike_id": "396804bf18d2c642a0434fd35e41e13c", "fusion_lon": 0.0, "rental_uris": {"android": "https://dc.lft.to/lastmile_qr_scan", "ios": "https://dc.lft.to/lastmile_qr_scan"}, "name": "396804bf18d2c642a0434fd35e41e13c", "type": "electric_scooter", "lat": 38.908099, "is_disabled": 0}, {"fusion_lat": 0.0, "lon": -77.06667616666667, "is_reserved": 0, "bike_id": "d89bf44bc1c6533ee21633dbc2188ce9", "fusion_lon": 0.0, "rental_uris": {"android": "https://dc.lft.to/lastmile_qr_scan", "ios": "https://dc.lft.to/lastmile_qr_scan"}, "name": "d89bf44bc1c6533ee21633dbc2188ce9", "type": "electric_scooter", "lat": 38.94955683333333, "is_disabled": 0}, {"fusion_lat": 0.0, "lon": -77.00949516666667, "is_reserved": 0, "bike_id": "fba1a3534332974c618392257b447c91", "fusion_lon": 0.0, "rental_uris": {"android": "https://dc.lft.to/lastmile_qr_scan", "ios": "https://dc.lft.to/lastmile_qr_scan"}, "name": "fba1a3534332974c618392257b447c91", "type": "electric_scooter", "lat": 38.897444666666665, "is_disabled": 0}, {"fusion_lat": 0.0, "lon": -77.041474, "is_reserved": 0, "bike_id": "391eeb1ccee56103e38c3b06bb0aafa3", "fusion_lon": 0.0, "rental_uris": {"android": "https://dc.lft.to/lastmile_qr_scan", "ios": "https://dc.lft.to/lastmile_qr_scan"}, "name": "391eeb1ccee56103e38c3b06bb0aafa3", "type": "electric_scooter", "lat": 38.892225833333335, "is_disabled": 0}, {"fusion_lat": 0.0, "lon": -76.998783, "is_reserved": 0, "bike_id": "b8c2d1f3aba8d45b2e9062b7cc7c11e2", "fusion_lon": 0.0, "rental_uris": {"android": "https://dc.lft.to/lastmile_qr_scan", "ios": "https://dc.lft.to/lastmile_qr_scan"}, "name": "b8c2d1f3aba8d45b2e9062b7cc7c11e2", "type": "electric_scooter", "lat": 38.92058883333333, "is_disabled": 0}, {"fusion_lat": 0.0, "lon": -76.937662, "is_reserved": 0, "bike_id": "6c01b98ad8a38cf59521b2e707f0dbdf", "fusion_lon": 0.0, "rental_uris": {"android": "https://dc.lft.to/lastmile_qr_scan", "ios": "https://dc.lft.to/lastmile_qr_scan"}, "name": "6c01b98ad8a38cf59521b2e707f0dbdf", "type": "electric_scooter", "lat": 38.90371316666667, "is_disabled": 0}, {"fusion_lat": 0.0, "lon": -77.04600083333334, "is_reserved": 0, "bike_id": "eb602664473daeaaa108f8147288ce17", "fusion_lon": 0.0, "rental_uris": {"android": "https://dc.lft.to/lastmile_qr_scan", "ios": "https://dc.lft.to/lastmile_qr_scan"}, "name": "eb602664473daeaaa108f8147288ce17", "type": "electric_scooter", "lat": 38.91604916666667, "is_disabled": 0}, {"fusion_lat": 0.0, "lon": -77.055907, "is_reserved": 0, "bike_id": "b30cbcfa929349dff564cb260cf009d5", "fusion_lon": 0.0, "rental_uris": {"android": "https://dc.lft.to/lastmile_qr_scan", "ios": "https://dc.lft.to/lastmile_qr_scan"}, "name": "b30cbcfa929349dff564cb260cf009d5", "type": "electric_scooter", "lat": 38.936099, "is_disabled": 0}, {"fusion_lat": 0.0, "lon": -77.03956366666667, "is_reserved": 0, "bike_id": "35a1d6ba824ded86607490a47d2fc96a", "fusion_lon": 0.0, "rental_uris": {"android": "https://dc.lft.to/lastmile_qr_scan", "ios": "https://dc.lft.to/lastmile_qr_scan"}, "name": "35a1d6ba824ded86607490a47d2fc96a", "type": "electric_scooter", "lat": 38.8924325, "is_disabled": 0}, {"fusion_lat": 0.0, "lon": -77.0345165, "is_reserved": 0, "bike_id": "cdb82ec4e93a45c13defec0856be93d6", "fusion_lon": 0.0, "rental_uris": {"android": "https://dc.lft.to/lastmile_qr_scan", "ios": "https://dc.lft.to/lastmile_qr_scan"}, "name": "cdb82ec4e93a45c13defec0856be93d6", "type": "electric_scooter", "lat": 38.905763666666665, "is_disabled": 0}, {"fusion_lat": 0.0, "lon": -77.01237383333333, "is_reserved": 0, "bike_id": "71a39abd2ba2fafaf557a9b0fb603c96", "fusion_lon": 0.0, "rental_uris": {"android": "https://dc.lft.to/lastmile_qr_scan", "ios": "https://dc.lft.to/lastmile_qr_scan"}, "name": "71a39abd2ba2fafaf557a9b0fb603c96", "type": "electric_scooter", "lat": 38.830474833333334, "is_disabled": 0}, {"fusion_lat": 0.0, "lon": -77.02725616666666, "is_reserved": 0, "bike_id": "6540c87bc16f3a0d9d04c3ea2400bf30", "fusion_lon": 0.0, "rental_uris": {"android": "https://dc.lft.to/lastmile_qr_scan", "ios": "https://dc.lft.to/lastmile_qr_scan"}, "name": "6540c87bc16f3a0d9d04c3ea2400bf30", "type": "electric_scooter", "lat": 38.940867, "is_disabled": 0}, {"fusion_lat": 0.0, "lon": -77.04204016666667, "is_reserved": 0, "bike_id": "2421ce27f96379fd174d8c07b0e8f5b4", "fusion_lon": 0.0, "rental_uris": {"android": "https://dc.lft.to/lastmile_qr_scan", "ios": "https://dc.lft.to/lastmile_qr_scan"}, "name": "2421ce27f96379fd174d8c07b0e8f5b4", "type": "electric_scooter", "lat": 38.90380433333333, "is_disabled": 0}, {"fusion_lat": 0.0, "lon": -77.03996483333333, "is_reserved": 0, "bike_id": "18a3746dff83462c754ed7c2d0933335", "fusion_lon": 0.0, "rental_uris": {"android": "https://dc.lft.to/lastmile_qr_scan", "ios": "https://dc.lft.to/lastmile_qr_scan"}, "name": "18a3746dff83462c754ed7c2d0933335", "type": "electric_bike", "lat": 38.93436033333333, "is_disabled": 0}, {"fusion_lat": 0.0, "lon": -77.04483833333333, "is_reserved": 0, "bike_id": "e1603d544289d0e8e6916871783ea33a", "fusion_lon": 0.0, "rental_uris": {"android": "https://dc.lft.to/lastmile_qr_scan", "ios": "https://dc.lft.to/lastmile_qr_scan"}, "name": "e1603d544289d0e8e6916871783ea33a", "type": "electric_scooter", "lat": 38.9240505, "is_disabled": 0}, {"fusion_lat": 0.0, "lon": -77.017719, "is_reserved": 0, "bike_id": "70d6de0ba95c336092bca91606fd726b", "fusion_lon": 0.0, "rental_uris": {"android": "https://dc.lft.to/lastmile_qr_scan", "ios": "https://dc.lft.to/lastmile_qr_scan"}, "name": "70d6de0ba95c336092bca91606fd726b", "type": "electric_scooter", "lat": 38.917377333333334, "is_disabled": 0}, {"fusion_lat": 0.0, "lon": -77.022083, "is_reserved": 0, "bike_id": "501656aed284cf8f1e919f48d652bb36", "fusion_lon": 0.0, "rental_uris": {"android": "https://dc.lft.to/lastmile_qr_scan", "ios": "https://dc.lft.to/lastmile_qr_scan"}, "name": "501656aed284cf8f1e919f48d652bb36", "type": "electric_scooter", "lat": 38.902078333333336, "is_disabled": 0}, {"fusion_lat": 0.0, "lon": -77.0343785, "is_reserved": 0, "bike_id": "32d74bc7211b84c2d6d7d64c5b4fb476", "fusion_lon": 0.0, "rental_uris": {"android": "https://dc.lft.to/lastmile_qr_scan", "ios": "https://dc.lft.to/lastmile_qr_scan"}, "name": "32d74bc7211b84c2d6d7d64c5b4fb476", "type": "electric_scooter", "lat": 38.930815, "is_disabled": 0}, {"fusion_lat": 0.0, "lon": -77.0036085, "is_reserved": 0, "bike_id": "518110bbac8a9ad0a36ce59d8617d066", "fusion_lon": 0.0, "rental_uris": {"android": "https://dc.lft.to/lastmile_qr_scan", "ios": "https://dc.lft.to/lastmile_qr_scan"}, "name": "518110bbac8a9ad0a36ce59d8617d066", "type": "electric_scooter", "lat": 38.898804166666665, "is_disabled": 0}, {"fusion_lat": 0.0, "lon": -77.10089816666667, "is_reserved": 0, "bike_id": "3cf030cfc584d43201258a556a0c23c7", "fusion_lon": 0.0, "rental_uris": {"android": "https://dc.lft.to/lastmile_qr_scan", "ios": "https://dc.lft.to/lastmile_qr_scan"}, "name": "3cf030cfc584d43201258a556a0c23c7", "type": "electric_bike", "lat": 38.95958066666667, "is_disabled": 0}, {"fusion_lat": 0.0, "lon": -77.03241933333334, "is_reserved": 0, "bike_id": "a10291f7c9afea5ea83345ba0d826830", "fusion_lon": 0.0, "rental_uris": {"android": "https://dc.lft.to/lastmile_qr_scan", "ios": "https://dc.lft.to/lastmile_qr_scan"}, "name": "a10291f7c9afea5ea83345ba0d826830", "type": "electric_scooter", "lat": 38.909781, "is_disabled": 0}, {"fusion_lat": 0.0, "lon": -77.01161233333333, "is_reserved": 0, "bike_id": "95389ad12888262ae3ce0cf512ec3d42", "fusion_lon": 0.0, "rental_uris": {"android": "https://dc.lft.to/lastmile_qr_scan", "ios": "https://dc.lft.to/lastmile_qr_scan"}, "name": "95389ad12888262ae3ce0cf512ec3d42", "type": "electric_scooter", "lat": 38.90027466666667, "is_disabled": 0}, {"fusion_lat": 0.0, "lon": -77.05756183333334, "is_reserved": 0, "bike_id": "2ceca5c117c50d17c1799f5bdab230e0", "fusion_lon": 0.0, "rental_uris": {"android": "https://dc.lft.to/lastmile_qr_scan", "ios": "https://dc.lft.to/lastmile_qr_scan"}, "name": "2ceca5c117c50d17c1799f5bdab230e0", "type": "electric_scooter", "lat": 38.92464483333333, "is_disabled": 0}, {"fusion_lat": 0.0, "lon": -77.02726316666667, "is_reserved": 0, "bike_id": "8723072cb72f2b0d31e50f0ab81c4f6d", "fusion_lon": 0.0, "rental_uris": {"android": "https://dc.lft.to/lastmile_qr_scan", "ios": "https://dc.lft.to/lastmile_qr_scan"}, "name": "8723072cb72f2b0d31e50f0ab81c4f6d", "type": "electric_scooter", "lat": 38.897471833333334, "is_disabled": 0}, {"fusion_lat": 0.0, "lon": -77.04204033333333, "is_reserved": 0, "bike_id": "0ea2de5637528237f300b0c655c4efb0", "fusion_lon": 0.0, "rental_uris": {"android": "https://dc.lft.to/lastmile_qr_scan", "ios": "https://dc.lft.to/lastmile_qr_scan"}, "name": "0ea2de5637528237f300b0c655c4efb0", "type": "electric_scooter", "lat": 38.90911633333333, "is_disabled": 0}, {"fusion_lat": 0.0, "lon": -76.9807195, "is_reserved": 0, "bike_id": "03804621acdbbbc26fb90abcaa5ddff5", "fusion_lon": 0.0, "rental_uris": {"android": "https://dc.lft.to/lastmile_qr_scan", "ios": "https://dc.lft.to/lastmile_qr_scan"}, "name": "03804621acdbbbc26fb90abcaa5ddff5", "type": "electric_scooter", "lat": 38.90173, "is_disabled": 0}, {"fusion_lat": 0.0, "lon": -77.0380095, "is_reserved": 0, "bike_id": "1b19bc1352093db907af82c8e846abdf", "fusion_lon": 0.0, "rental_uris": {"android": "https://dc.lft.to/lastmile_qr_scan", "ios": "https://dc.lft.to/lastmile_qr_scan"}, "name": "1b19bc1352093db907af82c8e846abdf", "type": "electric_scooter", "lat": 38.910388, "is_disabled": 0}, {"fusion_lat": 0.0, "lon": -77.00211633333333, "is_reserved": 0, "bike_id": "2678609a823db470e7750317dea5d722", "fusion_lon": 0.0, "rental_uris": {"android": "https://dc.lft.to/lastmile_qr_scan", "ios": "https://dc.lft.to/lastmile_qr_scan"}, "name": "2678609a823db470e7750317dea5d722", "type": "electric_scooter", "lat": 38.90026533333333, "is_disabled": 0}, {"fusion_lat": 0.0, "lon": -77.010927, "is_reserved": 0, "bike_id": "e56f6853dfb1e9c92d5ed425a1242dfd", "fusion_lon": 0.0, "rental_uris": {"android": "https://dc.lft.to/lastmile_qr_scan", "ios": "https://dc.lft.to/lastmile_qr_scan"}, "name": "e56f6853dfb1e9c92d5ed425a1242dfd", "type": "electric_bike", "lat": 38.872987333333334, "is_disabled": 0}, {"fusion_lat": 0.0, "lon": -77.04210716666667, "is_reserved": 0, "bike_id": "0c4da8999c51f0441313ad69ee8c2f80", "fusion_lon": 0.0, "rental_uris": {"android": "https://dc.lft.to/lastmile_qr_scan", "ios": "https://dc.lft.to/lastmile_qr_scan"}, "name": "0c4da8999c51f0441313ad69ee8c2f80", "type": "electric_scooter", "lat": 38.9038535, "is_disabled": 0}, {"fusion_lat": 0.0, "lon": -77.02638266666666, "is_reserved": 0, "bike_id": "8fc5d7b77a4744bf562d4997fd40e4df", "fusion_lon": 0.0, "rental_uris": {"android": "https://dc.lft.to/lastmile_qr_scan", "ios": "https://dc.lft.to/lastmile_qr_scan"}, "name": "8fc5d7b77a4744bf562d4997fd40e4df", "type": "electric_scooter", "lat": 38.8921895, "is_disabled": 0}, {"fusion_lat": 0.0, "lon": -76.99408466666667, "is_reserved": 0, "bike_id": "046b048f67dda96fc00a126effd347ec", "fusion_lon": 0.0, "rental_uris": {"android": "https://dc.lft.to/lastmile_qr_scan", "ios": "https://dc.lft.to/lastmile_qr_scan"}, "name": "046b048f67dda96fc00a126effd347ec", "type": "electric_bike", "lat": 38.83137883333333, "is_disabled": 0}, {"fusion_lat": 0.0, "lon": -77.01654866666667, "is_reserved": 0, "bike_id": "937590de1842f540d349486e301ec078", "fusion_lon": 0.0, "rental_uris": {"android": "https://dc.lft.to/lastmile_qr_scan", "ios": "https://dc.lft.to/lastmile_qr_scan"}, "name": "937590de1842f540d349486e301ec078", "type": "electric_scooter", "lat": 38.88131683333334, "is_disabled": 0}, {"fusion_lat": 0.0, "lon": -77.02132433333334, "is_reserved": 0, "bike_id": "ee75c64a317c3ee7bdbf9fd63abe5140", "fusion_lon": 0.0, "rental_uris": {"android": "https://dc.lft.to/lastmile_qr_scan", "ios": "https://dc.lft.to/lastmile_qr_scan"}, "name": "ee75c64a317c3ee7bdbf9fd63abe5140", "type": "electric_scooter", "lat": 38.92328033333333, "is_disabled": 0}, {"fusion_lat": 0.0, "lon": -77.0451125, "is_reserved": 0, "bike_id": "362fad72d3a39fb9567ef09b8ea4a061", "fusion_lon": 0.0, "rental_uris": {"android": "https://dc.lft.to/lastmile_qr_scan", "ios": "https://dc.lft.to/lastmile_qr_scan"}, "name": "362fad72d3a39fb9567ef09b8ea4a061", "type": "electric_scooter", "lat": 38.90379083333333, "is_disabled": 0}, {"fusion_lat": 0.0, "lon": -76.93366166666667, "is_reserved": 0, "bike_id": "372205b025209fc409ddfd3727d81254", "fusion_lon": 0.0, "rental_uris": {"android": "https://dc.lft.to/lastmile_qr_scan", "ios": "https://dc.lft.to/lastmile_qr_scan"}, "name": "372205b025209fc409ddfd3727d81254", "type": "electric_scooter", "lat": 38.89916383333333, "is_disabled": 0}, {"fusion_lat": 0.0, "lon": -77.025373, "is_reserved": 0, "bike_id": "f9ad19802645795ad27d71ac1a9156b2", "fusion_lon": 0.0, "rental_uris": {"android": "https://dc.lft.to/lastmile_qr_scan", "ios": "https://dc.lft.to/lastmile_qr_scan"}, "name": "f9ad19802645795ad27d71ac1a9156b2", "type": "electric_scooter", "lat": 38.927406166666664, "is_disabled": 0}, {"fusion_lat": 0.0, "lon": -77.0289995, "is_reserved": 0, "bike_id": "35eaecf5c9ea9057a522872b0dfb2ac0", "fusion_lon": 0.0, "rental_uris": {"android": "https://dc.lft.to/lastmile_qr_scan", "ios": "https://dc.lft.to/lastmile_qr_scan"}, "name": "35eaecf5c9ea9057a522872b0dfb2ac0", "type": "electric_scooter", "lat": 38.940462, "is_disabled": 0}, {"fusion_lat": 0.0, "lon": -77.04313583333334, "is_reserved": 0, "bike_id": "b63d8376f3315f2fe796dfaf68e82b41", "fusion_lon": 0.0, "rental_uris": {"android": "https://dc.lft.to/lastmile_qr_scan", "ios": "https://dc.lft.to/lastmile_qr_scan"}, "name": "b63d8376f3315f2fe796dfaf68e82b41", "type": "electric_scooter", "lat": 38.923268166666666, "is_disabled": 0}, {"fusion_lat": 0.0, "lon": -77.01759183333333, "is_reserved": 0, "bike_id": "f5fe3b90b8f1957f3094aa0938269a54", "fusion_lon": 0.0, "rental_uris": {"android": "https://dc.lft.to/lastmile_qr_scan", "ios": "https://dc.lft.to/lastmile_qr_scan"}, "name": "f5fe3b90b8f1957f3094aa0938269a54", "type": "electric_scooter", "lat": 38.902649333333336, "is_disabled": 0}, {"fusion_lat": 0.0, "lon": -76.983733, "is_reserved": 0, "bike_id": "493d9721b5459bbf4cb1059d78e93a46", "fusion_lon": 0.0, "rental_uris": {"android": "https://dc.lft.to/lastmile_qr_scan", "ios": "https://dc.lft.to/lastmile_qr_scan"}, "name": "493d9721b5459bbf4cb1059d78e93a46", "type": "electric_scooter", "lat": 38.906549, "is_disabled": 0}, {"fusion_lat": 0.0, "lon": -77.003458, "is_reserved": 0, "bike_id": "f102cba57c14e6f62aeb9cd0ee5dee82", "fusion_lon": 0.0, "rental_uris": {"android": "https://dc.lft.to/lastmile_qr_scan", "ios": "https://dc.lft.to/lastmile_qr_scan"}, "name": "f102cba57c14e6f62aeb9cd0ee5dee82", "type": "electric_scooter", "lat": 38.88702683333333, "is_disabled": 0}, {"fusion_lat": 0.0, "lon": -77.043772, "is_reserved": 0, "bike_id": "528f6127cf2de68ea18d07c4ffc0158a", "fusion_lon": 0.0, "rental_uris": {"android": "https://dc.lft.to/lastmile_qr_scan", "ios": "https://dc.lft.to/lastmile_qr_scan"}, "name": "528f6127cf2de68ea18d07c4ffc0158a", "type": "electric_scooter", "lat": 38.8922415, "is_disabled": 0}, {"fusion_lat": 0.0, "lon": -76.98714766666667, "is_reserved": 0, "bike_id": "24525b51a39e22ed4f3017b8c6d6f039", "fusion_lon": 0.0, "rental_uris": {"android": "https://dc.lft.to/lastmile_qr_scan", "ios": "https://dc.lft.to/lastmile_qr_scan"}, "name": "24525b51a39e22ed4f3017b8c6d6f039", "type": "electric_scooter", "lat": 38.866267, "is_disabled": 0}, {"fusion_lat": 0.0, "lon": -76.98955833333333, "is_reserved": 0, "bike_id": "e8ab5b936822876cc39ff8d48552e584", "fusion_lon": 0.0, "rental_uris": {"android": "https://dc.lft.to/lastmile_qr_scan", "ios": "https://dc.lft.to/lastmile_qr_scan"}, "name": "e8ab5b936822876cc39ff8d48552e584", "type": "electric_scooter", "lat": 38.85693666666667, "is_disabled": 0}, {"fusion_lat": 0.0, "lon": -77.029478, "is_reserved": 0, "bike_id": "3afe82206a06a520e64d01625f92f18c", "fusion_lon": 0.0, "rental_uris": {"android": "https://dc.lft.to/lastmile_qr_scan", "ios": "https://dc.lft.to/lastmile_qr_scan"}, "name": "3afe82206a06a520e64d01625f92f18c", "type": "electric_scooter", "lat": 38.90501616666667, "is_disabled": 0}, {"fusion_lat": 0.0, "lon": -77.00909216666666, "is_reserved": 0, "bike_id": "7ac9708ece3d4808123220eb2d1e7a19", "fusion_lon": 0.0, "rental_uris": {"android": "https://dc.lft.to/lastmile_qr_scan", "ios": "https://dc.lft.to/lastmile_qr_scan"}, "name": "7ac9708ece3d4808123220eb2d1e7a19", "type": "electric_scooter", "lat": 38.90033, "is_disabled": 0}, {"fusion_lat": 0.0, "lon": -77.01970983333334, "is_reserved": 0, "bike_id": "884c426193b69063fbeb26d5e5c6649a", "fusion_lon": 0.0, "rental_uris": {"android": "https://dc.lft.to/lastmile_qr_scan", "ios": "https://dc.lft.to/lastmile_qr_scan"}, "name": "884c426193b69063fbeb26d5e5c6649a", "type": "electric_scooter", "lat": 38.878449833333335, "is_disabled": 0}, {"fusion_lat": 0.0, "lon": -76.998036, "is_reserved": 0, "bike_id": "3e34942b4dad7fdc66ad89ff3e2b2fe9", "fusion_lon": 0.0, "rental_uris": {"android": "https://dc.lft.to/lastmile_qr_scan", "ios": "https://dc.lft.to/lastmile_qr_scan"}, "name": "3e34942b4dad7fdc66ad89ff3e2b2fe9", "type": "electric_scooter", "lat": 38.90010783333334, "is_disabled": 0}, {"fusion_lat": 0.0, "lon": -76.95185, "is_reserved": 0, "bike_id": "6e5c8cde81d078642e1b2a42eeb7ff6c", "fusion_lon": 0.0, "rental_uris": {"android": "https://dc.lft.to/lastmile_qr_scan", "ios": "https://dc.lft.to/lastmile_qr_scan"}, "name": "6e5c8cde81d078642e1b2a42eeb7ff6c", "type": "electric_scooter", "lat": 38.907386333333335, "is_disabled": 0}, {"fusion_lat": 0.0, "lon": -77.0225115, "is_reserved": 0, "bike_id": "c6812009b152dbbe5c644e261ffe6042", "fusion_lon": 0.0, "rental_uris": {"android": "https://dc.lft.to/lastmile_qr_scan", "ios": "https://dc.lft.to/lastmile_qr_scan"}, "name": "c6812009b152dbbe5c644e261ffe6042", "type": "electric_scooter", "lat": 38.893907, "is_disabled": 0}, {"fusion_lat": 0.0, "lon": -77.02550933333333, "is_reserved": 0, "bike_id": "4a1e015bab8504cca4bf061678fd19b7", "fusion_lon": 0.0, "rental_uris": {"android": "https://dc.lft.to/lastmile_qr_scan", "ios": "https://dc.lft.to/lastmile_qr_scan"}, "name": "4a1e015bab8504cca4bf061678fd19b7", "type": "electric_scooter", "lat": 38.941411333333335, "is_disabled": 0}, {"fusion_lat": 0.0, "lon": -76.9982775, "is_reserved": 0, "bike_id": "df3a03277deaf35100f1bc643c1a9386", "fusion_lon": 0.0, "rental_uris": {"android": "https://dc.lft.to/lastmile_qr_scan", "ios": "https://dc.lft.to/lastmile_qr_scan"}, "name": "df3a03277deaf35100f1bc643c1a9386", "type": "electric_scooter", "lat": 38.88533366666667, "is_disabled": 0}, {"fusion_lat": 0.0, "lon": -76.999357, "is_reserved": 0, "bike_id": "718e7c7f4dd572be09877798626d459c", "fusion_lon": 0.0, "rental_uris": {"android": "https://dc.lft.to/lastmile_qr_scan", "ios": "https://dc.lft.to/lastmile_qr_scan"}, "name": "718e7c7f4dd572be09877798626d459c", "type": "electric_scooter", "lat": 38.842996, "is_disabled": 0}, {"fusion_lat": 0.0, "lon": -77.0558425, "is_reserved": 0, "bike_id": "95f4f307b801262dbcf4de76a6b02cf5", "fusion_lon": 0.0, "rental_uris": {"android": "https://dc.lft.to/lastmile_qr_scan", "ios": "https://dc.lft.to/lastmile_qr_scan"}, "name": "95f4f307b801262dbcf4de76a6b02cf5", "type": "electric_scooter", "lat": 38.9361335, "is_disabled": 0}, {"fusion_lat": 0.0, "lon": -77.0221055, "is_reserved": 0, "bike_id": "a17a4f6a546ddcb5a7c299336edaf8f7", "fusion_lon": 0.0, "rental_uris": {"android": "https://dc.lft.to/lastmile_qr_scan", "ios": "https://dc.lft.to/lastmile_qr_scan"}, "name": "a17a4f6a546ddcb5a7c299336edaf8f7", "type": "electric_scooter", "lat": 38.91412566666666, "is_disabled": 0}, {"fusion_lat": 0.0, "lon": -77.00774416666667, "is_reserved": 0, "bike_id": "bc68cb8610d93f0e39b5c9d1818b4a17", "fusion_lon": 0.0, "rental_uris": {"android": "https://dc.lft.to/lastmile_qr_scan", "ios": "https://dc.lft.to/lastmile_qr_scan"}, "name": "bc68cb8610d93f0e39b5c9d1818b4a17", "type": "electric_scooter", "lat": 38.92672, "is_disabled": 0}, {"fusion_lat": 0.0, "lon": -77.051321, "is_reserved": 0, "bike_id": "f4cbabc43fb031b9a931fb0eb39723f9", "fusion_lon": 0.0, "rental_uris": {"android": "https://dc.lft.to/lastmile_qr_scan", "ios": "https://dc.lft.to/lastmile_qr_scan"}, "name": "f4cbabc43fb031b9a931fb0eb39723f9", "type": "electric_scooter", "lat": 38.90714533333333, "is_disabled": 0}, {"fusion_lat": 0.0, "lon": -77.02573166666667, "is_reserved": 0, "bike_id": "be186c7cce6261bd4fed02a36cac6b0c", "fusion_lon": 0.0, "rental_uris": {"android": "https://dc.lft.to/lastmile_qr_scan", "ios": "https://dc.lft.to/lastmile_qr_scan"}, "name": "be186c7cce6261bd4fed02a36cac6b0c", "type": "electric_bike", "lat": 38.99720283333333, "is_disabled": 0}, {"fusion_lat": 0.0, "lon": -76.94422383333334, "is_reserved": 0, "bike_id": "a6358f1a2d987081cf1b717de6c20dbb", "fusion_lon": 0.0, "rental_uris": {"android": "https://dc.lft.to/lastmile_qr_scan", "ios": "https://dc.lft.to/lastmile_qr_scan"}, "name": "a6358f1a2d987081cf1b717de6c20dbb", "type": "electric_bike", "lat": 38.96620133333333, "is_disabled": 0}, {"fusion_lat": 0.0, "lon": -77.058858, "is_reserved": 0, "bike_id": "a05febc0747b0fa323e8e4153fb2d9bd", "fusion_lon": 0.0, "rental_uris": {"android": "https://dc.lft.to/lastmile_qr_scan", "ios": "https://dc.lft.to/lastmile_qr_scan"}, "name": "a05febc0747b0fa323e8e4153fb2d9bd", "type": "electric_scooter", "lat": 38.936354666666666, "is_disabled": 0}, {"fusion_lat": 0.0, "lon": -77.0317225, "is_reserved": 0, "bike_id": "57dfe436ea2a483b72c22e96ae8cb04e", "fusion_lon": 0.0, "rental_uris": {"android": "https://dc.lft.to/lastmile_qr_scan", "ios": "https://dc.lft.to/lastmile_qr_scan"}, "name": "57dfe436ea2a483b72c22e96ae8cb04e", "type": "electric_scooter", "lat": 38.913389, "is_disabled": 0}, {"fusion_lat": 0.0, "lon": -77.02697566666667, "is_reserved": 0, "bike_id": "4f0a344ff9e49aa2113c07cbfd92ffd4", "fusion_lon": 0.0, "rental_uris": {"android": "https://dc.lft.to/lastmile_qr_scan", "ios": "https://dc.lft.to/lastmile_qr_scan"}, "name": "4f0a344ff9e49aa2113c07cbfd92ffd4", "type": "electric_scooter", "lat": 38.91802966666667, "is_disabled": 0}, {"fusion_lat": 0.0, "lon": -77.016613, "is_reserved": 0, "bike_id": "40ca9610130eb36e772ae16140d28dd3", "fusion_lon": 0.0, "rental_uris": {"android": "https://dc.lft.to/lastmile_qr_scan", "ios": "https://dc.lft.to/lastmile_qr_scan"}, "name": "40ca9610130eb36e772ae16140d28dd3", "type": "electric_bike", "lat": 38.88116316666667, "is_disabled": 0}, {"fusion_lat": 0.0, "lon": -77.0302375, "is_reserved": 0, "bike_id": "a6e0bde991c7e80b641eaff68391be72", "fusion_lon": 0.0, "rental_uris": {"android": "https://dc.lft.to/lastmile_qr_scan", "ios": "https://dc.lft.to/lastmile_qr_scan"}, "name": "a6e0bde991c7e80b641eaff68391be72", "type": "electric_scooter", "lat": 38.9048905, "is_disabled": 0}, {"fusion_lat": 0.0, "lon": -77.0420025, "is_reserved": 0, "bike_id": "893e58878996819c76b217246832b5b2", "fusion_lon": 0.0, "rental_uris": {"android": "https://dc.lft.to/lastmile_qr_scan", "ios": "https://dc.lft.to/lastmile_qr_scan"}, "name": "893e58878996819c76b217246832b5b2", "type": "electric_scooter", "lat": 38.920221, "is_disabled": 0}, {"fusion_lat": 0.0, "lon": -77.000676, "is_reserved": 0, "bike_id": "b99936626c266e291b949580eb6a19ad", "fusion_lon": 0.0, "rental_uris": {"android": "https://dc.lft.to/lastmile_qr_scan", "ios": "https://dc.lft.to/lastmile_qr_scan"}, "name": "b99936626c266e291b949580eb6a19ad", "type": "electric_scooter", "lat": 38.92437566666667, "is_disabled": 0}, {"fusion_lat": 0.0, "lon": -76.980906, "is_reserved": 0, "bike_id": "27fc2917930692aca82cb6bc2e5839c5", "fusion_lon": 0.0, "rental_uris": {"android": "https://dc.lft.to/lastmile_qr_scan", "ios": "https://dc.lft.to/lastmile_qr_scan"}, "name": "27fc2917930692aca82cb6bc2e5839c5", "type": "electric_bike", "lat": 38.865917, "is_disabled": 0}, {"fusion_lat": 0.0, "lon": -76.98382283333333, "is_reserved": 0, "bike_id": "f14179356d0d06f0049f63e26d37e02d", "fusion_lon": 0.0, "rental_uris": {"android": "https://dc.lft.to/lastmile_qr_scan", "ios": "https://dc.lft.to/lastmile_qr_scan"}, "name": "f14179356d0d06f0049f63e26d37e02d", "type": "electric_scooter", "lat": 38.91496266666667, "is_disabled": 0}, {"fusion_lat": 0.0, "lon": -77.04229783333334, "is_reserved": 0, "bike_id": "6f6e2f0d3d69aea317db03da7a3df16b", "fusion_lon": 0.0, "rental_uris": {"android": "https://dc.lft.to/lastmile_qr_scan", "ios": "https://dc.lft.to/lastmile_qr_scan"}, "name": "6f6e2f0d3d69aea317db03da7a3df16b", "type": "electric_scooter", "lat": 38.921716833333335, "is_disabled": 0}, {"fusion_lat": 0.0, "lon": -77.04361583333333, "is_reserved": 0, "bike_id": "695a2842c0d2580a5daa45299a9190d5", "fusion_lon": 0.0, "rental_uris": {"android": "https://dc.lft.to/lastmile_qr_scan", "ios": "https://dc.lft.to/lastmile_qr_scan"}, "name": "695a2842c0d2580a5daa45299a9190d5", "type": "electric_scooter", "lat": 38.905778166666664, "is_disabled": 0}, {"fusion_lat": 0.0, "lon": -77.04364416666667, "is_reserved": 0, "bike_id": "02834aa68da591574def3173f58f1e9f", "fusion_lon": 0.0, "rental_uris": {"android": "https://dc.lft.to/lastmile_qr_scan", "ios": "https://dc.lft.to/lastmile_qr_scan"}, "name": "02834aa68da591574def3173f58f1e9f", "type": "electric_scooter", "lat": 38.911196833333335, "is_disabled": 0}, {"fusion_lat": 0.0, "lon": -76.99602583333333, "is_reserved": 0, "bike_id": "6fbb537352fe38ea1e541f149b3687b2", "fusion_lon": 0.0, "rental_uris": {"android": "https://dc.lft.to/lastmile_qr_scan", "ios": "https://dc.lft.to/lastmile_qr_scan"}, "name": "6fbb537352fe38ea1e541f149b3687b2", "type": "electric_scooter", "lat": 38.892242833333334, "is_disabled": 0}, {"fusion_lat": 0.0, "lon": -77.08948566666666, "is_reserved": 0, "bike_id": "253d91edd0cb07463279016071e540de", "fusion_lon": 0.0, "rental_uris": {"android": "https://dc.lft.to/lastmile_qr_scan", "ios": "https://dc.lft.to/lastmile_qr_scan"}, "name": "253d91edd0cb07463279016071e540de", "type": "electric_bike", "lat": 38.841140333333335, "is_disabled": 0}, {"fusion_lat": 0.0, "lon": -77.0269295, "is_reserved": 0, "bike_id": "d29191c14ee84c802973c1b05bfef86d", "fusion_lon": 0.0, "rental_uris": {"android": "https://dc.lft.to/lastmile_qr_scan", "ios": "https://dc.lft.to/lastmile_qr_scan"}, "name": "d29191c14ee84c802973c1b05bfef86d", "type": "electric_scooter", "lat": 38.909310833333336, "is_disabled": 0}, {"fusion_lat": 0.0, "lon": -77.02296233333334, "is_reserved": 0, "bike_id": "d7d3188783b0d100512587d86abe6151", "fusion_lon": 0.0, "rental_uris": {"android": "https://dc.lft.to/lastmile_qr_scan", "ios": "https://dc.lft.to/lastmile_qr_scan"}, "name": "d7d3188783b0d100512587d86abe6151", "type": "electric_scooter", "lat": 38.92721066666667, "is_disabled": 0}, {"fusion_lat": 0.0, "lon": -76.9950595, "is_reserved": 0, "bike_id": "5433c5ff54482ff30e12cdfac54b7189", "fusion_lon": 0.0, "rental_uris": {"android": "https://dc.lft.to/lastmile_qr_scan", "ios": "https://dc.lft.to/lastmile_qr_scan"}, "name": "5433c5ff54482ff30e12cdfac54b7189", "type": "electric_scooter", "lat": 38.90977483333333, "is_disabled": 0}, {"fusion_lat": 0.0, "lon": -77.02420783333334, "is_reserved": 0, "bike_id": "7c493f78140e021c2053b3ca2be0821a", "fusion_lon": 0.0, "rental_uris": {"android": "https://dc.lft.to/lastmile_qr_scan", "ios": "https://dc.lft.to/lastmile_qr_scan"}, "name": "7c493f78140e021c2053b3ca2be0821a", "type": "electric_scooter", "lat": 38.920786166666666, "is_disabled": 0}, {"fusion_lat": 0.0, "lon": -77.025537, "is_reserved": 0, "bike_id": "bf9f7c3c01d5df2d6d4de07b8e48e681", "fusion_lon": 0.0, "rental_uris": {"android": "https://dc.lft.to/lastmile_qr_scan", "ios": "https://dc.lft.to/lastmile_qr_scan"}, "name": "bf9f7c3c01d5df2d6d4de07b8e48e681", "type": "electric_scooter", "lat": 38.9247295, "is_disabled": 0}, {"fusion_lat": 0.0, "lon": -77.0119665, "is_reserved": 0, "bike_id": "8ef075ad048ef018c79c514bd3686050", "fusion_lon": 0.0, "rental_uris": {"android": "https://dc.lft.to/lastmile_qr_scan", "ios": "https://dc.lft.to/lastmile_qr_scan"}, "name": "8ef075ad048ef018c79c514bd3686050", "type": "electric_bike", "lat": 38.870911666666665, "is_disabled": 0}, {"fusion_lat": 0.0, "lon": -77.03499116666667, "is_reserved": 0, "bike_id": "d30e4ee2eaeb361236839d87263a6a25", "fusion_lon": 0.0, "rental_uris": {"android": "https://dc.lft.to/lastmile_qr_scan", "ios": "https://dc.lft.to/lastmile_qr_scan"}, "name": "d30e4ee2eaeb361236839d87263a6a25", "type": "electric_scooter", "lat": 38.92345916666667, "is_disabled": 0}, {"fusion_lat": 0.0, "lon": -77.041385, "is_reserved": 0, "bike_id": "dadda215f1c662dcfb31971f67175e98", "fusion_lon": 0.0, "rental_uris": {"android": "https://dc.lft.to/lastmile_qr_scan", "ios": "https://dc.lft.to/lastmile_qr_scan"}, "name": "dadda215f1c662dcfb31971f67175e98", "type": "electric_scooter", "lat": 38.907339666666665, "is_disabled": 0}, {"fusion_lat": 0.0, "lon": -76.9336645, "is_reserved": 0, "bike_id": "82cdc2e79b7c266dd2ab157d6ed36b74", "fusion_lon": 0.0, "rental_uris": {"android": "https://dc.lft.to/lastmile_qr_scan", "ios": "https://dc.lft.to/lastmile_qr_scan"}, "name": "82cdc2e79b7c266dd2ab157d6ed36b74", "type": "electric_scooter", "lat": 38.899127166666666, "is_disabled": 0}, {"fusion_lat": 0.0, "lon": -76.9375195, "is_reserved": 0, "bike_id": "3f1ce4f16c896f7a3b26f6be39124dc7", "fusion_lon": 0.0, "rental_uris": {"android": "https://dc.lft.to/lastmile_qr_scan", "ios": "https://dc.lft.to/lastmile_qr_scan"}, "name": "3f1ce4f16c896f7a3b26f6be39124dc7", "type": "electric_scooter", "lat": 38.89045766666667, "is_disabled": 0}, {"fusion_lat": 0.0, "lon": -76.96059666666666, "is_reserved": 0, "bike_id": "7192dcc3a831c7c83c07a202c3f790f0", "fusion_lon": 0.0, "rental_uris": {"android": "https://dc.lft.to/lastmile_qr_scan", "ios": "https://dc.lft.to/lastmile_qr_scan"}, "name": "7192dcc3a831c7c83c07a202c3f790f0", "type": "electric_bike", "lat": 38.8840215, "is_disabled": 0}, {"fusion_lat": 0.0, "lon": -76.9790025, "is_reserved": 0, "bike_id": "7f1b5b7234656298c86548e06c87da20", "fusion_lon": 0.0, "rental_uris": {"android": "https://dc.lft.to/lastmile_qr_scan", "ios": "https://dc.lft.to/lastmile_qr_scan"}, "name": "7f1b5b7234656298c86548e06c87da20", "type": "electric_bike", "lat": 38.8703985, "is_disabled": 0}, {"fusion_lat": 0.0, "lon": -77.05544433333333, "is_reserved": 0, "bike_id": "b1c7272665b883f7c3dce440c80e9f22", "fusion_lon": 0.0, "rental_uris": {"android": "https://dc.lft.to/lastmile_qr_scan", "ios": "https://dc.lft.to/lastmile_qr_scan"}, "name": "b1c7272665b883f7c3dce440c80e9f22", "type": "electric_scooter", "lat": 38.89988983333333, "is_disabled": 0}, {"fusion_lat": 0.0, "lon": -76.9886145, "is_reserved": 0, "bike_id": "56efbc2b704b7772fc6857e11939c6d4", "fusion_lon": 0.0, "rental_uris": {"android": "https://dc.lft.to/lastmile_qr_scan", "ios": "https://dc.lft.to/lastmile_qr_scan"}, "name": "56efbc2b704b7772fc6857e11939c6d4", "type": "electric_bike", "lat": 38.954843833333335, "is_disabled": 0}, {"fusion_lat": 0.0, "lon": -77.02934566666667, "is_reserved": 0, "bike_id": "fbbb06aa576fbe3c2a140acbaa72443f", "fusion_lon": 0.0, "rental_uris": {"android": "https://dc.lft.to/lastmile_qr_scan", "ios": "https://dc.lft.to/lastmile_qr_scan"}, "name": "fbbb06aa576fbe3c2a140acbaa72443f", "type": "electric_bike", "lat": 38.9428435, "is_disabled": 0}, {"fusion_lat": 0.0, "lon": -77.0344965, "is_reserved": 0, "bike_id": "0ba01123193d54186b6804ed62195411", "fusion_lon": 0.0, "rental_uris": {"android": "https://dc.lft.to/lastmile_qr_scan", "ios": "https://dc.lft.to/lastmile_qr_scan"}, "name": "0ba01123193d54186b6804ed62195411", "type": "electric_scooter", "lat": 38.9081455, "is_disabled": 0}, {"fusion_lat": 0.0, "lon": -76.98657416666667, "is_reserved": 0, "bike_id": "f91c68256b2845d37a49f66641a66cd2", "fusion_lon": 0.0, "rental_uris": {"android": "https://dc.lft.to/lastmile_qr_scan", "ios": "https://dc.lft.to/lastmile_qr_scan"}, "name": "f91c68256b2845d37a49f66641a66cd2", "type": "electric_scooter", "lat": 38.898221, "is_disabled": 0}, {"fusion_lat": 0.0, "lon": -76.998446, "is_reserved": 0, "bike_id": "360c6ba5a5d92cb5b581c94861f3c3c2", "fusion_lon": 0.0, "rental_uris": {"android": "https://dc.lft.to/lastmile_qr_scan", "ios": "https://dc.lft.to/lastmile_qr_scan"}, "name": "360c6ba5a5d92cb5b581c94861f3c3c2", "type": "electric_scooter", "lat": 38.900274, "is_disabled": 0}, {"fusion_lat": 0.0, "lon": -76.987225, "is_reserved": 0, "bike_id": "939eedb0987319d4db2df01727c4e824", "fusion_lon": 0.0, "rental_uris": {"android": "https://dc.lft.to/lastmile_qr_scan", "ios": "https://dc.lft.to/lastmile_qr_scan"}, "name": "939eedb0987319d4db2df01727c4e824", "type": "electric_scooter", "lat": 38.86712516666667, "is_disabled": 0}, {"fusion_lat": 0.0, "lon": -77.02656116666667, "is_reserved": 0, "bike_id": "b003c089aeb979f99f40ae520211d5d7", "fusion_lon": 0.0, "rental_uris": {"android": "https://dc.lft.to/lastmile_qr_scan", "ios": "https://dc.lft.to/lastmile_qr_scan"}, "name": "b003c089aeb979f99f40ae520211d5d7", "type": "electric_scooter", "lat": 38.892173166666666, "is_disabled": 0}, {"fusion_lat": 0.0, "lon": -77.0078975, "is_reserved": 0, "bike_id": "f7ccc282af4deebec579c086e156f1a8", "fusion_lon": 0.0, "rental_uris": {"android": "https://dc.lft.to/lastmile_qr_scan", "ios": "https://dc.lft.to/lastmile_qr_scan"}, "name": "f7ccc282af4deebec579c086e156f1a8", "type": "electric_bike", "lat": 38.878576833333334, "is_disabled": 0}, {"fusion_lat": 0.0, "lon": -77.03304833333333, "is_reserved": 0, "bike_id": "bed7591b83b0c1d47abe0300c9600926", "fusion_lon": 0.0, "rental_uris": {"android": "https://dc.lft.to/lastmile_qr_scan", "ios": "https://dc.lft.to/lastmile_qr_scan"}, "name": "bed7591b83b0c1d47abe0300c9600926", "type": "electric_scooter", "lat": 38.9303795, "is_disabled": 0}, {"fusion_lat": 0.0, "lon": -76.99453616666666, "is_reserved": 0, "bike_id": "5afef47741e48d783bd236ec9567ddbf", "fusion_lon": 0.0, "rental_uris": {"android": "https://dc.lft.to/lastmile_qr_scan", "ios": "https://dc.lft.to/lastmile_qr_scan"}, "name": "5afef47741e48d783bd236ec9567ddbf", "type": "electric_scooter", "lat": 38.862181666666665, "is_disabled": 0}, {"fusion_lat": 0.0, "lon": -77.03434116666666, "is_reserved": 0, "bike_id": "5118002361287959cc7ab6c6016182a2", "fusion_lon": 0.0, "rental_uris": {"android": "https://dc.lft.to/lastmile_qr_scan", "ios": "https://dc.lft.to/lastmile_qr_scan"}, "name": "5118002361287959cc7ab6c6016182a2", "type": "electric_scooter", "lat": 38.912608, "is_disabled": 0}, {"fusion_lat": 0.0, "lon": -77.01852616666666, "is_reserved": 0, "bike_id": "73eca1c42e92a89deb638a8d0498767f", "fusion_lon": 0.0, "rental_uris": {"android": "https://dc.lft.to/lastmile_qr_scan", "ios": "https://dc.lft.to/lastmile_qr_scan"}, "name": "73eca1c42e92a89deb638a8d0498767f", "type": "electric_scooter", "lat": 38.973716833333334, "is_disabled": 0}, {"fusion_lat": 0.0, "lon": -76.9933265, "is_reserved": 0, "bike_id": "7aa775b1c6d3acb424a3f95b1f61568d", "fusion_lon": 0.0, "rental_uris": {"android": "https://dc.lft.to/lastmile_qr_scan", "ios": "https://dc.lft.to/lastmile_qr_scan"}, "name": "7aa775b1c6d3acb424a3f95b1f61568d", "type": "electric_scooter", "lat": 38.871430833333335, "is_disabled": 0}, {"fusion_lat": 0.0, "lon": -77.03220233333333, "is_reserved": 0, "bike_id": "fd275a83ee1bdad4f6706a065f6d7b1b", "fusion_lon": 0.0, "rental_uris": {"android": "https://dc.lft.to/lastmile_qr_scan", "ios": "https://dc.lft.to/lastmile_qr_scan"}, "name": "fd275a83ee1bdad4f6706a065f6d7b1b", "type": "electric_scooter", "lat": 38.892203, "is_disabled": 0}, {"fusion_lat": 0.0, "lon": -77.0451305, "is_reserved": 0, "bike_id": "07c85bc890981755784f66eb02599eaa", "fusion_lon": 0.0, "rental_uris": {"android": "https://dc.lft.to/lastmile_qr_scan", "ios": "https://dc.lft.to/lastmile_qr_scan"}, "name": "07c85bc890981755784f66eb02599eaa", "type": "electric_scooter", "lat": 38.90364866666667, "is_disabled": 0}, {"fusion_lat": 0.0, "lon": -77.0347015, "is_reserved": 0, "bike_id": "4e57172c57d654fc5ff24e9da39e2e51", "fusion_lon": 0.0, "rental_uris": {"android": "https://dc.lft.to/lastmile_qr_scan", "ios": "https://dc.lft.to/lastmile_qr_scan"}, "name": "4e57172c57d654fc5ff24e9da39e2e51", "type": "electric_scooter", "lat": 38.920635833333336, "is_disabled": 0}, {"fusion_lat": 0.0, "lon": -76.9326625, "is_reserved": 0, "bike_id": "d9685b443f7dbb35b99e073114138ae6", "fusion_lon": 0.0, "rental_uris": {"android": "https://dc.lft.to/lastmile_qr_scan", "ios": "https://dc.lft.to/lastmile_qr_scan"}, "name": "d9685b443f7dbb35b99e073114138ae6", "type": "electric_scooter", "lat": 38.89888416666667, "is_disabled": 0}, {"fusion_lat": 0.0, "lon": -77.042684, "is_reserved": 0, "bike_id": "8686c1426564876a4f656b615018949c", "fusion_lon": 0.0, "rental_uris": {"android": "https://dc.lft.to/lastmile_qr_scan", "ios": "https://dc.lft.to/lastmile_qr_scan"}, "name": "8686c1426564876a4f656b615018949c", "type": "electric_scooter", "lat": 38.91345316666666, "is_disabled": 0}, {"fusion_lat": 0.0, "lon": -77.006146, "is_reserved": 0, "bike_id": "e98a982727630df31b65716fa513a446", "fusion_lon": 0.0, "rental_uris": {"android": "https://dc.lft.to/lastmile_qr_scan", "ios": "https://dc.lft.to/lastmile_qr_scan"}, "name": "e98a982727630df31b65716fa513a446", "type": "electric_scooter", "lat": 38.90851583333333, "is_disabled": 0}, {"fusion_lat": 0.0, "lon": -77.04252033333333, "is_reserved": 0, "bike_id": "3a635c8d24e0cd0498e70498f713bc97", "fusion_lon": 0.0, "rental_uris": {"android": "https://dc.lft.to/lastmile_qr_scan", "ios": "https://dc.lft.to/lastmile_qr_scan"}, "name": "3a635c8d24e0cd0498e70498f713bc97", "type": "electric_scooter", "lat": 38.92232033333333, "is_disabled": 0}, {"fusion_lat": 0.0, "lon": -77.017178, "is_reserved": 0, "bike_id": "f524e88d5185fc1e3019dc8abdf20d78", "fusion_lon": 0.0, "rental_uris": {"android": "https://dc.lft.to/lastmile_qr_scan", "ios": "https://dc.lft.to/lastmile_qr_scan"}, "name": "f524e88d5185fc1e3019dc8abdf20d78", "type": "electric_scooter", "lat": 38.97494, "is_disabled": 0}, {"fusion_lat": 0.0, "lon": -76.98383633333333, "is_reserved": 0, "bike_id": "ccfe90d2d1d2467362896f4e7f55df88", "fusion_lon": 0.0, "rental_uris": {"android": "https://dc.lft.to/lastmile_qr_scan", "ios": "https://dc.lft.to/lastmile_qr_scan"}, "name": "ccfe90d2d1d2467362896f4e7f55df88", "type": "electric_scooter", "lat": 38.86696233333333, "is_disabled": 0}, {"fusion_lat": 0.0, "lon": -77.04377466666666, "is_reserved": 0, "bike_id": "3af97b5385124700689c388310ec36b9", "fusion_lon": 0.0, "rental_uris": {"android": "https://dc.lft.to/lastmile_qr_scan", "ios": "https://dc.lft.to/lastmile_qr_scan"}, "name": "3af97b5385124700689c388310ec36b9", "type": "electric_scooter", "lat": 38.89225016666666, "is_disabled": 0}, {"fusion_lat": 0.0, "lon": -77.01762233333334, "is_reserved": 0, "bike_id": "a75ff39e4c4496e5235fa9eb9a25eb65", "fusion_lon": 0.0, "rental_uris": {"android": "https://dc.lft.to/lastmile_qr_scan", "ios": "https://dc.lft.to/lastmile_qr_scan"}, "name": "a75ff39e4c4496e5235fa9eb9a25eb65", "type": "electric_scooter", "lat": 38.876867, "is_disabled": 0}, {"fusion_lat": 0.0, "lon": -77.05883383333334, "is_reserved": 0, "bike_id": "8ba3ca531b154e7bcc0e743b69182d62", "fusion_lon": 0.0, "rental_uris": {"android": "https://dc.lft.to/lastmile_qr_scan", "ios": "https://dc.lft.to/lastmile_qr_scan"}, "name": "8ba3ca531b154e7bcc0e743b69182d62", "type": "electric_scooter", "lat": 38.918263333333336, "is_disabled": 0}, {"fusion_lat": 0.0, "lon": -77.04652983333334, "is_reserved": 0, "bike_id": "71646b66243df99227059e004693fbc7", "fusion_lon": 0.0, "rental_uris": {"android": "https://dc.lft.to/lastmile_qr_scan", "ios": "https://dc.lft.to/lastmile_qr_scan"}, "name": "71646b66243df99227059e004693fbc7", "type": "electric_scooter", "lat": 38.898295833333336, "is_disabled": 0}, {"fusion_lat": 0.0, "lon": -77.018568, "is_reserved": 0, "bike_id": "6e350f34867a2ab406678caf9fb6e770", "fusion_lon": 0.0, "rental_uris": {"android": "https://dc.lft.to/lastmile_qr_scan", "ios": "https://dc.lft.to/lastmile_qr_scan"}, "name": "6e350f34867a2ab406678caf9fb6e770", "type": "electric_scooter", "lat": 38.914906333333334, "is_disabled": 0}, {"fusion_lat": 0.0, "lon": -77.009672, "is_reserved": 0, "bike_id": "2ac0f59a7c04e8a24ad55703b87ff3c7", "fusion_lon": 0.0, "rental_uris": {"android": "https://dc.lft.to/lastmile_qr_scan", "ios": "https://dc.lft.to/lastmile_qr_scan"}, "name": "2ac0f59a7c04e8a24ad55703b87ff3c7", "type": "electric_scooter", "lat": 38.917031, "is_disabled": 0}, {"fusion_lat": 0.0, "lon": -77.035877, "is_reserved": 0, "bike_id": "2e20cf546a137485bf92e3c3b57b1c38", "fusion_lon": 0.0, "rental_uris": {"android": "https://dc.lft.to/lastmile_qr_scan", "ios": "https://dc.lft.to/lastmile_qr_scan"}, "name": "2e20cf546a137485bf92e3c3b57b1c38", "type": "electric_scooter", "lat": 38.91693883333333, "is_disabled": 0}, {"fusion_lat": 0.0, "lon": -77.04687816666667, "is_reserved": 0, "bike_id": "7e4589d2017b52b7cd1177554275bae2", "fusion_lon": 0.0, "rental_uris": {"android": "https://dc.lft.to/lastmile_qr_scan", "ios": "https://dc.lft.to/lastmile_qr_scan"}, "name": "7e4589d2017b52b7cd1177554275bae2", "type": "electric_scooter", "lat": 38.921368666666666, "is_disabled": 0}, {"fusion_lat": 0.0, "lon": -76.98105466666667, "is_reserved": 0, "bike_id": "16a162cea41c51791b01f1d1595ecd93", "fusion_lon": 0.0, "rental_uris": {"android": "https://dc.lft.to/lastmile_qr_scan", "ios": "https://dc.lft.to/lastmile_qr_scan"}, "name": "16a162cea41c51791b01f1d1595ecd93", "type": "electric_scooter", "lat": 38.9040765, "is_disabled": 0}, {"fusion_lat": 0.0, "lon": -77.0504625, "is_reserved": 0, "bike_id": "36f52a764b9648394e08230e1234d3e1", "fusion_lon": 0.0, "rental_uris": {"android": "https://dc.lft.to/lastmile_qr_scan", "ios": "https://dc.lft.to/lastmile_qr_scan"}, "name": "36f52a764b9648394e08230e1234d3e1", "type": "electric_scooter", "lat": 38.923858, "is_disabled": 0}, {"fusion_lat": 0.0, "lon": -77.02898183333333, "is_reserved": 0, "bike_id": "b5ab70da8d1a473edfc19329ee333dc8", "fusion_lon": 0.0, "rental_uris": {"android": "https://dc.lft.to/lastmile_qr_scan", "ios": "https://dc.lft.to/lastmile_qr_scan"}, "name": "b5ab70da8d1a473edfc19329ee333dc8", "type": "electric_scooter", "lat": 38.96129916666667, "is_disabled": 0}, {"fusion_lat": 0.0, "lon": -76.97870016666667, "is_reserved": 0, "bike_id": "560cac5a30059b1087a36d88e49244a6", "fusion_lon": 0.0, "rental_uris": {"android": "https://dc.lft.to/lastmile_qr_scan", "ios": "https://dc.lft.to/lastmile_qr_scan"}, "name": "560cac5a30059b1087a36d88e49244a6", "type": "electric_scooter", "lat": 38.87067616666667, "is_disabled": 0}, {"fusion_lat": 0.0, "lon": -77.04007816666666, "is_reserved": 0, "bike_id": "182e4162a7ebb1522fc597f6dffb8e5d", "fusion_lon": 0.0, "rental_uris": {"android": "https://dc.lft.to/lastmile_qr_scan", "ios": "https://dc.lft.to/lastmile_qr_scan"}, "name": "182e4162a7ebb1522fc597f6dffb8e5d", "type": "electric_scooter", "lat": 38.8992565, "is_disabled": 0}, {"fusion_lat": 0.0, "lon": -77.04349716666667, "is_reserved": 0, "bike_id": "c7272ad8d0431f5d8877a368c36d309b", "fusion_lon": 0.0, "rental_uris": {"android": "https://dc.lft.to/lastmile_qr_scan", "ios": "https://dc.lft.to/lastmile_qr_scan"}, "name": "c7272ad8d0431f5d8877a368c36d309b", "type": "electric_scooter", "lat": 38.907557833333335, "is_disabled": 0}, {"fusion_lat": 0.0, "lon": -76.99900533333333, "is_reserved": 0, "bike_id": "9ba4c4967a0b2c865abb4f9a3be33b13", "fusion_lon": 0.0, "rental_uris": {"android": "https://dc.lft.to/lastmile_qr_scan", "ios": "https://dc.lft.to/lastmile_qr_scan"}, "name": "9ba4c4967a0b2c865abb4f9a3be33b13", "type": "electric_scooter", "lat": 38.924564, "is_disabled": 0}, {"fusion_lat": 0.0, "lon": -77.06208583333333, "is_reserved": 0, "bike_id": "5611417a37c121e3a3a4a8a4b0bb8ba9", "fusion_lon": 0.0, "rental_uris": {"android": "https://dc.lft.to/lastmile_qr_scan", "ios": "https://dc.lft.to/lastmile_qr_scan"}, "name": "5611417a37c121e3a3a4a8a4b0bb8ba9", "type": "electric_bike", "lat": 38.920431, "is_disabled": 0}, {"fusion_lat": 0.0, "lon": -77.04536583333334, "is_reserved": 0, "bike_id": "cfd8bc55a33ab0f47ff3374ed7038ca1", "fusion_lon": 0.0, "rental_uris": {"android": "https://dc.lft.to/lastmile_qr_scan", "ios": "https://dc.lft.to/lastmile_qr_scan"}, "name": "cfd8bc55a33ab0f47ff3374ed7038ca1", "type": "electric_scooter", "lat": 38.90066683333333, "is_disabled": 0}, {"fusion_lat": 0.0, "lon": -77.053051, "is_reserved": 0, "bike_id": "a1723a5bc13d8c31909d2eb443e1c47f", "fusion_lon": 0.0, "rental_uris": {"android": "https://dc.lft.to/lastmile_qr_scan", "ios": "https://dc.lft.to/lastmile_qr_scan"}, "name": "a1723a5bc13d8c31909d2eb443e1c47f", "type": "electric_scooter", "lat": 38.898503166666664, "is_disabled": 0}, {"fusion_lat": 0.0, "lon": -76.96531533333334, "is_reserved": 0, "bike_id": "30cd6c233ee62b0acb182cfa92edd50f", "fusion_lon": 0.0, "rental_uris": {"android": "https://dc.lft.to/lastmile_qr_scan", "ios": "https://dc.lft.to/lastmile_qr_scan"}, "name": "30cd6c233ee62b0acb182cfa92edd50f", "type": "electric_bike", "lat": 38.87479183333333, "is_disabled": 0}, {"fusion_lat": 0.0, "lon": -77.0334635, "is_reserved": 0, "bike_id": "a39026d1b8dece7561e73aeb0c161df4", "fusion_lon": 0.0, "rental_uris": {"android": "https://dc.lft.to/lastmile_qr_scan", "ios": "https://dc.lft.to/lastmile_qr_scan"}, "name": "a39026d1b8dece7561e73aeb0c161df4", "type": "electric_scooter", "lat": 38.89846133333333, "is_disabled": 0}, {"fusion_lat": 0.0, "lon": -77.00485616666667, "is_reserved": 0, "bike_id": "9db2cd2e650f6e289f0b5d32ad0baf1e", "fusion_lon": 0.0, "rental_uris": {"android": "https://dc.lft.to/lastmile_qr_scan", "ios": "https://dc.lft.to/lastmile_qr_scan"}, "name": "9db2cd2e650f6e289f0b5d32ad0baf1e", "type": "electric_scooter", "lat": 38.905718, "is_disabled": 0}, {"fusion_lat": 0.0, "lon": -77.0294975, "is_reserved": 0, "bike_id": "981ee5d5cb8059d23c6da44d9448a31e", "fusion_lon": 0.0, "rental_uris": {"android": "https://dc.lft.to/lastmile_qr_scan", "ios": "https://dc.lft.to/lastmile_qr_scan"}, "name": "981ee5d5cb8059d23c6da44d9448a31e", "type": "electric_scooter", "lat": 38.92172033333333, "is_disabled": 0}, {"fusion_lat": 0.0, "lon": -77.03503216666667, "is_reserved": 0, "bike_id": "73b92c7718bd364c28cd736a22748eb9", "fusion_lon": 0.0, "rental_uris": {"android": "https://dc.lft.to/lastmile_qr_scan", "ios": "https://dc.lft.to/lastmile_qr_scan"}, "name": "73b92c7718bd364c28cd736a22748eb9", "type": "electric_scooter", "lat": 38.918821333333334, "is_disabled": 0}, {"fusion_lat": 0.0, "lon": -77.029024, "is_reserved": 0, "bike_id": "5fc995ad4d862786bab28141670a2994", "fusion_lon": 0.0, "rental_uris": {"android": "https://dc.lft.to/lastmile_qr_scan", "ios": "https://dc.lft.to/lastmile_qr_scan"}, "name": "5fc995ad4d862786bab28141670a2994", "type": "electric_scooter", "lat": 38.940402666666664, "is_disabled": 0}, {"fusion_lat": 0.0, "lon": -77.02800016666667, "is_reserved": 0, "bike_id": "b41c2f419a896e9d18410f7290d79535", "fusion_lon": 0.0, "rental_uris": {"android": "https://dc.lft.to/lastmile_qr_scan", "ios": "https://dc.lft.to/lastmile_qr_scan"}, "name": "b41c2f419a896e9d18410f7290d79535", "type": "electric_scooter", "lat": 38.89234866666666, "is_disabled": 0}, {"fusion_lat": 0.0, "lon": -77.06381216666666, "is_reserved": 0, "bike_id": "b655206ff189efc4f71bddb03f2b9872", "fusion_lon": 0.0, "rental_uris": {"android": "https://dc.lft.to/lastmile_qr_scan", "ios": "https://dc.lft.to/lastmile_qr_scan"},