{"data": {"bikes": [{"bike_id": "2011a8362de49650c0f8a6ad4c2e83bd", "type": "electric_scooter", "is_disabled": 0, "lat": 38.924734, "rental_uris": {"ios": "https://dc.lft.to/lastmile_qr_scan", "android": "https://dc.lft.to/lastmile_qr_scan"}, "is_reserved": 0, "fusion_lon": 0.0, "fusion_lat": 0.0, "lon": -77.0224785, "name": "2011a8362de49650c0f8a6ad4c2e83bd"}, {"bike_id": "d7b26e888a3df4ba44c944d92740ef3e", "type": "electric_scooter", "is_disabled": 0, "lat": 38.908260166666665, "rental_uris": {"ios": "https://dc.lft.to/lastmile_qr_scan", "android": "https://dc.lft.to/lastmile_qr_scan"}, "is_reserved": 0, "fusion_lon": 0.0, "fusion_lat": 0.0, "lon": -77.032043, "name": "d7b26e888a3df4ba44c944d92740ef3e"}, {"bike_id": "354f49246e2ec490689c6e7941b2f7ed", "type": "electric_scooter", "is_disabled": 0, "lat": 38.913283166666666, "rental_uris": {"ios": "https://dc.lft.to/lastmile_qr_scan", "android": "https://dc.lft.to/lastmile_qr_scan"}, "is_reserved": 0, "fusion_lon": 0.0, "fusion_lat": 0.0, "lon": -77.03192516666667, "name": "354f49246e2ec490689c6e7941b2f7ed"}, {"bike_id": "056d15408356789b7aac755fe2f41285", "type": "electric_scooter", "is_disabled": 0, "lat": 38.9314695, "rental_uris": {"ios": "https://dc.lft.to/lastmile_qr_scan", "android": "https://dc.lft.to/lastmile_qr_scan"}, "is_reserved": 0, "fusion_lon": 0.0, "fusion_lat": 0.0, "lon": -77.03351783333333, "name": "056d15408356789b7aac755fe2f41285"}, {"bike_id": "a1d3a52badc622e6a725a9039fa85dcd", "type": "electric_scooter", "is_disabled": 0, "lat": 38.92446783333333, "rental_uris": {"ios": "https://dc.lft.to/lastmile_qr_scan", "android": "https://dc.lft.to/lastmile_qr_scan"}, "is_reserved": 0, "fusion_lon": 0.0, "fusion_lat": 0.0, "lon": -77.00002066666667, "name": "a1d3a52badc622e6a725a9039fa85dcd"}, {"bike_id": "375f1d18392066c3a30951fa97d4758a", "type": "electric_scooter", "is_disabled": 0, "lat": 38.94327666666667, "rental_uris": {"ios": "https://dc.lft.to/lastmile_qr_scan", "android": "https://dc.lft.to/lastmile_qr_scan"}, "is_reserved": 0, "fusion_lon": 0.0, "fusion_lat": 0.0, "lon": -77.01475183333334, "name": "375f1d18392066c3a30951fa97d4758a"}, {"bike_id": "770a2a1024329a643082b0dfdfbff244", "type": "electric_scooter", "is_disabled": 0, "lat": 38.897981333333334, "rental_uris": {"ios": "https://dc.lft.to/lastmile_qr_scan", "android": "https://dc.lft.to/lastmile_qr_scan"}, "is_reserved": 0, "fusion_lon": 0.0, "fusion_lat": 0.0, "lon": -77.02383216666666, "name": "770a2a1024329a643082b0dfdfbff244"}, {"bike_id": "411b56edcbc314abbd4b07f316a4548b", "type": "electric_scooter", "is_disabled": 0, "lat": 38.91269833333333, "rental_uris": {"ios": "https://dc.lft.to/lastmile_qr_scan", "android": "https://dc.lft.to/lastmile_qr_scan"}, "is_reserved": 0, "fusion_lon": 0.0, "fusion_lat": 0.0, "lon": -77.05160966666666, "name": "411b56edcbc314abbd4b07f316a4548b"}, {"bike_id": "a02389ab280c7638c32aa23dc822de6a", "type": "electric_scooter", "is_disabled": 0, "lat": 38.9142145, "rental_uris": {"ios": "https://dc.lft.to/lastmile_qr_scan", "android": "https://dc.lft.to/lastmile_qr_scan"}, "is_reserved": 0, "fusion_lon": 0.0, "fusion_lat": 0.0, "lon": -77.01985783333333, "name": "a02389ab280c7638c32aa23dc822de6a"}, {"bike_id": "8dd339b539f4612498540f236a70d959", "type": "electric_scooter", "is_disabled": 0, "lat": 38.9171015, "rental_uris": {"ios": "https://dc.lft.to/lastmile_qr_scan", "android": "https://dc.lft.to/lastmile_qr_scan"}, "is_reserved": 0, "fusion_lon": 0.0, "fusion_lat": 0.0, "lon": -77.0331265, "name": "8dd339b539f4612498540f236a70d959"}, {"bike_id": "dfcb3bda36b8cadf4c3477514c4d181a", "type": "electric_scooter", "is_disabled": 0, "lat": 38.919724, "rental_uris": {"ios": "https://dc.lft.to/lastmile_qr_scan", "android": "https://dc.lft.to/lastmile_qr_scan"}, "is_reserved": 0, "fusion_lon": 0.0, "fusion_lat": 0.0, "lon": -77.07102066666667, "name": "dfcb3bda36b8cadf4c3477514c4d181a"}, {"bike_id": "2ba5700159e1d5465f571459121256a3", "type": "electric_scooter", "is_disabled": 0, "lat": 38.939293666666664, "rental_uris": {"ios": "https://dc.lft.to/lastmile_qr_scan", "android": "https://dc.lft.to/lastmile_qr_scan"}, "is_reserved": 0, "fusion_lon": 0.0, "fusion_lat": 0.0, "lon": -77.0367015, "name": "2ba5700159e1d5465f571459121256a3"}, {"bike_id": "abddb019fc11ee5b95a6d21b23d81fd8", "type": "electric_scooter", "is_disabled": 0, "lat": 38.94993366666667, "rental_uris": {"ios": "https://dc.lft.to/lastmile_qr_scan", "android": "https://dc.lft.to/lastmile_qr_scan"}, "is_reserved": 0, "fusion_lon": 0.0, "fusion_lat": 0.0, "lon": -77.01828683333333, "name": "abddb019fc11ee5b95a6d21b23d81fd8"}, {"bike_id": "b5340a658166d4f05c274107ee3789cc", "type": "electric_scooter", "is_disabled": 0, "lat": 38.90586883333334, "rental_uris": {"ios": "https://dc.lft.to/lastmile_qr_scan", "android": "https://dc.lft.to/lastmile_qr_scan"}, "is_reserved": 0, "fusion_lon": 0.0, "fusion_lat": 0.0, "lon": -77.05155766666667, "name": "b5340a658166d4f05c274107ee3789cc"}, {"bike_id": "f567bc4a0baed67381011c3baeaa9c2d", "type": "electric_scooter", "is_disabled": 0, "lat": 38.9124855, "rental_uris": {"ios": "https://dc.lft.to/lastmile_qr_scan", "android": "https://dc.lft.to/lastmile_qr_scan"}, "is_reserved": 0, "fusion_lon": 0.0, "fusion_lat": 0.0, "lon": -77.024281, "name": "f567bc4a0baed67381011c3baeaa9c2d"}, {"bike_id": "094d9b2be507479465ae420c26d80380", "type": "electric_scooter", "is_disabled": 0, "lat": 38.9319585, "rental_uris": {"ios": "https://dc.lft.to/lastmile_qr_scan", "android": "https://dc.lft.to/lastmile_qr_scan"}, "is_reserved": 0, "fusion_lon": 0.0, "fusion_lat": 0.0, "lon": -77.023973, "name": "094d9b2be507479465ae420c26d80380"}, {"bike_id": "efde5f9b63d147746212faa7303387e3", "type": "electric_scooter", "is_disabled": 0, "lat": 38.898114666666665, "rental_uris": {"ios": "https://dc.lft.to/lastmile_qr_scan", "android": "https://dc.lft.to/lastmile_qr_scan"}, "is_reserved": 0, "fusion_lon": 0.0, "fusion_lat": 0.0, "lon": -77.03315733333334, "name": "efde5f9b63d147746212faa7303387e3"}, {"bike_id": "93bdd1ad1f15cb109453f8c5cae218b1", "type": "electric_scooter", "is_disabled": 0, "lat": 38.87629316666667, "rental_uris": {"ios": "https://dc.lft.to/lastmile_qr_scan", "android": "https://dc.lft.to/lastmile_qr_scan"}, "is_reserved": 0, "fusion_lon": 0.0, "fusion_lat": 0.0, "lon": -76.96526783333333, "name": "93bdd1ad1f15cb109453f8c5cae218b1"}, {"bike_id": "2ad2ea39ac1a8569e7a0c4bef5a8830b", "type": "electric_bike", "is_disabled": 0, "lat": 38.886381166666666, "rental_uris": {"ios": "https://dc.lft.to/lastmile_qr_scan", "android": "https://dc.lft.to/lastmile_qr_scan"}, "is_reserved": 0, "fusion_lon": 0.0, "fusion_lat": 0.0, "lon": -77.12985333333333, "name": "2ad2ea39ac1a8569e7a0c4bef5a8830b"}, {"bike_id": "6869b39decbf9225500e8561914f3f11", "type": "electric_scooter", "is_disabled": 0, "lat": 38.900429, "rental_uris": {"ios": "https://dc.lft.to/lastmile_qr_scan", "android": "https://dc.lft.to/lastmile_qr_scan"}, "is_reserved": 0, "fusion_lon": 0.0, "fusion_lat": 0.0, "lon": -77.013255, "name": "6869b39decbf9225500e8561914f3f11"}, {"bike_id": "eb8625661051ef0a86633500eb6af90d", "type": "electric_scooter", "is_disabled": 0, "lat": 38.901921333333334, "rental_uris": {"ios": "https://dc.lft.to/lastmile_qr_scan", "android": "https://dc.lft.to/lastmile_qr_scan"}, "is_reserved": 0, "fusion_lon": 0.0, "fusion_lat": 0.0, "lon": -77.020248, "name": "eb8625661051ef0a86633500eb6af90d"}, {"bike_id": "1638351d3b98b04472a7c099d6eae7f9", "type": "electric_scooter", "is_disabled": 0, "lat": 38.876717166666666, "rental_uris": {"ios": "https://dc.lft.to/lastmile_qr_scan", "android": "https://dc.lft.to/lastmile_qr_scan"}, "is_reserved": 0, "fusion_lon": 0.0, "fusion_lat": 0.0, "lon": -77.00062166666666, "name": "1638351d3b98b04472a7c099d6eae7f9"}, {"bike_id": "3f0c80df9bb10899515a75fd20d06127", "type": "electric_scooter", "is_disabled": 0, "lat": 38.905083833333336, "rental_uris": {"ios": "https://dc.lft.to/lastmile_qr_scan", "android": "https://dc.lft.to/lastmile_qr_scan"}, "is_reserved": 0, "fusion_lon": 0.0, "fusion_lat": 0.0, "lon": -77.06844433333333, "name": "3f0c80df9bb10899515a75fd20d06127"}, {"bike_id": "433022043ea73122cbf47a1c29953413", "type": "electric_scooter", "is_disabled": 0, "lat": 38.900633666666664, "rental_uris": {"ios": "https://dc.lft.to/lastmile_qr_scan", "android": "https://dc.lft.to/lastmile_qr_scan"}, "is_reserved": 0, "fusion_lon": 0.0, "fusion_lat": 0.0, "lon": -76.92742516666667, "name": "433022043ea73122cbf47a1c29953413"}, {"bike_id": "25f5a49490b9caa955e62f372f81325a", "type": "electric_scooter", "is_disabled": 0, "lat": 38.90842033333333, "rental_uris": {"ios": "https://dc.lft.to/lastmile_qr_scan", "android": "https://dc.lft.to/lastmile_qr_scan"}, "is_reserved": 0, "fusion_lon": 0.0, "fusion_lat": 0.0, "lon": -77.02691933333334, "name": "25f5a49490b9caa955e62f372f81325a"}, {"bike_id": "5c3e50dba48e3c73e930ff5665239c41", "type": "electric_scooter", "is_disabled": 0, "lat": 38.914843833333336, "rental_uris": {"ios": "https://dc.lft.to/lastmile_qr_scan", "android": "https://dc.lft.to/lastmile_qr_scan"}, "is_reserved": 0, "fusion_lon": 0.0, "fusion_lat": 0.0, "lon": -77.02187983333333, "name": "5c3e50dba48e3c73e930ff5665239c41"}, {"bike_id": "cb0f591411ab6ddb31251950ef5775c3", "type": "electric_bike", "is_disabled": 0, "lat": 38.94894683333333, "rental_uris": {"ios": "https://dc.lft.to/lastmile_qr_scan", "android": "https://dc.lft.to/lastmile_qr_scan"}, "is_reserved": 0, "fusion_lon": 0.0, "fusion_lat": 0.0, "lon": -76.96374816666666, "name": "cb0f591411ab6ddb31251950ef5775c3"}, {"bike_id": "e1c7727183d5995c19ff91ce40fa81fe", "type": "electric_scooter", "is_disabled": 0, "lat": 38.921545, "rental_uris": {"ios": "https://dc.lft.to/lastmile_qr_scan", "android": "https://dc.lft.to/lastmile_qr_scan"}, "is_reserved": 0, "fusion_lon": 0.0, "fusion_lat": 0.0, "lon": -77.03384966666667, "name": "e1c7727183d5995c19ff91ce40fa81fe"}, {"bike_id": "a8bae369edcaf72178d13ef67a77d4aa", "type": "electric_scooter", "is_disabled": 0, "lat": 38.91780583333333, "rental_uris": {"ios": "https://dc.lft.to/lastmile_qr_scan", "android": "https://dc.lft.to/lastmile_qr_scan"}, "is_reserved": 0, "fusion_lon": 0.0, "fusion_lat": 0.0, "lon": -77.04543266666667, "name": "a8bae369edcaf72178d13ef67a77d4aa"}, {"bike_id": "1c31716ce47651f781f859b4f3697cac", "type": "electric_scooter", "is_disabled": 0, "lat": 38.866803833333336, "rental_uris": {"ios": "https://dc.lft.to/lastmile_qr_scan", "android": "https://dc.lft.to/lastmile_qr_scan"}, "is_reserved": 0, "fusion_lon": 0.0, "fusion_lat": 0.0, "lon": -76.9858885, "name": "1c31716ce47651f781f859b4f3697cac"}, {"bike_id": "30ef7568a066cfd9892daf8325fb4197", "type": "electric_scooter", "is_disabled": 0, "lat": 38.93343516666667, "rental_uris": {"ios": "https://dc.lft.to/lastmile_qr_scan", "android": "https://dc.lft.to/lastmile_qr_scan"}, "is_reserved": 0, "fusion_lon": 0.0, "fusion_lat": 0.0, "lon": -77.0620765, "name": "30ef7568a066cfd9892daf8325fb4197"}, {"bike_id": "a1e7d23948f7e165c3ca86337a7e5fd8", "type": "electric_scooter", "is_disabled": 0, "lat": 38.917072833333336, "rental_uris": {"ios": "https://dc.lft.to/lastmile_qr_scan", "android": "https://dc.lft.to/lastmile_qr_scan"}, "is_reserved": 0, "fusion_lon": 0.0, "fusion_lat": 0.0, "lon": -77.02472066666667, "name": "a1e7d23948f7e165c3ca86337a7e5fd8"}, {"bike_id": "c37da967a7cc038cc582fb79ec66470c", "type": "electric_scooter", "is_disabled": 0, "lat": 38.937735, "rental_uris": {"ios": "https://dc.lft.to/lastmile_qr_scan", "android": "https://dc.lft.to/lastmile_qr_scan"}, "is_reserved": 0, "fusion_lon": 0.0, "fusion_lat": 0.0, "lon": -76.99144183333334, "name": "c37da967a7cc038cc582fb79ec66470c"}, {"bike_id": "f1e78524efca213b58fe4a93c7a4d989", "type": "electric_scooter", "is_disabled": 0, "lat": 38.900219666666665, "rental_uris": {"ios": "https://dc.lft.to/lastmile_qr_scan", "android": "https://dc.lft.to/lastmile_qr_scan"}, "is_reserved": 0, "fusion_lon": 0.0, "fusion_lat": 0.0, "lon": -77.000339, "name": "f1e78524efca213b58fe4a93c7a4d989"}, {"bike_id": "1156e58881883f6bd253fcf755d73447", "type": "electric_scooter", "is_disabled": 0, "lat": 38.91045883333334, "rental_uris": {"ios": "https://dc.lft.to/lastmile_qr_scan", "android": "https://dc.lft.to/lastmile_qr_scan"}, "is_reserved": 0, "fusion_lon": 0.0, "fusion_lat": 0.0, "lon": -77.03839933333333, "name": "1156e58881883f6bd253fcf755d73447"}, {"bike_id": "391bc02dc6c004a61ff4c26486ed3d27", "type": "electric_scooter", "is_disabled": 0, "lat": 38.92235683333333, "rental_uris": {"ios": "https://dc.lft.to/lastmile_qr_scan", "android": "https://dc.lft.to/lastmile_qr_scan"}, "is_reserved": 0, "fusion_lon": 0.0, "fusion_lat": 0.0, "lon": -77.03893533333333, "name": "391bc02dc6c004a61ff4c26486ed3d27"}, {"bike_id": "e56ab00a0a17254e533b2d5662e9af60", "type": "electric_scooter", "is_disabled": 0, "lat": 38.86684316666667, "rental_uris": {"ios": "https://dc.lft.to/lastmile_qr_scan", "android": "https://dc.lft.to/lastmile_qr_scan"}, "is_reserved": 0, "fusion_lon": 0.0, "fusion_lat": 0.0, "lon": -76.98577266666666, "name": "e56ab00a0a17254e533b2d5662e9af60"}, {"bike_id": "a4228feff55838fe6be0eb3c8f6b2c26", "type": "electric_bike", "is_disabled": 0, "lat": 38.9876815, "rental_uris": {"ios": "https://dc.lft.to/lastmile_qr_scan", "android": "https://dc.lft.to/lastmile_qr_scan"}, "is_reserved": 0, "fusion_lon": 0.0, "fusion_lat": 0.0, "lon": -77.14057716666667, "name": "a4228feff55838fe6be0eb3c8f6b2c26"}, {"bike_id": "0a0e0ac999c89a4c99e637c07053a245", "type": "electric_scooter", "is_disabled": 0, "lat": 38.92329316666667, "rental_uris": {"ios": "https://dc.lft.to/lastmile_qr_scan", "android": "https://dc.lft.to/lastmile_qr_scan"}, "is_reserved": 0, "fusion_lon": 0.0, "fusion_lat": 0.0, "lon": -77.00884816666667, "name": "0a0e0ac999c89a4c99e637c07053a245"}, {"bike_id": "59d87782a4e4dee862ee59c7f91cc203", "type": "electric_scooter", "is_disabled": 0, "lat": 38.933618333333335, "rental_uris": {"ios": "https://dc.lft.to/lastmile_qr_scan", "android": "https://dc.lft.to/lastmile_qr_scan"}, "is_reserved": 0, "fusion_lon": 0.0, "fusion_lat": 0.0, "lon": -77.0264715, "name": "59d87782a4e4dee862ee59c7f91cc203"}, {"bike_id": "b2c44f3d49a7ead3ecb489ac56cbe651", "type": "electric_bike", "is_disabled": 0, "lat": 38.900053666666665, "rental_uris": {"ios": "https://dc.lft.to/lastmile_qr_scan", "android": "https://dc.lft.to/lastmile_qr_scan"}, "is_reserved": 0, "fusion_lon": 0.0, "fusion_lat": 0.0, "lon": -77.00620983333333, "name": "b2c44f3d49a7ead3ecb489ac56cbe651"}, {"bike_id": "716ea90c480c48d6b70447d26fdb3879", "type": "electric_scooter", "is_disabled": 0, "lat": 38.92092916666667, "rental_uris": {"ios": "https://dc.lft.to/lastmile_qr_scan", "android": "https://dc.lft.to/lastmile_qr_scan"}, "is_reserved": 0, "fusion_lon": 0.0, "fusion_lat": 0.0, "lon": -77.02512616666667, "name": "716ea90c480c48d6b70447d26fdb3879"}, {"bike_id": "5f48aa7f521fce85b2ac98ac4d8f4eb6", "type": "electric_bike", "is_disabled": 0, "lat": 38.916956166666665, "rental_uris": {"ios": "https://dc.lft.to/lastmile_qr_scan", "android": "https://dc.lft.to/lastmile_qr_scan"}, "is_reserved": 0, "fusion_lon": 0.0, "fusion_lat": 0.0, "lon": -77.03999616666667, "name": "5f48aa7f521fce85b2ac98ac4d8f4eb6"}, {"bike_id": "c34c3942b0e10bab06f98e398f74740f", "type": "electric_scooter", "is_disabled": 0, "lat": 38.90684233333333, "rental_uris": {"ios": "https://dc.lft.to/lastmile_qr_scan", "android": "https://dc.lft.to/lastmile_qr_scan"}, "is_reserved": 0, "fusion_lon": 0.0, "fusion_lat": 0.0, "lon": -77.042079, "name": "c34c3942b0e10bab06f98e398f74740f"}, {"bike_id": "b6d06ba2ab021a13fba17c68121e1c66", "type": "electric_scooter", "is_disabled": 0, "lat": 38.9248525, "rental_uris": {"ios": "https://dc.lft.to/lastmile_qr_scan", "android": "https://dc.lft.to/lastmile_qr_scan"}, "is_reserved": 0, "fusion_lon": 0.0, "fusion_lat": 0.0, "lon": -77.031799, "name": "b6d06ba2ab021a13fba17c68121e1c66"}, {"bike_id": "0e7714e0063d640ca892b9a6dcce4b3d", "type": "electric_scooter", "is_disabled": 0, "lat": 38.90059016666667, "rental_uris": {"ios": "https://dc.lft.to/lastmile_qr_scan", "android": "https://dc.lft.to/lastmile_qr_scan"}, "is_reserved": 0, "fusion_lon": 0.0, "fusion_lat": 0.0, "lon": -77.01729183333333, "name": "0e7714e0063d640ca892b9a6dcce4b3d"}, {"bike_id": "3565c6e69f6eba2d17b2955edc928d0c", "type": "electric_scooter", "is_disabled": 0, "lat": 38.89869566666667, "rental_uris": {"ios": "https://dc.lft.to/lastmile_qr_scan", "android": "https://dc.lft.to/lastmile_qr_scan"}, "is_reserved": 0, "fusion_lon": 0.0, "fusion_lat": 0.0, "lon": -77.0419655, "name": "3565c6e69f6eba2d17b2955edc928d0c"}, {"bike_id": "18e37e229e2f838e9cfd0d53e7ea348a", "type": "electric_scooter", "is_disabled": 0, "lat": 38.91654416666667, "rental_uris": {"ios": "https://dc.lft.to/lastmile_qr_scan", "android": "https://dc.lft.to/lastmile_qr_scan"}, "is_reserved": 0, "fusion_lon": 0.0, "fusion_lat": 0.0, "lon": -76.979114, "name": "18e37e229e2f838e9cfd0d53e7ea348a"}, {"bike_id": "bb51b5e743bb9278ff139e17afb1ba22", "type": "electric_bike", "is_disabled": 0, "lat": 38.823678, "rental_uris": {"ios": "https://dc.lft.to/lastmile_qr_scan", "android": "https://dc.lft.to/lastmile_qr_scan"}, "is_reserved": 0, "fusion_lon": 0.0, "fusion_lat": 0.0, "lon": -77.00216083333333, "name": "bb51b5e743bb9278ff139e17afb1ba22"}, {"bike_id": "ade3a292cb25ef17bf587e569668f630", "type": "electric_scooter", "is_disabled": 0, "lat": 38.91573733333333, "rental_uris": {"ios": "https://dc.lft.to/lastmile_qr_scan", "android": "https://dc.lft.to/lastmile_qr_scan"}, "is_reserved": 0, "fusion_lon": 0.0, "fusion_lat": 0.0, "lon": -77.01953716666667, "name": "ade3a292cb25ef17bf587e569668f630"}, {"bike_id": "189bbd5940398d3dc5a903fa3b8d1f2d", "type": "electric_bike", "is_disabled": 0, "lat": 38.8593625, "rental_uris": {"ios": "https://dc.lft.to/lastmile_qr_scan", "android": "https://dc.lft.to/lastmile_qr_scan"}, "is_reserved": 0, "fusion_lon": 0.0, "fusion_lat": 0.0, "lon": -77.118315, "name": "189bbd5940398d3dc5a903fa3b8d1f2d"}, {"bike_id": "24bdd7e033e916fd61e198fabfd173b2", "type": "electric_scooter", "is_disabled": 0, "lat": 38.89752266666667, "rental_uris": {"ios": "https://dc.lft.to/lastmile_qr_scan", "android": "https://dc.lft.to/lastmile_qr_scan"}, "is_reserved": 0, "fusion_lon": 0.0, "fusion_lat": 0.0, "lon": -77.02449083333333, "name": "24bdd7e033e916fd61e198fabfd173b2"}, {"bike_id": "7b9da801a2bb7452ce1cb26472327fa5", "type": "electric_scooter", "is_disabled": 0, "lat": 38.91712033333334, "rental_uris": {"ios": "https://dc.lft.to/lastmile_qr_scan", "android": "https://dc.lft.to/lastmile_qr_scan"}, "is_reserved": 0, "fusion_lon": 0.0, "fusion_lat": 0.0, "lon": -77.02403233333334, "name": "7b9da801a2bb7452ce1cb26472327fa5"}, {"bike_id": "5bb33ee652b95f68ab3ea2e3339b1019", "type": "electric_scooter", "is_disabled": 0, "lat": 38.9236705, "rental_uris": {"ios": "https://dc.lft.to/lastmile_qr_scan", "android": "https://dc.lft.to/lastmile_qr_scan"}, "is_reserved": 0, "fusion_lon": 0.0, "fusion_lat": 0.0, "lon": -77.05031616666666, "name": "5bb33ee652b95f68ab3ea2e3339b1019"}, {"bike_id": "fe91d2a8ac4c37c73b2e7af032fd19b9", "type": "electric_scooter", "is_disabled": 0, "lat": 38.87682733333333, "rental_uris": {"ios": "https://dc.lft.to/lastmile_qr_scan", "android": "https://dc.lft.to/lastmile_qr_scan"}, "is_reserved": 0, "fusion_lon": 0.0, "fusion_lat": 0.0, "lon": -77.01757283333333, "name": "fe91d2a8ac4c37c73b2e7af032fd19b9"}, {"bike_id": "22d59734730b71d651cd143fc3181dcb", "type": "electric_scooter", "is_disabled": 0, "lat": 38.91555966666667, "rental_uris": {"ios": "https://dc.lft.to/lastmile_qr_scan", "android": "https://dc.lft.to/lastmile_qr_scan"}, "is_reserved": 0, "fusion_lon": 0.0, "fusion_lat": 0.0, "lon": -77.02410433333333, "name": "22d59734730b71d651cd143fc3181dcb"}, {"bike_id": "c9d37fc8ece686ccaa5e82de39a9ac0e", "type": "electric_scooter", "is_disabled": 0, "lat": 38.887328, "rental_uris": {"ios": "https://dc.lft.to/lastmile_qr_scan", "android": "https://dc.lft.to/lastmile_qr_scan"}, "is_reserved": 0, "fusion_lon": 0.0, "fusion_lat": 0.0, "lon": -77.031798, "name": "c9d37fc8ece686ccaa5e82de39a9ac0e"}, {"bike_id": "c13039b52b917c822f707f7c6fbb1aa3", "type": "electric_bike", "is_disabled": 0, "lat": 38.94708283333333, "rental_uris": {"ios": "https://dc.lft.to/lastmile_qr_scan", "android": "https://dc.lft.to/lastmile_qr_scan"}, "is_reserved": 0, "fusion_lon": 0.0, "fusion_lat": 0.0, "lon": -77.067007, "name": "c13039b52b917c822f707f7c6fbb1aa3"}, {"bike_id": "374f79976f3520fb5dbc33afa3beb757", "type": "electric_scooter", "is_disabled": 0, "lat": 38.9156125, "rental_uris": {"ios": "https://dc.lft.to/lastmile_qr_scan", "android": "https://dc.lft.to/lastmile_qr_scan"}, "is_reserved": 0, "fusion_lon": 0.0, "fusion_lat": 0.0, "lon": -77.04415683333333, "name": "374f79976f3520fb5dbc33afa3beb757"}, {"bike_id": "63e6c43e759b52280c8fc5972fe35def", "type": "electric_scooter", "is_disabled": 0, "lat": 38.930718, "rental_uris": {"ios": "https://dc.lft.to/lastmile_qr_scan", "android": "https://dc.lft.to/lastmile_qr_scan"}, "is_reserved": 0, "fusion_lon": 0.0, "fusion_lat": 0.0, "lon": -77.02149666666666, "name": "63e6c43e759b52280c8fc5972fe35def"}, {"bike_id": "7b1739d7adc21a10f2f9c4e5b74b8f8e", "type": "electric_scooter", "is_disabled": 0, "lat": 38.956902, "rental_uris": {"ios": "https://dc.lft.to/lastmile_qr_scan", "android": "https://dc.lft.to/lastmile_qr_scan"}, "is_reserved": 0, "fusion_lon": 0.0, "fusion_lat": 0.0, "lon": -77.02401516666667, "name": "7b1739d7adc21a10f2f9c4e5b74b8f8e"}, {"bike_id": "8e579d96f43944fe13370b8abf2f3d4b", "type": "electric_scooter", "is_disabled": 0, "lat": 38.900722333333334, "rental_uris": {"ios": "https://dc.lft.to/lastmile_qr_scan", "android": "https://dc.lft.to/lastmile_qr_scan"}, "is_reserved": 0, "fusion_lon": 0.0, "fusion_lat": 0.0, "lon": -77.01822966666667, "name": "8e579d96f43944fe13370b8abf2f3d4b"}, {"bike_id": "208d5756b0f39ad9b7bb3f76a3f7b583", "type": "electric_scooter", "is_disabled": 0, "lat": 38.909667666666664, "rental_uris": {"ios": "https://dc.lft.to/lastmile_qr_scan", "android": "https://dc.lft.to/lastmile_qr_scan"}, "is_reserved": 0, "fusion_lon": 0.0, "fusion_lat": 0.0, "lon": -77.033814, "name": "208d5756b0f39ad9b7bb3f76a3f7b583"}, {"bike_id": "508f02196a804bef811be0294867d019", "type": "electric_scooter", "is_disabled": 0, "lat": 38.89229683333333, "rental_uris": {"ios": "https://dc.lft.to/lastmile_qr_scan", "android": "https://dc.lft.to/lastmile_qr_scan"}, "is_reserved": 0, "fusion_lon": 0.0, "fusion_lat": 0.0, "lon": -77.04677316666667, "name": "508f02196a804bef811be0294867d019"}, {"bike_id": "0b3f481e57e00c383d0ebd7eab4b6f9f", "type": "electric_scooter", "is_disabled": 0, "lat": 38.914039333333335, "rental_uris": {"ios": "https://dc.lft.to/lastmile_qr_scan", "android": "https://dc.lft.to/lastmile_qr_scan"}, "is_reserved": 0, "fusion_lon": 0.0, "fusion_lat": 0.0, "lon": -77.032133, "name": "0b3f481e57e00c383d0ebd7eab4b6f9f"}, {"bike_id": "009c067a1d78a58a022023469b6a256d", "type": "electric_scooter", "is_disabled": 0, "lat": 38.90457083333333, "rental_uris": {"ios": "https://dc.lft.to/lastmile_qr_scan", "android": "https://dc.lft.to/lastmile_qr_scan"}, "is_reserved": 0, "fusion_lon": 0.0, "fusion_lat": 0.0, "lon": -77.05325283333333, "name": "009c067a1d78a58a022023469b6a256d"}, {"bike_id": "340b75eec06827fba6107f788786d590", "type": "electric_scooter", "is_disabled": 0, "lat": 38.908656, "rental_uris": {"ios": "https://dc.lft.to/lastmile_qr_scan", "android": "https://dc.lft.to/lastmile_qr_scan"}, "is_reserved": 0, "fusion_lon": 0.0, "fusion_lat": 0.0, "lon": -77.032222, "name": "340b75eec06827fba6107f788786d590"}, {"bike_id": "217884333a1431e43e871823efb12fbc", "type": "electric_scooter", "is_disabled": 0, "lat": 38.872898666666664, "rental_uris": {"ios": "https://dc.lft.to/lastmile_qr_scan", "android": "https://dc.lft.to/lastmile_qr_scan"}, "is_reserved": 0, "fusion_lon": 0.0, "fusion_lat": 0.0, "lon": -77.00983383333333, "name": "217884333a1431e43e871823efb12fbc"}, {"bike_id": "c4d1b0f3dfd11f8c4d58fa29d06b30e9", "type": "electric_scooter", "is_disabled": 0, "lat": 38.915612833333334, "rental_uris": {"ios": "https://dc.lft.to/lastmile_qr_scan", "android": "https://dc.lft.to/lastmile_qr_scan"}, "is_reserved": 0, "fusion_lon": 0.0, "fusion_lat": 0.0, "lon": -77.03273133333333, "name": "c4d1b0f3dfd11f8c4d58fa29d06b30e9"}, {"bike_id": "6286384e0397049e125b3b5089d8ec3c", "type": "electric_scooter", "is_disabled": 0, "lat": 38.901700166666664, "rental_uris": {"ios": "https://dc.lft.to/lastmile_qr_scan", "android": "https://dc.lft.to/lastmile_qr_scan"}, "is_reserved": 0, "fusion_lon": 0.0, "fusion_lat": 0.0, "lon": -76.92656966666667, "name": "6286384e0397049e125b3b5089d8ec3c"}, {"bike_id": "bfd26fb4b9264a7147a7a8db6b07c6c8", "type": "electric_scooter", "is_disabled": 0, "lat": 38.91038266666666, "rental_uris": {"ios": "https://dc.lft.to/lastmile_qr_scan", "android": "https://dc.lft.to/lastmile_qr_scan"}, "is_reserved": 0, "fusion_lon": 0.0, "fusion_lat": 0.0, "lon": -77.03374033333333, "name": "bfd26fb4b9264a7147a7a8db6b07c6c8"}, {"bike_id": "fdc27b95df441003b9ed4ae765b513ef", "type": "electric_scooter", "is_disabled": 0, "lat": 38.901357, "rental_uris": {"ios": "https://dc.lft.to/lastmile_qr_scan", "android": "https://dc.lft.to/lastmile_qr_scan"}, "is_reserved": 0, "fusion_lon": 0.0, "fusion_lat": 0.0, "lon": -77.02376783333334, "name": "fdc27b95df441003b9ed4ae765b513ef"}, {"bike_id": "f7c4ce74e347fc74f12cf3912538c7ab", "type": "electric_scooter", "is_disabled": 0, "lat": 38.90663216666667, "rental_uris": {"ios": "https://dc.lft.to/lastmile_qr_scan", "android": "https://dc.lft.to/lastmile_qr_scan"}, "is_reserved": 0, "fusion_lon": 0.0, "fusion_lat": 0.0, "lon": -77.02706433333333, "name": "f7c4ce74e347fc74f12cf3912538c7ab"}, {"bike_id": "7d4ba1d2ff5dfc3fdd2dd8d1a432d9f6", "type": "electric_scooter", "is_disabled": 0, "lat": 38.9161855, "rental_uris": {"ios": "https://dc.lft.to/lastmile_qr_scan", "android": "https://dc.lft.to/lastmile_qr_scan"}, "is_reserved": 0, "fusion_lon": 0.0, "fusion_lat": 0.0, "lon": -77.02300783333334, "name": "7d4ba1d2ff5dfc3fdd2dd8d1a432d9f6"}, {"bike_id": "321f517a144624d2138f7954b792d223", "type": "electric_scooter", "is_disabled": 0, "lat": 38.88180333333333, "rental_uris": {"ios": "https://dc.lft.to/lastmile_qr_scan", "android": "https://dc.lft.to/lastmile_qr_scan"}, "is_reserved": 0, "fusion_lon": 0.0, "fusion_lat": 0.0, "lon": -77.02087366666666, "name": "321f517a144624d2138f7954b792d223"}, {"bike_id": "3377a9f1a6cc19806f7192ce0e0712c9", "type": "electric_bike", "is_disabled": 0, "lat": 38.9021235, "rental_uris": {"ios": "https://dc.lft.to/lastmile_qr_scan", "android": "https://dc.lft.to/lastmile_qr_scan"}, "is_reserved": 0, "fusion_lon": 0.0, "fusion_lat": 0.0, "lon": -77.01612583333333, "name": "3377a9f1a6cc19806f7192ce0e0712c9"}, {"bike_id": "7548a905cc01219f4d6878f5b7d9bc23", "type": "electric_scooter", "is_disabled": 0, "lat": 38.9106385, "rental_uris": {"ios": "https://dc.lft.to/lastmile_qr_scan", "android": "https://dc.lft.to/lastmile_qr_scan"}, "is_reserved": 0, "fusion_lon": 0.0, "fusion_lat": 0.0, "lon": -77.04495833333333, "name": "7548a905cc01219f4d6878f5b7d9bc23"}, {"bike_id": "8af711778122ed37c4b2dadd1d23d054", "type": "electric_scooter", "is_disabled": 0, "lat": 38.89329216666667, "rental_uris": {"ios": "https://dc.lft.to/lastmile_qr_scan", "android": "https://dc.lft.to/lastmile_qr_scan"}, "is_reserved": 0, "fusion_lon": 0.0, "fusion_lat": 0.0, "lon": -77.03196233333334, "name": "8af711778122ed37c4b2dadd1d23d054"}, {"bike_id": "96e07343a3d14591ae4cc4fc71ad2cb8", "type": "electric_scooter", "is_disabled": 0, "lat": 38.9123625, "rental_uris": {"ios": "https://dc.lft.to/lastmile_qr_scan", "android": "https://dc.lft.to/lastmile_qr_scan"}, "is_reserved": 0, "fusion_lon": 0.0, "fusion_lat": 0.0, "lon": -77.045176, "name": "96e07343a3d14591ae4cc4fc71ad2cb8"}, {"bike_id": "d2a8a0872f2d6982a61ac49f85a45692", "type": "electric_scooter", "is_disabled": 0, "lat": 38.938274666666665, "rental_uris": {"ios": "https://dc.lft.to/lastmile_qr_scan", "android": "https://dc.lft.to/lastmile_qr_scan"}, "is_reserved": 0, "fusion_lon": 0.0, "fusion_lat": 0.0, "lon": -76.9904945, "name": "d2a8a0872f2d6982a61ac49f85a45692"}, {"bike_id": "3ae42983dc232ce09eeefeaf8c59064f", "type": "electric_scooter", "is_disabled": 0, "lat": 38.9117435, "rental_uris": {"ios": "https://dc.lft.to/lastmile_qr_scan", "android": "https://dc.lft.to/lastmile_qr_scan"}, "is_reserved": 0, "fusion_lon": 0.0, "fusion_lat": 0.0, "lon": -77.03871516666666, "name": "3ae42983dc232ce09eeefeaf8c59064f"}, {"bike_id": "abd942b85d2cb17a6490a098dffe2e4d", "type": "electric_bike", "is_disabled": 0, "lat": 38.84525816666667, "rental_uris": {"ios": "https://dc.lft.to/lastmile_qr_scan", "android": "https://dc.lft.to/lastmile_qr_scan"}, "is_reserved": 0, "fusion_lon": 0.0, "fusion_lat": 0.0, "lon": -76.974019, "name": "abd942b85d2cb17a6490a098dffe2e4d"}, {"bike_id": "b1feb99af0a73e86b5c28102ecbc33bf", "type": "electric_scooter", "is_disabled": 0, "lat": 38.947884333333334, "rental_uris": {"ios": "https://dc.lft.to/lastmile_qr_scan", "android": "https://dc.lft.to/lastmile_qr_scan"}, "is_reserved": 0, "fusion_lon": 0.0, "fusion_lat": 0.0, "lon": -77.02134166666667, "name": "b1feb99af0a73e86b5c28102ecbc33bf"}, {"bike_id": "bd85f7965ef758ee16d9e0ffcf8e324a", "type": "electric_scooter", "is_disabled": 0, "lat": 38.923211333333334, "rental_uris": {"ios": "https://dc.lft.to/lastmile_qr_scan", "android": "https://dc.lft.to/lastmile_qr_scan"}, "is_reserved": 0, "fusion_lon": 0.0, "fusion_lat": 0.0, "lon": -77.02142033333334, "name": "bd85f7965ef758ee16d9e0ffcf8e324a"}, {"bike_id": "b6e86d8a6cb808d02e8bc42b2664dfec", "type": "electric_scooter", "is_disabled": 0, "lat": 38.922207, "rental_uris": {"ios": "https://dc.lft.to/lastmile_qr_scan", "android": "https://dc.lft.to/lastmile_qr_scan"}, "is_reserved": 0, "fusion_lon": 0.0, "fusion_lat": 0.0, "lon": -77.04334116666666, "name": "b6e86d8a6cb808d02e8bc42b2664dfec"}, {"bike_id": "2e6101ce130fd5a4e339e8851d668c75", "type": "electric_scooter", "is_disabled": 0, "lat": 38.9352565, "rental_uris": {"ios": "https://dc.lft.to/lastmile_qr_scan", "android": "https://dc.lft.to/lastmile_qr_scan"}, "is_reserved": 0, "fusion_lon": 0.0, "fusion_lat": 0.0, "lon": -77.03383616666666, "name": "2e6101ce130fd5a4e339e8851d668c75"}, {"bike_id": "6d6dd3b3f4172edb5f6e01fd29e10080", "type": "electric_scooter", "is_disabled": 0, "lat": 38.909391166666666, "rental_uris": {"ios": "https://dc.lft.to/lastmile_qr_scan", "android": "https://dc.lft.to/lastmile_qr_scan"}, "is_reserved": 0, "fusion_lon": 0.0, "fusion_lat": 0.0, "lon": -77.04249616666667, "name": "6d6dd3b3f4172edb5f6e01fd29e10080"}, {"bike_id": "19bfd02324c0c6891569270ad74db6f0", "type": "electric_scooter", "is_disabled": 0, "lat": 38.92440883333333, "rental_uris": {"ios": "https://dc.lft.to/lastmile_qr_scan", "android": "https://dc.lft.to/lastmile_qr_scan"}, "is_reserved": 0, "fusion_lon": 0.0, "fusion_lat": 0.0, "lon": -77.04028916666667, "name": "19bfd02324c0c6891569270ad74db6f0"}, {"bike_id": "a9197b3581bd1d4db755b8ce12507923", "type": "electric_bike", "is_disabled": 0, "lat": 38.91012216666667, "rental_uris": {"ios": "https://dc.lft.to/lastmile_qr_scan", "android": "https://dc.lft.to/lastmile_qr_scan"}, "is_reserved": 0, "fusion_lon": 0.0, "fusion_lat": 0.0, "lon": -77.22810366666667, "name": "a9197b3581bd1d4db755b8ce12507923"}, {"bike_id": "0a7b70e7a4cf5cabef789c001f40581b", "type": "electric_scooter", "is_disabled": 0, "lat": 38.89970916666667, "rental_uris": {"ios": "https://dc.lft.to/lastmile_qr_scan", "android": "https://dc.lft.to/lastmile_qr_scan"}, "is_reserved": 0, "fusion_lon": 0.0, "fusion_lat": 0.0, "lon": -77.03390166666667, "name": "0a7b70e7a4cf5cabef789c001f40581b"}, {"bike_id": "0b72d85990f99e756ec7b7c8bfd696a0", "type": "electric_bike", "is_disabled": 0, "lat": 38.87270783333334, "rental_uris": {"ios": "https://dc.lft.to/lastmile_qr_scan", "android": "https://dc.lft.to/lastmile_qr_scan"}, "is_reserved": 0, "fusion_lon": 0.0, "fusion_lat": 0.0, "lon": -77.23249133333333, "name": "0b72d85990f99e756ec7b7c8bfd696a0"}, {"bike_id": "c0de02833ea7fea3c1fab0e301b1f054", "type": "electric_bike", "is_disabled": 0, "lat": 38.883847, "rental_uris": {"ios": "https://dc.lft.to/lastmile_qr_scan", "android": "https://dc.lft.to/lastmile_qr_scan"}, "is_reserved": 0, "fusion_lon": 0.0, "fusion_lat": 0.0, "lon": -76.98549833333334, "name": "c0de02833ea7fea3c1fab0e301b1f054"}, {"bike_id": "31448c4cf0e9b04234f7729e7a3ba30b", "type": "electric_scooter", "is_disabled": 0, "lat": 38.91309066666667, "rental_uris": {"ios": "https://dc.lft.to/lastmile_qr_scan", "android": "https://dc.lft.to/lastmile_qr_scan"}, "is_reserved": 0, "fusion_lon": 0.0, "fusion_lat": 0.0, "lon": -77.04544216666666, "name": "31448c4cf0e9b04234f7729e7a3ba30b"}, {"bike_id": "74103cd763ec1f84b8c0841eb3fea553", "type": "electric_scooter", "is_disabled": 0, "lat": 38.914183666666666, "rental_uris": {"ios": "https://dc.lft.to/lastmile_qr_scan", "android": "https://dc.lft.to/lastmile_qr_scan"}, "is_reserved": 0, "fusion_lon": 0.0, "fusion_lat": 0.0, "lon": -77.04810616666667, "name": "74103cd763ec1f84b8c0841eb3fea553"}, {"bike_id": "481f0d9a49399d28fe553fb34b143f0b", "type": "electric_scooter", "is_disabled": 0, "lat": 38.90020466666667, "rental_uris": {"ios": "https://dc.lft.to/lastmile_qr_scan", "android": "https://dc.lft.to/lastmile_qr_scan"}, "is_reserved": 0, "fusion_lon": 0.0, "fusion_lat": 0.0, "lon": -77.01135483333333, "name": "481f0d9a49399d28fe553fb34b143f0b"}, {"bike_id": "1b34476d4fee8516fef9d55864db8108", "type": "electric_scooter", "is_disabled": 0, "lat": 38.9125765, "rental_uris": {"ios": "https://dc.lft.to/lastmile_qr_scan", "android": "https://dc.lft.to/lastmile_qr_scan"}, "is_reserved": 0, "fusion_lon": 0.0, "fusion_lat": 0.0, "lon": -77.03178016666666, "name": "1b34476d4fee8516fef9d55864db8108"}, {"bike_id": "2faf92f4faca9fcea346fbd03970977f", "type": "electric_scooter", "is_disabled": 0, "lat": 38.8697135, "rental_uris": {"ios": "https://dc.lft.to/lastmile_qr_scan", "android": "https://dc.lft.to/lastmile_qr_scan"}, "is_reserved": 0, "fusion_lon": 0.0, "fusion_lat": 0.0, "lon": -76.98174816666666, "name": "2faf92f4faca9fcea346fbd03970977f"}, {"bike_id": "e941baf62c3fd22f68dd2b78eb55dbc2", "type": "electric_scooter", "is_disabled": 0, "lat": 38.934012833333334, "rental_uris": {"ios": "https://dc.lft.to/lastmile_qr_scan", "android": "https://dc.lft.to/lastmile_qr_scan"}, "is_reserved": 0, "fusion_lon": 0.0, "fusion_lat": 0.0, "lon": -77.02211483333333, "name": "e941baf62c3fd22f68dd2b78eb55dbc2"}, {"bike_id": "01ec7a68824deff4e3c12822dfc0a509", "type": "electric_scooter", "is_disabled": 0, "lat": 38.86656, "rental_uris": {"ios": "https://dc.lft.to/lastmile_qr_scan", "android": "https://dc.lft.to/lastmile_qr_scan"}, "is_reserved": 0, "fusion_lon": 0.0, "fusion_lat": 0.0, "lon": -76.9889125, "name": "01ec7a68824deff4e3c12822dfc0a509"}, {"bike_id": "28a7deb52194537c44ecd12d90c25d88", "type": "electric_scooter", "is_disabled": 0, "lat": 38.918566, "rental_uris": {"ios": "https://dc.lft.to/lastmile_qr_scan", "android": "https://dc.lft.to/lastmile_qr_scan"}, "is_reserved": 0, "fusion_lon": 0.0, "fusion_lat": 0.0, "lon": -77.02523716666667, "name": "28a7deb52194537c44ecd12d90c25d88"}, {"bike_id": "82a8f0afbb4ad2bbc58a7790a3d84249", "type": "electric_bike", "is_disabled": 0, "lat": 38.996541666666666, "rental_uris": {"ios": "https://dc.lft.to/lastmile_qr_scan", "android": "https://dc.lft.to/lastmile_qr_scan"}, "is_reserved": 0, "fusion_lon": 0.0, "fusion_lat": 0.0, "lon": -77.04014566666666, "name": "82a8f0afbb4ad2bbc58a7790a3d84249"}, {"bike_id": "bc102086a64aaaefdce3a1c80dee7212", "type": "electric_scooter", "is_disabled": 0, "lat": 38.90136066666667, "rental_uris": {"ios": "https://dc.lft.to/lastmile_qr_scan", "android": "https://dc.lft.to/lastmile_qr_scan"}, "is_reserved": 0, "fusion_lon": 0.0, "fusion_lat": 0.0, "lon": -77.0006975, "name": "bc102086a64aaaefdce3a1c80dee7212"}, {"bike_id": "836668d93d04d893ddf7e4eca98ec7ae", "type": "electric_scooter", "is_disabled": 0, "lat": 38.915988666666664, "rental_uris": {"ios": "https://dc.lft.to/lastmile_qr_scan", "android": "https://dc.lft.to/lastmile_qr_scan"}, "is_reserved": 0, "fusion_lon": 0.0, "fusion_lat": 0.0, "lon": -77.00198316666666, "name": "836668d93d04d893ddf7e4eca98ec7ae"}, {"bike_id": "fe886e40b24658781c39a762e60d56aa", "type": "electric_scooter", "is_disabled": 0, "lat": 38.923246166666665, "rental_uris": {"ios": "https://dc.lft.to/lastmile_qr_scan", "android": "https://dc.lft.to/lastmile_qr_scan"}, "is_reserved": 0, "fusion_lon": 0.0, "fusion_lat": 0.0, "lon": -77.02962916666667, "name": "fe886e40b24658781c39a762e60d56aa"}, {"bike_id": "cb2fd87ad0fe856b3cda3f3c62dca659", "type": "electric_scooter", "is_disabled": 0, "lat": 38.9155495, "rental_uris": {"ios": "https://dc.lft.to/lastmile_qr_scan", "android": "https://dc.lft.to/lastmile_qr_scan"}, "is_reserved": 0, "fusion_lon": 0.0, "fusion_lat": 0.0, "lon": -77.0332515, "name": "cb2fd87ad0fe856b3cda3f3c62dca659"}, {"bike_id": "e811acf453ff2d8970c669e66a1930e6", "type": "electric_scooter", "is_disabled": 0, "lat": 38.9215015, "rental_uris": {"ios": "https://dc.lft.to/lastmile_qr_scan", "android": "https://dc.lft.to/lastmile_qr_scan"}, "is_reserved": 0, "fusion_lon": 0.0, "fusion_lat": 0.0, "lon": -77.03441583333333, "name": "e811acf453ff2d8970c669e66a1930e6"}, {"bike_id": "6ca15db3384463b2de4a24812efda5b9", "type": "electric_scooter", "is_disabled": 0, "lat": 38.92468516666667, "rental_uris": {"ios": "https://dc.lft.to/lastmile_qr_scan", "android": "https://dc.lft.to/lastmile_qr_scan"}, "is_reserved": 0, "fusion_lon": 0.0, "fusion_lat": 0.0, "lon": -77.03793733333333, "name": "6ca15db3384463b2de4a24812efda5b9"}, {"bike_id": "410dd7b5363594245fafbd77f6f02bdc", "type": "electric_scooter", "is_disabled": 0, "lat": 38.92359283333333, "rental_uris": {"ios": "https://dc.lft.to/lastmile_qr_scan", "android": "https://dc.lft.to/lastmile_qr_scan"}, "is_reserved": 0, "fusion_lon": 0.0, "fusion_lat": 0.0, "lon": -77.076407, "name": "410dd7b5363594245fafbd77f6f02bdc"}, {"bike_id": "ce0d7e4951a3c29bb36236406d54cd1a", "type": "electric_scooter", "is_disabled": 0, "lat": 38.965594, "rental_uris": {"ios": "https://dc.lft.to/lastmile_qr_scan", "android": "https://dc.lft.to/lastmile_qr_scan"}, "is_reserved": 0, "fusion_lon": 0.0, "fusion_lat": 0.0, "lon": -77.00203216666667, "name": "ce0d7e4951a3c29bb36236406d54cd1a"}, {"bike_id": "23cf2f5a9fa81dfee18955540ca822a6", "type": "electric_scooter", "is_disabled": 0, "lat": 38.915951, "rental_uris": {"ios": "https://dc.lft.to/lastmile_qr_scan", "android": "https://dc.lft.to/lastmile_qr_scan"}, "is_reserved": 0, "fusion_lon": 0.0, "fusion_lat": 0.0, "lon": -77.02139116666666, "name": "23cf2f5a9fa81dfee18955540ca822a6"}, {"bike_id": "6cb401fe8b6fe6b6fc31e8e23bbaeed8", "type": "electric_scooter", "is_disabled": 0, "lat": 38.91405266666666, "rental_uris": {"ios": "https://dc.lft.to/lastmile_qr_scan", "android": "https://dc.lft.to/lastmile_qr_scan"}, "is_reserved": 0, "fusion_lon": 0.0, "fusion_lat": 0.0, "lon": -77.0399855, "name": "6cb401fe8b6fe6b6fc31e8e23bbaeed8"}, {"bike_id": "ce0cfba02e34c485d28fd0dad35d4fdc", "type": "electric_scooter", "is_disabled": 0, "lat": 38.91918966666667, "rental_uris": {"ios": "https://dc.lft.to/lastmile_qr_scan", "android": "https://dc.lft.to/lastmile_qr_scan"}, "is_reserved": 0, "fusion_lon": 0.0, "fusion_lat": 0.0, "lon": -77.03023483333334, "name": "ce0cfba02e34c485d28fd0dad35d4fdc"}, {"bike_id": "0f66611efc5c080cd87ad222db1ff6b2", "type": "electric_scooter", "is_disabled": 0, "lat": 38.883008833333335, "rental_uris": {"ios": "https://dc.lft.to/lastmile_qr_scan", "android": "https://dc.lft.to/lastmile_qr_scan"}, "is_reserved": 0, "fusion_lon": 0.0, "fusion_lat": 0.0, "lon": -76.942103, "name": "0f66611efc5c080cd87ad222db1ff6b2"}, {"bike_id": "61b1ac6861175812b228271d209699a8", "type": "electric_scooter", "is_disabled": 0, "lat": 38.921552166666665, "rental_uris": {"ios": "https://dc.lft.to/lastmile_qr_scan", "android": "https://dc.lft.to/lastmile_qr_scan"}, "is_reserved": 0, "fusion_lon": 0.0, "fusion_lat": 0.0, "lon": -77.04238816666667, "name": "61b1ac6861175812b228271d209699a8"}, {"bike_id": "bf83806e4e781d6fb6b418ccee0b441d", "type": "electric_scooter", "is_disabled": 0, "lat": 38.8545885, "rental_uris": {"ios": "https://dc.lft.to/lastmile_qr_scan", "android": "https://dc.lft.to/lastmile_qr_scan"}, "is_reserved": 0, "fusion_lon": 0.0, "fusion_lat": 0.0, "lon": -76.97232916666667, "name": "bf83806e4e781d6fb6b418ccee0b441d"}, {"bike_id": "7a532a9084663336c6add88537f78604", "type": "electric_scooter", "is_disabled": 0, "lat": 38.92061416666667, "rental_uris": {"ios": "https://dc.lft.to/lastmile_qr_scan", "android": "https://dc.lft.to/lastmile_qr_scan"}, "is_reserved": 0, "fusion_lon": 0.0, "fusion_lat": 0.0, "lon": -77.02368, "name": "7a532a9084663336c6add88537f78604"}, {"bike_id": "7bf42f239d1ad6d0318434bc263fc798", "type": "electric_scooter", "is_disabled": 0, "lat": 38.92017833333333, "rental_uris": {"ios": "https://dc.lft.to/lastmile_qr_scan", "android": "https://dc.lft.to/lastmile_qr_scan"}, "is_reserved": 0, "fusion_lon": 0.0, "fusion_lat": 0.0, "lon": -77.013184, "name": "7bf42f239d1ad6d0318434bc263fc798"}, {"bike_id": "d3a769ce270970860b30d4ff9ebeb8a0", "type": "electric_scooter", "is_disabled": 0, "lat": 38.89234583333333, "rental_uris": {"ios": "https://dc.lft.to/lastmile_qr_scan", "android": "https://dc.lft.to/lastmile_qr_scan"}, "is_reserved": 0, "fusion_lon": 0.0, "fusion_lat": 0.0, "lon": -77.04161266666667, "name": "d3a769ce270970860b30d4ff9ebeb8a0"}, {"bike_id": "7d02bf18c21ed2ca5e38c09ae37141fe", "type": "electric_scooter", "is_disabled": 0, "lat": 38.9016, "rental_uris": {"ios": "https://dc.lft.to/lastmile_qr_scan", "android": "https://dc.lft.to/lastmile_qr_scan"}, "is_reserved": 0, "fusion_lon": 0.0, "fusion_lat": 0.0, "lon": -77.03172066666667, "name": "7d02bf18c21ed2ca5e38c09ae37141fe"}, {"bike_id": "1d8187ee6971da2db387ccb198286fce", "type": "electric_scooter", "is_disabled": 0, "lat": 38.920029166666666, "rental_uris": {"ios": "https://dc.lft.to/lastmile_qr_scan", "android": "https://dc.lft.to/lastmile_qr_scan"}, "is_reserved": 0, "fusion_lon": 0.0, "fusion_lat": 0.0, "lon": -77.0246705, "name": "1d8187ee6971da2db387ccb198286fce"}, {"bike_id": "d63ad347ac341eb316031e96c7addfe9", "type": "electric_scooter", "is_disabled": 0, "lat": 38.896870666666665, "rental_uris": {"ios": "https://dc.lft.to/lastmile_qr_scan", "android": "https://dc.lft.to/lastmile_qr_scan"}, "is_reserved": 0, "fusion_lon": 0.0, "fusion_lat": 0.0, "lon": -77.0434135, "name": "d63ad347ac341eb316031e96c7addfe9"}, {"bike_id": "0f901a5844742f036e2193d186283a05", "type": "electric_scooter", "is_disabled": 0, "lat": 38.917022833333334, "rental_uris": {"ios": "https://dc.lft.to/lastmile_qr_scan", "android": "https://dc.lft.to/lastmile_qr_scan"}, "is_reserved": 0, "fusion_lon": 0.0, "fusion_lat": 0.0, "lon": -77.0241265, "name": "0f901a5844742f036e2193d186283a05"}, {"bike_id": "f668e80a6aa890ff90e6b80100ae775c", "type": "electric_scooter", "is_disabled": 0, "lat": 38.91624983333333, "rental_uris": {"ios": "https://dc.lft.to/lastmile_qr_scan", "android": "https://dc.lft.to/lastmile_qr_scan"}, "is_reserved": 0, "fusion_lon": 0.0, "fusion_lat": 0.0, "lon": -77.03043316666667, "name": "f668e80a6aa890ff90e6b80100ae775c"}, {"bike_id": "548e0bfd7eb6171e71d8528df6b795c1", "type": "electric_scooter", "is_disabled": 0, "lat": 38.93250583333333, "rental_uris": {"ios": "https://dc.lft.to/lastmile_qr_scan", "android": "https://dc.lft.to/lastmile_qr_scan"}, "is_reserved": 0, "fusion_lon": 0.0, "fusion_lat": 0.0, "lon": -77.02726166666666, "name": "548e0bfd7eb6171e71d8528df6b795c1"}, {"bike_id": "ece2ab89e45c0a2d980c84e62af69074", "type": "electric_scooter", "is_disabled": 0, "lat": 38.938857666666664, "rental_uris": {"ios": "https://dc.lft.to/lastmile_qr_scan", "android": "https://dc.lft.to/lastmile_qr_scan"}, "is_reserved": 0, "fusion_lon": 0.0, "fusion_lat": 0.0, "lon": -77.033221, "name": "ece2ab89e45c0a2d980c84e62af69074"}, {"bike_id": "745582cf938265c89cb3d534d57097ad", "type": "electric_scooter", "is_disabled": 0, "lat": 38.923427, "rental_uris": {"ios": "https://dc.lft.to/lastmile_qr_scan", "android": "https://dc.lft.to/lastmile_qr_scan"}, "is_reserved": 0, "fusion_lon": 0.0, "fusion_lat": 0.0, "lon": -77.03506483333334, "name": "745582cf938265c89cb3d534d57097ad"}, {"bike_id": "c0320ffc510b81187522df3958600301", "type": "electric_scooter", "is_disabled": 0, "lat": 38.922340166666665, "rental_uris": {"ios": "https://dc.lft.to/lastmile_qr_scan", "android": "https://dc.lft.to/lastmile_qr_scan"}, "is_reserved": 0, "fusion_lon": 0.0, "fusion_lat": 0.0, "lon": -77.0228155, "name": "c0320ffc510b81187522df3958600301"}, {"bike_id": "f2d1e8e3ff0c6003f983628eb7e68565", "type": "electric_scooter", "is_disabled": 0, "lat": 38.9170625, "rental_uris": {"ios": "https://dc.lft.to/lastmile_qr_scan", "android": "https://dc.lft.to/lastmile_qr_scan"}, "is_reserved": 0, "fusion_lon": 0.0, "fusion_lat": 0.0, "lon": -77.02662966666666, "name": "f2d1e8e3ff0c6003f983628eb7e68565"}, {"bike_id": "90a0eeb0ff2abda340785827acb7c703", "type": "electric_scooter", "is_disabled": 0, "lat": 38.90405, "rental_uris": {"ios": "https://dc.lft.to/lastmile_qr_scan", "android": "https://dc.lft.to/lastmile_qr_scan"}, "is_reserved": 0, "fusion_lon": 0.0, "fusion_lat": 0.0, "lon": -77.01843733333334, "name": "90a0eeb0ff2abda340785827acb7c703"}, {"bike_id": "6470ebee900811c772fdd36d50df8fa0", "type": "electric_scooter", "is_disabled": 0, "lat": 38.90865316666667, "rental_uris": {"ios": "https://dc.lft.to/lastmile_qr_scan", "android": "https://dc.lft.to/lastmile_qr_scan"}, "is_reserved": 0, "fusion_lon": 0.0, "fusion_lat": 0.0, "lon": -77.03224916666667, "name": "6470ebee900811c772fdd36d50df8fa0"}, {"bike_id": "42a9e346ec3501aaca5403e4c59a953d", "type": "electric_scooter", "is_disabled": 0, "lat": 38.8865455, "rental_uris": {"ios": "https://dc.lft.to/lastmile_qr_scan", "android": "https://dc.lft.to/lastmile_qr_scan"}, "is_reserved": 0, "fusion_lon": 0.0, "fusion_lat": 0.0, "lon": -77.02831716666667, "name": "42a9e346ec3501aaca5403e4c59a953d"}, {"bike_id": "da177dbd0fea64801a49df2416e5141f", "type": "electric_scooter", "is_disabled": 0, "lat": 38.9163865, "rental_uris": {"ios": "https://dc.lft.to/lastmile_qr_scan", "android": "https://dc.lft.to/lastmile_qr_scan"}, "is_reserved": 0, "fusion_lon": 0.0, "fusion_lat": 0.0, "lon": -77.03204183333334, "name": "da177dbd0fea64801a49df2416e5141f"}, {"bike_id": "447ac77ef3a7391d0dd6b26ec7bde34d", "type": "electric_scooter", "is_disabled": 0, "lat": 38.903166166666665, "rental_uris": {"ios": "https://dc.lft.to/lastmile_qr_scan", "android": "https://dc.lft.to/lastmile_qr_scan"}, "is_reserved": 0, "fusion_lon": 0.0, "fusion_lat": 0.0, "lon": -76.99131033333333, "name": "447ac77ef3a7391d0dd6b26ec7bde34d"}, {"bike_id": "faebed6fd0a1b299099f3028566548ff", "type": "electric_bike", "is_disabled": 0, "lat": 38.8097315, "rental_uris": {"ios": "https://dc.lft.to/lastmile_qr_scan", "android": "https://dc.lft.to/lastmile_qr_scan"}, "is_reserved": 0, "fusion_lon": 0.0, "fusion_lat": 0.0, "lon": -77.086272, "name": "faebed6fd0a1b299099f3028566548ff"}, {"bike_id": "277cc4f247ac201fa41a56184dde1a7d", "type": "electric_scooter", "is_disabled": 0, "lat": 38.91761016666667, "rental_uris": {"ios": "https://dc.lft.to/lastmile_qr_scan", "android": "https://dc.lft.to/lastmile_qr_scan"}, "is_reserved": 0, "fusion_lon": 0.0, "fusion_lat": 0.0, "lon": -77.04767733333334, "name": "277cc4f247ac201fa41a56184dde1a7d"}, {"bike_id": "137eeed8fe95aef737f15c92b93bc88c", "type": "electric_scooter", "is_disabled": 0, "lat": 38.911739, "rental_uris": {"ios": "https://dc.lft.to/lastmile_qr_scan", "android": "https://dc.lft.to/lastmile_qr_scan"}, "is_reserved": 0, "fusion_lon": 0.0, "fusion_lat": 0.0, "lon": -77.03186033333333, "name": "137eeed8fe95aef737f15c92b93bc88c"}, {"bike_id": "706a77709de9a453ea45c1cb83655991", "type": "electric_scooter", "is_disabled": 0, "lat": 38.928648, "rental_uris": {"ios": "https://dc.lft.to/lastmile_qr_scan", "android": "https://dc.lft.to/lastmile_qr_scan"}, "is_reserved": 0, "fusion_lon": 0.0, "fusion_lat": 0.0, "lon": -77.03713416666666, "name": "706a77709de9a453ea45c1cb83655991"}, {"bike_id": "689e6cecfaaec8a2368f39581df2d462", "type": "electric_scooter", "is_disabled": 0, "lat": 38.955770333333334, "rental_uris": {"ios": "https://dc.lft.to/lastmile_qr_scan", "android": "https://dc.lft.to/lastmile_qr_scan"}, "is_reserved": 0, "fusion_lon": 0.0, "fusion_lat": 0.0, "lon": -77.08040733333333, "name": "689e6cecfaaec8a2368f39581df2d462"}, {"bike_id": "646855143fd1fa6a075e7e01c71260dd", "type": "electric_bike", "is_disabled": 0, "lat": 38.94949883333334, "rental_uris": {"ios": "https://dc.lft.to/lastmile_qr_scan", "android": "https://dc.lft.to/lastmile_qr_scan"}, "is_reserved": 0, "fusion_lon": 0.0, "fusion_lat": 0.0, "lon": -77.06626883333334, "name": "646855143fd1fa6a075e7e01c71260dd"}, {"bike_id": "4c3f19a8b22489142f699e60d5f3e311", "type": "electric_scooter", "is_disabled": 0, "lat": 38.91342483333333, "rental_uris": {"ios": "https://dc.lft.to/lastmile_qr_scan", "android": "https://dc.lft.to/lastmile_qr_scan"}, "is_reserved": 0, "fusion_lon": 0.0, "fusion_lat": 0.0, "lon": -77.0319675, "name": "4c3f19a8b22489142f699e60d5f3e311"}, {"bike_id": "a6c0e22cb7dafa67c497c0d2e33e7857", "type": "electric_scooter", "is_disabled": 0, "lat": 38.8637315, "rental_uris": {"ios": "https://dc.lft.to/lastmile_qr_scan", "android": "https://dc.lft.to/lastmile_qr_scan"}, "is_reserved": 0, "fusion_lon": 0.0, "fusion_lat": 0.0, "lon": -76.99059616666666, "name": "a6c0e22cb7dafa67c497c0d2e33e7857"}, {"bike_id": "3c9c6a26da146a4627f39538a728e537", "type": "electric_bike", "is_disabled": 0, "lat": 38.955184333333335, "rental_uris": {"ios": "https://dc.lft.to/lastmile_qr_scan", "android": "https://dc.lft.to/lastmile_qr_scan"}, "is_reserved": 0, "fusion_lon": 0.0, "fusion_lat": 0.0, "lon": -76.93914483333333, "name": "3c9c6a26da146a4627f39538a728e537"}, {"bike_id": "77d08080665bcd3dee052a6043bbb00c", "type": "electric_scooter", "is_disabled": 0, "lat": 38.9176095, "rental_uris": {"ios": "https://dc.lft.to/lastmile_qr_scan", "android": "https://dc.lft.to/lastmile_qr_scan"}, "is_reserved": 0, "fusion_lon": 0.0, "fusion_lat": 0.0, "lon": -77.02290666666667, "name": "77d08080665bcd3dee052a6043bbb00c"}, {"bike_id": "ec3534c9cfa140952d3c9e0457d052b2", "type": "electric_scooter", "is_disabled": 0, "lat": 38.916874666666665, "rental_uris": {"ios": "https://dc.lft.to/lastmile_qr_scan", "android": "https://dc.lft.to/lastmile_qr_scan"}, "is_reserved": 0, "fusion_lon": 0.0, "fusion_lat": 0.0, "lon": -77.037726, "name": "ec3534c9cfa140952d3c9e0457d052b2"}, {"bike_id": "36d1cf768dcc659f8f7161f4a2a43db9", "type": "electric_scooter", "is_disabled": 0, "lat": 38.900746833333336, "rental_uris": {"ios": "https://dc.lft.to/lastmile_qr_scan", "android": "https://dc.lft.to/lastmile_qr_scan"}, "is_reserved": 0, "fusion_lon": 0.0, "fusion_lat": 0.0, "lon": -77.01693066666667, "name": "36d1cf768dcc659f8f7161f4a2a43db9"}, {"bike_id": "dc176c61a4f0574ba257e36b754f593f", "type": "electric_scooter", "is_disabled": 0, "lat": 38.920671166666665, "rental_uris": {"ios": "https://dc.lft.to/lastmile_qr_scan", "android": "https://dc.lft.to/lastmile_qr_scan"}, "is_reserved": 0, "fusion_lon": 0.0, "fusion_lat": 0.0, "lon": -77.042522, "name": "dc176c61a4f0574ba257e36b754f593f"}, {"bike_id": "5b6de9d868c985df893e6915c193fd9d", "type": "electric_scooter", "is_disabled": 0, "lat": 38.90724216666667, "rental_uris": {"ios": "https://dc.lft.to/lastmile_qr_scan", "android": "https://dc.lft.to/lastmile_qr_scan"}, "is_reserved": 0, "fusion_lon": 0.0, "fusion_lat": 0.0, "lon": -77.0289065, "name": "5b6de9d868c985df893e6915c193fd9d"}, {"bike_id": "9d4373a294b9a26bc89868ecb297718d", "type": "electric_scooter", "is_disabled": 0, "lat": 38.9274605, "rental_uris": {"ios": "https://dc.lft.to/lastmile_qr_scan", "android": "https://dc.lft.to/lastmile_qr_scan"}, "is_reserved": 0, "fusion_lon": 0.0, "fusion_lat": 0.0, "lon": -77.025344, "name": "9d4373a294b9a26bc89868ecb297718d"}, {"bike_id": "05db58d27d59dfe534ccea54667923ac", "type": "electric_scooter", "is_disabled": 0, "lat": 38.91117283333333, "rental_uris": {"ios": "https://dc.lft.to/lastmile_qr_scan", "android": "https://dc.lft.to/lastmile_qr_scan"}, "is_reserved": 0, "fusion_lon": 0.0, "fusion_lat": 0.0, "lon": -77.04724733333333, "name": "05db58d27d59dfe534ccea54667923ac"}, {"bike_id": "f0e25439f768acfa848bd5282cc69d56", "type": "electric_scooter", "is_disabled": 0, "lat": 38.9073905, "rental_uris": {"ios": "https://dc.lft.to/lastmile_qr_scan", "android": "https://dc.lft.to/lastmile_qr_scan"}, "is_reserved": 0, "fusion_lon": 0.0, "fusion_lat": 0.0, "lon": -77.021849, "name": "f0e25439f768acfa848bd5282cc69d56"}, {"bike_id": "48cc46a7326f22cf3bda778b734c7d03", "type": "electric_scooter", "is_disabled": 0, "lat": 38.897418333333334, "rental_uris": {"ios": "https://dc.lft.to/lastmile_qr_scan", "android": "https://dc.lft.to/lastmile_qr_scan"}, "is_reserved": 0, "fusion_lon": 0.0, "fusion_lat": 0.0, "lon": -77.00357616666666, "name": "48cc46a7326f22cf3bda778b734c7d03"}, {"bike_id": "6a2f020b1adeca6de64850c24d932822", "type": "electric_scooter", "is_disabled": 0, "lat": 38.92390366666667, "rental_uris": {"ios": "https://dc.lft.to/lastmile_qr_scan", "android": "https://dc.lft.to/lastmile_qr_scan"}, "is_reserved": 0, "fusion_lon": 0.0, "fusion_lat": 0.0, "lon": -77.04453916666667, "name": "6a2f020b1adeca6de64850c24d932822"}, {"bike_id": "78630e7f9b497049b718ea82caae4c5f", "type": "electric_scooter", "is_disabled": 0, "lat": 38.92049316666667, "rental_uris": {"ios": "https://dc.lft.to/lastmile_qr_scan", "android": "https://dc.lft.to/lastmile_qr_scan"}, "is_reserved": 0, "fusion_lon": 0.0, "fusion_lat": 0.0, "lon": -77.03254416666667, "name": "78630e7f9b497049b718ea82caae4c5f"}, {"bike_id": "e603edf7c83fa3ece609806f850fd668", "type": "electric_scooter", "is_disabled": 0, "lat": 38.90202083333333, "rental_uris": {"ios": "https://dc.lft.to/lastmile_qr_scan", "android": "https://dc.lft.to/lastmile_qr_scan"}, "is_reserved": 0, "fusion_lon": 0.0, "fusion_lat": 0.0, "lon": -77.02179216666667, "name": "e603edf7c83fa3ece609806f850fd668"}, {"bike_id": "eff96eabe41bfcba870ec3c17e2580b3", "type": "electric_scooter", "is_disabled": 0, "lat": 38.9428905, "rental_uris": {"ios": "https://dc.lft.to/lastmile_qr_scan", "android": "https://dc.lft.to/lastmile_qr_scan"}, "is_reserved": 0, "fusion_lon": 0.0, "fusion_lat": 0.0, "lon": -77.021742, "name": "eff96eabe41bfcba870ec3c17e2580b3"}, {"bike_id": "2723098c793a5c78ac8708a2c456c6fe", "type": "electric_scooter", "is_disabled": 0, "lat": 38.907263666666665, "rental_uris": {"ios": "https://dc.lft.to/lastmile_qr_scan", "android": "https://dc.lft.to/lastmile_qr_scan"}, "is_reserved": 0, "fusion_lon": 0.0, "fusion_lat": 0.0, "lon": -77.04027683333334, "name": "2723098c793a5c78ac8708a2c456c6fe"}, {"bike_id": "926c300d488c84e178374b4c36152240", "type": "electric_scooter", "is_disabled": 0, "lat": 38.89743566666667, "rental_uris": {"ios": "https://dc.lft.to/lastmile_qr_scan", "android": "https://dc.lft.to/lastmile_qr_scan"}, "is_reserved": 0, "fusion_lon": 0.0, "fusion_lat": 0.0, "lon": -76.97971316666667, "name": "926c300d488c84e178374b4c36152240"}, {"bike_id": "17de2fce8d9a0455d61c1e6a35550497", "type": "electric_scooter", "is_disabled": 0, "lat": 38.92493116666667, "rental_uris": {"ios": "https://dc.lft.to/lastmile_qr_scan", "android": "https://dc.lft.to/lastmile_qr_scan"}, "is_reserved": 0, "fusion_lon": 0.0, "fusion_lat": 0.0, "lon": -77.05116083333333, "name": "17de2fce8d9a0455d61c1e6a35550497"}, {"bike_id": "a0ec5bbc5a547022103a5ce80e32ec6a", "type": "electric_bike", "is_disabled": 0, "lat": 38.8535455, "rental_uris": {"ios": "https://dc.lft.to/lastmile_qr_scan", "android": "https://dc.lft.to/lastmile_qr_scan"}, "is_reserved": 0, "fusion_lon": 0.0, "fusion_lat": 0.0, "lon": -77.1346795, "name": "a0ec5bbc5a547022103a5ce80e32ec6a"}, {"bike_id": "01e8ed4af90404c1db1ae6597a01a1df", "type": "electric_scooter", "is_disabled": 0, "lat": 38.93203533333333, "rental_uris": {"ios": "https://dc.lft.to/lastmile_qr_scan", "android": "https://dc.lft.to/lastmile_qr_scan"}, "is_reserved": 0, "fusion_lon": 0.0, "fusion_lat": 0.0, "lon": -77.02386866666667, "name": "01e8ed4af90404c1db1ae6597a01a1df"}, {"bike_id": "7449a69516a267f530244bd027fc1b30", "type": "electric_scooter", "is_disabled": 0, "lat": 38.887090666666666, "rental_uris": {"ios": "https://dc.lft.to/lastmile_qr_scan", "android": "https://dc.lft.to/lastmile_qr_scan"}, "is_reserved": 0, "fusion_lon": 0.0, "fusion_lat": 0.0, "lon": -77.01776, "name": "7449a69516a267f530244bd027fc1b30"}, {"bike_id": "5dd6479578feb154def661b9f9791a8e", "type": "electric_scooter", "is_disabled": 0, "lat": 38.90817966666667, "rental_uris": {"ios": "https://dc.lft.to/lastmile_qr_scan", "android": "https://dc.lft.to/lastmile_qr_scan"}, "is_reserved": 0, "fusion_lon": 0.0, "fusion_lat": 0.0, "lon": -76.99712616666666, "name": "5dd6479578feb154def661b9f9791a8e"}, {"bike_id": "2de2f7c048db01e7f4d8b44217899f1a", "type": "electric_scooter", "is_disabled": 0, "lat": 38.923270333333335, "rental_uris": {"ios": "https://dc.lft.to/lastmile_qr_scan", "android": "https://dc.lft.to/lastmile_qr_scan"}, "is_reserved": 0, "fusion_lon": 0.0, "fusion_lat": 0.0, "lon": -77.046207, "name": "2de2f7c048db01e7f4d8b44217899f1a"}, {"bike_id": "ea8db20baf40dd1c97ddb1f8c46aa036", "type": "electric_scooter", "is_disabled": 0, "lat": 38.91771383333333, "rental_uris": {"ios": "https://dc.lft.to/lastmile_qr_scan", "android": "https://dc.lft.to/lastmile_qr_scan"}, "is_reserved": 0, "fusion_lon": 0.0, "fusion_lat": 0.0, "lon": -77.02949366666667, "name": "ea8db20baf40dd1c97ddb1f8c46aa036"}, {"bike_id": "14d0abbb156b65196af475cc10b4a641", "type": "electric_bike", "is_disabled": 0, "lat": 39.013701, "rental_uris": {"ios": "https://dc.lft.to/lastmile_qr_scan", "android": "https://dc.lft.to/lastmile_qr_scan"}, "is_reserved": 0, "fusion_lon": 0.0, "fusion_lat": 0.0, "lon": -76.92134766666666, "name": "14d0abbb156b65196af475cc10b4a641"}, {"bike_id": "0d30a0bb905a551d2d31aa546f954a66", "type": "electric_scooter", "is_disabled": 0, "lat": 38.88403566666667, "rental_uris": {"ios": "https://dc.lft.to/lastmile_qr_scan", "android": "https://dc.lft.to/lastmile_qr_scan"}, "is_reserved": 0, "fusion_lon": 0.0, "fusion_lat": 0.0, "lon": -77.0299945, "name": "0d30a0bb905a551d2d31aa546f954a66"}, {"bike_id": "ebd4f8f02308611ab748a078cdcfe0a2", "type": "electric_scooter", "is_disabled": 0, "lat": 38.92333516666667, "rental_uris": {"ios": "https://dc.lft.to/lastmile_qr_scan", "android": "https://dc.lft.to/lastmile_qr_scan"}, "is_reserved": 0, "fusion_lon": 0.0, "fusion_lat": 0.0, "lon": -77.02302333333333, "name": "ebd4f8f02308611ab748a078cdcfe0a2"}, {"bike_id": "64eac212069e1fe1c1789c41a23d4271", "type": "electric_scooter", "is_disabled": 0, "lat": 38.91417716666667, "rental_uris": {"ios": "https://dc.lft.to/lastmile_qr_scan", "android": "https://dc.lft.to/lastmile_qr_scan"}, "is_reserved": 0, "fusion_lon": 0.0, "fusion_lat": 0.0, "lon": -77.01989033333334, "name": "64eac212069e1fe1c1789c41a23d4271"}, {"bike_id": "1135c6e451d41aa50a6883759f19a9bb", "type": "electric_scooter", "is_disabled": 0, "lat": 38.91254516666667, "rental_uris": {"ios": "https://dc.lft.to/lastmile_qr_scan", "android": "https://dc.lft.to/lastmile_qr_scan"}, "is_reserved": 0, "fusion_lon": 0.0, "fusion_lat": 0.0, "lon": -77.01230666666666, "name": "1135c6e451d41aa50a6883759f19a9bb"}, {"bike_id": "f7be1b1a89220e66cfbd5a7ad0c3600f", "type": "electric_scooter", "is_disabled": 0, "lat": 38.92233816666667, "rental_uris": {"ios": "https://dc.lft.to/lastmile_qr_scan", "android": "https://dc.lft.to/lastmile_qr_scan"}, "is_reserved": 0, "fusion_lon": 0.0, "fusion_lat": 0.0, "lon": -77.04247533333333, "name": "f7be1b1a89220e66cfbd5a7ad0c3600f"}, {"bike_id": "dc2038796defd0b18acc6dc4c40700e7", "type": "electric_scooter", "is_disabled": 0, "lat": 38.915675666666665, "rental_uris": {"ios": "https://dc.lft.to/lastmile_qr_scan", "android": "https://dc.lft.to/lastmile_qr_scan"}, "is_reserved": 0, "fusion_lon": 0.0, "fusion_lat": 0.0, "lon": -77.0201785, "name": "dc2038796defd0b18acc6dc4c40700e7"}, {"bike_id": "df7a3a430b4befd05b5b94076e42b7aa", "type": "electric_scooter", "is_disabled": 0, "lat": 38.885335166666664, "rental_uris": {"ios": "https://dc.lft.to/lastmile_qr_scan", "android": "https://dc.lft.to/lastmile_qr_scan"}, "is_reserved": 0, "fusion_lon": 0.0, "fusion_lat": 0.0, "lon": -76.9983325, "name": "df7a3a430b4befd05b5b94076e42b7aa"}, {"bike_id": "8d9950bba99029e6d2b5639f3c1c17d5", "type": "electric_scooter", "is_disabled": 0, "lat": 38.92072266666667, "rental_uris": {"ios": "https://dc.lft.to/lastmile_qr_scan", "android": "https://dc.lft.to/lastmile_qr_scan"}, "is_reserved": 0, "fusion_lon": 0.0, "fusion_lat": 0.0, "lon": -77.0418885, "name": "8d9950bba99029e6d2b5639f3c1c17d5"}, {"bike_id": "857d2ccfbcfc1e1999ef1df734997243", "type": "electric_scooter", "is_disabled": 0, "lat": 38.923818833333335, "rental_uris": {"ios": "https://dc.lft.to/lastmile_qr_scan", "android": "https://dc.lft.to/lastmile_qr_scan"}, "is_reserved": 0, "fusion_lon": 0.0, "fusion_lat": 0.0, "lon": -77.02978966666667, "name": "857d2ccfbcfc1e1999ef1df734997243"}, {"bike_id": "8022341913d8fce33acff7303007b8e1", "type": "electric_scooter", "is_disabled": 0, "lat": 38.92326833333333, "rental_uris": {"ios": "https://dc.lft.to/lastmile_qr_scan", "android": "https://dc.lft.to/lastmile_qr_scan"}, "is_reserved": 0, "fusion_lon": 0.0, "fusion_lat": 0.0, "lon": -77.03784983333334, "name": "8022341913d8fce33acff7303007b8e1"}, {"bike_id": "3405eddcf3ca166eb1f288625d6e6ef2", "type": "electric_scooter", "is_disabled": 0, "lat": 38.9206965, "rental_uris": {"ios": "https://dc.lft.to/lastmile_qr_scan", "android": "https://dc.lft.to/lastmile_qr_scan"}, "is_reserved": 0, "fusion_lon": 0.0, "fusion_lat": 0.0, "lon": -77.0240755, "name": "3405eddcf3ca166eb1f288625d6e6ef2"}, {"bike_id": "b501909a2007a1950de1dcd26fd982ce", "type": "electric_scooter", "is_disabled": 0, "lat": 38.9011995, "rental_uris": {"ios": "https://dc.lft.to/lastmile_qr_scan", "android": "https://dc.lft.to/lastmile_qr_scan"}, "is_reserved": 0, "fusion_lon": 0.0, "fusion_lat": 0.0, "lon": -76.92953866666667, "name": "b501909a2007a1950de1dcd26fd982ce"}, {"bike_id": "8b9c92853b4c9c38f0b4cb0bdd0535fd", "type": "electric_scooter", "is_disabled": 0, "lat": 38.9233815, "rental_uris": {"ios": "https://dc.lft.to/lastmile_qr_scan", "android": "https://dc.lft.to/lastmile_qr_scan"}, "is_reserved": 0, "fusion_lon": 0.0, "fusion_lat": 0.0, "lon": -77.05121933333334, "name": "8b9c92853b4c9c38f0b4cb0bdd0535fd"}, {"bike_id": "e3e1ccc24d7e08b836c7f63c41d596f8", "type": "electric_scooter", "is_disabled": 0, "lat": 38.885368, "rental_uris": {"ios": "https://dc.lft.to/lastmile_qr_scan", "android": "https://dc.lft.to/lastmile_qr_scan"}, "is_reserved": 0, "fusion_lon": 0.0, "fusion_lat": 0.0, "lon": -76.99818466666666, "name": "e3e1ccc24d7e08b836c7f63c41d596f8"}, {"bike_id": "6d6fa13ee2e19a989d6144685d62c1a9", "type": "electric_scooter", "is_disabled": 0, "lat": 38.872408, "rental_uris": {"ios": "https://dc.lft.to/lastmile_qr_scan", "android": "https://dc.lft.to/lastmile_qr_scan"}, "is_reserved": 0, "fusion_lon": 0.0, "fusion_lat": 0.0, "lon": -76.97725883333334, "name": "6d6fa13ee2e19a989d6144685d62c1a9"}, {"bike_id": "9b33fc92de4393e4a2820eea9c244aaa", "type": "electric_scooter", "is_disabled": 0, "lat": 38.89956133333333, "rental_uris": {"ios": "https://dc.lft.to/lastmile_qr_scan", "android": "https://dc.lft.to/lastmile_qr_scan"}, "is_reserved": 0, "fusion_lon": 0.0, "fusion_lat": 0.0, "lon": -77.016407, "name": "9b33fc92de4393e4a2820eea9c244aaa"}, {"bike_id": "41ef56cb7122f9cbc2ea07d252e5bab2", "type": "electric_scooter", "is_disabled": 0, "lat": 38.910333, "rental_uris": {"ios": "https://dc.lft.to/lastmile_qr_scan", "android": "https://dc.lft.to/lastmile_qr_scan"}, "is_reserved": 0, "fusion_lon": 0.0, "fusion_lat": 0.0, "lon": -77.03803033333334, "name": "41ef56cb7122f9cbc2ea07d252e5bab2"}, {"bike_id": "597eacb4660862c76364996f11450c81", "type": "electric_scooter", "is_disabled": 0, "lat": 38.919231833333335, "rental_uris": {"ios": "https://dc.lft.to/lastmile_qr_scan", "android": "https://dc.lft.to/lastmile_qr_scan"}, "is_reserved": 0, "fusion_lon": 0.0, "fusion_lat": 0.0, "lon": -77.0310885, "name": "597eacb4660862c76364996f11450c81"}, {"bike_id": "45307df250b65ad8b317dbcd9f65a96e", "type": "electric_scooter", "is_disabled": 0, "lat": 38.916916, "rental_uris": {"ios": "https://dc.lft.to/lastmile_qr_scan", "android": "https://dc.lft.to/lastmile_qr_scan"}, "is_reserved": 0, "fusion_lon": 0.0, "fusion_lat": 0.0, "lon": -77.025995, "name": "45307df250b65ad8b317dbcd9f65a96e"}, {"bike_id": "f454caffd49568a2060a928ad8942a57", "type": "electric_scooter", "is_disabled": 0, "lat": 38.9578865, "rental_uris": {"ios": "https://dc.lft.to/lastmile_qr_scan", "android": "https://dc.lft.to/lastmile_qr_scan"}, "is_reserved": 0, "fusion_lon": 0.0, "fusion_lat": 0.0, "lon": -77.03216283333333, "name": "f454caffd49568a2060a928ad8942a57"}, {"bike_id": "9cc9604118142e4c29a135f4c49b9392", "type": "electric_bike", "is_disabled": 0, "lat": 38.9739905, "rental_uris": {"ios": "https://dc.lft.to/lastmile_qr_scan", "android": "https://dc.lft.to/lastmile_qr_scan"}, "is_reserved": 0, "fusion_lon": 0.0, "fusion_lat": 0.0, "lon": -77.0645585, "name": "9cc9604118142e4c29a135f4c49b9392"}, {"bike_id": "6b13ee8ea228960fe1b60d5030f4a6da", "type": "electric_scooter", "is_disabled": 0, "lat": 38.90297416666667, "rental_uris": {"ios": "https://dc.lft.to/lastmile_qr_scan", "android": "https://dc.lft.to/lastmile_qr_scan"}, "is_reserved": 0, "fusion_lon": 0.0, "fusion_lat": 0.0, "lon": -77.06536133333333, "name": "6b13ee8ea228960fe1b60d5030f4a6da"}, {"bike_id": "2e42bdb0982e89516834ae83a555dfbf", "type": "electric_scooter", "is_disabled": 0, "lat": 38.907733666666665, "rental_uris": {"ios": "https://dc.lft.to/lastmile_qr_scan", "android": "https://dc.lft.to/lastmile_qr_scan"}, "is_reserved": 0, "fusion_lon": 0.0, "fusion_lat": 0.0, "lon": -77.04349483333333, "name": "2e42bdb0982e89516834ae83a555dfbf"}, {"bike_id": "482471e1e0baf084a320af9ddc6f20fa", "type": "electric_scooter", "is_disabled": 0, "lat": 38.93071366666667, "rental_uris": {"ios": "https://dc.lft.to/lastmile_qr_scan", "android": "https://dc.lft.to/lastmile_qr_scan"}, "is_reserved": 0, "fusion_lon": 0.0, "fusion_lat": 0.0, "lon": -77.02128383333333, "name": "482471e1e0baf084a320af9ddc6f20fa"}, {"bike_id": "8d1b58145cb67dd9cb91eea84061781d", "type": "electric_scooter", "is_disabled": 0, "lat": 38.91858383333334, "rental_uris": {"ios": "https://dc.lft.to/lastmile_qr_scan", "android": "https://dc.lft.to/lastmile_qr_scan"}, "is_reserved": 0, "fusion_lon": 0.0, "fusion_lat": 0.0, "lon": -77.04172166666666, "name": "8d1b58145cb67dd9cb91eea84061781d"}, {"bike_id": "50a152ffbd6f47e999046b1aedb72488", "type": "electric_scooter", "is_disabled": 0, "lat": 38.905294166666664, "rental_uris": {"ios": "https://dc.lft.to/lastmile_qr_scan", "android": "https://dc.lft.to/lastmile_qr_scan"}, "is_reserved": 0, "fusion_lon": 0.0, "fusion_lat": 0.0, "lon": -77.031221, "name": "50a152ffbd6f47e999046b1aedb72488"}, {"bike_id": "2a1bcd777272f77bbe19e60589a350ff", "type": "electric_scooter", "is_disabled": 0, "lat": 38.891320666666665, "rental_uris": {"ios": "https://dc.lft.to/lastmile_qr_scan", "android": "https://dc.lft.to/lastmile_qr_scan"}, "is_reserved": 0, "fusion_lon": 0.0, "fusion_lat": 0.0, "lon": -76.9518745, "name": "2a1bcd777272f77bbe19e60589a350ff"}, {"bike_id": "de2cc6471c431be222890d0d6fa3ba79", "type": "electric_scooter", "is_disabled": 0, "lat": 38.91710883333333, "rental_uris": {"ios": "https://dc.lft.to/lastmile_qr_scan", "android": "https://dc.lft.to/lastmile_qr_scan"}, "is_reserved": 0, "fusion_lon": 0.0, "fusion_lat": 0.0, "lon": -77.03828533333333, "name": "de2cc6471c431be222890d0d6fa3ba79"}, {"bike_id": "93a6471c4d8d8209233eaac2163b6264", "type": "electric_scooter", "is_disabled": 0, "lat": 38.913784666666665, "rental_uris": {"ios": "https://dc.lft.to/lastmile_qr_scan", "android": "https://dc.lft.to/lastmile_qr_scan"}, "is_reserved": 0, "fusion_lon": 0.0, "fusion_lat": 0.0, "lon": -77.01217966666667, "name": "93a6471c4d8d8209233eaac2163b6264"}, {"bike_id": "ecd8d25c88b9ee954614b6063ce17d49", "type": "electric_scooter", "is_disabled": 0, "lat": 38.9110365, "rental_uris": {"ios": "https://dc.lft.to/lastmile_qr_scan", "android": "https://dc.lft.to/lastmile_qr_scan"}, "is_reserved": 0, "fusion_lon": 0.0, "fusion_lat": 0.0, "lon": -77.00213, "name": "ecd8d25c88b9ee954614b6063ce17d49"}, {"bike_id": "65e04254523306b9325559564ec23d5e", "type": "electric_scooter", "is_disabled": 0, "lat": 38.91518516666667, "rental_uris": {"ios": "https://dc.lft.to/lastmile_qr_scan", "android": "https://dc.lft.to/lastmile_qr_scan"}, "is_reserved": 0, "fusion_lon": 0.0, "fusion_lat": 0.0, "lon": -77.01981666666667, "name": "65e04254523306b9325559564ec23d5e"}, {"bike_id": "5942d8c707631894807f296669f4e5d8", "type": "electric_scooter", "is_disabled": 0, "lat": 38.903774166666665, "rental_uris": {"ios": "https://dc.lft.to/lastmile_qr_scan", "android": "https://dc.lft.to/lastmile_qr_scan"}, "is_reserved": 0, "fusion_lon": 0.0, "fusion_lat": 0.0, "lon": -76.98209016666667, "name": "5942d8c707631894807f296669f4e5d8"}, {"bike_id": "587ec6d8572d69d250ce532d4c0adb36", "type": "electric_scooter", "is_disabled": 0, "lat": 38.92026366666666, "rental_uris": {"ios": "https://dc.lft.to/lastmile_qr_scan", "android": "https://dc.lft.to/lastmile_qr_scan"}, "is_reserved": 0, "fusion_lon": 0.0, "fusion_lat": 0.0, "lon": -77.00196533333333, "name": "587ec6d8572d69d250ce532d4c0adb36"}, {"bike_id": "4d4235ef67ee0d0945ccb11f165d4a3c", "type": "electric_scooter", "is_disabled": 0, "lat": 38.90651166666667, "rental_uris": {"ios": "https://dc.lft.to/lastmile_qr_scan", "android": "https://dc.lft.to/lastmile_qr_scan"}, "is_reserved": 0, "fusion_lon": 0.0, "fusion_lat": 0.0, "lon": -77.04289533333333, "name": "4d4235ef67ee0d0945ccb11f165d4a3c"}, {"bike_id": "10a55bd91edaae51ff98d05d4865541b", "type": "electric_scooter", "is_disabled": 0, "lat": 38.9077125, "rental_uris": {"ios": "https://dc.lft.to/lastmile_qr_scan", "android": "https://dc.lft.to/lastmile_qr_scan"}, "is_reserved": 0, "fusion_lon": 0.0, "fusion_lat": 0.0, "lon": -77.05799616666667, "name": "10a55bd91edaae51ff98d05d4865541b"}, {"bike_id": "72143b3e8563f9e36f8bacef2fbab94a", "type": "electric_scooter", "is_disabled": 0, "lat": 38.927621, "rental_uris": {"ios": "https://dc.lft.to/lastmile_qr_scan", "android": "https://dc.lft.to/lastmile_qr_scan"}, "is_reserved": 0, "fusion_lon": 0.0, "fusion_lat": 0.0, "lon": -77.05644933333333, "name": "72143b3e8563f9e36f8bacef2fbab94a"}, {"bike_id": "02a8cf004678ea26c72a33dea0f6cb2f", "type": "electric_scooter", "is_disabled": 0, "lat": 38.896756333333336, "rental_uris": {"ios": "https://dc.lft.to/lastmile_qr_scan", "android": "https://dc.lft.to/lastmile_qr_scan"}, "is_reserved": 0, "fusion_lon": 0.0, "fusion_lat": 0.0, "lon": -77.005151, "name": "02a8cf004678ea26c72a33dea0f6cb2f"}, {"bike_id": "57b1156d855cc41cb5b733b2e0bfd9ed", "type": "electric_scooter", "is_disabled": 0, "lat": 38.922485333333334, "rental_uris": {"ios": "https://dc.lft.to/lastmile_qr_scan", "android": "https://dc.lft.to/lastmile_qr_scan"}, "is_reserved": 0, "fusion_lon": 0.0, "fusion_lat": 0.0, "lon": -77.04013216666667, "name": "57b1156d855cc41cb5b733b2e0bfd9ed"}, {"bike_id": "68ca07ce9e4049581c1a2a0c8598f954", "type": "electric_scooter", "is_disabled": 0, "lat": 38.9084425, "rental_uris": {"ios": "https://dc.lft.to/lastmile_qr_scan", "android": "https://dc.lft.to/lastmile_qr_scan"}, "is_reserved": 0, "fusion_lon": 0.0, "fusion_lat": 0.0, "lon": -77.02697316666666, "name": "68ca07ce9e4049581c1a2a0c8598f954"}, {"bike_id": "2677352c38c168841eb3bd9d648b8e59", "type": "electric_scooter", "is_disabled": 0, "lat": 38.914185833333335, "rental_uris": {"ios": "https://dc.lft.to/lastmile_qr_scan", "android": "https://dc.lft.to/lastmile_qr_scan"}, "is_reserved": 0, "fusion_lon": 0.0, "fusion_lat": 0.0, "lon": -77.02812666666667, "name": "2677352c38c168841eb3bd9d648b8e59"}, {"bike_id": "8663da908b63e4ddb178f98d0d848a25", "type": "electric_scooter", "is_disabled": 0, "lat": 38.88736766666667, "rental_uris": {"ios": "https://dc.lft.to/lastmile_qr_scan", "android": "https://dc.lft.to/lastmile_qr_scan"}, "is_reserved": 0, "fusion_lon": 0.0, "fusion_lat": 0.0, "lon": -77.015328, "name": "8663da908b63e4ddb178f98d0d848a25"}, {"bike_id": "e8d1de286d2c89dcbe6ba6fb4945c22f", "type": "electric_scooter", "is_disabled": 0, "lat": 38.838296166666666, "rental_uris": {"ios": "https://dc.lft.to/lastmile_qr_scan", "android": "https://dc.lft.to/lastmile_qr_scan"}, "is_reserved": 0, "fusion_lon": 0.0, "fusion_lat": 0.0, "lon": -77.002743, "name": "e8d1de286d2c89dcbe6ba6fb4945c22f"}, {"bike_id": "8cebdf1494ec635ac40994397529329d", "type": "electric_scooter", "is_disabled": 0, "lat": 38.91750183333333, "rental_uris": {"ios": "https://dc.lft.to/lastmile_qr_scan", "android": "https://dc.lft.to/lastmile_qr_scan"}, "is_reserved": 0, "fusion_lon": 0.0, "fusion_lat": 0.0, "lon": -77.02491683333334, "name": "8cebdf1494ec635ac40994397529329d"}, {"bike_id": "09b915c78f1c4516df1455629c1be7ef", "type": "electric_scooter", "is_disabled": 0, "lat": 38.90472116666667, "rental_uris": {"ios": "https://dc.lft.to/lastmile_qr_scan", "android": "https://dc.lft.to/lastmile_qr_scan"}, "is_reserved": 0, "fusion_lon": 0.0, "fusion_lat": 0.0, "lon": -77.0072255, "name": "09b915c78f1c4516df1455629c1be7ef"}, {"bike_id": "bce072d35767c052549821b8a29fa979", "type": "electric_scooter", "is_disabled": 0, "lat": 38.9330135, "rental_uris": {"ios": "https://dc.lft.to/lastmile_qr_scan", "android": "https://dc.lft.to/lastmile_qr_scan"}, "is_reserved": 0, "fusion_lon": 0.0, "fusion_lat": 0.0, "lon": -77.03273333333334, "name": "bce072d35767c052549821b8a29fa979"}, {"bike_id": "9e9b6bd570dc44c573ff2803d95136c5", "type": "electric_scooter", "is_disabled": 0, "lat": 38.91271066666667, "rental_uris": {"ios": "https://dc.lft.to/lastmile_qr_scan", "android": "https://dc.lft.to/lastmile_qr_scan"}, "is_reserved": 0, "fusion_lon": 0.0, "fusion_lat": 0.0, "lon": -77.0366325, "name": "9e9b6bd570dc44c573ff2803d95136c5"}, {"bike_id": "254019dcfc029f96d1387fc37d42c2ea", "type": "electric_scooter", "is_disabled": 0, "lat": 38.89664033333333, "rental_uris": {"ios": "https://dc.lft.to/lastmile_qr_scan", "android": "https://dc.lft.to/lastmile_qr_scan"}, "is_reserved": 0, "fusion_lon": 0.0, "fusion_lat": 0.0, "lon": -77.02392266666666, "name": "254019dcfc029f96d1387fc37d42c2ea"}, {"bike_id": "09469cce8e6fede72b1462e8902cd6c3", "type": "electric_scooter", "is_disabled": 0, "lat": 38.921575833333335, "rental_uris": {"ios": "https://dc.lft.to/lastmile_qr_scan", "android": "https://dc.lft.to/lastmile_qr_scan"}, "is_reserved": 0, "fusion_lon": 0.0, "fusion_lat": 0.0, "lon": -77.033152, "name": "09469cce8e6fede72b1462e8902cd6c3"}, {"bike_id": "58898e4a800be3d2515091015034ed27", "type": "electric_scooter", "is_disabled": 0, "lat": 38.915673, "rental_uris": {"ios": "https://dc.lft.to/lastmile_qr_scan", "android": "https://dc.lft.to/lastmile_qr_scan"}, "is_reserved": 0, "fusion_lon": 0.0, "fusion_lat": 0.0, "lon": -77.020166, "name": "58898e4a800be3d2515091015034ed27"}, {"bike_id": "b668135770aeebc10e20dfa77f011540", "type": "electric_scooter", "is_disabled": 0, "lat": 38.887416, "rental_uris": {"ios": "https://dc.lft.to/lastmile_qr_scan", "android": "https://dc.lft.to/lastmile_qr_scan"}, "is_reserved": 0, "fusion_lon": 0.0, "fusion_lat": 0.0, "lon": -77.02836833333333, "name": "b668135770aeebc10e20dfa77f011540"}, {"bike_id": "9c889850ed6afd12915a93336b363733", "type": "electric_scooter", "is_disabled": 0, "lat": 38.924842166666664, "rental_uris": {"ios": "https://dc.lft.to/lastmile_qr_scan", "android": "https://dc.lft.to/lastmile_qr_scan"}, "is_reserved": 0, "fusion_lon": 0.0, "fusion_lat": 0.0, "lon": -77.02195366666666, "name": "9c889850ed6afd12915a93336b363733"}, {"bike_id": "772c52e2b59d6a51f65a944b0d5e37d5", "type": "electric_scooter", "is_disabled": 0, "lat": 38.914155, "rental_uris": {"ios": "https://dc.lft.to/lastmile_qr_scan", "android": "https://dc.lft.to/lastmile_qr_scan"}, "is_reserved": 0, "fusion_lon": 0.0, "fusion_lat": 0.0, "lon": -77.01230533333333, "name": "772c52e2b59d6a51f65a944b0d5e37d5"}, {"bike_id": "5556eda0db88bd74169753e1196ab1bc", "type": "electric_scooter", "is_disabled": 0, "lat": 38.918610666666666, "rental_uris": {"ios": "https://dc.lft.to/lastmile_qr_scan", "android": "https://dc.lft.to/lastmile_qr_scan"}, "is_reserved": 0, "fusion_lon": 0.0, "fusion_lat": 0.0, "lon": -77.04168783333333, "name": "5556eda0db88bd74169753e1196ab1bc"}, {"bike_id": "2123faf3d403c2298d96b753580f5220", "type": "electric_scooter", "is_disabled": 0, "lat": 38.928450833333336, "rental_uris": {"ios": "https://dc.lft.to/lastmile_qr_scan", "android": "https://dc.lft.to/lastmile_qr_scan"}, "is_reserved": 0, "fusion_lon": 0.0, "fusion_lat": 0.0, "lon": -77.03597166666667, "name": "2123faf3d403c2298d96b753580f5220"}, {"bike_id": "8f6f75f041a51a2332b06de463cc6aee", "type": "electric_scooter", "is_disabled": 0, "lat": 38.853229666666664, "rental_uris": {"ios": "https://dc.lft.to/lastmile_qr_scan", "android": "https://dc.lft.to/lastmile_qr_scan"}, "is_reserved": 0, "fusion_lon": 0.0, "fusion_lat": 0.0, "lon": -76.98031633333333, "name": "8f6f75f041a51a2332b06de463cc6aee"}, {"bike_id": "6422fe25ddaa21241af1ca79459315be", "type": "electric_scooter", "is_disabled": 0, "lat": 38.878649, "rental_uris": {"ios": "https://dc.lft.to/lastmile_qr_scan", "android": "https://dc.lft.to/lastmile_qr_scan"}, "is_reserved": 0, "fusion_lon": 0.0, "fusion_lat": 0.0, "lon": -76.9698365, "name": "6422fe25ddaa21241af1ca79459315be"}, {"bike_id": "20cadb46d417b6c79c04440ff88ec946", "type": "electric_scooter", "is_disabled": 0, "lat": 38.907437333333334, "rental_uris": {"ios": "https://dc.lft.to/lastmile_qr_scan", "android": "https://dc.lft.to/lastmile_qr_scan"}, "is_reserved": 0, "fusion_lon": 0.0, "fusion_lat": 0.0, "lon": -77.02388266666667, "name": "20cadb46d417b6c79c04440ff88ec946"}, {"bike_id": "4b2929f1fb6372fd67ef4bd31f0c9218", "type": "electric_scooter", "is_disabled": 0, "lat": 38.888482833333335, "rental_uris": {"ios": "https://dc.lft.to/lastmile_qr_scan", "android": "https://dc.lft.to/lastmile_qr_scan"}, "is_reserved": 0, "fusion_lon": 0.0, "fusion_lat": 0.0, "lon": -76.92680583333333, "name": "4b2929f1fb6372fd67ef4bd31f0c9218"}, {"bike_id": "776019193b3b2f241f7a5e2262130a8e", "type": "electric_scooter", "is_disabled": 0, "lat": 38.87418666666667, "rental_uris": {"ios": "https://dc.lft.to/lastmile_qr_scan", "android": "https://dc.lft.to/lastmile_qr_scan"}, "is_reserved": 0, "fusion_lon": 0.0, "fusion_lat": 0.0, "lon": -76.96910533333333, "name": "776019193b3b2f241f7a5e2262130a8e"}, {"bike_id": "55b83cb1d83300cf325e1f42843a9b45", "type": "electric_scooter", "is_disabled": 0, "lat": 38.92469766666667, "rental_uris": {"ios": "https://dc.lft.to/lastmile_qr_scan", "android": "https://dc.lft.to/lastmile_qr_scan"}, "is_reserved": 0, "fusion_lon": 0.0, "fusion_lat": 0.0, "lon": -77.02835183333333, "name": "55b83cb1d83300cf325e1f42843a9b45"}, {"bike_id": "dbfe75be498e15ee6f2c1c67c49ad89f", "type": "electric_scooter", "is_disabled": 0, "lat": 38.92908466666667, "rental_uris": {"ios": "https://dc.lft.to/lastmile_qr_scan", "android": "https://dc.lft.to/lastmile_qr_scan"}, "is_reserved": 0, "fusion_lon": 0.0, "fusion_lat": 0.0, "lon": -77.020888, "name": "dbfe75be498e15ee6f2c1c67c49ad89f"}, {"bike_id": "60c5ae7986216c890d45e7fa11eabb8c", "type": "electric_bike", "is_disabled": 0, "lat": 38.89746816666667, "rental_uris": {"ios": "https://dc.lft.to/lastmile_qr_scan", "android": "https://dc.lft.to/lastmile_qr_scan"}, "is_reserved": 0, "fusion_lon": 0.0, "fusion_lat": 0.0, "lon": -77.02637116666666, "name": "60c5ae7986216c890d45e7fa11eabb8c"}, {"bike_id": "62419473a485ec06ab20ec87fcef25e0", "type": "electric_bike", "is_disabled": 0, "lat": 38.91424283333333, "rental_uris": {"ios": "https://dc.lft.to/lastmile_qr_scan", "android": "https://dc.lft.to/lastmile_qr_scan"}, "is_reserved": 0, "fusion_lon": 0.0, "fusion_lat": 0.0, "lon": -77.038205, "name": "62419473a485ec06ab20ec87fcef25e0"}, {"bike_id": "d7d6a1e7d565afaca8cf5b1b64e9c07b", "type": "electric_scooter", "is_disabled": 0, "lat": 38.8668295, "rental_uris": {"ios": "https://dc.lft.to/lastmile_qr_scan", "android": "https://dc.lft.to/lastmile_qr_scan"}, "is_reserved": 0, "fusion_lon": 0.0, "fusion_lat": 0.0, "lon": -76.98576566666667, "name": "d7d6a1e7d565afaca8cf5b1b64e9c07b"}, {"bike_id": "f9eb24b3dfbe687066caa9d940e6b47d", "type": "electric_scooter", "is_disabled": 0, "lat": 38.907610166666664, "rental_uris": {"ios": "https://dc.lft.to/lastmile_qr_scan", "android": "https://dc.lft.to/lastmile_qr_scan"}, "is_reserved": 0, "fusion_lon": 0.0, "fusion_lat": 0.0, "lon": -77.028067, "name": "f9eb24b3dfbe687066caa9d940e6b47d"}, {"bike_id": "079d1f05d0645efb3f41352de971be6c", "type": "electric_scooter", "is_disabled": 0, "lat": 38.866841666666666, "rental_uris": {"ios": "https://dc.lft.to/lastmile_qr_scan", "android": "https://dc.lft.to/lastmile_qr_scan"}, "is_reserved": 0, "fusion_lon": 0.0, "fusion_lat": 0.0, "lon": -76.985767, "name": "079d1f05d0645efb3f41352de971be6c"}, {"bike_id": "97ec430b265b5b1d406507bbf3581ac8", "type": "electric_scooter", "is_disabled": 0, "lat": 38.9573135, "rental_uris": {"ios": "https://dc.lft.to/lastmile_qr_scan", "android": "https://dc.lft.to/lastmile_qr_scan"}, "is_reserved": 0, "fusion_lon": 0.0, "fusion_lat": 0.0, "lon": -77.024009, "name": "97ec430b265b5b1d406507bbf3581ac8"}, {"bike_id": "6ae16ed885dd23b966feb1bb9eaa496b", "type": "electric_scooter", "is_disabled": 0, "lat": 38.92319333333333, "rental_uris": {"ios": "https://dc.lft.to/lastmile_qr_scan", "android": "https://dc.lft.to/lastmile_qr_scan"}, "is_reserved": 0, "fusion_lon": 0.0, "fusion_lat": 0.0, "lon": -77.021375, "name": "6ae16ed885dd23b966feb1bb9eaa496b"}, {"bike_id": "66b5f45220d855ac8aa1e71f664d849f", "type": "electric_scooter", "is_disabled": 0, "lat": 38.898286666666664, "rental_uris": {"ios": "https://dc.lft.to/lastmile_qr_scan", "android": "https://dc.lft.to/lastmile_qr_scan"}, "is_reserved": 0, "fusion_lon": 0.0, "fusion_lat": 0.0, "lon": -76.91955766666666, "name": "66b5f45220d855ac8aa1e71f664d849f"}, {"bike_id": "4d4686773ef71329d22caea2bca4eaef", "type": "electric_scooter", "is_disabled": 0, "lat": 38.94287683333334, "rental_uris": {"ios": "https://dc.lft.to/lastmile_qr_scan", "android": "https://dc.lft.to/lastmile_qr_scan"}, "is_reserved": 0, "fusion_lon": 0.0, "fusion_lat": 0.0, "lon": -77.036208, "name": "4d4686773ef71329d22caea2bca4eaef"}, {"bike_id": "57615286f5aa084755857ff64581637a", "type": "electric_scooter", "is_disabled": 0, "lat": 38.923137, "rental_uris": {"ios": "https://dc.lft.to/lastmile_qr_scan", "android": "https://dc.lft.to/lastmile_qr_scan"}, "is_reserved": 0, "fusion_lon": 0.0, "fusion_lat": 0.0, "lon": -77.040136, "name": "57615286f5aa084755857ff64581637a"}, {"bike_id": "d2d4efe8aedda9f029eab3de5d7ea73e", "type": "electric_scooter", "is_disabled": 0, "lat": 38.88383866666667, "rental_uris": {"ios": "https://dc.lft.to/lastmile_qr_scan", "android": "https://dc.lft.to/lastmile_qr_scan"}, "is_reserved": 0, "fusion_lon": 0.0, "fusion_lat": 0.0, "lon": -77.01769633333333, "name": "d2d4efe8aedda9f029eab3de5d7ea73e"}, {"bike_id": "454f4f145af42ac4d512e49fcd55f324", "type": "electric_scooter", "is_disabled": 0, "lat": 38.887368, "rental_uris": {"ios": "https://dc.lft.to/lastmile_qr_scan", "android": "https://dc.lft.to/lastmile_qr_scan"}, "is_reserved": 0, "fusion_lon": 0.0, "fusion_lat": 0.0, "lon": -77.03217983333333, "name": "454f4f145af42ac4d512e49fcd55f324"}, {"bike_id": "fb4ac395c101a594f082d58dc0c75b43", "type": "electric_scooter", "is_disabled": 0, "lat": 38.917056333333335, "rental_uris": {"ios": "https://dc.lft.to/lastmile_qr_scan", "android": "https://dc.lft.to/lastmile_qr_scan"}, "is_reserved": 0, "fusion_lon": 0.0, "fusion_lat": 0.0, "lon": -77.09577366666667, "name": "fb4ac395c101a594f082d58dc0c75b43"}, {"bike_id": "5d4c550814733d91a28e42456111984e", "type": "electric_scooter", "is_disabled": 0, "lat": 38.92765683333333, "rental_uris": {"ios": "https://dc.lft.to/lastmile_qr_scan", "android": "https://dc.lft.to/lastmile_qr_scan"}, "is_reserved": 0, "fusion_lon": 0.0, "fusion_lat": 0.0, "lon": -76.98761183333333, "name": "5d4c550814733d91a28e42456111984e"}, {"bike_id": "c6fd6bc0e5a0ae5d2084d4b1abd34b0d", "type": "electric_scooter", "is_disabled": 0, "lat": 38.904201666666665, "rental_uris": {"ios": "https://dc.lft.to/lastmile_qr_scan", "android": "https://dc.lft.to/lastmile_qr_scan"}, "is_reserved": 0, "fusion_lon": 0.0, "fusion_lat": 0.0, "lon": -77.05007916666666, "name": "c6fd6bc0e5a0ae5d2084d4b1abd34b0d"}, {"bike_id": "2f00378225204f7539cf495bde678c41", "type": "electric_scooter", "is_disabled": 0, "lat": 38.9023375, "rental_uris": {"ios": "https://dc.lft.to/lastmile_qr_scan", "android": "https://dc.lft.to/lastmile_qr_scan"}, "is_reserved": 0, "fusion_lon": 0.0, "fusion_lat": 0.0, "lon": -77.06075283333334, "name": "2f00378225204f7539cf495bde678c41"}, {"bike_id": "897d23f0e457afcf2d642d181d40331b", "type": "electric_scooter", "is_disabled": 0, "lat": 38.918237, "rental_uris": {"ios": "https://dc.lft.to/lastmile_qr_scan", "android": "https://dc.lft.to/lastmile_qr_scan"}, "is_reserved": 0, "fusion_lon": 0.0, "fusion_lat": 0.0, "lon": -77.02417466666667, "name": "897d23f0e457afcf2d642d181d40331b"}, {"bike_id": "3912c0dc6088a609373969a72bc3420b", "type": "electric_scooter", "is_disabled": 0, "lat": 38.9078245, "rental_uris": {"ios": "https://dc.lft.to/lastmile_qr_scan", "android": "https://dc.lft.to/lastmile_qr_scan"}, "is_reserved": 0, "fusion_lon": 0.0, "fusion_lat": 0.0, "lon": -77.072518, "name": "3912c0dc6088a609373969a72bc3420b"}, {"bike_id": "2e5fa9ed6ce45d777567ff9915c5ac10", "type": "electric_scooter", "is_disabled": 0, "lat": 38.865051333333334, "rental_uris": {"ios": "https://dc.lft.to/lastmile_qr_scan", "android": "https://dc.lft.to/lastmile_qr_scan"}, "is_reserved": 0, "fusion_lon": 0.0, "fusion_lat": 0.0, "lon": -76.990046, "name": "2e5fa9ed6ce45d777567ff9915c5ac10"}, {"bike_id": "33b36f140f5b466f61fc8e2e7d54b08f", "type": "electric_scooter", "is_disabled": 0, "lat": 38.8999175, "rental_uris": {"ios": "https://dc.lft.to/lastmile_qr_scan", "android": "https://dc.lft.to/lastmile_qr_scan"}, "is_reserved": 0, "fusion_lon": 0.0, "fusion_lat": 0.0, "lon": -77.02342233333333, "name": "33b36f140f5b466f61fc8e2e7d54b08f"}, {"bike_id": "d8731f2904eba48c2578e4225cd2a8fc", "type": "electric_scooter", "is_disabled": 0, "lat": 38.921970333333334, "rental_uris": {"ios": "https://dc.lft.to/lastmile_qr_scan", "android": "https://dc.lft.to/lastmile_qr_scan"}, "is_reserved": 0, "fusion_lon": 0.0, "fusion_lat": 0.0, "lon": -77.02028283333334, "name": "d8731f2904eba48c2578e4225cd2a8fc"}, {"bike_id": "294feb1fe4d33a39e67484b05faefd2b", "type": "electric_scooter", "is_disabled": 0, "lat": 38.90509083333333, "rental_uris": {"ios": "https://dc.lft.to/lastmile_qr_scan", "android": "https://dc.lft.to/lastmile_qr_scan"}, "is_reserved": 0, "fusion_lon": 0.0, "fusion_lat": 0.0, "lon": -77.04070016666667, "name": "294feb1fe4d33a39e67484b05faefd2b"}, {"bike_id": "c254a77341e95b009d87afba311dc0d2", "type": "electric_bike", "is_disabled": 0, "lat": 38.81936066666667, "rental_uris": {"ios": "https://dc.lft.to/lastmile_qr_scan", "android": "https://dc.lft.to/lastmile_qr_scan"}, "is_reserved": 0, "fusion_lon": 0.0, "fusion_lat": 0.0, "lon": -77.0020345, "name": "c254a77341e95b009d87afba311dc0d2"}, {"bike_id": "a08e63702caa0e0f716bce41f24e6cf6", "type": "electric_scooter", "is_disabled": 0, "lat": 38.8922555, "rental_uris": {"ios": "https://dc.lft.to/lastmile_qr_scan", "android": "https://dc.lft.to/lastmile_qr_scan"}, "is_reserved": 0, "fusion_lon": 0.0, "fusion_lat": 0.0, "lon": -77.022635, "name": "a08e63702caa0e0f716bce41f24e6cf6"}, {"bike_id": "faeefb03a2c9cd6071d30b0e68c93fd3", "type": "electric_scooter", "is_disabled": 0, "lat": 38.897588666666664, "rental_uris": {"ios": "https://dc.lft.to/lastmile_qr_scan", "android": "https://dc.lft.to/lastmile_qr_scan"}, "is_reserved": 0, "fusion_lon": 0.0, "fusion_lat": 0.0, "lon": -77.02768783333333, "name": "faeefb03a2c9cd6071d30b0e68c93fd3"}, {"bike_id": "c8833f9f5159b4b25b2cc16d235fabae", "type": "electric_scooter", "is_disabled": 0, "lat": 38.916711, "rental_uris": {"ios": "https://dc.lft.to/lastmile_qr_scan", "android": "https://dc.lft.to/lastmile_qr_scan"}, "is_reserved": 0, "fusion_lon": 0.0, "fusion_lat": 0.0, "lon": -77.03205183333333, "name": "c8833f9f5159b4b25b2cc16d235fabae"}, {"bike_id": "c36acc3e0656c881e00414f0b24d0555", "type": "electric_scooter", "is_disabled": 0, "lat": 38.9254395, "rental_uris": {"ios": "https://dc.lft.to/lastmile_qr_scan", "android": "https://dc.lft.to/lastmile_qr_scan"}, "is_reserved": 0, "fusion_lon": 0.0, "fusion_lat": 0.0, "lon": -77.038625, "name": "c36acc3e0656c881e00414f0b24d0555"}, {"bike_id": "c833ef537f4fdd85cd67a201b9bb4d66", "type": "electric_scooter", "is_disabled": 0, "lat": 38.91931266666667, "rental_uris": {"ios": "https://dc.lft.to/lastmile_qr_scan", "android": "https://dc.lft.to/lastmile_qr_scan"}, "is_reserved": 0, "fusion_lon": 0.0, "fusion_lat": 0.0, "lon": -77.07068216666667, "name": "c833ef537f4fdd85cd67a201b9bb4d66"}, {"bike_id": "6716d92f0f0189e5fd01dd1c199810cd", "type": "electric_scooter", "is_disabled": 0, "lat": 38.956465666666666, "rental_uris": {"ios": "https://dc.lft.to/lastmile_qr_scan", "android": "https://dc.lft.to/lastmile_qr_scan"}, "is_reserved": 0, "fusion_lon": 0.0, "fusion_lat": 0.0, "lon": -77.0240225, "name": "6716d92f0f0189e5fd01dd1c199810cd"}, {"bike_id": "4cde8756d743f29b43e8343cdc910482", "type": "electric_scooter", "is_disabled": 0, "lat": 38.92336133333333, "rental_uris": {"ios": "https://dc.lft.to/lastmile_qr_scan", "android": "https://dc.lft.to/lastmile_qr_scan"}, "is_reserved": 0, "fusion_lon": 0.0, "fusion_lat": 0.0, "lon": -77.04313516666667, "name": "4cde8756d743f29b43e8343cdc910482"}, {"bike_id": "7699634440bb01230252b855ae94b062", "type": "electric_scooter", "is_disabled": 0, "lat": 38.91561816666667, "rental_uris": {"ios": "https://dc.lft.to/lastmile_qr_scan", "android": "https://dc.lft.to/lastmile_qr_scan"}, "is_reserved": 0, "fusion_lon": 0.0, "fusion_lat": 0.0, "lon": -77.04105033333333, "name": "7699634440bb01230252b855ae94b062"}, {"bike_id": "1a7b0eac6e2e6147d26bef6c0656c80c", "type": "electric_scooter", "is_disabled": 0, "lat": 38.898863166666665, "rental_uris": {"ios": "https://dc.lft.to/lastmile_qr_scan", "android": "https://dc.lft.to/lastmile_qr_scan"}, "is_reserved": 0, "fusion_lon": 0.0, "fusion_lat": 0.0, "lon": -76.97688, "name": "1a7b0eac6e2e6147d26bef6c0656c80c"}, {"bike_id": "e5b07435f159338e5090da74c525cfe5", "type": "electric_scooter", "is_disabled": 0, "lat": 38.905102166666666, "rental_uris": {"ios": "https://dc.lft.to/lastmile_qr_scan", "android": "https://dc.lft.to/lastmile_qr_scan"}, "is_reserved": 0, "fusion_lon": 0.0, "fusion_lat": 0.0, "lon": -77.01718516666666, "name": "e5b07435f159338e5090da74c525cfe5"}, {"bike_id": "03829b7eff2983b65f82258599c8d8df", "type": "electric_scooter", "is_disabled": 0, "lat": 38.902658333333335, "rental_uris": {"ios": "https://dc.lft.to/lastmile_qr_scan", "android": "https://dc.lft.to/lastmile_qr_scan"}, "is_reserved": 0, "fusion_lon": 0.0, "fusion_lat": 0.0, "lon": -77.05478666666667, "name": "03829b7eff2983b65f82258599c8d8df"}, {"bike_id": "d0196592524171ad376e02014b17e882", "type": "electric_scooter", "is_disabled": 0, "lat": 38.898422833333335, "rental_uris": {"ios": "https://dc.lft.to/lastmile_qr_scan", "android": "https://dc.lft.to/lastmile_qr_scan"}, "is_reserved": 0, "fusion_lon": 0.0, "fusion_lat": 0.0, "lon": -76.94630816666667, "name": "d0196592524171ad376e02014b17e882"}, {"bike_id": "ead5be70fde08a778de9172b2c554376", "type": "electric_bike", "is_disabled": 0, "lat": 38.8747865, "rental_uris": {"ios": "https://dc.lft.to/lastmile_qr_scan", "android": "https://dc.lft.to/lastmile_qr_scan"}, "is_reserved": 0, "fusion_lon": 0.0, "fusion_lat": 0.0, "lon": -76.96534266666667, "name": "ead5be70fde08a778de9172b2c554376"}, {"bike_id": "aa5475eabf126d3416126d53cdfaca73", "type": "electric_scooter", "is_disabled": 0, "lat": 38.9215315, "rental_uris": {"ios": "https://dc.lft.to/lastmile_qr_scan", "android": "https://dc.lft.to/lastmile_qr_scan"}, "is_reserved": 0, "fusion_lon": 0.0, "fusion_lat": 0.0, "lon": -77.035138, "name": "aa5475eabf126d3416126d53cdfaca73"}, {"bike_id": "2c7eb42d73db52ba10370a750af2c682", "type": "electric_scooter", "is_disabled": 0, "lat": 38.925427166666665, "rental_uris": {"ios": "https://dc.lft.to/lastmile_qr_scan", "android": "https://dc.lft.to/lastmile_qr_scan"}, "is_reserved": 0, "fusion_lon": 0.0, "fusion_lat": 0.0, "lon": -77.0385755, "name": "2c7eb42d73db52ba10370a750af2c682"}, {"bike_id": "a5b516b624288034cf2ab4813d5c6b36", "type": "electric_scooter", "is_disabled": 0, "lat": 38.9051465, "rental_uris": {"ios": "https://dc.lft.to/lastmile_qr_scan", "android": "https://dc.lft.to/lastmile_qr_scan"}, "is_reserved": 0, "fusion_lon": 0.0, "fusion_lat": 0.0, "lon": -77.064306, "name": "a5b516b624288034cf2ab4813d5c6b36"}, {"bike_id": "4b63230c6628e94744c40d25c9022469", "type": "electric_scooter", "is_disabled": 0, "lat": 38.89223916666667, "rental_uris": {"ios": "https://dc.lft.to/lastmile_qr_scan", "android": "https://dc.lft.to/lastmile_qr_scan"}, "is_reserved": 0, "fusion_lon": 0.0, "fusion_lat": 0.0, "lon": -77.03169066666666, "name": "4b63230c6628e94744c40d25c9022469"}, {"bike_id": "06d3f465e32220fda7133ebf1497c4e1", "type": "electric_scooter", "is_disabled": 0, "lat": 38.911971666666666, "rental_uris": {"ios": "https://dc.lft.to/lastmile_qr_scan", "android": "https://dc.lft.to/lastmile_qr_scan"}, "is_reserved": 0, "fusion_lon": 0.0, "fusion_lat": 0.0, "lon": -77.04033583333333, "name": "06d3f465e32220fda7133ebf1497c4e1"}, {"bike_id": "56f4f196f7f1dfd4bf16e2f82fb00f7d", "type": "electric_scooter", "is_disabled": 0, "lat": 38.918944333333336, "rental_uris": {"ios": "https://dc.lft.to/lastmile_qr_scan", "android": "https://dc.lft.to/lastmile_qr_scan"}, "is_reserved": 0, "fusion_lon": 0.0, "fusion_lat": 0.0, "lon": -77.02474783333334, "name": "56f4f196f7f1dfd4bf16e2f82fb00f7d"}, {"bike_id": "3b12306116b6d3603e7e78fe6c22e653", "type": "electric_scooter", "is_disabled": 0, "lat": 38.90129566666667, "rental_uris": {"ios": "https://dc.lft.to/lastmile_qr_scan", "android": "https://dc.lft.to/lastmile_qr_scan"}, "is_reserved": 0, "fusion_lon": 0.0, "fusion_lat": 0.0, "lon": -77.00321733333334, "name": "3b12306116b6d3603e7e78fe6c22e653"}, {"bike_id": "c14696d74b059daec24abc36809821d7", "type": "electric_scooter", "is_disabled": 0, "lat": 38.89476116666667, "rental_uris": {"ios": "https://dc.lft.to/lastmile_qr_scan", "android": "https://dc.lft.to/lastmile_qr_scan"}, "is_reserved": 0, "fusion_lon": 0.0, "fusion_lat": 0.0, "lon": -76.94859966666667, "name": "c14696d74b059daec24abc36809821d7"}, {"bike_id": "8e92d6d034312a3a3ecc7449ac3853e6", "type": "electric_scooter", "is_disabled": 0, "lat": 38.91486533333333, "rental_uris": {"ios": "https://dc.lft.to/lastmile_qr_scan", "android": "https://dc.lft.to/lastmile_qr_scan"}, "is_reserved": 0, "fusion_lon": 0.0, "fusion_lat": 0.0, "lon": -77.03761933333334, "name": "8e92d6d034312a3a3ecc7449ac3853e6"}, {"bike_id": "cffe6f28d6b6b4f61ed3eb089812bb75", "type": "electric_scooter", "is_disabled": 0, "lat": 38.907594833333334, "rental_uris": {"ios": "https://dc.lft.to/lastmile_qr_scan", "android": "https://dc.lft.to/lastmile_qr_scan"}, "is_reserved": 0, "fusion_lon": 0.0, "fusion_lat": 0.0, "lon": -77.01698583333334, "name": "cffe6f28d6b6b4f61ed3eb089812bb75"}, {"bike_id": "95d22f9409185c18090b342cee122528", "type": "electric_scooter", "is_disabled": 0, "lat": 38.91325533333333, "rental_uris": {"ios": "https://dc.lft.to/lastmile_qr_scan", "android": "https://dc.lft.to/lastmile_qr_scan"}, "is_reserved": 0, "fusion_lon": 0.0, "fusion_lat": 0.0, "lon": -77.03185683333334, "name": "95d22f9409185c18090b342cee122528"}, {"bike_id": "26981d6344b2239d29573d14d5e1bce2", "type": "electric_scooter", "is_disabled": 0, "lat": 38.9154095, "rental_uris": {"ios": "https://dc.lft.to/lastmile_qr_scan", "android": "https://dc.lft.to/lastmile_qr_scan"}, "is_reserved": 0, "fusion_lon": 0.0, "fusion_lat": 0.0, "lon": -77.02205316666667, "name": "26981d6344b2239d29573d14d5e1bce2"}, {"bike_id": "bd64e349c47624be49e64c3501f0fe3b", "type": "electric_scooter", "is_disabled": 0, "lat": 38.887449333333336, "rental_uris": {"ios": "https://dc.lft.to/lastmile_qr_scan", "android": "https://dc.lft.to/lastmile_qr_scan"}, "is_reserved": 0, "fusion_lon": 0.0, "fusion_lat": 0.0, "lon": -77.017249, "name": "bd64e349c47624be49e64c3501f0fe3b"}, {"bike_id": "a887edefca9dc239eaa965e5f8e1cf63", "type": "electric_scooter", "is_disabled": 0, "lat": 38.9051025, "rental_uris": {"ios": "https://dc.lft.to/lastmile_qr_scan", "android": "https://dc.lft.to/lastmile_qr_scan"}, "is_reserved": 0, "fusion_lon": 0.0, "fusion_lat": 0.0, "lon": -77.04163216666667, "name": "a887edefca9dc239eaa965e5f8e1cf63"}, {"bike_id": "38cba4d6ed3337f2ee05e5ddf3685aa3", "type": "electric_scooter", "is_disabled": 0, "lat": 38.916980833333334, "rental_uris": {"ios": "https://dc.lft.to/lastmile_qr_scan", "android": "https://dc.lft.to/lastmile_qr_scan"}, "is_reserved": 0, "fusion_lon": 0.0, "fusion_lat": 0.0, "lon": -77.03345683333333, "name": "38cba4d6ed3337f2ee05e5ddf3685aa3"}, {"bike_id": "cf4228c01e806bf70ca8a9fa078b2d3f", "type": "electric_scooter", "is_disabled": 0, "lat": 38.926555, "rental_uris": {"ios": "https://dc.lft.to/lastmile_qr_scan", "android": "https://dc.lft.to/lastmile_qr_scan"}, "is_reserved": 0, "fusion_lon": 0.0, "fusion_lat": 0.0, "lon": -77.02408683333333, "name": "cf4228c01e806bf70ca8a9fa078b2d3f"}, {"bike_id": "efae960a2f4e74338dc9148ead294622", "type": "electric_scooter", "is_disabled": 0, "lat": 38.876751, "rental_uris": {"ios": "https://dc.lft.to/lastmile_qr_scan", "android": "https://dc.lft.to/lastmile_qr_scan"}, "is_reserved": 0, "fusion_lon": 0.0, "fusion_lat": 0.0, "lon": -77.00439466666667, "name": "efae960a2f4e74338dc9148ead294622"}, {"bike_id": "10168280b5ae1f124db8488768b875dc", "type": "electric_scooter", "is_disabled": 0, "lat": 38.918166, "rental_uris": {"ios": "https://dc.lft.to/lastmile_qr_scan", "android": "https://dc.lft.to/lastmile_qr_scan"}, "is_reserved": 0, "fusion_lon": 0.0, "fusion_lat": 0.0, "lon": -77.02472883333333, "name": "10168280b5ae1f124db8488768b875dc"}, {"bike_id": "5307eb233b976bf1f00ed879ed00d9d1", "type": "electric_scooter", "is_disabled": 0, "lat": 38.921546166666666, "rental_uris": {"ios": "https://dc.lft.to/lastmile_qr_scan", "android": "https://dc.lft.to/lastmile_qr_scan"}, "is_reserved": 0, "fusion_lon": 0.0, "fusion_lat": 0.0, "lon": -77.03514533333333, "name": "5307eb233b976bf1f00ed879ed00d9d1"}, {"bike_id": "316fa3b9096e3a12e7373a06adf3e486", "type": "electric_scooter", "is_disabled": 0, "lat": 38.88042766666667, "rental_uris": {"ios": "https://dc.lft.to/lastmile_qr_scan", "android": "https://dc.lft.to/lastmile_qr_scan"}, "is_reserved": 0, "fusion_lon": 0.0, "fusion_lat": 0.0, "lon": -77.0054605, "name": "316fa3b9096e3a12e7373a06adf3e486"},