{"data": {"bikes": [{"bike_id": "a7c6edfb460ed4f721884b048dd9adc2", "is_reserved": 0, "fusion_lon": 0.0, "lat": 38.894972, "is_disabled": 0, "name": "a7c6edfb460ed4f721884b048dd9adc2", "fusion_lat": 0.0, "rental_uris": {"ios": "https://dc.lft.to/lastmile_qr_scan", "android": "https://dc.lft.to/lastmile_qr_scan"}, "lon": -77.02297833333333, "type": "electric_scooter"}, {"bike_id": "c9f32c06e6d50bcb27b1e921d31d5808", "is_reserved": 0, "fusion_lon": 0.0, "lat": 38.9142255, "is_disabled": 0, "name": "c9f32c06e6d50bcb27b1e921d31d5808", "fusion_lat": 0.0, "rental_uris": {"ios": "https://dc.lft.to/lastmile_qr_scan", "android": "https://dc.lft.to/lastmile_qr_scan"}, "lon": -77.0381275, "type": "electric_scooter"}, {"bike_id": "cd48f34749272e22953a6e341f234b5b", "is_reserved": 0, "fusion_lon": 0.0, "lat": 38.91680816666667, "is_disabled": 0, "name": "cd48f34749272e22953a6e341f234b5b", "fusion_lat": 0.0, "rental_uris": {"ios": "https://dc.lft.to/lastmile_qr_scan", "android": "https://dc.lft.to/lastmile_qr_scan"}, "lon": -77.02943866666666, "type": "electric_scooter"}, {"bike_id": "cb74ee554d0f5e9021619235c8bd0de9", "is_reserved": 0, "fusion_lon": 0.0, "lat": 38.901500666666664, "is_disabled": 0, "name": "cb74ee554d0f5e9021619235c8bd0de9", "fusion_lat": 0.0, "rental_uris": {"ios": "https://dc.lft.to/lastmile_qr_scan", "android": "https://dc.lft.to/lastmile_qr_scan"}, "lon": -77.02842166666667, "type": "electric_scooter"}, {"bike_id": "1df21fc6976de49938cd2a9a1f426ad8", "is_reserved": 0, "fusion_lon": 0.0, "lat": 38.902889, "is_disabled": 0, "name": "1df21fc6976de49938cd2a9a1f426ad8", "fusion_lat": 0.0, "rental_uris": {"ios": "https://dc.lft.to/lastmile_qr_scan", "android": "https://dc.lft.to/lastmile_qr_scan"}, "lon": -77.03935633333333, "type": "electric_scooter"}, {"bike_id": "5121935960e4561631246cc1dc27a418", "is_reserved": 0, "fusion_lon": 0.0, "lat": 38.930823833333335, "is_disabled": 0, "name": "5121935960e4561631246cc1dc27a418", "fusion_lat": 0.0, "rental_uris": {"ios": "https://dc.lft.to/lastmile_qr_scan", "android": "https://dc.lft.to/lastmile_qr_scan"}, "lon": -77.02795233333333, "type": "electric_scooter"}, {"bike_id": "e5c76562c9b0900c3438bd5ad13a397d", "is_reserved": 0, "fusion_lon": 0.0, "lat": 38.86659266666667, "is_disabled": 0, "name": "e5c76562c9b0900c3438bd5ad13a397d", "fusion_lat": 0.0, "rental_uris": {"ios": "https://dc.lft.to/lastmile_qr_scan", "android": "https://dc.lft.to/lastmile_qr_scan"}, "lon": -76.99014, "type": "electric_scooter"}, {"bike_id": "1cafd419075ee0a3f4806a75a0f8cad5", "is_reserved": 0, "fusion_lon": 0.0, "lat": 38.898239, "is_disabled": 0, "name": "1cafd419075ee0a3f4806a75a0f8cad5", "fusion_lat": 0.0, "rental_uris": {"ios": "https://dc.lft.to/lastmile_qr_scan", "android": "https://dc.lft.to/lastmile_qr_scan"}, "lon": -76.94650333333334, "type": "electric_scooter"}, {"bike_id": "372d24b3ef34d7ecbe0385240d44acb2", "is_reserved": 0, "fusion_lon": 0.0, "lat": 38.9006985, "is_disabled": 0, "name": "372d24b3ef34d7ecbe0385240d44acb2", "fusion_lat": 0.0, "rental_uris": {"ios": "https://dc.lft.to/lastmile_qr_scan", "android": "https://dc.lft.to/lastmile_qr_scan"}, "lon": -77.050342, "type": "electric_scooter"}, {"bike_id": "1705a3a05027d588ec0a640710bf302e", "is_reserved": 0, "fusion_lon": 0.0, "lat": 38.839859, "is_disabled": 0, "name": "1705a3a05027d588ec0a640710bf302e", "fusion_lat": 0.0, "rental_uris": {"ios": "https://dc.lft.to/lastmile_qr_scan", "android": "https://dc.lft.to/lastmile_qr_scan"}, "lon": -77.00565183333333, "type": "electric_bike"}, {"bike_id": "32495dc9e46fd8249f10c054314e3bdd", "is_reserved": 0, "fusion_lon": 0.0, "lat": 38.904981666666664, "is_disabled": 0, "name": "32495dc9e46fd8249f10c054314e3bdd", "fusion_lat": 0.0, "rental_uris": {"ios": "https://dc.lft.to/lastmile_qr_scan", "android": "https://dc.lft.to/lastmile_qr_scan"}, "lon": -77.05744933333334, "type": "electric_scooter"}, {"bike_id": "28143a669258ac5f765019af9c4a022a", "is_reserved": 0, "fusion_lon": 0.0, "lat": 38.914305166666665, "is_disabled": 0, "name": "28143a669258ac5f765019af9c4a022a", "fusion_lat": 0.0, "rental_uris": {"ios": "https://dc.lft.to/lastmile_qr_scan", "android": "https://dc.lft.to/lastmile_qr_scan"}, "lon": -77.04151766666666, "type": "electric_scooter"}, {"bike_id": "b5805444519585d23337a7c6ec351508", "is_reserved": 0, "fusion_lon": 0.0, "lat": 38.88134616666667, "is_disabled": 0, "name": "b5805444519585d23337a7c6ec351508", "fusion_lat": 0.0, "rental_uris": {"ios": "https://dc.lft.to/lastmile_qr_scan", "android": "https://dc.lft.to/lastmile_qr_scan"}, "lon": -76.98089883333333, "type": "electric_bike"}, {"bike_id": "e9dbc2ad77f7f016134bfaca9d0aeee8", "is_reserved": 0, "fusion_lon": 0.0, "lat": 38.900637333333336, "is_disabled": 0, "name": "e9dbc2ad77f7f016134bfaca9d0aeee8", "fusion_lat": 0.0, "rental_uris": {"ios": "https://dc.lft.to/lastmile_qr_scan", "android": "https://dc.lft.to/lastmile_qr_scan"}, "lon": -77.05140083333333, "type": "electric_scooter"}, {"bike_id": "3a4b1c9d72fd64eed41b7a31eade118d", "is_reserved": 0, "fusion_lon": 0.0, "lat": 38.86162783333333, "is_disabled": 0, "name": "3a4b1c9d72fd64eed41b7a31eade118d", "fusion_lat": 0.0, "rental_uris": {"ios": "https://dc.lft.to/lastmile_qr_scan", "android": "https://dc.lft.to/lastmile_qr_scan"}, "lon": -77.13091, "type": "electric_bike"}, {"bike_id": "046e3c9c19bcaed1b8bb4af2b84123f9", "is_reserved": 0, "fusion_lon": 0.0, "lat": 38.9057175, "is_disabled": 0, "name": "046e3c9c19bcaed1b8bb4af2b84123f9", "fusion_lat": 0.0, "rental_uris": {"ios": "https://dc.lft.to/lastmile_qr_scan", "android": "https://dc.lft.to/lastmile_qr_scan"}, "lon": -77.01508633333333, "type": "electric_scooter"}, {"bike_id": "178d6a13d1fe47c61aeb54c727baadf3", "is_reserved": 0, "fusion_lon": 0.0, "lat": 38.91727266666667, "is_disabled": 0, "name": "178d6a13d1fe47c61aeb54c727baadf3", "fusion_lat": 0.0, "rental_uris": {"ios": "https://dc.lft.to/lastmile_qr_scan", "android": "https://dc.lft.to/lastmile_qr_scan"}, "lon": -77.036579, "type": "electric_scooter"}, {"bike_id": "cb7be53015197716e4a1703bbee0f0f7", "is_reserved": 0, "fusion_lon": 0.0, "lat": 38.90810066666667, "is_disabled": 0, "name": "cb7be53015197716e4a1703bbee0f0f7", "fusion_lat": 0.0, "rental_uris": {"ios": "https://dc.lft.to/lastmile_qr_scan", "android": "https://dc.lft.to/lastmile_qr_scan"}, "lon": -77.03437233333334, "type": "electric_scooter"}, {"bike_id": "132541e1c7b016574cb7b7c6d8564375", "is_reserved": 0, "fusion_lon": 0.0, "lat": 38.904625833333334, "is_disabled": 0, "name": "132541e1c7b016574cb7b7c6d8564375", "fusion_lat": 0.0, "rental_uris": {"ios": "https://dc.lft.to/lastmile_qr_scan", "android": "https://dc.lft.to/lastmile_qr_scan"}, "lon": -77.0294265, "type": "electric_scooter"}, {"bike_id": "0cb99c02071ecce5340d52d914877c03", "is_reserved": 0, "fusion_lon": 0.0, "lat": 38.90958416666667, "is_disabled": 0, "name": "0cb99c02071ecce5340d52d914877c03", "fusion_lat": 0.0, "rental_uris": {"ios": "https://dc.lft.to/lastmile_qr_scan", "android": "https://dc.lft.to/lastmile_qr_scan"}, "lon": -76.98478483333334, "type": "electric_scooter"}, {"bike_id": "f52aa4a9b76032e1f639e401cdac273f", "is_reserved": 0, "fusion_lon": 0.0, "lat": 38.90975733333333, "is_disabled": 0, "name": "f52aa4a9b76032e1f639e401cdac273f", "fusion_lat": 0.0, "rental_uris": {"ios": "https://dc.lft.to/lastmile_qr_scan", "android": "https://dc.lft.to/lastmile_qr_scan"}, "lon": -77.02726216666667, "type": "electric_scooter"}, {"bike_id": "eb20d5a0e1690635d6dbc5296d529343", "is_reserved": 0, "fusion_lon": 0.0, "lat": 38.9676315, "is_disabled": 0, "name": "eb20d5a0e1690635d6dbc5296d529343", "fusion_lat": 0.0, "rental_uris": {"ios": "https://dc.lft.to/lastmile_qr_scan", "android": "https://dc.lft.to/lastmile_qr_scan"}, "lon": -77.0916675, "type": "electric_bike"}, {"bike_id": "6f8810699a03f43fb4db8cffebf439f3", "is_reserved": 0, "fusion_lon": 0.0, "lat": 38.90027666666667, "is_disabled": 0, "name": "6f8810699a03f43fb4db8cffebf439f3", "fusion_lat": 0.0, "rental_uris": {"ios": "https://dc.lft.to/lastmile_qr_scan", "android": "https://dc.lft.to/lastmile_qr_scan"}, "lon": -76.987967, "type": "electric_scooter"}, {"bike_id": "289d69a9be233e362b9569b336129f9f", "is_reserved": 0, "fusion_lon": 0.0, "lat": 38.941890666666666, "is_disabled": 0, "name": "289d69a9be233e362b9569b336129f9f", "fusion_lat": 0.0, "rental_uris": {"ios": "https://dc.lft.to/lastmile_qr_scan", "android": "https://dc.lft.to/lastmile_qr_scan"}, "lon": -77.017049, "type": "electric_scooter"}, {"bike_id": "c84779e77db92e1dcdb5a1ded472e1f1", "is_reserved": 0, "fusion_lon": 0.0, "lat": 38.90330016666667, "is_disabled": 0, "name": "c84779e77db92e1dcdb5a1ded472e1f1", "fusion_lat": 0.0, "rental_uris": {"ios": "https://dc.lft.to/lastmile_qr_scan", "android": "https://dc.lft.to/lastmile_qr_scan"}, "lon": -76.97537266666667, "type": "electric_bike"}, {"bike_id": "0afb7aa66de604027a2d80de5deea68b", "is_reserved": 0, "fusion_lon": 0.0, "lat": 38.900192, "is_disabled": 0, "name": "0afb7aa66de604027a2d80de5deea68b", "fusion_lat": 0.0, "rental_uris": {"ios": "https://dc.lft.to/lastmile_qr_scan", "android": "https://dc.lft.to/lastmile_qr_scan"}, "lon": -77.04395783333334, "type": "electric_scooter"}, {"bike_id": "c422a7e8c9aea3f44aa7768a03390dba", "is_reserved": 0, "fusion_lon": 0.0, "lat": 38.90238733333333, "is_disabled": 0, "name": "c422a7e8c9aea3f44aa7768a03390dba", "fusion_lat": 0.0, "rental_uris": {"ios": "https://dc.lft.to/lastmile_qr_scan", "android": "https://dc.lft.to/lastmile_qr_scan"}, "lon": -76.97410166666667, "type": "electric_scooter"}, {"bike_id": "15a304dfef5cfb5b8bcde7610b65ca21", "is_reserved": 0, "fusion_lon": 0.0, "lat": 38.925881, "is_disabled": 0, "name": "15a304dfef5cfb5b8bcde7610b65ca21", "fusion_lat": 0.0, "rental_uris": {"ios": "https://dc.lft.to/lastmile_qr_scan", "android": "https://dc.lft.to/lastmile_qr_scan"}, "lon": -77.00461716666666, "type": "electric_scooter"}, {"bike_id": "918573039c728273000b747bc6997cb9", "is_reserved": 0, "fusion_lon": 0.0, "lat": 38.892232166666666, "is_disabled": 0, "name": "918573039c728273000b747bc6997cb9", "fusion_lat": 0.0, "rental_uris": {"ios": "https://dc.lft.to/lastmile_qr_scan", "android": "https://dc.lft.to/lastmile_qr_scan"}, "lon": -77.03340233333333, "type": "electric_scooter"}, {"bike_id": "14b1334cc3c93052df1ddf3fc72945b0", "is_reserved": 0, "fusion_lon": 0.0, "lat": 38.9159235, "is_disabled": 0, "name": "14b1334cc3c93052df1ddf3fc72945b0", "fusion_lat": 0.0, "rental_uris": {"ios": "https://dc.lft.to/lastmile_qr_scan", "android": "https://dc.lft.to/lastmile_qr_scan"}, "lon": -77.04173516666667, "type": "electric_scooter"}, {"bike_id": "f011828c0d100fb2acbaa72d8f9d721f", "is_reserved": 0, "fusion_lon": 0.0, "lat": 38.937562666666665, "is_disabled": 0, "name": "f011828c0d100fb2acbaa72d8f9d721f", "fusion_lat": 0.0, "rental_uris": {"ios": "https://dc.lft.to/lastmile_qr_scan", "android": "https://dc.lft.to/lastmile_qr_scan"}, "lon": -77.03572216666667, "type": "electric_scooter"}, {"bike_id": "2db312f4d4aaf4fbbeb838ed5cc56ba0", "is_reserved": 0, "fusion_lon": 0.0, "lat": 38.916460666666666, "is_disabled": 0, "name": "2db312f4d4aaf4fbbeb838ed5cc56ba0", "fusion_lat": 0.0, "rental_uris": {"ios": "https://dc.lft.to/lastmile_qr_scan", "android": "https://dc.lft.to/lastmile_qr_scan"}, "lon": -77.03197283333333, "type": "electric_scooter"}, {"bike_id": "c865c3c2cef99ff17ad36f00b9305cbf", "is_reserved": 0, "fusion_lon": 0.0, "lat": 38.915654833333335, "is_disabled": 0, "name": "c865c3c2cef99ff17ad36f00b9305cbf", "fusion_lat": 0.0, "rental_uris": {"ios": "https://dc.lft.to/lastmile_qr_scan", "android": "https://dc.lft.to/lastmile_qr_scan"}, "lon": -77.0393715, "type": "electric_scooter"}, {"bike_id": "4c0bef93e49a85649798ea7d74a77c3c", "is_reserved": 0, "fusion_lon": 0.0, "lat": 38.90372766666667, "is_disabled": 0, "name": "4c0bef93e49a85649798ea7d74a77c3c", "fusion_lat": 0.0, "rental_uris": {"ios": "https://dc.lft.to/lastmile_qr_scan", "android": "https://dc.lft.to/lastmile_qr_scan"}, "lon": -77.02978416666667, "type": "electric_scooter"}, {"bike_id": "1ab2402c2e321182a312289e4dc608ab", "is_reserved": 0, "fusion_lon": 0.0, "lat": 38.9097425, "is_disabled": 0, "name": "1ab2402c2e321182a312289e4dc608ab", "fusion_lat": 0.0, "rental_uris": {"ios": "https://dc.lft.to/lastmile_qr_scan", "android": "https://dc.lft.to/lastmile_qr_scan"}, "lon": -77.034696, "type": "electric_scooter"}, {"bike_id": "2fa1005a7f6871bf6bc4a6bba7a81a0d", "is_reserved": 0, "fusion_lon": 0.0, "lat": 38.914168, "is_disabled": 0, "name": "2fa1005a7f6871bf6bc4a6bba7a81a0d", "fusion_lat": 0.0, "rental_uris": {"ios": "https://dc.lft.to/lastmile_qr_scan", "android": "https://dc.lft.to/lastmile_qr_scan"}, "lon": -77.02673233333333, "type": "electric_scooter"}, {"bike_id": "4724922d9238317efb7232170e4af0ca", "is_reserved": 0, "fusion_lon": 0.0, "lat": 38.898041666666664, "is_disabled": 0, "name": "4724922d9238317efb7232170e4af0ca", "fusion_lat": 0.0, "rental_uris": {"ios": "https://dc.lft.to/lastmile_qr_scan", "android": "https://dc.lft.to/lastmile_qr_scan"}, "lon": -76.99161733333334, "type": "electric_scooter"}, {"bike_id": "041fcfd4a5749aa142a6299fdf40768a", "is_reserved": 0, "fusion_lon": 0.0, "lat": 38.9144725, "is_disabled": 0, "name": "041fcfd4a5749aa142a6299fdf40768a", "fusion_lat": 0.0, "rental_uris": {"ios": "https://dc.lft.to/lastmile_qr_scan", "android": "https://dc.lft.to/lastmile_qr_scan"}, "lon": -77.03467416666666, "type": "electric_scooter"}, {"bike_id": "476cdfa77fc0155280e5897c976eff8d", "is_reserved": 0, "fusion_lon": 0.0, "lat": 38.844261833333334, "is_disabled": 0, "name": "476cdfa77fc0155280e5897c976eff8d", "fusion_lat": 0.0, "rental_uris": {"ios": "https://dc.lft.to/lastmile_qr_scan", "android": "https://dc.lft.to/lastmile_qr_scan"}, "lon": -76.997794, "type": "electric_scooter"}, {"bike_id": "557b33d481825a5f7891d8842f7e6f59", "is_reserved": 0, "fusion_lon": 0.0, "lat": 38.911917833333334, "is_disabled": 0, "name": "557b33d481825a5f7891d8842f7e6f59", "fusion_lat": 0.0, "rental_uris": {"ios": "https://dc.lft.to/lastmile_qr_scan", "android": "https://dc.lft.to/lastmile_qr_scan"}, "lon": -77.060973, "type": "electric_scooter"}, {"bike_id": "2bc5ed3ef47e5ea012cf22c31d2ef94a", "is_reserved": 0, "fusion_lon": 0.0, "lat": 38.934959166666665, "is_disabled": 0, "name": "2bc5ed3ef47e5ea012cf22c31d2ef94a", "fusion_lat": 0.0, "rental_uris": {"ios": "https://dc.lft.to/lastmile_qr_scan", "android": "https://dc.lft.to/lastmile_qr_scan"}, "lon": -77.028452, "type": "electric_scooter"}, {"bike_id": "675498a91935b3464c4fec779a75fe19", "is_reserved": 0, "fusion_lon": 0.0, "lat": 38.90034, "is_disabled": 0, "name": "675498a91935b3464c4fec779a75fe19", "fusion_lat": 0.0, "rental_uris": {"ios": "https://dc.lft.to/lastmile_qr_scan", "android": "https://dc.lft.to/lastmile_qr_scan"}, "lon": -76.99530066666667, "type": "electric_scooter"}, {"bike_id": "ec4f33ca307dd751126bfb00b1de2e32", "is_reserved": 0, "fusion_lon": 0.0, "lat": 38.911868, "is_disabled": 0, "name": "ec4f33ca307dd751126bfb00b1de2e32", "fusion_lat": 0.0, "rental_uris": {"ios": "https://dc.lft.to/lastmile_qr_scan", "android": "https://dc.lft.to/lastmile_qr_scan"}, "lon": -77.045474, "type": "electric_scooter"}, {"bike_id": "5bb8e95727b147182f24ee65c22e2dd3", "is_reserved": 0, "fusion_lon": 0.0, "lat": 38.903113, "is_disabled": 0, "name": "5bb8e95727b147182f24ee65c22e2dd3", "fusion_lat": 0.0, "rental_uris": {"ios": "https://dc.lft.to/lastmile_qr_scan", "android": "https://dc.lft.to/lastmile_qr_scan"}, "lon": -77.03313533333333, "type": "electric_scooter"}, {"bike_id": "6bcfb772457a96802fbd6000fde92fde", "is_reserved": 0, "fusion_lon": 0.0, "lat": 38.946059, "is_disabled": 0, "name": "6bcfb772457a96802fbd6000fde92fde", "fusion_lat": 0.0, "rental_uris": {"ios": "https://dc.lft.to/lastmile_qr_scan", "android": "https://dc.lft.to/lastmile_qr_scan"}, "lon": -77.029805, "type": "electric_scooter"}, {"bike_id": "eb871b5b91708d99b8250e556d8f6b60", "is_reserved": 0, "fusion_lon": 0.0, "lat": 38.892267333333336, "is_disabled": 0, "name": "eb871b5b91708d99b8250e556d8f6b60", "fusion_lat": 0.0, "rental_uris": {"ios": "https://dc.lft.to/lastmile_qr_scan", "android": "https://dc.lft.to/lastmile_qr_scan"}, "lon": -77.03980716666666, "type": "electric_scooter"}, {"bike_id": "df43c4df82943ff136ca30bbd7bc71ed", "is_reserved": 0, "fusion_lon": 0.0, "lat": 38.81054966666667, "is_disabled": 0, "name": "df43c4df82943ff136ca30bbd7bc71ed", "fusion_lat": 0.0, "rental_uris": {"ios": "https://dc.lft.to/lastmile_qr_scan", "android": "https://dc.lft.to/lastmile_qr_scan"}, "lon": -77.08512483333334, "type": "electric_bike"}, {"bike_id": "9711c3fc29f56377b4b20d62712cea39", "is_reserved": 0, "fusion_lon": 0.0, "lat": 38.892246, "is_disabled": 0, "name": "9711c3fc29f56377b4b20d62712cea39", "fusion_lat": 0.0, "rental_uris": {"ios": "https://dc.lft.to/lastmile_qr_scan", "android": "https://dc.lft.to/lastmile_qr_scan"}, "lon": -77.048623, "type": "electric_scooter"}, {"bike_id": "d3a0e157ff0349909ad93790af2187c8", "is_reserved": 0, "fusion_lon": 0.0, "lat": 38.886038, "is_disabled": 0, "name": "d3a0e157ff0349909ad93790af2187c8", "fusion_lat": 0.0, "rental_uris": {"ios": "https://dc.lft.to/lastmile_qr_scan", "android": "https://dc.lft.to/lastmile_qr_scan"}, "lon": -77.005719, "type": "electric_scooter"}, {"bike_id": "9b5b920f00a4919f28f2c8950687e221", "is_reserved": 0, "fusion_lon": 0.0, "lat": 38.854351, "is_disabled": 0, "name": "9b5b920f00a4919f28f2c8950687e221", "fusion_lat": 0.0, "rental_uris": {"ios": "https://dc.lft.to/lastmile_qr_scan", "android": "https://dc.lft.to/lastmile_qr_scan"}, "lon": -76.909716, "type": "electric_bike"}, {"bike_id": "ea6b379e33419a5d21fb3a43258742e2", "is_reserved": 0, "fusion_lon": 0.0, "lat": 38.90734066666667, "is_disabled": 0, "name": "ea6b379e33419a5d21fb3a43258742e2", "fusion_lat": 0.0, "rental_uris": {"ios": "https://dc.lft.to/lastmile_qr_scan", "android": "https://dc.lft.to/lastmile_qr_scan"}, "lon": -77.04350533333333, "type": "electric_scooter"}, {"bike_id": "e0c54e5d7ceb65ce4a7ac4bd7f9bf43e", "is_reserved": 0, "fusion_lon": 0.0, "lat": 38.917885166666665, "is_disabled": 0, "name": "e0c54e5d7ceb65ce4a7ac4bd7f9bf43e", "fusion_lat": 0.0, "rental_uris": {"ios": "https://dc.lft.to/lastmile_qr_scan", "android": "https://dc.lft.to/lastmile_qr_scan"}, "lon": -77.0269385, "type": "electric_scooter"}, {"bike_id": "f70e960d3de53364cc1b5ed8bd2ada1e", "is_reserved": 0, "fusion_lon": 0.0, "lat": 38.88644816666667, "is_disabled": 0, "name": "f70e960d3de53364cc1b5ed8bd2ada1e", "fusion_lat": 0.0, "rental_uris": {"ios": "https://dc.lft.to/lastmile_qr_scan", "android": "https://dc.lft.to/lastmile_qr_scan"}, "lon": -77.02136616666667, "type": "electric_scooter"}, {"bike_id": "c8a93ae5d08f3e92bffc59e3daac977d", "is_reserved": 0, "fusion_lon": 0.0, "lat": 38.906899333333335, "is_disabled": 0, "name": "c8a93ae5d08f3e92bffc59e3daac977d", "fusion_lat": 0.0, "rental_uris": {"ios": "https://dc.lft.to/lastmile_qr_scan", "android": "https://dc.lft.to/lastmile_qr_scan"}, "lon": -77.000466, "type": "electric_scooter"}, {"bike_id": "dc70a70956f15ef878e388668dc74c49", "is_reserved": 0, "fusion_lon": 0.0, "lat": 38.924579333333334, "is_disabled": 0, "name": "dc70a70956f15ef878e388668dc74c49", "fusion_lat": 0.0, "rental_uris": {"ios": "https://dc.lft.to/lastmile_qr_scan", "android": "https://dc.lft.to/lastmile_qr_scan"}, "lon": -76.999139, "type": "electric_scooter"}, {"bike_id": "a9d21f0cb13c65213a6ea1a30d04d107", "is_reserved": 0, "fusion_lon": 0.0, "lat": 38.90362583333334, "is_disabled": 0, "name": "a9d21f0cb13c65213a6ea1a30d04d107", "fusion_lat": 0.0, "rental_uris": {"ios": "https://dc.lft.to/lastmile_qr_scan", "android": "https://dc.lft.to/lastmile_qr_scan"}, "lon": -77.03846583333333, "type": "electric_scooter"}, {"bike_id": "6bf5e6c2a5a43cd40d88fe2cbbceb948", "is_reserved": 0, "fusion_lon": 0.0, "lat": 38.81331983333333, "is_disabled": 0, "name": "6bf5e6c2a5a43cd40d88fe2cbbceb948", "fusion_lat": 0.0, "rental_uris": {"ios": "https://dc.lft.to/lastmile_qr_scan", "android": "https://dc.lft.to/lastmile_qr_scan"}, "lon": -77.0511815, "type": "electric_bike"}, {"bike_id": "4688059c082261946d1b9d553e51834d", "is_reserved": 0, "fusion_lon": 0.0, "lat": 38.89507433333333, "is_disabled": 0, "name": "4688059c082261946d1b9d553e51834d", "fusion_lat": 0.0, "rental_uris": {"ios": "https://dc.lft.to/lastmile_qr_scan", "android": "https://dc.lft.to/lastmile_qr_scan"}, "lon": -77.02207316666667, "type": "electric_scooter"}, {"bike_id": "4bb26d049bc83437724d96a28a142372", "is_reserved": 0, "fusion_lon": 0.0, "lat": 38.984359, "is_disabled": 0, "name": "4bb26d049bc83437724d96a28a142372", "fusion_lat": 0.0, "rental_uris": {"ios": "https://dc.lft.to/lastmile_qr_scan", "android": "https://dc.lft.to/lastmile_qr_scan"}, "lon": -77.026748, "type": "electric_scooter"}, {"bike_id": "d280ebfd3a66002bd9c9fc7551fefa69", "is_reserved": 0, "fusion_lon": 0.0, "lat": 38.917870666666666, "is_disabled": 0, "name": "d280ebfd3a66002bd9c9fc7551fefa69", "fusion_lat": 0.0, "rental_uris": {"ios": "https://dc.lft.to/lastmile_qr_scan", "android": "https://dc.lft.to/lastmile_qr_scan"}, "lon": -77.0269905, "type": "electric_scooter"}, {"bike_id": "2030451571b022fd62e7f64f67eac17b", "is_reserved": 0, "fusion_lon": 0.0, "lat": 38.884931333333334, "is_disabled": 0, "name": "2030451571b022fd62e7f64f67eac17b", "fusion_lat": 0.0, "rental_uris": {"ios": "https://dc.lft.to/lastmile_qr_scan", "android": "https://dc.lft.to/lastmile_qr_scan"}, "lon": -77.00726083333333, "type": "electric_scooter"}, {"bike_id": "86d8c220a11c64d96a715e200e772cd7", "is_reserved": 0, "fusion_lon": 0.0, "lat": 38.9008505, "is_disabled": 0, "name": "86d8c220a11c64d96a715e200e772cd7", "fusion_lat": 0.0, "rental_uris": {"ios": "https://dc.lft.to/lastmile_qr_scan", "android": "https://dc.lft.to/lastmile_qr_scan"}, "lon": -77.04788366666666, "type": "electric_scooter"}, {"bike_id": "be379c9b32a9d26c3911e336de8df627", "is_reserved": 0, "fusion_lon": 0.0, "lat": 38.9161045, "is_disabled": 0, "name": "be379c9b32a9d26c3911e336de8df627", "fusion_lat": 0.0, "rental_uris": {"ios": "https://dc.lft.to/lastmile_qr_scan", "android": "https://dc.lft.to/lastmile_qr_scan"}, "lon": -77.0240615, "type": "electric_scooter"}, {"bike_id": "5d40f49b1422f52517ea53f381366e9e", "is_reserved": 0, "fusion_lon": 0.0, "lat": 38.8278775, "is_disabled": 0, "name": "5d40f49b1422f52517ea53f381366e9e", "fusion_lat": 0.0, "rental_uris": {"ios": "https://dc.lft.to/lastmile_qr_scan", "android": "https://dc.lft.to/lastmile_qr_scan"}, "lon": -77.00920233333333, "type": "electric_bike"}, {"bike_id": "3883b23c1118f44413d803217d2cb23d", "is_reserved": 0, "fusion_lon": 0.0, "lat": 39.0038395, "is_disabled": 0, "name": "3883b23c1118f44413d803217d2cb23d", "fusion_lat": 0.0, "rental_uris": {"ios": "https://dc.lft.to/lastmile_qr_scan", "android": "https://dc.lft.to/lastmile_qr_scan"}, "lon": -77.0128335, "type": "electric_bike"}, {"bike_id": "cb9c3708c7b8e1df46df451caffe28c1", "is_reserved": 0, "fusion_lon": 0.0, "lat": 38.95653866666667, "is_disabled": 0, "name": "cb9c3708c7b8e1df46df451caffe28c1", "fusion_lat": 0.0, "rental_uris": {"ios": "https://dc.lft.to/lastmile_qr_scan", "android": "https://dc.lft.to/lastmile_qr_scan"}, "lon": -77.03287983333334, "type": "electric_scooter"}, {"bike_id": "e268b9ea2183328732ee3b4e8161e4df", "is_reserved": 0, "fusion_lon": 0.0, "lat": 38.900648833333335, "is_disabled": 0, "name": "e268b9ea2183328732ee3b4e8161e4df", "fusion_lat": 0.0, "rental_uris": {"ios": "https://dc.lft.to/lastmile_qr_scan", "android": "https://dc.lft.to/lastmile_qr_scan"}, "lon": -77.0076505, "type": "electric_scooter"}, {"bike_id": "9442b2ee531f708aad2094710ce64337", "is_reserved": 0, "fusion_lon": 0.0, "lat": 38.89221466666667, "is_disabled": 0, "name": "9442b2ee531f708aad2094710ce64337", "fusion_lat": 0.0, "rental_uris": {"ios": "https://dc.lft.to/lastmile_qr_scan", "android": "https://dc.lft.to/lastmile_qr_scan"}, "lon": -77.03163233333333, "type": "electric_scooter"}, {"bike_id": "459b1aedcec9f68f58331209f41d6daf", "is_reserved": 0, "fusion_lon": 0.0, "lat": 38.807468666666665, "is_disabled": 0, "name": "459b1aedcec9f68f58331209f41d6daf", "fusion_lat": 0.0, "rental_uris": {"ios": "https://dc.lft.to/lastmile_qr_scan", "android": "https://dc.lft.to/lastmile_qr_scan"}, "lon": -77.09425983333334, "type": "electric_bike"}, {"bike_id": "7bbfae7acd7847bbad1235280aae3d5f", "is_reserved": 0, "fusion_lon": 0.0, "lat": 38.86389466666667, "is_disabled": 0, "name": "7bbfae7acd7847bbad1235280aae3d5f", "fusion_lat": 0.0, "rental_uris": {"ios": "https://dc.lft.to/lastmile_qr_scan", "android": "https://dc.lft.to/lastmile_qr_scan"}, "lon": -76.989909, "type": "electric_bike"}, {"bike_id": "927c33f43169a73b20f6ce369ea079f3", "is_reserved": 0, "fusion_lon": 0.0, "lat": 38.941777333333334, "is_disabled": 0, "name": "927c33f43169a73b20f6ce369ea079f3", "fusion_lat": 0.0, "rental_uris": {"ios": "https://dc.lft.to/lastmile_qr_scan", "android": "https://dc.lft.to/lastmile_qr_scan"}, "lon": -77.0413845, "type": "electric_scooter"}, {"bike_id": "cf5b9edee0868494ec4215595830f8de", "is_reserved": 0, "fusion_lon": 0.0, "lat": 38.9169125, "is_disabled": 0, "name": "cf5b9edee0868494ec4215595830f8de", "fusion_lat": 0.0, "rental_uris": {"ios": "https://dc.lft.to/lastmile_qr_scan", "android": "https://dc.lft.to/lastmile_qr_scan"}, "lon": -77.012217, "type": "electric_scooter"}, {"bike_id": "66739a9de36934bfbc12792ab7723218", "is_reserved": 0, "fusion_lon": 0.0, "lat": 38.957317, "is_disabled": 0, "name": "66739a9de36934bfbc12792ab7723218", "fusion_lat": 0.0, "rental_uris": {"ios": "https://dc.lft.to/lastmile_qr_scan", "android": "https://dc.lft.to/lastmile_qr_scan"}, "lon": -76.98014966666666, "type": "electric_bike"}, {"bike_id": "e3c3c8befeac6036758cf312261110ad", "is_reserved": 0, "fusion_lon": 0.0, "lat": 38.929000333333335, "is_disabled": 0, "name": "e3c3c8befeac6036758cf312261110ad", "fusion_lat": 0.0, "rental_uris": {"ios": "https://dc.lft.to/lastmile_qr_scan", "android": "https://dc.lft.to/lastmile_qr_scan"}, "lon": -77.05453283333334, "type": "electric_scooter"}, {"bike_id": "69e52adcd5e297aa9ffabf30367caac3", "is_reserved": 0, "fusion_lon": 0.0, "lat": 38.90392683333334, "is_disabled": 0, "name": "69e52adcd5e297aa9ffabf30367caac3", "fusion_lat": 0.0, "rental_uris": {"ios": "https://dc.lft.to/lastmile_qr_scan", "android": "https://dc.lft.to/lastmile_qr_scan"}, "lon": -77.01107933333333, "type": "electric_scooter"}, {"bike_id": "2f39f6a1e508da8d3c9f2781e5187791", "is_reserved": 0, "fusion_lon": 0.0, "lat": 38.898769, "is_disabled": 0, "name": "2f39f6a1e508da8d3c9f2781e5187791", "fusion_lat": 0.0, "rental_uris": {"ios": "https://dc.lft.to/lastmile_qr_scan", "android": "https://dc.lft.to/lastmile_qr_scan"}, "lon": -76.9316095, "type": "electric_scooter"}, {"bike_id": "4b2c76fabe8df1ef3465d0bf61c85fad", "is_reserved": 0, "fusion_lon": 0.0, "lat": 38.92144833333333, "is_disabled": 0, "name": "4b2c76fabe8df1ef3465d0bf61c85fad", "fusion_lat": 0.0, "rental_uris": {"ios": "https://dc.lft.to/lastmile_qr_scan", "android": "https://dc.lft.to/lastmile_qr_scan"}, "lon": -77.03485883333333, "type": "electric_scooter"}, {"bike_id": "22477a424ac77a4348b788d9c6d307b0", "is_reserved": 0, "fusion_lon": 0.0, "lat": 38.99817783333334, "is_disabled": 0, "name": "22477a424ac77a4348b788d9c6d307b0", "fusion_lat": 0.0, "rental_uris": {"ios": "https://dc.lft.to/lastmile_qr_scan", "android": "https://dc.lft.to/lastmile_qr_scan"}, "lon": -76.88377433333333, "type": "electric_bike"}, {"bike_id": "c82fc801f558f540d059fc452ebcb002", "is_reserved": 0, "fusion_lon": 0.0, "lat": 38.905703333333335, "is_disabled": 0, "name": "c82fc801f558f540d059fc452ebcb002", "fusion_lat": 0.0, "rental_uris": {"ios": "https://dc.lft.to/lastmile_qr_scan", "android": "https://dc.lft.to/lastmile_qr_scan"}, "lon": -77.005814, "type": "electric_scooter"}, {"bike_id": "5da3ed01beec0a587a71c0946887016b", "is_reserved": 0, "fusion_lon": 0.0, "lat": 38.903433, "is_disabled": 0, "name": "5da3ed01beec0a587a71c0946887016b", "fusion_lat": 0.0, "rental_uris": {"ios": "https://dc.lft.to/lastmile_qr_scan", "android": "https://dc.lft.to/lastmile_qr_scan"}, "lon": -77.06644333333334, "type": "electric_scooter"}, {"bike_id": "844f4de5390ae026cdc4770e877f08b2", "is_reserved": 0, "fusion_lon": 0.0, "lat": 38.89171116666667, "is_disabled": 0, "name": "844f4de5390ae026cdc4770e877f08b2", "fusion_lat": 0.0, "rental_uris": {"ios": "https://dc.lft.to/lastmile_qr_scan", "android": "https://dc.lft.to/lastmile_qr_scan"}, "lon": -77.01543866666667, "type": "electric_scooter"}, {"bike_id": "5177528e353b2515881120b49ab6dce3", "is_reserved": 0, "fusion_lon": 0.0, "lat": 38.902854166666664, "is_disabled": 0, "name": "5177528e353b2515881120b49ab6dce3", "fusion_lat": 0.0, "rental_uris": {"ios": "https://dc.lft.to/lastmile_qr_scan", "android": "https://dc.lft.to/lastmile_qr_scan"}, "lon": -77.03844416666666, "type": "electric_scooter"}, {"bike_id": "7da51fd29f297d368e566c2d46ebfb61", "is_reserved": 0, "fusion_lon": 0.0, "lat": 38.91895383333333, "is_disabled": 0, "name": "7da51fd29f297d368e566c2d46ebfb61", "fusion_lat": 0.0, "rental_uris": {"ios": "https://dc.lft.to/lastmile_qr_scan", "android": "https://dc.lft.to/lastmile_qr_scan"}, "lon": -77.01967866666666, "type": "electric_scooter"}, {"bike_id": "aba1df88a5ba25241d3097b76e4ce515", "is_reserved": 0, "fusion_lon": 0.0, "lat": 38.87639683333333, "is_disabled": 0, "name": "aba1df88a5ba25241d3097b76e4ce515", "fusion_lat": 0.0, "rental_uris": {"ios": "https://dc.lft.to/lastmile_qr_scan", "android": "https://dc.lft.to/lastmile_qr_scan"}, "lon": -76.99585633333334, "type": "electric_scooter"}, {"bike_id": "d94d76980652f57c224c404952d71a0e", "is_reserved": 0, "fusion_lon": 0.0, "lat": 38.934543833333336, "is_disabled": 0, "name": "d94d76980652f57c224c404952d71a0e", "fusion_lat": 0.0, "rental_uris": {"ios": "https://dc.lft.to/lastmile_qr_scan", "android": "https://dc.lft.to/lastmile_qr_scan"}, "lon": -77.03115583333333, "type": "electric_scooter"}, {"bike_id": "49e2ea1402dec9d633182f6fe644d73f", "is_reserved": 0, "fusion_lon": 0.0, "lat": 38.9185015, "is_disabled": 0, "name": "49e2ea1402dec9d633182f6fe644d73f", "fusion_lat": 0.0, "rental_uris": {"ios": "https://dc.lft.to/lastmile_qr_scan", "android": "https://dc.lft.to/lastmile_qr_scan"}, "lon": -77.03905133333333, "type": "electric_scooter"}, {"bike_id": "06c22cb971639219305f2fe60b40f8ab", "is_reserved": 0, "fusion_lon": 0.0, "lat": 38.91486783333333, "is_disabled": 0, "name": "06c22cb971639219305f2fe60b40f8ab", "fusion_lat": 0.0, "rental_uris": {"ios": "https://dc.lft.to/lastmile_qr_scan", "android": "https://dc.lft.to/lastmile_qr_scan"}, "lon": -77.02183266666667, "type": "electric_scooter"}, {"bike_id": "60a2842c3ddd3a80c3490c87cc74fdd1", "is_reserved": 0, "fusion_lon": 0.0, "lat": 38.90000283333333, "is_disabled": 0, "name": "60a2842c3ddd3a80c3490c87cc74fdd1", "fusion_lat": 0.0, "rental_uris": {"ios": "https://dc.lft.to/lastmile_qr_scan", "android": "https://dc.lft.to/lastmile_qr_scan"}, "lon": -77.01101066666666, "type": "electric_scooter"}, {"bike_id": "ccbec16b44809e8be6b92aff01a65a8c", "is_reserved": 0, "fusion_lon": 0.0, "lat": 38.91677333333333, "is_disabled": 0, "name": "ccbec16b44809e8be6b92aff01a65a8c", "fusion_lat": 0.0, "rental_uris": {"ios": "https://dc.lft.to/lastmile_qr_scan", "android": "https://dc.lft.to/lastmile_qr_scan"}, "lon": -77.02950566666667, "type": "electric_scooter"}, {"bike_id": "3f4c6be9909d35854aee3d90ae4d2a20", "is_reserved": 0, "fusion_lon": 0.0, "lat": 38.89811316666667, "is_disabled": 0, "name": "3f4c6be9909d35854aee3d90ae4d2a20", "fusion_lat": 0.0, "rental_uris": {"ios": "https://dc.lft.to/lastmile_qr_scan", "android": "https://dc.lft.to/lastmile_qr_scan"}, "lon": -77.03296633333333, "type": "electric_scooter"}, {"bike_id": "9989b108d7df7441001f0c1cbc4c5356", "is_reserved": 0, "fusion_lon": 0.0, "lat": 38.88492316666667, "is_disabled": 0, "name": "9989b108d7df7441001f0c1cbc4c5356", "fusion_lat": 0.0, "rental_uris": {"ios": "https://dc.lft.to/lastmile_qr_scan", "android": "https://dc.lft.to/lastmile_qr_scan"}, "lon": -77.007155, "type": "electric_scooter"}, {"bike_id": "8f2b51c72be8fa96f4d10e317dd34d39", "is_reserved": 0, "fusion_lon": 0.0, "lat": 38.91337933333333, "is_disabled": 0, "name": "8f2b51c72be8fa96f4d10e317dd34d39", "fusion_lat": 0.0, "rental_uris": {"ios": "https://dc.lft.to/lastmile_qr_scan", "android": "https://dc.lft.to/lastmile_qr_scan"}, "lon": -77.003347, "type": "electric_scooter"}, {"bike_id": "7e03a674286b3c2e8228c3de148ab1de", "is_reserved": 0, "fusion_lon": 0.0, "lat": 38.87191833333333, "is_disabled": 0, "name": "7e03a674286b3c2e8228c3de148ab1de", "fusion_lat": 0.0, "rental_uris": {"ios": "https://dc.lft.to/lastmile_qr_scan", "android": "https://dc.lft.to/lastmile_qr_scan"}, "lon": -77.01372216666667, "type": "electric_scooter"}, {"bike_id": "2d1fdf7c38964807de29cd2def2edb06", "is_reserved": 0, "fusion_lon": 0.0, "lat": 38.909239666666664, "is_disabled": 0, "name": "2d1fdf7c38964807de29cd2def2edb06", "fusion_lat": 0.0, "rental_uris": {"ios": "https://dc.lft.to/lastmile_qr_scan", "android": "https://dc.lft.to/lastmile_qr_scan"}, "lon": -77.0384885, "type": "electric_scooter"}, {"bike_id": "5d4c32ebd068197e45075d201de71040", "is_reserved": 0, "fusion_lon": 0.0, "lat": 38.93675, "is_disabled": 0, "name": "5d4c32ebd068197e45075d201de71040", "fusion_lat": 0.0, "rental_uris": {"ios": "https://dc.lft.to/lastmile_qr_scan", "android": "https://dc.lft.to/lastmile_qr_scan"}, "lon": -76.95197033333334, "type": "electric_bike"}, {"bike_id": "e718ad35aba53673fc8c138b08feb00f", "is_reserved": 0, "fusion_lon": 0.0, "lat": 38.928802166666664, "is_disabled": 0, "name": "e718ad35aba53673fc8c138b08feb00f", "fusion_lat": 0.0, "rental_uris": {"ios": "https://dc.lft.to/lastmile_qr_scan", "android": "https://dc.lft.to/lastmile_qr_scan"}, "lon": -77.0404915, "type": "electric_scooter"}, {"bike_id": "2c3115009e7b103049f8eb97b9507f30", "is_reserved": 0, "fusion_lon": 0.0, "lat": 38.900117333333334, "is_disabled": 0, "name": "2c3115009e7b103049f8eb97b9507f30", "fusion_lat": 0.0, "rental_uris": {"ios": "https://dc.lft.to/lastmile_qr_scan", "android": "https://dc.lft.to/lastmile_qr_scan"}, "lon": -76.99770866666667, "type": "electric_scooter"}, {"bike_id": "e25ac82b761b52a1e036a7f27f8c0b88", "is_reserved": 0, "fusion_lon": 0.0, "lat": 38.91953933333333, "is_disabled": 0, "name": "e25ac82b761b52a1e036a7f27f8c0b88", "fusion_lat": 0.0, "rental_uris": {"ios": "https://dc.lft.to/lastmile_qr_scan", "android": "https://dc.lft.to/lastmile_qr_scan"}, "lon": -76.979092, "type": "electric_bike"}, {"bike_id": "bcd04be82e1d26a0ed3983530be0fa7c", "is_reserved": 0, "fusion_lon": 0.0, "lat": 38.8852075, "is_disabled": 0, "name": "bcd04be82e1d26a0ed3983530be0fa7c", "fusion_lat": 0.0, "rental_uris": {"ios": "https://dc.lft.to/lastmile_qr_scan", "android": "https://dc.lft.to/lastmile_qr_scan"}, "lon": -77.017185, "type": "electric_scooter"}, {"bike_id": "ff275d3f9db82a8f1d2751f31c290ffb", "is_reserved": 0, "fusion_lon": 0.0, "lat": 38.88405383333333, "is_disabled": 0, "name": "ff275d3f9db82a8f1d2751f31c290ffb", "fusion_lat": 0.0, "rental_uris": {"ios": "https://dc.lft.to/lastmile_qr_scan", "android": "https://dc.lft.to/lastmile_qr_scan"}, "lon": -76.96063766666667, "type": "electric_bike"}, {"bike_id": "32b2259df04899dc0381845e7b8b1e7a", "is_reserved": 0, "fusion_lon": 0.0, "lat": 38.9066445, "is_disabled": 0, "name": "32b2259df04899dc0381845e7b8b1e7a", "fusion_lat": 0.0, "rental_uris": {"ios": "https://dc.lft.to/lastmile_qr_scan", "android": "https://dc.lft.to/lastmile_qr_scan"}, "lon": -77.038133, "type": "electric_scooter"}, {"bike_id": "8a4f9719c4308a9184eb8f0024c9037b", "is_reserved": 0, "fusion_lon": 0.0, "lat": 38.911533166666665, "is_disabled": 0, "name": "8a4f9719c4308a9184eb8f0024c9037b", "fusion_lat": 0.0, "rental_uris": {"ios": "https://dc.lft.to/lastmile_qr_scan", "android": "https://dc.lft.to/lastmile_qr_scan"}, "lon": -77.04167266666667, "type": "electric_scooter"}, {"bike_id": "d182a5a3f4a45156860186f3b87ad555", "is_reserved": 0, "fusion_lon": 0.0, "lat": 38.890039333333334, "is_disabled": 0, "name": "d182a5a3f4a45156860186f3b87ad555", "fusion_lat": 0.0, "rental_uris": {"ios": "https://dc.lft.to/lastmile_qr_scan", "android": "https://dc.lft.to/lastmile_qr_scan"}, "lon": -76.93737616666667, "type": "electric_scooter"}, {"bike_id": "55799e70f985aa7f88fa795b8d86aa39", "is_reserved": 0, "fusion_lon": 0.0, "lat": 38.90181483333333, "is_disabled": 0, "name": "55799e70f985aa7f88fa795b8d86aa39", "fusion_lat": 0.0, "rental_uris": {"ios": "https://dc.lft.to/lastmile_qr_scan", "android": "https://dc.lft.to/lastmile_qr_scan"}, "lon": -77.0220475, "type": "electric_scooter"}, {"bike_id": "404d9a76e3ade4de4afee4292d7cbf35", "is_reserved": 0, "fusion_lon": 0.0, "lat": 38.896406, "is_disabled": 0, "name": "404d9a76e3ade4de4afee4292d7cbf35", "fusion_lat": 0.0, "rental_uris": {"ios": "https://dc.lft.to/lastmile_qr_scan", "android": "https://dc.lft.to/lastmile_qr_scan"}, "lon": -77.03233116666667, "type": "electric_scooter"}, {"bike_id": "57c5dc64e69d389083cb018a309aef5f", "is_reserved": 0, "fusion_lon": 0.0, "lat": 38.92100533333333, "is_disabled": 0, "name": "57c5dc64e69d389083cb018a309aef5f", "fusion_lat": 0.0, "rental_uris": {"ios": "https://dc.lft.to/lastmile_qr_scan", "android": "https://dc.lft.to/lastmile_qr_scan"}, "lon": -77.0317465, "type": "electric_scooter"}, {"bike_id": "e786ae673411694a6d7e6a577571e457", "is_reserved": 0, "fusion_lon": 0.0, "lat": 38.904147, "is_disabled": 0, "name": "e786ae673411694a6d7e6a577571e457", "fusion_lat": 0.0, "rental_uris": {"ios": "https://dc.lft.to/lastmile_qr_scan", "android": "https://dc.lft.to/lastmile_qr_scan"}, "lon": -77.04331283333333, "type": "electric_scooter"}, {"bike_id": "b836ae3352eb6daec3faa43fe9f58301", "is_reserved": 0, "fusion_lon": 0.0, "lat": 38.92252783333333, "is_disabled": 0, "name": "b836ae3352eb6daec3faa43fe9f58301", "fusion_lat": 0.0, "rental_uris": {"ios": "https://dc.lft.to/lastmile_qr_scan", "android": "https://dc.lft.to/lastmile_qr_scan"}, "lon": -77.018248, "type": "electric_scooter"}, {"bike_id": "97eeb5c85546ba458529f6b12a0926f0", "is_reserved": 0, "fusion_lon": 0.0, "lat": 38.930936833333334, "is_disabled": 0, "name": "97eeb5c85546ba458529f6b12a0926f0", "fusion_lat": 0.0, "rental_uris": {"ios": "https://dc.lft.to/lastmile_qr_scan", "android": "https://dc.lft.to/lastmile_qr_scan"}, "lon": -77.02510866666667, "type": "electric_scooter"}, {"bike_id": "81da00e089e45e0ee5e0069c471d2aef", "is_reserved": 0, "fusion_lon": 0.0, "lat": 38.90028266666667, "is_disabled": 0, "name": "81da00e089e45e0ee5e0069c471d2aef", "fusion_lat": 0.0, "rental_uris": {"ios": "https://dc.lft.to/lastmile_qr_scan", "android": "https://dc.lft.to/lastmile_qr_scan"}, "lon": -77.04682766666667, "type": "electric_scooter"}, {"bike_id": "700d969e463e0293d893753f51ae4760", "is_reserved": 0, "fusion_lon": 0.0, "lat": 38.9059075, "is_disabled": 0, "name": "700d969e463e0293d893753f51ae4760", "fusion_lat": 0.0, "rental_uris": {"ios": "https://dc.lft.to/lastmile_qr_scan", "android": "https://dc.lft.to/lastmile_qr_scan"}, "lon": -77.00279533333334, "type": "electric_scooter"}, {"bike_id": "abb013179562d7da78dc31deb7dfb1d5", "is_reserved": 0, "fusion_lon": 0.0, "lat": 38.95262833333334, "is_disabled": 0, "name": "abb013179562d7da78dc31deb7dfb1d5", "fusion_lat": 0.0, "rental_uris": {"ios": "https://dc.lft.to/lastmile_qr_scan", "android": "https://dc.lft.to/lastmile_qr_scan"}, "lon": -77.06982983333333, "type": "electric_bike"}, {"bike_id": "c7be737acab523f4a1b13780867fc795", "is_reserved": 0, "fusion_lon": 0.0, "lat": 38.866058833333334, "is_disabled": 0, "name": "c7be737acab523f4a1b13780867fc795", "fusion_lat": 0.0, "rental_uris": {"ios": "https://dc.lft.to/lastmile_qr_scan", "android": "https://dc.lft.to/lastmile_qr_scan"}, "lon": -76.98919133333334, "type": "electric_scooter"}, {"bike_id": "46b9ee2c1ecde10d30ff8b570890a312", "is_reserved": 0, "fusion_lon": 0.0, "lat": 38.90571833333333, "is_disabled": 0, "name": "46b9ee2c1ecde10d30ff8b570890a312", "fusion_lat": 0.0, "rental_uris": {"ios": "https://dc.lft.to/lastmile_qr_scan", "android": "https://dc.lft.to/lastmile_qr_scan"}, "lon": -77.021739, "type": "electric_scooter"}, {"bike_id": "21cff70530fa43bba780148bcadbcf18", "is_reserved": 0, "fusion_lon": 0.0, "lat": 38.8922245, "is_disabled": 0, "name": "21cff70530fa43bba780148bcadbcf18", "fusion_lat": 0.0, "rental_uris": {"ios": "https://dc.lft.to/lastmile_qr_scan", "android": "https://dc.lft.to/lastmile_qr_scan"}, "lon": -77.03165966666667, "type": "electric_scooter"}, {"bike_id": "798436739fbfea0d63126c64567de03c", "is_reserved": 0, "fusion_lon": 0.0, "lat": 38.923641833333335, "is_disabled": 0, "name": "798436739fbfea0d63126c64567de03c", "fusion_lat": 0.0, "rental_uris": {"ios": "https://dc.lft.to/lastmile_qr_scan", "android": "https://dc.lft.to/lastmile_qr_scan"}, "lon": -77.05031, "type": "electric_scooter"}, {"bike_id": "30b0a718b3f802f2100415e736d63834", "is_reserved": 0, "fusion_lon": 0.0, "lat": 38.86237466666667, "is_disabled": 0, "name": "30b0a718b3f802f2100415e736d63834", "fusion_lat": 0.0, "rental_uris": {"ios": "https://dc.lft.to/lastmile_qr_scan", "android": "https://dc.lft.to/lastmile_qr_scan"}, "lon": -76.99479233333334, "type": "electric_scooter"}, {"bike_id": "cec5a5d3d8e09cd1d9f2cacbecb6eb25", "is_reserved": 0, "fusion_lon": 0.0, "lat": 38.9014695, "is_disabled": 0, "name": "cec5a5d3d8e09cd1d9f2cacbecb6eb25", "fusion_lat": 0.0, "rental_uris": {"ios": "https://dc.lft.to/lastmile_qr_scan", "android": "https://dc.lft.to/lastmile_qr_scan"}, "lon": -77.04482183333333, "type": "electric_scooter"}, {"bike_id": "af6897f523a4e4b048e4b24d458e5d31", "is_reserved": 0, "fusion_lon": 0.0, "lat": 38.905182, "is_disabled": 0, "name": "af6897f523a4e4b048e4b24d458e5d31", "fusion_lat": 0.0, "rental_uris": {"ios": "https://dc.lft.to/lastmile_qr_scan", "android": "https://dc.lft.to/lastmile_qr_scan"}, "lon": -77.04158066666666, "type": "electric_scooter"}, {"bike_id": "97f41200c9d717ed824034afaaf01897", "is_reserved": 0, "fusion_lon": 0.0, "lat": 38.9110585, "is_disabled": 0, "name": "97f41200c9d717ed824034afaaf01897", "fusion_lat": 0.0, "rental_uris": {"ios": "https://dc.lft.to/lastmile_qr_scan", "android": "https://dc.lft.to/lastmile_qr_scan"}, "lon": -77.00373233333333, "type": "electric_scooter"}, {"bike_id": "5094ab1592dce8d73c1609f26293c775", "is_reserved": 0, "fusion_lon": 0.0, "lat": 38.89826516666667, "is_disabled": 0, "name": "5094ab1592dce8d73c1609f26293c775", "fusion_lat": 0.0, "rental_uris": {"ios": "https://dc.lft.to/lastmile_qr_scan", "android": "https://dc.lft.to/lastmile_qr_scan"}, "lon": -77.03344916666667, "type": "electric_scooter"}, {"bike_id": "9f9043ac824515090ca81e20050ad3fa", "is_reserved": 0, "fusion_lon": 0.0, "lat": 38.92343016666667, "is_disabled": 0, "name": "9f9043ac824515090ca81e20050ad3fa", "fusion_lat": 0.0, "rental_uris": {"ios": "https://dc.lft.to/lastmile_qr_scan", "android": "https://dc.lft.to/lastmile_qr_scan"}, "lon": -77.03514733333333, "type": "electric_scooter"}, {"bike_id": "19776dc0b12ff105ecc31791d0b1d540", "is_reserved": 0, "fusion_lon": 0.0, "lat": 38.9334575, "is_disabled": 0, "name": "19776dc0b12ff105ecc31791d0b1d540", "fusion_lat": 0.0, "rental_uris": {"ios": "https://dc.lft.to/lastmile_qr_scan", "android": "https://dc.lft.to/lastmile_qr_scan"}, "lon": -77.05858883333333, "type": "electric_scooter"}, {"bike_id": "abd053bdd978c58b03985140bfe1749d", "is_reserved": 0, "fusion_lon": 0.0, "lat": 38.920972666666664, "is_disabled": 0, "name": "abd053bdd978c58b03985140bfe1749d", "fusion_lat": 0.0, "rental_uris": {"ios": "https://dc.lft.to/lastmile_qr_scan", "android": "https://dc.lft.to/lastmile_qr_scan"}, "lon": -77.074652, "type": "electric_scooter"}, {"bike_id": "246a5e4b022de475f152f407601513b1", "is_reserved": 0, "fusion_lon": 0.0, "lat": 38.900338833333336, "is_disabled": 0, "name": "246a5e4b022de475f152f407601513b1", "fusion_lat": 0.0, "rental_uris": {"ios": "https://dc.lft.to/lastmile_qr_scan", "android": "https://dc.lft.to/lastmile_qr_scan"}, "lon": -77.0112555, "type": "electric_scooter"}, {"bike_id": "1f3d9ad5320e4ff21954b1254a27a72b", "is_reserved": 0, "fusion_lon": 0.0, "lat": 38.83935616666667, "is_disabled": 0, "name": "1f3d9ad5320e4ff21954b1254a27a72b", "fusion_lat": 0.0, "rental_uris": {"ios": "https://dc.lft.to/lastmile_qr_scan", "android": "https://dc.lft.to/lastmile_qr_scan"}, "lon": -77.07904166666667, "type": "electric_bike"}, {"bike_id": "5da73b8ecd8f81a22b06b8eed97ee6fa", "is_reserved": 0, "fusion_lon": 0.0, "lat": 38.898152, "is_disabled": 0, "name": "5da73b8ecd8f81a22b06b8eed97ee6fa", "fusion_lat": 0.0, "rental_uris": {"ios": "https://dc.lft.to/lastmile_qr_scan", "android": "https://dc.lft.to/lastmile_qr_scan"}, "lon": -77.03291883333333, "type": "electric_scooter"}, {"bike_id": "1677bcb9a8cae85a0148469a5e81927e", "is_reserved": 0, "fusion_lon": 0.0, "lat": 38.88494333333333, "is_disabled": 0, "name": "1677bcb9a8cae85a0148469a5e81927e", "fusion_lat": 0.0, "rental_uris": {"ios": "https://dc.lft.to/lastmile_qr_scan", "android": "https://dc.lft.to/lastmile_qr_scan"}, "lon": -77.00729116666666, "type": "electric_scooter"}, {"bike_id": "c8f61ebcabca7c91601cba2c20e6e8a4", "is_reserved": 0, "fusion_lon": 0.0, "lat": 38.90321316666667, "is_disabled": 0, "name": "c8f61ebcabca7c91601cba2c20e6e8a4", "fusion_lat": 0.0, "rental_uris": {"ios": "https://dc.lft.to/lastmile_qr_scan", "android": "https://dc.lft.to/lastmile_qr_scan"}, "lon": -77.03327733333333, "type": "electric_scooter"}, {"bike_id": "ab9a7de15feb058d39492b35737c978f", "is_reserved": 0, "fusion_lon": 0.0, "lat": 38.915911, "is_disabled": 0, "name": "ab9a7de15feb058d39492b35737c978f", "fusion_lat": 0.0, "rental_uris": {"ios": "https://dc.lft.to/lastmile_qr_scan", "android": "https://dc.lft.to/lastmile_qr_scan"}, "lon": -77.03190183333334, "type": "electric_scooter"}, {"bike_id": "df678eb00adce81dc6c5ae60144c1d1d", "is_reserved": 0, "fusion_lon": 0.0, "lat": 38.84272683333333, "is_disabled": 0, "name": "df678eb00adce81dc6c5ae60144c1d1d", "fusion_lat": 0.0, "rental_uris": {"ios": "https://dc.lft.to/lastmile_qr_scan", "android": "https://dc.lft.to/lastmile_qr_scan"}, "lon": -76.98843216666667, "type": "electric_bike"}, {"bike_id": "ea78a5143ad6f79e1e24040610340bf4", "is_reserved": 0, "fusion_lon": 0.0, "lat": 38.914283, "is_disabled": 0, "name": "ea78a5143ad6f79e1e24040610340bf4", "fusion_lat": 0.0, "rental_uris": {"ios": "https://dc.lft.to/lastmile_qr_scan", "android": "https://dc.lft.to/lastmile_qr_scan"}, "lon": -77.0415645, "type": "electric_scooter"}, {"bike_id": "a326088ddd8903c0e34761492c87c90b", "is_reserved": 0, "fusion_lon": 0.0, "lat": 38.89826816666667, "is_disabled": 0, "name": "a326088ddd8903c0e34761492c87c90b", "fusion_lat": 0.0, "rental_uris": {"ios": "https://dc.lft.to/lastmile_qr_scan", "android": "https://dc.lft.to/lastmile_qr_scan"}, "lon": -77.033447, "type": "electric_scooter"}, {"bike_id": "1d6e2be18f6370e69c75ce007e777ee0", "is_reserved": 0, "fusion_lon": 0.0, "lat": 38.892301833333335, "is_disabled": 0, "name": "1d6e2be18f6370e69c75ce007e777ee0", "fusion_lat": 0.0, "rental_uris": {"ios": "https://dc.lft.to/lastmile_qr_scan", "android": "https://dc.lft.to/lastmile_qr_scan"}, "lon": -77.02202766666667, "type": "electric_scooter"}, {"bike_id": "b193134f300c69e63edfdfe6715e6dab", "is_reserved": 0, "fusion_lon": 0.0, "lat": 38.90030866666667, "is_disabled": 0, "name": "b193134f300c69e63edfdfe6715e6dab", "fusion_lat": 0.0, "rental_uris": {"ios": "https://dc.lft.to/lastmile_qr_scan", "android": "https://dc.lft.to/lastmile_qr_scan"}, "lon": -77.0116455, "type": "electric_scooter"}, {"bike_id": "5f924fc639a79792bdebfa33059486cf", "is_reserved": 0, "fusion_lon": 0.0, "lat": 38.880427833333336, "is_disabled": 0, "name": "5f924fc639a79792bdebfa33059486cf", "fusion_lat": 0.0, "rental_uris": {"ios": "https://dc.lft.to/lastmile_qr_scan", "android": "https://dc.lft.to/lastmile_qr_scan"}, "lon": -77.01323216666667, "type": "electric_bike"}, {"bike_id": "100880bd506307d7ad0014479a0eaf5c", "is_reserved": 0, "fusion_lon": 0.0, "lat": 38.904515833333335, "is_disabled": 0, "name": "100880bd506307d7ad0014479a0eaf5c", "fusion_lat": 0.0, "rental_uris": {"ios": "https://dc.lft.to/lastmile_qr_scan", "android": "https://dc.lft.to/lastmile_qr_scan"}, "lon": -77.02897733333333, "type": "electric_scooter"}, {"bike_id": "2dca88684ed25a85ccb79844c892e83a", "is_reserved": 0, "fusion_lon": 0.0, "lat": 38.900218333333335, "is_disabled": 0, "name": "2dca88684ed25a85ccb79844c892e83a", "fusion_lat": 0.0, "rental_uris": {"ios": "https://dc.lft.to/lastmile_qr_scan", "android": "https://dc.lft.to/lastmile_qr_scan"}, "lon": -77.011623, "type": "electric_scooter"}, {"bike_id": "6fdf91d92e30f66e7883d20d2289e668", "is_reserved": 0, "fusion_lon": 0.0, "lat": 38.915609833333335, "is_disabled": 0, "name": "6fdf91d92e30f66e7883d20d2289e668", "fusion_lat": 0.0, "rental_uris": {"ios": "https://dc.lft.to/lastmile_qr_scan", "android": "https://dc.lft.to/lastmile_qr_scan"}, "lon": -77.03864416666667, "type": "electric_scooter"}, {"bike_id": "de1e40c127cad6c4de4073652a6490dc", "is_reserved": 0, "fusion_lon": 0.0, "lat": 38.89490033333333, "is_disabled": 0, "name": "de1e40c127cad6c4de4073652a6490dc", "fusion_lat": 0.0, "rental_uris": {"ios": "https://dc.lft.to/lastmile_qr_scan", "android": "https://dc.lft.to/lastmile_qr_scan"}, "lon": -77.05003566666667, "type": "electric_scooter"}, {"bike_id": "655dcb694d73ceafc1b31ee3d2b515a5", "is_reserved": 0, "fusion_lon": 0.0, "lat": 38.896216, "is_disabled": 0, "name": "655dcb694d73ceafc1b31ee3d2b515a5", "fusion_lat": 0.0, "rental_uris": {"ios": "https://dc.lft.to/lastmile_qr_scan", "android": "https://dc.lft.to/lastmile_qr_scan"}, "lon": -77.000458, "type": "electric_bike"}, {"bike_id": "732424b3ca973c4571b67f48e5807797", "is_reserved": 0, "fusion_lon": 0.0, "lat": 38.92374066666667, "is_disabled": 0, "name": "732424b3ca973c4571b67f48e5807797", "fusion_lat": 0.0, "rental_uris": {"ios": "https://dc.lft.to/lastmile_qr_scan", "android": "https://dc.lft.to/lastmile_qr_scan"}, "lon": -77.02054683333333, "type": "electric_scooter"}, {"bike_id": "3eadd8c353145a32d46b95d8e135d4cd", "is_reserved": 0, "fusion_lon": 0.0, "lat": 38.89740233333333, "is_disabled": 0, "name": "3eadd8c353145a32d46b95d8e135d4cd", "fusion_lat": 0.0, "rental_uris": {"ios": "https://dc.lft.to/lastmile_qr_scan", "android": "https://dc.lft.to/lastmile_qr_scan"}, "lon": -77.04636516666666, "type": "electric_scooter"}, {"bike_id": "b8e5a21ba73b5f6e8ecebedb013aa529", "is_reserved": 0, "fusion_lon": 0.0, "lat": 38.9080825, "is_disabled": 0, "name": "b8e5a21ba73b5f6e8ecebedb013aa529", "fusion_lat": 0.0, "rental_uris": {"ios": "https://dc.lft.to/lastmile_qr_scan", "android": "https://dc.lft.to/lastmile_qr_scan"}, "lon": -77.03454766666667, "type": "electric_scooter"}, {"bike_id": "f047d456febed9ab6a6b3457512af67f", "is_reserved": 0, "fusion_lon": 0.0, "lat": 38.8773485, "is_disabled": 0, "name": "f047d456febed9ab6a6b3457512af67f", "fusion_lat": 0.0, "rental_uris": {"ios": "https://dc.lft.to/lastmile_qr_scan", "android": "https://dc.lft.to/lastmile_qr_scan"}, "lon": -76.97283316666666, "type": "electric_scooter"}, {"bike_id": "8feba9a11a9ea7eb50db16f12b93e469", "is_reserved": 0, "fusion_lon": 0.0, "lat": 38.86204683333333, "is_disabled": 0, "name": "8feba9a11a9ea7eb50db16f12b93e469", "fusion_lat": 0.0, "rental_uris": {"ios": "https://dc.lft.to/lastmile_qr_scan", "android": "https://dc.lft.to/lastmile_qr_scan"}, "lon": -76.9946675, "type": "electric_scooter"}, {"bike_id": "b20b8e7b6ab54b146f9fe26ba4657df1", "is_reserved": 0, "fusion_lon": 0.0, "lat": 38.9350685, "is_disabled": 0, "name": "b20b8e7b6ab54b146f9fe26ba4657df1", "fusion_lat": 0.0, "rental_uris": {"ios": "https://dc.lft.to/lastmile_qr_scan", "android": "https://dc.lft.to/lastmile_qr_scan"}, "lon": -77.027245, "type": "electric_scooter"}, {"bike_id": "004f0857d8ae3c8c38d023858423d084", "is_reserved": 0, "fusion_lon": 0.0, "lat": 38.90280816666667, "is_disabled": 0, "name": "004f0857d8ae3c8c38d023858423d084", "fusion_lat": 0.0, "rental_uris": {"ios": "https://dc.lft.to/lastmile_qr_scan", "android": "https://dc.lft.to/lastmile_qr_scan"}, "lon": -77.01648266666666, "type": "electric_bike"}, {"bike_id": "ea34849684a6e851b1b9109e755a8081", "is_reserved": 0, "fusion_lon": 0.0, "lat": 38.93973283333333, "is_disabled": 0, "name": "ea34849684a6e851b1b9109e755a8081", "fusion_lat": 0.0, "rental_uris": {"ios": "https://dc.lft.to/lastmile_qr_scan", "android": "https://dc.lft.to/lastmile_qr_scan"}, "lon": -77.0359165, "type": "electric_scooter"}, {"bike_id": "39f73e26368b7122a125b591dc638e94", "is_reserved": 0, "fusion_lon": 0.0, "lat": 38.955521833333336, "is_disabled": 0, "name": "39f73e26368b7122a125b591dc638e94", "fusion_lat": 0.0, "rental_uris": {"ios": "https://dc.lft.to/lastmile_qr_scan", "android": "https://dc.lft.to/lastmile_qr_scan"}, "lon": -76.94008116666667, "type": "electric_bike"}, {"bike_id": "12b58cf759ee09d3bc0cf8261a559f9d", "is_reserved": 0, "fusion_lon": 0.0, "lat": 38.92237166666666, "is_disabled": 0, "name": "12b58cf759ee09d3bc0cf8261a559f9d", "fusion_lat": 0.0, "rental_uris": {"ios": "https://dc.lft.to/lastmile_qr_scan", "android": "https://dc.lft.to/lastmile_qr_scan"}, "lon": -77.04141733333333, "type": "electric_scooter"}, {"bike_id": "e4b64aa17c089a928b609ea14680f81a", "is_reserved": 0, "fusion_lon": 0.0, "lat": 38.905822666666666, "is_disabled": 0, "name": "e4b64aa17c089a928b609ea14680f81a", "fusion_lat": 0.0, "rental_uris": {"ios": "https://dc.lft.to/lastmile_qr_scan", "android": "https://dc.lft.to/lastmile_qr_scan"}, "lon": -77.0346335, "type": "electric_scooter"}, {"bike_id": "c8f07b5d33ffa334b87b6ca400de005c", "is_reserved": 0, "fusion_lon": 0.0, "lat": 38.880076833333334, "is_disabled": 0, "name": "c8f07b5d33ffa334b87b6ca400de005c", "fusion_lat": 0.0, "rental_uris": {"ios": "https://dc.lft.to/lastmile_qr_scan", "android": "https://dc.lft.to/lastmile_qr_scan"}, "lon": -76.91595733333334, "type": "electric_bike"}, {"bike_id": "c2882aada3f6adfa114e324d4b86b873", "is_reserved": 0, "fusion_lon": 0.0, "lat": 38.90369616666667, "is_disabled": 0, "name": "c2882aada3f6adfa114e324d4b86b873", "fusion_lat": 0.0, "rental_uris": {"ios": "https://dc.lft.to/lastmile_qr_scan", "android": "https://dc.lft.to/lastmile_qr_scan"}, "lon": -77.03879683333334, "type": "electric_scooter"}, {"bike_id": "35255f19f1e43471e64dd533b5136f1f", "is_reserved": 0, "fusion_lon": 0.0, "lat": 38.935150166666666, "is_disabled": 0, "name": "35255f19f1e43471e64dd533b5136f1f", "fusion_lat": 0.0, "rental_uris": {"ios": "https://dc.lft.to/lastmile_qr_scan", "android": "https://dc.lft.to/lastmile_qr_scan"}, "lon": -77.033411, "type": "electric_scooter"}, {"bike_id": "44650297f16b5073f1e48dd9bbb35c07", "is_reserved": 0, "fusion_lon": 0.0, "lat": 38.923427, "is_disabled": 0, "name": "44650297f16b5073f1e48dd9bbb35c07", "fusion_lat": 0.0, "rental_uris": {"ios": "https://dc.lft.to/lastmile_qr_scan", "android": "https://dc.lft.to/lastmile_qr_scan"}, "lon": -77.03510116666666, "type": "electric_scooter"}, {"bike_id": "7763b6208151fe45a1d1931d4507dbc7", "is_reserved": 0, "fusion_lon": 0.0, "lat": 38.908996, "is_disabled": 0, "name": "7763b6208151fe45a1d1931d4507dbc7", "fusion_lat": 0.0, "rental_uris": {"ios": "https://dc.lft.to/lastmile_qr_scan", "android": "https://dc.lft.to/lastmile_qr_scan"}, "lon": -77.08619583333333, "type": "electric_scooter"}, {"bike_id": "dc4814bd611c50afb63f2ca9cec5e669", "is_reserved": 0, "fusion_lon": 0.0, "lat": 38.883839333333334, "is_disabled": 0, "name": "dc4814bd611c50afb63f2ca9cec5e669", "fusion_lat": 0.0, "rental_uris": {"ios": "https://dc.lft.to/lastmile_qr_scan", "android": "https://dc.lft.to/lastmile_qr_scan"}, "lon": -76.949231, "type": "electric_scooter"}, {"bike_id": "28358b0868bd81ee34637c69daa4f01f", "is_reserved": 0, "fusion_lon": 0.0, "lat": 38.89247133333333, "is_disabled": 0, "name": "28358b0868bd81ee34637c69daa4f01f", "fusion_lat": 0.0, "rental_uris": {"ios": "https://dc.lft.to/lastmile_qr_scan", "android": "https://dc.lft.to/lastmile_qr_scan"}, "lon": -77.03190266666667, "type": "electric_scooter"}, {"bike_id": "d3d73171a18386b14581d482118b657e", "is_reserved": 0, "fusion_lon": 0.0, "lat": 38.91725783333333, "is_disabled": 0, "name": "d3d73171a18386b14581d482118b657e", "fusion_lat": 0.0, "rental_uris": {"ios": "https://dc.lft.to/lastmile_qr_scan", "android": "https://dc.lft.to/lastmile_qr_scan"}, "lon": -77.0383745, "type": "electric_scooter"}, {"bike_id": "c82d8a60317ace490268eac2e13c4b84", "is_reserved": 0, "fusion_lon": 0.0, "lat": 38.9209455, "is_disabled": 0, "name": "c82d8a60317ace490268eac2e13c4b84", "fusion_lat": 0.0, "rental_uris": {"ios": "https://dc.lft.to/lastmile_qr_scan", "android": "https://dc.lft.to/lastmile_qr_scan"}, "lon": -77.024198, "type": "electric_scooter"}, {"bike_id": "cabc78556df0fea977685a28dc5884f2", "is_reserved": 0, "fusion_lon": 0.0, "lat": 38.90278, "is_disabled": 0, "name": "cabc78556df0fea977685a28dc5884f2", "fusion_lat": 0.0, "rental_uris": {"ios": "https://dc.lft.to/lastmile_qr_scan", "android": "https://dc.lft.to/lastmile_qr_scan"}, "lon": -77.03659816666666, "type": "electric_scooter"}, {"bike_id": "7e7ba843e30fe6a38c36cff02113b3cd", "is_reserved": 0, "fusion_lon": 0.0, "lat": 38.82445716666667, "is_disabled": 0, "name": "7e7ba843e30fe6a38c36cff02113b3cd", "fusion_lat": 0.0, "rental_uris": {"ios": "https://dc.lft.to/lastmile_qr_scan", "android": "https://dc.lft.to/lastmile_qr_scan"}, "lon": -77.0704725, "type": "electric_bike"}, {"bike_id": "1b5a73fc33472569ee93cdd0ed81969e", "is_reserved": 0, "fusion_lon": 0.0, "lat": 38.933388666666666, "is_disabled": 0, "name": "1b5a73fc33472569ee93cdd0ed81969e", "fusion_lat": 0.0, "rental_uris": {"ios": "https://dc.lft.to/lastmile_qr_scan", "android": "https://dc.lft.to/lastmile_qr_scan"}, "lon": -77.042036, "type": "electric_bike"}, {"bike_id": "b87c2da0d8cc60c35df0f4bca9cc37b3", "is_reserved": 0, "fusion_lon": 0.0, "lat": 38.918598, "is_disabled": 0, "name": "b87c2da0d8cc60c35df0f4bca9cc37b3", "fusion_lat": 0.0, "rental_uris": {"ios": "https://dc.lft.to/lastmile_qr_scan", "android": "https://dc.lft.to/lastmile_qr_scan"}, "lon": -76.9609355, "type": "electric_bike"}, {"bike_id": "ce6ed3aa78889d59d2edb865bf670739", "is_reserved": 0, "fusion_lon": 0.0, "lat": 38.92565033333333, "is_disabled": 0, "name": "ce6ed3aa78889d59d2edb865bf670739", "fusion_lat": 0.0, "rental_uris": {"ios": "https://dc.lft.to/lastmile_qr_scan", "android": "https://dc.lft.to/lastmile_qr_scan"}, "lon": -77.0377785, "type": "electric_scooter"}, {"bike_id": "5231bf5f486ac7a3f1be2e2b7bb2707a", "is_reserved": 0, "fusion_lon": 0.0, "lat": 38.907797333333335, "is_disabled": 0, "name": "5231bf5f486ac7a3f1be2e2b7bb2707a", "fusion_lat": 0.0, "rental_uris": {"ios": "https://dc.lft.to/lastmile_qr_scan", "android": "https://dc.lft.to/lastmile_qr_scan"}, "lon": -77.038307, "type": "electric_scooter"}, {"bike_id": "c298ac08c9e95bc648ff1fc04ea277f0", "is_reserved": 0, "fusion_lon": 0.0, "lat": 38.899680333333336, "is_disabled": 0, "name": "c298ac08c9e95bc648ff1fc04ea277f0", "fusion_lat": 0.0, "rental_uris": {"ios": "https://dc.lft.to/lastmile_qr_scan", "android": "https://dc.lft.to/lastmile_qr_scan"}, "lon": -77.03355716666667, "type": "electric_scooter"}, {"bike_id": "45afb035e402b06a1b18b70e2524da51", "is_reserved": 0, "fusion_lon": 0.0, "lat": 38.898787666666664, "is_disabled": 0, "name": "45afb035e402b06a1b18b70e2524da51", "fusion_lat": 0.0, "rental_uris": {"ios": "https://dc.lft.to/lastmile_qr_scan", "android": "https://dc.lft.to/lastmile_qr_scan"}, "lon": -76.93160366666666, "type": "electric_scooter"}, {"bike_id": "83e4b53af70b0f76fb8bc1408e63dbf6", "is_reserved": 0, "fusion_lon": 0.0, "lat": 38.93438616666667, "is_disabled": 0, "name": "83e4b53af70b0f76fb8bc1408e63dbf6", "fusion_lat": 0.0, "rental_uris": {"ios": "https://dc.lft.to/lastmile_qr_scan", "android": "https://dc.lft.to/lastmile_qr_scan"}, "lon": -77.03439133333333, "type": "electric_scooter"}, {"bike_id": "ba98c299293829131cc2323dadde0837", "is_reserved": 0, "fusion_lon": 0.0, "lat": 38.89532233333333, "is_disabled": 0, "name": "ba98c299293829131cc2323dadde0837", "fusion_lat": 0.0, "rental_uris": {"ios": "https://dc.lft.to/lastmile_qr_scan", "android": "https://dc.lft.to/lastmile_qr_scan"}, "lon": -76.9488765, "type": "electric_scooter"}, {"bike_id": "9d5267872289969dc71c0c0769cf153f", "is_reserved": 0, "fusion_lon": 0.0, "lat": 38.906752166666664, "is_disabled": 0, "name": "9d5267872289969dc71c0c0769cf153f", "fusion_lat": 0.0, "rental_uris": {"ios": "https://dc.lft.to/lastmile_qr_scan", "android": "https://dc.lft.to/lastmile_qr_scan"}, "lon": -77.027029, "type": "electric_scooter"}, {"bike_id": "36f077d9d94cb081cdbd3c83a9c79c23", "is_reserved": 0, "fusion_lon": 0.0, "lat": 38.89361683333333, "is_disabled": 0, "name": "36f077d9d94cb081cdbd3c83a9c79c23", "fusion_lat": 0.0, "rental_uris": {"ios": "https://dc.lft.to/lastmile_qr_scan", "android": "https://dc.lft.to/lastmile_qr_scan"}, "lon": -76.9851865, "type": "electric_bike"}, {"bike_id": "08f920eb28933a6d6269a4a710970f34", "is_reserved": 0, "fusion_lon": 0.0, "lat": 38.925020333333336, "is_disabled": 0, "name": "08f920eb28933a6d6269a4a710970f34", "fusion_lat": 0.0, "rental_uris": {"ios": "https://dc.lft.to/lastmile_qr_scan", "android": "https://dc.lft.to/lastmile_qr_scan"}, "lon": -77.00891416666667, "type": "electric_scooter"}, {"bike_id": "4c74a7f57c440b42bad31434153c2e17", "is_reserved": 0, "fusion_lon": 0.0, "lat": 38.950798666666664, "is_disabled": 0, "name": "4c74a7f57c440b42bad31434153c2e17", "fusion_lat": 0.0, "rental_uris": {"ios": "https://dc.lft.to/lastmile_qr_scan", "android": "https://dc.lft.to/lastmile_qr_scan"}, "lon": -77.01192783333333, "type": "electric_bike"}, {"bike_id": "60313639d9a37bb8aa5e74ac85ba416d", "is_reserved": 0, "fusion_lon": 0.0, "lat": 38.90975483333333, "is_disabled": 0, "name": "60313639d9a37bb8aa5e74ac85ba416d", "fusion_lat": 0.0, "rental_uris": {"ios": "https://dc.lft.to/lastmile_qr_scan", "android": "https://dc.lft.to/lastmile_qr_scan"}, "lon": -77.04873516666666, "type": "electric_scooter"}, {"bike_id": "fdfc9f0ac0dcfa252fa466742cfb078a", "is_reserved": 0, "fusion_lon": 0.0, "lat": 38.8853225, "is_disabled": 0, "name": "fdfc9f0ac0dcfa252fa466742cfb078a", "fusion_lat": 0.0, "rental_uris": {"ios": "https://dc.lft.to/lastmile_qr_scan", "android": "https://dc.lft.to/lastmile_qr_scan"}, "lon": -77.00574933333333, "type": "electric_scooter"}, {"bike_id": "1508bd0edd0a189d6b2e50f71cb44368", "is_reserved": 0, "fusion_lon": 0.0, "lat": 38.902913833333336, "is_disabled": 0, "name": "1508bd0edd0a189d6b2e50f71cb44368", "fusion_lat": 0.0, "rental_uris": {"ios": "https://dc.lft.to/lastmile_qr_scan", "android": "https://dc.lft.to/lastmile_qr_scan"}, "lon": -77.03839666666667, "type": "electric_scooter"}, {"bike_id": "7c0c41cbd29713753cc2cddd25453fa9", "is_reserved": 0, "fusion_lon": 0.0, "lat": 38.866664166666666, "is_disabled": 0, "name": "7c0c41cbd29713753cc2cddd25453fa9", "fusion_lat": 0.0, "rental_uris": {"ios": "https://dc.lft.to/lastmile_qr_scan", "android": "https://dc.lft.to/lastmile_qr_scan"}, "lon": -76.98907766666666, "type": "electric_scooter"}, {"bike_id": "588a02a3b23fc94b5e1427e02e941607", "is_reserved": 0, "fusion_lon": 0.0, "lat": 38.905584833333336, "is_disabled": 0, "name": "588a02a3b23fc94b5e1427e02e941607", "fusion_lat": 0.0, "rental_uris": {"ios": "https://dc.lft.to/lastmile_qr_scan", "android": "https://dc.lft.to/lastmile_qr_scan"}, "lon": -77.03439233333333, "type": "electric_scooter"}, {"bike_id": "f5ec06d72726dbb2100dc67dc26ab5dd", "is_reserved": 0, "fusion_lon": 0.0, "lat": 38.899211333333334, "is_disabled": 0, "name": "f5ec06d72726dbb2100dc67dc26ab5dd", "fusion_lat": 0.0, "rental_uris": {"ios": "https://dc.lft.to/lastmile_qr_scan", "android": "https://dc.lft.to/lastmile_qr_scan"}, "lon": -77.0394965, "type": "electric_scooter"}, {"bike_id": "75662ce7cc417c802c25e7c4de9b1471", "is_reserved": 0, "fusion_lon": 0.0, "lat": 38.897788, "is_disabled": 0, "name": "75662ce7cc417c802c25e7c4de9b1471", "fusion_lat": 0.0, "rental_uris": {"ios": "https://dc.lft.to/lastmile_qr_scan", "android": "https://dc.lft.to/lastmile_qr_scan"}, "lon": -77.04315483333333, "type": "electric_scooter"}, {"bike_id": "36b406976ad3e1737c25010bf55f1377", "is_reserved": 0, "fusion_lon": 0.0, "lat": 38.9335235, "is_disabled": 0, "name": "36b406976ad3e1737c25010bf55f1377", "fusion_lat": 0.0, "rental_uris": {"ios": "https://dc.lft.to/lastmile_qr_scan", "android": "https://dc.lft.to/lastmile_qr_scan"}, "lon": -77.06935083333333, "type": "electric_scooter"}, {"bike_id": "3d624058d7cbd509ebe0724e66e7dcf4", "is_reserved": 0, "fusion_lon": 0.0, "lat": 38.911286, "is_disabled": 0, "name": "3d624058d7cbd509ebe0724e66e7dcf4", "fusion_lat": 0.0, "rental_uris": {"ios": "https://dc.lft.to/lastmile_qr_scan", "android": "https://dc.lft.to/lastmile_qr_scan"}, "lon": -77.02190766666666, "type": "electric_scooter"}, {"bike_id": "59895b9e9a0a6ab72a06a3cff1dad08a", "is_reserved": 0, "fusion_lon": 0.0, "lat": 38.9468765, "is_disabled": 0, "name": "59895b9e9a0a6ab72a06a3cff1dad08a", "fusion_lat": 0.0, "rental_uris": {"ios": "https://dc.lft.to/lastmile_qr_scan", "android": "https://dc.lft.to/lastmile_qr_scan"}, "lon": -77.02054833333334, "type": "electric_bike"}, {"bike_id": "c110ace3d95dfc2a3b2daf75c75db57b", "is_reserved": 0, "fusion_lon": 0.0, "lat": 38.95923833333333, "is_disabled": 0, "name": "c110ace3d95dfc2a3b2daf75c75db57b", "fusion_lat": 0.0, "rental_uris": {"ios": "https://dc.lft.to/lastmile_qr_scan", "android": "https://dc.lft.to/lastmile_qr_scan"}, "lon": -77.033238, "type": "electric_scooter"}, {"bike_id": "068b68a00d7cda213d77acccd6ed7575", "is_reserved": 0, "fusion_lon": 0.0, "lat": 38.9081035, "is_disabled": 0, "name": "068b68a00d7cda213d77acccd6ed7575", "fusion_lat": 0.0, "rental_uris": {"ios": "https://dc.lft.to/lastmile_qr_scan", "android": "https://dc.lft.to/lastmile_qr_scan"}, "lon": -77.034345, "type": "electric_scooter"}, {"bike_id": "df6fe6e27ee8662d9eb4be99a296887f", "is_reserved": 0, "fusion_lon": 0.0, "lat": 38.865612166666665, "is_disabled": 0, "name": "df6fe6e27ee8662d9eb4be99a296887f", "fusion_lat": 0.0, "rental_uris": {"ios": "https://dc.lft.to/lastmile_qr_scan", "android": "https://dc.lft.to/lastmile_qr_scan"}, "lon": -76.98948833333333, "type": "electric_scooter"}, {"bike_id": "30532583a2d7b3219a3951b933e5eeb0", "is_reserved": 0, "fusion_lon": 0.0, "lat": 38.916777333333336, "is_disabled": 0, "name": "30532583a2d7b3219a3951b933e5eeb0", "fusion_lat": 0.0, "rental_uris": {"ios": "https://dc.lft.to/lastmile_qr_scan", "android": "https://dc.lft.to/lastmile_qr_scan"}, "lon": -77.02943416666666, "type": "electric_scooter"}, {"bike_id": "cc53cc56a5ab10de3ee94434ddbb83f6", "is_reserved": 0, "fusion_lon": 0.0, "lat": 38.9037235, "is_disabled": 0, "name": "cc53cc56a5ab10de3ee94434ddbb83f6", "fusion_lat": 0.0, "rental_uris": {"ios": "https://dc.lft.to/lastmile_qr_scan", "android": "https://dc.lft.to/lastmile_qr_scan"}, "lon": -77.04370633333333, "type": "electric_scooter"}, {"bike_id": "d1c72f2ea2615dfac2b12b56d1578e79", "is_reserved": 0, "fusion_lon": 0.0, "lat": 38.90533766666667, "is_disabled": 0, "name": "d1c72f2ea2615dfac2b12b56d1578e79", "fusion_lat": 0.0, "rental_uris": {"ios": "https://dc.lft.to/lastmile_qr_scan", "android": "https://dc.lft.to/lastmile_qr_scan"}, "lon": -77.02707166666667, "type": "electric_scooter"}, {"bike_id": "ec802a81f156efe7d2e49dbdb77c17e9", "is_reserved": 0, "fusion_lon": 0.0, "lat": 38.90348933333333, "is_disabled": 0, "name": "ec802a81f156efe7d2e49dbdb77c17e9", "fusion_lat": 0.0, "rental_uris": {"ios": "https://dc.lft.to/lastmile_qr_scan", "android": "https://dc.lft.to/lastmile_qr_scan"}, "lon": -77.03832683333333, "type": "electric_scooter"}, {"bike_id": "b0befb83ee08c7191ef5f3d26e80ccb9", "is_reserved": 0, "fusion_lon": 0.0, "lat": 38.935195666666665, "is_disabled": 0, "name": "b0befb83ee08c7191ef5f3d26e80ccb9", "fusion_lat": 0.0, "rental_uris": {"ios": "https://dc.lft.to/lastmile_qr_scan", "android": "https://dc.lft.to/lastmile_qr_scan"}, "lon": -77.03297866666666, "type": "electric_scooter"}, {"bike_id": "47ec47c11dcf9c9e73a442e65771a9dc", "is_reserved": 0, "fusion_lon": 0.0, "lat": 38.9106245, "is_disabled": 0, "name": "47ec47c11dcf9c9e73a442e65771a9dc", "fusion_lat": 0.0, "rental_uris": {"ios": "https://dc.lft.to/lastmile_qr_scan", "android": "https://dc.lft.to/lastmile_qr_scan"}, "lon": -77.02201116666667, "type": "electric_scooter"}, {"bike_id": "18d9e1dd001d030b8e26f01a3c995959", "is_reserved": 0, "fusion_lon": 0.0, "lat": 38.84294416666667, "is_disabled": 0, "name": "18d9e1dd001d030b8e26f01a3c995959", "fusion_lat": 0.0, "rental_uris": {"ios": "https://dc.lft.to/lastmile_qr_scan", "android": "https://dc.lft.to/lastmile_qr_scan"}, "lon": -76.99947133333333, "type": "electric_scooter"}, {"bike_id": "fe60e1bf4b08200af9ed4c43c127e4a3", "is_reserved": 0, "fusion_lon": 0.0, "lat": 38.886755, "is_disabled": 0, "name": "fe60e1bf4b08200af9ed4c43c127e4a3", "fusion_lat": 0.0, "rental_uris": {"ios": "https://dc.lft.to/lastmile_qr_scan", "android": "https://dc.lft.to/lastmile_qr_scan"}, "lon": -77.0137475, "type": "electric_scooter"}, {"bike_id": "ee67539213976dfa364a6609ddc63fd3", "is_reserved": 0, "fusion_lon": 0.0, "lat": 38.90563983333333, "is_disabled": 0, "name": "ee67539213976dfa364a6609ddc63fd3", "fusion_lat": 0.0, "rental_uris": {"ios": "https://dc.lft.to/lastmile_qr_scan", "android": "https://dc.lft.to/lastmile_qr_scan"}, "lon": -77.0167355, "type": "electric_scooter"}, {"bike_id": "57f7de007186d49405f061b87ac3e23f", "is_reserved": 0, "fusion_lon": 0.0, "lat": 38.906472, "is_disabled": 0, "name": "57f7de007186d49405f061b87ac3e23f", "fusion_lat": 0.0, "rental_uris": {"ios": "https://dc.lft.to/lastmile_qr_scan", "android": "https://dc.lft.to/lastmile_qr_scan"}, "lon": -77.008961, "type": "electric_scooter"}, {"bike_id": "18470a8333d77eb94d1e8a5eb3e620eb", "is_reserved": 0, "fusion_lon": 0.0, "lat": 38.927540666666665, "is_disabled": 0, "name": "18470a8333d77eb94d1e8a5eb3e620eb", "fusion_lat": 0.0, "rental_uris": {"ios": "https://dc.lft.to/lastmile_qr_scan", "android": "https://dc.lft.to/lastmile_qr_scan"}, "lon": -77.05380483333333, "type": "electric_scooter"}, {"bike_id": "ed92cfe42fffb327ce6bb236f3792d05", "is_reserved": 0, "fusion_lon": 0.0, "lat": 38.892274666666665, "is_disabled": 0, "name": "ed92cfe42fffb327ce6bb236f3792d05", "fusion_lat": 0.0, "rental_uris": {"ios": "https://dc.lft.to/lastmile_qr_scan", "android": "https://dc.lft.to/lastmile_qr_scan"}, "lon": -77.03223816666667, "type": "electric_scooter"}, {"bike_id": "5e0eceb8d3ae9219d1dcdcbcedc3d5d9", "is_reserved": 0, "fusion_lon": 0.0, "lat": 38.9212905, "is_disabled": 0, "name": "5e0eceb8d3ae9219d1dcdcbcedc3d5d9", "fusion_lat": 0.0, "rental_uris": {"ios": "https://dc.lft.to/lastmile_qr_scan", "android": "https://dc.lft.to/lastmile_qr_scan"}, "lon": -77.02199683333333, "type": "electric_scooter"}, {"bike_id": "e7ffd5811330cfb4b4b5338783af82e0", "is_reserved": 0, "fusion_lon": 0.0, "lat": 38.90261483333333, "is_disabled": 0, "name": "e7ffd5811330cfb4b4b5338783af82e0", "fusion_lat": 0.0, "rental_uris": {"ios": "https://dc.lft.to/lastmile_qr_scan", "android": "https://dc.lft.to/lastmile_qr_scan"}, "lon": -77.03945816666666, "type": "electric_scooter"}, {"bike_id": "2a4ccf78167ea87e76442008e0cf902d", "is_reserved": 0, "fusion_lon": 0.0, "lat": 38.90290433333333, "is_disabled": 0, "name": "2a4ccf78167ea87e76442008e0cf902d", "fusion_lat": 0.0, "rental_uris": {"ios": "https://dc.lft.to/lastmile_qr_scan", "android": "https://dc.lft.to/lastmile_qr_scan"}, "lon": -77.03840433333333, "type": "electric_scooter"}, {"bike_id": "38f03e94fe85d01340a57d6a91bef401", "is_reserved": 0, "fusion_lon": 0.0, "lat": 38.852493833333334, "is_disabled": 0, "name": "38f03e94fe85d01340a57d6a91bef401", "fusion_lat": 0.0, "rental_uris": {"ios": "https://dc.lft.to/lastmile_qr_scan", "android": "https://dc.lft.to/lastmile_qr_scan"}, "lon": -77.11428766666667, "type": "electric_bike"}, {"bike_id": "54b81896311fe1874f86ed7667602aa4", "is_reserved": 0, "fusion_lon": 0.0, "lat": 38.912113, "is_disabled": 0, "name": "54b81896311fe1874f86ed7667602aa4", "fusion_lat": 0.0, "rental_uris": {"ios": "https://dc.lft.to/lastmile_qr_scan", "android": "https://dc.lft.to/lastmile_qr_scan"}, "lon": -77.02969466666667, "type": "electric_scooter"}, {"bike_id": "d3ad959622ea24fe276effc67eb21491", "is_reserved": 0, "fusion_lon": 0.0, "lat": 38.9112805, "is_disabled": 0, "name": "d3ad959622ea24fe276effc67eb21491", "fusion_lat": 0.0, "rental_uris": {"ios": "https://dc.lft.to/lastmile_qr_scan", "android": "https://dc.lft.to/lastmile_qr_scan"}, "lon": -77.03733216666667, "type": "electric_scooter"}, {"bike_id": "33032c4f46a8b1260b6c0c392a2c6a69", "is_reserved": 0, "fusion_lon": 0.0, "lat": 38.975169, "is_disabled": 0, "name": "33032c4f46a8b1260b6c0c392a2c6a69", "fusion_lat": 0.0, "rental_uris": {"ios": "https://dc.lft.to/lastmile_qr_scan", "android": "https://dc.lft.to/lastmile_qr_scan"}, "lon": -77.017401, "type": "electric_scooter"}, {"bike_id": "096916a07cecda246329fb4c92c7f6ff", "is_reserved": 0, "fusion_lon": 0.0, "lat": 38.890102166666665, "is_disabled": 0, "name": "096916a07cecda246329fb4c92c7f6ff", "fusion_lat": 0.0, "rental_uris": {"ios": "https://dc.lft.to/lastmile_qr_scan", "android": "https://dc.lft.to/lastmile_qr_scan"}, "lon": -76.9374685, "type": "electric_scooter"}, {"bike_id": "7d43adc329c44f0f18ac44efe4f06f91", "is_reserved": 0, "fusion_lon": 0.0, "lat": 38.879272666666665, "is_disabled": 0, "name": "7d43adc329c44f0f18ac44efe4f06f91", "fusion_lat": 0.0, "rental_uris": {"ios": "https://dc.lft.to/lastmile_qr_scan", "android": "https://dc.lft.to/lastmile_qr_scan"}, "lon": -77.01342866666667, "type": "electric_scooter"}, {"bike_id": "ace1f6966c74db7bdbec98f12b578987", "is_reserved": 0, "fusion_lon": 0.0, "lat": 38.911804000000004, "is_disabled": 0, "name": "ace1f6966c74db7bdbec98f12b578987", "fusion_lat": 0.0, "rental_uris": {"ios": "https://dc.lft.to/lastmile_qr_scan", "android": "https://dc.lft.to/lastmile_qr_scan"}, "lon": -77.00276583333333, "type": "electric_bike"}, {"bike_id": "695c87e66c8dcfbcb7e87e051f5f306d", "is_reserved": 0, "fusion_lon": 0.0, "lat": 38.88506, "is_disabled": 0, "name": "695c87e66c8dcfbcb7e87e051f5f306d", "fusion_lat": 0.0, "rental_uris": {"ios": "https://dc.lft.to/lastmile_qr_scan", "android": "https://dc.lft.to/lastmile_qr_scan"}, "lon": -77.00568, "type": "electric_scooter"}, {"bike_id": "c785beba3070252faf3b2302070a6c4c", "is_reserved": 0, "fusion_lon": 0.0, "lat": 38.912547833333335, "is_disabled": 0, "name": "c785beba3070252faf3b2302070a6c4c", "fusion_lat": 0.0, "rental_uris": {"ios": "https://dc.lft.to/lastmile_qr_scan", "android": "https://dc.lft.to/lastmile_qr_scan"}, "lon": -77.03642483333333, "type": "electric_scooter"}, {"bike_id": "42441913d7566bd0330ad31bd0ab1275", "is_reserved": 0, "fusion_lon": 0.0, "lat": 38.877365166666664, "is_disabled": 0, "name": "42441913d7566bd0330ad31bd0ab1275", "fusion_lat": 0.0, "rental_uris": {"ios": "https://dc.lft.to/lastmile_qr_scan", "android": "https://dc.lft.to/lastmile_qr_scan"}, "lon": -77.1184465, "type": "electric_bike"}, {"bike_id": "df51d1f6d588150b9c96316f59e28f81", "is_reserved": 0, "fusion_lon": 0.0, "lat": 38.939653166666666, "is_disabled": 0, "name": "df51d1f6d588150b9c96316f59e28f81", "fusion_lat": 0.0, "rental_uris": {"ios": "https://dc.lft.to/lastmile_qr_scan", "android": "https://dc.lft.to/lastmile_qr_scan"}, "lon": -77.05322916666667, "type": "electric_scooter"}, {"bike_id": "8aad57ef1778ee4f3bec4144b1d790a7", "is_reserved": 0, "fusion_lon": 0.0, "lat": 38.921337666666666, "is_disabled": 0, "name": "8aad57ef1778ee4f3bec4144b1d790a7", "fusion_lat": 0.0, "rental_uris": {"ios": "https://dc.lft.to/lastmile_qr_scan", "android": "https://dc.lft.to/lastmile_qr_scan"}, "lon": -77.0412445, "type": "electric_scooter"}, {"bike_id": "de534ef5abffb3b4f117967a456abd48", "is_reserved": 0, "fusion_lon": 0.0, "lat": 38.91734233333333, "is_disabled": 0, "name": "de534ef5abffb3b4f117967a456abd48", "fusion_lat": 0.0, "rental_uris": {"ios": "https://dc.lft.to/lastmile_qr_scan", "android": "https://dc.lft.to/lastmile_qr_scan"}, "lon": -77.00795116666667, "type": "electric_scooter"}, {"bike_id": "eed15c78d0f5a35f780fd489196ed39a", "is_reserved": 0, "fusion_lon": 0.0, "lat": 38.92376733333333, "is_disabled": 0, "name": "eed15c78d0f5a35f780fd489196ed39a", "fusion_lat": 0.0, "rental_uris": {"ios": "https://dc.lft.to/lastmile_qr_scan", "android": "https://dc.lft.to/lastmile_qr_scan"}, "lon": -77.05174183333334, "type": "electric_scooter"}, {"bike_id": "eced9d9ee92a54c1fe3c40fcc9b8fac7", "is_reserved": 0, "fusion_lon": 0.0, "lat": 38.9224225, "is_disabled": 0, "name": "eced9d9ee92a54c1fe3c40fcc9b8fac7", "fusion_lat": 0.0, "rental_uris": {"ios": "https://dc.lft.to/lastmile_qr_scan", "android": "https://dc.lft.to/lastmile_qr_scan"}, "lon": -77.03080333333334, "type": "electric_scooter"}, {"bike_id": "b5a61ff3bb638ea8bd9fe77a5b07810e", "is_reserved": 0, "fusion_lon": 0.0, "lat": 38.90291083333334, "is_disabled": 0, "name": "b5a61ff3bb638ea8bd9fe77a5b07810e", "fusion_lat": 0.0, "rental_uris": {"ios": "https://dc.lft.to/lastmile_qr_scan", "android": "https://dc.lft.to/lastmile_qr_scan"}, "lon": -77.03941816666666, "type": "electric_scooter"}, {"bike_id": "7fd7f426eac5f838c16f8dc78805649b", "is_reserved": 0, "fusion_lon": 0.0, "lat": 38.903098666666665, "is_disabled": 0, "name": "7fd7f426eac5f838c16f8dc78805649b", "fusion_lat": 0.0, "rental_uris": {"ios": "https://dc.lft.to/lastmile_qr_scan", "android": "https://dc.lft.to/lastmile_qr_scan"}, "lon": -77.03445266666667, "type": "electric_scooter"}, {"bike_id": "1d3945faf66ab571469bb9f4e37b40cd", "is_reserved": 0, "fusion_lon": 0.0, "lat": 38.883567, "is_disabled": 0, "name": "1d3945faf66ab571469bb9f4e37b40cd", "fusion_lat": 0.0, "rental_uris": {"ios": "https://dc.lft.to/lastmile_qr_scan", "android": "https://dc.lft.to/lastmile_qr_scan"}, "lon": -76.98551316666666, "type": "electric_scooter"}, {"bike_id": "ad63fca15a0f09e2d871140fb085a8b4", "is_reserved": 0, "fusion_lon": 0.0, "lat": 38.928672, "is_disabled": 0, "name": "ad63fca15a0f09e2d871140fb085a8b4", "fusion_lat": 0.0, "rental_uris": {"ios": "https://dc.lft.to/lastmile_qr_scan", "android": "https://dc.lft.to/lastmile_qr_scan"}, "lon": -77.03290133333333, "type": "electric_scooter"}, {"bike_id": "f9dc5d8f9854a965c611f498d43ed5cc", "is_reserved": 0, "fusion_lon": 0.0, "lat": 38.90972516666667, "is_disabled": 0, "name": "f9dc5d8f9854a965c611f498d43ed5cc", "fusion_lat": 0.0, "rental_uris": {"ios": "https://dc.lft.to/lastmile_qr_scan", "android": "https://dc.lft.to/lastmile_qr_scan"}, "lon": -77.0386405, "type": "electric_scooter"}, {"bike_id": "7fc914cbfcd1f6e8b749fc257c5017e3", "is_reserved": 0, "fusion_lon": 0.0, "lat": 38.93278983333333, "is_disabled": 0, "name": "7fc914cbfcd1f6e8b749fc257c5017e3", "fusion_lat": 0.0, "rental_uris": {"ios": "https://dc.lft.to/lastmile_qr_scan", "android": "https://dc.lft.to/lastmile_qr_scan"}, "lon": -77.03630183333334, "type": "electric_scooter"}, {"bike_id": "29ac02f920a84a02a09a42fe93a5106b", "is_reserved": 0, "fusion_lon": 0.0, "lat": 38.902726, "is_disabled": 0, "name": "29ac02f920a84a02a09a42fe93a5106b", "fusion_lat": 0.0, "rental_uris": {"ios": "https://dc.lft.to/lastmile_qr_scan", "android": "https://dc.lft.to/lastmile_qr_scan"}, "lon": -77.01770266666666, "type": "electric_scooter"}, {"bike_id": "6802b71a043ec370e36da5a9075cdc94", "is_reserved": 0, "fusion_lon": 0.0, "lat": 38.9061275, "is_disabled": 0, "name": "6802b71a043ec370e36da5a9075cdc94", "fusion_lat": 0.0, "rental_uris": {"ios": "https://dc.lft.to/lastmile_qr_scan", "android": "https://dc.lft.to/lastmile_qr_scan"}, "lon": -77.05125233333334, "type": "electric_scooter"}, {"bike_id": "a45b5d66d2de5c02fd374bcc11cb72f5", "is_reserved": 0, "fusion_lon": 0.0, "lat": 38.90047533333333, "is_disabled": 0, "name": "a45b5d66d2de5c02fd374bcc11cb72f5", "fusion_lat": 0.0, "rental_uris": {"ios": "https://dc.lft.to/lastmile_qr_scan", "android": "https://dc.lft.to/lastmile_qr_scan"}, "lon": -77.00201466666667, "type": "electric_scooter"}, {"bike_id": "aecd25ecb543c1187d75c650fccbab10", "is_reserved": 0, "fusion_lon": 0.0, "lat": 38.892335, "is_disabled": 0, "name": "aecd25ecb543c1187d75c650fccbab10", "fusion_lat": 0.0, "rental_uris": {"ios": "https://dc.lft.to/lastmile_qr_scan", "android": "https://dc.lft.to/lastmile_qr_scan"}, "lon": -77.050027, "type": "electric_scooter"}, {"bike_id": "d7d8fcf3e2892f34ce81d9959e426339", "is_reserved": 0, "fusion_lon": 0.0, "lat": 38.93530766666667, "is_disabled": 0, "name": "d7d8fcf3e2892f34ce81d9959e426339", "fusion_lat": 0.0, "rental_uris": {"ios": "https://dc.lft.to/lastmile_qr_scan", "android": "https://dc.lft.to/lastmile_qr_scan"}, "lon": -77.02850633333334, "type": "electric_scooter"}, {"bike_id": "6aa61e9f5f9379cb3aaf80dc2e7ecb09", "is_reserved": 0, "fusion_lon": 0.0, "lat": 38.8976385, "is_disabled": 0, "name": "6aa61e9f5f9379cb3aaf80dc2e7ecb09", "fusion_lat": 0.0, "rental_uris": {"ios": "https://dc.lft.to/lastmile_qr_scan", "android": "https://dc.lft.to/lastmile_qr_scan"}, "lon": -76.93911233333333, "type": "electric_scooter"}, {"bike_id": "be0c971c98fd361ec540bceb48d4d573", "is_reserved": 0, "fusion_lon": 0.0, "lat": 38.925963833333334, "is_disabled": 0, "name": "be0c971c98fd361ec540bceb48d4d573", "fusion_lat": 0.0, "rental_uris": {"ios": "https://dc.lft.to/lastmile_qr_scan", "android": "https://dc.lft.to/lastmile_qr_scan"}, "lon": -77.00482533333333, "type": "electric_scooter"}, {"bike_id": "98d214539567a13e440b82d5fe38e1e8", "is_reserved": 0, "fusion_lon": 0.0, "lat": 38.908489833333334, "is_disabled": 0, "name": "98d214539567a13e440b82d5fe38e1e8", "fusion_lat": 0.0, "rental_uris": {"ios": "https://dc.lft.to/lastmile_qr_scan", "android": "https://dc.lft.to/lastmile_qr_scan"}, "lon": -77.08527916666667, "type": "electric_scooter"}, {"bike_id": "5ce209c42647cfa24c06118b9cd508f9", "is_reserved": 0, "fusion_lon": 0.0, "lat": 38.8923235, "is_disabled": 0, "name": "5ce209c42647cfa24c06118b9cd508f9", "fusion_lat": 0.0, "rental_uris": {"ios": "https://dc.lft.to/lastmile_qr_scan", "android": "https://dc.lft.to/lastmile_qr_scan"}, "lon": -77.028033, "type": "electric_scooter"}, {"bike_id": "e5ae7b876618d55c19aba4adb3c0206b", "is_reserved": 0, "fusion_lon": 0.0, "lat": 38.88366416666667, "is_disabled": 0, "name": "e5ae7b876618d55c19aba4adb3c0206b", "fusion_lat": 0.0, "rental_uris": {"ios": "https://dc.lft.to/lastmile_qr_scan", "android": "https://dc.lft.to/lastmile_qr_scan"}, "lon": -77.031763, "type": "electric_scooter"}, {"bike_id": "f37a9d8f52578c139b25740006c49c8b", "is_reserved": 0, "fusion_lon": 0.0, "lat": 38.921563666666664, "is_disabled": 0, "name": "f37a9d8f52578c139b25740006c49c8b", "fusion_lat": 0.0, "rental_uris": {"ios": "https://dc.lft.to/lastmile_qr_scan", "android": "https://dc.lft.to/lastmile_qr_scan"}, "lon": -77.03380766666666, "type": "electric_scooter"}, {"bike_id": "6fbe31c87d7cfa4f884f7dae0f3ba975", "is_reserved": 0, "fusion_lon": 0.0, "lat": 38.898778666666665, "is_disabled": 0, "name": "6fbe31c87d7cfa4f884f7dae0f3ba975", "fusion_lat": 0.0, "rental_uris": {"ios": "https://dc.lft.to/lastmile_qr_scan", "android": "https://dc.lft.to/lastmile_qr_scan"}, "lon": -76.93186733333333, "type": "electric_scooter"}, {"bike_id": "456d599c4127ab1e42c7f00543a09958", "is_reserved": 0, "fusion_lon": 0.0, "lat": 38.926143833333334, "is_disabled": 0, "name": "456d599c4127ab1e42c7f00543a09958", "fusion_lat": 0.0, "rental_uris": {"ios": "https://dc.lft.to/lastmile_qr_scan", "android": "https://dc.lft.to/lastmile_qr_scan"}, "lon": -77.04412316666667, "type": "electric_scooter"}, {"bike_id": "59fa8385358a6afd5328ee8ecbf24593", "is_reserved": 0, "fusion_lon": 0.0, "lat": 38.875528333333335, "is_disabled": 0, "name": "59fa8385358a6afd5328ee8ecbf24593", "fusion_lat": 0.0, "rental_uris": {"ios": "https://dc.lft.to/lastmile_qr_scan", "android": "https://dc.lft.to/lastmile_qr_scan"}, "lon": -76.96491866666666, "type": "electric_scooter"}, {"bike_id": "1be85d64f78622594411a1713ad84f82", "is_reserved": 0, "fusion_lon": 0.0, "lat": 38.8886945, "is_disabled": 0, "name": "1be85d64f78622594411a1713ad84f82", "fusion_lat": 0.0, "rental_uris": {"ios": "https://dc.lft.to/lastmile_qr_scan", "android": "https://dc.lft.to/lastmile_qr_scan"}, "lon": -76.994769, "type": "electric_bike"}, {"bike_id": "483fdecc9b9a53f00bc717ecc3bff4d9", "is_reserved": 0, "fusion_lon": 0.0, "lat": 38.89526683333333, "is_disabled": 0, "name": "483fdecc9b9a53f00bc717ecc3bff4d9", "fusion_lat": 0.0, "rental_uris": {"ios": "https://dc.lft.to/lastmile_qr_scan", "android": "https://dc.lft.to/lastmile_qr_scan"}, "lon": -77.04853083333333, "type": "electric_scooter"}, {"bike_id": "f7c404df797ad10a74e53400654bb3a3", "is_reserved": 0, "fusion_lon": 0.0, "lat": 38.91036116666667, "is_disabled": 0, "name": "f7c404df797ad10a74e53400654bb3a3", "fusion_lat": 0.0, "rental_uris": {"ios": "https://dc.lft.to/lastmile_qr_scan", "android": "https://dc.lft.to/lastmile_qr_scan"}, "lon": -77.04390333333333, "type": "electric_scooter"}, {"bike_id": "dd8b3c7a02adf4d13aa1f0de4436bbd0", "is_reserved": 0, "fusion_lon": 0.0, "lat": 38.89953666666667, "is_disabled": 0, "name": "dd8b3c7a02adf4d13aa1f0de4436bbd0", "fusion_lat": 0.0, "rental_uris": {"ios": "https://dc.lft.to/lastmile_qr_scan", "android": "https://dc.lft.to/lastmile_qr_scan"}, "lon": -76.97546683333333, "type": "electric_scooter"}, {"bike_id": "85e7d53bcc3db65f70b8998a012553ac", "is_reserved": 0, "fusion_lon": 0.0, "lat": 38.90029233333333, "is_disabled": 0, "name": "85e7d53bcc3db65f70b8998a012553ac", "fusion_lat": 0.0, "rental_uris": {"ios": "https://dc.lft.to/lastmile_qr_scan", "android": "https://dc.lft.to/lastmile_qr_scan"}, "lon": -76.995371, "type": "electric_scooter"}, {"bike_id": "a99b07da5c7e5d292251e5fdbee63713", "is_reserved": 0, "fusion_lon": 0.0, "lat": 38.911118333333334, "is_disabled": 0, "name": "a99b07da5c7e5d292251e5fdbee63713", "fusion_lat": 0.0, "rental_uris": {"ios": "https://dc.lft.to/lastmile_qr_scan", "android": "https://dc.lft.to/lastmile_qr_scan"}, "lon": -77.0483935, "type": "electric_scooter"}, {"bike_id": "f5f592c5764b5aed4b9eadd82213e636", "is_reserved": 0, "fusion_lon": 0.0, "lat": 38.90004966666667, "is_disabled": 0, "name": "f5f592c5764b5aed4b9eadd82213e636", "fusion_lat": 0.0, "rental_uris": {"ios": "https://dc.lft.to/lastmile_qr_scan", "android": "https://dc.lft.to/lastmile_qr_scan"}, "lon": -77.052338, "type": "electric_scooter"}, {"bike_id": "ae8138769e07901abc394f4130b5a9db", "is_reserved": 0, "fusion_lon": 0.0, "lat": 38.894847666666664, "is_disabled": 0, "name": "ae8138769e07901abc394f4130b5a9db", "fusion_lat": 0.0, "rental_uris": {"ios": "https://dc.lft.to/lastmile_qr_scan", "android": "https://dc.lft.to/lastmile_qr_scan"}, "lon": -76.94867583333334, "type": "electric_scooter"}, {"bike_id": "be4beb2ef4f2ef285595da85822cf983", "is_reserved": 0, "fusion_lon": 0.0, "lat": 38.89219466666667, "is_disabled": 0, "name": "be4beb2ef4f2ef285595da85822cf983", "fusion_lat": 0.0, "rental_uris": {"ios": "https://dc.lft.to/lastmile_qr_scan", "android": "https://dc.lft.to/lastmile_qr_scan"}, "lon": -77.04371683333333, "type": "electric_scooter"}, {"bike_id": "bb39b4c9ca8c959f44094e2d2e29810c", "is_reserved": 0, "fusion_lon": 0.0, "lat": 38.906708, "is_disabled": 0, "name": "bb39b4c9ca8c959f44094e2d2e29810c", "fusion_lat": 0.0, "rental_uris": {"ios": "https://dc.lft.to/lastmile_qr_scan", "android": "https://dc.lft.to/lastmile_qr_scan"}, "lon": -76.98783433333334, "type": "electric_scooter"}, {"bike_id": "26e0799771f19b9c0917179aaf95f9c9", "is_reserved": 0, "fusion_lon": 0.0, "lat": 38.906296166666664, "is_disabled": 0, "name": "26e0799771f19b9c0917179aaf95f9c9", "fusion_lat": 0.0, "rental_uris": {"ios": "https://dc.lft.to/lastmile_qr_scan", "android": "https://dc.lft.to/lastmile_qr_scan"}, "lon": -77.02976916666667, "type": "electric_scooter"}, {"bike_id": "b1df7c1bf9faf6929597d89fa20fa271", "is_reserved": 0, "fusion_lon": 0.0, "lat": 38.9257275, "is_disabled": 0, "name": "b1df7c1bf9faf6929597d89fa20fa271", "fusion_lat": 0.0, "rental_uris": {"ios": "https://dc.lft.to/lastmile_qr_scan", "android": "https://dc.lft.to/lastmile_qr_scan"}, "lon": -77.03099933333333, "type": "electric_scooter"}, {"bike_id": "68f992d364fa11b427154b4923f13730", "is_reserved": 0, "fusion_lon": 0.0, "lat": 38.9587925, "is_disabled": 0, "name": "68f992d364fa11b427154b4923f13730", "fusion_lat": 0.0, "rental_uris": {"ios": "https://dc.lft.to/lastmile_qr_scan", "android": "https://dc.lft.to/lastmile_qr_scan"}, "lon": -76.924768, "type": "electric_bike"}, {"bike_id": "e51a31794866b3d56d6e48abd223eb82", "is_reserved": 0, "fusion_lon": 0.0, "lat": 38.8983355, "is_disabled": 0, "name": "e51a31794866b3d56d6e48abd223eb82", "fusion_lat": 0.0, "rental_uris": {"ios": "https://dc.lft.to/lastmile_qr_scan", "android": "https://dc.lft.to/lastmile_qr_scan"}, "lon": -76.98042016666666, "type": "electric_scooter"}, {"bike_id": "b01ce6c5786f59fab0dde29db61985e0", "is_reserved": 0, "fusion_lon": 0.0, "lat": 38.881268166666665, "is_disabled": 0, "name": "b01ce6c5786f59fab0dde29db61985e0", "fusion_lat": 0.0, "rental_uris": {"ios": "https://dc.lft.to/lastmile_qr_scan", "android": "https://dc.lft.to/lastmile_qr_scan"}, "lon": -77.01669166666667, "type": "electric_bike"}, {"bike_id": "4add59882c4812eedf2d981fac610004", "is_reserved": 0, "fusion_lon": 0.0, "lat": 38.919076, "is_disabled": 0, "name": "4add59882c4812eedf2d981fac610004", "fusion_lat": 0.0, "rental_uris": {"ios": "https://dc.lft.to/lastmile_qr_scan", "android": "https://dc.lft.to/lastmile_qr_scan"}, "lon": -77.03178433333333, "type": "electric_scooter"}, {"bike_id": "cb929e8f39bd98d4e8ba28cbedba8718", "is_reserved": 0, "fusion_lon": 0.0, "lat": 38.9184885, "is_disabled": 0, "name": "cb929e8f39bd98d4e8ba28cbedba8718", "fusion_lat": 0.0, "rental_uris": {"ios": "https://dc.lft.to/lastmile_qr_scan", "android": "https://dc.lft.to/lastmile_qr_scan"}, "lon": -77.02284166666666, "type": "electric_scooter"}, {"bike_id": "0cfa1edc479c633c1f5684535e82721f", "is_reserved": 0, "fusion_lon": 0.0, "lat": 38.8515765, "is_disabled": 0, "name": "0cfa1edc479c633c1f5684535e82721f", "fusion_lat": 0.0, "rental_uris": {"ios": "https://dc.lft.to/lastmile_qr_scan", "android": "https://dc.lft.to/lastmile_qr_scan"}, "lon": -77.128783, "type": "electric_bike"}, {"bike_id": "3f23db35bb102d07562551050c4626dd", "is_reserved": 0, "fusion_lon": 0.0, "lat": 38.86571983333333, "is_disabled": 0, "name": "3f23db35bb102d07562551050c4626dd", "fusion_lat": 0.0, "rental_uris": {"ios": "https://dc.lft.to/lastmile_qr_scan", "android": "https://dc.lft.to/lastmile_qr_scan"}, "lon": -76.9894945, "type": "electric_scooter"}, {"bike_id": "21fe9246d3d33fffce5b2fc2cb968cb1", "is_reserved": 0, "fusion_lon": 0.0, "lat": 38.95730966666667, "is_disabled": 0, "name": "21fe9246d3d33fffce5b2fc2cb968cb1", "fusion_lat": 0.0, "rental_uris": {"ios": "https://dc.lft.to/lastmile_qr_scan", "android": "https://dc.lft.to/lastmile_qr_scan"}, "lon": -77.02405066666667, "type": "electric_scooter"}, {"bike_id": "cb4839a6c8cc0470b3468ff90ed49bf1", "is_reserved": 0, "fusion_lon": 0.0, "lat": 38.902565833333334, "is_disabled": 0, "name": "cb4839a6c8cc0470b3468ff90ed49bf1", "fusion_lat": 0.0, "rental_uris": {"ios": "https://dc.lft.to/lastmile_qr_scan", "android": "https://dc.lft.to/lastmile_qr_scan"}, "lon": -77.01731133333334, "type": "electric_scooter"}, {"bike_id": "1553135d14e541cb5c4f890539e9dce1", "is_reserved": 0, "fusion_lon": 0.0, "lat": 38.90340616666667, "is_disabled": 0, "name": "1553135d14e541cb5c4f890539e9dce1", "fusion_lat": 0.0, "rental_uris": {"ios": "https://dc.lft.to/lastmile_qr_scan", "android": "https://dc.lft.to/lastmile_qr_scan"}, "lon": -77.03843933333333, "type": "electric_scooter"}, {"bike_id": "548b21c05a41a29a7e1c35038d21ec60", "is_reserved": 0, "fusion_lon": 0.0, "lat": 38.901421, "is_disabled": 0, "name": "548b21c05a41a29a7e1c35038d21ec60", "fusion_lat": 0.0, "rental_uris": {"ios": "https://dc.lft.to/lastmile_qr_scan", "android": "https://dc.lft.to/lastmile_qr_scan"}, "lon": -77.04482283333333, "type": "electric_scooter"}, {"bike_id": "ec21530224838841e8d98739c80adbb6", "is_reserved": 0, "fusion_lon": 0.0, "lat": 38.8794105, "is_disabled": 0, "name": "ec21530224838841e8d98739c80adbb6", "fusion_lat": 0.0, "rental_uris": {"ios": "https://dc.lft.to/lastmile_qr_scan", "android": "https://dc.lft.to/lastmile_qr_scan"}, "lon": -77.003976, "type": "electric_scooter"}, {"bike_id": "dee6755f9f8daf2ea8fd7c512e91b60e", "is_reserved": 0, "fusion_lon": 0.0, "lat": 38.894742, "is_disabled": 0, "name": "dee6755f9f8daf2ea8fd7c512e91b60e", "fusion_lat": 0.0, "rental_uris": {"ios": "https://dc.lft.to/lastmile_qr_scan", "android": "https://dc.lft.to/lastmile_qr_scan"}, "lon": -76.98399916666666, "type": "electric_scooter"}, {"bike_id": "cac76a62e7f29cad78ad55bc53c01a72", "is_reserved": 0, "fusion_lon": 0.0, "lat": 38.900712666666664, "is_disabled": 0, "name": "cac76a62e7f29cad78ad55bc53c01a72", "fusion_lat": 0.0, "rental_uris": {"ios": "https://dc.lft.to/lastmile_qr_scan", "android": "https://dc.lft.to/lastmile_qr_scan"}, "lon": -77.0498485, "type": "electric_scooter"}, {"bike_id": "6939bcb971a9dbcbd3284bdf74d52f6d", "is_reserved": 0, "fusion_lon": 0.0, "lat": 38.8962215, "is_disabled": 0, "name": "6939bcb971a9dbcbd3284bdf74d52f6d", "fusion_lat": 0.0, "rental_uris": {"ios": "https://dc.lft.to/lastmile_qr_scan", "android": "https://dc.lft.to/lastmile_qr_scan"}, "lon": -76.9812, "type": "electric_scooter"}, {"bike_id": "f8b775b39c144ba42c0c0a8603bbb7dd", "is_reserved": 0, "fusion_lon": 0.0, "lat": 38.879174166666665, "is_disabled": 0, "name": "f8b775b39c144ba42c0c0a8603bbb7dd", "fusion_lat": 0.0, "rental_uris": {"ios": "https://dc.lft.to/lastmile_qr_scan", "android": "https://dc.lft.to/lastmile_qr_scan"}, "lon": -77.00692166666667, "type": "electric_scooter"}, {"bike_id": "6bd6d1c607f54ce777797e4ef8c0cd9f", "is_reserved": 0, "fusion_lon": 0.0, "lat": 38.917097166666665, "is_disabled": 0, "name": "6bd6d1c607f54ce777797e4ef8c0cd9f", "fusion_lat": 0.0, "rental_uris": {"ios": "https://dc.lft.to/lastmile_qr_scan", "android": "https://dc.lft.to/lastmile_qr_scan"}, "lon": -77.0349325, "type": "electric_scooter"}, {"bike_id": "ab6cb4e5d0f537da2ce0e452df4324d2", "is_reserved": 0, "fusion_lon": 0.0, "lat": 38.9002695, "is_disabled": 0, "name": "ab6cb4e5d0f537da2ce0e452df4324d2", "fusion_lat": 0.0, "rental_uris": {"ios": "https://dc.lft.to/lastmile_qr_scan", "android": "https://dc.lft.to/lastmile_qr_scan"}, "lon": -76.9830085, "type": "electric_scooter"}, {"bike_id": "0e28de9cce0ef7f3dcc5b537157f1d63", "is_reserved": 0, "fusion_lon": 0.0, "lat": 38.897319333333336, "is_disabled": 0, "name": "0e28de9cce0ef7f3dcc5b537157f1d63", "fusion_lat": 0.0, "rental_uris": {"ios": "https://dc.lft.to/lastmile_qr_scan", "android": "https://dc.lft.to/lastmile_qr_scan"}, "lon": -76.925863, "type": "electric_scooter"}, {"bike_id": "0214c53925f7435599f1a30db7945f76", "is_reserved": 0, "fusion_lon": 0.0, "lat": 38.89500966666667, "is_disabled": 0, "name": "0214c53925f7435599f1a30db7945f76", "fusion_lat": 0.0, "rental_uris": {"ios": "https://dc.lft.to/lastmile_qr_scan", "android": "https://dc.lft.to/lastmile_qr_scan"}, "lon": -77.02202533333333, "type": "electric_scooter"}, {"bike_id": "5e34a5f959c32bb71ec594a03ef97344", "is_reserved": 0, "fusion_lon": 0.0, "lat": 38.920893, "is_disabled": 0, "name": "5e34a5f959c32bb71ec594a03ef97344", "fusion_lat": 0.0, "rental_uris": {"ios": "https://dc.lft.to/lastmile_qr_scan", "android": "https://dc.lft.to/lastmile_qr_scan"}, "lon": -77.0252425, "type": "electric_scooter"}, {"bike_id": "61476133bec31c1cc4d9791c33f8df7a", "is_reserved": 0, "fusion_lon": 0.0, "lat": 38.9084545, "is_disabled": 0, "name": "61476133bec31c1cc4d9791c33f8df7a", "fusion_lat": 0.0, "rental_uris": {"ios": "https://dc.lft.to/lastmile_qr_scan", "android": "https://dc.lft.to/lastmile_qr_scan"}, "lon": -77.085291, "type": "electric_scooter"}, {"bike_id": "66e7b2bd53e10b9d99b955005b785e54", "is_reserved": 0, "fusion_lon": 0.0, "lat": 38.91253016666667, "is_disabled": 0, "name": "66e7b2bd53e10b9d99b955005b785e54", "fusion_lat": 0.0, "rental_uris": {"ios": "https://dc.lft.to/lastmile_qr_scan", "android": "https://dc.lft.to/lastmile_qr_scan"}, "lon": -77.0269065, "type": "electric_scooter"}, {"bike_id": "8da8d8463ff6ffcab6784bc7d8798c33", "is_reserved": 0, "fusion_lon": 0.0, "lat": 38.903687166666664, "is_disabled": 0, "name": "8da8d8463ff6ffcab6784bc7d8798c33", "fusion_lat": 0.0, "rental_uris": {"ios": "https://dc.lft.to/lastmile_qr_scan", "android": "https://dc.lft.to/lastmile_qr_scan"}, "lon": -77.04347766666666, "type": "electric_scooter"}, {"bike_id": "d1d3c2af513bc11056fb8c58e91501fe", "is_reserved": 0, "fusion_lon": 0.0, "lat": 38.92731783333333, "is_disabled": 0, "name": "d1d3c2af513bc11056fb8c58e91501fe", "fusion_lat": 0.0, "rental_uris": {"ios": "https://dc.lft.to/lastmile_qr_scan", "android": "https://dc.lft.to/lastmile_qr_scan"}, "lon": -77.0227915, "type": "electric_scooter"}, {"bike_id": "4d5d04f1ac04ebdcbd2c72a5cf2b90b7", "is_reserved": 0, "fusion_lon": 0.0, "lat": 38.86629383333333, "is_disabled": 0, "name": "4d5d04f1ac04ebdcbd2c72a5cf2b90b7", "fusion_lat": 0.0, "rental_uris": {"ios": "https://dc.lft.to/lastmile_qr_scan", "android": "https://dc.lft.to/lastmile_qr_scan"}, "lon": -76.98715533333333, "type": "electric_scooter"}, {"bike_id": "b1e043b3e4204d560603d1903bdcdd49", "is_reserved": 0, "fusion_lon": 0.0, "lat": 38.90213033333333, "is_disabled": 0, "name": "b1e043b3e4204d560603d1903bdcdd49", "fusion_lat": 0.0, "rental_uris": {"ios": "https://dc.lft.to/lastmile_qr_scan", "android": "https://dc.lft.to/lastmile_qr_scan"}, "lon": -77.06069316666667, "type": "electric_scooter"}, {"bike_id": "ed99c440c3218d5f2bfec14ed38a0a46", "is_reserved": 0, "fusion_lon": 0.0, "lat": 38.880064, "is_disabled": 0, "name": "ed99c440c3218d5f2bfec14ed38a0a46", "fusion_lat": 0.0, "rental_uris": {"ios": "https://dc.lft.to/lastmile_qr_scan", "android": "https://dc.lft.to/lastmile_qr_scan"}, "lon": -76.99501383333333, "type": "electric_scooter"}, {"bike_id": "88e76df015525764a4a9d1a8569056c3", "is_reserved": 0, "fusion_lon": 0.0, "lat": 38.908106333333336, "is_disabled": 0, "name": "88e76df015525764a4a9d1a8569056c3", "fusion_lat": 0.0, "rental_uris": {"ios": "https://dc.lft.to/lastmile_qr_scan", "android": "https://dc.lft.to/lastmile_qr_scan"}, "lon": -77.0344895, "type": "electric_scooter"}, {"bike_id": "aed35d836039db0af487d55a747f238d", "is_reserved": 0, "fusion_lon": 0.0, "lat": 38.9288595, "is_disabled": 0, "name": "aed35d836039db0af487d55a747f238d", "fusion_lat": 0.0, "rental_uris": {"ios": "https://dc.lft.to/lastmile_qr_scan", "android": "https://dc.lft.to/lastmile_qr_scan"}, "lon": -77.05460833333333, "type": "electric_scooter"}, {"bike_id": "59bee8feb633322853169db0c75aed39", "is_reserved": 0, "fusion_lon": 0.0, "lat": 38.900174666666665, "is_disabled": 0, "name": "59bee8feb633322853169db0c75aed39", "fusion_lat": 0.0, "rental_uris": {"ios": "https://dc.lft.to/lastmile_qr_scan", "android": "https://dc.lft.to/lastmile_qr_scan"}, "lon": -76.9731335, "type": "electric_scooter"}, {"bike_id": "d7a70035a3670eb67fef024897fce311", "is_reserved": 0, "fusion_lon": 0.0, "lat": 38.90506116666667, "is_disabled": 0, "name": "d7a70035a3670eb67fef024897fce311", "fusion_lat": 0.0, "rental_uris": {"ios": "https://dc.lft.to/lastmile_qr_scan", "android": "https://dc.lft.to/lastmile_qr_scan"}, "lon": -77.02943633333334, "type": "electric_scooter"},