{"data": {"bikes": [{"lon": -77.0270735, "lat": 38.91819233333333, "name": "060538ebb3634c4af70058be2fdc7c11", "fusion_lat": 0.0, "fusion_lon": 0.0, "rental_uris": {"android": "https://dc.lft.to/lastmile_qr_scan", "ios": "https://dc.lft.to/lastmile_qr_scan"}, "is_reserved": 0, "is_disabled": 0, "type": "electric_scooter", "bike_id": "060538ebb3634c4af70058be2fdc7c11"}, {"lon": -77.01757216666667, "lat": 38.87721116666667, "name": "17e11f00bee25234186430ddb01569ff", "fusion_lat": 0.0, "fusion_lon": 0.0, "rental_uris": {"android": "https://dc.lft.to/lastmile_qr_scan", "ios": "https://dc.lft.to/lastmile_qr_scan"}, "is_reserved": 0, "is_disabled": 0, "type": "electric_bike", "bike_id": "17e11f00bee25234186430ddb01569ff"}, {"lon": -77.03645483333334, "lat": 38.916345, "name": "3cf94613fa72143de090daa3a604a268", "fusion_lat": 0.0, "fusion_lon": 0.0, "rental_uris": {"android": "https://dc.lft.to/lastmile_qr_scan", "ios": "https://dc.lft.to/lastmile_qr_scan"}, "is_reserved": 0, "is_disabled": 0, "type": "electric_scooter", "bike_id": "3cf94613fa72143de090daa3a604a268"}, {"lon": -76.97090516666667, "lat": 38.878744166666664, "name": "d9c531b7e2d832030d5ec75051e6d9de", "fusion_lat": 0.0, "fusion_lon": 0.0, "rental_uris": {"android": "https://dc.lft.to/lastmile_qr_scan", "ios": "https://dc.lft.to/lastmile_qr_scan"}, "is_reserved": 0, "is_disabled": 0, "type": "electric_scooter", "bike_id": "d9c531b7e2d832030d5ec75051e6d9de"}, {"lon": -76.99733683333334, "lat": 38.907914, "name": "a196dbcac3446fa18bb6dde7a944d058", "fusion_lat": 0.0, "fusion_lon": 0.0, "rental_uris": {"android": "https://dc.lft.to/lastmile_qr_scan", "ios": "https://dc.lft.to/lastmile_qr_scan"}, "is_reserved": 0, "is_disabled": 0, "type": "electric_scooter", "bike_id": "a196dbcac3446fa18bb6dde7a944d058"}, {"lon": -77.02812233333333, "lat": 38.91683666666667, "name": "69b423c1fcf350abb8e2701e220d8134", "fusion_lat": 0.0, "fusion_lon": 0.0, "rental_uris": {"android": "https://dc.lft.to/lastmile_qr_scan", "ios": "https://dc.lft.to/lastmile_qr_scan"}, "is_reserved": 0, "is_disabled": 0, "type": "electric_scooter", "bike_id": "69b423c1fcf350abb8e2701e220d8134"}, {"lon": -76.99870233333333, "lat": 38.9002545, "name": "bfbd1b1b49d91e264afcedc9bc7d24b5", "fusion_lat": 0.0, "fusion_lon": 0.0, "rental_uris": {"android": "https://dc.lft.to/lastmile_qr_scan", "ios": "https://dc.lft.to/lastmile_qr_scan"}, "is_reserved": 0, "is_disabled": 0, "type": "electric_scooter", "bike_id": "bfbd1b1b49d91e264afcedc9bc7d24b5"}, {"lon": -77.11426366666667, "lat": 38.8524395, "name": "4bb335f2712dff998fbfb25c646f5e01", "fusion_lat": 0.0, "fusion_lon": 0.0, "rental_uris": {"android": "https://dc.lft.to/lastmile_qr_scan", "ios": "https://dc.lft.to/lastmile_qr_scan"}, "is_reserved": 0, "is_disabled": 0, "type": "electric_bike", "bike_id": "4bb335f2712dff998fbfb25c646f5e01"}, {"lon": -77.0314445, "lat": 38.91263716666667, "name": "30d79cbc46285265496342d9b87fd5ec", "fusion_lat": 0.0, "fusion_lon": 0.0, "rental_uris": {"android": "https://dc.lft.to/lastmile_qr_scan", "ios": "https://dc.lft.to/lastmile_qr_scan"}, "is_reserved": 0, "is_disabled": 0, "type": "electric_scooter", "bike_id": "30d79cbc46285265496342d9b87fd5ec"}, {"lon": -77.02212516666667, "lat": 38.90571383333333, "name": "d854bd27b9c5e0a5ccefdde6d12c2b1c", "fusion_lat": 0.0, "fusion_lon": 0.0, "rental_uris": {"android": "https://dc.lft.to/lastmile_qr_scan", "ios": "https://dc.lft.to/lastmile_qr_scan"}, "is_reserved": 0, "is_disabled": 0, "type": "electric_scooter", "bike_id": "d854bd27b9c5e0a5ccefdde6d12c2b1c"}, {"lon": -76.997641, "lat": 38.92292466666667, "name": "3fa80ee34765041611766e0d9df18838", "fusion_lat": 0.0, "fusion_lon": 0.0, "rental_uris": {"android": "https://dc.lft.to/lastmile_qr_scan", "ios": "https://dc.lft.to/lastmile_qr_scan"}, "is_reserved": 0, "is_disabled": 0, "type": "electric_scooter", "bike_id": "3fa80ee34765041611766e0d9df18838"}, {"lon": -76.98363266666667, "lat": 38.86483583333333, "name": "c957cbae38ab9f58b80c815a65e61451", "fusion_lat": 0.0, "fusion_lon": 0.0, "rental_uris": {"android": "https://dc.lft.to/lastmile_qr_scan", "ios": "https://dc.lft.to/lastmile_qr_scan"}, "is_reserved": 0, "is_disabled": 0, "type": "electric_scooter", "bike_id": "c957cbae38ab9f58b80c815a65e61451"}, {"lon": -77.0403245, "lat": 38.923788, "name": "91499a1f1bfbf11c855991e6197ee43a", "fusion_lat": 0.0, "fusion_lon": 0.0, "rental_uris": {"android": "https://dc.lft.to/lastmile_qr_scan", "ios": "https://dc.lft.to/lastmile_qr_scan"}, "is_reserved": 0, "is_disabled": 0, "type": "electric_scooter", "bike_id": "91499a1f1bfbf11c855991e6197ee43a"}, {"lon": -77.01075283333333, "lat": 38.962596166666664, "name": "7a8b78d470ac4d69d9a77813fb5c3c0d", "fusion_lat": 0.0, "fusion_lon": 0.0, "rental_uris": {"android": "https://dc.lft.to/lastmile_qr_scan", "ios": "https://dc.lft.to/lastmile_qr_scan"}, "is_reserved": 0, "is_disabled": 0, "type": "electric_bike", "bike_id": "7a8b78d470ac4d69d9a77813fb5c3c0d"}, {"lon": -77.03082366666666, "lat": 38.92785516666667, "name": "367ddd632360c98ce9bae62a44a4d022", "fusion_lat": 0.0, "fusion_lon": 0.0, "rental_uris": {"android": "https://dc.lft.to/lastmile_qr_scan", "ios": "https://dc.lft.to/lastmile_qr_scan"}, "is_reserved": 0, "is_disabled": 0, "type": "electric_scooter", "bike_id": "367ddd632360c98ce9bae62a44a4d022"}, {"lon": -77.03102316666667, "lat": 38.93383166666667, "name": "b2ad9fff392e3df5750e6d8c81a35534", "fusion_lat": 0.0, "fusion_lon": 0.0, "rental_uris": {"android": "https://dc.lft.to/lastmile_qr_scan", "ios": "https://dc.lft.to/lastmile_qr_scan"}, "is_reserved": 0, "is_disabled": 0, "type": "electric_scooter", "bike_id": "b2ad9fff392e3df5750e6d8c81a35534"}, {"lon": -77.03724966666667, "lat": 38.93361733333333, "name": "c69941429be5a479d3b679b4b344452e", "fusion_lat": 0.0, "fusion_lon": 0.0, "rental_uris": {"android": "https://dc.lft.to/lastmile_qr_scan", "ios": "https://dc.lft.to/lastmile_qr_scan"}, "is_reserved": 0, "is_disabled": 0, "type": "electric_scooter", "bike_id": "c69941429be5a479d3b679b4b344452e"}, {"lon": -77.02929333333333, "lat": 38.902364666666664, "name": "450a120a9ca25e803206d920fa812354", "fusion_lat": 0.0, "fusion_lon": 0.0, "rental_uris": {"android": "https://dc.lft.to/lastmile_qr_scan", "ios": "https://dc.lft.to/lastmile_qr_scan"}, "is_reserved": 0, "is_disabled": 0, "type": "electric_scooter", "bike_id": "450a120a9ca25e803206d920fa812354"}, {"lon": -76.986149, "lat": 38.854585666666665, "name": "a09a384d0999397bfae9d14c13c396b9", "fusion_lat": 0.0, "fusion_lon": 0.0, "rental_uris": {"android": "https://dc.lft.to/lastmile_qr_scan", "ios": "https://dc.lft.to/lastmile_qr_scan"}, "is_reserved": 0, "is_disabled": 0, "type": "electric_scooter", "bike_id": "a09a384d0999397bfae9d14c13c396b9"}, {"lon": -77.01699716666667, "lat": 38.9057385, "name": "09784b97945096e92c51fa44d06d40c7", "fusion_lat": 0.0, "fusion_lon": 0.0, "rental_uris": {"android": "https://dc.lft.to/lastmile_qr_scan", "ios": "https://dc.lft.to/lastmile_qr_scan"}, "is_reserved": 0, "is_disabled": 0, "type": "electric_bike", "bike_id": "09784b97945096e92c51fa44d06d40c7"}, {"lon": -77.04058716666667, "lat": 38.917700333333336, "name": "10a7a22003c8ff0bf406617fdf6847b8", "fusion_lat": 0.0, "fusion_lon": 0.0, "rental_uris": {"android": "https://dc.lft.to/lastmile_qr_scan", "ios": "https://dc.lft.to/lastmile_qr_scan"}, "is_reserved": 0, "is_disabled": 0, "type": "electric_scooter", "bike_id": "10a7a22003c8ff0bf406617fdf6847b8"}, {"lon": -77.00927983333334, "lat": 38.91047616666667, "name": "4ef097bc7cf46cb6eae4b3fb8cbc2604", "fusion_lat": 0.0, "fusion_lon": 0.0, "rental_uris": {"android": "https://dc.lft.to/lastmile_qr_scan", "ios": "https://dc.lft.to/lastmile_qr_scan"}, "is_reserved": 0, "is_disabled": 0, "type": "electric_scooter", "bike_id": "4ef097bc7cf46cb6eae4b3fb8cbc2604"}, {"lon": -77.02826733333333, "lat": 38.887440166666664, "name": "eea67d4019a2590ccb0c0e3d99b360b1", "fusion_lat": 0.0, "fusion_lon": 0.0, "rental_uris": {"android": "https://dc.lft.to/lastmile_qr_scan", "ios": "https://dc.lft.to/lastmile_qr_scan"}, "is_reserved": 0, "is_disabled": 0, "type": "electric_scooter", "bike_id": "eea67d4019a2590ccb0c0e3d99b360b1"}, {"lon": -77.03629766666667, "lat": 38.899029166666665, "name": "20a0c73835e4905801454dd3b023a604", "fusion_lat": 0.0, "fusion_lon": 0.0, "rental_uris": {"android": "https://dc.lft.to/lastmile_qr_scan", "ios": "https://dc.lft.to/lastmile_qr_scan"}, "is_reserved": 0, "is_disabled": 0, "type": "electric_bike", "bike_id": "20a0c73835e4905801454dd3b023a604"}, {"lon": -76.99837683333334, "lat": 38.8391615, "name": "a0d892c4f3f51f25e53ee46b24e6d263", "fusion_lat": 0.0, "fusion_lon": 0.0, "rental_uris": {"android": "https://dc.lft.to/lastmile_qr_scan", "ios": "https://dc.lft.to/lastmile_qr_scan"}, "is_reserved": 0, "is_disabled": 0, "type": "electric_bike", "bike_id": "a0d892c4f3f51f25e53ee46b24e6d263"}, {"lon": -76.98023716666667, "lat": 38.9038, "name": "b33445bbb79ccba668c24ab54681cfb6", "fusion_lat": 0.0, "fusion_lon": 0.0, "rental_uris": {"android": "https://dc.lft.to/lastmile_qr_scan", "ios": "https://dc.lft.to/lastmile_qr_scan"}, "is_reserved": 0, "is_disabled": 0, "type": "electric_scooter", "bike_id": "b33445bbb79ccba668c24ab54681cfb6"}, {"lon": -77.01673166666667, "lat": 38.905648166666666, "name": "8a512446cf2433b769f3b3335419a6db", "fusion_lat": 0.0, "fusion_lon": 0.0, "rental_uris": {"android": "https://dc.lft.to/lastmile_qr_scan", "ios": "https://dc.lft.to/lastmile_qr_scan"}, "is_reserved": 0, "is_disabled": 0, "type": "electric_scooter", "bike_id": "8a512446cf2433b769f3b3335419a6db"}, {"lon": -77.0676805, "lat": 38.90366066666667, "name": "713e5c20584375add1ed69dd27217c5c", "fusion_lat": 0.0, "fusion_lon": 0.0, "rental_uris": {"android": "https://dc.lft.to/lastmile_qr_scan", "ios": "https://dc.lft.to/lastmile_qr_scan"}, "is_reserved": 0, "is_disabled": 0, "type": "electric_scooter", "bike_id": "713e5c20584375add1ed69dd27217c5c"}, {"lon": -77.058547, "lat": 38.934265333333336, "name": "fe307fb4beddb608d9045012e8a0a2ef", "fusion_lat": 0.0, "fusion_lon": 0.0, "rental_uris": {"android": "https://dc.lft.to/lastmile_qr_scan", "ios": "https://dc.lft.to/lastmile_qr_scan"}, "is_reserved": 0, "is_disabled": 0, "type": "electric_scooter", "bike_id": "fe307fb4beddb608d9045012e8a0a2ef"}, {"lon": -77.0305265, "lat": 38.88406633333334, "name": "a1165d2eafce2772495debf95236f34d", "fusion_lat": 0.0, "fusion_lon": 0.0, "rental_uris": {"android": "https://dc.lft.to/lastmile_qr_scan", "ios": "https://dc.lft.to/lastmile_qr_scan"}, "is_reserved": 0, "is_disabled": 0, "type": "electric_scooter", "bike_id": "a1165d2eafce2772495debf95236f34d"}, {"lon": -76.94965466666666, "lat": 38.89371333333333, "name": "792e2f7963ad1757f62342035c06269c", "fusion_lat": 0.0, "fusion_lon": 0.0, "rental_uris": {"android": "https://dc.lft.to/lastmile_qr_scan", "ios": "https://dc.lft.to/lastmile_qr_scan"}, "is_reserved": 0, "is_disabled": 0, "type": "electric_scooter", "bike_id": "792e2f7963ad1757f62342035c06269c"}, {"lon": -77.04059516666666, "lat": 38.91765516666667, "name": "ed538850102104b901c876e87b9a98ee", "fusion_lat": 0.0, "fusion_lon": 0.0, "rental_uris": {"android": "https://dc.lft.to/lastmile_qr_scan", "ios": "https://dc.lft.to/lastmile_qr_scan"}, "is_reserved": 0, "is_disabled": 0, "type": "electric_scooter", "bike_id": "ed538850102104b901c876e87b9a98ee"}, {"lon": -77.0142055, "lat": 38.927930333333336, "name": "ad03eee147c7a5c27751592600981557", "fusion_lat": 0.0, "fusion_lon": 0.0, "rental_uris": {"android": "https://dc.lft.to/lastmile_qr_scan", "ios": "https://dc.lft.to/lastmile_qr_scan"}, "is_reserved": 0, "is_disabled": 0, "type": "electric_scooter", "bike_id": "ad03eee147c7a5c27751592600981557"}, {"lon": -77.05005066666666, "lat": 38.9042245, "name": "d95cfbd9868f827f1dbbe726c8bcc6da", "fusion_lat": 0.0, "fusion_lon": 0.0, "rental_uris": {"android": "https://dc.lft.to/lastmile_qr_scan", "ios": "https://dc.lft.to/lastmile_qr_scan"}, "is_reserved": 0, "is_disabled": 0, "type": "electric_scooter", "bike_id": "d95cfbd9868f827f1dbbe726c8bcc6da"}, {"lon": -77.021876, "lat": 38.905482666666664, "name": "4f920f77e41a4c8d20d0c717d13a22d6", "fusion_lat": 0.0, "fusion_lon": 0.0, "rental_uris": {"android": "https://dc.lft.to/lastmile_qr_scan", "ios": "https://dc.lft.to/lastmile_qr_scan"}, "is_reserved": 0, "is_disabled": 0, "type": "electric_scooter", "bike_id": "4f920f77e41a4c8d20d0c717d13a22d6"}, {"lon": -77.04612483333334, "lat": 38.922310833333334, "name": "96ff5d1ff25dfefa0749d5149cc544d6", "fusion_lat": 0.0, "fusion_lon": 0.0, "rental_uris": {"android": "https://dc.lft.to/lastmile_qr_scan", "ios": "https://dc.lft.to/lastmile_qr_scan"}, "is_reserved": 0, "is_disabled": 0, "type": "electric_scooter", "bike_id": "96ff5d1ff25dfefa0749d5149cc544d6"}, {"lon": -77.0202445, "lat": 38.924354666666666, "name": "d184d87d22d400ec39ff3f08d5abf36f", "fusion_lat": 0.0, "fusion_lon": 0.0, "rental_uris": {"android": "https://dc.lft.to/lastmile_qr_scan", "ios": "https://dc.lft.to/lastmile_qr_scan"}, "is_reserved": 0, "is_disabled": 0, "type": "electric_scooter", "bike_id": "d184d87d22d400ec39ff3f08d5abf36f"}, {"lon": -77.03406233333334, "lat": 38.9227455, "name": "ea88ff78c893e0e05578680b920f74f0", "fusion_lat": 0.0, "fusion_lon": 0.0, "rental_uris": {"android": "https://dc.lft.to/lastmile_qr_scan", "ios": "https://dc.lft.to/lastmile_qr_scan"}, "is_reserved": 0, "is_disabled": 0, "type": "electric_scooter", "bike_id": "ea88ff78c893e0e05578680b920f74f0"}, {"lon": -76.991584, "lat": 38.89548666666666, "name": "789bf25a9ac687761260f53c22ec18ce", "fusion_lat": 0.0, "fusion_lon": 0.0, "rental_uris": {"android": "https://dc.lft.to/lastmile_qr_scan", "ios": "https://dc.lft.to/lastmile_qr_scan"}, "is_reserved": 0, "is_disabled": 0, "type": "electric_scooter", "bike_id": "789bf25a9ac687761260f53c22ec18ce"}, {"lon": -77.04169466666667, "lat": 38.9161525, "name": "2fe5a32fe5fc07e5a7954d811ce35d97", "fusion_lat": 0.0, "fusion_lon": 0.0, "rental_uris": {"android": "https://dc.lft.to/lastmile_qr_scan", "ios": "https://dc.lft.to/lastmile_qr_scan"}, "is_reserved": 0, "is_disabled": 0, "type": "electric_scooter", "bike_id": "2fe5a32fe5fc07e5a7954d811ce35d97"}, {"lon": -76.99025166666667, "lat": 38.86405283333333, "name": "283f4e47e590b3be3cd35905f61e1af5", "fusion_lat": 0.0, "fusion_lon": 0.0, "rental_uris": {"android": "https://dc.lft.to/lastmile_qr_scan", "ios": "https://dc.lft.to/lastmile_qr_scan"}, "is_reserved": 0, "is_disabled": 0, "type": "electric_scooter", "bike_id": "283f4e47e590b3be3cd35905f61e1af5"}, {"lon": -77.03858866666667, "lat": 38.9323685, "name": "9286952bbbeeda45b2fd7c000260d2ce", "fusion_lat": 0.0, "fusion_lon": 0.0, "rental_uris": {"android": "https://dc.lft.to/lastmile_qr_scan", "ios": "https://dc.lft.to/lastmile_qr_scan"}, "is_reserved": 0, "is_disabled": 0, "type": "electric_scooter", "bike_id": "9286952bbbeeda45b2fd7c000260d2ce"}, {"lon": -77.13094716666667, "lat": 38.861617, "name": "c10c862441c5aa9a11d82a31320eed3b", "fusion_lat": 0.0, "fusion_lon": 0.0, "rental_uris": {"android": "https://dc.lft.to/lastmile_qr_scan", "ios": "https://dc.lft.to/lastmile_qr_scan"}, "is_reserved": 0, "is_disabled": 0, "type": "electric_bike", "bike_id": "c10c862441c5aa9a11d82a31320eed3b"}, {"lon": -77.06288016666667, "lat": 38.905958, "name": "d4064f6a24db9db4949cbb5224a2ad01", "fusion_lat": 0.0, "fusion_lon": 0.0, "rental_uris": {"android": "https://dc.lft.to/lastmile_qr_scan", "ios": "https://dc.lft.to/lastmile_qr_scan"}, "is_reserved": 0, "is_disabled": 0, "type": "electric_scooter", "bike_id": "d4064f6a24db9db4949cbb5224a2ad01"}, {"lon": -77.03124616666666, "lat": 38.897147333333336, "name": "ba022297aab21ef15c54a935699dd110", "fusion_lat": 0.0, "fusion_lon": 0.0, "rental_uris": {"android": "https://dc.lft.to/lastmile_qr_scan", "ios": "https://dc.lft.to/lastmile_qr_scan"}, "is_reserved": 0, "is_disabled": 0, "type": "electric_scooter", "bike_id": "ba022297aab21ef15c54a935699dd110"}, {"lon": -76.98308133333333, "lat": 38.868884, "name": "6c0fc5b88989d7e75325c084cce1ffed", "fusion_lat": 0.0, "fusion_lon": 0.0, "rental_uris": {"android": "https://dc.lft.to/lastmile_qr_scan", "ios": "https://dc.lft.to/lastmile_qr_scan"}, "is_reserved": 0, "is_disabled": 0, "type": "electric_scooter", "bike_id": "6c0fc5b88989d7e75325c084cce1ffed"}, {"lon": -77.007034, "lat": 38.876737, "name": "f04e9d759319043bd017525c77f49b4d", "fusion_lat": 0.0, "fusion_lon": 0.0, "rental_uris": {"android": "https://dc.lft.to/lastmile_qr_scan", "ios": "https://dc.lft.to/lastmile_qr_scan"}, "is_reserved": 0, "is_disabled": 0, "type": "electric_scooter", "bike_id": "f04e9d759319043bd017525c77f49b4d"}, {"lon": -77.0382, "lat": 38.9312975, "name": "50b162873adabab9cbf7ca7003e3f0fb", "fusion_lat": 0.0, "fusion_lon": 0.0, "rental_uris": {"android": "https://dc.lft.to/lastmile_qr_scan", "ios": "https://dc.lft.to/lastmile_qr_scan"}, "is_reserved": 0, "is_disabled": 0, "type": "electric_scooter", "bike_id": "50b162873adabab9cbf7ca7003e3f0fb"}, {"lon": -77.03407883333334, "lat": 38.919224166666666, "name": "ea1b0de14dbbd0d65b6f74128f976381", "fusion_lat": 0.0, "fusion_lon": 0.0, "rental_uris": {"android": "https://dc.lft.to/lastmile_qr_scan", "ios": "https://dc.lft.to/lastmile_qr_scan"}, "is_reserved": 0, "is_disabled": 0, "type": "electric_scooter", "bike_id": "ea1b0de14dbbd0d65b6f74128f976381"}, {"lon": -77.03516916666666, "lat": 38.922375, "name": "90c818e6ffe4485927324b34421b7db8", "fusion_lat": 0.0, "fusion_lon": 0.0, "rental_uris": {"android": "https://dc.lft.to/lastmile_qr_scan", "ios": "https://dc.lft.to/lastmile_qr_scan"}, "is_reserved": 0, "is_disabled": 0, "type": "electric_scooter", "bike_id": "90c818e6ffe4485927324b34421b7db8"}, {"lon": -77.0019855, "lat": 38.9023875, "name": "85c4f653ac897afdba79c58ae359f078", "fusion_lat": 0.0, "fusion_lon": 0.0, "rental_uris": {"android": "https://dc.lft.to/lastmile_qr_scan", "ios": "https://dc.lft.to/lastmile_qr_scan"}, "is_reserved": 0, "is_disabled": 0, "type": "electric_scooter", "bike_id": "85c4f653ac897afdba79c58ae359f078"}, {"lon": -77.03448083333333, "lat": 38.918222166666666, "name": "2d4cfc3c75ca0764ef85dbe3dd24b4e8", "fusion_lat": 0.0, "fusion_lon": 0.0, "rental_uris": {"android": "https://dc.lft.to/lastmile_qr_scan", "ios": "https://dc.lft.to/lastmile_qr_scan"}, "is_reserved": 0, "is_disabled": 0, "type": "electric_scooter", "bike_id": "2d4cfc3c75ca0764ef85dbe3dd24b4e8"}, {"lon": -77.02455183333333, "lat": 38.938545500000004, "name": "e8c80662cb232f0dd550902096d4009b", "fusion_lat": 0.0, "fusion_lon": 0.0, "rental_uris": {"android": "https://dc.lft.to/lastmile_qr_scan", "ios": "https://dc.lft.to/lastmile_qr_scan"}, "is_reserved": 0, "is_disabled": 0, "type": "electric_scooter", "bike_id": "e8c80662cb232f0dd550902096d4009b"}, {"lon": -76.99923366666667, "lat": 38.9092055, "name": "e555a0f69990afc1c316be9fdca79ee2", "fusion_lat": 0.0, "fusion_lon": 0.0, "rental_uris": {"android": "https://dc.lft.to/lastmile_qr_scan", "ios": "https://dc.lft.to/lastmile_qr_scan"}, "is_reserved": 0, "is_disabled": 0, "type": "electric_scooter", "bike_id": "e555a0f69990afc1c316be9fdca79ee2"}, {"lon": -77.0122225, "lat": 38.9153825, "name": "24d262c50ad4fc58c1b3e7dfeaed7a31", "fusion_lat": 0.0, "fusion_lon": 0.0, "rental_uris": {"android": "https://dc.lft.to/lastmile_qr_scan", "ios": "https://dc.lft.to/lastmile_qr_scan"}, "is_reserved": 0, "is_disabled": 0, "type": "electric_scooter", "bike_id": "24d262c50ad4fc58c1b3e7dfeaed7a31"}, {"lon": -77.00206783333333, "lat": 38.9022395, "name": "a578b055409023d3134d8aed4b0b02ea", "fusion_lat": 0.0, "fusion_lon": 0.0, "rental_uris": {"android": "https://dc.lft.to/lastmile_qr_scan", "ios": "https://dc.lft.to/lastmile_qr_scan"}, "is_reserved": 0, "is_disabled": 0, "type": "electric_scooter", "bike_id": "a578b055409023d3134d8aed4b0b02ea"}, {"lon": -77.04657316666666, "lat": 38.893356833333335, "name": "63a28eecc0064fa03dcb34e7f08f1e70", "fusion_lat": 0.0, "fusion_lon": 0.0, "rental_uris": {"android": "https://dc.lft.to/lastmile_qr_scan", "ios": "https://dc.lft.to/lastmile_qr_scan"}, "is_reserved": 0, "is_disabled": 0, "type": "electric_scooter", "bike_id": "63a28eecc0064fa03dcb34e7f08f1e70"}, {"lon": -77.038584, "lat": 38.90776833333334, "name": "39fd5aa125bbe41a469c849c08d0fbf2", "fusion_lat": 0.0, "fusion_lon": 0.0, "rental_uris": {"android": "https://dc.lft.to/lastmile_qr_scan", "ios": "https://dc.lft.to/lastmile_qr_scan"}, "is_reserved": 0, "is_disabled": 0, "type": "electric_scooter", "bike_id": "39fd5aa125bbe41a469c849c08d0fbf2"}, {"lon": -77.02206616666666, "lat": 38.9020795, "name": "8aecbdc6342569068ea58027cb61f521", "fusion_lat": 0.0, "fusion_lon": 0.0, "rental_uris": {"android": "https://dc.lft.to/lastmile_qr_scan", "ios": "https://dc.lft.to/lastmile_qr_scan"}, "is_reserved": 0, "is_disabled": 0, "type": "electric_scooter", "bike_id": "8aecbdc6342569068ea58027cb61f521"}, {"lon": -77.022031, "lat": 38.9028165, "name": "cd04456372230b5e4f02bd05ecc0fe43", "fusion_lat": 0.0, "fusion_lon": 0.0, "rental_uris": {"android": "https://dc.lft.to/lastmile_qr_scan", "ios": "https://dc.lft.to/lastmile_qr_scan"}, "is_reserved": 0, "is_disabled": 0, "type": "electric_scooter", "bike_id": "cd04456372230b5e4f02bd05ecc0fe43"}, {"lon": -77.00171116666667, "lat": 38.917325166666664, "name": "d419a2c04635f9d4a3dfb547a85031c0", "fusion_lat": 0.0, "fusion_lon": 0.0, "rental_uris": {"android": "https://dc.lft.to/lastmile_qr_scan", "ios": "https://dc.lft.to/lastmile_qr_scan"}, "is_reserved": 0, "is_disabled": 0, "type": "electric_bike", "bike_id": "d419a2c04635f9d4a3dfb547a85031c0"}, {"lon": -77.04996783333333, "lat": 38.90109116666667, "name": "c4e1e0ed89dfe6063946fab333c4ead0", "fusion_lat": 0.0, "fusion_lon": 0.0, "rental_uris": {"android": "https://dc.lft.to/lastmile_qr_scan", "ios": "https://dc.lft.to/lastmile_qr_scan"}, "is_reserved": 0, "is_disabled": 0, "type": "electric_scooter", "bike_id": "c4e1e0ed89dfe6063946fab333c4ead0"}, {"lon": -76.93173833333333, "lat": 38.89885783333333, "name": "e7dd7abaa303458bb3742d87c800fd46", "fusion_lat": 0.0, "fusion_lon": 0.0, "rental_uris": {"android": "https://dc.lft.to/lastmile_qr_scan", "ios": "https://dc.lft.to/lastmile_qr_scan"}, "is_reserved": 0, "is_disabled": 0, "type": "electric_scooter", "bike_id": "e7dd7abaa303458bb3742d87c800fd46"}, {"lon": -76.99505716666667, "lat": 38.8798065, "name": "ba9b7185e5b637c4cbc700afe171920f", "fusion_lat": 0.0, "fusion_lon": 0.0, "rental_uris": {"android": "https://dc.lft.to/lastmile_qr_scan", "ios": "https://dc.lft.to/lastmile_qr_scan"}, "is_reserved": 0, "is_disabled": 0, "type": "electric_scooter", "bike_id": "ba9b7185e5b637c4cbc700afe171920f"}, {"lon": -77.03192016666667, "lat": 38.886228, "name": "32da0208c42ff403324e0a4c113387fe", "fusion_lat": 0.0, "fusion_lon": 0.0, "rental_uris": {"android": "https://dc.lft.to/lastmile_qr_scan", "ios": "https://dc.lft.to/lastmile_qr_scan"}, "is_reserved": 0, "is_disabled": 0, "type": "electric_scooter", "bike_id": "32da0208c42ff403324e0a4c113387fe"}, {"lon": -77.03271616666666, "lat": 38.904112166666664, "name": "d341d88294987eb94e74f289feb1d6f0", "fusion_lat": 0.0, "fusion_lon": 0.0, "rental_uris": {"android": "https://dc.lft.to/lastmile_qr_scan", "ios": "https://dc.lft.to/lastmile_qr_scan"}, "is_reserved": 0, "is_disabled": 0, "type": "electric_scooter", "bike_id": "d341d88294987eb94e74f289feb1d6f0"}, {"lon": -77.02887066666666, "lat": 38.9003355, "name": "4974f9e72282ff3e1c8fd7a5bd9862df", "fusion_lat": 0.0, "fusion_lon": 0.0, "rental_uris": {"android": "https://dc.lft.to/lastmile_qr_scan", "ios": "https://dc.lft.to/lastmile_qr_scan"}, "is_reserved": 0, "is_disabled": 0, "type": "electric_scooter", "bike_id": "4974f9e72282ff3e1c8fd7a5bd9862df"}, {"lon": -77.04174283333333, "lat": 38.9189925, "name": "ef51d216d8993f36c0ffb0ff3e853898", "fusion_lat": 0.0, "fusion_lon": 0.0, "rental_uris": {"android": "https://dc.lft.to/lastmile_qr_scan", "ios": "https://dc.lft.to/lastmile_qr_scan"}, "is_reserved": 0, "is_disabled": 0, "type": "electric_scooter", "bike_id": "ef51d216d8993f36c0ffb0ff3e853898"}, {"lon": -76.98995433333333, "lat": 38.90387783333333, "name": "95783d7b25e0f3b7cac20ff9225caeaa", "fusion_lat": 0.0, "fusion_lon": 0.0, "rental_uris": {"android": "https://dc.lft.to/lastmile_qr_scan", "ios": "https://dc.lft.to/lastmile_qr_scan"}, "is_reserved": 0, "is_disabled": 0, "type": "electric_scooter", "bike_id": "95783d7b25e0f3b7cac20ff9225caeaa"}, {"lon": -77.0356165, "lat": 38.92338766666667, "name": "3e82f68af2f770d83abeea1f73017329", "fusion_lat": 0.0, "fusion_lon": 0.0, "rental_uris": {"android": "https://dc.lft.to/lastmile_qr_scan", "ios": "https://dc.lft.to/lastmile_qr_scan"}, "is_reserved": 0, "is_disabled": 0, "type": "electric_scooter", "bike_id": "3e82f68af2f770d83abeea1f73017329"}, {"lon": -77.03348766666667, "lat": 38.899752666666664, "name": "de42c684c9df05429ceca4a7a56a59c5", "fusion_lat": 0.0, "fusion_lon": 0.0, "rental_uris": {"android": "https://dc.lft.to/lastmile_qr_scan", "ios": "https://dc.lft.to/lastmile_qr_scan"}, "is_reserved": 0, "is_disabled": 0, "type": "electric_scooter", "bike_id": "de42c684c9df05429ceca4a7a56a59c5"}, {"lon": -77.04722583333333, "lat": 38.91880966666667, "name": "8e1e1f2e509c75e0c61e8f815c0d4459", "fusion_lat": 0.0, "fusion_lon": 0.0, "rental_uris": {"android": "https://dc.lft.to/lastmile_qr_scan", "ios": "https://dc.lft.to/lastmile_qr_scan"}, "is_reserved": 0, "is_disabled": 0, "type": "electric_scooter", "bike_id": "8e1e1f2e509c75e0c61e8f815c0d4459"}, {"lon": -77.0279425, "lat": 38.93078366666667, "name": "a76d60ae04cf3871912eb36bd43e9372", "fusion_lat": 0.0, "fusion_lon": 0.0, "rental_uris": {"android": "https://dc.lft.to/lastmile_qr_scan", "ios": "https://dc.lft.to/lastmile_qr_scan"}, "is_reserved": 0, "is_disabled": 0, "type": "electric_scooter", "bike_id": "a76d60ae04cf3871912eb36bd43e9372"}, {"lon": -77.010268, "lat": 38.91800883333333, "name": "e49c2a8bc82e8271bdfdff46e6ea9385", "fusion_lat": 0.0, "fusion_lon": 0.0, "rental_uris": {"android": "https://dc.lft.to/lastmile_qr_scan", "ios": "https://dc.lft.to/lastmile_qr_scan"}, "is_reserved": 0, "is_disabled": 0, "type": "electric_scooter", "bike_id": "e49c2a8bc82e8271bdfdff46e6ea9385"}, {"lon": -76.98450683333333, "lat": 38.899495333333334, "name": "f6d6ba8c679799e40e0aca2c45f2b64c", "fusion_lat": 0.0, "fusion_lon": 0.0, "rental_uris": {"android": "https://dc.lft.to/lastmile_qr_scan", "ios": "https://dc.lft.to/lastmile_qr_scan"}, "is_reserved": 0, "is_disabled": 0, "type": "electric_scooter", "bike_id": "f6d6ba8c679799e40e0aca2c45f2b64c"}, {"lon": -77.02007433333333, "lat": 38.904798666666665, "name": "bd9f646587a3b54676519c1263f7b44b", "fusion_lat": 0.0, "fusion_lon": 0.0, "rental_uris": {"android": "https://dc.lft.to/lastmile_qr_scan", "ios": "https://dc.lft.to/lastmile_qr_scan"}, "is_reserved": 0, "is_disabled": 0, "type": "electric_scooter", "bike_id": "bd9f646587a3b54676519c1263f7b44b"}, {"lon": -76.998681, "lat": 38.900278, "name": "af174de12c1b103d2f6b9951ebd9d6ed", "fusion_lat": 0.0, "fusion_lon": 0.0, "rental_uris": {"android": "https://dc.lft.to/lastmile_qr_scan", "ios": "https://dc.lft.to/lastmile_qr_scan"}, "is_reserved": 0, "is_disabled": 0, "type": "electric_scooter", "bike_id": "af174de12c1b103d2f6b9951ebd9d6ed"}, {"lon": -76.990029, "lat": 38.86502333333333, "name": "f41e33de229d441b70171f0e69f7544b", "fusion_lat": 0.0, "fusion_lon": 0.0, "rental_uris": {"android": "https://dc.lft.to/lastmile_qr_scan", "ios": "https://dc.lft.to/lastmile_qr_scan"}, "is_reserved": 0, "is_disabled": 0, "type": "electric_scooter", "bike_id": "f41e33de229d441b70171f0e69f7544b"}, {"lon": -76.9941835, "lat": 38.9013825, "name": "a9081849f5e7a80919a0bc12df66a753", "fusion_lat": 0.0, "fusion_lon": 0.0, "rental_uris": {"android": "https://dc.lft.to/lastmile_qr_scan", "ios": "https://dc.lft.to/lastmile_qr_scan"}, "is_reserved": 0, "is_disabled": 0, "type": "electric_scooter", "bike_id": "a9081849f5e7a80919a0bc12df66a753"}, {"lon": -76.97670966666666, "lat": 38.89854533333333, "name": "b3cf2135d0aeb8ef972f1f74ec11ac57", "fusion_lat": 0.0, "fusion_lon": 0.0, "rental_uris": {"android": "https://dc.lft.to/lastmile_qr_scan", "ios": "https://dc.lft.to/lastmile_qr_scan"}, "is_reserved": 0, "is_disabled": 0, "type": "electric_scooter", "bike_id": "b3cf2135d0aeb8ef972f1f74ec11ac57"}, {"lon": -77.02406733333333, "lat": 38.93482566666667, "name": "77fd2eec0e8b133f249464b38bdb40d6", "fusion_lat": 0.0, "fusion_lon": 0.0, "rental_uris": {"android": "https://dc.lft.to/lastmile_qr_scan", "ios": "https://dc.lft.to/lastmile_qr_scan"}, "is_reserved": 0, "is_disabled": 0, "type": "electric_scooter", "bike_id": "77fd2eec0e8b133f249464b38bdb40d6"}, {"lon": -76.93433016666667, "lat": 38.8996645, "name": "7502e31b4f4d122cdafff21f46c08edf", "fusion_lat": 0.0, "fusion_lon": 0.0, "rental_uris": {"android": "https://dc.lft.to/lastmile_qr_scan", "ios": "https://dc.lft.to/lastmile_qr_scan"}, "is_reserved": 0, "is_disabled": 0, "type": "electric_scooter", "bike_id": "7502e31b4f4d122cdafff21f46c08edf"}, {"lon": -77.05144266666667, "lat": 38.908010166666664, "name": "541fb9c28ad2a7a72f2c02db240fa2b2", "fusion_lat": 0.0, "fusion_lon": 0.0, "rental_uris": {"android": "https://dc.lft.to/lastmile_qr_scan", "ios": "https://dc.lft.to/lastmile_qr_scan"}, "is_reserved": 0, "is_disabled": 0, "type": "electric_scooter", "bike_id": "541fb9c28ad2a7a72f2c02db240fa2b2"}, {"lon": -77.014562, "lat": 38.91473466666667, "name": "7c26a6ba1b9753805b80179e87ca380e", "fusion_lat": 0.0, "fusion_lon": 0.0, "rental_uris": {"android": "https://dc.lft.to/lastmile_qr_scan", "ios": "https://dc.lft.to/lastmile_qr_scan"}, "is_reserved": 0, "is_disabled": 0, "type": "electric_scooter", "bike_id": "7c26a6ba1b9753805b80179e87ca380e"}, {"lon": -76.99100283333334, "lat": 38.93321566666667, "name": "a2d8094e732d44d8624c02bd21cbe4d1", "fusion_lat": 0.0, "fusion_lon": 0.0, "rental_uris": {"android": "https://dc.lft.to/lastmile_qr_scan", "ios": "https://dc.lft.to/lastmile_qr_scan"}, "is_reserved": 0, "is_disabled": 0, "type": "electric_scooter", "bike_id": "a2d8094e732d44d8624c02bd21cbe4d1"}, {"lon": -77.02304433333333, "lat": 38.91769566666667, "name": "28a1b79a4acb55bd1345e6b8d1812b90", "fusion_lat": 0.0, "fusion_lon": 0.0, "rental_uris": {"android": "https://dc.lft.to/lastmile_qr_scan", "ios": "https://dc.lft.to/lastmile_qr_scan"}, "is_reserved": 0, "is_disabled": 0, "type": "electric_scooter", "bike_id": "28a1b79a4acb55bd1345e6b8d1812b90"}, {"lon": -77.06340366666667, "lat": 38.906819166666665, "name": "fefc1646dad98bd57f2c989bfd4e2185", "fusion_lat": 0.0, "fusion_lon": 0.0, "rental_uris": {"android": "https://dc.lft.to/lastmile_qr_scan", "ios": "https://dc.lft.to/lastmile_qr_scan"}, "is_reserved": 0, "is_disabled": 0, "type": "electric_scooter", "bike_id": "fefc1646dad98bd57f2c989bfd4e2185"}, {"lon": -76.98473283333334, "lat": 38.92894166666667, "name": "cff2033841bc931062f6fe4453078793", "fusion_lat": 0.0, "fusion_lon": 0.0, "rental_uris": {"android": "https://dc.lft.to/lastmile_qr_scan", "ios": "https://dc.lft.to/lastmile_qr_scan"}, "is_reserved": 0, "is_disabled": 0, "type": "electric_scooter", "bike_id": "cff2033841bc931062f6fe4453078793"}, {"lon": -77.03116666666666, "lat": 38.91918116666667, "name": "10a28afcaaa2717ba0130a41b0c0439e", "fusion_lat": 0.0, "fusion_lon": 0.0, "rental_uris": {"android": "https://dc.lft.to/lastmile_qr_scan", "ios": "https://dc.lft.to/lastmile_qr_scan"}, "is_reserved": 0, "is_disabled": 0, "type": "electric_scooter", "bike_id": "10a28afcaaa2717ba0130a41b0c0439e"}, {"lon": -77.0122575, "lat": 38.950829166666665, "name": "1a8a2f81ff2ccd365b1ca915d444b4a8", "fusion_lat": 0.0, "fusion_lon": 0.0, "rental_uris": {"android": "https://dc.lft.to/lastmile_qr_scan", "ios": "https://dc.lft.to/lastmile_qr_scan"}, "is_reserved": 0, "is_disabled": 0, "type": "electric_bike", "bike_id": "1a8a2f81ff2ccd365b1ca915d444b4a8"}, {"lon": -76.91923733333333, "lat": 38.89072866666667, "name": "dca547a6214a0590e3fd90878b8238fd", "fusion_lat": 0.0, "fusion_lon": 0.0, "rental_uris": {"android": "https://dc.lft.to/lastmile_qr_scan", "ios": "https://dc.lft.to/lastmile_qr_scan"}, "is_reserved": 0, "is_disabled": 0, "type": "electric_scooter", "bike_id": "dca547a6214a0590e3fd90878b8238fd"}, {"lon": -77.04405966666667, "lat": 38.93420833333333, "name": "fb18818b26818b646f2b8bb39d73f160", "fusion_lat": 0.0, "fusion_lon": 0.0, "rental_uris": {"android": "https://dc.lft.to/lastmile_qr_scan", "ios": "https://dc.lft.to/lastmile_qr_scan"}, "is_reserved": 0, "is_disabled": 0, "type": "electric_scooter", "bike_id": "fb18818b26818b646f2b8bb39d73f160"}, {"lon": -77.03485033333334, "lat": 38.90462616666667, "name": "4793178e3483f2d2a9f3904a16c32ed4", "fusion_lat": 0.0, "fusion_lon": 0.0, "rental_uris": {"android": "https://dc.lft.to/lastmile_qr_scan", "ios": "https://dc.lft.to/lastmile_qr_scan"}, "is_reserved": 0, "is_disabled": 0, "type": "electric_scooter", "bike_id": "4793178e3483f2d2a9f3904a16c32ed4"}, {"lon": -77.0306595, "lat": 38.905688, "name": "50c6cc3e37ceb194bf4db6db3d107cea", "fusion_lat": 0.0, "fusion_lon": 0.0, "rental_uris": {"android": "https://dc.lft.to/lastmile_qr_scan", "ios": "https://dc.lft.to/lastmile_qr_scan"}, "is_reserved": 0, "is_disabled": 0, "type": "electric_scooter", "bike_id": "50c6cc3e37ceb194bf4db6db3d107cea"}, {"lon": -77.04695766666667, "lat": 38.92154416666666, "name": "bcc86f52e2e3739d282cacdedd1f3582", "fusion_lat": 0.0, "fusion_lon": 0.0, "rental_uris": {"android": "https://dc.lft.to/lastmile_qr_scan", "ios": "https://dc.lft.to/lastmile_qr_scan"}, "is_reserved": 0, "is_disabled": 0, "type": "electric_scooter", "bike_id": "bcc86f52e2e3739d282cacdedd1f3582"}, {"lon": -77.038239, "lat": 38.92073666666667, "name": "32b3b6eb50276847a5ebbc6d1f6bf475", "fusion_lat": 0.0, "fusion_lon": 0.0, "rental_uris": {"android": "https://dc.lft.to/lastmile_qr_scan", "ios": "https://dc.lft.to/lastmile_qr_scan"}, "is_reserved": 0, "is_disabled": 0, "type": "electric_scooter", "bike_id": "32b3b6eb50276847a5ebbc6d1f6bf475"}, {"lon": -77.04506683333334, "lat": 38.911090333333334, "name": "4eae367538b7c7665971ccc1e6935d81", "fusion_lat": 0.0, "fusion_lon": 0.0, "rental_uris": {"android": "https://dc.lft.to/lastmile_qr_scan", "ios": "https://dc.lft.to/lastmile_qr_scan"}, "is_reserved": 0, "is_disabled": 0, "type": "electric_scooter", "bike_id": "4eae367538b7c7665971ccc1e6935d81"}, {"lon": -77.029595, "lat": 38.94030566666667, "name": "6cc500c7de8db379a18520fa6d02aadc", "fusion_lat": 0.0, "fusion_lon": 0.0, "rental_uris": {"android": "https://dc.lft.to/lastmile_qr_scan", "ios": "https://dc.lft.to/lastmile_qr_scan"}, "is_reserved": 0, "is_disabled": 0, "type": "electric_scooter", "bike_id": "6cc500c7de8db379a18520fa6d02aadc"}, {"lon": -77.03468833333334, "lat": 38.907312, "name": "896533b0968c1dfb46a9bd02e0030f81", "fusion_lat": 0.0, "fusion_lon": 0.0, "rental_uris": {"android": "https://dc.lft.to/lastmile_qr_scan", "ios": "https://dc.lft.to/lastmile_qr_scan"}, "is_reserved": 0, "is_disabled": 0, "type": "electric_scooter", "bike_id": "896533b0968c1dfb46a9bd02e0030f81"}, {"lon": -77.0157095, "lat": 38.87669116666667, "name": "dce606d1d516b851417c96f9abb3d52a", "fusion_lat": 0.0, "fusion_lon": 0.0, "rental_uris": {"android": "https://dc.lft.to/lastmile_qr_scan", "ios": "https://dc.lft.to/lastmile_qr_scan"}, "is_reserved": 0, "is_disabled": 0, "type": "electric_scooter", "bike_id": "dce606d1d516b851417c96f9abb3d52a"}, {"lon": -77.0481965, "lat": 38.90062366666667, "name": "9372afba8e6139a1dd1d8894894a6ddc", "fusion_lat": 0.0, "fusion_lon": 0.0, "rental_uris": {"android": "https://dc.lft.to/lastmile_qr_scan", "ios": "https://dc.lft.to/lastmile_qr_scan"}, "is_reserved": 0, "is_disabled": 0, "type": "electric_scooter", "bike_id": "9372afba8e6139a1dd1d8894894a6ddc"}, {"lon": -77.03071716666666, "lat": 38.922465833333334, "name": "326ec642dac816142add7ade8b079f62", "fusion_lat": 0.0, "fusion_lon": 0.0, "rental_uris": {"android": "https://dc.lft.to/lastmile_qr_scan", "ios": "https://dc.lft.to/lastmile_qr_scan"}, "is_reserved": 0, "is_disabled": 0, "type": "electric_scooter", "bike_id": "326ec642dac816142add7ade8b079f62"}, {"lon": -76.9912805, "lat": 38.903125833333334, "name": "ff62cc4d967358ab84d2e8f036141788", "fusion_lat": 0.0, "fusion_lon": 0.0, "rental_uris": {"android": "https://dc.lft.to/lastmile_qr_scan", "ios": "https://dc.lft.to/lastmile_qr_scan"}, "is_reserved": 0, "is_disabled": 0, "type": "electric_bike", "bike_id": "ff62cc4d967358ab84d2e8f036141788"}, {"lon": -77.041172, "lat": 38.9189425, "name": "d21ac715fe1c7c66cdac22fd823da44c", "fusion_lat": 0.0, "fusion_lon": 0.0, "rental_uris": {"android": "https://dc.lft.to/lastmile_qr_scan", "ios": "https://dc.lft.to/lastmile_qr_scan"}, "is_reserved": 0, "is_disabled": 0, "type": "electric_scooter", "bike_id": "d21ac715fe1c7c66cdac22fd823da44c"}, {"lon": -77.03380616666666, "lat": 38.90386083333333, "name": "a6bd477344a4578ec03f361d6b200701", "fusion_lat": 0.0, "fusion_lon": 0.0, "rental_uris": {"android": "https://dc.lft.to/lastmile_qr_scan", "ios": "https://dc.lft.to/lastmile_qr_scan"}, "is_reserved": 0, "is_disabled": 0, "type": "electric_scooter", "bike_id": "a6bd477344a4578ec03f361d6b200701"}, {"lon": -77.00600333333334, "lat": 38.8981255, "name": "d3045451ebd7d9a9f917d1f5638d4740", "fusion_lat": 0.0, "fusion_lon": 0.0, "rental_uris": {"android": "https://dc.lft.to/lastmile_qr_scan", "ios": "https://dc.lft.to/lastmile_qr_scan"}, "is_reserved": 0, "is_disabled": 0, "type": "electric_bike", "bike_id": "d3045451ebd7d9a9f917d1f5638d4740"}, {"lon": -77.02363533333333, "lat": 38.8791095, "name": "269c43e694f050c457110b8941520211", "fusion_lat": 0.0, "fusion_lon": 0.0, "rental_uris": {"android": "https://dc.lft.to/lastmile_qr_scan", "ios": "https://dc.lft.to/lastmile_qr_scan"}, "is_reserved": 0, "is_disabled": 0, "type": "electric_scooter", "bike_id": "269c43e694f050c457110b8941520211"}, {"lon": -76.98412116666667, "lat": 38.89999266666667, "name": "6149f4e433b40d52a3daf3f684dd1785", "fusion_lat": 0.0, "fusion_lon": 0.0, "rental_uris": {"android": "https://dc.lft.to/lastmile_qr_scan", "ios": "https://dc.lft.to/lastmile_qr_scan"}, "is_reserved": 0, "is_disabled": 0, "type": "electric_scooter", "bike_id": "6149f4e433b40d52a3daf3f684dd1785"}, {"lon": -77.02200666666667, "lat": 38.91685566666666, "name": "bda2e1753924e2fededf1b16e0fee374", "fusion_lat": 0.0, "fusion_lon": 0.0, "rental_uris": {"android": "https://dc.lft.to/lastmile_qr_scan", "ios": "https://dc.lft.to/lastmile_qr_scan"}, "is_reserved": 0, "is_disabled": 0, "type": "electric_scooter", "bike_id": "bda2e1753924e2fededf1b16e0fee374"}, {"lon": -77.03270616666667, "lat": 38.930790333333334, "name": "2f1ee277f49042434245431d299aadf6", "fusion_lat": 0.0, "fusion_lon": 0.0, "rental_uris": {"android": "https://dc.lft.to/lastmile_qr_scan", "ios": "https://dc.lft.to/lastmile_qr_scan"}, "is_reserved": 0, "is_disabled": 0, "type": "electric_scooter", "bike_id": "2f1ee277f49042434245431d299aadf6"}, {"lon": -77.03364766666667, "lat": 38.921486, "name": "5b3fb7f17ff7fe6d6111215e27bca656", "fusion_lat": 0.0, "fusion_lon": 0.0, "rental_uris": {"android": "https://dc.lft.to/lastmile_qr_scan", "ios": "https://dc.lft.to/lastmile_qr_scan"}, "is_reserved": 0, "is_disabled": 0, "type": "electric_scooter", "bike_id": "5b3fb7f17ff7fe6d6111215e27bca656"}, {"lon": -76.981248, "lat": 38.89197733333334, "name": "351ccbe565d20d03c6335ffc9409a7aa", "fusion_lat": 0.0, "fusion_lon": 0.0, "rental_uris": {"android": "https://dc.lft.to/lastmile_qr_scan", "ios": "https://dc.lft.to/lastmile_qr_scan"}, "is_reserved": 0, "is_disabled": 0, "type": "electric_scooter", "bike_id": "351ccbe565d20d03c6335ffc9409a7aa"}, {"lon": -76.95517666666667, "lat": 38.890505, "name": "aaefeb4e4e4f7c600bdf9f7c66d5b0ab", "fusion_lat": 0.0, "fusion_lon": 0.0, "rental_uris": {"android": "https://dc.lft.to/lastmile_qr_scan", "ios": "https://dc.lft.to/lastmile_qr_scan"}, "is_reserved": 0, "is_disabled": 0, "type": "electric_scooter", "bike_id": "aaefeb4e4e4f7c600bdf9f7c66d5b0ab"}, {"lon": -77.003813, "lat": 38.8947455, "name": "c2464464d5afe4317650ed8f03e7b457", "fusion_lat": 0.0, "fusion_lon": 0.0, "rental_uris": {"android": "https://dc.lft.to/lastmile_qr_scan", "ios": "https://dc.lft.to/lastmile_qr_scan"}, "is_reserved": 0, "is_disabled": 0, "type": "electric_bike", "bike_id": "c2464464d5afe4317650ed8f03e7b457"}, {"lon": -77.03281916666667, "lat": 38.937961666666666, "name": "f32838345f973ddcef89329577dab529", "fusion_lat": 0.0, "fusion_lon": 0.0, "rental_uris": {"android": "https://dc.lft.to/lastmile_qr_scan", "ios": "https://dc.lft.to/lastmile_qr_scan"}, "is_reserved": 0, "is_disabled": 0, "type": "electric_scooter", "bike_id": "f32838345f973ddcef89329577dab529"}, {"lon": -77.01837433333333, "lat": 38.91328566666667, "name": "d619df62339f1142a5532e943c9122b5", "fusion_lat": 0.0, "fusion_lon": 0.0, "rental_uris": {"android": "https://dc.lft.to/lastmile_qr_scan", "ios": "https://dc.lft.to/lastmile_qr_scan"}, "is_reserved": 0, "is_disabled": 0, "type": "electric_scooter", "bike_id": "d619df62339f1142a5532e943c9122b5"}, {"lon": -77.03139533333334, "lat": 38.904450833333335, "name": "a3ea9eb7956d90a46ec5a78334e6d0cc", "fusion_lat": 0.0, "fusion_lon": 0.0, "rental_uris": {"android": "https://dc.lft.to/lastmile_qr_scan", "ios": "https://dc.lft.to/lastmile_qr_scan"}, "is_reserved": 0, "is_disabled": 0, "type": "electric_scooter", "bike_id": "a3ea9eb7956d90a46ec5a78334e6d0cc"}, {"lon": -76.936215, "lat": 38.970537, "name": "bbee2a62f9828eab93f72742d16e73f2", "fusion_lat": 0.0, "fusion_lon": 0.0, "rental_uris": {"android": "https://dc.lft.to/lastmile_qr_scan", "ios": "https://dc.lft.to/lastmile_qr_scan"}, "is_reserved": 0, "is_disabled": 0, "type": "electric_bike", "bike_id": "bbee2a62f9828eab93f72742d16e73f2"}, {"lon": -76.98557016666666, "lat": 38.86885016666667, "name": "c65e76ca4eacd703bbada18258b0b701", "fusion_lat": 0.0, "fusion_lon": 0.0, "rental_uris": {"android": "https://dc.lft.to/lastmile_qr_scan", "ios": "https://dc.lft.to/lastmile_qr_scan"}, "is_reserved": 0, "is_disabled": 0, "type": "electric_bike", "bike_id": "c65e76ca4eacd703bbada18258b0b701"}, {"lon": -77.034645, "lat": 38.90729116666667, "name": "a4a6cd85a80e05dd943bcbe09a2dca39", "fusion_lat": 0.0, "fusion_lon": 0.0, "rental_uris": {"android": "https://dc.lft.to/lastmile_qr_scan", "ios": "https://dc.lft.to/lastmile_qr_scan"}, "is_reserved": 0, "is_disabled": 0, "type": "electric_scooter", "bike_id": "a4a6cd85a80e05dd943bcbe09a2dca39"}, {"lon": -77.0766195, "lat": 38.90623566666667, "name": "c68242ad01c729931dee5acb2af89e74", "fusion_lat": 0.0, "fusion_lon": 0.0, "rental_uris": {"android": "https://dc.lft.to/lastmile_qr_scan", "ios": "https://dc.lft.to/lastmile_qr_scan"}, "is_reserved": 0, "is_disabled": 0, "type": "electric_scooter", "bike_id": "c68242ad01c729931dee5acb2af89e74"}, {"lon": -77.04231766666666, "lat": 38.91105833333334, "name": "9cbf4b0c37c059efffa6ccd87da66cf3", "fusion_lat": 0.0, "fusion_lon": 0.0, "rental_uris": {"android": "https://dc.lft.to/lastmile_qr_scan", "ios": "https://dc.lft.to/lastmile_qr_scan"}, "is_reserved": 0, "is_disabled": 0, "type": "electric_scooter", "bike_id": "9cbf4b0c37c059efffa6ccd87da66cf3"}, {"lon": -77.02203066666667, "lat": 38.91117333333333, "name": "4588bf4a7402a8df5c700235f7c7c2fa", "fusion_lat": 0.0, "fusion_lon": 0.0, "rental_uris": {"android": "https://dc.lft.to/lastmile_qr_scan", "ios": "https://dc.lft.to/lastmile_qr_scan"}, "is_reserved": 0, "is_disabled": 0, "type": "electric_scooter", "bike_id": "4588bf4a7402a8df5c700235f7c7c2fa"}, {"lon": -77.03170966666667, "lat": 38.893906333333334, "name": "bc1be540ae554760670801bfe0b45faf", "fusion_lat": 0.0, "fusion_lon": 0.0, "rental_uris": {"android": "https://dc.lft.to/lastmile_qr_scan", "ios": "https://dc.lft.to/lastmile_qr_scan"}, "is_reserved": 0, "is_disabled": 0, "type": "electric_scooter", "bike_id": "bc1be540ae554760670801bfe0b45faf"}, {"lon": -76.99065116666667, "lat": 38.9040555, "name": "7ebfb95540519e66a6407da1bb03b8ee", "fusion_lat": 0.0, "fusion_lon": 0.0, "rental_uris": {"android": "https://dc.lft.to/lastmile_qr_scan", "ios": "https://dc.lft.to/lastmile_qr_scan"}, "is_reserved": 0, "is_disabled": 0, "type": "electric_scooter", "bike_id": "7ebfb95540519e66a6407da1bb03b8ee"}, {"lon": -77.0330105, "lat": 38.9563955, "name": "b22dc3406eca1fc34072bb58e95b685f", "fusion_lat": 0.0, "fusion_lon": 0.0, "rental_uris": {"android": "https://dc.lft.to/lastmile_qr_scan", "ios": "https://dc.lft.to/lastmile_qr_scan"}, "is_reserved": 0, "is_disabled": 0, "type": "electric_scooter", "bike_id": "b22dc3406eca1fc34072bb58e95b685f"}, {"lon": -77.0562775, "lat": 38.924097333333336, "name": "ade008ed696118f2b0666e62e0b091e4", "fusion_lat": 0.0, "fusion_lon": 0.0, "rental_uris": {"android": "https://dc.lft.to/lastmile_qr_scan", "ios": "https://dc.lft.to/lastmile_qr_scan"}, "is_reserved": 0, "is_disabled": 0, "type": "electric_scooter", "bike_id": "ade008ed696118f2b0666e62e0b091e4"}, {"lon": -77.03452183333333, "lat": 38.90327533333333, "name": "030c953691a48e26300db11bffd840d2", "fusion_lat": 0.0, "fusion_lon": 0.0, "rental_uris": {"android": "https://dc.lft.to/lastmile_qr_scan", "ios": "https://dc.lft.to/lastmile_qr_scan"}, "is_reserved": 0, "is_disabled": 0, "type": "electric_scooter", "bike_id": "030c953691a48e26300db11bffd840d2"}, {"lon": -77.04258, "lat": 38.91707566666667, "name": "e8bdbe1e254554b168fed89d54d85d20", "fusion_lat": 0.0, "fusion_lon": 0.0, "rental_uris": {"android": "https://dc.lft.to/lastmile_qr_scan", "ios": "https://dc.lft.to/lastmile_qr_scan"}, "is_reserved": 0, "is_disabled": 0, "type": "electric_scooter", "bike_id": "e8bdbe1e254554b168fed89d54d85d20"}, {"lon": -77.04821433333333, "lat": 38.90207016666667, "name": "d272b1b43e910996d144a13a7061a225", "fusion_lat": 0.0, "fusion_lon": 0.0, "rental_uris": {"android": "https://dc.lft.to/lastmile_qr_scan", "ios": "https://dc.lft.to/lastmile_qr_scan"}, "is_reserved": 0, "is_disabled": 0, "type": "electric_scooter", "bike_id": "d272b1b43e910996d144a13a7061a225"}, {"lon": -77.03225666666667, "lat": 38.9369815, "name": "1880bff6838f36e2a27a47df04d0ec4a", "fusion_lat": 0.0, "fusion_lon": 0.0, "rental_uris": {"android": "https://dc.lft.to/lastmile_qr_scan", "ios": "https://dc.lft.to/lastmile_qr_scan"}, "is_reserved": 0, "is_disabled": 0, "type": "electric_scooter", "bike_id": "1880bff6838f36e2a27a47df04d0ec4a"}, {"lon": -77.09199683333334, "lat": 38.917192, "name": "62d14f98cff6cec823e1f6da6e5aed88", "fusion_lat": 0.0, "fusion_lon": 0.0, "rental_uris": {"android": "https://dc.lft.to/lastmile_qr_scan", "ios": "https://dc.lft.to/lastmile_qr_scan"}, "is_reserved": 0, "is_disabled": 0, "type": "electric_scooter", "bike_id": "62d14f98cff6cec823e1f6da6e5aed88"}, {"lon": -77.0239795, "lat": 38.9310955, "name": "38575a61ceaa05d7ef5f4176ed3c8691", "fusion_lat": 0.0, "fusion_lon": 0.0, "rental_uris": {"android": "https://dc.lft.to/lastmile_qr_scan", "ios": "https://dc.lft.to/lastmile_qr_scan"}, "is_reserved": 0, "is_disabled": 0, "type": "electric_scooter", "bike_id": "38575a61ceaa05d7ef5f4176ed3c8691"}, {"lon": -77.03250466666667, "lat": 38.959292, "name": "51936b4f49864e4e4dbafe4896fdd29a", "fusion_lat": 0.0, "fusion_lon": 0.0, "rental_uris": {"android": "https://dc.lft.to/lastmile_qr_scan", "ios": "https://dc.lft.to/lastmile_qr_scan"}, "is_reserved": 0, "is_disabled": 0, "type": "electric_scooter", "bike_id": "51936b4f49864e4e4dbafe4896fdd29a"}, {"lon": -77.03618133333333, "lat": 38.93253133333333, "name": "6ce259a0dd07316cc1f9f6250d895d15", "fusion_lat": 0.0, "fusion_lon": 0.0, "rental_uris": {"android": "https://dc.lft.to/lastmile_qr_scan", "ios": "https://dc.lft.to/lastmile_qr_scan"}, "is_reserved": 0, "is_disabled": 0, "type": "electric_scooter", "bike_id": "6ce259a0dd07316cc1f9f6250d895d15"}, {"lon": -77.024864, "lat": 38.91815366666667, "name": "bd4c212b852ed1eb0b7be9a0338338b6", "fusion_lat": 0.0, "fusion_lon": 0.0, "rental_uris": {"android": "https://dc.lft.to/lastmile_qr_scan", "ios": "https://dc.lft.to/lastmile_qr_scan"}, "is_reserved": 0, "is_disabled": 0, "type": "electric_scooter", "bike_id": "bd4c212b852ed1eb0b7be9a0338338b6"}, {"lon": -77.02240683333333, "lat": 38.91362133333333, "name": "596220e0c6eb9ec7cd244801dd7e2646", "fusion_lat": 0.0, "fusion_lon": 0.0, "rental_uris": {"android": "https://dc.lft.to/lastmile_qr_scan", "ios": "https://dc.lft.to/lastmile_qr_scan"}, "is_reserved": 0, "is_disabled": 0, "type": "electric_scooter", "bike_id": "596220e0c6eb9ec7cd244801dd7e2646"}, {"lon": -77.0269365, "lat": 38.912688833333334, "name": "6598b934ad1751654840a7c05026cf05", "fusion_lat": 0.0, "fusion_lon": 0.0, "rental_uris": {"android": "https://dc.lft.to/lastmile_qr_scan", "ios": "https://dc.lft.to/lastmile_qr_scan"}, "is_reserved": 0, "is_disabled": 0, "type": "electric_scooter", "bike_id": "6598b934ad1751654840a7c05026cf05"}, {"lon": -77.03941266666666, "lat": 38.90419966666666, "name": "5f3fadd545a36f027d18f10ad1343d31", "fusion_lat": 0.0, "fusion_lon": 0.0, "rental_uris": {"android": "https://dc.lft.to/lastmile_qr_scan", "ios": "https://dc.lft.to/lastmile_qr_scan"}, "is_reserved": 0, "is_disabled": 0, "type": "electric_scooter", "bike_id": "5f3fadd545a36f027d18f10ad1343d31"}, {"lon": -77.02691683333333, "lat": 38.9126905, "name": "12c5587fcbf3f0550ec64f80ec02abdb", "fusion_lat": 0.0, "fusion_lon": 0.0, "rental_uris": {"android": "https://dc.lft.to/lastmile_qr_scan", "ios": "https://dc.lft.to/lastmile_qr_scan"}, "is_reserved": 0, "is_disabled": 0, "type": "electric_scooter", "bike_id": "12c5587fcbf3f0550ec64f80ec02abdb"}, {"lon": -77.10025333333333, "lat": 38.990636, "name": "83659ebc58d30feb15e5faf53d3d321e", "fusion_lat": 0.0, "fusion_lon": 0.0, "rental_uris": {"android": "https://dc.lft.to/lastmile_qr_scan", "ios": "https://dc.lft.to/lastmile_qr_scan"}, "is_reserved": 0, "is_disabled": 0, "type": "electric_bike", "bike_id": "83659ebc58d30feb15e5faf53d3d321e"}, {"lon": -77.00998366666667, "lat": 38.90691366666667, "name": "cbe062d6b08c1604abc32d0e08d43802", "fusion_lat": 0.0, "fusion_lon": 0.0, "rental_uris": {"android": "https://dc.lft.to/lastmile_qr_scan", "ios": "https://dc.lft.to/lastmile_qr_scan"}, "is_reserved": 0, "is_disabled": 0, "type": "electric_scooter", "bike_id": "cbe062d6b08c1604abc32d0e08d43802"}, {"lon": -77.0181365, "lat": 38.9119135, "name": "5d46be60e9bc456b8f11fecbc90dab25", "fusion_lat": 0.0, "fusion_lon": 0.0, "rental_uris": {"android": "https://dc.lft.to/lastmile_qr_scan", "ios": "https://dc.lft.to/lastmile_qr_scan"}, "is_reserved": 0, "is_disabled": 0, "type": "electric_scooter", "bike_id": "5d46be60e9bc456b8f11fecbc90dab25"}, {"lon": -77.0389635, "lat": 38.91707816666667, "name": "6ea8645eb731eeb14ee28d4a0a078399", "fusion_lat": 0.0, "fusion_lon": 0.0, "rental_uris": {"android": "https://dc.lft.to/lastmile_qr_scan", "ios": "https://dc.lft.to/lastmile_qr_scan"}, "is_reserved": 0, "is_disabled": 0, "type": "electric_scooter", "bike_id": "6ea8645eb731eeb14ee28d4a0a078399"}, {"lon": -77.01603133333333, "lat": 38.91756216666667, "name": "36c737e848f890b9ade1237ea2a3b985", "fusion_lat": 0.0, "fusion_lon": 0.0, "rental_uris": {"android": "https://dc.lft.to/lastmile_qr_scan", "ios": "https://dc.lft.to/lastmile_qr_scan"}, "is_reserved": 0, "is_disabled": 0, "type": "electric_scooter", "bike_id": "36c737e848f890b9ade1237ea2a3b985"}, {"lon": -77.04429083333333, "lat": 38.93268183333333, "name": "c98bb549934672401bd18301db375d55", "fusion_lat": 0.0, "fusion_lon": 0.0, "rental_uris": {"android": "https://dc.lft.to/lastmile_qr_scan", "ios": "https://dc.lft.to/lastmile_qr_scan"}, "is_reserved": 0, "is_disabled": 0, "type": "electric_scooter", "bike_id": "c98bb549934672401bd18301db375d55"}, {"lon": -76.94653183333334, "lat": 38.8982345, "name": "85a49081f07a06da840fef5804a5982c", "fusion_lat": 0.0, "fusion_lon": 0.0, "rental_uris": {"android": "https://dc.lft.to/lastmile_qr_scan", "ios": "https://dc.lft.to/lastmile_qr_scan"}, "is_reserved": 0, "is_disabled": 0, "type": "electric_scooter", "bike_id": "85a49081f07a06da840fef5804a5982c"}, {"lon": -77.07301366666667, "lat": 38.906745, "name": "2920ccf0d3a3792521e3a4a70c29d922", "fusion_lat": 0.0, "fusion_lon": 0.0, "rental_uris": {"android": "https://dc.lft.to/lastmile_qr_scan", "ios": "https://dc.lft.to/lastmile_qr_scan"}, "is_reserved": 0, "is_disabled": 0, "type": "electric_scooter", "bike_id": "2920ccf0d3a3792521e3a4a70c29d922"}, {"lon": -77.0418905, "lat": 38.9205175, "name": "9d42cee30bd8314c622c196e4601e569", "fusion_lat": 0.0, "fusion_lon": 0.0, "rental_uris": {"android": "https://dc.lft.to/lastmile_qr_scan", "ios": "https://dc.lft.to/lastmile_qr_scan"}, "is_reserved": 0, "is_disabled": 0, "type": "electric_scooter", "bike_id": "9d42cee30bd8314c622c196e4601e569"}, {"lon": -77.04898766666666, "lat": 38.8749565, "name": "036364f54ce6325f7bfc4613eacc1cb0", "fusion_lat": 0.0, "fusion_lon": 0.0, "rental_uris": {"android": "https://dc.lft.to/lastmile_qr_scan", "ios": "https://dc.lft.to/lastmile_qr_scan"}, "is_reserved": 0, "is_disabled": 0, "type": "electric_bike", "bike_id": "036364f54ce6325f7bfc4613eacc1cb0"}, {"lon": -77.0408505, "lat": 38.91253916666667, "name": "c067dc03ba76134a67326e8fd2fa3f05", "fusion_lat": 0.0, "fusion_lon": 0.0, "rental_uris": {"android": "https://dc.lft.to/lastmile_qr_scan", "ios": "https://dc.lft.to/lastmile_qr_scan"}, "is_reserved": 0, "is_disabled": 0, "type": "electric_scooter", "bike_id": "c067dc03ba76134a67326e8fd2fa3f05"}, {"lon": -77.02290733333334, "lat": 38.918386166666664, "name": "eb0ce1c401216e66cbef01312cdd2dbc", "fusion_lat": 0.0, "fusion_lon": 0.0, "rental_uris": {"android": "https://dc.lft.to/lastmile_qr_scan", "ios": "https://dc.lft.to/lastmile_qr_scan"}, "is_reserved": 0, "is_disabled": 0, "type": "electric_scooter", "bike_id": "eb0ce1c401216e66cbef01312cdd2dbc"}, {"lon": -77.02144666666666, "lat": 38.924825166666665, "name": "ccc3d1af2a27835819d4249ebcc56dbe", "fusion_lat": 0.0, "fusion_lon": 0.0, "rental_uris": {"android": "https://dc.lft.to/lastmile_qr_scan", "ios": "https://dc.lft.to/lastmile_qr_scan"}, "is_reserved": 0, "is_disabled": 0, "type": "electric_scooter", "bike_id": "ccc3d1af2a27835819d4249ebcc56dbe"}, {"lon": -76.991218, "lat": 38.90007333333333, "name": "3cc1b777cdf7f04e75d764120e27420b", "fusion_lat": 0.0, "fusion_lon": 0.0, "rental_uris": {"android": "https://dc.lft.to/lastmile_qr_scan", "ios": "https://dc.lft.to/lastmile_qr_scan"}, "is_reserved": 0, "is_disabled": 0, "type": "electric_scooter", "bike_id": "3cc1b777cdf7f04e75d764120e27420b"}, {"lon": -77.0247725, "lat": 38.938809166666665, "name": "1d2cea13e6a1a12135b3984675b4486f", "fusion_lat": 0.0, "fusion_lon": 0.0, "rental_uris": {"android": "https://dc.lft.to/lastmile_qr_scan", "ios": "https://dc.lft.to/lastmile_qr_scan"}, "is_reserved": 0, "is_disabled": 0, "type": "electric_scooter", "bike_id": "1d2cea13e6a1a12135b3984675b4486f"}, {"lon": -77.0281195, "lat": 38.92367683333333, "name": "181338e5f6507c6e3bd08fbc439f9427", "fusion_lat": 0.0, "fusion_lon": 0.0, "rental_uris": {"android": "https://dc.lft.to/lastmile_qr_scan", "ios": "https://dc.lft.to/lastmile_qr_scan"}, "is_reserved": 0, "is_disabled": 0, "type": "electric_scooter", "bike_id": "181338e5f6507c6e3bd08fbc439f9427"}, {"lon": -77.03705833333333, "lat": 38.92771483333333, "name": "9c7ae2d0691733a5cbe5a8db88d4e755", "fusion_lat": 0.0, "fusion_lon": 0.0, "rental_uris": {"android": "https://dc.lft.to/lastmile_qr_scan", "ios": "https://dc.lft.to/lastmile_qr_scan"}, "is_reserved": 0, "is_disabled": 0, "type": "electric_scooter", "bike_id": "9c7ae2d0691733a5cbe5a8db88d4e755"}, {"lon": -77.032834, "lat": 38.937552833333335, "name": "ebff9d79c9318a533a2843264513a6a9", "fusion_lat": 0.0, "fusion_lon": 0.0, "rental_uris": {"android": "https://dc.lft.to/lastmile_qr_scan", "ios": "https://dc.lft.to/lastmile_qr_scan"}, "is_reserved": 0, "is_disabled": 0, "type": "electric_scooter", "bike_id": "ebff9d79c9318a533a2843264513a6a9"}, {"lon": -77.00638933333333, "lat": 38.90694833333333, "name": "78ab1904ab2deb9f2da3ecfffb655935", "fusion_lat": 0.0, "fusion_lon": 0.0, "rental_uris": {"android": "https://dc.lft.to/lastmile_qr_scan", "ios": "https://dc.lft.to/lastmile_qr_scan"}, "is_reserved": 0, "is_disabled": 0, "type": "electric_scooter", "bike_id": "78ab1904ab2deb9f2da3ecfffb655935"}, {"lon": -76.985732, "lat": 38.898837666666665, "name": "2f3815a849a875dd1ac2c1e0a7f903de", "fusion_lat": 0.0, "fusion_lon": 0.0, "rental_uris": {"android": "https://dc.lft.to/lastmile_qr_scan", "ios": "https://dc.lft.to/lastmile_qr_scan"}, "is_reserved": 0, "is_disabled": 0, "type": "electric_scooter", "bike_id": "2f3815a849a875dd1ac2c1e0a7f903de"}, {"lon": -77.085369, "lat": 38.856201166666665, "name": "ee9dbfbb30a8f35503b99c357704b9d2", "fusion_lat": 0.0, "fusion_lon": 0.0, "rental_uris": {"android": "https://dc.lft.to/lastmile_qr_scan", "ios": "https://dc.lft.to/lastmile_qr_scan"}, "is_reserved": 0, "is_disabled": 0, "type": "electric_bike", "bike_id": "ee9dbfbb30a8f35503b99c357704b9d2"}, {"lon": -76.99454633333333, "lat": 38.88595133333333, "name": "4232210afdc716326c656737629d7fc6", "fusion_lat": 0.0, "fusion_lon": 0.0, "rental_uris": {"android": "https://dc.lft.to/lastmile_qr_scan", "ios": "https://dc.lft.to/lastmile_qr_scan"}, "is_reserved": 0, "is_disabled": 0, "type": "electric_scooter", "bike_id": "4232210afdc716326c656737629d7fc6"}, {"lon": -77.02627633333333, "lat": 38.96216666666667, "name": "b740a6bb2f0fd4392166b87351170d56", "fusion_lat": 0.0, "fusion_lon": 0.0, "rental_uris": {"android": "https://dc.lft.to/lastmile_qr_scan", "ios": "https://dc.lft.to/lastmile_qr_scan"}, "is_reserved": 0, "is_disabled": 0, "type": "electric_bike", "bike_id": "b740a6bb2f0fd4392166b87351170d56"}, {"lon": -77.03461216666666, "lat": 38.94572766666667, "name": "8c6d70a0e0ee83a7e62e1b32d5c74922", "fusion_lat": 0.0, "fusion_lon": 0.0, "rental_uris": {"android": "https://dc.lft.to/lastmile_qr_scan", "ios": "https://dc.lft.to/lastmile_qr_scan"}, "is_reserved": 0, "is_disabled": 0, "type": "electric_scooter", "bike_id": "8c6d70a0e0ee83a7e62e1b32d5c74922"}, {"lon": -77.0296685, "lat": 38.91678483333333, "name": "ad9696d7797dcb8b731429b9c552f9c3", "fusion_lat": 0.0, "fusion_lon": 0.0, "rental_uris": {"android": "https://dc.lft.to/lastmile_qr_scan", "ios": "https://dc.lft.to/lastmile_qr_scan"}, "is_reserved": 0, "is_disabled": 0, "type": "electric_scooter", "bike_id": "ad9696d7797dcb8b731429b9c552f9c3"}, {"lon": -77.17854566666666, "lat": 39.088958833333336, "name": "91602f1917b50f2ccf4081cad406ebe6", "fusion_lat": 0.0, "fusion_lon": 0.0, "rental_uris": {"android": "https://dc.lft.to/lastmile_qr_scan", "ios": "https://dc.lft.to/lastmile_qr_scan"}, "is_reserved": 0, "is_disabled": 0, "type": "electric_bike", "bike_id": "91602f1917b50f2ccf4081cad406ebe6"}, {"lon": -76.98898083333333, "lat": 38.866727166666664, "name": "88e4f6fbabc85f8027bbaaac55439892", "fusion_lat": 0.0, "fusion_lon": 0.0, "rental_uris": {"android": "https://dc.lft.to/lastmile_qr_scan", "ios": "https://dc.lft.to/lastmile_qr_scan"}, "is_reserved": 0, "is_disabled": 0, "type": "electric_scooter", "bike_id": "88e4f6fbabc85f8027bbaaac55439892"}, {"lon": -77.02534266666666, "lat": 38.94093516666667, "name": "006e136f343c8e4b03162073fcd3224b", "fusion_lat": 0.0, "fusion_lon": 0.0, "rental_uris": {"android": "https://dc.lft.to/lastmile_qr_scan", "ios": "https://dc.lft.to/lastmile_qr_scan"}, "is_reserved": 0, "is_disabled": 0, "type": "electric_scooter", "bike_id": "006e136f343c8e4b03162073fcd3224b"}, {"lon": -77.02328633333333, "lat": 38.915539833333334, "name": "fd7c3946fea1a51e5444f6a727e0119a", "fusion_lat": 0.0, "fusion_lon": 0.0, "rental_uris": {"android": "https://dc.lft.to/lastmile_qr_scan", "ios": "https://dc.lft.to/lastmile_qr_scan"}, "is_reserved": 0, "is_disabled": 0, "type": "electric_scooter", "bike_id": "fd7c3946fea1a51e5444f6a727e0119a"}, {"lon": -77.03350716666667, "lat": 38.885074833333334, "name": "cf2a521a087ee87a6a094846c55e8bf4", "fusion_lat": 0.0, "fusion_lon": 0.0, "rental_uris": {"android": "https://dc.lft.to/lastmile_qr_scan", "ios": "https://dc.lft.to/lastmile_qr_scan"}, "is_reserved": 0, "is_disabled": 0, "type": "electric_scooter", "bike_id": "cf2a521a087ee87a6a094846c55e8bf4"}, {"lon": -77.04999516666666, "lat": 38.892281, "name": "05f52703ca7efdca00965759558a2d00", "fusion_lat": 0.0, "fusion_lon": 0.0, "rental_uris": {"android": "https://dc.lft.to/lastmile_qr_scan", "ios": "https://dc.lft.to/lastmile_qr_scan"}, "is_reserved": 0, "is_disabled": 0, "type": "electric_scooter", "bike_id": "05f52703ca7efdca00965759558a2d00"}, {"lon": -77.008327, "lat": 38.9155375, "name": "5450dd9b3886c002745d0df41a94cd44", "fusion_lat": 0.0, "fusion_lon": 0.0, "rental_uris": {"android": "https://dc.lft.to/lastmile_qr_scan", "ios": "https://dc.lft.to/lastmile_qr_scan"}, "is_reserved": 0, "is_disabled": 0, "type": "electric_scooter", "bike_id": "5450dd9b3886c002745d0df41a94cd44"}, {"lon": -76.96101666666667, "lat": 38.949621, "name": "27a799f015108681ad9a985c411af62b", "fusion_lat": 0.0, "fusion_lon": 0.0, "rental_uris": {"android": "https://dc.lft.to/lastmile_qr_scan", "ios": "https://dc.lft.to/lastmile_qr_scan"}, "is_reserved": 0, "is_disabled": 0, "type": "electric_bike", "bike_id": "27a799f015108681ad9a985c411af62b"}, {"lon": -77.046886, "lat": 38.92102883333333, "name": "b3cb9c1a7ddb51e10a8059ed903dbed7", "fusion_lat": 0.0, "fusion_lon": 0.0, "rental_uris": {"android": "https://dc.lft.to/lastmile_qr_scan", "ios": "https://dc.lft.to/lastmile_qr_scan"}, "is_reserved": 0, "is_disabled": 0, "type": "electric_scooter", "bike_id": "b3cb9c1a7ddb51e10a8059ed903dbed7"}, {"lon": -77.03091583333334, "lat": 38.90986083333333, "name": "c64b7b5e3aab6acebb656313afec5627", "fusion_lat": 0.0, "fusion_lon": 0.0, "rental_uris": {"android": "https://dc.lft.to/lastmile_qr_scan", "ios": "https://dc.lft.to/lastmile_qr_scan"}, "is_reserved": 0, "is_disabled": 0, "type": "electric_scooter", "bike_id": "c64b7b5e3aab6acebb656313afec5627"}, {"lon": -77.019792, "lat": 38.90467533333333, "name": "bddee6b12dd346858171183b468b43a6", "fusion_lat": 0.0, "fusion_lon": 0.0, "rental_uris": {"android": "https://dc.lft.to/lastmile_qr_scan", "ios": "https://dc.lft.to/lastmile_qr_scan"}, "is_reserved": 0, "is_disabled": 0, "type": "electric_scooter", "bike_id": "bddee6b12dd346858171183b468b43a6"}, {"lon": -77.03523966666667, "lat": 38.92723683333333, "name": "453d644f90ac2c42bf3c9513b2415c6b", "fusion_lat": 0.0, "fusion_lon": 0.0, "rental_uris": {"android": "https://dc.lft.to/lastmile_qr_scan", "ios": "https://dc.lft.to/lastmile_qr_scan"}, "is_reserved": 0, "is_disabled": 0, "type": "electric_scooter", "bike_id": "453d644f90ac2c42bf3c9513b2415c6b"}, {"lon": -77.02115533333334, "lat": 38.93695533333333, "name": "2fefde7a237ed61893bcc285e425e117", "fusion_lat": 0.0, "fusion_lon": 0.0, "rental_uris": {"android": "https://dc.lft.to/lastmile_qr_scan", "ios": "https://dc.lft.to/lastmile_qr_scan"}, "is_reserved": 0, "is_disabled": 0, "type": "electric_scooter", "bike_id": "2fefde7a237ed61893bcc285e425e117"}, {"lon": -77.0262805, "lat": 38.89286033333333, "name": "cfbe3c6cf796a1dc22d2ccd3e323c769", "fusion_lat": 0.0, "fusion_lon": 0.0, "rental_uris": {"android": "https://dc.lft.to/lastmile_qr_scan", "ios": "https://dc.lft.to/lastmile_qr_scan"}, "is_reserved": 0, "is_disabled": 0, "type": "electric_scooter", "bike_id": "cfbe3c6cf796a1dc22d2ccd3e323c769"}, {"lon": -77.02284566666667, "lat": 38.916272166666666, "name": "de9b04ea5781e1aacd55fc914ad89f6e", "fusion_lat": 0.0, "fusion_lon": 0.0, "rental_uris": {"android": "https://dc.lft.to/lastmile_qr_scan", "ios": "https://dc.lft.to/lastmile_qr_scan"}, "is_reserved": 0, "is_disabled": 0, "type": "electric_scooter", "bike_id": "de9b04ea5781e1aacd55fc914ad89f6e"}, {"lon": -76.90534116666667, "lat": 38.89736283333333, "name": "cbcdd14bfa7e53a742cf69e1ce8aadf9", "fusion_lat": 0.0, "fusion_lon": 0.0, "rental_uris": {"android": "https://dc.lft.to/lastmile_qr_scan", "ios": "https://dc.lft.to/lastmile_qr_scan"}, "is_reserved": 0, "is_disabled": 0, "type": "electric_bike", "bike_id": "cbcdd14bfa7e53a742cf69e1ce8aadf9"}, {"lon": -77.04043, "lat": 38.923030833333335, "name": "845ee4340fa518771695ccc37b6a4a0a", "fusion_lat": 0.0, "fusion_lon": 0.0, "rental_uris": {"android": "https://dc.lft.to/lastmile_qr_scan", "ios": "https://dc.lft.to/lastmile_qr_scan"}, "is_reserved": 0, "is_disabled": 0, "type": "electric_scooter", "bike_id": "845ee4340fa518771695ccc37b6a4a0a"}, {"lon": -77.0370575, "lat": 38.9264255, "name": "e3c12d11aec125dbdd15c449b228a461", "fusion_lat": 0.0, "fusion_lon": 0.0, "rental_uris": {"android": "https://dc.lft.to/lastmile_qr_scan", "ios": "https://dc.lft.to/lastmile_qr_scan"}, "is_reserved": 0, "is_disabled": 0, "type": "electric_scooter", "bike_id": "e3c12d11aec125dbdd15c449b228a461"}, {"lon": -77.01731333333333, "lat": 38.90713683333333, "name": "de1cd183fa2a9c03374b4bcd8c71a0cb", "fusion_lat": 0.0, "fusion_lon": 0.0, "rental_uris": {"android": "https://dc.lft.to/lastmile_qr_scan", "ios": "https://dc.lft.to/lastmile_qr_scan"}, "is_reserved": 0, "is_disabled": 0, "type": "electric_scooter", "bike_id": "de1cd183fa2a9c03374b4bcd8c71a0cb"}, {"lon": -76.9877295, "lat": 38.911703, "name": "e63b40204b376a6f71d504fc2be42eb9", "fusion_lat": 0.0, "fusion_lon": 0.0, "rental_uris": {"android": "https://dc.lft.to/lastmile_qr_scan", "ios": "https://dc.lft.to/lastmile_qr_scan"}, "is_reserved": 0, "is_disabled": 0, "type": "electric_scooter", "bike_id": "e63b40204b376a6f71d504fc2be42eb9"}, {"lon": -76.931644, "lat": 38.898809166666666, "name": "6fcd7c3ea7c68ee4a4bc7ef6ce3462c0", "fusion_lat": 0.0, "fusion_lon": 0.0, "rental_uris": {"android": "https://dc.lft.to/lastmile_qr_scan", "ios": "https://dc.lft.to/lastmile_qr_scan"}, "is_reserved": 0, "is_disabled": 0, "type": "electric_scooter", "bike_id": "6fcd7c3ea7c68ee4a4bc7ef6ce3462c0"}, {"lon": -77.12734783333333, "lat": 38.8882, "name": "9f41024d05e7095d4707fe1e93c3be1d", "fusion_lat": 0.0, "fusion_lon": 0.0, "rental_uris": {"android": "https://dc.lft.to/lastmile_qr_scan", "ios": "https://dc.lft.to/lastmile_qr_scan"}, "is_reserved": 0, "is_disabled": 0, "type": "electric_bike", "bike_id": "9f41024d05e7095d4707fe1e93c3be1d"}, {"lon": -76.94121616666666, "lat": 38.9078945, "name": "a2dc30d2c245696df13ef46362ace7c3", "fusion_lat": 0.0, "fusion_lon": 0.0, "rental_uris": {"android": "https://dc.lft.to/lastmile_qr_scan", "ios": "https://dc.lft.to/lastmile_qr_scan"}, "is_reserved": 0, "is_disabled": 0, "type": "electric_scooter", "bike_id": "a2dc30d2c245696df13ef46362ace7c3"}, {"lon": -77.03832433333334, "lat": 38.91105833333334, "name": "967810877bac72a45b929a8c7c9147cf", "fusion_lat": 0.0, "fusion_lon": 0.0, "rental_uris": {"android": "https://dc.lft.to/lastmile_qr_scan", "ios": "https://dc.lft.to/lastmile_qr_scan"}, "is_reserved": 0, "is_disabled": 0, "type": "electric_scooter", "bike_id": "967810877bac72a45b929a8c7c9147cf"}, {"lon": -77.02886583333333, "lat": 38.90360666666667, "name": "8a955a3dd6f7598193feabd373f822c9", "fusion_lat": 0.0, "fusion_lon": 0.0, "rental_uris": {"android": "https://dc.lft.to/lastmile_qr_scan", "ios": "https://dc.lft.to/lastmile_qr_scan"}, "is_reserved": 0, "is_disabled": 0, "type": "electric_scooter", "bike_id": "8a955a3dd6f7598193feabd373f822c9"}, {"lon": -77.0465385, "lat": 38.904368, "name": "e3e9728b9ba4db8ea118db39d7dbd2b4", "fusion_lat": 0.0, "fusion_lon": 0.0, "rental_uris": {"android": "https://dc.lft.to/lastmile_qr_scan", "ios": "https://dc.lft.to/lastmile_qr_scan"}, "is_reserved": 0, "is_disabled": 0, "type": "electric_scooter", "bike_id": "e3e9728b9ba4db8ea118db39d7dbd2b4"}, {"lon": -77.01779433333333, "lat": 38.89842133333333, "name": "60f6c43fd61c06b59104451f05fe4f6e", "fusion_lat": 0.0, "fusion_lon": 0.0, "rental_uris": {"android": "https://dc.lft.to/lastmile_qr_scan", "ios": "https://dc.lft.to/lastmile_qr_scan"}, "is_reserved": 0, "is_disabled": 0, "type": "electric_scooter", "bike_id": "60f6c43fd61c06b59104451f05fe4f6e"}, {"lon": -76.99956766666666, "lat": 38.90864116666667, "name": "05761e7b8c39fd8d9f9e36a7decadf67", "fusion_lat": 0.0, "fusion_lon": 0.0, "rental_uris": {"android": "https://dc.lft.to/lastmile_qr_scan", "ios": "https://dc.lft.to/lastmile_qr_scan"}, "is_reserved": 0, "is_disabled": 0, "type": "electric_scooter", "bike_id": "05761e7b8c39fd8d9f9e36a7decadf67"}, {"lon": -77.044392, "lat": 38.923312833333334, "name": "b0d6db119953a495fbfd4737cfd172f2", "fusion_lat": 0.0, "fusion_lon": 0.0, "rental_uris": {"android": "https://dc.lft.to/lastmile_qr_scan", "ios": "https://dc.lft.to/lastmile_qr_scan"}, "is_reserved": 0, "is_disabled": 0, "type": "electric_scooter", "bike_id": "b0d6db119953a495fbfd4737cfd172f2"}, {"lon": -76.93654266666667, "lat": 38.902889333333334, "name": "9df812b02069dbd747338e5837020fde", "fusion_lat": 0.0, "fusion_lon": 0.0, "rental_uris": {"android": "https://dc.lft.to/lastmile_qr_scan", "ios": "https://dc.lft.to/lastmile_qr_scan"}, "is_reserved": 0, "is_disabled": 0, "type": "electric_scooter", "bike_id": "9df812b02069dbd747338e5837020fde"}, {"lon": -77.02535583333334, "lat": 38.92401133333333, "name": "e9bfbfbf70e92ae439092ff50729a56c", "fusion_lat": 0.0, "fusion_lon": 0.0, "rental_uris": {"android": "https://dc.lft.to/lastmile_qr_scan", "ios": "https://dc.lft.to/lastmile_qr_scan"}, "is_reserved": 0, "is_disabled": 0, "type": "electric_scooter", "bike_id": "e9bfbfbf70e92ae439092ff50729a56c"}, {"lon": -77.02395866666667, "lat": 38.88736816666667, "name": "4b8de32bac5d6ffc361ad7821e80ae6d", "fusion_lat": 0.0, "fusion_lon": 0.0, "rental_uris": {"android": "https://dc.lft.to/lastmile_qr_scan", "ios": "https://dc.lft.to/lastmile_qr_scan"}, "is_reserved": 0, "is_disabled": 0, "type": "electric_scooter", "bike_id": "4b8de32bac5d6ffc361ad7821e80ae6d"}, {"lon": -77.03470266666666, "lat": 38.91462216666667, "name": "2bfa423f0c1499799b93de93b3192e98", "fusion_lat": 0.0, "fusion_lon": 0.0, "rental_uris": {"android": "https://dc.lft.to/lastmile_qr_scan", "ios": "https://dc.lft.to/lastmile_qr_scan"}, "is_reserved": 0, "is_disabled": 0, "type": "electric_scooter", "bike_id": "2bfa423f0c1499799b93de93b3192e98"}, {"lon": -77.0616035, "lat": 38.942230333333335, "name": "fdee13f3143d04c93105bfe40f66d64d", "fusion_lat": 0.0, "fusion_lon": 0.0, "rental_uris": {"android": "https://dc.lft.to/lastmile_qr_scan", "ios": "https://dc.lft.to/lastmile_qr_scan"}, "is_reserved": 0, "is_disabled": 0, "type": "electric_scooter", "bike_id": "fdee13f3143d04c93105bfe40f66d64d"}, {"lon": -77.041822, "lat": 38.91844316666667, "name": "f50e9c71b0666d03211e3545b29ba507", "fusion_lat": 0.0, "fusion_lon": 0.0, "rental_uris": {"android": "https://dc.lft.to/lastmile_qr_scan", "ios": "https://dc.lft.to/lastmile_qr_scan"}, "is_reserved": 0, "is_disabled": 0, "type": "electric_scooter", "bike_id": "f50e9c71b0666d03211e3545b29ba507"}, {"lon": -77.029683, "lat": 38.89335416666667, "name": "a11a6608dcaf358977bf128d758d93f8", "fusion_lat": 0.0, "fusion_lon": 0.0, "rental_uris": {"android": "https://dc.lft.to/lastmile_qr_scan", "ios": "https://dc.lft.to/lastmile_qr_scan"}, "is_reserved": 0, "is_disabled": 0, "type": "electric_scooter", "bike_id": "a11a6608dcaf358977bf128d758d93f8"}, {"lon": -77.02183366666667, "lat": 38.91001083333333, "name": "622c0c6877395325f08c9a8e9c1196d1", "fusion_lat": 0.0, "fusion_lon": 0.0, "rental_uris": {"android": "https://dc.lft.to/lastmile_qr_scan", "ios": "https://dc.lft.to/lastmile_qr_scan"}, "is_reserved": 0, "is_disabled": 0, "type": "electric_scooter", "bike_id": "622c0c6877395325f08c9a8e9c1196d1"}, {"lon": -77.00917766666667, "lat": 38.91021833333333, "name": "a91043b7d148310b60288556ff00b205", "fusion_lat": 0.0, "fusion_lon": 0.0, "rental_uris": {"android": "https://dc.lft.to/lastmile_qr_scan", "ios": "https://dc.lft.to/lastmile_qr_scan"}, "is_reserved": 0, "is_disabled": 0, "type": "electric_scooter", "bike_id": "a91043b7d148310b60288556ff00b205"}, {"lon": -77.0219145, "lat": 38.892372, "name": "75d2c5033b26b64fc14c7d050c7176bb", "fusion_lat": 0.0, "fusion_lon": 0.0, "rental_uris": {"android": "https://dc.lft.to/lastmile_qr_scan", "ios": "https://dc.lft.to/lastmile_qr_scan"}, "is_reserved": 0, "is_disabled": 0, "type": "electric_scooter", "bike_id": "75d2c5033b26b64fc14c7d050c7176bb"}, {"lon": -76.99162766666667, "lat": 38.87917733333333, "name": "48ff6bb3fc2072a25c7e17fbc282cfe9", "fusion_lat": 0.0, "fusion_lon": 0.0, "rental_uris": {"android": "https://dc.lft.to/lastmile_qr_scan", "ios": "https://dc.lft.to/lastmile_qr_scan"}, "is_reserved": 0, "is_disabled": 0, "type": "electric_scooter", "bike_id": "48ff6bb3fc2072a25c7e17fbc282cfe9"}, {"lon": -76.97347116666667, "lat": 38.86508766666667, "name": "f564c82be1b9deee38c6a948f60b436b", "fusion_lat": 0.0, "fusion_lon": 0.0, "rental_uris": {"android": "https://dc.lft.to/lastmile_qr_scan", "ios": "https://dc.lft.to/lastmile_qr_scan"}, "is_reserved": 0, "is_disabled": 0, "type": "electric_scooter", "bike_id": "f564c82be1b9deee38c6a948f60b436b"}, {"lon": -76.9240295, "lat": 38.88989316666667, "name": "558ac7e6474b77f7646a145184204cdf", "fusion_lat": 0.0, "fusion_lon": 0.0, "rental_uris": {"android": "https://dc.lft.to/lastmile_qr_scan", "ios": "https://dc.lft.to/lastmile_qr_scan"}, "is_reserved": 0, "is_disabled": 0, "type": "electric_scooter", "bike_id": "558ac7e6474b77f7646a145184204cdf"}, {"lon": -77.04508916666667, "lat": 38.90779966666667, "name": "a952ba4abc33454c93edd72d7bf7f17d", "fusion_lat": 0.0, "fusion_lon": 0.0, "rental_uris": {"android": "https://dc.lft.to/lastmile_qr_scan", "ios": "https://dc.lft.to/lastmile_qr_scan"}, "is_reserved": 0, "is_disabled": 0, "type": "electric_scooter", "bike_id": "a952ba4abc33454c93edd72d7bf7f17d"}, {"lon": -77.0628405, "lat": 38.90684233333333, "name": "fd35807bbef596358559791144a10309", "fusion_lat": 0.0, "fusion_lon": 0.0, "rental_uris": {"android": "https://dc.lft.to/lastmile_qr_scan", "ios": "https://dc.lft.to/lastmile_qr_scan"}, "is_reserved": 0, "is_disabled": 0, "type": "electric_scooter", "bike_id": "fd35807bbef596358559791144a10309"}, {"lon": -77.017575, "lat": 38.90373783333333, "name": "898d0cc995000c54d2cf68156091d2e0", "fusion_lat": 0.0, "fusion_lon": 0.0, "rental_uris": {"android": "https://dc.lft.to/lastmile_qr_scan", "ios": "https://dc.lft.to/lastmile_qr_scan"}, "is_reserved": 0, "is_disabled": 0, "type": "electric_bike", "bike_id": "898d0cc995000c54d2cf68156091d2e0"}, {"lon": -77.0062905, "lat": 38.95564233333333, "name": "990988e0940b1105eedecfe95d19fd47", "fusion_lat": 0.0, "fusion_lon": 0.0, "rental_uris": {"android": "https://dc.lft.to/lastmile_qr_scan", "ios": "https://dc.lft.to/lastmile_qr_scan"}, "is_reserved": 0, "is_disabled": 0, "type": "electric_scooter", "bike_id": "990988e0940b1105eedecfe95d19fd47"}, {"lon": -77.04091916666667, "lat": 38.90499833333333, "name": "d0d715773dd6419aaa88b31cd376a47a", "fusion_lat": 0.0, "fusion_lon": 0.0, "rental_uris": {"android": "https://dc.lft.to/lastmile_qr_scan", "ios": "https://dc.lft.to/lastmile_qr_scan"}, "is_reserved": 0, "is_disabled": 0, "type": "electric_scooter", "bike_id": "d0d715773dd6419aaa88b31cd376a47a"}, {"lon": -77.02485133333333, "lat": 38.91756433333333, "name": "7ddfb6c3488b87238412a9174cbf8b25", "fusion_lat": 0.0, "fusion_lon": 0.0, "rental_uris": {"android": "https://dc.lft.to/lastmile_qr_scan", "ios": "https://dc.lft.to/lastmile_qr_scan"}, "is_reserved": 0, "is_disabled": 0, "type": "electric_scooter", "bike_id": "7ddfb6c3488b87238412a9174cbf8b25"}, {"lon": -77.01415183333333, "lat": 38.9132305, "name": "60715563df5caf820ea1e00fbd7f8379", "fusion_lat": 0.0, "fusion_lon": 0.0, "rental_uris": {"android": "https://dc.lft.to/lastmile_qr_scan", "ios": "https://dc.lft.to/lastmile_qr_scan"}, "is_reserved": 0, "is_disabled": 0, "type": "electric_scooter", "bike_id": "60715563df5caf820ea1e00fbd7f8379"}, {"lon": -77.00932083333333, "lat": 38.91250683333333, "name": "3c3140ec49eb9548342edb9e1657e37e", "fusion_lat": 0.0, "fusion_lon": 0.0, "rental_uris": {"android": "https://dc.lft.to/lastmile_qr_scan", "ios": "https://dc.lft.to/lastmile_qr_scan"}, "is_reserved": 0, "is_disabled": 0, "type": "electric_scooter", "bike_id": "3c3140ec49eb9548342edb9e1657e37e"}, {"lon": -76.942229, "lat": 38.8967275, "name": "50663f56a4968323036d4bc7d1659ba1", "fusion_lat": 0.0, "fusion_lon": 0.0, "rental_uris": {"android": "https://dc.lft.to/lastmile_qr_scan", "ios": "https://dc.lft.to/lastmile_qr_scan"}, "is_reserved": 0, "is_disabled": 0, "type": "electric_scooter", "bike_id": "50663f56a4968323036d4bc7d1659ba1"}, {"lon": -77.12956216666667, "lat": 38.852168666666664, "name": "598d5e5de10df1c47cf816813aa5f3e8", "fusion_lat": 0.0, "fusion_lon": 0.0, "rental_uris": {"android": "https://dc.lft.to/lastmile_qr_scan", "ios": "https://dc.lft.to/lastmile_qr_scan"}, "is_reserved": 0, "is_disabled": 0, "type": "electric_bike", "bike_id": "598d5e5de10df1c47cf816813aa5f3e8"}, {"lon": -77.03373633333334, "lat": 38.919131, "name": "7d414197df91a64aed46b6b5b0d0f541", "fusion_lat": 0.0, "fusion_lon": 0.0, "rental_uris": {"android": "https://dc.lft.to/lastmile_qr_scan", "ios": "https://dc.lft.to/lastmile_qr_scan"}, "is_reserved": 0, "is_disabled": 0, "type": "electric_scooter", "bike_id": "7d414197df91a64aed46b6b5b0d0f541"}, {"lon": -76.93229816666667, "lat": 38.8659405, "name": "1601d6485ba00c2a6d2e3733eb3c65cb", "fusion_lat": 0.0, "fusion_lon": 0.0, "rental_uris": {"android": "https://dc.lft.to/lastmile_qr_scan", "ios": "https://dc.lft.to/lastmile_qr_scan"}, "is_reserved": 0, "is_disabled": 0, "type": "electric_bike", "bike_id": "1601d6485ba00c2a6d2e3733eb3c65cb"}, {"lon": -76.995116, "lat": 38.8948205, "name": "f4af742cf1163f862a9375563eeb73c0", "fusion_lat": 0.0, "fusion_lon": 0.0, "rental_uris": {"android": "https://dc.lft.to/lastmile_qr_scan", "ios": "https://dc.lft.to/lastmile_qr_scan"}, "is_reserved": 0, "is_disabled": 0, "type": "electric_scooter", "bike_id": "f4af742cf1163f862a9375563eeb73c0"}, {"lon": -77.02726283333334, "lat": 38.92797983333333, "name": "540cae2912574d9a29657e3c0881d3bc", "fusion_lat": 0.0, "fusion_lon": 0.0, "rental_uris": {"android": "https://dc.lft.to/lastmile_qr_scan", "ios": "https://dc.lft.to/lastmile_qr_scan"}, "is_reserved": 0, "is_disabled": 0, "type": "electric_scooter", "bike_id": "540cae2912574d9a29657e3c0881d3bc"}, {"lon": -77.022263, "lat": 38.912497, "name": "e37ebf9757e40c7ed83f1c0d514a6dc0", "fusion_lat": 0.0, "fusion_lon": 0.0, "rental_uris": {"android": "https://dc.lft.to/lastmile_qr_scan", "ios": "https://dc.lft.to/lastmile_qr_scan"}, "is_reserved": 0, "is_disabled": 0, "type": "electric_scooter", "bike_id": "e37ebf9757e40c7ed83f1c0d514a6dc0"}, {"lon": -77.00201166666666, "lat": 38.90074233333333, "name": "51e903b11f2ed8c35f3f3d38dcc815c8", "fusion_lat": 0.0, "fusion_lon": 0.0, "rental_uris": {"android": "https://dc.lft.to/lastmile_qr_scan", "ios": "https://dc.lft.to/lastmile_qr_scan"}, "is_reserved": 0, "is_disabled": 0, "type": "electric_scooter", "bike_id": "51e903b11f2ed8c35f3f3d38dcc815c8"}, {"lon": -77.0059365, "lat": 38.905593833333334, "name": "efe419353206417271a4a47f41025a6b", "fusion_lat": 0.0, "fusion_lon": 0.0, "rental_uris": {"android": "https://dc.lft.to/lastmile_qr_scan", "ios": "https://dc.lft.to/lastmile_qr_scan"}, "is_reserved": 0, "is_disabled": 0, "type": "electric_scooter", "bike_id": "efe419353206417271a4a47f41025a6b"}, {"lon": -77.09204866666667, "lat": 38.94133816666667, "name": "935d897c7873bdb27b482128c33cbfcb", "fusion_lat": 0.0, "fusion_lon": 0.0, "rental_uris": {"android": "https://dc.lft.to/lastmile_qr_scan", "ios": "https://dc.lft.to/lastmile_qr_scan"}, "is_reserved": 0, "is_disabled": 0, "type": "electric_scooter", "bike_id": "935d897c7873bdb27b482128c33cbfcb"}, {"lon": -77.0247555, "lat": 38.901521333333335, "name": "7bccb10606e675a9832b5ac13ba979bb", "fusion_lat": 0.0, "fusion_lon": 0.0, "rental_uris": {"android": "https://dc.lft.to/lastmile_qr_scan", "ios": "https://dc.lft.to/lastmile_qr_scan"}, "is_reserved": 0, "is_disabled": 0, "type": "electric_scooter", "bike_id": "7bccb10606e675a9832b5ac13ba979bb"}, {"lon": -77.04754033333333, "lat": 38.9023545, "name": "f410edd16590f62b60a4c764f2a066b9", "fusion_lat": 0.0, "fusion_lon": 0.0, "rental_uris": {"android": "https://dc.lft.to/lastmile_qr_scan", "ios": "https://dc.lft.to/lastmile_qr_scan"}, "is_reserved": 0, "is_disabled": 0, "type": "electric_scooter", "bike_id": "f410edd16590f62b60a4c764f2a066b9"}, {"lon": -77.048806, "lat": 38.901109, "name": "531a6f3fa9054992c1828bcbb1d79d72", "fusion_lat": 0.0, "fusion_lon": 0.0, "rental_uris": {"android": "https://dc.lft.to/lastmile_qr_scan", "ios": "https://dc.lft.to/lastmile_qr_scan"}, "is_reserved": 0, "is_disabled": 0, "type": "electric_scooter", "bike_id": "531a6f3fa9054992c1828bcbb1d79d72"}, {"lon": -77.12258916666667, "lat": 38.891904, "name": "456f6543918695c8f35f4512681580a2", "fusion_lat": 0.0, "fusion_lon": 0.0, "rental_uris": {"android": "https://dc.lft.to/lastmile_qr_scan", "ios": "https://dc.lft.to/lastmile_qr_scan"}, "is_reserved": 0, "is_disabled": 0, "type": "electric_bike", "bike_id": "456f6543918695c8f35f4512681580a2"}, {"lon": -77.07684066666667, "lat": 38.83191983333333, "name": "ff5f85ef89ec0ee3f3a849e95e69bfb4", "fusion_lat": 0.0, "fusion_lon": 0.0, "rental_uris": {"android": "https://dc.lft.to/lastmile_qr_scan", "ios": "https://dc.lft.to/lastmile_qr_scan"}, "is_reserved": 0, "is_disabled": 0, "type": "electric_bike", "bike_id": "ff5f85ef89ec0ee3f3a849e95e69bfb4"}, {"lon": -77.11224583333333, "lat": 38.828767, "name": "ba40290305a99402a364afadbe257b6d", "fusion_lat": 0.0, "fusion_lon": 0.0, "rental_uris": {"android": "https://dc.lft.to/lastmile_qr_scan", "ios": "https://dc.lft.to/lastmile_qr_scan"}, "is_reserved": 0, "is_disabled": 0, "type": "electric_bike", "bike_id": "ba40290305a99402a364afadbe257b6d"}, {"lon": -77.05014733333333, "lat": 38.900806, "name": "1a35c8a207b2c6e8eba44e89869cb8ba", "fusion_lat": 0.0, "fusion_lon": 0.0, "rental_uris": {"android": "https://dc.lft.to/lastmile_qr_scan", "ios": "https://dc.lft.to/lastmile_qr_scan"}, "is_reserved": 0, "is_disabled": 0, "type": "electric_scooter", "bike_id": "1a35c8a207b2c6e8eba44e89869cb8ba"}, {"lon": -77.04688983333334, "lat": 38.902654166666665, "name": "fe53b43c9e57166508fc0e666eeeb923", "fusion_lat": 0.0, "fusion_lon": 0.0, "rental_uris": {"android": "https://dc.lft.to/lastmile_qr_scan", "ios": "https://dc.lft.to/lastmile_qr_scan"}, "is_reserved": 0, "is_disabled": 0, "type": "electric_scooter", "bike_id": "fe53b43c9e57166508fc0e666eeeb923"}, {"lon": -77.012091, "lat": 38.91971566666667, "name": "6c46b2b4f22b2fd7ad6e798ef4be6794", "fusion_lat": 0.0, "fusion_lon": 0.0, "rental_uris": {"android": "https://dc.lft.to/lastmile_qr_scan", "ios": "https://dc.lft.to/lastmile_qr_scan"}, "is_reserved": 0, "is_disabled": 0, "type": "electric_scooter", "bike_id": "6c46b2b4f22b2fd7ad6e798ef4be6794"}, {"lon": -77.0562775, "lat": 38.924109333333334, "name": "5097ba49e20b781c5ec78a4abca84c0d", "fusion_lat": 0.0, "fusion_lon": 0.0, "rental_uris": {"android": "https://dc.lft.to/lastmile_qr_scan", "ios": "https://dc.lft.to/lastmile_qr_scan"}, "is_reserved": 0, "is_disabled": 0, "type": "electric_scooter", "bike_id": "5097ba49e20b781c5ec78a4abca84c0d"}, {"lon": -76.93532966666666, "lat": 38.955503666666665, "name": "c1cb968fad34a51ec25fa3196e86aaa3", "fusion_lat": 0.0, "fusion_lon": 0.0, "rental_uris": {"android": "https://dc.lft.to/lastmile_qr_scan", "ios": "https://dc.lft.to/lastmile_qr_scan"}, "is_reserved": 0, "is_disabled": 0, "type": "electric_bike", "bike_id": "c1cb968fad34a51ec25fa3196e86aaa3"}, {"lon": -77.00131, "lat": 38.90004666666667, "name": "9c885f233f5430eae883f4ad61397ced", "fusion_lat": 0.0, "fusion_lon": 0.0, "rental_uris": {"android": "https://dc.lft.to/lastmile_qr_scan", "ios": "https://dc.lft.to/lastmile_qr_scan"}, "is_reserved": 0, "is_disabled": 0, "type": "electric_scooter", "bike_id": "9c885f233f5430eae883f4ad61397ced"}, {"lon": -76.9874165, "lat": 38.94430583333333, "name": "b46c3bcc80886ca84f097ea3a9bdc016", "fusion_lat": 0.0, "fusion_lon": 0.0, "rental_uris": {"android": "https://dc.lft.to/lastmile_qr_scan", "ios": "https://dc.lft.to/lastmile_qr_scan"}, "is_reserved": 0, "is_disabled": 0, "type": "electric_bike", "bike_id": "b46c3bcc80886ca84f097ea3a9bdc016"}, {"lon": -77.05286483333333, "lat": 38.91055883333333, "name": "2811bc2dd3116db497216eefc7a23c91", "fusion_lat": 0.0, "fusion_lon": 0.0, "rental_uris": {"android": "https://dc.lft.to/lastmile_qr_scan", "ios": "https://dc.lft.to/lastmile_qr_scan"}, "is_reserved": 0, "is_disabled": 0, "type": "electric_scooter", "bike_id": "2811bc2dd3116db497216eefc7a23c91"}, {"lon": -77.03572016666666, "lat": 38.9572005, "name": "16f3d572d2ab17ceaac7fbe703566011", "fusion_lat": 0.0, "fusion_lon": 0.0, "rental_uris": {"android": "https://dc.lft.to/lastmile_qr_scan", "ios": "https://dc.lft.to/lastmile_qr_scan"}, "is_reserved": 0, "is_disabled": 0, "type": "electric_scooter", "bike_id": "16f3d572d2ab17ceaac7fbe703566011"}, {"lon": -77.01584933333334, "lat": 38.87639083333333, "name": "e80dcaf12ca0a124e359fce0b0036d27", "fusion_lat": 0.0, "fusion_lon": 0.0, "rental_uris": {"android": "https://dc.lft.to/lastmile_qr_scan", "ios": "https://dc.lft.to/lastmile_qr_scan"}, "is_reserved": 0, "is_disabled": 0, "type": "electric_scooter", "bike_id": "e80dcaf12ca0a124e359fce0b0036d27"}, {"lon": -77.07364483333333, "lat": 38.93360033333333, "name": "4c59c5756d7e1126eda901cfd9ea4303", "fusion_lat": 0.0, "fusion_lon": 0.0, "rental_uris": {"android": "https://dc.lft.to/lastmile_qr_scan", "ios": "https://dc.lft.to/lastmile_qr_scan"}, "is_reserved": 0, "is_disabled": 0, "type": "electric_scooter", "bike_id": "4c59c5756d7e1126eda901cfd9ea4303"}, {"lon": -77.02816466666667, "lat": 38.956095833333336, "name": "06ab05f6b92756ab19abc0cbcf4ff681", "fusion_lat": 0.0, "fusion_lon": 0.0, "rental_uris": {"android": "https://dc.lft.to/lastmile_qr_scan", "ios": "https://dc.lft.to/lastmile_qr_scan"}, "is_reserved": 0, "is_disabled": 0, "type": "electric_scooter", "bike_id": "06ab05f6b92756ab19abc0cbcf4ff681"}, {"lon": -77.03470533333333, "lat": 38.902975833333336, "name": "8eda029f23075e16a9a47fdcebbf90c1", "fusion_lat": 0.0, "fusion_lon": 0.0, "rental_uris": {"android": "https://dc.lft.to/lastmile_qr_scan", "ios": "https://dc.lft.to/lastmile_qr_scan"}, "is_reserved": 0, "is_disabled": 0, "type": "electric_scooter", "bike_id": "8eda029f23075e16a9a47fdcebbf90c1"}, {"lon": -77.0109195, "lat": 38.90554516666667, "name": "cebfc48cb71f9e03b199c9a3f9259390", "fusion_lat": 0.0, "fusion_lon": 0.0, "rental_uris": {"android": "https://dc.lft.to/lastmile_qr_scan", "ios": "https://dc.lft.to/lastmile_qr_scan"}, "is_reserved": 0, "is_disabled": 0, "type": "electric_scooter", "bike_id": "cebfc48cb71f9e03b199c9a3f9259390"}, {"lon": -77.036795, "lat": 38.90833166666667, "name": "1039e114369abc38b5fadc5a6cb6ef17", "fusion_lat": 0.0, "fusion_lon": 0.0, "rental_uris": {"android": "https://dc.lft.to/lastmile_qr_scan", "ios": "https://dc.lft.to/lastmile_qr_scan"}, "is_reserved": 0, "is_disabled": 0, "type": "electric_scooter", "bike_id": "1039e114369abc38b5fadc5a6cb6ef17"}, {"lon": -77.033545, "lat": 38.89972983333333, "name": "8cce6f76362d516cb139227950c898e4", "fusion_lat": 0.0, "fusion_lon": 0.0, "rental_uris": {"android": "https://dc.lft.to/lastmile_qr_scan", "ios": "https://dc.lft.to/lastmile_qr_scan"}, "is_reserved": 0, "is_disabled": 0, "type": "electric_scooter", "bike_id": "8cce6f76362d516cb139227950c898e4"}, {"lon": -77.032084, "lat": 38.917109833333335, "name": "f8db9fffa472b1716ac427b8fbaa1c41", "fusion_lat": 0.0, "fusion_lon": 0.0, "rental_uris": {"android": "https://dc.lft.to/lastmile_qr_scan", "ios": "https://dc.lft.to/lastmile_qr_scan"}, "is_reserved": 0, "is_disabled": 0, "type": "electric_scooter", "bike_id": "f8db9fffa472b1716ac427b8fbaa1c41"}, {"lon": -77.0169065, "lat": 38.9132505, "name": "143f5140c90048d7d1baabe8dc9b8157", "fusion_lat": 0.0, "fusion_lon": 0.0, "rental_uris": {"android": "https://dc.lft.to/lastmile_qr_scan", "ios": "https://dc.lft.to/lastmile_qr_scan"}, "is_reserved": 0, "is_disabled": 0, "type": "electric_scooter", "bike_id": "143f5140c90048d7d1baabe8dc9b8157"}, {"lon": -77.04065066666666, "lat": 38.92358133333333, "name": "df12d8a1a592bf68899e33e1c2984942", "fusion_lat": 0.0, "fusion_lon": 0.0, "rental_uris": {"android": "https://dc.lft.to/lastmile_qr_scan", "ios": "https://dc.lft.to/lastmile_qr_scan"}, "is_reserved": 0, "is_disabled": 0, "type": "electric_scooter", "bike_id": "df12d8a1a592bf68899e33e1c2984942"}, {"lon": -76.96491783333333, "lat": 38.87548066666667, "name": "d7cef8a338b92ba910c59c43a55d23cf", "fusion_lat": 0.0, "fusion_lon": 0.0, "rental_uris": {"android": "https://dc.lft.to/lastmile_qr_scan", "ios": "https://dc.lft.to/lastmile_qr_scan"}, "is_reserved": 0, "is_disabled": 0, "type": "electric_scooter", "bike_id": "d7cef8a338b92ba910c59c43a55d23cf"}, {"lon": -77.00862316666667, "lat": 38.827250166666666, "name": "93a374acc19e3977ab2600ee21e59700", "fusion_lat": 0.0, "fusion_lon": 0.0, "rental_uris": {"android": "https://dc.lft.to/lastmile_qr_scan", "ios": "https://dc.lft.to/lastmile_qr_scan"}, "is_reserved": 0, "is_disabled": 0, "type": "electric_bike", "bike_id": "93a374acc19e3977ab2600ee21e59700"}, {"lon": -77.07362133333334, "lat": 38.94322433333333, "name": "5a1374e6619d32d097affc6c65d02fe6", "fusion_lat": 0.0, "fusion_lon": 0.0, "rental_uris": {"android": "https://dc.lft.to/lastmile_qr_scan", "ios": "https://dc.lft.to/lastmile_qr_scan"}, "is_reserved": 0, "is_disabled": 0, "type": "electric_scooter", "bike_id": "5a1374e6619d32d097affc6c65d02fe6"}, {"lon": -76.98552616666667, "lat": 38.855845, "name": "031e3f1747f39e652e2cdb939db7f49d", "fusion_lat": 0.0, "fusion_lon": 0.0, "rental_uris": {"android": "https://dc.lft.to/lastmile_qr_scan", "ios": "https://dc.lft.to/lastmile_qr_scan"}, "is_reserved": 0, "is_disabled": 0, "type": "electric_scooter", "bike_id": "031e3f1747f39e652e2cdb939db7f49d"}, {"lon": -77.072734, "lat": 38.934797333333336, "name": "1f0c138a4df291b9f8287ee221a0ec42", "fusion_lat": 0.0, "fusion_lon": 0.0, "rental_uris": {"android": "https://dc.lft.to/lastmile_qr_scan", "ios": "https://dc.lft.to/lastmile_qr_scan"}, "is_reserved": 0, "is_disabled": 0, "type": "electric_scooter", "bike_id": "1f0c138a4df291b9f8287ee221a0ec42"}, {"lon": -77.03471483333334, "lat": 38.90875483333333, "name": "be7eacb19eb24c63060ec72cf1acfa41", "fusion_lat": 0.0, "fusion_lon": 0.0, "rental_uris": {"android": "https://dc.lft.to/lastmile_qr_scan", "ios": "https://dc.lft.to/lastmile_qr_scan"}, "is_reserved": 0, "is_disabled": 0, "type": "electric_scooter", "bike_id": "be7eacb19eb24c63060ec72cf1acfa41"}, {"lon": -77.02602783333333, "lat": 38.900442, "name": "260b9fe49710aca3783bb730cc783ffc", "fusion_lat": 0.0, "fusion_lon": 0.0, "rental_uris": {"android": "https://dc.lft.to/lastmile_qr_scan", "ios": "https://dc.lft.to/lastmile_qr_scan"}, "is_reserved": 0, "is_disabled": 0, "type": "electric_scooter", "bike_id": "260b9fe49710aca3783bb730cc783ffc"}, {"lon": -77.02488966666667, "lat": 38.97402016666667, "name": "7f0ed37a60d3091de99a23654be09f03", "fusion_lat": 0.0, "fusion_lon": 0.0, "rental_uris": {"android": "https://dc.lft.to/lastmile_qr_scan", "ios": "https://dc.lft.to/lastmile_qr_scan"}, "is_reserved": 0, "is_disabled": 0, "type": "electric_bike", "bike_id": "7f0ed37a60d3091de99a23654be09f03"}, {"lon": -77.03136933333333, "lat": 38.927887166666665, "name": "d282ecf1762e411067b51d5bb918a5b3", "fusion_lat": 0.0, "fusion_lon": 0.0, "rental_uris": {"android": "https://dc.lft.to/lastmile_qr_scan", "ios": "https://dc.lft.to/lastmile_qr_scan"}, "is_reserved": 0, "is_disabled": 0, "type": "electric_scooter", "bike_id": "d282ecf1762e411067b51d5bb918a5b3"}, {"lon": -77.03884483333333, "lat": 38.932562833333336, "name": "e9380e8e7d4d9750ef0f4cbfe8d2aca7", "fusion_lat": 0.0, "fusion_lon": 0.0, "rental_uris": {"android": "https://dc.lft.to/lastmile_qr_scan", "ios": "https://dc.lft.to/lastmile_qr_scan"}, "is_reserved": 0, "is_disabled": 0, "type": "electric_scooter", "bike_id": "e9380e8e7d4d9750ef0f4cbfe8d2aca7"}, {"lon": -76.94731483333334, "lat": 38.8967575, "name": "e5a76406bbbaed78e5bff099ba304e94", "fusion_lat": 0.0, "fusion_lon": 0.0, "rental_uris": {"android": "https://dc.lft.to/lastmile_qr_scan", "ios": "https://dc.lft.to/lastmile_qr_scan"}, "is_reserved": 0, "is_disabled": 0, "type": "electric_scooter", "bike_id": "e5a76406bbbaed78e5bff099ba304e94"}, {"lon": -77.03339066666666, "lat": 38.90033783333333, "name": "3a4b875a3b6c58d9fb8b4ca2b9fc9b55", "fusion_lat": 0.0, "fusion_lon": 0.0, "rental_uris": {"android": "https://dc.lft.to/lastmile_qr_scan", "ios": "https://dc.lft.to/lastmile_qr_scan"}, "is_reserved": 0, "is_disabled": 0, "type": "electric_scooter", "bike_id": "3a4b875a3b6c58d9fb8b4ca2b9fc9b55"}, {"lon": -76.99947133333333, "lat": 38.84291566666667, "name": "e632ce8810bbe7b9399d34d926a3348c", "fusion_lat": 0.0, "fusion_lon": 0.0, "rental_uris": {"android": "https://dc.lft.to/lastmile_qr_scan", "ios": "https://dc.lft.to/lastmile_qr_scan"}, "is_reserved": 0, "is_disabled": 0, "type": "electric_scooter", "bike_id": "e632ce8810bbe7b9399d34d926a3348c"}, {"lon": -77.0230455, "lat": 38.917526333333335, "name": "00ffbb3f36da1574d196835b2ded7d5a", "fusion_lat": 0.0, "fusion_lon": 0.0, "rental_uris": {"android": "https://dc.lft.to/lastmile_qr_scan", "ios": "https://dc.lft.to/lastmile_qr_scan"}, "is_reserved": 0, "is_disabled": 0, "type": "electric_scooter", "bike_id": "00ffbb3f36da1574d196835b2ded7d5a"}, {"lon": -77.046452, "lat": 38.85210983333333, "name": "6282d352d56382aea02713743f1ed34c", "fusion_lat": 0.0, "fusion_lon": 0.0, "rental_uris": {"android": "https://dc.lft.to/lastmile_qr_scan", "ios": "https://dc.lft.to/lastmile_qr_scan"}, "is_reserved": 0, "is_disabled": 0, "type": "electric_bike", "bike_id": "6282d352d56382aea02713743f1ed34c"}, {"lon": -77.06266416666666, "lat": 38.904045333333336, "name": "3bc353f88c86d86002400196359fc195", "fusion_lat": 0.0, "fusion_lon": 0.0, "rental_uris": {"android": "https://dc.lft.to/lastmile_qr_scan", "ios": "https://dc.lft.to/lastmile_qr_scan"}, "is_reserved": 0, "is_disabled": 0, "type": "electric_scooter", "bike_id": "3bc353f88c86d86002400196359fc195"}, {"lon": -77.05068183333333, "lat": 38.90072283333333, "name": "4d0c788f73f27e21d70d05cd7404bbb0", "fusion_lat": 0.0, "fusion_lon": 0.0, "rental_uris": {"android": "https://dc.lft.to/lastmile_qr_scan", "ios": "https://dc.lft.to/lastmile_qr_scan"}, "is_reserved": 0, "is_disabled": 0, "type": "electric_scooter", "bike_id": "4d0c788f73f27e21d70d05cd7404bbb0"}, {"lon": -77.005695, "lat": 38.885022, "name": "d0c2c9b54333751ccd06cf56dc1b5f13", "fusion_lat": 0.0, "fusion_lon": 0.0, "rental_uris": {"android": "https://dc.lft.to/lastmile_qr_scan", "ios": "https://dc.lft.to/lastmile_qr_scan"}, "is_reserved": 0, "is_disabled": 0, "type": "electric_scooter", "bike_id": "d0c2c9b54333751ccd06cf56dc1b5f13"}, {"lon": -77.01134916666666, "lat": 38.894981333333334, "name": "17849e89f4e942539b10e0fb61cc170b", "fusion_lat": 0.0, "fusion_lon": 0.0, "rental_uris": {"android": "https://dc.lft.to/lastmile_qr_scan", "ios": "https://dc.lft.to/lastmile_qr_scan"}, "is_reserved": 0, "is_disabled": 0, "type": "electric_scooter", "bike_id": "17849e89f4e942539b10e0fb61cc170b"}, {"lon": -77.01248666666666, "lat": 38.90864466666667, "name": "e1a243a2ea7054666070f2b89c8f260c", "fusion_lat": 0.0, "fusion_lon": 0.0, "rental_uris": {"android": "https://dc.lft.to/lastmile_qr_scan", "ios": "https://dc.lft.to/lastmile_qr_scan"}, "is_reserved": 0, "is_disabled": 0, "type": "electric_scooter", "bike_id": "e1a243a2ea7054666070f2b89c8f260c"}, {"lon": -76.99427283333333, "lat": 38.92269616666667, "name": "d74e3459e61e9d73ac8bff8bb2ca1548", "fusion_lat": 0.0, "fusion_lon": 0.0, "rental_uris": {"android": "https://dc.lft.to/lastmile_qr_scan", "ios": "https://dc.lft.to/lastmile_qr_scan"}, "is_reserved": 0, "is_disabled": 0, "type": "electric_scooter", "bike_id": "d74e3459e61e9d73ac8bff8bb2ca1548"}, {"lon": -76.98841583333333, "lat": 38.900097, "name": "51b79e558bf77dd5bff50e98101c22d6", "fusion_lat": 0.0, "fusion_lon": 0.0, "rental_uris": {"android": "https://dc.lft.to/lastmile_qr_scan", "ios": "https://dc.lft.to/lastmile_qr_scan"}, "is_reserved": 0, "is_disabled": 0, "type": "electric_scooter", "bike_id": "51b79e558bf77dd5bff50e98101c22d6"}, {"lon": -76.9651985, "lat": 38.87480133333333, "name": "d1ca1a471b8f5f7df96f4cae1a7b357e", "fusion_lat": 0.0, "fusion_lon": 0.0, "rental_uris": {"android": "https://dc.lft.to/lastmile_qr_scan", "ios": "https://dc.lft.to/lastmile_qr_scan"}, "is_reserved": 0, "is_disabled": 0, "type": "electric_scooter", "bike_id": "d1ca1a471b8f5f7df96f4cae1a7b357e"}, {"lon": -77.03847566666667, "lat": 38.9121275, "name": "096c37bca912afae99331c418a67d6bd", "fusion_lat": 0.0, "fusion_lon": 0.0, "rental_uris": {"android": "https://dc.lft.to/lastmile_qr_scan", "ios": "https://dc.lft.to/lastmile_qr_scan"}, "is_reserved": 0, "is_disabled": 0, "type": "electric_scooter", "bike_id": "096c37bca912afae99331c418a67d6bd"}, {"lon": -77.02709033333333, "lat": 38.9499845, "name": "b0353ea7b0ff4ce867558cf734e05d48", "fusion_lat": 0.0, "fusion_lon": 0.0, "rental_uris": {"android": "https://dc.lft.to/lastmile_qr_scan", "ios": "https://dc.lft.to/lastmile_qr_scan"}, "is_reserved": 0, "is_disabled": 0, "type": "electric_scooter", "bike_id": "b0353ea7b0ff4ce867558cf734e05d48"}, {"lon": -77.0386805, "lat": 38.91708233333333, "name": "6cc9b41c31349e0ae1ba564cc61b90c0", "fusion_lat": 0.0, "fusion_lon": 0.0, "rental_uris": {"android": "https://dc.lft.to/lastmile_qr_scan", "ios": "https://dc.lft.to/lastmile_qr_scan"}, "is_reserved": 0, "is_disabled": 0, "type": "electric_scooter", "bike_id": "6cc9b41c31349e0ae1ba564cc61b90c0"}, {"lon": -77.03263733333333, "lat": 38.9334035, "name": "aba88b2d1d2888657a1227e402b15d89", "fusion_lat": 0.0, "fusion_lon": 0.0, "rental_uris": {"android": "https://dc.lft.to/lastmile_qr_scan", "ios": "https://dc.lft.to/lastmile_qr_scan"}, "is_reserved": 0, "is_disabled": 0, "type": "electric_scooter", "bike_id": "aba88b2d1d2888657a1227e402b15d89"}, {"lon": -77.01447133333333, "lat": 38.91203316666667, "name": "b08bb59b0ed7820c764d0e77d1ab53a9", "fusion_lat": 0.0, "fusion_lon": 0.0, "rental_uris": {"android": "https://dc.lft.to/lastmile_qr_scan", "ios": "https://dc.lft.to/lastmile_qr_scan"}, "is_reserved": 0, "is_disabled": 0, "type": "electric_scooter", "bike_id": "b08bb59b0ed7820c764d0e77d1ab53a9"}, {"lon": -77.01807116666667, "lat": 38.914305166666665, "name": "b038c590849fa8aad2887b4c57772038", "fusion_lat": 0.0, "fusion_lon": 0.0, "rental_uris": {"android": "https://dc.lft.to/lastmile_qr_scan", "ios": "https://dc.lft.to/lastmile_qr_scan"}, "is_reserved": 0, "is_disabled": 0, "type": "electric_scooter", "bike_id": "b038c590849fa8aad2887b4c57772038"}, {"lon": -77.01354483333333, "lat": 38.919421166666666, "name": "ef5308cc6c269f4822e80c8d0478ec40", "fusion_lat": 0.0, "fusion_lon": 0.0, "rental_uris": {"android": "https://dc.lft.to/lastmile_qr_scan", "ios": "https://dc.lft.to/lastmile_qr_scan"}, "is_reserved": 0, "is_disabled": 0, "type": "electric_scooter", "bike_id": "ef5308cc6c269f4822e80c8d0478ec40"}, {"lon": -77.11415633333333, "lat": 38.8429975, "name": "65498d82d26e01734bcdfdd92d1ff88c", "fusion_lat": 0.0, "fusion_lon": 0.0, "rental_uris": {"android": "https://dc.lft.to/lastmile_qr_scan", "ios": "https://dc.lft.to/lastmile_qr_scan"}, "is_reserved": 0, "is_disabled": 0, "type": "electric_bike", "bike_id": "65498d82d26e01734bcdfdd92d1ff88c"}, {"lon": -77.00860483333334, "lat": 38.869482, "name": "5365e6bf10888ab52d7dc9c911c9188c", "fusion_lat": 0.0, "fusion_lon": 0.0, "rental_uris": {"android": "https://dc.lft.to/lastmile_qr_scan", "ios": "https://dc.lft.to/lastmile_qr_scan"}, "is_reserved": 0, "is_disabled": 0, "type": "electric_scooter", "bike_id": "5365e6bf10888ab52d7dc9c911c9188c"},