{"data": {"bikes": [{"is_reserved": 0, "type": "electric_scooter", "fusion_lat": 0.0, "is_disabled": 0, "rental_uris": {"ios": "https://dc.lft.to/lastmile_qr_scan", "android": "https://dc.lft.to/lastmile_qr_scan"}, "bike_id": "b0479096dd1a8db5230aa4b45ab62817", "lat": 38.916319666666666, "name": "b0479096dd1a8db5230aa4b45ab62817", "lon": -77.022139, "fusion_lon": 0.0}, {"is_reserved": 0, "type": "electric_bike", "fusion_lat": 0.0, "is_disabled": 0, "rental_uris": {"ios": "https://dc.lft.to/lastmile_qr_scan", "android": "https://dc.lft.to/lastmile_qr_scan"}, "bike_id": "2c48ca47167db1f0404b9149d306922a", "lat": 38.9384275, "name": "2c48ca47167db1f0404b9149d306922a", "lon": -76.9433345, "fusion_lon": 0.0}, {"is_reserved": 0, "type": "electric_scooter", "fusion_lat": 0.0, "is_disabled": 0, "rental_uris": {"ios": "https://dc.lft.to/lastmile_qr_scan", "android": "https://dc.lft.to/lastmile_qr_scan"}, "bike_id": "16b29062a7bc7974825a7e1830ba9694", "lat": 38.90270183333333, "name": "16b29062a7bc7974825a7e1830ba9694", "lon": -77.04058116666667, "fusion_lon": 0.0}, {"is_reserved": 0, "type": "electric_scooter", "fusion_lat": 0.0, "is_disabled": 0, "rental_uris": {"ios": "https://dc.lft.to/lastmile_qr_scan", "android": "https://dc.lft.to/lastmile_qr_scan"}, "bike_id": "d017a0b07c959e1f25696c47abed4d0a", "lat": 38.90467, "name": "d017a0b07c959e1f25696c47abed4d0a", "lon": -77.04161283333333, "fusion_lon": 0.0}, {"is_reserved": 0, "type": "electric_scooter", "fusion_lat": 0.0, "is_disabled": 0, "rental_uris": {"ios": "https://dc.lft.to/lastmile_qr_scan", "android": "https://dc.lft.to/lastmile_qr_scan"}, "bike_id": "c92ec6019d724278e072c0c63ab9b11d", "lat": 38.884001, "name": "c92ec6019d724278e072c0c63ab9b11d", "lon": -77.03039366666667, "fusion_lon": 0.0}, {"is_reserved": 0, "type": "electric_scooter", "fusion_lat": 0.0, "is_disabled": 0, "rental_uris": {"ios": "https://dc.lft.to/lastmile_qr_scan", "android": "https://dc.lft.to/lastmile_qr_scan"}, "bike_id": "ce40b1487eff1206526f891af8506941", "lat": 38.876359, "name": "ce40b1487eff1206526f891af8506941", "lon": -77.005809, "fusion_lon": 0.0}, {"is_reserved": 0, "type": "electric_scooter", "fusion_lat": 0.0, "is_disabled": 0, "rental_uris": {"ios": "https://dc.lft.to/lastmile_qr_scan", "android": "https://dc.lft.to/lastmile_qr_scan"}, "bike_id": "9c5ebe388ba8a9022ecdeebc47ca5fac", "lat": 38.931955333333335, "name": "9c5ebe388ba8a9022ecdeebc47ca5fac", "lon": -77.03269383333334, "fusion_lon": 0.0}, {"is_reserved": 0, "type": "electric_scooter", "fusion_lat": 0.0, "is_disabled": 0, "rental_uris": {"ios": "https://dc.lft.to/lastmile_qr_scan", "android": "https://dc.lft.to/lastmile_qr_scan"}, "bike_id": "463152c41cbd393ed9e2a30f7606f857", "lat": 38.895329333333336, "name": "463152c41cbd393ed9e2a30f7606f857", "lon": -76.94889483333333, "fusion_lon": 0.0}, {"is_reserved": 0, "type": "electric_scooter", "fusion_lat": 0.0, "is_disabled": 0, "rental_uris": {"ios": "https://dc.lft.to/lastmile_qr_scan", "android": "https://dc.lft.to/lastmile_qr_scan"}, "bike_id": "845b8077916c33589dac8930680933d6", "lat": 38.92293933333333, "name": "845b8077916c33589dac8930680933d6", "lon": -77.02071366666667, "fusion_lon": 0.0}, {"is_reserved": 0, "type": "electric_scooter", "fusion_lat": 0.0, "is_disabled": 0, "rental_uris": {"ios": "https://dc.lft.to/lastmile_qr_scan", "android": "https://dc.lft.to/lastmile_qr_scan"}, "bike_id": "ddc7b8e377909c2fb1f79e62a47f9162", "lat": 38.91551, "name": "ddc7b8e377909c2fb1f79e62a47f9162", "lon": -77.03173083333333, "fusion_lon": 0.0}, {"is_reserved": 0, "type": "electric_scooter", "fusion_lat": 0.0, "is_disabled": 0, "rental_uris": {"ios": "https://dc.lft.to/lastmile_qr_scan", "android": "https://dc.lft.to/lastmile_qr_scan"}, "bike_id": "7a97ae0255c0627edfb57ce765f4782e", "lat": 38.91912266666667, "name": "7a97ae0255c0627edfb57ce765f4782e", "lon": -77.01363, "fusion_lon": 0.0}, {"is_reserved": 0, "type": "electric_scooter", "fusion_lat": 0.0, "is_disabled": 0, "rental_uris": {"ios": "https://dc.lft.to/lastmile_qr_scan", "android": "https://dc.lft.to/lastmile_qr_scan"}, "bike_id": "e7e33e051fd2094b00b58f299176cd69", "lat": 38.939887, "name": "e7e33e051fd2094b00b58f299176cd69", "lon": -77.032839, "fusion_lon": 0.0}, {"is_reserved": 0, "type": "electric_bike", "fusion_lat": 0.0, "is_disabled": 0, "rental_uris": {"ios": "https://dc.lft.to/lastmile_qr_scan", "android": "https://dc.lft.to/lastmile_qr_scan"}, "bike_id": "cc1e497243f29d3f6e7fd597cabd447b", "lat": 38.813284833333334, "name": "cc1e497243f29d3f6e7fd597cabd447b", "lon": -77.050905, "fusion_lon": 0.0}, {"is_reserved": 0, "type": "electric_bike", "fusion_lat": 0.0, "is_disabled": 0, "rental_uris": {"ios": "https://dc.lft.to/lastmile_qr_scan", "android": "https://dc.lft.to/lastmile_qr_scan"}, "bike_id": "240e4bcfe5f151d15c381e9688e79066", "lat": 38.9612715, "name": "240e4bcfe5f151d15c381e9688e79066", "lon": -77.03276883333334, "fusion_lon": 0.0}, {"is_reserved": 0, "type": "electric_scooter", "fusion_lat": 0.0, "is_disabled": 0, "rental_uris": {"ios": "https://dc.lft.to/lastmile_qr_scan", "android": "https://dc.lft.to/lastmile_qr_scan"}, "bike_id": "7f5de415aad5d94c9ccfbc1c1624e5bc", "lat": 38.9234195, "name": "7f5de415aad5d94c9ccfbc1c1624e5bc", "lon": -77.04016583333333, "fusion_lon": 0.0}, {"is_reserved": 0, "type": "electric_scooter", "fusion_lat": 0.0, "is_disabled": 0, "rental_uris": {"ios": "https://dc.lft.to/lastmile_qr_scan", "android": "https://dc.lft.to/lastmile_qr_scan"}, "bike_id": "59d3c354283dfde175ab446675a30da4", "lat": 38.92363616666667, "name": "59d3c354283dfde175ab446675a30da4", "lon": -77.0512795, "fusion_lon": 0.0}, {"is_reserved": 0, "type": "electric_bike", "fusion_lat": 0.0, "is_disabled": 0, "rental_uris": {"ios": "https://dc.lft.to/lastmile_qr_scan", "android": "https://dc.lft.to/lastmile_qr_scan"}, "bike_id": "eecfc520da6bccc85b186bff5a6416ac", "lat": 38.95184033333334, "name": "eecfc520da6bccc85b186bff5a6416ac", "lon": -76.93544983333334, "fusion_lon": 0.0}, {"is_reserved": 0, "type": "electric_scooter", "fusion_lat": 0.0, "is_disabled": 0, "rental_uris": {"ios": "https://dc.lft.to/lastmile_qr_scan", "android": "https://dc.lft.to/lastmile_qr_scan"}, "bike_id": "8fb4fd569e0ab37f8e4d8fa03272bfd0", "lat": 38.90150216666667, "name": "8fb4fd569e0ab37f8e4d8fa03272bfd0", "lon": -77.02404633333333, "fusion_lon": 0.0}, {"is_reserved": 0, "type": "electric_scooter", "fusion_lat": 0.0, "is_disabled": 0, "rental_uris": {"ios": "https://dc.lft.to/lastmile_qr_scan", "android": "https://dc.lft.to/lastmile_qr_scan"}, "bike_id": "79ea6d8bf98da3b851418ca227931753", "lat": 38.920525, "name": "79ea6d8bf98da3b851418ca227931753", "lon": -77.01800033333333, "fusion_lon": 0.0}, {"is_reserved": 0, "type": "electric_scooter", "fusion_lat": 0.0, "is_disabled": 0, "rental_uris": {"ios": "https://dc.lft.to/lastmile_qr_scan", "android": "https://dc.lft.to/lastmile_qr_scan"}, "bike_id": "42f66318bac53bf54fa7e3227058e43e", "lat": 38.88443683333333, "name": "42f66318bac53bf54fa7e3227058e43e", "lon": -77.02462533333333, "fusion_lon": 0.0}, {"is_reserved": 0, "type": "electric_scooter", "fusion_lat": 0.0, "is_disabled": 0, "rental_uris": {"ios": "https://dc.lft.to/lastmile_qr_scan", "android": "https://dc.lft.to/lastmile_qr_scan"}, "bike_id": "baad280bd2529c43ee0cf46d8b243cc5", "lat": 38.894352166666664, "name": "baad280bd2529c43ee0cf46d8b243cc5", "lon": -77.03171333333333, "fusion_lon": 0.0}, {"is_reserved": 0, "type": "electric_scooter", "fusion_lat": 0.0, "is_disabled": 0, "rental_uris": {"ios": "https://dc.lft.to/lastmile_qr_scan", "android": "https://dc.lft.to/lastmile_qr_scan"}, "bike_id": "5ea9557a3bd486561d507cb1e5fce5e0", "lat": 38.928373666666666, "name": "5ea9557a3bd486561d507cb1e5fce5e0", "lon": -77.01405366666667, "fusion_lon": 0.0}, {"is_reserved": 0, "type": "electric_bike", "fusion_lat": 0.0, "is_disabled": 0, "rental_uris": {"ios": "https://dc.lft.to/lastmile_qr_scan", "android": "https://dc.lft.to/lastmile_qr_scan"}, "bike_id": "2707231bbc1293bc4be8cca5108ab416", "lat": 38.963833, "name": "2707231bbc1293bc4be8cca5108ab416", "lon": -77.019741, "fusion_lon": 0.0}, {"is_reserved": 0, "type": "electric_scooter", "fusion_lat": 0.0, "is_disabled": 0, "rental_uris": {"ios": "https://dc.lft.to/lastmile_qr_scan", "android": "https://dc.lft.to/lastmile_qr_scan"}, "bike_id": "20091c56ede4e44b8304ba5a5b7d2bb7", "lat": 38.91889116666667, "name": "20091c56ede4e44b8304ba5a5b7d2bb7", "lon": -77.03174533333333, "fusion_lon": 0.0}, {"is_reserved": 0, "type": "electric_scooter", "fusion_lat": 0.0, "is_disabled": 0, "rental_uris": {"ios": "https://dc.lft.to/lastmile_qr_scan", "android": "https://dc.lft.to/lastmile_qr_scan"}, "bike_id": "1b194ac9a2e551257645d159dd0e72c1", "lat": 38.895413, "name": "1b194ac9a2e551257645d159dd0e72c1", "lon": -76.983279, "fusion_lon": 0.0}, {"is_reserved": 0, "type": "electric_scooter", "fusion_lat": 0.0, "is_disabled": 0, "rental_uris": {"ios": "https://dc.lft.to/lastmile_qr_scan", "android": "https://dc.lft.to/lastmile_qr_scan"}, "bike_id": "9d5b57c769e7b7f6bad0fc6f9f0e78b2", "lat": 38.924794166666665, "name": "9d5b57c769e7b7f6bad0fc6f9f0e78b2", "lon": -77.0088435, "fusion_lon": 0.0}, {"is_reserved": 0, "type": "electric_scooter", "fusion_lat": 0.0, "is_disabled": 0, "rental_uris": {"ios": "https://dc.lft.to/lastmile_qr_scan", "android": "https://dc.lft.to/lastmile_qr_scan"}, "bike_id": "cf13e035bf490d66f817c8c6d6300a6d", "lat": 38.914873666666665, "name": "cf13e035bf490d66f817c8c6d6300a6d", "lon": -77.04951316666667, "fusion_lon": 0.0}, {"is_reserved": 0, "type": "electric_scooter", "fusion_lat": 0.0, "is_disabled": 0, "rental_uris": {"ios": "https://dc.lft.to/lastmile_qr_scan", "android": "https://dc.lft.to/lastmile_qr_scan"}, "bike_id": "d31bb94091ce0fab05d53fbf4eb3e5a6", "lat": 38.89949766666667, "name": "d31bb94091ce0fab05d53fbf4eb3e5a6", "lon": -77.0255615, "fusion_lon": 0.0}, {"is_reserved": 0, "type": "electric_scooter", "fusion_lat": 0.0, "is_disabled": 0, "rental_uris": {"ios": "https://dc.lft.to/lastmile_qr_scan", "android": "https://dc.lft.to/lastmile_qr_scan"}, "bike_id": "d87f0d89cdd45ada5ed081aee9a561fa", "lat": 38.893037, "name": "d87f0d89cdd45ada5ed081aee9a561fa", "lon": -77.01485833333334, "fusion_lon": 0.0}, {"is_reserved": 0, "type": "electric_scooter", "fusion_lat": 0.0, "is_disabled": 0, "rental_uris": {"ios": "https://dc.lft.to/lastmile_qr_scan", "android": "https://dc.lft.to/lastmile_qr_scan"}, "bike_id": "4bf38fb7a3c3c8d381c1490b57f569cf", "lat": 38.89533083333333, "name": "4bf38fb7a3c3c8d381c1490b57f569cf", "lon": -76.9488815, "fusion_lon": 0.0}, {"is_reserved": 0, "type": "electric_scooter", "fusion_lat": 0.0, "is_disabled": 0, "rental_uris": {"ios": "https://dc.lft.to/lastmile_qr_scan", "android": "https://dc.lft.to/lastmile_qr_scan"}, "bike_id": "7fa152a87413406bde04d706e365f56b", "lat": 38.901774333333336, "name": "7fa152a87413406bde04d706e365f56b", "lon": -77.04829416666666, "fusion_lon": 0.0}, {"is_reserved": 0, "type": "electric_scooter", "fusion_lat": 0.0, "is_disabled": 0, "rental_uris": {"ios": "https://dc.lft.to/lastmile_qr_scan", "android": "https://dc.lft.to/lastmile_qr_scan"}, "bike_id": "4376a111853e6b883bcc83ce8f0abfd6", "lat": 38.93958333333333, "name": "4376a111853e6b883bcc83ce8f0abfd6", "lon": -77.07239183333333, "fusion_lon": 0.0}, {"is_reserved": 0, "type": "electric_scooter", "fusion_lat": 0.0, "is_disabled": 0, "rental_uris": {"ios": "https://dc.lft.to/lastmile_qr_scan", "android": "https://dc.lft.to/lastmile_qr_scan"}, "bike_id": "0dd309b67676588785495cafe16e9107", "lat": 38.91471833333333, "name": "0dd309b67676588785495cafe16e9107", "lon": -77.00211066666667, "fusion_lon": 0.0}, {"is_reserved": 0, "type": "electric_scooter", "fusion_lat": 0.0, "is_disabled": 0, "rental_uris": {"ios": "https://dc.lft.to/lastmile_qr_scan", "android": "https://dc.lft.to/lastmile_qr_scan"}, "bike_id": "91d8ca3ad78ce34aad0b8fe64d753e41", "lat": 38.916905666666665, "name": "91d8ca3ad78ce34aad0b8fe64d753e41", "lon": -77.052971, "fusion_lon": 0.0}, {"is_reserved": 0, "type": "electric_bike", "fusion_lat": 0.0, "is_disabled": 0, "rental_uris": {"ios": "https://dc.lft.to/lastmile_qr_scan", "android": "https://dc.lft.to/lastmile_qr_scan"}, "bike_id": "992b24c19f5e127f4f76c304886297fc", "lat": 38.822105666666666, "name": "992b24c19f5e127f4f76c304886297fc", "lon": -76.97702783333334, "fusion_lon": 0.0}, {"is_reserved": 0, "type": "electric_scooter", "fusion_lat": 0.0, "is_disabled": 0, "rental_uris": {"ios": "https://dc.lft.to/lastmile_qr_scan", "android": "https://dc.lft.to/lastmile_qr_scan"}, "bike_id": "89ae29019b076599211894258e64579c", "lat": 38.909591, "name": "89ae29019b076599211894258e64579c", "lon": -77.0328705, "fusion_lon": 0.0}, {"is_reserved": 0, "type": "electric_bike", "fusion_lat": 0.0, "is_disabled": 0, "rental_uris": {"ios": "https://dc.lft.to/lastmile_qr_scan", "android": "https://dc.lft.to/lastmile_qr_scan"}, "bike_id": "ba8035eadf49cc074b455977536013da", "lat": 38.88023183333333, "name": "ba8035eadf49cc074b455977536013da", "lon": -76.98619716666667, "fusion_lon": 0.0}, {"is_reserved": 0, "type": "electric_scooter", "fusion_lat": 0.0, "is_disabled": 0, "rental_uris": {"ios": "https://dc.lft.to/lastmile_qr_scan", "android": "https://dc.lft.to/lastmile_qr_scan"}, "bike_id": "69016823200c1ceaca5d23f179f3e6ee", "lat": 38.9172655, "name": "69016823200c1ceaca5d23f179f3e6ee", "lon": -77.06840116666666, "fusion_lon": 0.0}, {"is_reserved": 0, "type": "electric_scooter", "fusion_lat": 0.0, "is_disabled": 0, "rental_uris": {"ios": "https://dc.lft.to/lastmile_qr_scan", "android": "https://dc.lft.to/lastmile_qr_scan"}, "bike_id": "e41b43e546fffaf269aee34c5a71381f", "lat": 38.89664166666667, "name": "e41b43e546fffaf269aee34c5a71381f", "lon": -77.04347016666667, "fusion_lon": 0.0}, {"is_reserved": 0, "type": "electric_scooter", "fusion_lat": 0.0, "is_disabled": 0, "rental_uris": {"ios": "https://dc.lft.to/lastmile_qr_scan", "android": "https://dc.lft.to/lastmile_qr_scan"}, "bike_id": "59c832f63bb096aeaf0f95529ac86e22", "lat": 38.929421, "name": "59c832f63bb096aeaf0f95529ac86e22", "lon": -77.0327695, "fusion_lon": 0.0}, {"is_reserved": 0, "type": "electric_bike", "fusion_lat": 0.0, "is_disabled": 0, "rental_uris": {"ios": "https://dc.lft.to/lastmile_qr_scan", "android": "https://dc.lft.to/lastmile_qr_scan"}, "bike_id": "d8327f6899c4cb613e9fa4f5ddc499f4", "lat": 38.8772025, "name": "d8327f6899c4cb613e9fa4f5ddc499f4", "lon": -77.003298, "fusion_lon": 0.0}, {"is_reserved": 0, "type": "electric_scooter", "fusion_lat": 0.0, "is_disabled": 0, "rental_uris": {"ios": "https://dc.lft.to/lastmile_qr_scan", "android": "https://dc.lft.to/lastmile_qr_scan"}, "bike_id": "165d4e1cd6b736bc60b4b783b25d0d0f", "lat": 38.91715383333333, "name": "165d4e1cd6b736bc60b4b783b25d0d0f", "lon": -77.0219, "fusion_lon": 0.0}, {"is_reserved": 0, "type": "electric_scooter", "fusion_lat": 0.0, "is_disabled": 0, "rental_uris": {"ios": "https://dc.lft.to/lastmile_qr_scan", "android": "https://dc.lft.to/lastmile_qr_scan"}, "bike_id": "e0ec909d4cc6500b722b5b921f6ace69", "lat": 38.855593666666664, "name": "e0ec909d4cc6500b722b5b921f6ace69", "lon": -76.99084883333333, "fusion_lon": 0.0}, {"is_reserved": 0, "type": "electric_scooter", "fusion_lat": 0.0, "is_disabled": 0, "rental_uris": {"ios": "https://dc.lft.to/lastmile_qr_scan", "android": "https://dc.lft.to/lastmile_qr_scan"}, "bike_id": "d1a5c2917ae3b80c492633d9414ae85d", "lat": 38.8937195, "name": "d1a5c2917ae3b80c492633d9414ae85d", "lon": -77.0207425, "fusion_lon": 0.0}, {"is_reserved": 0, "type": "electric_scooter", "fusion_lat": 0.0, "is_disabled": 0, "rental_uris": {"ios": "https://dc.lft.to/lastmile_qr_scan", "android": "https://dc.lft.to/lastmile_qr_scan"}, "bike_id": "b5e8d5f4d5f0a90b3fa70b7d692a5b16", "lat": 38.93191133333333, "name": "b5e8d5f4d5f0a90b3fa70b7d692a5b16", "lon": -77.028382, "fusion_lon": 0.0}, {"is_reserved": 0, "type": "electric_scooter", "fusion_lat": 0.0, "is_disabled": 0, "rental_uris": {"ios": "https://dc.lft.to/lastmile_qr_scan", "android": "https://dc.lft.to/lastmile_qr_scan"}, "bike_id": "e3d62949bda4f04590654079a3edeaf3", "lat": 38.8823735, "name": "e3d62949bda4f04590654079a3edeaf3", "lon": -76.93332583333333, "fusion_lon": 0.0}, {"is_reserved": 0, "type": "electric_scooter", "fusion_lat": 0.0, "is_disabled": 0, "rental_uris": {"ios": "https://dc.lft.to/lastmile_qr_scan", "android": "https://dc.lft.to/lastmile_qr_scan"}, "bike_id": "b2ca1d92b7f03902e25e985fe8859b32", "lat": 38.931178, "name": "b2ca1d92b7f03902e25e985fe8859b32", "lon": -77.0210355, "fusion_lon": 0.0}, {"is_reserved": 0, "type": "electric_scooter", "fusion_lat": 0.0, "is_disabled": 0, "rental_uris": {"ios": "https://dc.lft.to/lastmile_qr_scan", "android": "https://dc.lft.to/lastmile_qr_scan"}, "bike_id": "c0b74cc37fb372c4b8f51f1777265538", "lat": 38.9180815, "name": "c0b74cc37fb372c4b8f51f1777265538", "lon": -76.99964716666666, "fusion_lon": 0.0}, {"is_reserved": 0, "type": "electric_scooter", "fusion_lat": 0.0, "is_disabled": 0, "rental_uris": {"ios": "https://dc.lft.to/lastmile_qr_scan", "android": "https://dc.lft.to/lastmile_qr_scan"}, "bike_id": "6e39215db7eb059ec540f86e9af08fa0", "lat": 38.90333033333334, "name": "6e39215db7eb059ec540f86e9af08fa0", "lon": -77.02605483333333, "fusion_lon": 0.0}, {"is_reserved": 0, "type": "electric_scooter", "fusion_lat": 0.0, "is_disabled": 0, "rental_uris": {"ios": "https://dc.lft.to/lastmile_qr_scan", "android": "https://dc.lft.to/lastmile_qr_scan"}, "bike_id": "25e57ce78518ce7dc337ac4de51963f1", "lat": 38.921542333333335, "name": "25e57ce78518ce7dc337ac4de51963f1", "lon": -77.043498, "fusion_lon": 0.0}, {"is_reserved": 0, "type": "electric_scooter", "fusion_lat": 0.0, "is_disabled": 0, "rental_uris": {"ios": "https://dc.lft.to/lastmile_qr_scan", "android": "https://dc.lft.to/lastmile_qr_scan"}, "bike_id": "5d26b54bd424011e2cc4c8c88dfbb638", "lat": 38.92465816666667, "name": "5d26b54bd424011e2cc4c8c88dfbb638", "lon": -77.02257, "fusion_lon": 0.0}, {"is_reserved": 0, "type": "electric_scooter", "fusion_lat": 0.0, "is_disabled": 0, "rental_uris": {"ios": "https://dc.lft.to/lastmile_qr_scan", "android": "https://dc.lft.to/lastmile_qr_scan"}, "bike_id": "f8e7f46d2872f2f9ce60f04f99c5abb0", "lat": 38.924190833333334, "name": "f8e7f46d2872f2f9ce60f04f99c5abb0", "lon": -77.02009083333333, "fusion_lon": 0.0}, {"is_reserved": 0, "type": "electric_scooter", "fusion_lat": 0.0, "is_disabled": 0, "rental_uris": {"ios": "https://dc.lft.to/lastmile_qr_scan", "android": "https://dc.lft.to/lastmile_qr_scan"}, "bike_id": "7a657c7b7b11687ffb46ec8677bde7b6", "lat": 38.89995016666667, "name": "7a657c7b7b11687ffb46ec8677bde7b6", "lon": -77.00641316666666, "fusion_lon": 0.0}, {"is_reserved": 0, "type": "electric_scooter", "fusion_lat": 0.0, "is_disabled": 0, "rental_uris": {"ios": "https://dc.lft.to/lastmile_qr_scan", "android": "https://dc.lft.to/lastmile_qr_scan"}, "bike_id": "80a859422405267c796679fb591e6781", "lat": 38.92053716666667, "name": "80a859422405267c796679fb591e6781", "lon": -77.0419155, "fusion_lon": 0.0}, {"is_reserved": 0, "type": "electric_scooter", "fusion_lat": 0.0, "is_disabled": 0, "rental_uris": {"ios": "https://dc.lft.to/lastmile_qr_scan", "android": "https://dc.lft.to/lastmile_qr_scan"}, "bike_id": "61136f69fa6cae2ccf1919c87f7bade9", "lat": 38.941137499999996, "name": "61136f69fa6cae2ccf1919c87f7bade9", "lon": -77.02539633333333, "fusion_lon": 0.0}, {"is_reserved": 0, "type": "electric_scooter", "fusion_lat": 0.0, "is_disabled": 0, "rental_uris": {"ios": "https://dc.lft.to/lastmile_qr_scan", "android": "https://dc.lft.to/lastmile_qr_scan"}, "bike_id": "3b421fc1f86a5581c72e311b3d6bb4e9", "lat": 38.89252666666667, "name": "3b421fc1f86a5581c72e311b3d6bb4e9", "lon": -77.02596183333333, "fusion_lon": 0.0}, {"is_reserved": 0, "type": "electric_scooter", "fusion_lat": 0.0, "is_disabled": 0, "rental_uris": {"ios": "https://dc.lft.to/lastmile_qr_scan", "android": "https://dc.lft.to/lastmile_qr_scan"}, "bike_id": "2cf45674989f6958b54f6ab5b5f35530", "lat": 38.91350633333333, "name": "2cf45674989f6958b54f6ab5b5f35530", "lon": -76.97138933333333, "fusion_lon": 0.0}, {"is_reserved": 0, "type": "electric_scooter", "fusion_lat": 0.0, "is_disabled": 0, "rental_uris": {"ios": "https://dc.lft.to/lastmile_qr_scan", "android": "https://dc.lft.to/lastmile_qr_scan"}, "bike_id": "dabad97c3eb64c34a6b541860ba8f62b", "lat": 38.93402366666667, "name": "dabad97c3eb64c34a6b541860ba8f62b", "lon": -77.04546933333333, "fusion_lon": 0.0}, {"is_reserved": 0, "type": "electric_scooter", "fusion_lat": 0.0, "is_disabled": 0, "rental_uris": {"ios": "https://dc.lft.to/lastmile_qr_scan", "android": "https://dc.lft.to/lastmile_qr_scan"}, "bike_id": "53cda709c394e7e407aadeff32cf8e7c", "lat": 38.9025595, "name": "53cda709c394e7e407aadeff32cf8e7c", "lon": -77.03959466666667, "fusion_lon": 0.0}, {"is_reserved": 0, "type": "electric_bike", "fusion_lat": 0.0, "is_disabled": 0, "rental_uris": {"ios": "https://dc.lft.to/lastmile_qr_scan", "android": "https://dc.lft.to/lastmile_qr_scan"}, "bike_id": "81dada332d2f295dc19c02e6c8e23061", "lat": 38.9103075, "name": "81dada332d2f295dc19c02e6c8e23061", "lon": -76.92336583333334, "fusion_lon": 0.0}, {"is_reserved": 0, "type": "electric_scooter", "fusion_lat": 0.0, "is_disabled": 0, "rental_uris": {"ios": "https://dc.lft.to/lastmile_qr_scan", "android": "https://dc.lft.to/lastmile_qr_scan"}, "bike_id": "f93c82ee33208ceb3867075e23dfe245", "lat": 38.88450783333333, "name": "f93c82ee33208ceb3867075e23dfe245", "lon": -77.02903866666666, "fusion_lon": 0.0}, {"is_reserved": 0, "type": "electric_scooter", "fusion_lat": 0.0, "is_disabled": 0, "rental_uris": {"ios": "https://dc.lft.to/lastmile_qr_scan", "android": "https://dc.lft.to/lastmile_qr_scan"}, "bike_id": "c701c324b04a7a1725524b6c0b515a76", "lat": 38.91960183333333, "name": "c701c324b04a7a1725524b6c0b515a76", "lon": -77.02385516666666, "fusion_lon": 0.0}, {"is_reserved": 0, "type": "electric_scooter", "fusion_lat": 0.0, "is_disabled": 0, "rental_uris": {"ios": "https://dc.lft.to/lastmile_qr_scan", "android": "https://dc.lft.to/lastmile_qr_scan"}, "bike_id": "25ec1c38ef672a2e625773daf45fdddf", "lat": 38.93011766666667, "name": "25ec1c38ef672a2e625773daf45fdddf", "lon": -77.03770533333334, "fusion_lon": 0.0}, {"is_reserved": 0, "type": "electric_scooter", "fusion_lat": 0.0, "is_disabled": 0, "rental_uris": {"ios": "https://dc.lft.to/lastmile_qr_scan", "android": "https://dc.lft.to/lastmile_qr_scan"}, "bike_id": "5d7c83b4a494ab42162ea0ab85e7be9a", "lat": 38.9268735, "name": "5d7c83b4a494ab42162ea0ab85e7be9a", "lon": -77.02293966666667, "fusion_lon": 0.0}, {"is_reserved": 0, "type": "electric_scooter", "fusion_lat": 0.0, "is_disabled": 0, "rental_uris": {"ios": "https://dc.lft.to/lastmile_qr_scan", "android": "https://dc.lft.to/lastmile_qr_scan"}, "bike_id": "e682a6a979977db7618dce2b2026d725", "lat": 38.9115465, "name": "e682a6a979977db7618dce2b2026d725", "lon": -77.04480166666667, "fusion_lon": 0.0}, {"is_reserved": 0, "type": "electric_scooter", "fusion_lat": 0.0, "is_disabled": 0, "rental_uris": {"ios": "https://dc.lft.to/lastmile_qr_scan", "android": "https://dc.lft.to/lastmile_qr_scan"}, "bike_id": "fea6b43a4791ae39300f1a657cda561c", "lat": 38.899970333333336, "name": "fea6b43a4791ae39300f1a657cda561c", "lon": -77.02173366666666, "fusion_lon": 0.0}, {"is_reserved": 0, "type": "electric_scooter", "fusion_lat": 0.0, "is_disabled": 0, "rental_uris": {"ios": "https://dc.lft.to/lastmile_qr_scan", "android": "https://dc.lft.to/lastmile_qr_scan"}, "bike_id": "0d3c2b9c444f51591bce6ef9943c0c6a", "lat": 38.90849383333333, "name": "0d3c2b9c444f51591bce6ef9943c0c6a", "lon": -77.02463, "fusion_lon": 0.0}, {"is_reserved": 0, "type": "electric_scooter", "fusion_lat": 0.0, "is_disabled": 0, "rental_uris": {"ios": "https://dc.lft.to/lastmile_qr_scan", "android": "https://dc.lft.to/lastmile_qr_scan"}, "bike_id": "6c47323d03456ed30da9725f80525f6b", "lat": 38.917620666666664, "name": "6c47323d03456ed30da9725f80525f6b", "lon": -77.00456183333333, "fusion_lon": 0.0}, {"is_reserved": 0, "type": "electric_scooter", "fusion_lat": 0.0, "is_disabled": 0, "rental_uris": {"ios": "https://dc.lft.to/lastmile_qr_scan", "android": "https://dc.lft.to/lastmile_qr_scan"}, "bike_id": "fc869e456a280c35e18432bf1973c0b2", "lat": 38.924383166666665, "name": "fc869e456a280c35e18432bf1973c0b2", "lon": -77.0424105, "fusion_lon": 0.0}, {"is_reserved": 0, "type": "electric_scooter", "fusion_lat": 0.0, "is_disabled": 0, "rental_uris": {"ios": "https://dc.lft.to/lastmile_qr_scan", "android": "https://dc.lft.to/lastmile_qr_scan"}, "bike_id": "d0c57e6d83389206d325b8e3989163b3", "lat": 38.893267, "name": "d0c57e6d83389206d325b8e3989163b3", "lon": -76.93931416666666, "fusion_lon": 0.0}, {"is_reserved": 0, "type": "electric_scooter", "fusion_lat": 0.0, "is_disabled": 0, "rental_uris": {"ios": "https://dc.lft.to/lastmile_qr_scan", "android": "https://dc.lft.to/lastmile_qr_scan"}, "bike_id": "be1fc767687da1c9fc76ff462ac2ce82", "lat": 38.91406716666667, "name": "be1fc767687da1c9fc76ff462ac2ce82", "lon": -77.04569783333334, "fusion_lon": 0.0}, {"is_reserved": 0, "type": "electric_bike", "fusion_lat": 0.0, "is_disabled": 0, "rental_uris": {"ios": "https://dc.lft.to/lastmile_qr_scan", "android": "https://dc.lft.to/lastmile_qr_scan"}, "bike_id": "dedf73867c000cdd6c67f0852d05d2ec", "lat": 38.87578166666667, "name": "dedf73867c000cdd6c67f0852d05d2ec", "lon": -77.23410783333334, "fusion_lon": 0.0}, {"is_reserved": 0, "type": "electric_scooter", "fusion_lat": 0.0, "is_disabled": 0, "rental_uris": {"ios": "https://dc.lft.to/lastmile_qr_scan", "android": "https://dc.lft.to/lastmile_qr_scan"}, "bike_id": "972d5a6dedded42ac9552ac7fb0750b4", "lat": 38.8754575, "name": "972d5a6dedded42ac9552ac7fb0750b4", "lon": -77.0053795, "fusion_lon": 0.0}, {"is_reserved": 0, "type": "electric_bike", "fusion_lat": 0.0, "is_disabled": 0, "rental_uris": {"ios": "https://dc.lft.to/lastmile_qr_scan", "android": "https://dc.lft.to/lastmile_qr_scan"}, "bike_id": "12b4a0cda84fa496180ae5c06559a12e", "lat": 38.931818666666665, "name": "12b4a0cda84fa496180ae5c06559a12e", "lon": -77.02854716666667, "fusion_lon": 0.0}, {"is_reserved": 0, "type": "electric_scooter", "fusion_lat": 0.0, "is_disabled": 0, "rental_uris": {"ios": "https://dc.lft.to/lastmile_qr_scan", "android": "https://dc.lft.to/lastmile_qr_scan"}, "bike_id": "922168f14110e3627bda7486155ab9de", "lat": 38.89480983333333, "name": "922168f14110e3627bda7486155ab9de", "lon": -76.94869233333333, "fusion_lon": 0.0}, {"is_reserved": 0, "type": "electric_scooter", "fusion_lat": 0.0, "is_disabled": 0, "rental_uris": {"ios": "https://dc.lft.to/lastmile_qr_scan", "android": "https://dc.lft.to/lastmile_qr_scan"}, "bike_id": "5ff4904c531451b18977ed243ffd312c", "lat": 38.919508, "name": "5ff4904c531451b18977ed243ffd312c", "lon": -77.01385133333333, "fusion_lon": 0.0}, {"is_reserved": 0, "type": "electric_scooter", "fusion_lat": 0.0, "is_disabled": 0, "rental_uris": {"ios": "https://dc.lft.to/lastmile_qr_scan", "android": "https://dc.lft.to/lastmile_qr_scan"}, "bike_id": "31707db99d92844b3026715c8b4eea81", "lat": 38.88355333333333, "name": "31707db99d92844b3026715c8b4eea81", "lon": -76.95766133333333, "fusion_lon": 0.0}, {"is_reserved": 0, "type": "electric_scooter", "fusion_lat": 0.0, "is_disabled": 0, "rental_uris": {"ios": "https://dc.lft.to/lastmile_qr_scan", "android": "https://dc.lft.to/lastmile_qr_scan"}, "bike_id": "02f96a532fdcbd6e691c55bce8daaa29", "lat": 38.90739816666667, "name": "02f96a532fdcbd6e691c55bce8daaa29", "lon": -77.00761766666666, "fusion_lon": 0.0}, {"is_reserved": 0, "type": "electric_scooter", "fusion_lat": 0.0, "is_disabled": 0, "rental_uris": {"ios": "https://dc.lft.to/lastmile_qr_scan", "android": "https://dc.lft.to/lastmile_qr_scan"}, "bike_id": "e91c11457a5099f91b5334d42ee6a7d6", "lat": 38.93840433333333, "name": "e91c11457a5099f91b5334d42ee6a7d6", "lon": -77.01948533333334, "fusion_lon": 0.0}, {"is_reserved": 0, "type": "electric_scooter", "fusion_lat": 0.0, "is_disabled": 0, "rental_uris": {"ios": "https://dc.lft.to/lastmile_qr_scan", "android": "https://dc.lft.to/lastmile_qr_scan"}, "bike_id": "d448c5531220b92786874330fd479a8b", "lat": 38.89730383333333, "name": "d448c5531220b92786874330fd479a8b", "lon": -77.0191285, "fusion_lon": 0.0}, {"is_reserved": 0, "type": "electric_scooter", "fusion_lat": 0.0, "is_disabled": 0, "rental_uris": {"ios": "https://dc.lft.to/lastmile_qr_scan", "android": "https://dc.lft.to/lastmile_qr_scan"}, "bike_id": "c4c1d789b0030d589bdb260f3d75ccff", "lat": 38.903886166666666, "name": "c4c1d789b0030d589bdb260f3d75ccff", "lon": -77.03312316666667, "fusion_lon": 0.0}, {"is_reserved": 0, "type": "electric_bike", "fusion_lat": 0.0, "is_disabled": 0, "rental_uris": {"ios": "https://dc.lft.to/lastmile_qr_scan", "android": "https://dc.lft.to/lastmile_qr_scan"}, "bike_id": "8a3e4fc7f98fb5b2bb749f5d587509a2", "lat": 38.8601625, "name": "8a3e4fc7f98fb5b2bb749f5d587509a2", "lon": -77.06528766666666, "fusion_lon": 0.0}, {"is_reserved": 0, "type": "electric_scooter", "fusion_lat": 0.0, "is_disabled": 0, "rental_uris": {"ios": "https://dc.lft.to/lastmile_qr_scan", "android": "https://dc.lft.to/lastmile_qr_scan"}, "bike_id": "678ce223e2b7695249edd98cbed5a0b5", "lat": 38.9051215, "name": "678ce223e2b7695249edd98cbed5a0b5", "lon": -76.95190833333334, "fusion_lon": 0.0}, {"is_reserved": 0, "type": "electric_scooter", "fusion_lat": 0.0, "is_disabled": 0, "rental_uris": {"ios": "https://dc.lft.to/lastmile_qr_scan", "android": "https://dc.lft.to/lastmile_qr_scan"}, "bike_id": "9267de85484597aa49670facd12ec5d6", "lat": 38.899612833333336, "name": "9267de85484597aa49670facd12ec5d6", "lon": -77.01987433333333, "fusion_lon": 0.0}, {"is_reserved": 0, "type": "electric_scooter", "fusion_lat": 0.0, "is_disabled": 0, "rental_uris": {"ios": "https://dc.lft.to/lastmile_qr_scan", "android": "https://dc.lft.to/lastmile_qr_scan"}, "bike_id": "b331876f6642e567ddbe6f7eba705c55", "lat": 38.896699, "name": "b331876f6642e567ddbe6f7eba705c55", "lon": -76.93208916666667, "fusion_lon": 0.0}, {"is_reserved": 0, "type": "electric_scooter", "fusion_lat": 0.0, "is_disabled": 0, "rental_uris": {"ios": "https://dc.lft.to/lastmile_qr_scan", "android": "https://dc.lft.to/lastmile_qr_scan"}, "bike_id": "75146c091b5d175af272423e5c4d6675", "lat": 38.88017266666667, "name": "75146c091b5d175af272423e5c4d6675", "lon": -76.98555966666666, "fusion_lon": 0.0}, {"is_reserved": 0, "type": "electric_scooter", "fusion_lat": 0.0, "is_disabled": 0, "rental_uris": {"ios": "https://dc.lft.to/lastmile_qr_scan", "android": "https://dc.lft.to/lastmile_qr_scan"}, "bike_id": "32d53d9cee2a29aafd29cc68f8899abc", "lat": 38.9027085, "name": "32d53d9cee2a29aafd29cc68f8899abc", "lon": -77.02007, "fusion_lon": 0.0}, {"is_reserved": 0, "type": "electric_scooter", "fusion_lat": 0.0, "is_disabled": 0, "rental_uris": {"ios": "https://dc.lft.to/lastmile_qr_scan", "android": "https://dc.lft.to/lastmile_qr_scan"}, "bike_id": "e30883ad0ff836420d41a07502287a54", "lat": 38.8830625, "name": "e30883ad0ff836420d41a07502287a54", "lon": -76.99370716666667, "fusion_lon": 0.0}, {"is_reserved": 0, "type": "electric_scooter", "fusion_lat": 0.0, "is_disabled": 0, "rental_uris": {"ios": "https://dc.lft.to/lastmile_qr_scan", "android": "https://dc.lft.to/lastmile_qr_scan"}, "bike_id": "349b0b856038e1ec8f8e3094b6645508", "lat": 38.917063166666665, "name": "349b0b856038e1ec8f8e3094b6645508", "lon": -77.0323315, "fusion_lon": 0.0}, {"is_reserved": 0, "type": "electric_scooter", "fusion_lat": 0.0, "is_disabled": 0, "rental_uris": {"ios": "https://dc.lft.to/lastmile_qr_scan", "android": "https://dc.lft.to/lastmile_qr_scan"}, "bike_id": "ea86179a5c40edf4afaf664c7df67430", "lat": 38.88154333333333, "name": "ea86179a5c40edf4afaf664c7df67430", "lon": -77.02757216666667, "fusion_lon": 0.0}, {"is_reserved": 0, "type": "electric_scooter", "fusion_lat": 0.0, "is_disabled": 0, "rental_uris": {"ios": "https://dc.lft.to/lastmile_qr_scan", "android": "https://dc.lft.to/lastmile_qr_scan"}, "bike_id": "4d8c89dac00c506068738fa3f1391619", "lat": 38.89095316666667, "name": "4d8c89dac00c506068738fa3f1391619", "lon": -76.9882225, "fusion_lon": 0.0}, {"is_reserved": 0, "type": "electric_scooter", "fusion_lat": 0.0, "is_disabled": 0, "rental_uris": {"ios": "https://dc.lft.to/lastmile_qr_scan", "android": "https://dc.lft.to/lastmile_qr_scan"}, "bike_id": "008baa18381f85472f94bf4ec8d4be3b", "lat": 38.886312833333335, "name": "008baa18381f85472f94bf4ec8d4be3b", "lon": -76.98185633333334, "fusion_lon": 0.0}, {"is_reserved": 0, "type": "electric_scooter", "fusion_lat": 0.0, "is_disabled": 0, "rental_uris": {"ios": "https://dc.lft.to/lastmile_qr_scan", "android": "https://dc.lft.to/lastmile_qr_scan"}, "bike_id": "75e3cada6404753af11681f2183e43fc", "lat": 38.91260616666667, "name": "75e3cada6404753af11681f2183e43fc", "lon": -76.98355816666667, "fusion_lon": 0.0}, {"is_reserved": 0, "type": "electric_bike", "fusion_lat": 0.0, "is_disabled": 0, "rental_uris": {"ios": "https://dc.lft.to/lastmile_qr_scan", "android": "https://dc.lft.to/lastmile_qr_scan"}, "bike_id": "c90db3086133999c943e128e473b68eb", "lat": 38.84674016666666, "name": "c90db3086133999c943e128e473b68eb", "lon": -77.1393335, "fusion_lon": 0.0}, {"is_reserved": 0, "type": "electric_scooter", "fusion_lat": 0.0, "is_disabled": 0, "rental_uris": {"ios": "https://dc.lft.to/lastmile_qr_scan", "android": "https://dc.lft.to/lastmile_qr_scan"}, "bike_id": "b8ae54d0bb8fa4e06cb2bc30a164cc1f", "lat": 38.9286835, "name": "b8ae54d0bb8fa4e06cb2bc30a164cc1f", "lon": -77.03297066666667, "fusion_lon": 0.0}, {"is_reserved": 0, "type": "electric_scooter", "fusion_lat": 0.0, "is_disabled": 0, "rental_uris": {"ios": "https://dc.lft.to/lastmile_qr_scan", "android": "https://dc.lft.to/lastmile_qr_scan"}, "bike_id": "25b8aea58993f001f735889c80102791", "lat": 38.918115, "name": "25b8aea58993f001f735889c80102791", "lon": -77.03734383333334, "fusion_lon": 0.0}, {"is_reserved": 0, "type": "electric_scooter", "fusion_lat": 0.0, "is_disabled": 0, "rental_uris": {"ios": "https://dc.lft.to/lastmile_qr_scan", "android": "https://dc.lft.to/lastmile_qr_scan"}, "bike_id": "8875efbfffd1f1645c301dc6efacfecc", "lat": 38.91592583333333, "name": "8875efbfffd1f1645c301dc6efacfecc", "lon": -76.984138, "fusion_lon": 0.0}, {"is_reserved": 0, "type": "electric_scooter", "fusion_lat": 0.0, "is_disabled": 0, "rental_uris": {"ios": "https://dc.lft.to/lastmile_qr_scan", "android": "https://dc.lft.to/lastmile_qr_scan"}, "bike_id": "81fad5625e4cbf65621b53f427a3e241", "lat": 38.903064, "name": "81fad5625e4cbf65621b53f427a3e241", "lon": -77.03611116666667, "fusion_lon": 0.0}, {"is_reserved": 0, "type": "electric_scooter", "fusion_lat": 0.0, "is_disabled": 0, "rental_uris": {"ios": "https://dc.lft.to/lastmile_qr_scan", "android": "https://dc.lft.to/lastmile_qr_scan"}, "bike_id": "3083578222cf10a6b9b6b292e189f7a5", "lat": 38.916620333333334, "name": "3083578222cf10a6b9b6b292e189f7a5", "lon": -77.04201216666667, "fusion_lon": 0.0}, {"is_reserved": 0, "type": "electric_scooter", "fusion_lat": 0.0, "is_disabled": 0, "rental_uris": {"ios": "https://dc.lft.to/lastmile_qr_scan", "android": "https://dc.lft.to/lastmile_qr_scan"}, "bike_id": "fbdbd2913b48dcef4bcd6850368b8940", "lat": 38.919445833333334, "name": "fbdbd2913b48dcef4bcd6850368b8940", "lon": -77.01607116666666, "fusion_lon": 0.0}, {"is_reserved": 0, "type": "electric_scooter", "fusion_lat": 0.0, "is_disabled": 0, "rental_uris": {"ios": "https://dc.lft.to/lastmile_qr_scan", "android": "https://dc.lft.to/lastmile_qr_scan"}, "bike_id": "2634be06a8190a20966fba01cb2d7d20", "lat": 38.87632416666667, "name": "2634be06a8190a20966fba01cb2d7d20", "lon": -77.00955116666667, "fusion_lon": 0.0}, {"is_reserved": 0, "type": "electric_scooter", "fusion_lat": 0.0, "is_disabled": 0, "rental_uris": {"ios": "https://dc.lft.to/lastmile_qr_scan", "android": "https://dc.lft.to/lastmile_qr_scan"}, "bike_id": "4b9c173540b28a2b4ed9a55ffd002bdc", "lat": 38.903080333333335, "name": "4b9c173540b28a2b4ed9a55ffd002bdc", "lon": -77.0211415, "fusion_lon": 0.0}, {"is_reserved": 0, "type": "electric_scooter", "fusion_lat": 0.0, "is_disabled": 0, "rental_uris": {"ios": "https://dc.lft.to/lastmile_qr_scan", "android": "https://dc.lft.to/lastmile_qr_scan"}, "bike_id": "e321035dfe9d29f3e29f6141b50cc35e", "lat": 38.922163, "name": "e321035dfe9d29f3e29f6141b50cc35e", "lon": -77.0182395, "fusion_lon": 0.0}, {"is_reserved": 0, "type": "electric_scooter", "fusion_lat": 0.0, "is_disabled": 0, "rental_uris": {"ios": "https://dc.lft.to/lastmile_qr_scan", "android": "https://dc.lft.to/lastmile_qr_scan"}, "bike_id": "f6744c5f43407ee26cf9bbe6df6fe2c0", "lat": 38.89608833333333, "name": "f6744c5f43407ee26cf9bbe6df6fe2c0", "lon": -77.02865316666667, "fusion_lon": 0.0}, {"is_reserved": 0, "type": "electric_scooter", "fusion_lat": 0.0, "is_disabled": 0, "rental_uris": {"ios": "https://dc.lft.to/lastmile_qr_scan", "android": "https://dc.lft.to/lastmile_qr_scan"}, "bike_id": "d0ab3eafb2d34e920bb0743f5bc9f5d6", "lat": 38.90504333333333, "name": "d0ab3eafb2d34e920bb0743f5bc9f5d6", "lon": -77.02959633333333, "fusion_lon": 0.0}, {"is_reserved": 0, "type": "electric_scooter", "fusion_lat": 0.0, "is_disabled": 0, "rental_uris": {"ios": "https://dc.lft.to/lastmile_qr_scan", "android": "https://dc.lft.to/lastmile_qr_scan"}, "bike_id": "6c9c96885ae48053168b73144088d93a", "lat": 38.943169, "name": "6c9c96885ae48053168b73144088d93a", "lon": -77.017254, "fusion_lon": 0.0}, {"is_reserved": 0, "type": "electric_scooter", "fusion_lat": 0.0, "is_disabled": 0, "rental_uris": {"ios": "https://dc.lft.to/lastmile_qr_scan", "android": "https://dc.lft.to/lastmile_qr_scan"}, "bike_id": "32ece7461fb39d05a2094725bb508f0b", "lat": 38.92273866666667, "name": "32ece7461fb39d05a2094725bb508f0b", "lon": -77.02960683333333, "fusion_lon": 0.0}, {"is_reserved": 0, "type": "electric_scooter", "fusion_lat": 0.0, "is_disabled": 0, "rental_uris": {"ios": "https://dc.lft.to/lastmile_qr_scan", "android": "https://dc.lft.to/lastmile_qr_scan"}, "bike_id": "b9d884b19e5dbb7803d5124876bd47e0", "lat": 38.910113333333335, "name": "b9d884b19e5dbb7803d5124876bd47e0", "lon": -76.9938575, "fusion_lon": 0.0}, {"is_reserved": 0, "type": "electric_scooter", "fusion_lat": 0.0, "is_disabled": 0, "rental_uris": {"ios": "https://dc.lft.to/lastmile_qr_scan", "android": "https://dc.lft.to/lastmile_qr_scan"}, "bike_id": "1e193bdc0402def02d5c91a523357572", "lat": 38.90061733333334, "name": "1e193bdc0402def02d5c91a523357572", "lon": -77.0175995, "fusion_lon": 0.0}, {"is_reserved": 0, "type": "electric_scooter", "fusion_lat": 0.0, "is_disabled": 0, "rental_uris": {"ios": "https://dc.lft.to/lastmile_qr_scan", "android": "https://dc.lft.to/lastmile_qr_scan"}, "bike_id": "37988538ffbfb0abb5b6afa843929ddd", "lat": 38.914359833333336, "name": "37988538ffbfb0abb5b6afa843929ddd", "lon": -77.029705, "fusion_lon": 0.0}, {"is_reserved": 0, "type": "electric_scooter", "fusion_lat": 0.0, "is_disabled": 0, "rental_uris": {"ios": "https://dc.lft.to/lastmile_qr_scan", "android": "https://dc.lft.to/lastmile_qr_scan"}, "bike_id": "dcbe0b96fb295ffe26698a712f7348f8", "lat": 38.89756333333333, "name": "dcbe0b96fb295ffe26698a712f7348f8", "lon": -77.00949266666667, "fusion_lon": 0.0}, {"is_reserved": 0, "type": "electric_scooter", "fusion_lat": 0.0, "is_disabled": 0, "rental_uris": {"ios": "https://dc.lft.to/lastmile_qr_scan", "android": "https://dc.lft.to/lastmile_qr_scan"}, "bike_id": "dd123096b5325f2971a0146dfed50cf9", "lat": 38.90077616666667, "name": "dd123096b5325f2971a0146dfed50cf9", "lon": -77.02686483333333, "fusion_lon": 0.0}, {"is_reserved": 0, "type": "electric_scooter", "fusion_lat": 0.0, "is_disabled": 0, "rental_uris": {"ios": "https://dc.lft.to/lastmile_qr_scan", "android": "https://dc.lft.to/lastmile_qr_scan"}, "bike_id": "6439e00d45f46942f1f6008e234f38ba", "lat": 38.91685483333333, "name": "6439e00d45f46942f1f6008e234f38ba", "lon": -77.02692216666667, "fusion_lon": 0.0}, {"is_reserved": 0, "type": "electric_scooter", "fusion_lat": 0.0, "is_disabled": 0, "rental_uris": {"ios": "https://dc.lft.to/lastmile_qr_scan", "android": "https://dc.lft.to/lastmile_qr_scan"}, "bike_id": "b70c6731058800048f62d2fff2f7a8f7", "lat": 38.92484483333333, "name": "b70c6731058800048f62d2fff2f7a8f7", "lon": -77.02553133333333, "fusion_lon": 0.0}, {"is_reserved": 0, "type": "electric_bike", "fusion_lat": 0.0, "is_disabled": 0, "rental_uris": {"ios": "https://dc.lft.to/lastmile_qr_scan", "android": "https://dc.lft.to/lastmile_qr_scan"}, "bike_id": "e274e8b50312ffadc8740202cefe9570", "lat": 38.88277566666667, "name": "e274e8b50312ffadc8740202cefe9570", "lon": -76.93235733333333, "fusion_lon": 0.0}, {"is_reserved": 0, "type": "electric_scooter", "fusion_lat": 0.0, "is_disabled": 0, "rental_uris": {"ios": "https://dc.lft.to/lastmile_qr_scan", "android": "https://dc.lft.to/lastmile_qr_scan"}, "bike_id": "88d984909c2f45c893d947d9241e57ba", "lat": 38.93977616666667, "name": "88d984909c2f45c893d947d9241e57ba", "lon": -77.02873633333333, "fusion_lon": 0.0}, {"is_reserved": 0, "type": "electric_scooter", "fusion_lat": 0.0, "is_disabled": 0, "rental_uris": {"ios": "https://dc.lft.to/lastmile_qr_scan", "android": "https://dc.lft.to/lastmile_qr_scan"}, "bike_id": "7b4493baafafc8b56f71e4094e5661d9", "lat": 38.92823833333333, "name": "7b4493baafafc8b56f71e4094e5661d9", "lon": -77.021567, "fusion_lon": 0.0}, {"is_reserved": 0, "type": "electric_scooter", "fusion_lat": 0.0, "is_disabled": 0, "rental_uris": {"ios": "https://dc.lft.to/lastmile_qr_scan", "android": "https://dc.lft.to/lastmile_qr_scan"}, "bike_id": "eec11c0d92263eb74b3adf84bfeac7d7", "lat": 38.9117095, "name": "eec11c0d92263eb74b3adf84bfeac7d7", "lon": -77.029497, "fusion_lon": 0.0}, {"is_reserved": 0, "type": "electric_scooter", "fusion_lat": 0.0, "is_disabled": 0, "rental_uris": {"ios": "https://dc.lft.to/lastmile_qr_scan", "android": "https://dc.lft.to/lastmile_qr_scan"}, "bike_id": "408dde83d78cd383a286cdb5163c5896", "lat": 38.91970216666667, "name": "408dde83d78cd383a286cdb5163c5896", "lon": -77.07118633333333, "fusion_lon": 0.0}, {"is_reserved": 0, "type": "electric_scooter", "fusion_lat": 0.0, "is_disabled": 0, "rental_uris": {"ios": "https://dc.lft.to/lastmile_qr_scan", "android": "https://dc.lft.to/lastmile_qr_scan"}, "bike_id": "67d2326ed7870d5970136d0c86be2868", "lat": 38.91473633333333, "name": "67d2326ed7870d5970136d0c86be2868", "lon": -77.0320035, "fusion_lon": 0.0}, {"is_reserved": 0, "type": "electric_scooter", "fusion_lat": 0.0, "is_disabled": 0, "rental_uris": {"ios": "https://dc.lft.to/lastmile_qr_scan", "android": "https://dc.lft.to/lastmile_qr_scan"}, "bike_id": "aa2343e29a2cc8cf8afeea01bf5e1952", "lat": 38.90482266666667, "name": "aa2343e29a2cc8cf8afeea01bf5e1952", "lon": -77.06009016666667, "fusion_lon": 0.0}, {"is_reserved": 0, "type": "electric_scooter", "fusion_lat": 0.0, "is_disabled": 0, "rental_uris": {"ios": "https://dc.lft.to/lastmile_qr_scan", "android": "https://dc.lft.to/lastmile_qr_scan"}, "bike_id": "7e5a840d0aa88554005f3a3b29e1c231", "lat": 38.91605533333333, "name": "7e5a840d0aa88554005f3a3b29e1c231", "lon": -76.98386366666666, "fusion_lon": 0.0}, {"is_reserved": 0, "type": "electric_scooter", "fusion_lat": 0.0, "is_disabled": 0, "rental_uris": {"ios": "https://dc.lft.to/lastmile_qr_scan", "android": "https://dc.lft.to/lastmile_qr_scan"}, "bike_id": "9242c07d230212a5336e5a709ef196d2", "lat": 38.9247145, "name": "9242c07d230212a5336e5a709ef196d2", "lon": -77.03500183333334, "fusion_lon": 0.0}, {"is_reserved": 0, "type": "electric_scooter", "fusion_lat": 0.0, "is_disabled": 0, "rental_uris": {"ios": "https://dc.lft.to/lastmile_qr_scan", "android": "https://dc.lft.to/lastmile_qr_scan"}, "bike_id": "a46549a19368dcbf96b8eee0e8e54005", "lat": 38.900799666666664, "name": "a46549a19368dcbf96b8eee0e8e54005", "lon": -76.99839766666666, "fusion_lon": 0.0}, {"is_reserved": 0, "type": "electric_scooter", "fusion_lat": 0.0, "is_disabled": 0, "rental_uris": {"ios": "https://dc.lft.to/lastmile_qr_scan", "android": "https://dc.lft.to/lastmile_qr_scan"}, "bike_id": "7665bec360115c6984cbb7352074be3f", "lat": 38.894822833333336, "name": "7665bec360115c6984cbb7352074be3f", "lon": -77.027366, "fusion_lon": 0.0}, {"is_reserved": 0, "type": "electric_scooter", "fusion_lat": 0.0, "is_disabled": 0, "rental_uris": {"ios": "https://dc.lft.to/lastmile_qr_scan", "android": "https://dc.lft.to/lastmile_qr_scan"}, "bike_id": "d13e51c5e37ebb367831e4e5bbd10c48", "lat": 38.93060416666667, "name": "d13e51c5e37ebb367831e4e5bbd10c48", "lon": -77.038549, "fusion_lon": 0.0}, {"is_reserved": 0, "type": "electric_scooter", "fusion_lat": 0.0, "is_disabled": 0, "rental_uris": {"ios": "https://dc.lft.to/lastmile_qr_scan", "android": "https://dc.lft.to/lastmile_qr_scan"}, "bike_id": "b85be680f5bcb46098f53380c326dbea", "lat": 38.929990833333335, "name": "b85be680f5bcb46098f53380c326dbea", "lon": -77.02168933333333, "fusion_lon": 0.0}, {"is_reserved": 0, "type": "electric_scooter", "fusion_lat": 0.0, "is_disabled": 0, "rental_uris": {"ios": "https://dc.lft.to/lastmile_qr_scan", "android": "https://dc.lft.to/lastmile_qr_scan"}, "bike_id": "f89c2cac917c3ebaaab787ad529011bc", "lat": 38.910432666666665, "name": "f89c2cac917c3ebaaab787ad529011bc", "lon": -77.02810216666667, "fusion_lon": 0.0}, {"is_reserved": 0, "type": "electric_scooter", "fusion_lat": 0.0, "is_disabled": 0, "rental_uris": {"ios": "https://dc.lft.to/lastmile_qr_scan", "android": "https://dc.lft.to/lastmile_qr_scan"}, "bike_id": "4923db770ea25d0474c36bea60d1e257", "lat": 38.91765766666666, "name": "4923db770ea25d0474c36bea60d1e257", "lon": -77.03590733333333, "fusion_lon": 0.0}, {"is_reserved": 0, "type": "electric_scooter", "fusion_lat": 0.0, "is_disabled": 0, "rental_uris": {"ios": "https://dc.lft.to/lastmile_qr_scan", "android": "https://dc.lft.to/lastmile_qr_scan"}, "bike_id": "cde723ea7c9bf85fb18a840a8fb7e3f2", "lat": 38.91727516666667, "name": "cde723ea7c9bf85fb18a840a8fb7e3f2", "lon": -77.02601383333334, "fusion_lon": 0.0}, {"is_reserved": 0, "type": "electric_scooter", "fusion_lat": 0.0, "is_disabled": 0, "rental_uris": {"ios": "https://dc.lft.to/lastmile_qr_scan", "android": "https://dc.lft.to/lastmile_qr_scan"}, "bike_id": "66fa52e4991a4331d7568ff55ca96e33", "lat": 38.918042, "name": "66fa52e4991a4331d7568ff55ca96e33", "lon": -77.031859, "fusion_lon": 0.0}, {"is_reserved": 0, "type": "electric_scooter", "fusion_lat": 0.0, "is_disabled": 0, "rental_uris": {"ios": "https://dc.lft.to/lastmile_qr_scan", "android": "https://dc.lft.to/lastmile_qr_scan"}, "bike_id": "fa44d13f4ba4325fe16e9fab5e8b0603", "lat": 38.917053833333334, "name": "fa44d13f4ba4325fe16e9fab5e8b0603", "lon": -77.03227833333334, "fusion_lon": 0.0}, {"is_reserved": 0, "type": "electric_scooter", "fusion_lat": 0.0, "is_disabled": 0, "rental_uris": {"ios": "https://dc.lft.to/lastmile_qr_scan", "android": "https://dc.lft.to/lastmile_qr_scan"}, "bike_id": "7433c45366d028210d1b32ca665dabb2", "lat": 38.900150333333336, "name": "7433c45366d028210d1b32ca665dabb2", "lon": -77.02394866666667, "fusion_lon": 0.0}, {"is_reserved": 0, "type": "electric_bike", "fusion_lat": 0.0, "is_disabled": 0, "rental_uris": {"ios": "https://dc.lft.to/lastmile_qr_scan", "android": "https://dc.lft.to/lastmile_qr_scan"}, "bike_id": "ae50a03cffeb81f6a47a297d4fc9eb95", "lat": 38.97439033333333, "name": "ae50a03cffeb81f6a47a297d4fc9eb95", "lon": -77.0961545, "fusion_lon": 0.0}, {"is_reserved": 0, "type": "electric_scooter", "fusion_lat": 0.0, "is_disabled": 0, "rental_uris": {"ios": "https://dc.lft.to/lastmile_qr_scan", "android": "https://dc.lft.to/lastmile_qr_scan"}, "bike_id": "b0b19366a249c8f27346467515508990", "lat": 38.914711833333335, "name": "b0b19366a249c8f27346467515508990", "lon": -77.03843366666666, "fusion_lon": 0.0}, {"is_reserved": 0, "type": "electric_scooter", "fusion_lat": 0.0, "is_disabled": 0, "rental_uris": {"ios": "https://dc.lft.to/lastmile_qr_scan", "android": "https://dc.lft.to/lastmile_qr_scan"}, "bike_id": "449068370c3269eabf723adbba752fd4", "lat": 38.900516333333336, "name": "449068370c3269eabf723adbba752fd4", "lon": -77.04330183333333, "fusion_lon": 0.0}, {"is_reserved": 0, "type": "electric_scooter", "fusion_lat": 0.0, "is_disabled": 0, "rental_uris": {"ios": "https://dc.lft.to/lastmile_qr_scan", "android": "https://dc.lft.to/lastmile_qr_scan"}, "bike_id": "9717020adfaf84fce898676f13bedad4", "lat": 38.85552, "name": "9717020adfaf84fce898676f13bedad4", "lon": -76.986633, "fusion_lon": 0.0}, {"is_reserved": 0, "type": "electric_scooter", "fusion_lat": 0.0, "is_disabled": 0, "rental_uris": {"ios": "https://dc.lft.to/lastmile_qr_scan", "android": "https://dc.lft.to/lastmile_qr_scan"}, "bike_id": "f2bceb0b875ba74efa29dd35a189129a", "lat": 38.887214, "name": "f2bceb0b875ba74efa29dd35a189129a", "lon": -76.996112, "fusion_lon": 0.0}, {"is_reserved": 0, "type": "electric_scooter", "fusion_lat": 0.0, "is_disabled": 0, "rental_uris": {"ios": "https://dc.lft.to/lastmile_qr_scan", "android": "https://dc.lft.to/lastmile_qr_scan"}, "bike_id": "ba3423aeb2c6a7eabff7922995a803e7", "lat": 38.876282, "name": "ba3423aeb2c6a7eabff7922995a803e7", "lon": -77.0058165, "fusion_lon": 0.0}, {"is_reserved": 0, "type": "electric_scooter", "fusion_lat": 0.0, "is_disabled": 0, "rental_uris": {"ios": "https://dc.lft.to/lastmile_qr_scan", "android": "https://dc.lft.to/lastmile_qr_scan"}, "bike_id": "9b70a13bd885cee2a3d5c44d6c6ea69b", "lat": 38.918564333333336, "name": "9b70a13bd885cee2a3d5c44d6c6ea69b", "lon": -77.035204, "fusion_lon": 0.0}, {"is_reserved": 0, "type": "electric_scooter", "fusion_lat": 0.0, "is_disabled": 0, "rental_uris": {"ios": "https://dc.lft.to/lastmile_qr_scan", "android": "https://dc.lft.to/lastmile_qr_scan"}, "bike_id": "3494e9d175d359c5e7bbe98a629ee2fc", "lat": 38.93583666666667, "name": "3494e9d175d359c5e7bbe98a629ee2fc", "lon": -77.074271, "fusion_lon": 0.0}, {"is_reserved": 0, "type": "electric_scooter", "fusion_lat": 0.0, "is_disabled": 0, "rental_uris": {"ios": "https://dc.lft.to/lastmile_qr_scan", "android": "https://dc.lft.to/lastmile_qr_scan"}, "bike_id": "a26a8da6b8a6636b23c098a38b109cd2", "lat": 38.9025655, "name": "a26a8da6b8a6636b23c098a38b109cd2", "lon": -77.03963316666666, "fusion_lon": 0.0}, {"is_reserved": 0, "type": "electric_scooter", "fusion_lat": 0.0, "is_disabled": 0, "rental_uris": {"ios": "https://dc.lft.to/lastmile_qr_scan", "android": "https://dc.lft.to/lastmile_qr_scan"}, "bike_id": "e109cc6876bbad7a954ebe30bd11e33d", "lat": 38.928019666666664, "name": "e109cc6876bbad7a954ebe30bd11e33d", "lon": -77.036956, "fusion_lon": 0.0}, {"is_reserved": 0, "type": "electric_scooter", "fusion_lat": 0.0, "is_disabled": 0, "rental_uris": {"ios": "https://dc.lft.to/lastmile_qr_scan", "android": "https://dc.lft.to/lastmile_qr_scan"}, "bike_id": "f622e477789fa7296a4dfa7daafacc6a", "lat": 38.916989666666666, "name": "f622e477789fa7296a4dfa7daafacc6a", "lon": -77.0404545, "fusion_lon": 0.0}, {"is_reserved": 0, "type": "electric_scooter", "fusion_lat": 0.0, "is_disabled": 0, "rental_uris": {"ios": "https://dc.lft.to/lastmile_qr_scan", "android": "https://dc.lft.to/lastmile_qr_scan"}, "bike_id": "29548c3b8016bdd43070c396f0ea2646", "lat": 38.876543833333336, "name": "29548c3b8016bdd43070c396f0ea2646", "lon": -77.00744116666667, "fusion_lon": 0.0}, {"is_reserved": 0, "type": "electric_scooter", "fusion_lat": 0.0, "is_disabled": 0, "rental_uris": {"ios": "https://dc.lft.to/lastmile_qr_scan", "android": "https://dc.lft.to/lastmile_qr_scan"}, "bike_id": "dc48b7dffec72d58edbefb74c1ff673d", "lat": 38.9249955, "name": "dc48b7dffec72d58edbefb74c1ff673d", "lon": -77.0433515, "fusion_lon": 0.0}, {"is_reserved": 0, "type": "electric_scooter", "fusion_lat": 0.0, "is_disabled": 0, "rental_uris": {"ios": "https://dc.lft.to/lastmile_qr_scan", "android": "https://dc.lft.to/lastmile_qr_scan"}, "bike_id": "3f6b7f48595c9283ae93d5f0be302a31", "lat": 38.93111783333333, "name": "3f6b7f48595c9283ae93d5f0be302a31", "lon": -77.02795166666667, "fusion_lon": 0.0}, {"is_reserved": 0, "type": "electric_scooter", "fusion_lat": 0.0, "is_disabled": 0, "rental_uris": {"ios": "https://dc.lft.to/lastmile_qr_scan", "android": "https://dc.lft.to/lastmile_qr_scan"}, "bike_id": "23d4ac8d07c4947b9f1218bd77a99ad1", "lat": 38.928897, "name": "23d4ac8d07c4947b9f1218bd77a99ad1", "lon": -77.03730033333333, "fusion_lon": 0.0}, {"is_reserved": 0, "type": "electric_scooter", "fusion_lat": 0.0, "is_disabled": 0, "rental_uris": {"ios": "https://dc.lft.to/lastmile_qr_scan", "android": "https://dc.lft.to/lastmile_qr_scan"}, "bike_id": "12afa186acdbbb78254462ae838bc2b4", "lat": 38.91189766666667, "name": "12afa186acdbbb78254462ae838bc2b4", "lon": -77.01080866666666, "fusion_lon": 0.0}, {"is_reserved": 0, "type": "electric_scooter", "fusion_lat": 0.0, "is_disabled": 0, "rental_uris": {"ios": "https://dc.lft.to/lastmile_qr_scan", "android": "https://dc.lft.to/lastmile_qr_scan"}, "bike_id": "a76bcaa4804a7e680586dfe56e6601c0", "lat": 38.876895833333336, "name": "a76bcaa4804a7e680586dfe56e6601c0", "lon": -77.00723016666667, "fusion_lon": 0.0}, {"is_reserved": 0, "type": "electric_scooter", "fusion_lat": 0.0, "is_disabled": 0, "rental_uris": {"ios": "https://dc.lft.to/lastmile_qr_scan", "android": "https://dc.lft.to/lastmile_qr_scan"}, "bike_id": "b542c982024c7219b5c95701c38700d8", "lat": 38.892154, "name": "b542c982024c7219b5c95701c38700d8", "lon": -77.025466, "fusion_lon": 0.0}, {"is_reserved": 0, "type": "electric_scooter", "fusion_lat": 0.0, "is_disabled": 0, "rental_uris": {"ios": "https://dc.lft.to/lastmile_qr_scan", "android": "https://dc.lft.to/lastmile_qr_scan"}, "bike_id": "45a95f2724b11da2b9f9dbcee2228ab5", "lat": 38.923668166666666, "name": "45a95f2724b11da2b9f9dbcee2228ab5", "lon": -77.0195595, "fusion_lon": 0.0}, {"is_reserved": 0, "type": "electric_scooter", "fusion_lat": 0.0, "is_disabled": 0, "rental_uris": {"ios": "https://dc.lft.to/lastmile_qr_scan", "android": "https://dc.lft.to/lastmile_qr_scan"}, "bike_id": "fcb0dc386dde31c5e1ae3df7b926d659", "lat": 38.8870865, "name": "fcb0dc386dde31c5e1ae3df7b926d659", "lon": -76.98338483333333, "fusion_lon": 0.0}, {"is_reserved": 0, "type": "electric_scooter", "fusion_lat": 0.0, "is_disabled": 0, "rental_uris": {"ios": "https://dc.lft.to/lastmile_qr_scan", "android": "https://dc.lft.to/lastmile_qr_scan"}, "bike_id": "668dd1b4ff7ce0dc86f55f2996f69095", "lat": 38.909590666666666, "name": "668dd1b4ff7ce0dc86f55f2996f69095", "lon": -77.0126865, "fusion_lon": 0.0}, {"is_reserved": 0, "type": "electric_scooter", "fusion_lat": 0.0, "is_disabled": 0, "rental_uris": {"ios": "https://dc.lft.to/lastmile_qr_scan", "android": "https://dc.lft.to/lastmile_qr_scan"}, "bike_id": "3818bdd8a5c425878773d91c6f6261d2", "lat": 38.90779, "name": "3818bdd8a5c425878773d91c6f6261d2", "lon": -77.07252616666666, "fusion_lon": 0.0}, {"is_reserved": 0, "type": "electric_bike", "fusion_lat": 0.0, "is_disabled": 0, "rental_uris": {"ios": "https://dc.lft.to/lastmile_qr_scan", "android": "https://dc.lft.to/lastmile_qr_scan"}, "bike_id": "feacc81cde49bc05b4fd5b0070be5df5", "lat": 38.99858616666667, "name": "feacc81cde49bc05b4fd5b0070be5df5", "lon": -77.00393833333334, "fusion_lon": 0.0}, {"is_reserved": 0, "type": "electric_scooter", "fusion_lat": 0.0, "is_disabled": 0, "rental_uris": {"ios": "https://dc.lft.to/lastmile_qr_scan", "android": "https://dc.lft.to/lastmile_qr_scan"}, "bike_id": "1b4917258c962b2bfd6d32d527dc064f", "lat": 38.897856, "name": "1b4917258c962b2bfd6d32d527dc064f", "lon": -77.0502515, "fusion_lon": 0.0}, {"is_reserved": 0, "type": "electric_scooter", "fusion_lat": 0.0, "is_disabled": 0, "rental_uris": {"ios": "https://dc.lft.to/lastmile_qr_scan", "android": "https://dc.lft.to/lastmile_qr_scan"}, "bike_id": "93bd763b64c0b7bae333987b8d037d42", "lat": 38.92059366666667, "name": "93bd763b64c0b7bae333987b8d037d42", "lon": -77.02413066666666, "fusion_lon": 0.0}, {"is_reserved": 0, "type": "electric_scooter", "fusion_lat": 0.0, "is_disabled": 0, "rental_uris": {"ios": "https://dc.lft.to/lastmile_qr_scan", "android": "https://dc.lft.to/lastmile_qr_scan"}, "bike_id": "506d04f0f6585e5aa575214641e97a13", "lat": 38.93038, "name": "506d04f0f6585e5aa575214641e97a13", "lon": -77.02781933333333, "fusion_lon": 0.0}, {"is_reserved": 0, "type": "electric_scooter", "fusion_lat": 0.0, "is_disabled": 0, "rental_uris": {"ios": "https://dc.lft.to/lastmile_qr_scan", "android": "https://dc.lft.to/lastmile_qr_scan"}, "bike_id": "e4dbd81a7dd21df453c951ca62eda290", "lat": 38.920351, "name": "e4dbd81a7dd21df453c951ca62eda290", "lon": -77.04094133333334, "fusion_lon": 0.0}, {"is_reserved": 0, "type": "electric_scooter", "fusion_lat": 0.0, "is_disabled": 0, "rental_uris": {"ios": "https://dc.lft.to/lastmile_qr_scan", "android": "https://dc.lft.to/lastmile_qr_scan"}, "bike_id": "52eea2bc1ab38f970885e8d7389e341c", "lat": 38.9026785, "name": "52eea2bc1ab38f970885e8d7389e341c", "lon": -77.06164483333333, "fusion_lon": 0.0}, {"is_reserved": 0, "type": "electric_bike", "fusion_lat": 0.0, "is_disabled": 0, "rental_uris": {"ios": "https://dc.lft.to/lastmile_qr_scan", "android": "https://dc.lft.to/lastmile_qr_scan"}, "bike_id": "5670d4677ec0807d792c129c37bf8a67", "lat": 38.879586333333336, "name": "5670d4677ec0807d792c129c37bf8a67", "lon": -76.9318915, "fusion_lon": 0.0}, {"is_reserved": 0, "type": "electric_bike", "fusion_lat": 0.0, "is_disabled": 0, "rental_uris": {"ios": "https://dc.lft.to/lastmile_qr_scan", "android": "https://dc.lft.to/lastmile_qr_scan"}, "bike_id": "913b18c7a3187720f8ec1be23c59fff8", "lat": 38.88871433333333, "name": "913b18c7a3187720f8ec1be23c59fff8", "lon": -76.9570255, "fusion_lon": 0.0}, {"is_reserved": 0, "type": "electric_scooter", "fusion_lat": 0.0, "is_disabled": 0, "rental_uris": {"ios": "https://dc.lft.to/lastmile_qr_scan", "android": "https://dc.lft.to/lastmile_qr_scan"}, "bike_id": "675d8d009047f93e0d63cb4a5cf2521d", "lat": 38.907908666666664, "name": "675d8d009047f93e0d63cb4a5cf2521d", "lon": -77.04357283333333, "fusion_lon": 0.0}, {"is_reserved": 0, "type": "electric_scooter", "fusion_lat": 0.0, "is_disabled": 0, "rental_uris": {"ios": "https://dc.lft.to/lastmile_qr_scan", "android": "https://dc.lft.to/lastmile_qr_scan"}, "bike_id": "fbe1d95999643a8111462927c94cd0c9", "lat": 38.907813166666664, "name": "fbe1d95999643a8111462927c94cd0c9", "lon": -76.98328916666667, "fusion_lon": 0.0}, {"is_reserved": 0, "type": "electric_scooter", "fusion_lat": 0.0, "is_disabled": 0, "rental_uris": {"ios": "https://dc.lft.to/lastmile_qr_scan", "android": "https://dc.lft.to/lastmile_qr_scan"}, "bike_id": "3bdb47a0b5e03ddedfba8c87de1f5b36", "lat": 38.9151445, "name": "3bdb47a0b5e03ddedfba8c87de1f5b36", "lon": -77.072737, "fusion_lon": 0.0}, {"is_reserved": 0, "type": "electric_scooter", "fusion_lat": 0.0, "is_disabled": 0, "rental_uris": {"ios": "https://dc.lft.to/lastmile_qr_scan", "android": "https://dc.lft.to/lastmile_qr_scan"}, "bike_id": "a6b8a785739d71465d7c698db97a781b", "lat": 38.921051166666665, "name": "a6b8a785739d71465d7c698db97a781b", "lon": -77.03717233333333, "fusion_lon": 0.0}, {"is_reserved": 0, "type": "electric_scooter", "fusion_lat": 0.0, "is_disabled": 0, "rental_uris": {"ios": "https://dc.lft.to/lastmile_qr_scan", "android": "https://dc.lft.to/lastmile_qr_scan"}, "bike_id": "316dedf9a23e7376114a23862a1297ad", "lat": 38.923656666666666, "name": "316dedf9a23e7376114a23862a1297ad", "lon": -77.04310333333333, "fusion_lon": 0.0}, {"is_reserved": 0, "type": "electric_scooter", "fusion_lat": 0.0, "is_disabled": 0, "rental_uris": {"ios": "https://dc.lft.to/lastmile_qr_scan", "android": "https://dc.lft.to/lastmile_qr_scan"}, "bike_id": "93a43c649bca1fa5a0aec1e74fd139b1", "lat": 38.915571166666666, "name": "93a43c649bca1fa5a0aec1e74fd139b1", "lon": -77.032404, "fusion_lon": 0.0}, {"is_reserved": 0, "type": "electric_scooter", "fusion_lat": 0.0, "is_disabled": 0, "rental_uris": {"ios": "https://dc.lft.to/lastmile_qr_scan", "android": "https://dc.lft.to/lastmile_qr_scan"}, "bike_id": "7585777fb3088db8c934a589b4c3f344", "lat": 38.87841366666667, "name": "7585777fb3088db8c934a589b4c3f344", "lon": -76.93129216666667, "fusion_lon": 0.0}, {"is_reserved": 0, "type": "electric_scooter", "fusion_lat": 0.0, "is_disabled": 0, "rental_uris": {"ios": "https://dc.lft.to/lastmile_qr_scan", "android": "https://dc.lft.to/lastmile_qr_scan"}, "bike_id": "502a6c1874183a0f5b6a48c1751001ec", "lat": 38.9394795, "name": "502a6c1874183a0f5b6a48c1751001ec", "lon": -77.07237, "fusion_lon": 0.0}, {"is_reserved": 0, "type": "electric_scooter", "fusion_lat": 0.0, "is_disabled": 0, "rental_uris": {"ios": "https://dc.lft.to/lastmile_qr_scan", "android": "https://dc.lft.to/lastmile_qr_scan"}, "bike_id": "abb00d769e7916bfcdf2db29f117e77c", "lat": 38.931344, "name": "abb00d769e7916bfcdf2db29f117e77c", "lon": -77.0219685, "fusion_lon": 0.0}, {"is_reserved": 0, "type": "electric_scooter", "fusion_lat": 0.0, "is_disabled": 0, "rental_uris": {"ios": "https://dc.lft.to/lastmile_qr_scan", "android": "https://dc.lft.to/lastmile_qr_scan"}, "bike_id": "8b2052d9e5ad6c3b6068beab27baf21a", "lat": 38.9175075, "name": "8b2052d9e5ad6c3b6068beab27baf21a", "lon": -77.02490183333333, "fusion_lon": 0.0}, {"is_reserved": 0, "type": "electric_scooter", "fusion_lat": 0.0, "is_disabled": 0, "rental_uris": {"ios": "https://dc.lft.to/lastmile_qr_scan", "android": "https://dc.lft.to/lastmile_qr_scan"}, "bike_id": "30cec6f161db015f34f263d4831c7d5a", "lat": 38.9001325, "name": "30cec6f161db015f34f263d4831c7d5a", "lon": -76.98700216666667, "fusion_lon": 0.0}, {"is_reserved": 0, "type": "electric_scooter", "fusion_lat": 0.0, "is_disabled": 0, "rental_uris": {"ios": "https://dc.lft.to/lastmile_qr_scan", "android": "https://dc.lft.to/lastmile_qr_scan"}, "bike_id": "599a0e8643ade0e6a53d6e77c493264e", "lat": 38.87371316666667, "name": "599a0e8643ade0e6a53d6e77c493264e", "lon": -77.00187016666666, "fusion_lon": 0.0}, {"is_reserved": 0, "type": "electric_bike", "fusion_lat": 0.0, "is_disabled": 0, "rental_uris": {"ios": "https://dc.lft.to/lastmile_qr_scan", "android": "https://dc.lft.to/lastmile_qr_scan"}, "bike_id": "d30166db99afbfaf60ed105fcc49f0a8", "lat": 39.010670833333336, "name": "d30166db99afbfaf60ed105fcc49f0a8", "lon": -76.92243083333334, "fusion_lon": 0.0}, {"is_reserved": 0, "type": "electric_scooter", "fusion_lat": 0.0, "is_disabled": 0, "rental_uris": {"ios": "https://dc.lft.to/lastmile_qr_scan", "android": "https://dc.lft.to/lastmile_qr_scan"}, "bike_id": "a08e278c08bd4578bcdab6cbffd81d35", "lat": 38.919759166666665, "name": "a08e278c08bd4578bcdab6cbffd81d35", "lon": -77.04161216666667, "fusion_lon": 0.0}, {"is_reserved": 0, "type": "electric_scooter", "fusion_lat": 0.0, "is_disabled": 0, "rental_uris": {"ios": "https://dc.lft.to/lastmile_qr_scan", "android": "https://dc.lft.to/lastmile_qr_scan"}, "bike_id": "9363ca8245075b95cbcda99b554a2b45", "lat": 38.949213, "name": "9363ca8245075b95cbcda99b554a2b45", "lon": -77.01860266666667, "fusion_lon": 0.0}, {"is_reserved": 0, "type": "electric_scooter", "fusion_lat": 0.0, "is_disabled": 0, "rental_uris": {"ios": "https://dc.lft.to/lastmile_qr_scan", "android": "https://dc.lft.to/lastmile_qr_scan"}, "bike_id": "95030eec03e650942e333a698bb2d9c9", "lat": 38.909696333333336, "name": "95030eec03e650942e333a698bb2d9c9", "lon": -77.04511383333333, "fusion_lon": 0.0}, {"is_reserved": 0, "type": "electric_scooter", "fusion_lat": 0.0, "is_disabled": 0, "rental_uris": {"ios": "https://dc.lft.to/lastmile_qr_scan", "android": "https://dc.lft.to/lastmile_qr_scan"}, "bike_id": "06d3bfb7dc03d21ce3c22ed6c812aca1", "lat": 38.88611383333333, "name": "06d3bfb7dc03d21ce3c22ed6c812aca1", "lon": -77.0220555, "fusion_lon": 0.0}, {"is_reserved": 0, "type": "electric_scooter", "fusion_lat": 0.0, "is_disabled": 0, "rental_uris": {"ios": "https://dc.lft.to/lastmile_qr_scan", "android": "https://dc.lft.to/lastmile_qr_scan"}, "bike_id": "fbaacfe9e9db38e799d36a8e992cca1e", "lat": 38.90302916666667, "name": "fbaacfe9e9db38e799d36a8e992cca1e", "lon": -76.99840316666666, "fusion_lon": 0.0}, {"is_reserved": 0, "type": "electric_scooter", "fusion_lat": 0.0, "is_disabled": 0, "rental_uris": {"ios": "https://dc.lft.to/lastmile_qr_scan", "android": "https://dc.lft.to/lastmile_qr_scan"}, "bike_id": "c11d79034681acc4adf4b091f5b7f73d", "lat": 38.8966825, "name": "c11d79034681acc4adf4b091f5b7f73d", "lon": -76.94906383333333, "fusion_lon": 0.0}, {"is_reserved": 0, "type": "electric_scooter", "fusion_lat": 0.0, "is_disabled": 0, "rental_uris": {"ios": "https://dc.lft.to/lastmile_qr_scan", "android": "https://dc.lft.to/lastmile_qr_scan"}, "bike_id": "1f2e0d2881c67d7929890dbe0f79759d", "lat": 38.921633166666666, "name": "1f2e0d2881c67d7929890dbe0f79759d", "lon": -77.03844816666667, "fusion_lon": 0.0}, {"is_reserved": 0, "type": "electric_scooter", "fusion_lat": 0.0, "is_disabled": 0, "rental_uris": {"ios": "https://dc.lft.to/lastmile_qr_scan", "android": "https://dc.lft.to/lastmile_qr_scan"}, "bike_id": "718b5ceff5de4be8c5aa1bb1c56c267d", "lat": 38.9078365, "name": "718b5ceff5de4be8c5aa1bb1c56c267d", "lon": -77.03191616666666, "fusion_lon": 0.0}, {"is_reserved": 0, "type": "electric_scooter", "fusion_lat": 0.0, "is_disabled": 0, "rental_uris": {"ios": "https://dc.lft.to/lastmile_qr_scan", "android": "https://dc.lft.to/lastmile_qr_scan"}, "bike_id": "3882c3686ba3b1408f744d4e71dfa198", "lat": 38.917328166666664, "name": "3882c3686ba3b1408f744d4e71dfa198", "lon": -77.068959, "fusion_lon": 0.0}, {"is_reserved": 0, "type": "electric_scooter", "fusion_lat": 0.0, "is_disabled": 0, "rental_uris": {"ios": "https://dc.lft.to/lastmile_qr_scan", "android": "https://dc.lft.to/lastmile_qr_scan"}, "bike_id": "525312b46b571475f4d662d37de09cb8", "lat": 38.921429, "name": "525312b46b571475f4d662d37de09cb8", "lon": -77.04586766666667, "fusion_lon": 0.0}, {"is_reserved": 0, "type": "electric_scooter", "fusion_lat": 0.0, "is_disabled": 0, "rental_uris": {"ios": "https://dc.lft.to/lastmile_qr_scan", "android": "https://dc.lft.to/lastmile_qr_scan"}, "bike_id": "a65da405e996319d595ad93b688f3752", "lat": 38.915408166666666, "name": "a65da405e996319d595ad93b688f3752", "lon": -77.03205366666667, "fusion_lon": 0.0}, {"is_reserved": 0, "type": "electric_scooter", "fusion_lat": 0.0, "is_disabled": 0, "rental_uris": {"ios": "https://dc.lft.to/lastmile_qr_scan", "android": "https://dc.lft.to/lastmile_qr_scan"}, "bike_id": "27ced041cb248b4ee4e341948ca238fc", "lat": 38.8974435, "name": "27ced041cb248b4ee4e341948ca238fc", "lon": -77.000798, "fusion_lon": 0.0}, {"is_reserved": 0, "type": "electric_scooter", "fusion_lat": 0.0, "is_disabled": 0, "rental_uris": {"ios": "https://dc.lft.to/lastmile_qr_scan", "android": "https://dc.lft.to/lastmile_qr_scan"}, "bike_id": "c9c30a820b8889331fbc8e954f9a866e", "lat": 38.91193583333333, "name": "c9c30a820b8889331fbc8e954f9a866e", "lon": -77.00207283333333, "fusion_lon": 0.0}, {"is_reserved": 0, "type": "electric_scooter", "fusion_lat": 0.0, "is_disabled": 0, "rental_uris": {"ios": "https://dc.lft.to/lastmile_qr_scan", "android": "https://dc.lft.to/lastmile_qr_scan"}, "bike_id": "f23157ff6d7c680ba9f6303aaf27259d", "lat": 38.917008, "name": "f23157ff6d7c680ba9f6303aaf27259d", "lon": -77.02900366666667, "fusion_lon": 0.0}, {"is_reserved": 0, "type": "electric_scooter", "fusion_lat": 0.0, "is_disabled": 0, "rental_uris": {"ios": "https://dc.lft.to/lastmile_qr_scan", "android": "https://dc.lft.to/lastmile_qr_scan"}, "bike_id": "b5ed06e6b05da3fd1930fea1b978ee02", "lat": 38.9168425, "name": "b5ed06e6b05da3fd1930fea1b978ee02", "lon": -77.0289245, "fusion_lon": 0.0}, {"is_reserved": 0, "type": "electric_scooter", "fusion_lat": 0.0, "is_disabled": 0, "rental_uris": {"ios": "https://dc.lft.to/lastmile_qr_scan", "android": "https://dc.lft.to/lastmile_qr_scan"}, "bike_id": "30d5c221589b1d5a3a3ca295303f0c46", "lat": 38.9327635, "name": "30d5c221589b1d5a3a3ca295303f0c46", "lon": -77.0265675, "fusion_lon": 0.0}, {"is_reserved": 0, "type": "electric_scooter", "fusion_lat": 0.0, "is_disabled": 0, "rental_uris": {"ios": "https://dc.lft.to/lastmile_qr_scan", "android": "https://dc.lft.to/lastmile_qr_scan"}, "bike_id": "63436f1687b7e33ca1cfa8700c858479", "lat": 38.916743, "name": "63436f1687b7e33ca1cfa8700c858479", "lon": -77.03460833333334, "fusion_lon": 0.0}, {"is_reserved": 0, "type": "electric_scooter", "fusion_lat": 0.0, "is_disabled": 0, "rental_uris": {"ios": "https://dc.lft.to/lastmile_qr_scan", "android": "https://dc.lft.to/lastmile_qr_scan"}, "bike_id": "5ba2a21dcfb69883b4a63ef53bfafebe", "lat": 38.919849, "name": "5ba2a21dcfb69883b4a63ef53bfafebe", "lon": -77.0236225, "fusion_lon": 0.0}, {"is_reserved": 0, "type": "electric_scooter", "fusion_lat": 0.0, "is_disabled": 0, "rental_uris": {"ios": "https://dc.lft.to/lastmile_qr_scan", "android": "https://dc.lft.to/lastmile_qr_scan"}, "bike_id": "fe7f5c99ce467b795bd346d571a3b92e", "lat": 38.89942383333333, "name": "fe7f5c99ce467b795bd346d571a3b92e", "lon": -77.0145195, "fusion_lon": 0.0}, {"is_reserved": 0, "type": "electric_scooter", "fusion_lat": 0.0, "is_disabled": 0, "rental_uris": {"ios": "https://dc.lft.to/lastmile_qr_scan", "android": "https://dc.lft.to/lastmile_qr_scan"}, "bike_id": "43f1deaf967cf470355119b451ddf697", "lat": 38.9136335, "name": "43f1deaf967cf470355119b451ddf697", "lon": -77.02052866666666, "fusion_lon": 0.0}, {"is_reserved": 0, "type": "electric_scooter", "fusion_lat": 0.0, "is_disabled": 0, "rental_uris": {"ios": "https://dc.lft.to/lastmile_qr_scan", "android": "https://dc.lft.to/lastmile_qr_scan"}, "bike_id": "7fac27d07f393f5c265a3a8ff00b4da0", "lat": 38.917389166666666, "name": "7fac27d07f393f5c265a3a8ff00b4da0", "lon": -77.02114916666666, "fusion_lon": 0.0}, {"is_reserved": 0, "type": "electric_scooter", "fusion_lat": 0.0, "is_disabled": 0, "rental_uris": {"ios": "https://dc.lft.to/lastmile_qr_scan", "android": "https://dc.lft.to/lastmile_qr_scan"}, "bike_id": "fd237cb361c1d46828d9c621eae90118", "lat": 38.894145, "name": "fd237cb361c1d46828d9c621eae90118", "lon": -77.010872, "fusion_lon": 0.0}, {"is_reserved": 0, "type": "electric_scooter", "fusion_lat": 0.0, "is_disabled": 0, "rental_uris": {"ios": "https://dc.lft.to/lastmile_qr_scan", "android": "https://dc.lft.to/lastmile_qr_scan"}, "bike_id": "0c64a893aafd7faae289b009d36b66d6", "lat": 38.92485966666667, "name": "0c64a893aafd7faae289b009d36b66d6", "lon": -77.0251795, "fusion_lon": 0.0}, {"is_reserved": 0, "type": "electric_scooter", "fusion_lat": 0.0, "is_disabled": 0, "rental_uris": {"ios": "https://dc.lft.to/lastmile_qr_scan", "android": "https://dc.lft.to/lastmile_qr_scan"}, "bike_id": "1e29b78ed600e0c41a7bf6df60ebf078", "lat": 38.91478166666667, "name": "1e29b78ed600e0c41a7bf6df60ebf078", "lon": -77.02171033333333, "fusion_lon": 0.0}, {"is_reserved": 0, "type": "electric_scooter", "fusion_lat": 0.0, "is_disabled": 0, "rental_uris": {"ios": "https://dc.lft.to/lastmile_qr_scan", "android": "https://dc.lft.to/lastmile_qr_scan"}, "bike_id": "1828659fb76235323901045d6383ca76", "lat": 38.923747, "name": "1828659fb76235323901045d6383ca76", "lon": -77.03131533333334, "fusion_lon": 0.0}, {"is_reserved": 0, "type": "electric_scooter", "fusion_lat": 0.0, "is_disabled": 0, "rental_uris": {"ios": "https://dc.lft.to/lastmile_qr_scan", "android": "https://dc.lft.to/lastmile_qr_scan"}, "bike_id": "1effb47a063b3fde4777916834868ae3", "lat": 38.922363, "name": "1effb47a063b3fde4777916834868ae3", "lon": -76.98842116666667, "fusion_lon": 0.0}, {"is_reserved": 0, "type": "electric_bike", "fusion_lat": 0.0, "is_disabled": 0, "rental_uris": {"ios": "https://dc.lft.to/lastmile_qr_scan", "android": "https://dc.lft.to/lastmile_qr_scan"}, "bike_id": "25c3c2c56e7b13cb3a0a6085afe58a25", "lat": 38.92608383333334, "name": "25c3c2c56e7b13cb3a0a6085afe58a25", "lon": -77.024312, "fusion_lon": 0.0}, {"is_reserved": 0, "type": "electric_scooter", "fusion_lat": 0.0, "is_disabled": 0, "rental_uris": {"ios": "https://dc.lft.to/lastmile_qr_scan", "android": "https://dc.lft.to/lastmile_qr_scan"}, "bike_id": "38a3a7bccf9a07ad6d33687c05967a69", "lat": 38.93333833333333, "name": "38a3a7bccf9a07ad6d33687c05967a69", "lon": -77.02916133333333, "fusion_lon": 0.0}, {"is_reserved": 0, "type": "electric_scooter", "fusion_lat": 0.0, "is_disabled": 0, "rental_uris": {"ios": "https://dc.lft.to/lastmile_qr_scan", "android": "https://dc.lft.to/lastmile_qr_scan"}, "bike_id": "1628d41ae0c508cab612cec7eebfb083", "lat": 38.88385433333333, "name": "1628d41ae0c508cab612cec7eebfb083", "lon": -77.046033, "fusion_lon": 0.0}, {"is_reserved": 0, "type": "electric_scooter", "fusion_lat": 0.0, "is_disabled": 0, "rental_uris": {"ios": "https://dc.lft.to/lastmile_qr_scan", "android": "https://dc.lft.to/lastmile_qr_scan"}, "bike_id": "2d8b28e73fe9fd1075b298fe65b0f34d", "lat": 38.922343833333336, "name": "2d8b28e73fe9fd1075b298fe65b0f34d", "lon": -77.02820116666666, "fusion_lon": 0.0}, {"is_reserved": 0, "type": "electric_bike", "fusion_lat": 0.0, "is_disabled": 0, "rental_uris": {"ios": "https://dc.lft.to/lastmile_qr_scan", "android": "https://dc.lft.to/lastmile_qr_scan"}, "bike_id": "4b8764dd69d794e49110da27a1169125", "lat": 38.9255575, "name": "4b8764dd69d794e49110da27a1169125", "lon": -77.0013435, "fusion_lon": 0.0}, {"is_reserved": 0, "type": "electric_scooter", "fusion_lat": 0.0, "is_disabled": 0, "rental_uris": {"ios": "https://dc.lft.to/lastmile_qr_scan", "android": "https://dc.lft.to/lastmile_qr_scan"}, "bike_id": "fade9ddb3d51e6906f50585874b379fb", "lat": 38.9417085, "name": "fade9ddb3d51e6906f50585874b379fb", "lon": -77.02529266666667, "fusion_lon": 0.0}, {"is_reserved": 0, "type": "electric_scooter", "fusion_lat": 0.0, "is_disabled": 0, "rental_uris": {"ios": "https://dc.lft.to/lastmile_qr_scan", "android": "https://dc.lft.to/lastmile_qr_scan"}, "bike_id": "84d6221061ac7041c4f1ea2e791dfbca", "lat": 38.90994583333333, "name": "84d6221061ac7041c4f1ea2e791dfbca", "lon": -77.02690316666667, "fusion_lon": 0.0}, {"is_reserved": 0, "type": "electric_scooter", "fusion_lat": 0.0, "is_disabled": 0, "rental_uris": {"ios": "https://dc.lft.to/lastmile_qr_scan", "android": "https://dc.lft.to/lastmile_qr_scan"}, "bike_id": "317bb2ea0cb5aa891f73914ac13e3fd8", "lat": 38.887664, "name": "317bb2ea0cb5aa891f73914ac13e3fd8", "lon": -77.00045233333333, "fusion_lon": 0.0}, {"is_reserved": 0, "type": "electric_bike", "fusion_lat": 0.0, "is_disabled": 0, "rental_uris": {"ios": "https://dc.lft.to/lastmile_qr_scan", "android": "https://dc.lft.to/lastmile_qr_scan"}, "bike_id": "5d58500e99032bbef139263766086937", "lat": 38.96732766666667, "name": "5d58500e99032bbef139263766086937", "lon": -77.0890935, "fusion_lon": 0.0}, {"is_reserved": 0, "type": "electric_scooter", "fusion_lat": 0.0, "is_disabled": 0, "rental_uris": {"ios": "https://dc.lft.to/lastmile_qr_scan", "android": "https://dc.lft.to/lastmile_qr_scan"}, "bike_id": "69a5121ce37705eb32d590d4c1c037ca", "lat": 38.91818283333333, "name": "69a5121ce37705eb32d590d4c1c037ca", "lon": -77.02783683333334, "fusion_lon": 0.0}, {"is_reserved": 0, "type": "electric_bike", "fusion_lat": 0.0, "is_disabled": 0, "rental_uris": {"ios": "https://dc.lft.to/lastmile_qr_scan", "android": "https://dc.lft.to/lastmile_qr_scan"}, "bike_id": "c54e6a32a98e4badc8a23301edc95246", "lat": 38.91452866666667, "name": "c54e6a32a98e4badc8a23301edc95246", "lon": -76.97283, "fusion_lon": 0.0}, {"is_reserved": 0, "type": "electric_bike", "fusion_lat": 0.0, "is_disabled": 0, "rental_uris": {"ios": "https://dc.lft.to/lastmile_qr_scan", "android": "https://dc.lft.to/lastmile_qr_scan"}, "bike_id": "daf704281a64b64267886b627fcf69ff", "lat": 38.85192466666667, "name": "daf704281a64b64267886b627fcf69ff", "lon": -76.98101033333333, "fusion_lon": 0.0}, {"is_reserved": 0, "type": "electric_scooter", "fusion_lat": 0.0, "is_disabled": 0, "rental_uris": {"ios": "https://dc.lft.to/lastmile_qr_scan", "android": "https://dc.lft.to/lastmile_qr_scan"}, "bike_id": "274f0f240c1e6d2c592e4f6724a6b23b", "lat": 38.91026866666667, "name": "274f0f240c1e6d2c592e4f6724a6b23b", "lon": -77.038457, "fusion_lon": 0.0}, {"is_reserved": 0, "type": "electric_scooter", "fusion_lat": 0.0, "is_disabled": 0, "rental_uris": {"ios": "https://dc.lft.to/lastmile_qr_scan", "android": "https://dc.lft.to/lastmile_qr_scan"}, "bike_id": "0199179013db32851a856b243cfc74c5", "lat": 38.887710166666665, "name": "0199179013db32851a856b243cfc74c5", "lon": -76.97732533333334, "fusion_lon": 0.0}, {"is_reserved": 0, "type": "electric_bike", "fusion_lat": 0.0, "is_disabled": 0, "rental_uris": {"ios": "https://dc.lft.to/lastmile_qr_scan", "android": "https://dc.lft.to/lastmile_qr_scan"}, "bike_id": "06c205d984aec3e486206a46aa27e1bd", "lat": 38.83586066666667, "name": "06c205d984aec3e486206a46aa27e1bd", "lon": -76.99019816666667, "fusion_lon": 0.0}, {"is_reserved": 0, "type": "electric_scooter", "fusion_lat": 0.0, "is_disabled": 0, "rental_uris": {"ios": "https://dc.lft.to/lastmile_qr_scan", "android": "https://dc.lft.to/lastmile_qr_scan"}, "bike_id": "ef3d5e672292a5051169226f16f3c8fc", "lat": 38.909462833333336, "name": "ef3d5e672292a5051169226f16f3c8fc", "lon": -77.04652283333333, "fusion_lon": 0.0}, {"is_reserved": 0, "type": "electric_scooter", "fusion_lat": 0.0, "is_disabled": 0, "rental_uris": {"ios": "https://dc.lft.to/lastmile_qr_scan", "android": "https://dc.lft.to/lastmile_qr_scan"}, "bike_id": "61f9a63762fbf448abb3d6da99415595", "lat": 38.924624333333334, "name": "61f9a63762fbf448abb3d6da99415595", "lon": -77.02236283333333, "fusion_lon": 0.0}, {"is_reserved": 0, "type": "electric_scooter", "fusion_lat": 0.0, "is_disabled": 0, "rental_uris": {"ios": "https://dc.lft.to/lastmile_qr_scan", "android": "https://dc.lft.to/lastmile_qr_scan"}, "bike_id": "c30e7af9b5cd92bbb4594e196c09f777", "lat": 38.917103833333336, "name": "c30e7af9b5cd92bbb4594e196c09f777", "lon": -77.03866166666667, "fusion_lon": 0.0}, {"is_reserved": 0, "type": "electric_scooter", "fusion_lat": 0.0, "is_disabled": 0, "rental_uris": {"ios": "https://dc.lft.to/lastmile_qr_scan", "android": "https://dc.lft.to/lastmile_qr_scan"}, "bike_id": "8d049ab2cc0bf775ac07499c6ada3d92", "lat": 38.8997895, "name": "8d049ab2cc0bf775ac07499c6ada3d92", "lon": -77.04186416666667, "fusion_lon": 0.0}, {"is_reserved": 0, "type": "electric_scooter", "fusion_lat": 0.0, "is_disabled": 0, "rental_uris": {"ios": "https://dc.lft.to/lastmile_qr_scan", "android": "https://dc.lft.to/lastmile_qr_scan"}, "bike_id": "06e7e9fb7822f503bcfa23c243bc7778", "lat": 38.919833, "name": "06e7e9fb7822f503bcfa23c243bc7778", "lon": -77.04166433333333, "fusion_lon": 0.0}, {"is_reserved": 0, "type": "electric_scooter", "fusion_lat": 0.0, "is_disabled": 0, "rental_uris": {"ios": "https://dc.lft.to/lastmile_qr_scan", "android": "https://dc.lft.to/lastmile_qr_scan"}, "bike_id": "5f9fdd4c36e4f343b954ca8f33d468d2", "lat": 38.9244775, "name": "5f9fdd4c36e4f343b954ca8f33d468d2", "lon": -77.03406683333333, "fusion_lon": 0.0}, {"is_reserved": 0, "type": "electric_scooter", "fusion_lat": 0.0, "is_disabled": 0, "rental_uris": {"ios": "https://dc.lft.to/lastmile_qr_scan", "android": "https://dc.lft.to/lastmile_qr_scan"}, "bike_id": "2eda3ccb14451bf2228280ef624eff0e", "lat": 38.9189215, "name": "2eda3ccb14451bf2228280ef624eff0e", "lon": -76.96897233333334, "fusion_lon": 0.0}, {"is_reserved": 0, "type": "electric_scooter", "fusion_lat": 0.0, "is_disabled": 0, "rental_uris": {"ios": "https://dc.lft.to/lastmile_qr_scan", "android": "https://dc.lft.to/lastmile_qr_scan"}, "bike_id": "0a95a5bf4c40676269992a61636023ee", "lat": 38.919608833333335, "name": "0a95a5bf4c40676269992a61636023ee", "lon": -77.032004, "fusion_lon": 0.0}, {"is_reserved": 0, "type": "electric_scooter", "fusion_lat": 0.0, "is_disabled": 0, "rental_uris": {"ios": "https://dc.lft.to/lastmile_qr_scan", "android": "https://dc.lft.to/lastmile_qr_scan"}, "bike_id": "d23fdc9e8c0d0f4142b5b7ae0b858816", "lat": 38.902579, "name": "d23fdc9e8c0d0f4142b5b7ae0b858816", "lon": -77.03966066666666, "fusion_lon": 0.0}, {"is_reserved": 0, "type": "electric_scooter", "fusion_lat": 0.0, "is_disabled": 0, "rental_uris": {"ios": "https://dc.lft.to/lastmile_qr_scan", "android": "https://dc.lft.to/lastmile_qr_scan"}, "bike_id": "926ff370f67d50b4cc54dbb68bea6a52", "lat": 38.91815066666667, "name": "926ff370f67d50b4cc54dbb68bea6a52", "lon": -77.04546016666667, "fusion_lon": 0.0}, {"is_reserved": 0, "type": "electric_scooter", "fusion_lat": 0.0, "is_disabled": 0, "rental_uris": {"ios": "https://dc.lft.to/lastmile_qr_scan", "android": "https://dc.lft.to/lastmile_qr_scan"}, "bike_id": "283d9a1213da06165fc56a64428e4aee", "lat": 38.8922895, "name": "283d9a1213da06165fc56a64428e4aee", "lon": -77.0238545, "fusion_lon": 0.0}, {"is_reserved": 0, "type": "electric_scooter", "fusion_lat": 0.0, "is_disabled": 0, "rental_uris": {"ios": "https://dc.lft.to/lastmile_qr_scan", "android": "https://dc.lft.to/lastmile_qr_scan"}, "bike_id": "110ee65c0878d7d6ce78b66fb9ab39e5", "lat": 38.9153295, "name": "110ee65c0878d7d6ce78b66fb9ab39e5", "lon": -77.0443305, "fusion_lon": 0.0}, {"is_reserved": 0, "type": "electric_scooter", "fusion_lat": 0.0, "is_disabled": 0, "rental_uris": {"ios": "https://dc.lft.to/lastmile_qr_scan", "android": "https://dc.lft.to/lastmile_qr_scan"}, "bike_id": "256077b7076bec82b03a0780a5634645", "lat": 38.88548983333333, "name": "256077b7076bec82b03a0780a5634645", "lon": -76.9545085, "fusion_lon": 0.0}, {"is_reserved": 0, "type": "electric_scooter", "fusion_lat": 0.0, "is_disabled": 0, "rental_uris": {"ios": "https://dc.lft.to/lastmile_qr_scan", "android": "https://dc.lft.to/lastmile_qr_scan"}, "bike_id": "287ba95a2ba8405c5e2558f85746769f", "lat": 38.922929833333335, "name": "287ba95a2ba8405c5e2558f85746769f", "lon": -76.997731, "fusion_lon": 0.0}, {"is_reserved": 0, "type": "electric_scooter", "fusion_lat": 0.0, "is_disabled": 0, "rental_uris": {"ios": "https://dc.lft.to/lastmile_qr_scan", "android": "https://dc.lft.to/lastmile_qr_scan"}, "bike_id": "4b6676dd847ab50c7674d180eac518f1", "lat": 38.955609, "name": "4b6676dd847ab50c7674d180eac518f1", "lon": -77.0143045, "fusion_lon": 0.0}, {"is_reserved": 0, "type": "electric_scooter", "fusion_lat": 0.0, "is_disabled": 0, "rental_uris": {"ios": "https://dc.lft.to/lastmile_qr_scan", "android": "https://dc.lft.to/lastmile_qr_scan"}, "bike_id": "dc630aacc95665b9af1efb17663284c9", "lat": 38.9181785, "name": "dc630aacc95665b9af1efb17663284c9", "lon": -77.03526316666667, "fusion_lon": 0.0}, {"is_reserved": 0, "type": "electric_scooter", "fusion_lat": 0.0, "is_disabled": 0, "rental_uris": {"ios": "https://dc.lft.to/lastmile_qr_scan", "android": "https://dc.lft.to/lastmile_qr_scan"}, "bike_id": "e23f201d69071b027b36169e27cb5463", "lat": 38.94863266666667, "name": "e23f201d69071b027b36169e27cb5463", "lon": -77.07880233333333, "fusion_lon": 0.0}, {"is_reserved": 0, "type": "electric_scooter", "fusion_lat": 0.0, "is_disabled": 0, "rental_uris": {"ios": "https://dc.lft.to/lastmile_qr_scan", "android": "https://dc.lft.to/lastmile_qr_scan"}, "bike_id": "ec730de8264412e2b39bd53a75db0a5d", "lat": 38.934418666666666, "name": "ec730de8264412e2b39bd53a75db0a5d", "lon": -77.03279966666666, "fusion_lon": 0.0}, {"is_reserved": 0, "type": "electric_scooter", "fusion_lat": 0.0, "is_disabled": 0, "rental_uris": {"ios": "https://dc.lft.to/lastmile_qr_scan", "android": "https://dc.lft.to/lastmile_qr_scan"}, "bike_id": "a3424d8118576aadfb472597df4d8978", "lat": 38.89741033333333, "name": "a3424d8118576aadfb472597df4d8978", "lon": -77.049989, "fusion_lon": 0.0}, {"is_reserved": 0, "type": "electric_scooter", "fusion_lat": 0.0, "is_disabled": 0, "rental_uris": {"ios": "https://dc.lft.to/lastmile_qr_scan", "android": "https://dc.lft.to/lastmile_qr_scan"}, "bike_id": "6f0ea676efcc7ffbc0654acbc964dde1", "lat": 38.897243333333336, "name": "6f0ea676efcc7ffbc0654acbc964dde1", "lon": -77.03071883333334, "fusion_lon": 0.0}, {"is_reserved": 0, "type": "electric_scooter", "fusion_lat": 0.0, "is_disabled": 0, "rental_uris": {"ios": "https://dc.lft.to/lastmile_qr_scan", "android": "https://dc.lft.to/lastmile_qr_scan"}, "bike_id": "0e080cb28f518aa6f682b2429d2a5860", "lat": 38.898816833333335, "name": "0e080cb28f518aa6f682b2429d2a5860", "lon": -76.93173633333333, "fusion_lon": 0.0}, {"is_reserved": 0, "type": "electric_scooter", "fusion_lat": 0.0, "is_disabled": 0, "rental_uris": {"ios": "https://dc.lft.to/lastmile_qr_scan", "android": "https://dc.lft.to/lastmile_qr_scan"}, "bike_id": "ebcb4e18e505ddfccb4f7ebdbbf512cd", "lat": 38.8977985, "name": "ebcb4e18e505ddfccb4f7ebdbbf512cd", "lon": -77.05015333333333, "fusion_lon": 0.0}, {"is_reserved": 0, "type": "electric_scooter", "fusion_lat": 0.0, "is_disabled": 0, "rental_uris": {"ios": "https://dc.lft.to/lastmile_qr_scan", "android": "https://dc.lft.to/lastmile_qr_scan"}, "bike_id": "3afad0381f1a855353e6391aa766659c", "lat": 38.90067466666667, "name": "3afad0381f1a855353e6391aa766659c", "lon": -77.0295955, "fusion_lon": 0.0}, {"is_reserved": 0, "type": "electric_bike", "fusion_lat": 0.0, "is_disabled": 0, "rental_uris": {"ios": "https://dc.lft.to/lastmile_qr_scan", "android": "https://dc.lft.to/lastmile_qr_scan"}, "bike_id": "d18910fb82ea09cf9255593e5d382d91", "lat": 38.96898983333333, "name": "d18910fb82ea09cf9255593e5d382d91", "lon": -76.95565833333333, "fusion_lon": 0.0}, {"is_reserved": 0, "type": "electric_scooter", "fusion_lat": 0.0, "is_disabled": 0, "rental_uris": {"ios": "https://dc.lft.to/lastmile_qr_scan", "android": "https://dc.lft.to/lastmile_qr_scan"}, "bike_id": "aa9e23a2e2993be98c22ee40561bf9da", "lat": 38.97237766666667, "name": "aa9e23a2e2993be98c22ee40561bf9da", "lon": -77.02714383333333, "fusion_lon": 0.0}, {"is_reserved": 0, "type": "electric_scooter", "fusion_lat": 0.0, "is_disabled": 0, "rental_uris": {"ios": "https://dc.lft.to/lastmile_qr_scan", "android": "https://dc.lft.to/lastmile_qr_scan"}, "bike_id": "5ab4ed664f3e32155d5da5fc8938ed79", "lat": 38.898496333333334, "name": "5ab4ed664f3e32155d5da5fc8938ed79", "lon": -77.02857083333333, "fusion_lon": 0.0}, {"is_reserved": 0, "type": "electric_scooter", "fusion_lat": 0.0, "is_disabled": 0, "rental_uris": {"ios": "https://dc.lft.to/lastmile_qr_scan", "android": "https://dc.lft.to/lastmile_qr_scan"}, "bike_id": "b8aaed60d306af3319090012b8b04112", "lat": 38.93269033333333, "name": "b8aaed60d306af3319090012b8b04112", "lon": -77.030837, "fusion_lon": 0.0}, {"is_reserved": 0, "type": "electric_scooter", "fusion_lat": 0.0, "is_disabled": 0, "rental_uris": {"ios": "https://dc.lft.to/lastmile_qr_scan", "android": "https://dc.lft.to/lastmile_qr_scan"}, "bike_id": "3656743c6ef09138c02c325e798eb752", "lat": 38.89946833333333, "name": "3656743c6ef09138c02c325e798eb752", "lon": -77.047183, "fusion_lon": 0.0}, {"is_reserved": 0, "type": "electric_scooter", "fusion_lat": 0.0, "is_disabled": 0, "rental_uris": {"ios": "https://dc.lft.to/lastmile_qr_scan", "android": "https://dc.lft.to/lastmile_qr_scan"}, "bike_id": "b9a6598ea4af83e8458385643a61d639", "lat": 38.90727366666667, "name": "b9a6598ea4af83e8458385643a61d639", "lon": -77.02497916666667, "fusion_lon": 0.0}, {"is_reserved": 0, "type": "electric_scooter", "fusion_lat": 0.0, "is_disabled": 0, "rental_uris": {"ios": "https://dc.lft.to/lastmile_qr_scan", "android": "https://dc.lft.to/lastmile_qr_scan"}, "bike_id": "f8a307bc79cbedcdce74c82c5f7c6c3b", "lat": 38.908544, "name": "f8a307bc79cbedcdce74c82c5f7c6c3b", "lon": -76.9997265, "fusion_lon": 0.0}, {"is_reserved": 0, "type": "electric_scooter", "fusion_lat": 0.0, "is_disabled": 0, "rental_uris": {"ios": "https://dc.lft.to/lastmile_qr_scan", "android": "https://dc.lft.to/lastmile_qr_scan"}, "bike_id": "7abd97cae49831f5e60b9ff70b3fbbb8", "lat": 38.9171135, "name": "7abd97cae49831f5e60b9ff70b3fbbb8", "lon": -77.04034833333333, "fusion_lon": 0.0}, {"is_reserved": 0, "type": "electric_scooter", "fusion_lat": 0.0, "is_disabled": 0, "rental_uris": {"ios": "https://dc.lft.to/lastmile_qr_scan", "android": "https://dc.lft.to/lastmile_qr_scan"}, "bike_id": "8a4b4305a08eff74374995c721dca029", "lat": 38.899697, "name": "8a4b4305a08eff74374995c721dca029", "lon": -76.93767733333334, "fusion_lon": 0.0}, {"is_reserved": 0, "type": "electric_scooter", "fusion_lat": 0.0, "is_disabled": 0, "rental_uris": {"ios": "https://dc.lft.to/lastmile_qr_scan", "android": "https://dc.lft.to/lastmile_qr_scan"}, "bike_id": "81f08e3829513e5b9c19cc51b8f25edd", "lat": 38.9027675, "name": "81f08e3829513e5b9c19cc51b8f25edd", "lon": -76.98999816666667, "fusion_lon": 0.0}, {"is_reserved": 0, "type": "electric_scooter", "fusion_lat": 0.0, "is_disabled": 0, "rental_uris": {"ios": "https://dc.lft.to/lastmile_qr_scan", "android": "https://dc.lft.to/lastmile_qr_scan"}, "bike_id": "53b73b85d2628a0d6b21abf91ae1ffbd", "lat": 38.905743666666666, "name": "53b73b85d2628a0d6b21abf91ae1ffbd", "lon": -77.0453205, "fusion_lon": 0.0}, {"is_reserved": 0, "type": "electric_scooter", "fusion_lat": 0.0, "is_disabled": 0, "rental_uris": {"ios": "https://dc.lft.to/lastmile_qr_scan", "android": "https://dc.lft.to/lastmile_qr_scan"}, "bike_id": "45058588dab1a26ed354ad17318065ba", "lat": 38.916046, "name": "45058588dab1a26ed354ad17318065ba", "lon": -77.01729016666667, "fusion_lon": 0.0}, {"is_reserved": 0, "type": "electric_scooter", "fusion_lat": 0.0, "is_disabled": 0, "rental_uris": {"ios": "https://dc.lft.to/lastmile_qr_scan", "android": "https://dc.lft.to/lastmile_qr_scan"}, "bike_id": "f034418659d0270cddd85cb3e95685e7", "lat": 38.926056333333335, "name": "f034418659d0270cddd85cb3e95685e7", "lon": -77.02577083333334, "fusion_lon": 0.0}, {"is_reserved": 0, "type": "electric_scooter", "fusion_lat": 0.0, "is_disabled": 0, "rental_uris": {"ios": "https://dc.lft.to/lastmile_qr_scan", "android": "https://dc.lft.to/lastmile_qr_scan"}, "bike_id": "2bc944b303ba312f8941b4e02546feb4", "lat": 38.89989833333333, "name": "2bc944b303ba312f8941b4e02546feb4", "lon": -77.020625, "fusion_lon": 0.0}, {"is_reserved": 0, "type": "electric_bike", "fusion_lat": 0.0, "is_disabled": 0, "rental_uris": {"ios": "https://dc.lft.to/lastmile_qr_scan", "android": "https://dc.lft.to/lastmile_qr_scan"}, "bike_id": "df4a61272046324eeb4838f2eb3818f4", "lat": 38.846318833333335, "name": "df4a61272046324eeb4838f2eb3818f4", "lon": -77.069349, "fusion_lon": 0.0}, {"is_reserved": 0, "type": "electric_scooter", "fusion_lat": 0.0, "is_disabled": 0, "rental_uris": {"ios": "https://dc.lft.to/lastmile_qr_scan", "android": "https://dc.lft.to/lastmile_qr_scan"}, "bike_id": "5f169f1d024d475a24cb66d2933a027c", "lat": 38.886425333333335, "name": "5f169f1d024d475a24cb66d2933a027c", "lon": -77.01224466666666, "fusion_lon": 0.0}, {"is_reserved": 0, "type": "electric_scooter", "fusion_lat": 0.0, "is_disabled": 0, "rental_uris": {"ios": "https://dc.lft.to/lastmile_qr_scan", "android": "https://dc.lft.to/lastmile_qr_scan"}, "bike_id": "44d26f30aaae811213161c35a9749159", "lat": 38.917012666666665, "name": "44d26f30aaae811213161c35a9749159", "lon": -77.02408983333333, "fusion_lon": 0.0}, {"is_reserved": 0, "type": "electric_bike", "fusion_lat": 0.0, "is_disabled": 0, "rental_uris": {"ios": "https://dc.lft.to/lastmile_qr_scan", "android": "https://dc.lft.to/lastmile_qr_scan"}, "bike_id": "aa4381874cfaf2b4a4b0f68072200f16", "lat": 38.830228, "name": "aa4381874cfaf2b4a4b0f68072200f16", "lon": -77.0082175, "fusion_lon": 0.0}, {"is_reserved": 0, "type": "electric_scooter", "fusion_lat": 0.0, "is_disabled": 0, "rental_uris": {"ios": "https://dc.lft.to/lastmile_qr_scan", "android": "https://dc.lft.to/lastmile_qr_scan"}, "bike_id": "473321bd86159d46808f6b81eecb6e93", "lat": 38.9034145, "name": "473321bd86159d46808f6b81eecb6e93", "lon": -77.01106783333333, "fusion_lon": 0.0}, {"is_reserved": 0, "type": "electric_scooter", "fusion_lat": 0.0, "is_disabled": 0, "rental_uris": {"ios": "https://dc.lft.to/lastmile_qr_scan", "android": "https://dc.lft.to/lastmile_qr_scan"}, "bike_id": "83e292360b6c8b0365c9dd153c717c2e", "lat": 38.91312166666667, "name": "83e292360b6c8b0365c9dd153c717c2e", "lon": -77.02852483333334, "fusion_lon": 0.0}, {"is_reserved": 0, "type": "electric_scooter", "fusion_lat": 0.0, "is_disabled": 0, "rental_uris": {"ios": "https://dc.lft.to/lastmile_qr_scan", "android": "https://dc.lft.to/lastmile_qr_scan"}, "bike_id": "779fdf8ddfa04cd1e3c08402c7008f98", "lat": 38.906574666666664, "name": "779fdf8ddfa04cd1e3c08402c7008f98", "lon": -77.00888416666666, "fusion_lon": 0.0}, {"is_reserved": 0, "type": "electric_scooter", "fusion_lat": 0.0, "is_disabled": 0, "rental_uris": {"ios": "https://dc.lft.to/lastmile_qr_scan", "android": "https://dc.lft.to/lastmile_qr_scan"}, "bike_id": "1d7466ff35677df1398670b96b77d73a", "lat": 38.92713033333333, "name": "1d7466ff35677df1398670b96b77d73a", "lon": -77.05994416666667, "fusion_lon": 0.0}, {"is_reserved": 0, "type": "electric_scooter", "fusion_lat": 0.0, "is_disabled": 0, "rental_uris": {"ios": "https://dc.lft.to/lastmile_qr_scan", "android": "https://dc.lft.to/lastmile_qr_scan"}, "bike_id": "896f550bdefa3b4d1ec1ebfdee328ea7", "lat": 38.8903935, "name": "896f550bdefa3b4d1ec1ebfdee328ea7", "lon": -76.98839, "fusion_lon": 0.0}, {"is_reserved": 0, "type": "electric_bike", "fusion_lat": 0.0, "is_disabled": 0, "rental_uris": {"ios": "https://dc.lft.to/lastmile_qr_scan", "android": "https://dc.lft.to/lastmile_qr_scan"}, "bike_id": "c590e242994a8f9760637de4b85dccc4", "lat": 38.8577665, "name": "c590e242994a8f9760637de4b85dccc4", "lon": -76.98743133333333, "fusion_lon": 0.0}, {"is_reserved": 0, "type": "electric_bike", "fusion_lat": 0.0, "is_disabled": 0, "rental_uris": {"ios": "https://dc.lft.to/lastmile_qr_scan", "android": "https://dc.lft.to/lastmile_qr_scan"}, "bike_id": "ed5de45203385e205fe97f73cd694a32", "lat": 38.956374833333335, "name": "ed5de45203385e205fe97f73cd694a32", "lon": -76.93874483333333, "fusion_lon": 0.0}, {"is_reserved": 0, "type": "electric_bike", "fusion_lat": 0.0, "is_disabled": 0, "rental_uris": {"ios": "https://dc.lft.to/lastmile_qr_scan", "android": "https://dc.lft.to/lastmile_qr_scan"}, "bike_id": "f4b94c594503094ead2f41c3234760d0", "lat": 39.0261965, "name": "f4b94c594503094ead2f41c3234760d0", "lon": -77.03880683333334, "fusion_lon": 0.0}, {"is_reserved": 0, "type": "electric_bike", "fusion_lat": 0.0, "is_disabled": 0, "rental_uris": {"ios": "https://dc.lft.to/lastmile_qr_scan", "android": "https://dc.lft.to/lastmile_qr_scan"}, "bike_id": "d27111b366bed560b4356eb4ac486426", "lat": 38.8292855, "name": "d27111b366bed560b4356eb4ac486426", "lon": -77.06874733333333, "fusion_lon": 0.0}, {"is_reserved": 0, "type": "electric_scooter", "fusion_lat": 0.0, "is_disabled": 0, "rental_uris": {"ios": "https://dc.lft.to/lastmile_qr_scan", "android": "https://dc.lft.to/lastmile_qr_scan"}, "bike_id": "38615add0036ee0b58fd5a54201f0ce7", "lat": 38.90972883333333, "name": "38615add0036ee0b58fd5a54201f0ce7", "lon": -77.04845033333334, "fusion_lon": 0.0}, {"is_reserved": 0, "type": "electric_scooter", "fusion_lat": 0.0, "is_disabled": 0, "rental_uris": {"ios": "https://dc.lft.to/lastmile_qr_scan", "android": "https://dc.lft.to/lastmile_qr_scan"}, "bike_id": "da85f4654f969669617b19d63adcc244", "lat": 38.9222065, "name": "da85f4654f969669617b19d63adcc244", "lon": -77.043022, "fusion_lon": 0.0}, {"is_reserved": 0, "type": "electric_scooter", "fusion_lat": 0.0, "is_disabled": 0, "rental_uris": {"ios": "https://dc.lft.to/lastmile_qr_scan", "android": "https://dc.lft.to/lastmile_qr_scan"}, "bike_id": "716afd17bbc6423010d58b9d42fe369e", "lat": 38.913356666666665, "name": "716afd17bbc6423010d58b9d42fe369e", "lon": -77.03179433333334, "fusion_lon": 0.0}, {"is_reserved": 0, "type": "electric_scooter", "fusion_lat": 0.0, "is_disabled": 0, "rental_uris": {"ios": "https://dc.lft.to/lastmile_qr_scan", "android": "https://dc.lft.to/lastmile_qr_scan"}, "bike_id": "aed3bda3c72467ea6a8919c182380713", "lat": 38.8990785, "name": "aed3bda3c72467ea6a8919c182380713", "lon": -76.93385333333333, "fusion_lon": 0.0}, {"is_reserved": 0, "type": "electric_scooter", "fusion_lat": 0.0, "is_disabled": 0, "rental_uris": {"ios": "https://dc.lft.to/lastmile_qr_scan", "android": "https://dc.lft.to/lastmile_qr_scan"}, "bike_id": "98ab71e0acd7488382b88819694bb6f7", "lat": 38.911166333333334, "name": "98ab71e0acd7488382b88819694bb6f7", "lon": -77.03865016666667, "fusion_lon": 0.0}, {"is_reserved": 0, "type": "electric_scooter", "fusion_lat": 0.0, "is_disabled": 0, "rental_uris": {"ios": "https://dc.lft.to/lastmile_qr_scan", "android": "https://dc.lft.to/lastmile_qr_scan"}, "bike_id": "1309d107115b5f70fa94d836baf6b226", "lat": 38.890144, "name": "1309d107115b5f70fa94d836baf6b226", "lon": -76.93730333333333, "fusion_lon": 0.0}, {"is_reserved": 0, "type": "electric_scooter", "fusion_lat": 0.0, "is_disabled": 0, "rental_uris": {"ios": "https://dc.lft.to/lastmile_qr_scan", "android": "https://dc.lft.to/lastmile_qr_scan"}, "bike_id": "9716ce259d4a60e9606397225a395902", "lat": 38.929689833333335, "name": "9716ce259d4a60e9606397225a395902", "lon": -77.0233955, "fusion_lon": 0.0}, {"is_reserved": 0, "type": "electric_scooter", "fusion_lat": 0.0, "is_disabled": 0, "rental_uris": {"ios": "https://dc.lft.to/lastmile_qr_scan", "android": "https://dc.lft.to/lastmile_qr_scan"}, "bike_id": "db7d0353aa4a50a75529c7866ec377e9", "lat": 38.94170416666667, "name": "db7d0353aa4a50a75529c7866ec377e9", "lon": -77.02531466666667, "fusion_lon": 0.0}, {"is_reserved": 0, "type": "electric_scooter", "fusion_lat": 0.0, "is_disabled": 0, "rental_uris": {"ios": "https://dc.lft.to/lastmile_qr_scan", "android": "https://dc.lft.to/lastmile_qr_scan"}, "bike_id": "ede491224a5206114b7d40b0aa5092e4", "lat": 38.917827333333335, "name": "ede491224a5206114b7d40b0aa5092e4", "lon": -77.03191983333333, "fusion_lon": 0.0}, {"is_reserved": 0, "type": "electric_scooter", "fusion_lat": 0.0, "is_disabled": 0, "rental_uris": {"ios": "https://dc.lft.to/lastmile_qr_scan", "android": "https://dc.lft.to/lastmile_qr_scan"}, "bike_id": "c80fe68daaab3de8396b9e65a6d4a7d4", "lat": 38.92478116666667, "name": "c80fe68daaab3de8396b9e65a6d4a7d4", "lon": -77.0222895, "fusion_lon": 0.0}, {"is_reserved": 0, "type": "electric_scooter", "fusion_lat": 0.0, "is_disabled": 0, "rental_uris": {"ios": "https://dc.lft.to/lastmile_qr_scan", "android": "https://dc.lft.to/lastmile_qr_scan"}, "bike_id": "b60cfbf591664cd023f2fc9b8582f755", "lat": 38.90253583333333, "name": "b60cfbf591664cd023f2fc9b8582f755", "lon": -77.027781, "fusion_lon": 0.0}, {"is_reserved": 0, "type": "electric_bike", "fusion_lat": 0.0, "is_disabled": 0, "rental_uris": {"ios": "https://dc.lft.to/lastmile_qr_scan", "android": "https://dc.lft.to/lastmile_qr_scan"}, "bike_id": "91d7cdb60810ea6b5d958adfa3b2e82c", "lat": 38.92437366666667, "name": "91d7cdb60810ea6b5d958adfa3b2e82c", "lon": -77.0249675, "fusion_lon": 0.0}, {"is_reserved": 0, "type": "electric_scooter", "fusion_lat": 0.0, "is_disabled": 0, "rental_uris": {"ios": "https://dc.lft.to/lastmile_qr_scan", "android": "https://dc.lft.to/lastmile_qr_scan"}, "bike_id": "c22862783e2fb00362a509fe9be58603", "lat": 38.91265966666667, "name": "c22862783e2fb00362a509fe9be58603", "lon": -77.014356, "fusion_lon": 0.0}, {"is_reserved": 0, "type": "electric_scooter", "fusion_lat": 0.0, "is_disabled": 0, "rental_uris": {"ios": "https://dc.lft.to/lastmile_qr_scan", "android": "https://dc.lft.to/lastmile_qr_scan"}, "bike_id": "62441b0a70de8356c13113220f4acf69", "lat": 38.91953133333333, "name": "62441b0a70de8356c13113220f4acf69", "lon": -77.02306166666666, "fusion_lon": 0.0}, {"is_reserved": 0, "type": "electric_scooter", "fusion_lat": 0.0, "is_disabled": 0, "rental_uris": {"ios": "https://dc.lft.to/lastmile_qr_scan", "android": "https://dc.lft.to/lastmile_qr_scan"}, "bike_id": "95cf70dd48c1610c20a239d1f1c2a597", "lat": 38.90948933333333, "name": "95cf70dd48c1610c20a239d1f1c2a597", "lon": -77.03443, "fusion_lon": 0.0}, {"is_reserved": 0, "type": "electric_scooter", "fusion_lat": 0.0, "is_disabled": 0, "rental_uris": {"ios": "https://dc.lft.to/lastmile_qr_scan", "android": "https://dc.lft.to/lastmile_qr_scan"},