{"data": {"bikes": [{"bike_id": "84cdc4f1f79fa07611402bcb1afb1e67", "is_reserved": 0, "fusion_lon": 0.0, "lat": 38.90214916666667, "is_disabled": 0, "name": "84cdc4f1f79fa07611402bcb1afb1e67", "fusion_lat": 0.0, "rental_uris": {"ios": "https://dc.lft.to/lastmile_qr_scan", "android": "https://dc.lft.to/lastmile_qr_scan"}, "lon": -76.94583483333334, "type": "electric_scooter"}, {"bike_id": "b779e3f40160c5b10f76f44c26d85a29", "is_reserved": 0, "fusion_lon": 0.0, "lat": 38.915745, "is_disabled": 0, "name": "b779e3f40160c5b10f76f44c26d85a29", "fusion_lat": 0.0, "rental_uris": {"ios": "https://dc.lft.to/lastmile_qr_scan", "android": "https://dc.lft.to/lastmile_qr_scan"}, "lon": -77.04670066666667, "type": "electric_scooter"}, {"bike_id": "e3d50572aa442b3a63dc6ea2b78fc479", "is_reserved": 0, "fusion_lon": 0.0, "lat": 38.95529366666667, "is_disabled": 0, "name": "e3d50572aa442b3a63dc6ea2b78fc479", "fusion_lat": 0.0, "rental_uris": {"ios": "https://dc.lft.to/lastmile_qr_scan", "android": "https://dc.lft.to/lastmile_qr_scan"}, "lon": -77.02418516666667, "type": "electric_bike"}, {"bike_id": "62875aa65f53901645cd902e463261b9", "is_reserved": 0, "fusion_lon": 0.0, "lat": 38.90099083333333, "is_disabled": 0, "name": "62875aa65f53901645cd902e463261b9", "fusion_lat": 0.0, "rental_uris": {"ios": "https://dc.lft.to/lastmile_qr_scan", "android": "https://dc.lft.to/lastmile_qr_scan"}, "lon": -77.045213, "type": "electric_scooter"}, {"bike_id": "126ef967ddf1d0012b3fe89deaa8584a", "is_reserved": 0, "fusion_lon": 0.0, "lat": 38.89627766666667, "is_disabled": 0, "name": "126ef967ddf1d0012b3fe89deaa8584a", "fusion_lat": 0.0, "rental_uris": {"ios": "https://dc.lft.to/lastmile_qr_scan", "android": "https://dc.lft.to/lastmile_qr_scan"}, "lon": -77.009127, "type": "electric_scooter"}, {"bike_id": "f0351301c567abc1547d9b0577c330ae", "is_reserved": 0, "fusion_lon": 0.0, "lat": 38.924322333333336, "is_disabled": 0, "name": "f0351301c567abc1547d9b0577c330ae", "fusion_lat": 0.0, "rental_uris": {"ios": "https://dc.lft.to/lastmile_qr_scan", "android": "https://dc.lft.to/lastmile_qr_scan"}, "lon": -77.0400335, "type": "electric_scooter"}, {"bike_id": "2bc1895771199b0037f8a4626b404e0a", "is_reserved": 0, "fusion_lon": 0.0, "lat": 38.861974833333335, "is_disabled": 0, "name": "2bc1895771199b0037f8a4626b404e0a", "fusion_lat": 0.0, "rental_uris": {"ios": "https://dc.lft.to/lastmile_qr_scan", "android": "https://dc.lft.to/lastmile_qr_scan"}, "lon": -76.99462916666667, "type": "electric_scooter"}, {"bike_id": "c185d809014f478ef0346142fc4b4da0", "is_reserved": 0, "fusion_lon": 0.0, "lat": 38.919612666666666, "is_disabled": 0, "name": "c185d809014f478ef0346142fc4b4da0", "fusion_lat": 0.0, "rental_uris": {"ios": "https://dc.lft.to/lastmile_qr_scan", "android": "https://dc.lft.to/lastmile_qr_scan"}, "lon": -76.97271966666666, "type": "electric_bike"}, {"bike_id": "0e9d67a31089769aee204c4fef9a3d12", "is_reserved": 0, "fusion_lon": 0.0, "lat": 38.961754166666665, "is_disabled": 0, "name": "0e9d67a31089769aee204c4fef9a3d12", "fusion_lat": 0.0, "rental_uris": {"ios": "https://dc.lft.to/lastmile_qr_scan", "android": "https://dc.lft.to/lastmile_qr_scan"}, "lon": -76.99590033333334, "type": "electric_bike"}, {"bike_id": "5280552e678458272ba0ae89790852b3", "is_reserved": 0, "fusion_lon": 0.0, "lat": 38.929668166666666, "is_disabled": 0, "name": "5280552e678458272ba0ae89790852b3", "fusion_lat": 0.0, "rental_uris": {"ios": "https://dc.lft.to/lastmile_qr_scan", "android": "https://dc.lft.to/lastmile_qr_scan"}, "lon": -77.22573216666666, "type": "electric_bike"}, {"bike_id": "1d2ab2adfbac3e93d6d55229808d0318", "is_reserved": 0, "fusion_lon": 0.0, "lat": 38.94944916666667, "is_disabled": 0, "name": "1d2ab2adfbac3e93d6d55229808d0318", "fusion_lat": 0.0, "rental_uris": {"ios": "https://dc.lft.to/lastmile_qr_scan", "android": "https://dc.lft.to/lastmile_qr_scan"}, "lon": -77.0162365, "type": "electric_scooter"}, {"bike_id": "c7a479d869c18817ea75f6c0c24ec00e", "is_reserved": 0, "fusion_lon": 0.0, "lat": 38.91717166666667, "is_disabled": 0, "name": "c7a479d869c18817ea75f6c0c24ec00e", "fusion_lat": 0.0, "rental_uris": {"ios": "https://dc.lft.to/lastmile_qr_scan", "android": "https://dc.lft.to/lastmile_qr_scan"}, "lon": -77.02401616666667, "type": "electric_scooter"}, {"bike_id": "5f8e9c0156c6306bad5fdd4cb7fd9c1f", "is_reserved": 0, "fusion_lon": 0.0, "lat": 38.898778666666665, "is_disabled": 0, "name": "5f8e9c0156c6306bad5fdd4cb7fd9c1f", "fusion_lat": 0.0, "rental_uris": {"ios": "https://dc.lft.to/lastmile_qr_scan", "android": "https://dc.lft.to/lastmile_qr_scan"}, "lon": -76.93158016666666, "type": "electric_scooter"}, {"bike_id": "2d860b06595e4f445331454e2b830076", "is_reserved": 0, "fusion_lon": 0.0, "lat": 38.998195, "is_disabled": 0, "name": "2d860b06595e4f445331454e2b830076", "fusion_lat": 0.0, "rental_uris": {"ios": "https://dc.lft.to/lastmile_qr_scan", "android": "https://dc.lft.to/lastmile_qr_scan"}, "lon": -76.88362166666667, "type": "electric_bike"}, {"bike_id": "6aab26e5538e75673d7ae270b41d5f27", "is_reserved": 0, "fusion_lon": 0.0, "lat": 38.929041833333336, "is_disabled": 0, "name": "6aab26e5538e75673d7ae270b41d5f27", "fusion_lat": 0.0, "rental_uris": {"ios": "https://dc.lft.to/lastmile_qr_scan", "android": "https://dc.lft.to/lastmile_qr_scan"}, "lon": -77.05459716666667, "type": "electric_scooter"}, {"bike_id": "580024dd529eeb6bda25da32353c64f6", "is_reserved": 0, "fusion_lon": 0.0, "lat": 38.90856516666667, "is_disabled": 0, "name": "580024dd529eeb6bda25da32353c64f6", "fusion_lat": 0.0, "rental_uris": {"ios": "https://dc.lft.to/lastmile_qr_scan", "android": "https://dc.lft.to/lastmile_qr_scan"}, "lon": -77.04497583333334, "type": "electric_scooter"}, {"bike_id": "8cc77a48a8d1251d7c654d1b0d67a2b8", "is_reserved": 0, "fusion_lon": 0.0, "lat": 38.906905, "is_disabled": 0, "name": "8cc77a48a8d1251d7c654d1b0d67a2b8", "fusion_lat": 0.0, "rental_uris": {"ios": "https://dc.lft.to/lastmile_qr_scan", "android": "https://dc.lft.to/lastmile_qr_scan"}, "lon": -77.06270116666667, "type": "electric_bike"}, {"bike_id": "6f7693fe03047b080aeb436ec0a4c2ee", "is_reserved": 0, "fusion_lon": 0.0, "lat": 38.921428166666665, "is_disabled": 0, "name": "6f7693fe03047b080aeb436ec0a4c2ee", "fusion_lat": 0.0, "rental_uris": {"ios": "https://dc.lft.to/lastmile_qr_scan", "android": "https://dc.lft.to/lastmile_qr_scan"}, "lon": -77.03490083333334, "type": "electric_scooter"}, {"bike_id": "2b9e4c87807acf071aae5cb25bd9b25b", "is_reserved": 0, "fusion_lon": 0.0, "lat": 38.89220233333333, "is_disabled": 0, "name": "2b9e4c87807acf071aae5cb25bd9b25b", "fusion_lat": 0.0, "rental_uris": {"ios": "https://dc.lft.to/lastmile_qr_scan", "android": "https://dc.lft.to/lastmile_qr_scan"}, "lon": -77.04362866666666, "type": "electric_scooter"}, {"bike_id": "22c08967cd2d2124c3d20617cda73fae", "is_reserved": 0, "fusion_lon": 0.0, "lat": 38.9101295, "is_disabled": 0, "name": "22c08967cd2d2124c3d20617cda73fae", "fusion_lat": 0.0, "rental_uris": {"ios": "https://dc.lft.to/lastmile_qr_scan", "android": "https://dc.lft.to/lastmile_qr_scan"}, "lon": -77.03443966666667, "type": "electric_scooter"}, {"bike_id": "a669f5d6864337d0ee06497b9cd55bab", "is_reserved": 0, "fusion_lon": 0.0, "lat": 38.90404483333333, "is_disabled": 0, "name": "a669f5d6864337d0ee06497b9cd55bab", "fusion_lat": 0.0, "rental_uris": {"ios": "https://dc.lft.to/lastmile_qr_scan", "android": "https://dc.lft.to/lastmile_qr_scan"}, "lon": -77.01091283333334, "type": "electric_scooter"}, {"bike_id": "549bc8b4cdb18cdd699bdfbc6bf6c769", "is_reserved": 0, "fusion_lon": 0.0, "lat": 38.89854416666667, "is_disabled": 0, "name": "549bc8b4cdb18cdd699bdfbc6bf6c769", "fusion_lat": 0.0, "rental_uris": {"ios": "https://dc.lft.to/lastmile_qr_scan", "android": "https://dc.lft.to/lastmile_qr_scan"}, "lon": -77.0074285, "type": "electric_scooter"}, {"bike_id": "8e3782e2d72f7290c23031fca5c4afa9", "is_reserved": 0, "fusion_lon": 0.0, "lat": 38.94168833333333, "is_disabled": 0, "name": "8e3782e2d72f7290c23031fca5c4afa9", "fusion_lat": 0.0, "rental_uris": {"ios": "https://dc.lft.to/lastmile_qr_scan", "android": "https://dc.lft.to/lastmile_qr_scan"}, "lon": -77.0413385, "type": "electric_scooter"}, {"bike_id": "654490419d862f661cd1557e2a6c411c", "is_reserved": 0, "fusion_lon": 0.0, "lat": 38.90340416666667, "is_disabled": 0, "name": "654490419d862f661cd1557e2a6c411c", "fusion_lat": 0.0, "rental_uris": {"ios": "https://dc.lft.to/lastmile_qr_scan", "android": "https://dc.lft.to/lastmile_qr_scan"}, "lon": -77.06641383333333, "type": "electric_scooter"}, {"bike_id": "83bbef429ab10baee08e721a2e07974f", "is_reserved": 0, "fusion_lon": 0.0, "lat": 38.905563, "is_disabled": 0, "name": "83bbef429ab10baee08e721a2e07974f", "fusion_lat": 0.0, "rental_uris": {"ios": "https://dc.lft.to/lastmile_qr_scan", "android": "https://dc.lft.to/lastmile_qr_scan"}, "lon": -77.004331, "type": "electric_bike"}, {"bike_id": "26ddcf5015464c3900e267aaf39781a0", "is_reserved": 0, "fusion_lon": 0.0, "lat": 38.957809166666664, "is_disabled": 0, "name": "26ddcf5015464c3900e267aaf39781a0", "fusion_lat": 0.0, "rental_uris": {"ios": "https://dc.lft.to/lastmile_qr_scan", "android": "https://dc.lft.to/lastmile_qr_scan"}, "lon": -76.9767255, "type": "electric_bike"}, {"bike_id": "64fcfdfaa42d99d7e0ffd4a494b16e65", "is_reserved": 0, "fusion_lon": 0.0, "lat": 38.86388083333333, "is_disabled": 0, "name": "64fcfdfaa42d99d7e0ffd4a494b16e65", "fusion_lat": 0.0, "rental_uris": {"ios": "https://dc.lft.to/lastmile_qr_scan", "android": "https://dc.lft.to/lastmile_qr_scan"}, "lon": -76.989906, "type": "electric_bike"}, {"bike_id": "2e19866b7b43488ed09b193d16f6c7cc", "is_reserved": 0, "fusion_lon": 0.0, "lat": 38.94051866666667, "is_disabled": 0, "name": "2e19866b7b43488ed09b193d16f6c7cc", "fusion_lat": 0.0, "rental_uris": {"ios": "https://dc.lft.to/lastmile_qr_scan", "android": "https://dc.lft.to/lastmile_qr_scan"}, "lon": -77.09269766666667, "type": "electric_scooter"}, {"bike_id": "d1c5dd228c7aaf4c444774f01c9471da", "is_reserved": 0, "fusion_lon": 0.0, "lat": 38.97419816666667, "is_disabled": 0, "name": "d1c5dd228c7aaf4c444774f01c9471da", "fusion_lat": 0.0, "rental_uris": {"ios": "https://dc.lft.to/lastmile_qr_scan", "android": "https://dc.lft.to/lastmile_qr_scan"}, "lon": -77.015239, "type": "electric_scooter"}, {"bike_id": "9d555266e4af87da85ab273a2d9115f8", "is_reserved": 0, "fusion_lon": 0.0, "lat": 38.908692333333335, "is_disabled": 0, "name": "9d555266e4af87da85ab273a2d9115f8", "fusion_lat": 0.0, "rental_uris": {"ios": "https://dc.lft.to/lastmile_qr_scan", "android": "https://dc.lft.to/lastmile_qr_scan"}, "lon": -76.9916555, "type": "electric_scooter"}, {"bike_id": "c1faac79fc8750fe4a51ff77be94458c", "is_reserved": 0, "fusion_lon": 0.0, "lat": 38.86712283333333, "is_disabled": 0, "name": "c1faac79fc8750fe4a51ff77be94458c", "fusion_lat": 0.0, "rental_uris": {"ios": "https://dc.lft.to/lastmile_qr_scan", "android": "https://dc.lft.to/lastmile_qr_scan"}, "lon": -76.98724383333334, "type": "electric_scooter"}, {"bike_id": "a57a2791d672c4a15b89168487bc4bb9", "is_reserved": 0, "fusion_lon": 0.0, "lat": 38.91745916666667, "is_disabled": 0, "name": "a57a2791d672c4a15b89168487bc4bb9", "fusion_lat": 0.0, "rental_uris": {"ios": "https://dc.lft.to/lastmile_qr_scan", "android": "https://dc.lft.to/lastmile_qr_scan"}, "lon": -77.00748883333333, "type": "electric_scooter"}, {"bike_id": "f6f828c24293042e28925409f2a89cce", "is_reserved": 0, "fusion_lon": 0.0, "lat": 38.89621433333333, "is_disabled": 0, "name": "f6f828c24293042e28925409f2a89cce", "fusion_lat": 0.0, "rental_uris": {"ios": "https://dc.lft.to/lastmile_qr_scan", "android": "https://dc.lft.to/lastmile_qr_scan"}, "lon": -77.04046683333333, "type": "electric_scooter"}, {"bike_id": "53124694f624f22069329c01a0576e17", "is_reserved": 0, "fusion_lon": 0.0, "lat": 38.923672833333335, "is_disabled": 0, "name": "53124694f624f22069329c01a0576e17", "fusion_lat": 0.0, "rental_uris": {"ios": "https://dc.lft.to/lastmile_qr_scan", "android": "https://dc.lft.to/lastmile_qr_scan"}, "lon": -77.01956366666667, "type": "electric_scooter"}, {"bike_id": "dc80a9f9b580a84294cd52f1514eb162", "is_reserved": 0, "fusion_lon": 0.0, "lat": 38.896834166666665, "is_disabled": 0, "name": "dc80a9f9b580a84294cd52f1514eb162", "fusion_lat": 0.0, "rental_uris": {"ios": "https://dc.lft.to/lastmile_qr_scan", "android": "https://dc.lft.to/lastmile_qr_scan"}, "lon": -76.99622883333333, "type": "electric_scooter"}, {"bike_id": "b716fb4ecd5b81e70dd08b6db4e1e9ab", "is_reserved": 0, "fusion_lon": 0.0, "lat": 38.84290516666667, "is_disabled": 0, "name": "b716fb4ecd5b81e70dd08b6db4e1e9ab", "fusion_lat": 0.0, "rental_uris": {"ios": "https://dc.lft.to/lastmile_qr_scan", "android": "https://dc.lft.to/lastmile_qr_scan"}, "lon": -76.99950533333333, "type": "electric_scooter"}, {"bike_id": "b3649d2e6925b4c93cf632f87793bbb4", "is_reserved": 0, "fusion_lon": 0.0, "lat": 38.907516333333334, "is_disabled": 0, "name": "b3649d2e6925b4c93cf632f87793bbb4", "fusion_lat": 0.0, "rental_uris": {"ios": "https://dc.lft.to/lastmile_qr_scan", "android": "https://dc.lft.to/lastmile_qr_scan"}, "lon": -77.00091266666666, "type": "electric_scooter"}, {"bike_id": "e69b390de3ab78b9acefd3f97642410c", "is_reserved": 0, "fusion_lon": 0.0, "lat": 38.903161833333336, "is_disabled": 0, "name": "e69b390de3ab78b9acefd3f97642410c", "fusion_lat": 0.0, "rental_uris": {"ios": "https://dc.lft.to/lastmile_qr_scan", "android": "https://dc.lft.to/lastmile_qr_scan"}, "lon": -77.038288, "type": "electric_scooter"}, {"bike_id": "6857f671d90d1e6d275d35aa7c5efcbd", "is_reserved": 0, "fusion_lon": 0.0, "lat": 38.869625, "is_disabled": 0, "name": "6857f671d90d1e6d275d35aa7c5efcbd", "fusion_lat": 0.0, "rental_uris": {"ios": "https://dc.lft.to/lastmile_qr_scan", "android": "https://dc.lft.to/lastmile_qr_scan"}, "lon": -77.0137745, "type": "electric_scooter"}, {"bike_id": "64c8d3b8cc1fd8ec456f10a8b59c74b9", "is_reserved": 0, "fusion_lon": 0.0, "lat": 38.92610666666667, "is_disabled": 0, "name": "64c8d3b8cc1fd8ec456f10a8b59c74b9", "fusion_lat": 0.0, "rental_uris": {"ios": "https://dc.lft.to/lastmile_qr_scan", "android": "https://dc.lft.to/lastmile_qr_scan"}, "lon": -77.03960766666667, "type": "electric_scooter"}, {"bike_id": "ad739da0f7e50505ff4bdfc655a62a67", "is_reserved": 0, "fusion_lon": 0.0, "lat": 38.9252675, "is_disabled": 0, "name": "ad739da0f7e50505ff4bdfc655a62a67", "fusion_lat": 0.0, "rental_uris": {"ios": "https://dc.lft.to/lastmile_qr_scan", "android": "https://dc.lft.to/lastmile_qr_scan"}, "lon": -77.00285933333333, "type": "electric_scooter"}, {"bike_id": "b2a32c9170c828ce8add841bf5d107e0", "is_reserved": 0, "fusion_lon": 0.0, "lat": 38.9046195, "is_disabled": 0, "name": "b2a32c9170c828ce8add841bf5d107e0", "fusion_lat": 0.0, "rental_uris": {"ios": "https://dc.lft.to/lastmile_qr_scan", "android": "https://dc.lft.to/lastmile_qr_scan"}, "lon": -76.9950775, "type": "electric_scooter"}, {"bike_id": "e381c391478131b943a8dc279d95bbd7", "is_reserved": 0, "fusion_lon": 0.0, "lat": 38.87459966666667, "is_disabled": 0, "name": "e381c391478131b943a8dc279d95bbd7", "fusion_lat": 0.0, "rental_uris": {"ios": "https://dc.lft.to/lastmile_qr_scan", "android": "https://dc.lft.to/lastmile_qr_scan"}, "lon": -77.00312816666667, "type": "electric_scooter"}, {"bike_id": "7c86bc217b340868c76052deb2713ae0", "is_reserved": 0, "fusion_lon": 0.0, "lat": 38.905225, "is_disabled": 0, "name": "7c86bc217b340868c76052deb2713ae0", "fusion_lat": 0.0, "rental_uris": {"ios": "https://dc.lft.to/lastmile_qr_scan", "android": "https://dc.lft.to/lastmile_qr_scan"}, "lon": -77.05044733333334, "type": "electric_scooter"}, {"bike_id": "80bd048fd83495c063998164dc5e35ef", "is_reserved": 0, "fusion_lon": 0.0, "lat": 38.9682705, "is_disabled": 0, "name": "80bd048fd83495c063998164dc5e35ef", "fusion_lat": 0.0, "rental_uris": {"ios": "https://dc.lft.to/lastmile_qr_scan", "android": "https://dc.lft.to/lastmile_qr_scan"}, "lon": -77.01790266666667, "type": "electric_scooter"}, {"bike_id": "d462119d5af6b4c2c0bbf9dbdb86bf44", "is_reserved": 0, "fusion_lon": 0.0, "lat": 38.8763125, "is_disabled": 0, "name": "d462119d5af6b4c2c0bbf9dbdb86bf44", "fusion_lat": 0.0, "rental_uris": {"ios": "https://dc.lft.to/lastmile_qr_scan", "android": "https://dc.lft.to/lastmile_qr_scan"}, "lon": -76.96524466666666, "type": "electric_scooter"}, {"bike_id": "7cbbaee45b5246e134c99568ba0283db", "is_reserved": 0, "fusion_lon": 0.0, "lat": 38.94181, "is_disabled": 0, "name": "7cbbaee45b5246e134c99568ba0283db", "fusion_lat": 0.0, "rental_uris": {"ios": "https://dc.lft.to/lastmile_qr_scan", "android": "https://dc.lft.to/lastmile_qr_scan"}, "lon": -77.02501266666667, "type": "electric_scooter"}, {"bike_id": "fc47aa9f71fe366a1ca37b1cad1a1289", "is_reserved": 0, "fusion_lon": 0.0, "lat": 38.891981333333334, "is_disabled": 0, "name": "fc47aa9f71fe366a1ca37b1cad1a1289", "fusion_lat": 0.0, "rental_uris": {"ios": "https://dc.lft.to/lastmile_qr_scan", "android": "https://dc.lft.to/lastmile_qr_scan"}, "lon": -77.01538483333333, "type": "electric_scooter"}, {"bike_id": "494e67805860b7b4ef10ec7dab79b378", "is_reserved": 0, "fusion_lon": 0.0, "lat": 38.902955166666665, "is_disabled": 0, "name": "494e67805860b7b4ef10ec7dab79b378", "fusion_lat": 0.0, "rental_uris": {"ios": "https://dc.lft.to/lastmile_qr_scan", "android": "https://dc.lft.to/lastmile_qr_scan"}, "lon": -76.99857233333333, "type": "electric_scooter"}, {"bike_id": "f46e13d6e658d80471cbd9d8a13c7c50", "is_reserved": 0, "fusion_lon": 0.0, "lat": 38.893674833333336, "is_disabled": 0, "name": "f46e13d6e658d80471cbd9d8a13c7c50", "fusion_lat": 0.0, "rental_uris": {"ios": "https://dc.lft.to/lastmile_qr_scan", "android": "https://dc.lft.to/lastmile_qr_scan"}, "lon": -76.94978583333334, "type": "electric_scooter"}, {"bike_id": "3c72d60c3bbc5cc0516e0e250d79a9b2", "is_reserved": 0, "fusion_lon": 0.0, "lat": 38.8784125, "is_disabled": 0, "name": "3c72d60c3bbc5cc0516e0e250d79a9b2", "fusion_lat": 0.0, "rental_uris": {"ios": "https://dc.lft.to/lastmile_qr_scan", "android": "https://dc.lft.to/lastmile_qr_scan"}, "lon": -76.99042833333333, "type": "electric_scooter"}, {"bike_id": "c34aa9bb8d23d1464d721eefd6e669d2", "is_reserved": 0, "fusion_lon": 0.0, "lat": 38.90438533333333, "is_disabled": 0, "name": "c34aa9bb8d23d1464d721eefd6e669d2", "fusion_lat": 0.0, "rental_uris": {"ios": "https://dc.lft.to/lastmile_qr_scan", "android": "https://dc.lft.to/lastmile_qr_scan"}, "lon": -76.9962175, "type": "electric_scooter"}, {"bike_id": "2e3198d01e96e9cca69a2b1f9c79f0b9", "is_reserved": 0, "fusion_lon": 0.0, "lat": 38.90283933333333, "is_disabled": 0, "name": "2e3198d01e96e9cca69a2b1f9c79f0b9", "fusion_lat": 0.0, "rental_uris": {"ios": "https://dc.lft.to/lastmile_qr_scan", "android": "https://dc.lft.to/lastmile_qr_scan"}, "lon": -77.033706, "type": "electric_scooter"}, {"bike_id": "c834446986fce4ee8004b325467574c5", "is_reserved": 0, "fusion_lon": 0.0, "lat": 38.922655666666664, "is_disabled": 0, "name": "c834446986fce4ee8004b325467574c5", "fusion_lat": 0.0, "rental_uris": {"ios": "https://dc.lft.to/lastmile_qr_scan", "android": "https://dc.lft.to/lastmile_qr_scan"}, "lon": -77.018261, "type": "electric_scooter"}, {"bike_id": "aa90543b1d77697514d07b263ec17a2f", "is_reserved": 0, "fusion_lon": 0.0, "lat": 38.92035, "is_disabled": 0, "name": "aa90543b1d77697514d07b263ec17a2f", "fusion_lat": 0.0, "rental_uris": {"ios": "https://dc.lft.to/lastmile_qr_scan", "android": "https://dc.lft.to/lastmile_qr_scan"}, "lon": -77.048062, "type": "electric_scooter"}, {"bike_id": "5a6baeb66f337eac6244dcdc9cd2fe94", "is_reserved": 0, "fusion_lon": 0.0, "lat": 38.842946166666664, "is_disabled": 0, "name": "5a6baeb66f337eac6244dcdc9cd2fe94", "fusion_lat": 0.0, "rental_uris": {"ios": "https://dc.lft.to/lastmile_qr_scan", "android": "https://dc.lft.to/lastmile_qr_scan"}, "lon": -76.99944766666667, "type": "electric_scooter"}, {"bike_id": "ff089b7ad296ae11d467d5633d3c039e", "is_reserved": 0, "fusion_lon": 0.0, "lat": 38.918294333333336, "is_disabled": 0, "name": "ff089b7ad296ae11d467d5633d3c039e", "fusion_lat": 0.0, "rental_uris": {"ios": "https://dc.lft.to/lastmile_qr_scan", "android": "https://dc.lft.to/lastmile_qr_scan"}, "lon": -77.04520866666667, "type": "electric_scooter"}, {"bike_id": "537a65b416affe487c53043498b1a401", "is_reserved": 0, "fusion_lon": 0.0, "lat": 38.91199433333333, "is_disabled": 0, "name": "537a65b416affe487c53043498b1a401", "fusion_lat": 0.0, "rental_uris": {"ios": "https://dc.lft.to/lastmile_qr_scan", "android": "https://dc.lft.to/lastmile_qr_scan"}, "lon": -77.01614766666667, "type": "electric_scooter"}, {"bike_id": "cd4a7132473b10503b4ad7e2a7e4b6a5", "is_reserved": 0, "fusion_lon": 0.0, "lat": 38.919883, "is_disabled": 0, "name": "cd4a7132473b10503b4ad7e2a7e4b6a5", "fusion_lat": 0.0, "rental_uris": {"ios": "https://dc.lft.to/lastmile_qr_scan", "android": "https://dc.lft.to/lastmile_qr_scan"}, "lon": -76.97300483333333, "type": "electric_scooter"}, {"bike_id": "28e5e1e29d18c14eb736d95340b8c807", "is_reserved": 0, "fusion_lon": 0.0, "lat": 38.88638566666667, "is_disabled": 0, "name": "28e5e1e29d18c14eb736d95340b8c807", "fusion_lat": 0.0, "rental_uris": {"ios": "https://dc.lft.to/lastmile_qr_scan", "android": "https://dc.lft.to/lastmile_qr_scan"}, "lon": -77.02136733333333, "type": "electric_scooter"}, {"bike_id": "01243088c10a8cea7e2526da70c81e0e", "is_reserved": 0, "fusion_lon": 0.0, "lat": 38.9109415, "is_disabled": 0, "name": "01243088c10a8cea7e2526da70c81e0e", "fusion_lat": 0.0, "rental_uris": {"ios": "https://dc.lft.to/lastmile_qr_scan", "android": "https://dc.lft.to/lastmile_qr_scan"}, "lon": -76.99694366666667, "type": "electric_scooter"}, {"bike_id": "100980381fb8b8ca4d34b7d8d2ec142a", "is_reserved": 0, "fusion_lon": 0.0, "lat": 38.820509666666666, "is_disabled": 0, "name": "100980381fb8b8ca4d34b7d8d2ec142a", "fusion_lat": 0.0, "rental_uris": {"ios": "https://dc.lft.to/lastmile_qr_scan", "android": "https://dc.lft.to/lastmile_qr_scan"}, "lon": -77.05312766666667, "type": "electric_bike"}, {"bike_id": "69f3e7428d709f1f90cff2a2b200404b", "is_reserved": 0, "fusion_lon": 0.0, "lat": 38.91572816666667, "is_disabled": 0, "name": "69f3e7428d709f1f90cff2a2b200404b", "fusion_lat": 0.0, "rental_uris": {"ios": "https://dc.lft.to/lastmile_qr_scan", "android": "https://dc.lft.to/lastmile_qr_scan"}, "lon": -77.03176316666666, "type": "electric_scooter"}, {"bike_id": "e08ad9c211f2d8cf159e59ad99663693", "is_reserved": 0, "fusion_lon": 0.0, "lat": 38.9009485, "is_disabled": 0, "name": "e08ad9c211f2d8cf159e59ad99663693", "fusion_lat": 0.0, "rental_uris": {"ios": "https://dc.lft.to/lastmile_qr_scan", "android": "https://dc.lft.to/lastmile_qr_scan"}, "lon": -77.05063333333334, "type": "electric_scooter"}, {"bike_id": "f0a7e4e674fa0607feb7d41b30391c87", "is_reserved": 0, "fusion_lon": 0.0, "lat": 38.91710333333333, "is_disabled": 0, "name": "f0a7e4e674fa0607feb7d41b30391c87", "fusion_lat": 0.0, "rental_uris": {"ios": "https://dc.lft.to/lastmile_qr_scan", "android": "https://dc.lft.to/lastmile_qr_scan"}, "lon": -77.02384566666667, "type": "electric_scooter"}, {"bike_id": "7a27ecadfe1fc2571921e1731cd245e9", "is_reserved": 0, "fusion_lon": 0.0, "lat": 38.950724666666666, "is_disabled": 0, "name": "7a27ecadfe1fc2571921e1731cd245e9", "fusion_lat": 0.0, "rental_uris": {"ios": "https://dc.lft.to/lastmile_qr_scan", "android": "https://dc.lft.to/lastmile_qr_scan"}, "lon": -77.01201016666667, "type": "electric_bike"}, {"bike_id": "e1c1f74b9b1a306376dad530dd524af5", "is_reserved": 0, "fusion_lon": 0.0, "lat": 38.903727333333336, "is_disabled": 0, "name": "e1c1f74b9b1a306376dad530dd524af5", "fusion_lat": 0.0, "rental_uris": {"ios": "https://dc.lft.to/lastmile_qr_scan", "android": "https://dc.lft.to/lastmile_qr_scan"}, "lon": -77.038811, "type": "electric_scooter"}, {"bike_id": "33c278c1e348260c59247b7ae785aad9", "is_reserved": 0, "fusion_lon": 0.0, "lat": 38.917883333333336, "is_disabled": 0, "name": "33c278c1e348260c59247b7ae785aad9", "fusion_lat": 0.0, "rental_uris": {"ios": "https://dc.lft.to/lastmile_qr_scan", "android": "https://dc.lft.to/lastmile_qr_scan"}, "lon": -77.02695833333334, "type": "electric_scooter"}, {"bike_id": "67748a989fe93d17bea71f9596f197cf", "is_reserved": 0, "fusion_lon": 0.0, "lat": 38.844295333333335, "is_disabled": 0, "name": "67748a989fe93d17bea71f9596f197cf", "fusion_lat": 0.0, "rental_uris": {"ios": "https://dc.lft.to/lastmile_qr_scan", "android": "https://dc.lft.to/lastmile_qr_scan"}, "lon": -76.99775216666667, "type": "electric_scooter"}, {"bike_id": "0839f47676fc9df09b319e1669f595e8", "is_reserved": 0, "fusion_lon": 0.0, "lat": 38.90373916666667, "is_disabled": 0, "name": "0839f47676fc9df09b319e1669f595e8", "fusion_lat": 0.0, "rental_uris": {"ios": "https://dc.lft.to/lastmile_qr_scan", "android": "https://dc.lft.to/lastmile_qr_scan"}, "lon": -77.0185025, "type": "electric_scooter"}, {"bike_id": "3ad43fd06935d33ca7082747215ca57a", "is_reserved": 0, "fusion_lon": 0.0, "lat": 38.90238816666667, "is_disabled": 0, "name": "3ad43fd06935d33ca7082747215ca57a", "fusion_lat": 0.0, "rental_uris": {"ios": "https://dc.lft.to/lastmile_qr_scan", "android": "https://dc.lft.to/lastmile_qr_scan"}, "lon": -77.00205716666666, "type": "electric_scooter"}, {"bike_id": "70809f9782c1d6c50f7c27e76840b262", "is_reserved": 0, "fusion_lon": 0.0, "lat": 38.8983245, "is_disabled": 0, "name": "70809f9782c1d6c50f7c27e76840b262", "fusion_lat": 0.0, "rental_uris": {"ios": "https://dc.lft.to/lastmile_qr_scan", "android": "https://dc.lft.to/lastmile_qr_scan"}, "lon": -76.94635183333334, "type": "electric_scooter"}, {"bike_id": "fa3733fa1f845286c1d6faa717317108", "is_reserved": 0, "fusion_lon": 0.0, "lat": 38.94557733333333, "is_disabled": 0, "name": "fa3733fa1f845286c1d6faa717317108", "fusion_lat": 0.0, "rental_uris": {"ios": "https://dc.lft.to/lastmile_qr_scan", "android": "https://dc.lft.to/lastmile_qr_scan"}, "lon": -76.8954315, "type": "electric_bike"}, {"bike_id": "93e5920e1c6e286696d0de116c2a52d0", "is_reserved": 0, "fusion_lon": 0.0, "lat": 38.952580166666664, "is_disabled": 0, "name": "93e5920e1c6e286696d0de116c2a52d0", "fusion_lat": 0.0, "rental_uris": {"ios": "https://dc.lft.to/lastmile_qr_scan", "android": "https://dc.lft.to/lastmile_qr_scan"}, "lon": -77.06980466666667, "type": "electric_scooter"}, {"bike_id": "908607fd56679bb58b04179d1dcc1e82", "is_reserved": 0, "fusion_lon": 0.0, "lat": 38.8922245, "is_disabled": 0, "name": "908607fd56679bb58b04179d1dcc1e82", "fusion_lat": 0.0, "rental_uris": {"ios": "https://dc.lft.to/lastmile_qr_scan", "android": "https://dc.lft.to/lastmile_qr_scan"}, "lon": -77.0435975, "type": "electric_scooter"}, {"bike_id": "e6209b3ce75a55cdaea043d6633f3ff7", "is_reserved": 0, "fusion_lon": 0.0, "lat": 38.91390233333333, "is_disabled": 0, "name": "e6209b3ce75a55cdaea043d6633f3ff7", "fusion_lat": 0.0, "rental_uris": {"ios": "https://dc.lft.to/lastmile_qr_scan", "android": "https://dc.lft.to/lastmile_qr_scan"}, "lon": -77.01698583333334, "type": "electric_scooter"}, {"bike_id": "3f33d8232e74d395775bc08faae7a861", "is_reserved": 0, "fusion_lon": 0.0, "lat": 38.865638, "is_disabled": 0, "name": "3f33d8232e74d395775bc08faae7a861", "fusion_lat": 0.0, "rental_uris": {"ios": "https://dc.lft.to/lastmile_qr_scan", "android": "https://dc.lft.to/lastmile_qr_scan"}, "lon": -76.98949033333334, "type": "electric_scooter"}, {"bike_id": "4578f7ec2f1f40a2637e421f10b900ef", "is_reserved": 0, "fusion_lon": 0.0, "lat": 38.915156, "is_disabled": 0, "name": "4578f7ec2f1f40a2637e421f10b900ef", "fusion_lat": 0.0, "rental_uris": {"ios": "https://dc.lft.to/lastmile_qr_scan", "android": "https://dc.lft.to/lastmile_qr_scan"}, "lon": -77.01218566666667, "type": "electric_scooter"}, {"bike_id": "50ec29fa8a3ead3ff5b9a61483af6934", "is_reserved": 0, "fusion_lon": 0.0, "lat": 38.906087, "is_disabled": 0, "name": "50ec29fa8a3ead3ff5b9a61483af6934", "fusion_lat": 0.0, "rental_uris": {"ios": "https://dc.lft.to/lastmile_qr_scan", "android": "https://dc.lft.to/lastmile_qr_scan"}, "lon": -77.06304266666666, "type": "electric_scooter"}, {"bike_id": "d61974bd18928111f9857d72ceea27dd", "is_reserved": 0, "fusion_lon": 0.0, "lat": 38.861813166666664, "is_disabled": 0, "name": "d61974bd18928111f9857d72ceea27dd", "fusion_lat": 0.0, "rental_uris": {"ios": "https://dc.lft.to/lastmile_qr_scan", "android": "https://dc.lft.to/lastmile_qr_scan"}, "lon": -76.96914566666666, "type": "electric_scooter"}, {"bike_id": "43fd207f2fa567cb40904442846cb059", "is_reserved": 0, "fusion_lon": 0.0, "lat": 38.898270833333335, "is_disabled": 0, "name": "43fd207f2fa567cb40904442846cb059", "fusion_lat": 0.0, "rental_uris": {"ios": "https://dc.lft.to/lastmile_qr_scan", "android": "https://dc.lft.to/lastmile_qr_scan"}, "lon": -77.03346883333333, "type": "electric_scooter"}, {"bike_id": "eb536645069a7d0d9c96d96093495fa0", "is_reserved": 0, "fusion_lon": 0.0, "lat": 38.91699933333334, "is_disabled": 0, "name": "eb536645069a7d0d9c96d96093495fa0", "fusion_lat": 0.0, "rental_uris": {"ios": "https://dc.lft.to/lastmile_qr_scan", "android": "https://dc.lft.to/lastmile_qr_scan"}, "lon": -77.02234783333333, "type": "electric_scooter"}, {"bike_id": "fc75ad23cbdd5d52cb1731508681264b", "is_reserved": 0, "fusion_lon": 0.0, "lat": 38.92033966666666, "is_disabled": 0, "name": "fc75ad23cbdd5d52cb1731508681264b", "fusion_lat": 0.0, "rental_uris": {"ios": "https://dc.lft.to/lastmile_qr_scan", "android": "https://dc.lft.to/lastmile_qr_scan"}, "lon": -77.02589816666666, "type": "electric_scooter"}, {"bike_id": "35bda1b33bee09b303b41d2ac235b857", "is_reserved": 0, "fusion_lon": 0.0, "lat": 38.90008733333333, "is_disabled": 0, "name": "35bda1b33bee09b303b41d2ac235b857", "fusion_lat": 0.0, "rental_uris": {"ios": "https://dc.lft.to/lastmile_qr_scan", "android": "https://dc.lft.to/lastmile_qr_scan"}, "lon": -77.04654466666666, "type": "electric_scooter"}, {"bike_id": "68106ee2133a92cbed99f2bae7d2fb6e", "is_reserved": 0, "fusion_lon": 0.0, "lat": 38.907477166666666, "is_disabled": 0, "name": "68106ee2133a92cbed99f2bae7d2fb6e", "fusion_lat": 0.0, "rental_uris": {"ios": "https://dc.lft.to/lastmile_qr_scan", "android": "https://dc.lft.to/lastmile_qr_scan"}, "lon": -77.03474016666667, "type": "electric_scooter"}, {"bike_id": "2c2d60ba5cb2b614b3bbd2f6387a6f49", "is_reserved": 0, "fusion_lon": 0.0, "lat": 38.973302, "is_disabled": 0, "name": "2c2d60ba5cb2b614b3bbd2f6387a6f49", "fusion_lat": 0.0, "rental_uris": {"ios": "https://dc.lft.to/lastmile_qr_scan", "android": "https://dc.lft.to/lastmile_qr_scan"}, "lon": -77.02154, "type": "electric_bike"}, {"bike_id": "721cf78a5f8a5453e877a07ec4a0c984", "is_reserved": 0, "fusion_lon": 0.0, "lat": 38.90079383333333, "is_disabled": 0, "name": "721cf78a5f8a5453e877a07ec4a0c984", "fusion_lat": 0.0, "rental_uris": {"ios": "https://dc.lft.to/lastmile_qr_scan", "android": "https://dc.lft.to/lastmile_qr_scan"}, "lon": -76.93879016666666, "type": "electric_scooter"}, {"bike_id": "74c146ad7a28ceddd8a2aead489c95e9", "is_reserved": 0, "fusion_lon": 0.0, "lat": 38.90387916666667, "is_disabled": 0, "name": "74c146ad7a28ceddd8a2aead489c95e9", "fusion_lat": 0.0, "rental_uris": {"ios": "https://dc.lft.to/lastmile_qr_scan", "android": "https://dc.lft.to/lastmile_qr_scan"}, "lon": -77.04493933333333, "type": "electric_scooter"}, {"bike_id": "ec5d45b7523af28ef0f93bfd99748e85", "is_reserved": 0, "fusion_lon": 0.0, "lat": 38.902892666666666, "is_disabled": 0, "name": "ec5d45b7523af28ef0f93bfd99748e85", "fusion_lat": 0.0, "rental_uris": {"ios": "https://dc.lft.to/lastmile_qr_scan", "android": "https://dc.lft.to/lastmile_qr_scan"}, "lon": -76.99036466666666, "type": "electric_scooter"}, {"bike_id": "62a3f77ca2fecee27dba4652d7a675ce", "is_reserved": 0, "fusion_lon": 0.0, "lat": 38.8973905, "is_disabled": 0, "name": "62a3f77ca2fecee27dba4652d7a675ce", "fusion_lat": 0.0, "rental_uris": {"ios": "https://dc.lft.to/lastmile_qr_scan", "android": "https://dc.lft.to/lastmile_qr_scan"}, "lon": -77.0556985, "type": "electric_scooter"}, {"bike_id": "059dbb3214918f4b8aec2326628ff854", "is_reserved": 0, "fusion_lon": 0.0, "lat": 38.8884855, "is_disabled": 0, "name": "059dbb3214918f4b8aec2326628ff854", "fusion_lat": 0.0, "rental_uris": {"ios": "https://dc.lft.to/lastmile_qr_scan", "android": "https://dc.lft.to/lastmile_qr_scan"}, "lon": -76.9267965, "type": "electric_scooter"}, {"bike_id": "634c0ff43191ab87a00d6a7794d11e97", "is_reserved": 0, "fusion_lon": 0.0, "lat": 38.9480555, "is_disabled": 0, "name": "634c0ff43191ab87a00d6a7794d11e97", "fusion_lat": 0.0, "rental_uris": {"ios": "https://dc.lft.to/lastmile_qr_scan", "android": "https://dc.lft.to/lastmile_qr_scan"}, "lon": -77.0790925, "type": "electric_scooter"}, {"bike_id": "02e19f539354c69cb07d10b7046523a6", "is_reserved": 0, "fusion_lon": 0.0, "lat": 38.9497205, "is_disabled": 0, "name": "02e19f539354c69cb07d10b7046523a6", "fusion_lat": 0.0, "rental_uris": {"ios": "https://dc.lft.to/lastmile_qr_scan", "android": "https://dc.lft.to/lastmile_qr_scan"}, "lon": -76.972831, "type": "electric_bike"}, {"bike_id": "3ababf69852b1ff512bd988f89cd5c55", "is_reserved": 0, "fusion_lon": 0.0, "lat": 38.89373833333333, "is_disabled": 0, "name": "3ababf69852b1ff512bd988f89cd5c55", "fusion_lat": 0.0, "rental_uris": {"ios": "https://dc.lft.to/lastmile_qr_scan", "android": "https://dc.lft.to/lastmile_qr_scan"}, "lon": -77.047902, "type": "electric_scooter"}, {"bike_id": "b6a63aba33f79260df517295303befa1", "is_reserved": 0, "fusion_lon": 0.0, "lat": 38.930889, "is_disabled": 0, "name": "b6a63aba33f79260df517295303befa1", "fusion_lat": 0.0, "rental_uris": {"ios": "https://dc.lft.to/lastmile_qr_scan", "android": "https://dc.lft.to/lastmile_qr_scan"}, "lon": -77.031324, "type": "electric_scooter"}, {"bike_id": "99d1437263fd892a06d653a06763f3bb", "is_reserved": 0, "fusion_lon": 0.0, "lat": 38.9063385, "is_disabled": 0, "name": "99d1437263fd892a06d653a06763f3bb", "fusion_lat": 0.0, "rental_uris": {"ios": "https://dc.lft.to/lastmile_qr_scan", "android": "https://dc.lft.to/lastmile_qr_scan"}, "lon": -77.07017666666667, "type": "electric_bike"}, {"bike_id": "a58ee1e928ca0bee7184df0378f88818", "is_reserved": 0, "fusion_lon": 0.0, "lat": 38.903834, "is_disabled": 0, "name": "a58ee1e928ca0bee7184df0378f88818", "fusion_lat": 0.0, "rental_uris": {"ios": "https://dc.lft.to/lastmile_qr_scan", "android": "https://dc.lft.to/lastmile_qr_scan"}, "lon": -77.04500266666666, "type": "electric_scooter"}, {"bike_id": "873915f9bbb652ebda11277de843186d", "is_reserved": 0, "fusion_lon": 0.0, "lat": 38.866182, "is_disabled": 0, "name": "873915f9bbb652ebda11277de843186d", "fusion_lat": 0.0, "rental_uris": {"ios": "https://dc.lft.to/lastmile_qr_scan", "android": "https://dc.lft.to/lastmile_qr_scan"}, "lon": -76.94571383333333, "type": "electric_bike"}, {"bike_id": "9bb59a915a4d20526ef1a7ebb9e3d7e1", "is_reserved": 0, "fusion_lon": 0.0, "lat": 38.91668283333333, "is_disabled": 0, "name": "9bb59a915a4d20526ef1a7ebb9e3d7e1", "fusion_lat": 0.0, "rental_uris": {"ios": "https://dc.lft.to/lastmile_qr_scan", "android": "https://dc.lft.to/lastmile_qr_scan"}, "lon": -77.02702316666667, "type": "electric_scooter"}, {"bike_id": "f8b4780653585b9dc401ea8834c1fc31", "is_reserved": 0, "fusion_lon": 0.0, "lat": 38.90045966666667, "is_disabled": 0, "name": "f8b4780653585b9dc401ea8834c1fc31", "fusion_lat": 0.0, "rental_uris": {"ios": "https://dc.lft.to/lastmile_qr_scan", "android": "https://dc.lft.to/lastmile_qr_scan"}, "lon": -76.924758, "type": "electric_scooter"}, {"bike_id": "db6bc7199dc59e5cab920594040e8483", "is_reserved": 0, "fusion_lon": 0.0, "lat": 38.92064, "is_disabled": 0, "name": "db6bc7199dc59e5cab920594040e8483", "fusion_lat": 0.0, "rental_uris": {"ios": "https://dc.lft.to/lastmile_qr_scan", "android": "https://dc.lft.to/lastmile_qr_scan"}, "lon": -77.04256216666667, "type": "electric_scooter"}, {"bike_id": "e1fe2ad04bec4a868827c885bd8a2e01", "is_reserved": 0, "fusion_lon": 0.0, "lat": 38.9001905, "is_disabled": 0, "name": "e1fe2ad04bec4a868827c885bd8a2e01", "fusion_lat": 0.0, "rental_uris": {"ios": "https://dc.lft.to/lastmile_qr_scan", "android": "https://dc.lft.to/lastmile_qr_scan"}, "lon": -77.0405055, "type": "electric_scooter"}, {"bike_id": "27d12671f0cf21a5e244ffbeb3a2540c", "is_reserved": 0, "fusion_lon": 0.0, "lat": 38.916714166666665, "is_disabled": 0, "name": "27d12671f0cf21a5e244ffbeb3a2540c", "fusion_lat": 0.0, "rental_uris": {"ios": "https://dc.lft.to/lastmile_qr_scan", "android": "https://dc.lft.to/lastmile_qr_scan"}, "lon": -77.03186733333334, "type": "electric_scooter"}, {"bike_id": "3395df21df4e7e38ce543f4e97689336", "is_reserved": 0, "fusion_lon": 0.0, "lat": 38.903578833333334, "is_disabled": 0, "name": "3395df21df4e7e38ce543f4e97689336", "fusion_lat": 0.0, "rental_uris": {"ios": "https://dc.lft.to/lastmile_qr_scan", "android": "https://dc.lft.to/lastmile_qr_scan"}, "lon": -77.04001016666666, "type": "electric_scooter"}, {"bike_id": "c7b6cd3d66eea3048693dbe7e8578f53", "is_reserved": 0, "fusion_lon": 0.0, "lat": 38.887412166666664, "is_disabled": 0, "name": "c7b6cd3d66eea3048693dbe7e8578f53", "fusion_lat": 0.0, "rental_uris": {"ios": "https://dc.lft.to/lastmile_qr_scan", "android": "https://dc.lft.to/lastmile_qr_scan"}, "lon": -77.02582983333333, "type": "electric_scooter"}, {"bike_id": "fab85cfba17e48362fdd9c2ec147a94d", "is_reserved": 0, "fusion_lon": 0.0, "lat": 38.90452033333333, "is_disabled": 0, "name": "fab85cfba17e48362fdd9c2ec147a94d", "fusion_lat": 0.0, "rental_uris": {"ios": "https://dc.lft.to/lastmile_qr_scan", "android": "https://dc.lft.to/lastmile_qr_scan"}, "lon": -77.04883, "type": "electric_scooter"}, {"bike_id": "0573113b1a5fcaedd95bf7907fc07abe", "is_reserved": 0, "fusion_lon": 0.0, "lat": 38.884307, "is_disabled": 0, "name": "0573113b1a5fcaedd95bf7907fc07abe", "fusion_lat": 0.0, "rental_uris": {"ios": "https://dc.lft.to/lastmile_qr_scan", "android": "https://dc.lft.to/lastmile_qr_scan"}, "lon": -76.9575775, "type": "electric_scooter"}, {"bike_id": "2e812aa7e74e289e07758c4e41413766", "is_reserved": 0, "fusion_lon": 0.0, "lat": 38.92462783333333, "is_disabled": 0, "name": "2e812aa7e74e289e07758c4e41413766", "fusion_lat": 0.0, "rental_uris": {"ios": "https://dc.lft.to/lastmile_qr_scan", "android": "https://dc.lft.to/lastmile_qr_scan"}, "lon": -77.02156716666667, "type": "electric_scooter"}, {"bike_id": "c003983ed280eb4c4762af7a3665922f", "is_reserved": 0, "fusion_lon": 0.0, "lat": 38.931192833333334, "is_disabled": 0, "name": "c003983ed280eb4c4762af7a3665922f", "fusion_lat": 0.0, "rental_uris": {"ios": "https://dc.lft.to/lastmile_qr_scan", "android": "https://dc.lft.to/lastmile_qr_scan"}, "lon": -77.020866, "type": "electric_scooter"}, {"bike_id": "a01c2562e55c4b87e60076026085592f", "is_reserved": 0, "fusion_lon": 0.0, "lat": 38.897612333333335, "is_disabled": 0, "name": "a01c2562e55c4b87e60076026085592f", "fusion_lat": 0.0, "rental_uris": {"ios": "https://dc.lft.to/lastmile_qr_scan", "android": "https://dc.lft.to/lastmile_qr_scan"}, "lon": -76.94186216666667, "type": "electric_scooter"}, {"bike_id": "da613adace5d3a0cdb75cb19b86cf1b6", "is_reserved": 0, "fusion_lon": 0.0, "lat": 38.89222633333333, "is_disabled": 0, "name": "da613adace5d3a0cdb75cb19b86cf1b6", "fusion_lat": 0.0, "rental_uris": {"ios": "https://dc.lft.to/lastmile_qr_scan", "android": "https://dc.lft.to/lastmile_qr_scan"}, "lon": -77.0486755, "type": "electric_scooter"}, {"bike_id": "6bd3578f1042644d1541ff5945f79d50", "is_reserved": 0, "fusion_lon": 0.0, "lat": 38.86522733333334, "is_disabled": 0, "name": "6bd3578f1042644d1541ff5945f79d50", "fusion_lat": 0.0, "rental_uris": {"ios": "https://dc.lft.to/lastmile_qr_scan", "android": "https://dc.lft.to/lastmile_qr_scan"}, "lon": -76.99032433333333, "type": "electric_scooter"}, {"bike_id": "cc11b3586791f67c1683e3571ed18986", "is_reserved": 0, "fusion_lon": 0.0, "lat": 38.89263966666667, "is_disabled": 0, "name": "cc11b3586791f67c1683e3571ed18986", "fusion_lat": 0.0, "rental_uris": {"ios": "https://dc.lft.to/lastmile_qr_scan", "android": "https://dc.lft.to/lastmile_qr_scan"}, "lon": -77.0258035, "type": "electric_scooter"}, {"bike_id": "ad0d98787b4d0605e30173c163c02146", "is_reserved": 0, "fusion_lon": 0.0, "lat": 38.897671, "is_disabled": 0, "name": "ad0d98787b4d0605e30173c163c02146", "fusion_lat": 0.0, "rental_uris": {"ios": "https://dc.lft.to/lastmile_qr_scan", "android": "https://dc.lft.to/lastmile_qr_scan"}, "lon": -77.04632716666667, "type": "electric_scooter"}, {"bike_id": "d99f119072fb12e02fbc8b88fa94e526", "is_reserved": 0, "fusion_lon": 0.0, "lat": 38.91610083333333, "is_disabled": 0, "name": "d99f119072fb12e02fbc8b88fa94e526", "fusion_lat": 0.0, "rental_uris": {"ios": "https://dc.lft.to/lastmile_qr_scan", "android": "https://dc.lft.to/lastmile_qr_scan"}, "lon": -77.04567266666666, "type": "electric_scooter"}, {"bike_id": "98c5d5aa53592378d9875ddcd5c70d9e", "is_reserved": 0, "fusion_lon": 0.0, "lat": 38.904791333333336, "is_disabled": 0, "name": "98c5d5aa53592378d9875ddcd5c70d9e", "fusion_lat": 0.0, "rental_uris": {"ios": "https://dc.lft.to/lastmile_qr_scan", "android": "https://dc.lft.to/lastmile_qr_scan"}, "lon": -77.04652616666667, "type": "electric_scooter"}, {"bike_id": "aabd7e70c3d4bd85b9b94e77eaa224ab", "is_reserved": 0, "fusion_lon": 0.0, "lat": 38.86183066666667, "is_disabled": 0, "name": "aabd7e70c3d4bd85b9b94e77eaa224ab", "fusion_lat": 0.0, "rental_uris": {"ios": "https://dc.lft.to/lastmile_qr_scan", "android": "https://dc.lft.to/lastmile_qr_scan"}, "lon": -76.99430816666667, "type": "electric_scooter"}, {"bike_id": "43431597ee2db59236baaf6c875b130f", "is_reserved": 0, "fusion_lon": 0.0, "lat": 38.939418833333335, "is_disabled": 0, "name": "43431597ee2db59236baaf6c875b130f", "fusion_lat": 0.0, "rental_uris": {"ios": "https://dc.lft.to/lastmile_qr_scan", "android": "https://dc.lft.to/lastmile_qr_scan"}, "lon": -77.06113683333334, "type": "electric_scooter"}, {"bike_id": "9a82411ab925005785049039cb70b73d", "is_reserved": 0, "fusion_lon": 0.0, "lat": 38.890401, "is_disabled": 0, "name": "9a82411ab925005785049039cb70b73d", "fusion_lat": 0.0, "rental_uris": {"ios": "https://dc.lft.to/lastmile_qr_scan", "android": "https://dc.lft.to/lastmile_qr_scan"}, "lon": -77.02661616666667, "type": "electric_scooter"}, {"bike_id": "84ae07c8654a1fca65d50d38c3b23347", "is_reserved": 0, "fusion_lon": 0.0, "lat": 38.9006175, "is_disabled": 0, "name": "84ae07c8654a1fca65d50d38c3b23347", "fusion_lat": 0.0, "rental_uris": {"ios": "https://dc.lft.to/lastmile_qr_scan", "android": "https://dc.lft.to/lastmile_qr_scan"}, "lon": -77.05057516666666, "type": "electric_scooter"}, {"bike_id": "01e08f07a993c75c211e3f85f19dc8b0", "is_reserved": 0, "fusion_lon": 0.0, "lat": 38.928918333333336, "is_disabled": 0, "name": "01e08f07a993c75c211e3f85f19dc8b0", "fusion_lat": 0.0, "rental_uris": {"ios": "https://dc.lft.to/lastmile_qr_scan", "android": "https://dc.lft.to/lastmile_qr_scan"}, "lon": -77.00517383333333, "type": "electric_scooter"}, {"bike_id": "c2d28275d68250f6ad37bfbf5d9d7f55", "is_reserved": 0, "fusion_lon": 0.0, "lat": 38.901492166666664, "is_disabled": 0, "name": "c2d28275d68250f6ad37bfbf5d9d7f55", "fusion_lat": 0.0, "rental_uris": {"ios": "https://dc.lft.to/lastmile_qr_scan", "android": "https://dc.lft.to/lastmile_qr_scan"}, "lon": -77.0418975, "type": "electric_scooter"}, {"bike_id": "912cc50678774a5f24d643689a08562b", "is_reserved": 0, "fusion_lon": 0.0, "lat": 38.92164316666667, "is_disabled": 0, "name": "912cc50678774a5f24d643689a08562b", "fusion_lat": 0.0, "rental_uris": {"ios": "https://dc.lft.to/lastmile_qr_scan", "android": "https://dc.lft.to/lastmile_qr_scan"}, "lon": -77.0468895, "type": "electric_scooter"}, {"bike_id": "6bd13a51c2e041612f9f4c88afa2c502", "is_reserved": 0, "fusion_lon": 0.0, "lat": 38.90442633333333, "is_disabled": 0, "name": "6bd13a51c2e041612f9f4c88afa2c502", "fusion_lat": 0.0, "rental_uris": {"ios": "https://dc.lft.to/lastmile_qr_scan", "android": "https://dc.lft.to/lastmile_qr_scan"}, "lon": -77.06107033333333, "type": "electric_scooter"}, {"bike_id": "f8cbc3a574dc0897c2dd8152b457ac2a", "is_reserved": 0, "fusion_lon": 0.0, "lat": 38.908779833333334, "is_disabled": 0, "name": "f8cbc3a574dc0897c2dd8152b457ac2a", "fusion_lat": 0.0, "rental_uris": {"ios": "https://dc.lft.to/lastmile_qr_scan", "android": "https://dc.lft.to/lastmile_qr_scan"}, "lon": -77.03296283333333, "type": "electric_scooter"}, {"bike_id": "152e3f8f868e4fdff7cc932e0bb6a773", "is_reserved": 0, "fusion_lon": 0.0, "lat": 38.9052355, "is_disabled": 0, "name": "152e3f8f868e4fdff7cc932e0bb6a773", "fusion_lat": 0.0, "rental_uris": {"ios": "https://dc.lft.to/lastmile_qr_scan", "android": "https://dc.lft.to/lastmile_qr_scan"}, "lon": -77.0653185, "type": "electric_scooter"}, {"bike_id": "504248956e6e4d6da1d8100a7b42d10d", "is_reserved": 0, "fusion_lon": 0.0, "lat": 38.84573666666667, "is_disabled": 0, "name": "504248956e6e4d6da1d8100a7b42d10d", "fusion_lat": 0.0, "rental_uris": {"ios": "https://dc.lft.to/lastmile_qr_scan", "android": "https://dc.lft.to/lastmile_qr_scan"}, "lon": -77.09624133333334, "type": "electric_bike"}, {"bike_id": "d7aec25d6a876454eb158953b9168eba", "is_reserved": 0, "fusion_lon": 0.0, "lat": 38.87120016666667, "is_disabled": 0, "name": "d7aec25d6a876454eb158953b9168eba", "fusion_lat": 0.0, "rental_uris": {"ios": "https://dc.lft.to/lastmile_qr_scan", "android": "https://dc.lft.to/lastmile_qr_scan"}, "lon": -77.01359616666667, "type": "electric_scooter"}, {"bike_id": "3380b21e772d4e5223c81cd340ee9768", "is_reserved": 0, "fusion_lon": 0.0, "lat": 38.898545666666664, "is_disabled": 0, "name": "3380b21e772d4e5223c81cd340ee9768", "fusion_lat": 0.0, "rental_uris": {"ios": "https://dc.lft.to/lastmile_qr_scan", "android": "https://dc.lft.to/lastmile_qr_scan"}, "lon": -77.029097, "type": "electric_scooter"}, {"bike_id": "487d8328fadd77b5651fc279f01a3382", "is_reserved": 0, "fusion_lon": 0.0, "lat": 38.9221155, "is_disabled": 0, "name": "487d8328fadd77b5651fc279f01a3382", "fusion_lat": 0.0, "rental_uris": {"ios": "https://dc.lft.to/lastmile_qr_scan", "android": "https://dc.lft.to/lastmile_qr_scan"}, "lon": -77.08198966666667, "type": "electric_bike"}, {"bike_id": "08625482a2ac217a6534a74fa3da18c5", "is_reserved": 0, "fusion_lon": 0.0, "lat": 38.915661, "is_disabled": 0, "name": "08625482a2ac217a6534a74fa3da18c5", "fusion_lat": 0.0, "rental_uris": {"ios": "https://dc.lft.to/lastmile_qr_scan", "android": "https://dc.lft.to/lastmile_qr_scan"}, "lon": -77.0337395, "type": "electric_scooter"}, {"bike_id": "a9413bbce881778a44033b7c66473428", "is_reserved": 0, "fusion_lon": 0.0, "lat": 38.914767, "is_disabled": 0, "name": "a9413bbce881778a44033b7c66473428", "fusion_lat": 0.0, "rental_uris": {"ios": "https://dc.lft.to/lastmile_qr_scan", "android": "https://dc.lft.to/lastmile_qr_scan"}, "lon": -77.0320495, "type": "electric_scooter"}, {"bike_id": "4443f9a80d507ca2676dbfdc12e9c9b6", "is_reserved": 0, "fusion_lon": 0.0, "lat": 38.903789333333336, "is_disabled": 0, "name": "4443f9a80d507ca2676dbfdc12e9c9b6", "fusion_lat": 0.0, "rental_uris": {"ios": "https://dc.lft.to/lastmile_qr_scan", "android": "https://dc.lft.to/lastmile_qr_scan"}, "lon": -77.04528166666667, "type": "electric_scooter"}, {"bike_id": "e073d1e174cfd74aa46206b5be551c3a", "is_reserved": 0, "fusion_lon": 0.0, "lat": 38.902790333333336, "is_disabled": 0, "name": "e073d1e174cfd74aa46206b5be551c3a", "fusion_lat": 0.0, "rental_uris": {"ios": "https://dc.lft.to/lastmile_qr_scan", "android": "https://dc.lft.to/lastmile_qr_scan"}, "lon": -77.0383735, "type": "electric_scooter"}, {"bike_id": "de192e8eeaf3bf692c3142f9ef3975ad", "is_reserved": 0, "fusion_lon": 0.0, "lat": 38.928841166666665, "is_disabled": 0, "name": "de192e8eeaf3bf692c3142f9ef3975ad", "fusion_lat": 0.0, "rental_uris": {"ios": "https://dc.lft.to/lastmile_qr_scan", "android": "https://dc.lft.to/lastmile_qr_scan"}, "lon": -77.03329916666667, "type": "electric_scooter"}, {"bike_id": "532216707f0975098aa15498cd989fe5", "is_reserved": 0, "fusion_lon": 0.0, "lat": 38.90629533333333, "is_disabled": 0, "name": "532216707f0975098aa15498cd989fe5", "fusion_lat": 0.0, "rental_uris": {"ios": "https://dc.lft.to/lastmile_qr_scan", "android": "https://dc.lft.to/lastmile_qr_scan"}, "lon": -77.00899433333333, "type": "electric_scooter"}, {"bike_id": "6e24672f0371a8498b0850b12ec2385f", "is_reserved": 0, "fusion_lon": 0.0, "lat": 38.902463833333336, "is_disabled": 0, "name": "6e24672f0371a8498b0850b12ec2385f", "fusion_lat": 0.0, "rental_uris": {"ios": "https://dc.lft.to/lastmile_qr_scan", "android": "https://dc.lft.to/lastmile_qr_scan"}, "lon": -77.03959483333334, "type": "electric_scooter"}, {"bike_id": "1a587a7eb7541759bda9d85bb7a34347", "is_reserved": 0, "fusion_lon": 0.0, "lat": 38.89005816666667, "is_disabled": 0, "name": "1a587a7eb7541759bda9d85bb7a34347", "fusion_lat": 0.0, "rental_uris": {"ios": "https://dc.lft.to/lastmile_qr_scan", "android": "https://dc.lft.to/lastmile_qr_scan"}, "lon": -76.93742833333333, "type": "electric_scooter"}, {"bike_id": "d44df63a428ac4db92a5e0d8df1ba7d5", "is_reserved": 0, "fusion_lon": 0.0, "lat": 38.845901166666664, "is_disabled": 0, "name": "d44df63a428ac4db92a5e0d8df1ba7d5", "fusion_lat": 0.0, "rental_uris": {"ios": "https://dc.lft.to/lastmile_qr_scan", "android": "https://dc.lft.to/lastmile_qr_scan"}, "lon": -76.98163016666666, "type": "electric_scooter"}, {"bike_id": "485e8a06a5be289e414f8580db52b89b", "is_reserved": 0, "fusion_lon": 0.0, "lat": 38.918292, "is_disabled": 0, "name": "485e8a06a5be289e414f8580db52b89b", "fusion_lat": 0.0, "rental_uris": {"ios": "https://dc.lft.to/lastmile_qr_scan", "android": "https://dc.lft.to/lastmile_qr_scan"}, "lon": -77.03534383333333, "type": "electric_scooter"}, {"bike_id": "45b2a3d4f345e78737b3aee1b1b23454", "is_reserved": 0, "fusion_lon": 0.0, "lat": 38.9351325, "is_disabled": 0, "name": "45b2a3d4f345e78737b3aee1b1b23454", "fusion_lat": 0.0, "rental_uris": {"ios": "https://dc.lft.to/lastmile_qr_scan", "android": "https://dc.lft.to/lastmile_qr_scan"}, "lon": -77.03300233333333, "type": "electric_scooter"}, {"bike_id": "9cb6ca5461aa18c308c6625801aa445b", "is_reserved": 0, "fusion_lon": 0.0, "lat": 38.88676483333333, "is_disabled": 0, "name": "9cb6ca5461aa18c308c6625801aa445b", "fusion_lat": 0.0, "rental_uris": {"ios": "https://dc.lft.to/lastmile_qr_scan", "android": "https://dc.lft.to/lastmile_qr_scan"}, "lon": -77.01365733333333, "type": "electric_scooter"}, {"bike_id": "58c22ea8d3f861aebc06a1919adf1352", "is_reserved": 0, "fusion_lon": 0.0, "lat": 38.9199545, "is_disabled": 0, "name": "58c22ea8d3f861aebc06a1919adf1352", "fusion_lat": 0.0, "rental_uris": {"ios": "https://dc.lft.to/lastmile_qr_scan", "android": "https://dc.lft.to/lastmile_qr_scan"}, "lon": -77.03233316666666, "type": "electric_scooter"}, {"bike_id": "194d3707195d6f9bd2cf0fdfd6f2d3ac", "is_reserved": 0, "fusion_lon": 0.0, "lat": 38.924033, "is_disabled": 0, "name": "194d3707195d6f9bd2cf0fdfd6f2d3ac", "fusion_lat": 0.0, "rental_uris": {"ios": "https://dc.lft.to/lastmile_qr_scan", "android": "https://dc.lft.to/lastmile_qr_scan"}, "lon": -77.01957716666666, "type": "electric_scooter"}, {"bike_id": "617b551d646e9a4d04b612bcb83e905a", "is_reserved": 0, "fusion_lon": 0.0, "lat": 38.8849695, "is_disabled": 0, "name": "617b551d646e9a4d04b612bcb83e905a", "fusion_lat": 0.0, "rental_uris": {"ios": "https://dc.lft.to/lastmile_qr_scan", "android": "https://dc.lft.to/lastmile_qr_scan"}, "lon": -77.00726416666667, "type": "electric_scooter"}, {"bike_id": "8e05422a8086abc911ff69ceb3079573", "is_reserved": 0, "fusion_lon": 0.0, "lat": 38.91958416666667, "is_disabled": 0, "name": "8e05422a8086abc911ff69ceb3079573", "fusion_lat": 0.0, "rental_uris": {"ios": "https://dc.lft.to/lastmile_qr_scan", "android": "https://dc.lft.to/lastmile_qr_scan"}, "lon": -77.02491083333334, "type": "electric_scooter"}, {"bike_id": "29db2237ae78400a8302ecd5d5becc1e", "is_reserved": 0, "fusion_lon": 0.0, "lat": 38.897251, "is_disabled": 0, "name": "29db2237ae78400a8302ecd5d5becc1e", "fusion_lat": 0.0, "rental_uris": {"ios": "https://dc.lft.to/lastmile_qr_scan", "android": "https://dc.lft.to/lastmile_qr_scan"}, "lon": -77.027464, "type": "electric_scooter"}, {"bike_id": "449cab060ad88fc6c2683ac6012e6f57", "is_reserved": 0, "fusion_lon": 0.0, "lat": 38.90481066666667, "is_disabled": 0, "name": "449cab060ad88fc6c2683ac6012e6f57", "fusion_lat": 0.0, "rental_uris": {"ios": "https://dc.lft.to/lastmile_qr_scan", "android": "https://dc.lft.to/lastmile_qr_scan"}, "lon": -77.03960133333334, "type": "electric_scooter"}, {"bike_id": "07d9e6b4e8b17268d63093bb28ff782f", "is_reserved": 0, "fusion_lon": 0.0, "lat": 38.9027855, "is_disabled": 0, "name": "07d9e6b4e8b17268d63093bb28ff782f", "fusion_lat": 0.0, "rental_uris": {"ios": "https://dc.lft.to/lastmile_qr_scan", "android": "https://dc.lft.to/lastmile_qr_scan"}, "lon": -77.0336015, "type": "electric_scooter"}, {"bike_id": "f67723c91af290bc06038c277e8876b7", "is_reserved": 0, "fusion_lon": 0.0, "lat": 38.911923, "is_disabled": 0, "name": "f67723c91af290bc06038c277e8876b7", "fusion_lat": 0.0, "rental_uris": {"ios": "https://dc.lft.to/lastmile_qr_scan", "android": "https://dc.lft.to/lastmile_qr_scan"}, "lon": -77.0608835, "type": "electric_scooter"}, {"bike_id": "ee8ca9d15ee39772c669601f57533684", "is_reserved": 0, "fusion_lon": 0.0, "lat": 38.902426166666665, "is_disabled": 0, "name": "ee8ca9d15ee39772c669601f57533684", "fusion_lat": 0.0, "rental_uris": {"ios": "https://dc.lft.to/lastmile_qr_scan", "android": "https://dc.lft.to/lastmile_qr_scan"}, "lon": -77.02692033333334, "type": "electric_scooter"}, {"bike_id": "165b174450caac0305f518bec2c5528d", "is_reserved": 0, "fusion_lon": 0.0, "lat": 38.896296666666665, "is_disabled": 0, "name": "165b174450caac0305f518bec2c5528d", "fusion_lat": 0.0, "rental_uris": {"ios": "https://dc.lft.to/lastmile_qr_scan", "android": "https://dc.lft.to/lastmile_qr_scan"}, "lon": -76.98501516666667, "type": "electric_scooter"}, {"bike_id": "0cab7813ad4378687ed6a8c05df3356c", "is_reserved": 0, "fusion_lon": 0.0, "lat": 38.844273666666666, "is_disabled": 0, "name": "0cab7813ad4378687ed6a8c05df3356c", "fusion_lat": 0.0, "rental_uris": {"ios": "https://dc.lft.to/lastmile_qr_scan", "android": "https://dc.lft.to/lastmile_qr_scan"}, "lon": -76.9978195, "type": "electric_scooter"}, {"bike_id": "0aaff78d53a2377bf4855ba94544834a", "is_reserved": 0, "fusion_lon": 0.0, "lat": 38.903904, "is_disabled": 0, "name": "0aaff78d53a2377bf4855ba94544834a", "fusion_lat": 0.0, "rental_uris": {"ios": "https://dc.lft.to/lastmile_qr_scan", "android": "https://dc.lft.to/lastmile_qr_scan"}, "lon": -77.04381633333334, "type": "electric_scooter"}, {"bike_id": "3818cc1235747569af199851ece89b06", "is_reserved": 0, "fusion_lon": 0.0, "lat": 38.903972833333334, "is_disabled": 0, "name": "3818cc1235747569af199851ece89b06", "fusion_lat": 0.0, "rental_uris": {"ios": "https://dc.lft.to/lastmile_qr_scan", "android": "https://dc.lft.to/lastmile_qr_scan"}, "lon": -77.04203116666666, "type": "electric_scooter"}, {"bike_id": "6fe9deb7d8799dc34def4a5aafc848b0", "is_reserved": 0, "fusion_lon": 0.0, "lat": 38.90574766666667, "is_disabled": 0, "name": "6fe9deb7d8799dc34def4a5aafc848b0", "fusion_lat": 0.0, "rental_uris": {"ios": "https://dc.lft.to/lastmile_qr_scan", "android": "https://dc.lft.to/lastmile_qr_scan"}, "lon": -77.03627033333333, "type": "electric_scooter"}, {"bike_id": "1d8520ba4b18368996f6aaaee9a0b60b", "is_reserved": 0, "fusion_lon": 0.0, "lat": 38.895511666666664, "is_disabled": 0, "name": "1d8520ba4b18368996f6aaaee9a0b60b", "fusion_lat": 0.0, "rental_uris": {"ios": "https://dc.lft.to/lastmile_qr_scan", "android": "https://dc.lft.to/lastmile_qr_scan"}, "lon": -77.0188685, "type": "electric_scooter"}, {"bike_id": "203e81eed2e6a13df8e88382f296bd15", "is_reserved": 0, "fusion_lon": 0.0, "lat": 38.90142133333333, "is_disabled": 0, "name": "203e81eed2e6a13df8e88382f296bd15", "fusion_lat": 0.0, "rental_uris": {"ios": "https://dc.lft.to/lastmile_qr_scan", "android": "https://dc.lft.to/lastmile_qr_scan"}, "lon": -76.9785015, "type": "electric_bike"}, {"bike_id": "84695cab36cc276d5713f0ce92c288a6", "is_reserved": 0, "fusion_lon": 0.0, "lat": 38.92808933333333, "is_disabled": 0, "name": "84695cab36cc276d5713f0ce92c288a6", "fusion_lat": 0.0, "rental_uris": {"ios": "https://dc.lft.to/lastmile_qr_scan", "android": "https://dc.lft.to/lastmile_qr_scan"}, "lon": -77.01394383333333, "type": "electric_scooter"}, {"bike_id": "2932e8c4aa0de5e98736f86fa1b18029", "is_reserved": 0, "fusion_lon": 0.0, "lat": 38.95956733333333, "is_disabled": 0, "name": "2932e8c4aa0de5e98736f86fa1b18029", "fusion_lat": 0.0, "rental_uris": {"ios": "https://dc.lft.to/lastmile_qr_scan", "android": "https://dc.lft.to/lastmile_qr_scan"}, "lon": -77.10089766666667, "type": "electric_bike"}, {"bike_id": "0721a9a329b688a72cd381b2a10cfa38", "is_reserved": 0, "fusion_lon": 0.0, "lat": 38.871819333333335, "is_disabled": 0, "name": "0721a9a329b688a72cd381b2a10cfa38", "fusion_lat": 0.0, "rental_uris": {"ios": "https://dc.lft.to/lastmile_qr_scan", "android": "https://dc.lft.to/lastmile_qr_scan"}, "lon": -77.006098, "type": "electric_scooter"}, {"bike_id": "c15b5f0d3a91a93e64d4f024c0034619", "is_reserved": 0, "fusion_lon": 0.0, "lat": 38.904105666666666, "is_disabled": 0, "name": "c15b5f0d3a91a93e64d4f024c0034619", "fusion_lat": 0.0, "rental_uris": {"ios": "https://dc.lft.to/lastmile_qr_scan", "android": "https://dc.lft.to/lastmile_qr_scan"}, "lon": -77.04002083333333, "type": "electric_scooter"}, {"bike_id": "4390402385d570e801f5eea257d70bd1", "is_reserved": 0, "fusion_lon": 0.0, "lat": 38.904240333333334, "is_disabled": 0, "name": "4390402385d570e801f5eea257d70bd1", "fusion_lat": 0.0, "rental_uris": {"ios": "https://dc.lft.to/lastmile_qr_scan", "android": "https://dc.lft.to/lastmile_qr_scan"}, "lon": -77.04651116666666, "type": "electric_scooter"}, {"bike_id": "6eef06a0b058ea3361325903e73cd12c", "is_reserved": 0, "fusion_lon": 0.0, "lat": 38.90188716666667, "is_disabled": 0, "name": "6eef06a0b058ea3361325903e73cd12c", "fusion_lat": 0.0, "rental_uris": {"ios": "https://dc.lft.to/lastmile_qr_scan", "android": "https://dc.lft.to/lastmile_qr_scan"}, "lon": -77.03891233333333, "type": "electric_scooter"}, {"bike_id": "00f2a7555be6d2eccca3bf04401dd517", "is_reserved": 0, "fusion_lon": 0.0, "lat": 38.90786133333334, "is_disabled": 0, "name": "00f2a7555be6d2eccca3bf04401dd517", "fusion_lat": 0.0, "rental_uris": {"ios": "https://dc.lft.to/lastmile_qr_scan", "android": "https://dc.lft.to/lastmile_qr_scan"}, "lon": -77.011113, "type": "electric_scooter"}, {"bike_id": "2d8d313e722493c2a55247f4453d2512", "is_reserved": 0, "fusion_lon": 0.0, "lat": 38.9244785, "is_disabled": 0, "name": "2d8d313e722493c2a55247f4453d2512", "fusion_lat": 0.0, "rental_uris": {"ios": "https://dc.lft.to/lastmile_qr_scan", "android": "https://dc.lft.to/lastmile_qr_scan"}, "lon": -77.0338725, "type": "electric_scooter"}, {"bike_id": "c78e5277dd516accabd7463d649c8ec3", "is_reserved": 0, "fusion_lon": 0.0, "lat": 38.904901833333334, "is_disabled": 0, "name": "c78e5277dd516accabd7463d649c8ec3", "fusion_lat": 0.0, "rental_uris": {"ios": "https://dc.lft.to/lastmile_qr_scan", "android": "https://dc.lft.to/lastmile_qr_scan"}, "lon": -77.06005033333334, "type": "electric_scooter"}, {"bike_id": "86e8cc4d4ea998f13647a3d412049ce6", "is_reserved": 0, "fusion_lon": 0.0, "lat": 38.92382666666666, "is_disabled": 0, "name": "86e8cc4d4ea998f13647a3d412049ce6", "fusion_lat": 0.0, "rental_uris": {"ios": "https://dc.lft.to/lastmile_qr_scan", "android": "https://dc.lft.to/lastmile_qr_scan"}, "lon": -77.02754266666666, "type": "electric_scooter"}, {"bike_id": "7b99d21b90e8835aecaaaff7ded9cc75", "is_reserved": 0, "fusion_lon": 0.0, "lat": 38.89526433333333, "is_disabled": 0, "name": "7b99d21b90e8835aecaaaff7ded9cc75", "fusion_lat": 0.0, "rental_uris": {"ios": "https://dc.lft.to/lastmile_qr_scan", "android": "https://dc.lft.to/lastmile_qr_scan"}, "lon": -77.02942816666666, "type": "electric_scooter"}, {"bike_id": "f3f02e715045408d00510d83b55b8b98", "is_reserved": 0, "fusion_lon": 0.0, "lat": 38.910048, "is_disabled": 0, "name": "f3f02e715045408d00510d83b55b8b98", "fusion_lat": 0.0, "rental_uris": {"ios": "https://dc.lft.to/lastmile_qr_scan", "android": "https://dc.lft.to/lastmile_qr_scan"}, "lon": -77.02102333333333, "type": "electric_scooter"}, {"bike_id": "aca5cafb57ce9e7f79b8c1e9959a8a63", "is_reserved": 0, "fusion_lon": 0.0, "lat": 38.8747955, "is_disabled": 0, "name": "aca5cafb57ce9e7f79b8c1e9959a8a63", "fusion_lat": 0.0, "rental_uris": {"ios": "https://dc.lft.to/lastmile_qr_scan", "android": "https://dc.lft.to/lastmile_qr_scan"}, "lon": -76.9652545, "type": "electric_bike"}, {"bike_id": "4623cb7b8a03b066bcb86b4aa1cc4155", "is_reserved": 0, "fusion_lon": 0.0, "lat": 38.923868, "is_disabled": 0, "name": "4623cb7b8a03b066bcb86b4aa1cc4155", "fusion_lat": 0.0, "rental_uris": {"ios": "https://dc.lft.to/lastmile_qr_scan", "android": "https://dc.lft.to/lastmile_qr_scan"}, "lon": -77.03539, "type": "electric_scooter"}, {"bike_id": "01d24ffd5b952c5cf4362208ec7b5a2c", "is_reserved": 0, "fusion_lon": 0.0, "lat": 38.964713833333334, "is_disabled": 0, "name": "01d24ffd5b952c5cf4362208ec7b5a2c", "fusion_lat": 0.0, "rental_uris": {"ios": "https://dc.lft.to/lastmile_qr_scan", "android": "https://dc.lft.to/lastmile_qr_scan"}, "lon": -77.035586, "type": "electric_bike"}, {"bike_id": "58edf150bbc7bb64e463293c17c11734", "is_reserved": 0, "fusion_lon": 0.0, "lat": 38.916845, "is_disabled": 0, "name": "58edf150bbc7bb64e463293c17c11734", "fusion_lat": 0.0, "rental_uris": {"ios": "https://dc.lft.to/lastmile_qr_scan", "android": "https://dc.lft.to/lastmile_qr_scan"}, "lon": -77.034836, "type": "electric_scooter"}, {"bike_id": "acca7bdaa220b64b194c78b59b9b7ae5", "is_reserved": 0, "fusion_lon": 0.0, "lat": 38.95927616666667, "is_disabled": 0, "name": "acca7bdaa220b64b194c78b59b9b7ae5", "fusion_lat": 0.0, "rental_uris": {"ios": "https://dc.lft.to/lastmile_qr_scan", "android": "https://dc.lft.to/lastmile_qr_scan"}, "lon": -77.031212, "type": "electric_bike"}, {"bike_id": "1f1b51a845893aba4ffb37712a0c7a38", "is_reserved": 0, "fusion_lon": 0.0, "lat": 38.8973665, "is_disabled": 0, "name": "1f1b51a845893aba4ffb37712a0c7a38", "fusion_lat": 0.0, "rental_uris": {"ios": "https://dc.lft.to/lastmile_qr_scan", "android": "https://dc.lft.to/lastmile_qr_scan"}, "lon": -76.94716833333334, "type": "electric_scooter"}, {"bike_id": "630f1ef2a1085482b8b64eaedf7428f0", "is_reserved": 0, "fusion_lon": 0.0, "lat": 38.90336666666666, "is_disabled": 0, "name": "630f1ef2a1085482b8b64eaedf7428f0", "fusion_lat": 0.0, "rental_uris": {"ios": "https://dc.lft.to/lastmile_qr_scan", "android": "https://dc.lft.to/lastmile_qr_scan"}, "lon": -77.065931, "type": "electric_scooter"}, {"bike_id": "bbaea23ab66c3fede15f85f035c62ad3", "is_reserved": 0, "fusion_lon": 0.0, "lat": 38.89839466666667, "is_disabled": 0, "name": "bbaea23ab66c3fede15f85f035c62ad3", "fusion_lat": 0.0, "rental_uris": {"ios": "https://dc.lft.to/lastmile_qr_scan", "android": "https://dc.lft.to/lastmile_qr_scan"}, "lon": -77.03310166666667, "type": "electric_scooter"}, {"bike_id": "9f11875e41c33da46832ce6e30d0e6b8", "is_reserved": 0, "fusion_lon": 0.0, "lat": 38.915750333333335, "is_disabled": 0, "name": "9f11875e41c33da46832ce6e30d0e6b8", "fusion_lat": 0.0, "rental_uris": {"ios": "https://dc.lft.to/lastmile_qr_scan", "android": "https://dc.lft.to/lastmile_qr_scan"}, "lon": -77.04604, "type": "electric_scooter"}, {"bike_id": "c4503abb1dc1125bf5baa1c350446a3d", "is_reserved": 0, "fusion_lon": 0.0, "lat": 38.920244, "is_disabled": 0, "name": "c4503abb1dc1125bf5baa1c350446a3d", "fusion_lat": 0.0, "rental_uris": {"ios": "https://dc.lft.to/lastmile_qr_scan", "android": "https://dc.lft.to/lastmile_qr_scan"}, "lon": -77.03970166666667, "type": "electric_scooter"}, {"bike_id": "c725d8fdc4ba049b1673aac3c3c43ca2", "is_reserved": 0, "fusion_lon": 0.0, "lat": 38.842938333333336, "is_disabled": 0, "name": "c725d8fdc4ba049b1673aac3c3c43ca2", "fusion_lat": 0.0, "rental_uris": {"ios": "https://dc.lft.to/lastmile_qr_scan", "android": "https://dc.lft.to/lastmile_qr_scan"}, "lon": -76.999504, "type": "electric_scooter"}, {"bike_id": "c391a4b3518df2256191578b1ed90f2d", "is_reserved": 0, "fusion_lon": 0.0, "lat": 38.8998525, "is_disabled": 0, "name": "c391a4b3518df2256191578b1ed90f2d", "fusion_lat": 0.0, "rental_uris": {"ios": "https://dc.lft.to/lastmile_qr_scan", "android": "https://dc.lft.to/lastmile_qr_scan"}, "lon": -77.0464915, "type": "electric_bike"}, {"bike_id": "d27340f3f76394cc1fcfca93c8aab54d", "is_reserved": 0, "fusion_lon": 0.0, "lat": 38.937211, "is_disabled": 0, "name": "d27340f3f76394cc1fcfca93c8aab54d", "fusion_lat": 0.0, "rental_uris": {"ios": "https://dc.lft.to/lastmile_qr_scan", "android": "https://dc.lft.to/lastmile_qr_scan"}, "lon": -77.03258333333333, "type": "electric_scooter"}, {"bike_id": "466e14c54e57dd3f3bd0aa853569cd34", "is_reserved": 0, "fusion_lon": 0.0, "lat": 38.863457, "is_disabled": 0, "name": "466e14c54e57dd3f3bd0aa853569cd34", "fusion_lat": 0.0, "rental_uris": {"ios": "https://dc.lft.to/lastmile_qr_scan", "android": "https://dc.lft.to/lastmile_qr_scan"}, "lon": -76.99003416666666, "type": "electric_scooter"}, {"bike_id": "48e4fb6b267f265b08436be303b186d7", "is_reserved": 0, "fusion_lon": 0.0, "lat": 38.93075116666667, "is_disabled": 0, "name": "48e4fb6b267f265b08436be303b186d7", "fusion_lat": 0.0, "rental_uris": {"ios": "https://dc.lft.to/lastmile_qr_scan", "android": "https://dc.lft.to/lastmile_qr_scan"}, "lon": -77.0319955, "type": "electric_scooter"}, {"bike_id": "8127363b932fc9a22c7e194d01e059b9", "is_reserved": 0, "fusion_lon": 0.0, "lat": 38.95562133333333, "is_disabled": 0, "name": "8127363b932fc9a22c7e194d01e059b9", "fusion_lat": 0.0, "rental_uris": {"ios": "https://dc.lft.to/lastmile_qr_scan", "android": "https://dc.lft.to/lastmile_qr_scan"}, "lon": -76.935491, "type": "electric_bike"}, {"bike_id": "f44b95e3bf32c6d47a95b25cce4d0fd8", "is_reserved": 0, "fusion_lon": 0.0, "lat": 38.887457166666664, "is_disabled": 0, "name": "f44b95e3bf32c6d47a95b25cce4d0fd8", "fusion_lat": 0.0, "rental_uris": {"ios": "https://dc.lft.to/lastmile_qr_scan", "android": "https://dc.lft.to/lastmile_qr_scan"}, "lon": -77.02572283333333, "type": "electric_scooter"}, {"bike_id": "76da0751645b5dd82e582db6a74ee673", "is_reserved": 0, "fusion_lon": 0.0, "lat": 39.01596883333333, "is_disabled": 0, "name": "76da0751645b5dd82e582db6a74ee673", "fusion_lat": 0.0, "rental_uris": {"ios": "https://dc.lft.to/lastmile_qr_scan", "android": "https://dc.lft.to/lastmile_qr_scan"}, "lon": -77.04424716666666, "type": "electric_bike"}, {"bike_id": "25d09f3c6b058b3f7b709d6f9c99128b", "is_reserved": 0, "fusion_lon": 0.0, "lat": 38.8818535, "is_disabled": 0, "name": "25d09f3c6b058b3f7b709d6f9c99128b", "fusion_lat": 0.0, "rental_uris": {"ios": "https://dc.lft.to/lastmile_qr_scan", "android": "https://dc.lft.to/lastmile_qr_scan"}, "lon": -77.0357195, "type": "electric_scooter"}, {"bike_id": "5f0642b1f2f3159eba3ade62e24924b0", "is_reserved": 0, "fusion_lon": 0.0, "lat": 38.9066435, "is_disabled": 0, "name": "5f0642b1f2f3159eba3ade62e24924b0", "fusion_lat": 0.0, "rental_uris": {"ios": "https://dc.lft.to/lastmile_qr_scan", "android": "https://dc.lft.to/lastmile_qr_scan"}, "lon": -77.038528, "type": "electric_scooter"}, {"bike_id": "0765ab4cad9625c58429b87bbc80cf80", "is_reserved": 0, "fusion_lon": 0.0, "lat": 38.92061966666667, "is_disabled": 0, "name": "0765ab4cad9625c58429b87bbc80cf80", "fusion_lat": 0.0, "rental_uris": {"ios": "https://dc.lft.to/lastmile_qr_scan", "android": "https://dc.lft.to/lastmile_qr_scan"}, "lon": -77.03465583333333, "type": "electric_scooter"}, {"bike_id": "691ae1988e9e5f4be4c832bff50327db", "is_reserved": 0, "fusion_lon": 0.0, "lat": 38.87500766666667, "is_disabled": 0, "name": "691ae1988e9e5f4be4c832bff50327db", "fusion_lat": 0.0, "rental_uris": {"ios": "https://dc.lft.to/lastmile_qr_scan", "android": "https://dc.lft.to/lastmile_qr_scan"}, "lon": -77.02585316666666, "type": "electric_bike"}, {"bike_id": "1446a819cb7c77fa4fac23dae797b0e7", "is_reserved": 0, "fusion_lon": 0.0, "lat": 38.9053105, "is_disabled": 0, "name": "1446a819cb7c77fa4fac23dae797b0e7", "fusion_lat": 0.0, "rental_uris": {"ios": "https://dc.lft.to/lastmile_qr_scan", "android": "https://dc.lft.to/lastmile_qr_scan"}, "lon": -76.99840383333333, "type": "electric_bike"}, {"bike_id": "cb4558d605ede36a697ad6681b573ab8", "is_reserved": 0, "fusion_lon": 0.0, "lat": 38.9224185, "is_disabled": 0, "name": "cb4558d605ede36a697ad6681b573ab8", "fusion_lat": 0.0, "rental_uris": {"ios": "https://dc.lft.to/lastmile_qr_scan", "android": "https://dc.lft.to/lastmile_qr_scan"}, "lon": -77.03076816666666, "type": "electric_scooter"}, {"bike_id": "905b04c6d008d61fe0c6e636f6a71c0b", "is_reserved": 0, "fusion_lon": 0.0, "lat": 38.93890483333333, "is_disabled": 0, "name": "905b04c6d008d61fe0c6e636f6a71c0b", "fusion_lat": 0.0, "rental_uris": {"ios": "https://dc.lft.to/lastmile_qr_scan", "android": "https://dc.lft.to/lastmile_qr_scan"}, "lon": -77.0296055, "type": "electric_scooter"}, {"bike_id": "a088146d95d58215e331f07e7ec212dc", "is_reserved": 0, "fusion_lon": 0.0, "lat": 38.90662016666667, "is_disabled": 0, "name": "a088146d95d58215e331f07e7ec212dc", "fusion_lat": 0.0, "rental_uris": {"ios": "https://dc.lft.to/lastmile_qr_scan", "android": "https://dc.lft.to/lastmile_qr_scan"}, "lon": -77.03857966666666, "type": "electric_scooter"}, {"bike_id": "17f247709f72cc32204bd06942ef22aa", "is_reserved": 0, "fusion_lon": 0.0, "lat": 38.9225015, "is_disabled": 0, "name": "17f247709f72cc32204bd06942ef22aa", "fusion_lat": 0.0, "rental_uris": {"ios": "https://dc.lft.to/lastmile_qr_scan", "android": "https://dc.lft.to/lastmile_qr_scan"}, "lon": -77.04203083333333, "type": "electric_scooter"}, {"bike_id": "28457567219c0ae14455a45990e0935f", "is_reserved": 0, "fusion_lon": 0.0, "lat": 38.908482666666664, "is_disabled": 0, "name": "28457567219c0ae14455a45990e0935f", "fusion_lat": 0.0, "rental_uris": {"ios": "https://dc.lft.to/lastmile_qr_scan", "android": "https://dc.lft.to/lastmile_qr_scan"}, "lon": -77.042696, "type": "electric_scooter"}, {"bike_id": "4350fc608930207016296f08509a7ffc", "is_reserved": 0, "fusion_lon": 0.0, "lat": 38.90101766666667, "is_disabled": 0, "name": "4350fc608930207016296f08509a7ffc", "fusion_lat": 0.0, "rental_uris": {"ios": "https://dc.lft.to/lastmile_qr_scan", "android": "https://dc.lft.to/lastmile_qr_scan"}, "lon": -77.047712, "type": "electric_scooter"}, {"bike_id": "4a392e96c67e7328e5db42684dddf7aa", "is_reserved": 0, "fusion_lon": 0.0, "lat": 38.91015016666667, "is_disabled": 0, "name": "4a392e96c67e7328e5db42684dddf7aa", "fusion_lat": 0.0, "rental_uris": {"ios": "https://dc.lft.to/lastmile_qr_scan", "android": "https://dc.lft.to/lastmile_qr_scan"}, "lon": -76.99389983333333, "type": "electric_scooter"}, {"bike_id": "9b6265b576f956c712a190aca39e2e7c", "is_reserved": 0, "fusion_lon": 0.0, "lat": 38.9236785, "is_disabled": 0, "name": "9b6265b576f956c712a190aca39e2e7c", "fusion_lat": 0.0, "rental_uris": {"ios": "https://dc.lft.to/lastmile_qr_scan", "android": "https://dc.lft.to/lastmile_qr_scan"}, "lon": -77.0513025, "type": "electric_scooter"}, {"bike_id": "1f000accd40dad22e20dd984529dd0cf", "is_reserved": 0, "fusion_lon": 0.0, "lat": 38.861070833333336, "is_disabled": 0, "name": "1f000accd40dad22e20dd984529dd0cf", "fusion_lat": 0.0, "rental_uris": {"ios": "https://dc.lft.to/lastmile_qr_scan", "android": "https://dc.lft.to/lastmile_qr_scan"}, "lon": -76.983663, "type": "electric_scooter"}, {"bike_id": "3aa172a8f1aa13b1ced9acac6e11f02f", "is_reserved": 0, "fusion_lon": 0.0, "lat": 38.88149766666667, "is_disabled": 0, "name": "3aa172a8f1aa13b1ced9acac6e11f02f", "fusion_lat": 0.0, "rental_uris": {"ios": "https://dc.lft.to/lastmile_qr_scan", "android": "https://dc.lft.to/lastmile_qr_scan"}, "lon": -77.02744766666666, "type": "electric_scooter"}, {"bike_id": "e36e44b355d0c39f12ad3caeb7ea7968", "is_reserved": 0, "fusion_lon": 0.0, "lat": 38.905698, "is_disabled": 0, "name": "e36e44b355d0c39f12ad3caeb7ea7968", "fusion_lat": 0.0, "rental_uris": {"ios": "https://dc.lft.to/lastmile_qr_scan", "android": "https://dc.lft.to/lastmile_qr_scan"}, "lon": -77.06274966666666, "type": "electric_scooter"}, {"bike_id": "833d25cdef95458ef4f8c3abcaedbc7a", "is_reserved": 0, "fusion_lon": 0.0, "lat": 38.923409666666664, "is_disabled": 0, "name": "833d25cdef95458ef4f8c3abcaedbc7a", "fusion_lat": 0.0, "rental_uris": {"ios": "https://dc.lft.to/lastmile_qr_scan", "android": "https://dc.lft.to/lastmile_qr_scan"}, "lon": -77.01906916666667, "type": "electric_scooter"}, {"bike_id": "5112bd88a9e45a2d6b943ddbba16656a", "is_reserved": 0, "fusion_lon": 0.0, "lat": 38.89798616666667, "is_disabled": 0, "name": "5112bd88a9e45a2d6b943ddbba16656a", "fusion_lat": 0.0, "rental_uris": {"ios": "https://dc.lft.to/lastmile_qr_scan", "android": "https://dc.lft.to/lastmile_qr_scan"}, "lon": -77.0316965, "type": "electric_scooter"}, {"bike_id": "ac469d04b9705a673269d8c0d24e9d9a", "is_reserved": 0, "fusion_lon": 0.0, "lat": 38.91876466666667, "is_disabled": 0, "name": "ac469d04b9705a673269d8c0d24e9d9a", "fusion_lat": 0.0, "rental_uris": {"ios": "https://dc.lft.to/lastmile_qr_scan", "android": "https://dc.lft.to/lastmile_qr_scan"}, "lon": -77.04183933333333, "type": "electric_scooter"}, {"bike_id": "7de57175386d76e6b8faf16ad7ec3053", "is_reserved": 0, "fusion_lon": 0.0, "lat": 38.89675866666666, "is_disabled": 0, "name": "7de57175386d76e6b8faf16ad7ec3053", "fusion_lat": 0.0, "rental_uris": {"ios": "https://dc.lft.to/lastmile_qr_scan", "android": "https://dc.lft.to/lastmile_qr_scan"}, "lon": -77.02945433333333, "type": "electric_scooter"}, {"bike_id": "2e1b13a71419e3fc151e2c5b36a7b7a2", "is_reserved": 0, "fusion_lon": 0.0, "lat": 38.88871433333333, "is_disabled": 0, "name": "2e1b13a71419e3fc151e2c5b36a7b7a2", "fusion_lat": 0.0, "rental_uris": {"ios": "https://dc.lft.to/lastmile_qr_scan", "android": "https://dc.lft.to/lastmile_qr_scan"}, "lon": -76.990312, "type": "electric_scooter"}, {"bike_id": "c219f5e3999213857887df2794218509", "is_reserved": 0, "fusion_lon": 0.0, "lat": 38.899050333333335, "is_disabled": 0, "name": "c219f5e3999213857887df2794218509", "fusion_lat": 0.0, "rental_uris": {"ios": "https://dc.lft.to/lastmile_qr_scan", "android": "https://dc.lft.to/lastmile_qr_scan"}, "lon": -77.04086383333333, "type": "electric_scooter"}, {"bike_id": "eeb218dc4e96ff1d747483d96ea98deb", "is_reserved": 0, "fusion_lon": 0.0, "lat": 38.917096, "is_disabled": 0, "name": "eeb218dc4e96ff1d747483d96ea98deb", "fusion_lat": 0.0, "rental_uris": {"ios": "https://dc.lft.to/lastmile_qr_scan", "android": "https://dc.lft.to/lastmile_qr_scan"}, "lon": -77.03328916666666, "type": "electric_scooter"}, {"bike_id": "9a354646dc63730cdad09778bd6a2e49", "is_reserved": 0, "fusion_lon": 0.0, "lat": 38.90590433333333, "is_disabled": 0, "name": "9a354646dc63730cdad09778bd6a2e49", "fusion_lat": 0.0, "rental_uris": {"ios": "https://dc.lft.to/lastmile_qr_scan", "android": "https://dc.lft.to/lastmile_qr_scan"}, "lon": -77.0652355, "type": "electric_scooter"}, {"bike_id": "423c10b655f5a080c818383e5fd238ac", "is_reserved": 0, "fusion_lon": 0.0, "lat": 38.933503333333334, "is_disabled": 0, "name": "423c10b655f5a080c818383e5fd238ac", "fusion_lat": 0.0, "rental_uris": {"ios": "https://dc.lft.to/lastmile_qr_scan", "android": "https://dc.lft.to/lastmile_qr_scan"}, "lon": -77.05866633333333, "type": "electric_scooter"}, {"bike_id": "115848e6184bf8f4724b7c6b236728e9", "is_reserved": 0, "fusion_lon": 0.0, "lat": 38.9043085, "is_disabled": 0, "name": "115848e6184bf8f4724b7c6b236728e9", "fusion_lat": 0.0, "rental_uris": {"ios": "https://dc.lft.to/lastmile_qr_scan", "android": "https://dc.lft.to/lastmile_qr_scan"}, "lon": -77.04006183333334, "type": "electric_scooter"}, {"bike_id": "f175064bb2a703b9eb60178eb950aee9", "is_reserved": 0, "fusion_lon": 0.0, "lat": 38.92650716666667, "is_disabled": 0, "name": "f175064bb2a703b9eb60178eb950aee9", "fusion_lat": 0.0, "rental_uris": {"ios": "https://dc.lft.to/lastmile_qr_scan", "android": "https://dc.lft.to/lastmile_qr_scan"}, "lon": -77.03722316666666, "type": "electric_scooter"}, {"bike_id": "5cc4caeba80b00360dd94f37b7b72f9f", "is_reserved": 0, "fusion_lon": 0.0, "lat": 38.901329, "is_disabled": 0, "name": "5cc4caeba80b00360dd94f37b7b72f9f", "fusion_lat": 0.0, "rental_uris": {"ios": "https://dc.lft.to/lastmile_qr_scan", "android": "https://dc.lft.to/lastmile_qr_scan"}, "lon": -77.044794, "type": "electric_scooter"}, {"bike_id": "35ec8f6c73ce55a0774a145b52b4151b", "is_reserved": 0, "fusion_lon": 0.0, "lat": 38.92094316666667, "is_disabled": 0, "name": "35ec8f6c73ce55a0774a145b52b4151b", "fusion_lat": 0.0, "rental_uris": {"ios": "https://dc.lft.to/lastmile_qr_scan", "android": "https://dc.lft.to/lastmile_qr_scan"}, "lon": -77.07470933333333, "type": "electric_scooter"}, {"bike_id": "1be7a165192547f52ef041508ce68f98", "is_reserved": 0, "fusion_lon": 0.0, "lat": 38.905019333333335, "is_disabled": 0, "name": "1be7a165192547f52ef041508ce68f98", "fusion_lat": 0.0, "rental_uris": {"ios": "https://dc.lft.to/lastmile_qr_scan", "android": "https://dc.lft.to/lastmile_qr_scan"}, "lon": -77.0416415, "type": "electric_scooter"}, {"bike_id": "984703f9f4fd266c3b01520aa4ef5920", "is_reserved": 0, "fusion_lon": 0.0, "lat": 38.898272666666664, "is_disabled": 0, "name": "984703f9f4fd266c3b01520aa4ef5920", "fusion_lat": 0.0, "rental_uris": {"ios": "https://dc.lft.to/lastmile_qr_scan", "android": "https://dc.lft.to/lastmile_qr_scan"}, "lon": -77.0334715, "type": "electric_scooter"}, {"bike_id": "95f9cbabc53886c7a3493a095569208c", "is_reserved": 0, "fusion_lon": 0.0, "lat": 38.926376166666664, "is_disabled": 0, "name": "95f9cbabc53886c7a3493a095569208c", "fusion_lat": 0.0, "rental_uris": {"ios": "https://dc.lft.to/lastmile_qr_scan", "android": "https://dc.lft.to/lastmile_qr_scan"}, "lon": -77.03507816666666, "type": "electric_scooter"}, {"bike_id": "5500438ae2cf375f37f973c76a55a477", "is_reserved": 0, "fusion_lon": 0.0, "lat": 38.907690833333334, "is_disabled": 0, "name": "5500438ae2cf375f37f973c76a55a477", "fusion_lat": 0.0, "rental_uris": {"ios": "https://dc.lft.to/lastmile_qr_scan", "android": "https://dc.lft.to/lastmile_qr_scan"}, "lon": -77.04293316666667, "type": "electric_scooter"}, {"bike_id": "65aedb713e32098fd89f8e1f7a06d5e0", "is_reserved": 0, "fusion_lon": 0.0, "lat": 38.940333333333335, "is_disabled": 0, "name": "65aedb713e32098fd89f8e1f7a06d5e0", "fusion_lat": 0.0, "rental_uris": {"ios": "https://dc.lft.to/lastmile_qr_scan", "android": "https://dc.lft.to/lastmile_qr_scan"}, "lon": -77.02915183333333, "type": "electric_scooter"}, {"bike_id": "ea26ec5a42a7e58ef739c42190840b91", "is_reserved": 0, "fusion_lon": 0.0, "lat": 38.892241, "is_disabled": 0, "name": "ea26ec5a42a7e58ef739c42190840b91", "fusion_lat": 0.0, "rental_uris": {"ios": "https://dc.lft.to/lastmile_qr_scan", "android": "https://dc.lft.to/lastmile_qr_scan"}, "lon": -77.0419415, "type": "electric_scooter"}, {"bike_id": "75ae9039058cdf040f826477e59872e4", "is_reserved": 0, "fusion_lon": 0.0, "lat": 38.936951, "is_disabled": 0, "name": "75ae9039058cdf040f826477e59872e4", "fusion_lat": 0.0, "rental_uris": {"ios": "https://dc.lft.to/lastmile_qr_scan", "android": "https://dc.lft.to/lastmile_qr_scan"}, "lon": -77.05924933333333, "type": "electric_scooter"}, {"bike_id": "1dda1d655b5fc0cd29e5bb3721a05d44", "is_reserved": 0, "fusion_lon": 0.0, "lat": 38.89558666666667, "is_disabled": 0, "name": "1dda1d655b5fc0cd29e5bb3721a05d44", "fusion_lat": 0.0, "rental_uris": {"ios": "https://dc.lft.to/lastmile_qr_scan", "android": "https://dc.lft.to/lastmile_qr_scan"}, "lon": -77.009177, "type": "electric_scooter"}, {"bike_id": "1be06ec67f7a91c6db601e24c45ac51d", "is_reserved": 0, "fusion_lon": 0.0, "lat": 38.92264516666667, "is_disabled": 0, "name": "1be06ec67f7a91c6db601e24c45ac51d", "fusion_lat": 0.0, "rental_uris": {"ios": "https://dc.lft.to/lastmile_qr_scan", "android": "https://dc.lft.to/lastmile_qr_scan"}, "lon": -76.97413816666666, "type": "electric_bike"}, {"bike_id": "bb928d33be578694beabf44e9ee21140", "is_reserved": 0, "fusion_lon": 0.0, "lat": 38.86625983333333, "is_disabled": 0, "name": "bb928d33be578694beabf44e9ee21140", "fusion_lat": 0.0, "rental_uris": {"ios": "https://dc.lft.to/lastmile_qr_scan", "android": "https://dc.lft.to/lastmile_qr_scan"}, "lon": -76.98669983333333, "type": "electric_scooter"}, {"bike_id": "5a8b8887134145b8d4a9fe1aec5fad62", "is_reserved": 0, "fusion_lon": 0.0, "lat": 38.908564166666665, "is_disabled": 0, "name": "5a8b8887134145b8d4a9fe1aec5fad62", "fusion_lat": 0.0, "rental_uris": {"ios": "https://dc.lft.to/lastmile_qr_scan", "android": "https://dc.lft.to/lastmile_qr_scan"}, "lon": -77.02456833333333, "type": "electric_scooter"}, {"bike_id": "28a6be1febffd337f4f00ab9c3673fff", "is_reserved": 0, "fusion_lon": 0.0, "lat": 38.881842166666665, "is_disabled": 0, "name": "28a6be1febffd337f4f00ab9c3673fff", "fusion_lat": 0.0, "rental_uris": {"ios": "https://dc.lft.to/lastmile_qr_scan", "android": "https://dc.lft.to/lastmile_qr_scan"}, "lon": -77.03577266666667, "type": "electric_scooter"}, {"bike_id": "464aaccb14a7bedc4546019085fa20e2", "is_reserved": 0, "fusion_lon": 0.0, "lat": 38.916185, "is_disabled": 0, "name": "464aaccb14a7bedc4546019085fa20e2", "fusion_lat": 0.0, "rental_uris": {"ios": "https://dc.lft.to/lastmile_qr_scan", "android": "https://dc.lft.to/lastmile_qr_scan"}, "lon": -77.03639683333333, "type": "electric_scooter"}, {"bike_id": "57636c3b1fb18ff01c003ae6d2df141a", "is_reserved": 0, "fusion_lon": 0.0, "lat": 38.90983633333333, "is_disabled": 0, "name": "57636c3b1fb18ff01c003ae6d2df141a", "fusion_lat": 0.0, "rental_uris": {"ios": "https://dc.lft.to/lastmile_qr_scan", "android": "https://dc.lft.to/lastmile_qr_scan"}, "lon": -77.06716033333333, "type": "electric_scooter"}, {"bike_id": "34d7ae8816caa1ad82c60c4954af585a", "is_reserved": 0, "fusion_lon": 0.0, "lat": 38.936454499999996, "is_disabled": 0, "name": "34d7ae8816caa1ad82c60c4954af585a", "fusion_lat": 0.0, "rental_uris": {"ios": "https://dc.lft.to/lastmile_qr_scan", "android": "https://dc.lft.to/lastmile_qr_scan"}, "lon": -77.02084283333333, "type": "electric_scooter"}, {"bike_id": "3b7b35e22f4bf2d5d718faf24f683bb9", "is_reserved": 0, "fusion_lon": 0.0, "lat": 38.943232, "is_disabled": 0, "name": "3b7b35e22f4bf2d5d718faf24f683bb9", "fusion_lat": 0.0, "rental_uris": {"ios": "https://dc.lft.to/lastmile_qr_scan", "android": "https://dc.lft.to/lastmile_qr_scan"}, "lon": -77.0739105, "type": "electric_scooter"}, {"bike_id": "41735d521ae782344d95149d069aa5d2", "is_reserved": 0, "fusion_lon": 0.0, "lat": 38.86366133333333, "is_disabled": 0, "name": "41735d521ae782344d95149d069aa5d2", "fusion_lat": 0.0, "rental_uris": {"ios": "https://dc.lft.to/lastmile_qr_scan", "android": "https://dc.lft.to/lastmile_qr_scan"}, "lon": -76.9904615, "type": "electric_scooter"}, {"bike_id": "5ac2e8b5e1214dea33a852f2eb113a4b", "is_reserved": 0, "fusion_lon": 0.0, "lat": 38.9026195, "is_disabled": 0, "name": "5ac2e8b5e1214dea33a852f2eb113a4b", "fusion_lat": 0.0, "rental_uris": {"ios": "https://dc.lft.to/lastmile_qr_scan", "android": "https://dc.lft.to/lastmile_qr_scan"}, "lon": -77.03838966666666, "type": "electric_scooter"}, {"bike_id": "4d70219fc724ddddf6a60f7d8525b59b", "is_reserved": 0, "fusion_lon": 0.0, "lat": 38.9188125, "is_disabled": 0, "name": "4d70219fc724ddddf6a60f7d8525b59b", "fusion_lat": 0.0, "rental_uris": {"ios": "https://dc.lft.to/lastmile_qr_scan", "android": "https://dc.lft.to/lastmile_qr_scan"}, "lon": -76.97143066666666, "type": "electric_scooter"}, {"bike_id": "8b531ab40ac968b4146eebbadd011334", "is_reserved": 0, "fusion_lon": 0.0, "lat": 38.899453333333334, "is_disabled": 0, "name": "8b531ab40ac968b4146eebbadd011334", "fusion_lat": 0.0, "rental_uris": {"ios": "https://dc.lft.to/lastmile_qr_scan", "android": "https://dc.lft.to/lastmile_qr_scan"}, "lon": -77.05333333333333, "type": "electric_scooter"}, {"bike_id": "dc57b6d7d9f2fdf4f6844c14eb3ca850", "is_reserved": 0, "fusion_lon": 0.0, "lat": 38.926133, "is_disabled": 0, "name": "dc57b6d7d9f2fdf4f6844c14eb3ca850", "fusion_lat": 0.0, "rental_uris": {"ios": "https://dc.lft.to/lastmile_qr_scan", "android": "https://dc.lft.to/lastmile_qr_scan"}, "lon": -77.00541866666667, "type": "electric_scooter"}, {"bike_id": "2379f69a20eb741e9662835128f1cfc4", "is_reserved": 0, "fusion_lon": 0.0, "lat": 38.946156333333334, "is_disabled": 0, "name": "2379f69a20eb741e9662835128f1cfc4", "fusion_lat": 0.0, "rental_uris": {"ios": "https://dc.lft.to/lastmile_qr_scan", "android": "https://dc.lft.to/lastmile_qr_scan"}, "lon": -77.0351595, "type": "electric_scooter"}, {"bike_id": "5effc5776ad2749bed2b0ca35cc252ce", "is_reserved": 0, "fusion_lon": 0.0, "lat": 38.90876516666667, "is_disabled": 0, "name": "5effc5776ad2749bed2b0ca35cc252ce", "fusion_lat": 0.0, "rental_uris": {"ios": "https://dc.lft.to/lastmile_qr_scan", "android": "https://dc.lft.to/lastmile_qr_scan"}, "lon": -77.04342133333333, "type": "electric_scooter"}, {"bike_id": "321042f38c76c77f98429efa4fa519d0", "is_reserved": 0, "fusion_lon": 0.0, "lat": 38.940477333333334, "is_disabled": 0, "name": "321042f38c76c77f98429efa4fa519d0", "fusion_lat": 0.0, "rental_uris": {"ios": "https://dc.lft.to/lastmile_qr_scan", "android": "https://dc.lft.to/lastmile_qr_scan"}, "lon": -77.02982116666666, "type": "electric_scooter"}, {"bike_id": "6b7f69fa7f47a611cc30c8d42d235b9d", "is_reserved": 0, "fusion_lon": 0.0, "lat": 38.896149333333334, "is_disabled": 0, "name": "6b7f69fa7f47a611cc30c8d42d235b9d", "fusion_lat": 0.0, "rental_uris": {"ios": "https://dc.lft.to/lastmile_qr_scan", "android": "https://dc.lft.to/lastmile_qr_scan"}, "lon": -77.042419, "type": "electric_scooter"}, {"bike_id": "3d585399c6e9dafed941abaa482e7dda", "is_reserved": 0, "fusion_lon": 0.0, "lat": 38.922549, "is_disabled": 0, "name": "3d585399c6e9dafed941abaa482e7dda", "fusion_lat": 0.0, "rental_uris": {"ios": "https://dc.lft.to/lastmile_qr_scan", "android": "https://dc.lft.to/lastmile_qr_scan"}, "lon": -77.04140666666666, "type": "electric_scooter"}, {"bike_id": "49961b71a22643c624a0dff64d5875a6", "is_reserved": 0, "fusion_lon": 0.0, "lat": 38.918089333333334, "is_disabled": 0, "name": "49961b71a22643c624a0dff64d5875a6", "fusion_lat": 0.0, "rental_uris": {"ios": "https://dc.lft.to/lastmile_qr_scan", "android": "https://dc.lft.to/lastmile_qr_scan"}, "lon": -77.03444816666666, "type": "electric_scooter"}, {"bike_id": "0f9880114ad85963056a80aaa85ce51e", "is_reserved": 0, "fusion_lon": 0.0, "lat": 38.961707, "is_disabled": 0, "name": "0f9880114ad85963056a80aaa85ce51e", "fusion_lat": 0.0, "rental_uris": {"ios": "https://dc.lft.to/lastmile_qr_scan", "android": "https://dc.lft.to/lastmile_qr_scan"}, "lon": -77.08596316666667, "type": "electric_bike"}, {"bike_id": "e367f0043ad427c4d977208b2a7e6aae", "is_reserved": 0, "fusion_lon": 0.0, "lat": 38.89905666666667, "is_disabled": 0, "name": "e367f0043ad427c4d977208b2a7e6aae", "fusion_lat": 0.0, "rental_uris": {"ios": "https://dc.lft.to/lastmile_qr_scan", "android": "https://dc.lft.to/lastmile_qr_scan"}, "lon": -77.0034815, "type": "electric_scooter"}, {"bike_id": "feedb464ce12f37531b005f3f07c9eb8", "is_reserved": 0, "fusion_lon": 0.0, "lat": 38.933968166666666, "is_disabled": 0, "name": "feedb464ce12f37531b005f3f07c9eb8", "fusion_lat": 0.0, "rental_uris": {"ios": "https://dc.lft.to/lastmile_qr_scan", "android": "https://dc.lft.to/lastmile_qr_scan"}, "lon": -77.02062166666667, "type": "electric_scooter"}, {"bike_id": "4842ebc8f3345b352ecb7f8d1bf66578", "is_reserved": 0, "fusion_lon": 0.0, "lat": 38.93717633333333, "is_disabled": 0, "name": "4842ebc8f3345b352ecb7f8d1bf66578", "fusion_lat": 0.0, "rental_uris": {"ios": "https://dc.lft.to/lastmile_qr_scan", "android": "https://dc.lft.to/lastmile_qr_scan"}, "lon": -77.02426783333334, "type": "electric_scooter"}, {"bike_id": "74a51fe7f7e72a0660e7c660cc7c7c5a", "is_reserved": 0, "fusion_lon": 0.0, "lat": 38.892263666666665, "is_disabled": 0, "name": "74a51fe7f7e72a0660e7c660cc7c7c5a", "fusion_lat": 0.0, "rental_uris": {"ios": "https://dc.lft.to/lastmile_qr_scan", "android": "https://dc.lft.to/lastmile_qr_scan"}, "lon": -77.02177183333333, "type": "electric_scooter"}, {"bike_id": "da38b179bc6eb8b91a5fa08d6efc56fb", "is_reserved": 0, "fusion_lon": 0.0, "lat": 38.85322266666667, "is_disabled": 0, "name": "da38b179bc6eb8b91a5fa08d6efc56fb", "fusion_lat": 0.0, "rental_uris": {"ios": "https://dc.lft.to/lastmile_qr_scan", "android": "https://dc.lft.to/lastmile_qr_scan"}, "lon": -76.98009966666666, "type": "electric_scooter"}, {"bike_id": "2e20085a019a77a351cd22967113317c", "is_reserved": 0, "fusion_lon": 0.0, "lat": 38.911063166666665, "is_disabled": 0, "name": "2e20085a019a77a351cd22967113317c", "fusion_lat": 0.0, "rental_uris": {"ios": "https://dc.lft.to/lastmile_qr_scan", "android": "https://dc.lft.to/lastmile_qr_scan"}, "lon": -77.03629433333333, "type": "electric_scooter"}, {"bike_id": "9823a2fec3f85d4110f641b3c1253a04", "is_reserved": 0, "fusion_lon": 0.0, "lat": 38.961485833333334, "is_disabled": 0, "name": "9823a2fec3f85d4110f641b3c1253a04", "fusion_lat": 0.0, "rental_uris": {"ios": "https://dc.lft.to/lastmile_qr_scan", "android": "https://dc.lft.to/lastmile_qr_scan"}, "lon": -76.99773216666667, "type": "electric_scooter"}, {"bike_id": "fb37c49631a53e75b58b4eaae78c18d9", "is_reserved": 0, "fusion_lon": 0.0, "lat": 38.90579816666666, "is_disabled": 0, "name": "fb37c49631a53e75b58b4eaae78c18d9", "fusion_lat": 0.0, "rental_uris": {"ios": "https://dc.lft.to/lastmile_qr_scan", "android": "https://dc.lft.to/lastmile_qr_scan"}, "lon": -77.038233, "type": "electric_scooter"}, {"bike_id": "95b99b14105d8462a1aff09577f76109", "is_reserved": 0, "fusion_lon": 0.0, "lat": 38.92848266666667, "is_disabled": 0, "name": "95b99b14105d8462a1aff09577f76109", "fusion_lat": 0.0, "rental_uris": {"ios": "https://dc.lft.to/lastmile_qr_scan", "android": "https://dc.lft.to/lastmile_qr_scan"}, "lon": -77.0542715, "type": "electric_scooter"}, {"bike_id": "b6b30d89e8eba016cff305fafa12113f", "is_reserved": 0, "fusion_lon": 0.0, "lat": 38.927862166666664, "is_disabled": 0, "name": "b6b30d89e8eba016cff305fafa12113f", "fusion_lat": 0.0, "rental_uris": {"ios": "https://dc.lft.to/lastmile_qr_scan", "android": "https://dc.lft.to/lastmile_qr_scan"}, "lon": -77.03201833333334, "type": "electric_scooter"}, {"bike_id": "f0132ce1fe30cfe0f6dd33a8673258db", "is_reserved": 0, "fusion_lon": 0.0, "lat": 38.91055733333334, "is_disabled": 0, "name": "f0132ce1fe30cfe0f6dd33a8673258db", "fusion_lat": 0.0, "rental_uris": {"ios": "https://dc.lft.to/lastmile_qr_scan", "android": "https://dc.lft.to/lastmile_qr_scan"}, "lon": -77.05400383333334, "type": "electric_scooter"}, {"bike_id": "31b619c3e9990ca81196b1014bc94d34", "is_reserved": 0, "fusion_lon": 0.0, "lat": 38.90923333333333, "is_disabled": 0, "name": "31b619c3e9990ca81196b1014bc94d34", "fusion_lat": 0.0, "rental_uris": {"ios": "https://dc.lft.to/lastmile_qr_scan", "android": "https://dc.lft.to/lastmile_qr_scan"}, "lon": -77.02310066666666, "type": "electric_scooter"}, {"bike_id": "c9453687360f5e5ba74c70c8af3b5f9d", "is_reserved": 0, "fusion_lon": 0.0, "lat": 38.9290695, "is_disabled": 0, "name": "c9453687360f5e5ba74c70c8af3b5f9d", "fusion_lat": 0.0, "rental_uris": {"ios": "https://dc.lft.to/lastmile_qr_scan", "android": "https://dc.lft.to/lastmile_qr_scan"}, "lon": -77.03178766666667, "type": "electric_scooter"}, {"bike_id": "baadb2a8db728bba53d761ed20753080", "is_reserved": 0, "fusion_lon": 0.0, "lat": 38.892201, "is_disabled": 0, "name": "baadb2a8db728bba53d761ed20753080", "fusion_lat": 0.0, "rental_uris": {"ios": "https://dc.lft.to/lastmile_qr_scan", "android": "https://dc.lft.to/lastmile_qr_scan"}, "lon": -77.0419375, "type": "electric_scooter"}, {"bike_id": "64add868cab8ee60006f088500c68cb7", "is_reserved": 0, "fusion_lon": 0.0, "lat": 38.91033566666667, "is_disabled": 0, "name": "64add868cab8ee60006f088500c68cb7", "fusion_lat": 0.0, "rental_uris": {"ios": "https://dc.lft.to/lastmile_qr_scan", "android": "https://dc.lft.to/lastmile_qr_scan"}, "lon": -77.0343325, "type": "electric_scooter"}, {"bike_id": "c13b1ecead082051dea518fa6e332fc3", "is_reserved": 0, "fusion_lon": 0.0, "lat": 38.9043665, "is_disabled": 0, "name": "c13b1ecead082051dea518fa6e332fc3", "fusion_lat": 0.0, "rental_uris": {"ios": "https://dc.lft.to/lastmile_qr_scan", "android": "https://dc.lft.to/lastmile_qr_scan"}, "lon": -77.0342725, "type": "electric_scooter"}, {"bike_id": "581220be758c8d725fbf3d8a0bfde42c", "is_reserved": 0, "fusion_lon": 0.0, "lat": 38.89828, "is_disabled": 0, "name": "581220be758c8d725fbf3d8a0bfde42c", "fusion_lat": 0.0, "rental_uris": {"ios": "https://dc.lft.to/lastmile_qr_scan", "android": "https://dc.lft.to/lastmile_qr_scan"}, "lon": -77.033229, "type": "electric_scooter"}, {"bike_id": "fb2dfbb764c50676a806f38c205141f5", "is_reserved": 0, "fusion_lon": 0.0, "lat": 38.9026115, "is_disabled": 0, "name": "fb2dfbb764c50676a806f38c205141f5", "fusion_lat": 0.0, "rental_uris": {"ios": "https://dc.lft.to/lastmile_qr_scan", "android": "https://dc.lft.to/lastmile_qr_scan"}, "lon": -77.0388605, "type": "electric_scooter"}, {"bike_id": "b8ca0589272b68a6054b29f5afca4eb9", "is_reserved": 0, "fusion_lon": 0.0, "lat": 38.8962175, "is_disabled": 0, "name": "b8ca0589272b68a6054b29f5afca4eb9", "fusion_lat": 0.0, "rental_uris": {"ios": "https://dc.lft.to/lastmile_qr_scan", "android": "https://dc.lft.to/lastmile_qr_scan"}, "lon": -76.99849166666667, "type": "electric_scooter"}, {"bike_id": "c46a57d815f0c07476af9d8f9d68f8d3", "is_reserved": 0, "fusion_lon": 0.0, "lat": 38.8937495, "is_disabled": 0, "name": "c46a57d815f0c07476af9d8f9d68f8d3", "fusion_lat": 0.0, "rental_uris": {"ios": "https://dc.lft.to/lastmile_qr_scan", "android": "https://dc.lft.to/lastmile_qr_scan"}, "lon": -76.949596, "type": "electric_scooter"}, {"bike_id": "b41086b8942c0c1ae752353ee2b08898", "is_reserved": 0, "fusion_lon": 0.0, "lat": 38.93426216666667, "is_disabled": 0, "name": "b41086b8942c0c1ae752353ee2b08898", "fusion_lat": 0.0, "rental_uris": {"ios": "https://dc.lft.to/lastmile_qr_scan", "android": "https://dc.lft.to/lastmile_qr_scan"}, "lon": -77.04315433333333, "type": "electric_scooter"}, {"bike_id": "6c8b158e17a1d123050421499fb7c41e", "is_reserved": 0, "fusion_lon": 0.0, "lat": 38.919013166666666, "is_disabled": 0, "name": "6c8b158e17a1d123050421499fb7c41e", "fusion_lat": 0.0, "rental_uris": {"ios": "https://dc.lft.to/lastmile_qr_scan", "android": "https://dc.lft.to/lastmile_qr_scan"}, "lon": -77.01955466666666, "type": "electric_scooter"}, {"bike_id": "e1d304b6e3990ed37b8807a4c9554e29", "is_reserved": 0, "fusion_lon": 0.0, "lat": 38.89194483333333, "is_disabled": 0, "name": "e1d304b6e3990ed37b8807a4c9554e29", "fusion_lat": 0.0, "rental_uris": {"ios": "https://dc.lft.to/lastmile_qr_scan", "android": "https://dc.lft.to/lastmile_qr_scan"}, "lon": -77.02983983333333, "type": "electric_scooter"}, {"bike_id": "282c9a533c753b3bd6749a2375dc221d", "is_reserved": 0, "fusion_lon": 0.0, "lat": 38.892264833333336, "is_disabled": 0, "name": "282c9a533c753b3bd6749a2375dc221d", "fusion_lat": 0.0, "rental_uris": {"ios": "https://dc.lft.to/lastmile_qr_scan", "android": "https://dc.lft.to/lastmile_qr_scan"}, "lon": -77.0436925, "type": "electric_scooter"}, {"bike_id": "9bbc2243cbb8421bbbb64f8c2202c4af", "is_reserved": 0, "fusion_lon": 0.0, "lat": 38.869049833333335, "is_disabled": 0, "name": "9bbc2243cbb8421bbbb64f8c2202c4af", "fusion_lat": 0.0, "rental_uris": {"ios": "https://dc.lft.to/lastmile_qr_scan", "android": "https://dc.lft.to/lastmile_qr_scan"}, "lon": -77.131773, "type": "electric_bike"}, {"bike_id": "25856828331b6de698a818e571206e16", "is_reserved": 0, "fusion_lon": 0.0, "lat": 38.89558266666667, "is_disabled": 0, "name": "25856828331b6de698a818e571206e16", "fusion_lat": 0.0, "rental_uris": {"ios": "https://dc.lft.to/lastmile_qr_scan", "android": "https://dc.lft.to/lastmile_qr_scan"}, "lon": -77.04677683333334, "type": "electric_scooter"}, {"bike_id": "46f419ee19cabdbbc782882b80a4fb09", "is_reserved": 0, "fusion_lon": 0.0, "lat": 39.052008666666666, "is_disabled": 0, "name": "46f419ee19cabdbbc782882b80a4fb09", "fusion_lat": 0.0, "rental_uris": {"ios": "https://dc.lft.to/lastmile_qr_scan", "android": "https://dc.lft.to/lastmile_qr_scan"}, "lon": -77.10923016666666, "type": "electric_bike"}, {"bike_id": "b17b75deff832a540f8e6f37f0fc44c4", "is_reserved": 0, "fusion_lon": 0.0, "lat": 38.915587, "is_disabled": 0, "name": "b17b75deff832a540f8e6f37f0fc44c4", "fusion_lat": 0.0, "rental_uris": {"ios": "https://dc.lft.to/lastmile_qr_scan", "android": "https://dc.lft.to/lastmile_qr_scan"}, "lon": -77.0393755, "type": "electric_scooter"}, {"bike_id": "9601d10821a50aa8cc12b6b83323d251", "is_reserved": 0, "fusion_lon": 0.0, "lat": 38.93425633333333, "is_disabled": 0, "name": "9601d10821a50aa8cc12b6b83323d251", "fusion_lat": 0.0, "rental_uris": {"ios": "https://dc.lft.to/lastmile_qr_scan", "android": "https://dc.lft.to/lastmile_qr_scan"}, "lon": -77.0431905, "type": "electric_scooter"}, {"bike_id": "cb8ef0857c372050d23330cc5b0e6772", "is_reserved": 0, "fusion_lon": 0.0, "lat": 38.882122, "is_disabled": 0, "name": "cb8ef0857c372050d23330cc5b0e6772", "fusion_lat": 0.0, "rental_uris": {"ios": "https://dc.lft.to/lastmile_qr_scan", "android": "https://dc.lft.to/lastmile_qr_scan"}, "lon": -76.92700916666666, "type": "electric_scooter"}, {"bike_id": "4150f036833488a06a648bb40fc8e7c4", "is_reserved": 0, "fusion_lon": 0.0, "lat": 38.92065216666667, "is_disabled": 0, "name": "4150f036833488a06a648bb40fc8e7c4", "fusion_lat": 0.0, "rental_uris": {"ios": "https://dc.lft.to/lastmile_qr_scan", "android": "https://dc.lft.to/lastmile_qr_scan"}, "lon": -77.04194016666666, "type": "electric_scooter"}, {"bike_id": "5d8a50d58e7702e74e269638ceedd8c0", "is_reserved": 0, "fusion_lon": 0.0, "lat": 38.90858083333333, "is_disabled": 0, "name": "5d8a50d58e7702e74e269638ceedd8c0", "fusion_lat": 0.0, "rental_uris": {"ios": "https://dc.lft.to/lastmile_qr_scan", "android": "https://dc.lft.to/lastmile_qr_scan"}, "lon": -77.01189416666666, "type": "electric_scooter"}, {"bike_id": "19bb47197f47adb6a922c59a0cda237c", "is_reserved": 0, "fusion_lon": 0.0, "lat": 38.927619, "is_disabled": 0, "name": "19bb47197f47adb6a922c59a0cda237c", "fusion_lat": 0.0, "rental_uris": {"ios": "https://dc.lft.to/lastmile_qr_scan", "android": "https://dc.lft.to/lastmile_qr_scan"}, "lon": -77.032789, "type": "electric_scooter"}, {"bike_id": "ef7154c3cff84c0fb9c71d48f8536939", "is_reserved": 0, "fusion_lon": 0.0, "lat": 38.93326066666667, "is_disabled": 0, "name": "ef7154c3cff84c0fb9c71d48f8536939", "fusion_lat": 0.0, "rental_uris": {"ios": "https://dc.lft.to/lastmile_qr_scan", "android": "https://dc.lft.to/lastmile_qr_scan"}, "lon": -77.03276816666667, "type": "electric_scooter"}, {"bike_id": "6a07ea0386de7426ab37c8348e55c407", "is_reserved": 0, "fusion_lon": 0.0, "lat": 38.8960985, "is_disabled": 0, "name": "6a07ea0386de7426ab37c8348e55c407", "fusion_lat": 0.0, "rental_uris": {"ios": "https://dc.lft.to/lastmile_qr_scan", "android": "https://dc.lft.to/lastmile_qr_scan"}, "lon": -77.00928, "type": "electric_scooter"}, {"bike_id": "e8fb8aa42917df2ccd168c81f63de1d8", "is_reserved": 0, "fusion_lon": 0.0, "lat": 38.9015335, "is_disabled": 0, "name": "e8fb8aa42917df2ccd168c81f63de1d8", "fusion_lat": 0.0, "rental_uris": {"ios": "https://dc.lft.to/lastmile_qr_scan", "android": "https://dc.lft.to/lastmile_qr_scan"}, "lon": -77.04231966666667, "type": "electric_scooter"}, {"bike_id": "0e9bdef601952b8663a65818c295f7a8", "is_reserved": 0, "fusion_lon": 0.0, "lat": 38.922127833333334, "is_disabled": 0, "name": "0e9bdef601952b8663a65818c295f7a8", "fusion_lat": 0.0, "rental_uris": {"ios": "https://dc.lft.to/lastmile_qr_scan", "android": "https://dc.lft.to/lastmile_qr_scan"}, "lon": -77.0366395, "type": "electric_scooter"},