{"data": {"bikes": [{"lon": -76.98370516666667, "bike_id": "fbab9e67adb2cece0619cbbd723e0fca", "lat": 38.899817166666665, "fusion_lon": 0.0, "fusion_lat": 0.0, "type": "electric_scooter", "name": "fbab9e67adb2cece0619cbbd723e0fca", "is_disabled": 0, "rental_uris": {"ios": "https://dc.lft.to/lastmile_qr_scan", "android": "https://dc.lft.to/lastmile_qr_scan"}, "is_reserved": 0}, {"lon": -77.087743, "bike_id": "d995311889fede370690383598f8f2d6", "lat": 38.889427, "fusion_lon": 0.0, "fusion_lat": 0.0, "type": "electric_bike", "name": "d995311889fede370690383598f8f2d6", "is_disabled": 0, "rental_uris": {"ios": "https://dc.lft.to/lastmile_qr_scan", "android": "https://dc.lft.to/lastmile_qr_scan"}, "is_reserved": 0}, {"lon": -77.07899483333334, "bike_id": "cd3e978f6948b5b588659608ff55b5bc", "lat": 38.83934966666666, "fusion_lon": 0.0, "fusion_lat": 0.0, "type": "electric_bike", "name": "cd3e978f6948b5b588659608ff55b5bc", "is_disabled": 0, "rental_uris": {"ios": "https://dc.lft.to/lastmile_qr_scan", "android": "https://dc.lft.to/lastmile_qr_scan"}, "is_reserved": 0}, {"lon": -76.98717416666666, "bike_id": "25db1321ce792ad7979ec36a3af0fd89", "lat": 38.86628416666667, "fusion_lon": 0.0, "fusion_lat": 0.0, "type": "electric_scooter", "name": "25db1321ce792ad7979ec36a3af0fd89", "is_disabled": 0, "rental_uris": {"ios": "https://dc.lft.to/lastmile_qr_scan", "android": "https://dc.lft.to/lastmile_qr_scan"}, "is_reserved": 0}, {"lon": -77.03575216666667, "bike_id": "59f75de6a639541ec9c58a6346a6e106", "lat": 38.9368125, "fusion_lon": 0.0, "fusion_lat": 0.0, "type": "electric_scooter", "name": "59f75de6a639541ec9c58a6346a6e106", "is_disabled": 0, "rental_uris": {"ios": "https://dc.lft.to/lastmile_qr_scan", "android": "https://dc.lft.to/lastmile_qr_scan"}, "is_reserved": 0}, {"lon": -77.01755533333333, "bike_id": "05b6ab958c3fbd6063e20b965f67ca73", "lat": 38.87806066666667, "fusion_lon": 0.0, "fusion_lat": 0.0, "type": "electric_scooter", "name": "05b6ab958c3fbd6063e20b965f67ca73", "is_disabled": 0, "rental_uris": {"ios": "https://dc.lft.to/lastmile_qr_scan", "android": "https://dc.lft.to/lastmile_qr_scan"}, "is_reserved": 0}, {"lon": -76.97998016666666, "bike_id": "3f667830adedfdb566a29c7c4203f98c", "lat": 38.90680583333334, "fusion_lon": 0.0, "fusion_lat": 0.0, "type": "electric_scooter", "name": "3f667830adedfdb566a29c7c4203f98c", "is_disabled": 0, "rental_uris": {"ios": "https://dc.lft.to/lastmile_qr_scan", "android": "https://dc.lft.to/lastmile_qr_scan"}, "is_reserved": 0}, {"lon": -77.02172283333333, "bike_id": "e177478154351f139e28dd60e3337223", "lat": 38.925062, "fusion_lon": 0.0, "fusion_lat": 0.0, "type": "electric_scooter", "name": "e177478154351f139e28dd60e3337223", "is_disabled": 0, "rental_uris": {"ios": "https://dc.lft.to/lastmile_qr_scan", "android": "https://dc.lft.to/lastmile_qr_scan"}, "is_reserved": 0}, {"lon": -76.95189666666667, "bike_id": "0c10f178ec5a7daa09d8e8503b36afea", "lat": 38.9074055, "fusion_lon": 0.0, "fusion_lat": 0.0, "type": "electric_scooter", "name": "0c10f178ec5a7daa09d8e8503b36afea", "is_disabled": 0, "rental_uris": {"ios": "https://dc.lft.to/lastmile_qr_scan", "android": "https://dc.lft.to/lastmile_qr_scan"}, "is_reserved": 0}, {"lon": -76.98189333333333, "bike_id": "f9edcff23ff4a97b239fa3ccfe1eae76", "lat": 38.899505833333336, "fusion_lon": 0.0, "fusion_lat": 0.0, "type": "electric_scooter", "name": "f9edcff23ff4a97b239fa3ccfe1eae76", "is_disabled": 0, "rental_uris": {"ios": "https://dc.lft.to/lastmile_qr_scan", "android": "https://dc.lft.to/lastmile_qr_scan"}, "is_reserved": 0}, {"lon": -77.0365895, "bike_id": "be062fc8e0268c1415feea0da89af7db", "lat": 38.939152666666665, "fusion_lon": 0.0, "fusion_lat": 0.0, "type": "electric_bike", "name": "be062fc8e0268c1415feea0da89af7db", "is_disabled": 0, "rental_uris": {"ios": "https://dc.lft.to/lastmile_qr_scan", "android": "https://dc.lft.to/lastmile_qr_scan"}, "is_reserved": 0}, {"lon": -77.01949, "bike_id": "7492142f6ed69bf0ff933eb8c3da79e5", "lat": 38.9224995, "fusion_lon": 0.0, "fusion_lat": 0.0, "type": "electric_scooter", "name": "7492142f6ed69bf0ff933eb8c3da79e5", "is_disabled": 0, "rental_uris": {"ios": "https://dc.lft.to/lastmile_qr_scan", "android": "https://dc.lft.to/lastmile_qr_scan"}, "is_reserved": 0}, {"lon": -77.0401915, "bike_id": "e768564a74774958fa6acdcae2524064", "lat": 38.924532, "fusion_lon": 0.0, "fusion_lat": 0.0, "type": "electric_scooter", "name": "e768564a74774958fa6acdcae2524064", "is_disabled": 0, "rental_uris": {"ios": "https://dc.lft.to/lastmile_qr_scan", "android": "https://dc.lft.to/lastmile_qr_scan"}, "is_reserved": 0}, {"lon": -76.9825925, "bike_id": "f16e1ce902d057f3eceb3662077b7ef9", "lat": 38.90856383333333, "fusion_lon": 0.0, "fusion_lat": 0.0, "type": "electric_scooter", "name": "f16e1ce902d057f3eceb3662077b7ef9", "is_disabled": 0, "rental_uris": {"ios": "https://dc.lft.to/lastmile_qr_scan", "android": "https://dc.lft.to/lastmile_qr_scan"}, "is_reserved": 0}, {"lon": -77.0279485, "bike_id": "2dad6350c228200e122007e3469edbcc", "lat": 38.92964683333334, "fusion_lon": 0.0, "fusion_lat": 0.0, "type": "electric_scooter", "name": "2dad6350c228200e122007e3469edbcc", "is_disabled": 0, "rental_uris": {"ios": "https://dc.lft.to/lastmile_qr_scan", "android": "https://dc.lft.to/lastmile_qr_scan"}, "is_reserved": 0}, {"lon": -77.04559783333333, "bike_id": "a106426b900ce04de7045bf955aa81ed", "lat": 38.913621166666665, "fusion_lon": 0.0, "fusion_lat": 0.0, "type": "electric_scooter", "name": "a106426b900ce04de7045bf955aa81ed", "is_disabled": 0, "rental_uris": {"ios": "https://dc.lft.to/lastmile_qr_scan", "android": "https://dc.lft.to/lastmile_qr_scan"}, "is_reserved": 0}, {"lon": -77.02957366666666, "bike_id": "b3f98da647e12382d02e9bbc5a78f698", "lat": 38.9050145, "fusion_lon": 0.0, "fusion_lat": 0.0, "type": "electric_scooter", "name": "b3f98da647e12382d02e9bbc5a78f698", "is_disabled": 0, "rental_uris": {"ios": "https://dc.lft.to/lastmile_qr_scan", "android": "https://dc.lft.to/lastmile_qr_scan"}, "is_reserved": 0}, {"lon": -76.99566833333333, "bike_id": "fc9888b32e6915c5927395d37564b192", "lat": 38.851838, "fusion_lon": 0.0, "fusion_lat": 0.0, "type": "electric_bike", "name": "fc9888b32e6915c5927395d37564b192", "is_disabled": 0, "rental_uris": {"ios": "https://dc.lft.to/lastmile_qr_scan", "android": "https://dc.lft.to/lastmile_qr_scan"}, "is_reserved": 0}, {"lon": -77.01609716666667, "bike_id": "4ab7c3d2e7c6715e12b9b9f3a7cb8ee0", "lat": 38.91061116666667, "fusion_lon": 0.0, "fusion_lat": 0.0, "type": "electric_scooter", "name": "4ab7c3d2e7c6715e12b9b9f3a7cb8ee0", "is_disabled": 0, "rental_uris": {"ios": "https://dc.lft.to/lastmile_qr_scan", "android": "https://dc.lft.to/lastmile_qr_scan"}, "is_reserved": 0}, {"lon": -77.0248925, "bike_id": "73969f2b98b52cf754a82fc7f9d4c115", "lat": 38.93103333333333, "fusion_lon": 0.0, "fusion_lat": 0.0, "type": "electric_scooter", "name": "73969f2b98b52cf754a82fc7f9d4c115", "is_disabled": 0, "rental_uris": {"ios": "https://dc.lft.to/lastmile_qr_scan", "android": "https://dc.lft.to/lastmile_qr_scan"}, "is_reserved": 0}, {"lon": -77.03471683333333, "bike_id": "f482301003deef6dc8b5eab40229523d", "lat": 38.9096065, "fusion_lon": 0.0, "fusion_lat": 0.0, "type": "electric_scooter", "name": "f482301003deef6dc8b5eab40229523d", "is_disabled": 0, "rental_uris": {"ios": "https://dc.lft.to/lastmile_qr_scan", "android": "https://dc.lft.to/lastmile_qr_scan"}, "is_reserved": 0}, {"lon": -76.93175716666667, "bike_id": "d18200c54448c948c8e9387a2295eaba", "lat": 38.898832, "fusion_lon": 0.0, "fusion_lat": 0.0, "type": "electric_scooter", "name": "d18200c54448c948c8e9387a2295eaba", "is_disabled": 0, "rental_uris": {"ios": "https://dc.lft.to/lastmile_qr_scan", "android": "https://dc.lft.to/lastmile_qr_scan"}, "is_reserved": 0}, {"lon": -77.032574, "bike_id": "7804018378d56fe834a36fa1162fa545", "lat": 38.91409316666667, "fusion_lon": 0.0, "fusion_lat": 0.0, "type": "electric_scooter", "name": "7804018378d56fe834a36fa1162fa545", "is_disabled": 0, "rental_uris": {"ios": "https://dc.lft.to/lastmile_qr_scan", "android": "https://dc.lft.to/lastmile_qr_scan"}, "is_reserved": 0}, {"lon": -76.95196733333333, "bike_id": "dd2b61b8ac77f52cb26d0c49c40b8795", "lat": 38.9000395, "fusion_lon": 0.0, "fusion_lat": 0.0, "type": "electric_scooter", "name": "dd2b61b8ac77f52cb26d0c49c40b8795", "is_disabled": 0, "rental_uris": {"ios": "https://dc.lft.to/lastmile_qr_scan", "android": "https://dc.lft.to/lastmile_qr_scan"}, "is_reserved": 0}, {"lon": -76.9836445, "bike_id": "4fcca9c6a44426bd38f83adc59d20d03", "lat": 38.86115316666667, "fusion_lon": 0.0, "fusion_lat": 0.0, "type": "electric_scooter", "name": "4fcca9c6a44426bd38f83adc59d20d03", "is_disabled": 0, "rental_uris": {"ios": "https://dc.lft.to/lastmile_qr_scan", "android": "https://dc.lft.to/lastmile_qr_scan"}, "is_reserved": 0}, {"lon": -77.0392155, "bike_id": "d7bdef4916eacbdf23ca072d047b5616", "lat": 38.911103, "fusion_lon": 0.0, "fusion_lat": 0.0, "type": "electric_scooter", "name": "d7bdef4916eacbdf23ca072d047b5616", "is_disabled": 0, "rental_uris": {"ios": "https://dc.lft.to/lastmile_qr_scan", "android": "https://dc.lft.to/lastmile_qr_scan"}, "is_reserved": 0}, {"lon": -76.93370583333333, "bike_id": "73d9cda819f1e951837f06e5890744cd", "lat": 38.8991275, "fusion_lon": 0.0, "fusion_lat": 0.0, "type": "electric_scooter", "name": "73d9cda819f1e951837f06e5890744cd", "is_disabled": 0, "rental_uris": {"ios": "https://dc.lft.to/lastmile_qr_scan", "android": "https://dc.lft.to/lastmile_qr_scan"}, "is_reserved": 0}, {"lon": -77.0408965, "bike_id": "cb8c8e14682a62f8fcd5c48d99045520", "lat": 38.9203205, "fusion_lon": 0.0, "fusion_lat": 0.0, "type": "electric_scooter", "name": "cb8c8e14682a62f8fcd5c48d99045520", "is_disabled": 0, "rental_uris": {"ios": "https://dc.lft.to/lastmile_qr_scan", "android": "https://dc.lft.to/lastmile_qr_scan"}, "is_reserved": 0}, {"lon": -77.01576883333334, "bike_id": "79b86404f237398d52b777c1f3614331", "lat": 38.89471866666667, "fusion_lon": 0.0, "fusion_lat": 0.0, "type": "electric_scooter", "name": "79b86404f237398d52b777c1f3614331", "is_disabled": 0, "rental_uris": {"ios": "https://dc.lft.to/lastmile_qr_scan", "android": "https://dc.lft.to/lastmile_qr_scan"}, "is_reserved": 0}, {"lon": -76.99607716666667, "bike_id": "d7a39455e5f2173ce5139d47adb45ca3", "lat": 38.88316533333333, "fusion_lon": 0.0, "fusion_lat": 0.0, "type": "electric_scooter", "name": "d7a39455e5f2173ce5139d47adb45ca3", "is_disabled": 0, "rental_uris": {"ios": "https://dc.lft.to/lastmile_qr_scan", "android": "https://dc.lft.to/lastmile_qr_scan"}, "is_reserved": 0}, {"lon": -77.04493733333334, "bike_id": "56a39fef2a23757b2670710f1083a464", "lat": 38.91930283333333, "fusion_lon": 0.0, "fusion_lat": 0.0, "type": "electric_scooter", "name": "56a39fef2a23757b2670710f1083a464", "is_disabled": 0, "rental_uris": {"ios": "https://dc.lft.to/lastmile_qr_scan", "android": "https://dc.lft.to/lastmile_qr_scan"}, "is_reserved": 0}, {"lon": -77.04460233333333, "bike_id": "d1843ab1277e2a5323a26809106f3326", "lat": 38.919414, "fusion_lon": 0.0, "fusion_lat": 0.0, "type": "electric_scooter", "name": "d1843ab1277e2a5323a26809106f3326", "is_disabled": 0, "rental_uris": {"ios": "https://dc.lft.to/lastmile_qr_scan", "android": "https://dc.lft.to/lastmile_qr_scan"}, "is_reserved": 0}, {"lon": -76.99735083333333, "bike_id": "b59967dcdb9a7c0a171a93ef29593f21", "lat": 38.9095575, "fusion_lon": 0.0, "fusion_lat": 0.0, "type": "electric_scooter", "name": "b59967dcdb9a7c0a171a93ef29593f21", "is_disabled": 0, "rental_uris": {"ios": "https://dc.lft.to/lastmile_qr_scan", "android": "https://dc.lft.to/lastmile_qr_scan"}, "is_reserved": 0}, {"lon": -77.01253366666667, "bike_id": "9a10bf47eb884ccb08b6d165a789cb3d", "lat": 38.9157475, "fusion_lon": 0.0, "fusion_lat": 0.0, "type": "electric_scooter", "name": "9a10bf47eb884ccb08b6d165a789cb3d", "is_disabled": 0, "rental_uris": {"ios": "https://dc.lft.to/lastmile_qr_scan", "android": "https://dc.lft.to/lastmile_qr_scan"}, "is_reserved": 0}, {"lon": -77.03342666666667, "bike_id": "f08dbe964b48e3b0d2281ab93a22c90c", "lat": 38.94717216666667, "fusion_lon": 0.0, "fusion_lat": 0.0, "type": "electric_scooter", "name": "f08dbe964b48e3b0d2281ab93a22c90c", "is_disabled": 0, "rental_uris": {"ios": "https://dc.lft.to/lastmile_qr_scan", "android": "https://dc.lft.to/lastmile_qr_scan"}, "is_reserved": 0}, {"lon": -77.027718, "bike_id": "13514fe605ae145b5e1680a678c553ae", "lat": 38.95424533333333, "fusion_lon": 0.0, "fusion_lat": 0.0, "type": "electric_scooter", "name": "13514fe605ae145b5e1680a678c553ae", "is_disabled": 0, "rental_uris": {"ios": "https://dc.lft.to/lastmile_qr_scan", "android": "https://dc.lft.to/lastmile_qr_scan"}, "is_reserved": 0}, {"lon": -77.026027, "bike_id": "f4e1b7f6f80d2b593c8fbab3a231f0a2", "lat": 38.90113216666666, "fusion_lon": 0.0, "fusion_lat": 0.0, "type": "electric_scooter", "name": "f4e1b7f6f80d2b593c8fbab3a231f0a2", "is_disabled": 0, "rental_uris": {"ios": "https://dc.lft.to/lastmile_qr_scan", "android": "https://dc.lft.to/lastmile_qr_scan"}, "is_reserved": 0}, {"lon": -77.04744466666666, "bike_id": "649b6b7e466ed8d6bcb949ed1ca2cb85", "lat": 38.90186933333333, "fusion_lon": 0.0, "fusion_lat": 0.0, "type": "electric_scooter", "name": "649b6b7e466ed8d6bcb949ed1ca2cb85", "is_disabled": 0, "rental_uris": {"ios": "https://dc.lft.to/lastmile_qr_scan", "android": "https://dc.lft.to/lastmile_qr_scan"}, "is_reserved": 0}, {"lon": -76.99456983333333, "bike_id": "7a0c94390e2879b3d8f72ec46e1be5ca", "lat": 38.86217083333333, "fusion_lon": 0.0, "fusion_lat": 0.0, "type": "electric_scooter", "name": "7a0c94390e2879b3d8f72ec46e1be5ca", "is_disabled": 0, "rental_uris": {"ios": "https://dc.lft.to/lastmile_qr_scan", "android": "https://dc.lft.to/lastmile_qr_scan"}, "is_reserved": 0}, {"lon": -77.0199455, "bike_id": "775126822b5909744a6d615a76409597", "lat": 38.96629566666667, "fusion_lon": 0.0, "fusion_lat": 0.0, "type": "electric_scooter", "name": "775126822b5909744a6d615a76409597", "is_disabled": 0, "rental_uris": {"ios": "https://dc.lft.to/lastmile_qr_scan", "android": "https://dc.lft.to/lastmile_qr_scan"}, "is_reserved": 0}, {"lon": -77.00998633333333, "bike_id": "d676b43c5f3c4f080795b5343ded4be6", "lat": 38.8745305, "fusion_lon": 0.0, "fusion_lat": 0.0, "type": "electric_bike", "name": "d676b43c5f3c4f080795b5343ded4be6", "is_disabled": 0, "rental_uris": {"ios": "https://dc.lft.to/lastmile_qr_scan", "android": "https://dc.lft.to/lastmile_qr_scan"}, "is_reserved": 0}, {"lon": -77.01441083333333, "bike_id": "e4f75bb4ba84024b59b756d9616c724f", "lat": 38.920679, "fusion_lon": 0.0, "fusion_lat": 0.0, "type": "electric_scooter", "name": "e4f75bb4ba84024b59b756d9616c724f", "is_disabled": 0, "rental_uris": {"ios": "https://dc.lft.to/lastmile_qr_scan", "android": "https://dc.lft.to/lastmile_qr_scan"}, "is_reserved": 0}, {"lon": -77.03256616666667, "bike_id": "1c71dbf201103c8ab975aa875db02dc8", "lat": 38.93776833333333, "fusion_lon": 0.0, "fusion_lat": 0.0, "type": "electric_scooter", "name": "1c71dbf201103c8ab975aa875db02dc8", "is_disabled": 0, "rental_uris": {"ios": "https://dc.lft.to/lastmile_qr_scan", "android": "https://dc.lft.to/lastmile_qr_scan"}, "is_reserved": 0}, {"lon": -76.98464833333334, "bike_id": "893100fdff9eff351525117b0e04b1ad", "lat": 38.90401816666667, "fusion_lon": 0.0, "fusion_lat": 0.0, "type": "electric_scooter", "name": "893100fdff9eff351525117b0e04b1ad", "is_disabled": 0, "rental_uris": {"ios": "https://dc.lft.to/lastmile_qr_scan", "android": "https://dc.lft.to/lastmile_qr_scan"}, "is_reserved": 0}, {"lon": -77.01501483333334, "bike_id": "7e8f4b5f78a64a58c3d5d1ef2b08e3c1", "lat": 38.92683366666667, "fusion_lon": 0.0, "fusion_lat": 0.0, "type": "electric_scooter", "name": "7e8f4b5f78a64a58c3d5d1ef2b08e3c1", "is_disabled": 0, "rental_uris": {"ios": "https://dc.lft.to/lastmile_qr_scan", "android": "https://dc.lft.to/lastmile_qr_scan"}, "is_reserved": 0}, {"lon": -77.04176383333333, "bike_id": "f19694a7d5a945a64f6c3fde5547609d", "lat": 38.91733466666667, "fusion_lon": 0.0, "fusion_lat": 0.0, "type": "electric_scooter", "name": "f19694a7d5a945a64f6c3fde5547609d", "is_disabled": 0, "rental_uris": {"ios": "https://dc.lft.to/lastmile_qr_scan", "android": "https://dc.lft.to/lastmile_qr_scan"}, "is_reserved": 0}, {"lon": -77.02694383333333, "bike_id": "8fac66b755930f1f07232e66c1cdb351", "lat": 38.9168295, "fusion_lon": 0.0, "fusion_lat": 0.0, "type": "electric_scooter", "name": "8fac66b755930f1f07232e66c1cdb351", "is_disabled": 0, "rental_uris": {"ios": "https://dc.lft.to/lastmile_qr_scan", "android": "https://dc.lft.to/lastmile_qr_scan"}, "is_reserved": 0}, {"lon": -77.00133866666667, "bike_id": "700e80fe74862807b41de9062b159c9d", "lat": 38.9254915, "fusion_lon": 0.0, "fusion_lat": 0.0, "type": "electric_bike", "name": "700e80fe74862807b41de9062b159c9d", "is_disabled": 0, "rental_uris": {"ios": "https://dc.lft.to/lastmile_qr_scan", "android": "https://dc.lft.to/lastmile_qr_scan"}, "is_reserved": 0}, {"lon": -77.03321783333334, "bike_id": "e2006f26a67fd5b045996abb1491a1f6", "lat": 38.93902466666667, "fusion_lon": 0.0, "fusion_lat": 0.0, "type": "electric_scooter", "name": "e2006f26a67fd5b045996abb1491a1f6", "is_disabled": 0, "rental_uris": {"ios": "https://dc.lft.to/lastmile_qr_scan", "android": "https://dc.lft.to/lastmile_qr_scan"}, "is_reserved": 0}, {"lon": -77.03288016666667, "bike_id": "c7b5373e5a1d977fdf8ca9499b265783", "lat": 38.9284055, "fusion_lon": 0.0, "fusion_lat": 0.0, "type": "electric_scooter", "name": "c7b5373e5a1d977fdf8ca9499b265783", "is_disabled": 0, "rental_uris": {"ios": "https://dc.lft.to/lastmile_qr_scan", "android": "https://dc.lft.to/lastmile_qr_scan"}, "is_reserved": 0}, {"lon": -77.0197965, "bike_id": "ee5df7f6a4b497ab6457ff3455759fb2", "lat": 38.91486116666667, "fusion_lon": 0.0, "fusion_lat": 0.0, "type": "electric_scooter", "name": "ee5df7f6a4b497ab6457ff3455759fb2", "is_disabled": 0, "rental_uris": {"ios": "https://dc.lft.to/lastmile_qr_scan", "android": "https://dc.lft.to/lastmile_qr_scan"}, "is_reserved": 0}, {"lon": -76.9936565, "bike_id": "06aba1ab9c888852f7cb56605c66faaf", "lat": 38.92399183333333, "fusion_lon": 0.0, "fusion_lat": 0.0, "type": "electric_scooter", "name": "06aba1ab9c888852f7cb56605c66faaf", "is_disabled": 0, "rental_uris": {"ios": "https://dc.lft.to/lastmile_qr_scan", "android": "https://dc.lft.to/lastmile_qr_scan"}, "is_reserved": 0}, {"lon": -77.04398083333334, "bike_id": "0f52686bc1961848ee173d00c664791b", "lat": 38.9126015, "fusion_lon": 0.0, "fusion_lat": 0.0, "type": "electric_scooter", "name": "0f52686bc1961848ee173d00c664791b", "is_disabled": 0, "rental_uris": {"ios": "https://dc.lft.to/lastmile_qr_scan", "android": "https://dc.lft.to/lastmile_qr_scan"}, "is_reserved": 0}, {"lon": -77.03009783333333, "bike_id": "f3090200bb1ddd6127696582b90e4d0f", "lat": 38.917126333333336, "fusion_lon": 0.0, "fusion_lat": 0.0, "type": "electric_scooter", "name": "f3090200bb1ddd6127696582b90e4d0f", "is_disabled": 0, "rental_uris": {"ios": "https://dc.lft.to/lastmile_qr_scan", "android": "https://dc.lft.to/lastmile_qr_scan"}, "is_reserved": 0}, {"lon": -77.0031275, "bike_id": "a66a7f923311f6d70081d0294a79dfd6", "lat": 38.907470833333335, "fusion_lon": 0.0, "fusion_lat": 0.0, "type": "electric_bike", "name": "a66a7f923311f6d70081d0294a79dfd6", "is_disabled": 0, "rental_uris": {"ios": "https://dc.lft.to/lastmile_qr_scan", "android": "https://dc.lft.to/lastmile_qr_scan"}, "is_reserved": 0}, {"lon": -77.02264633333333, "bike_id": "f9138aab99e2f269ca8714cd29139881", "lat": 38.93773783333334, "fusion_lon": 0.0, "fusion_lat": 0.0, "type": "electric_scooter", "name": "f9138aab99e2f269ca8714cd29139881", "is_disabled": 0, "rental_uris": {"ios": "https://dc.lft.to/lastmile_qr_scan", "android": "https://dc.lft.to/lastmile_qr_scan"}, "is_reserved": 0}, {"lon": -77.03269083333333, "bike_id": "b50ecacce77e098464bd11fcf0c2f107", "lat": 38.92752016666667, "fusion_lon": 0.0, "fusion_lat": 0.0, "type": "electric_scooter", "name": "b50ecacce77e098464bd11fcf0c2f107", "is_disabled": 0, "rental_uris": {"ios": "https://dc.lft.to/lastmile_qr_scan", "android": "https://dc.lft.to/lastmile_qr_scan"}, "is_reserved": 0}, {"lon": -77.03214866666667, "bike_id": "b9aaeee7483582a64d8fbf0296d0eefc", "lat": 38.916967166666666, "fusion_lon": 0.0, "fusion_lat": 0.0, "type": "electric_scooter", "name": "b9aaeee7483582a64d8fbf0296d0eefc", "is_disabled": 0, "rental_uris": {"ios": "https://dc.lft.to/lastmile_qr_scan", "android": "https://dc.lft.to/lastmile_qr_scan"}, "is_reserved": 0}, {"lon": -77.04585883333333, "bike_id": "2b2e3af7f7aa9399a2178a5d07a185e9", "lat": 38.9213945, "fusion_lon": 0.0, "fusion_lat": 0.0, "type": "electric_scooter", "name": "2b2e3af7f7aa9399a2178a5d07a185e9", "is_disabled": 0, "rental_uris": {"ios": "https://dc.lft.to/lastmile_qr_scan", "android": "https://dc.lft.to/lastmile_qr_scan"}, "is_reserved": 0}, {"lon": -77.04250866666666, "bike_id": "367722d878f1eacaad7f000c51b4cd81", "lat": 38.92635383333333, "fusion_lon": 0.0, "fusion_lat": 0.0, "type": "electric_scooter", "name": "367722d878f1eacaad7f000c51b4cd81", "is_disabled": 0, "rental_uris": {"ios": "https://dc.lft.to/lastmile_qr_scan", "android": "https://dc.lft.to/lastmile_qr_scan"}, "is_reserved": 0}, {"lon": -77.04402483333334, "bike_id": "6dab253e8e0e9caefcdd5a4051e81e7e", "lat": 38.93326716666667, "fusion_lon": 0.0, "fusion_lat": 0.0, "type": "electric_scooter", "name": "6dab253e8e0e9caefcdd5a4051e81e7e", "is_disabled": 0, "rental_uris": {"ios": "https://dc.lft.to/lastmile_qr_scan", "android": "https://dc.lft.to/lastmile_qr_scan"}, "is_reserved": 0}, {"lon": -77.0326145, "bike_id": "4ad003d6df121dc56c848188f0da7234", "lat": 38.925414833333335, "fusion_lon": 0.0, "fusion_lat": 0.0, "type": "electric_scooter", "name": "4ad003d6df121dc56c848188f0da7234", "is_disabled": 0, "rental_uris": {"ios": "https://dc.lft.to/lastmile_qr_scan", "android": "https://dc.lft.to/lastmile_qr_scan"}, "is_reserved": 0}, {"lon": -77.05235716666667, "bike_id": "c726e69cd56d5abf3490fc1364a1c98b", "lat": 38.924679833333336, "fusion_lon": 0.0, "fusion_lat": 0.0, "type": "electric_scooter", "name": "c726e69cd56d5abf3490fc1364a1c98b", "is_disabled": 0, "rental_uris": {"ios": "https://dc.lft.to/lastmile_qr_scan", "android": "https://dc.lft.to/lastmile_qr_scan"}, "is_reserved": 0}, {"lon": -77.02729733333334, "bike_id": "69ceac4893ffb308ed2216dae8337e50", "lat": 38.932131166666665, "fusion_lon": 0.0, "fusion_lat": 0.0, "type": "electric_scooter", "name": "69ceac4893ffb308ed2216dae8337e50", "is_disabled": 0, "rental_uris": {"ios": "https://dc.lft.to/lastmile_qr_scan", "android": "https://dc.lft.to/lastmile_qr_scan"}, "is_reserved": 0}, {"lon": -77.023841, "bike_id": "ca0bbfc547e3ff1a0e56b296bd21d01a", "lat": 38.920049, "fusion_lon": 0.0, "fusion_lat": 0.0, "type": "electric_scooter", "name": "ca0bbfc547e3ff1a0e56b296bd21d01a", "is_disabled": 0, "rental_uris": {"ios": "https://dc.lft.to/lastmile_qr_scan", "android": "https://dc.lft.to/lastmile_qr_scan"}, "is_reserved": 0}, {"lon": -77.0231275, "bike_id": "12125e3d3dd967e5a71810b7acad7409", "lat": 38.918482833333336, "fusion_lon": 0.0, "fusion_lat": 0.0, "type": "electric_scooter", "name": "12125e3d3dd967e5a71810b7acad7409", "is_disabled": 0, "rental_uris": {"ios": "https://dc.lft.to/lastmile_qr_scan", "android": "https://dc.lft.to/lastmile_qr_scan"}, "is_reserved": 0}, {"lon": -77.01474133333333, "bike_id": "910e0a039e13cfa5f85c9f1d1bdef421", "lat": 38.917670333333334, "fusion_lon": 0.0, "fusion_lat": 0.0, "type": "electric_scooter", "name": "910e0a039e13cfa5f85c9f1d1bdef421", "is_disabled": 0, "rental_uris": {"ios": "https://dc.lft.to/lastmile_qr_scan", "android": "https://dc.lft.to/lastmile_qr_scan"}, "is_reserved": 0}, {"lon": -77.0527805, "bike_id": "b9adef74a294a980fca9b88448fdc0a3", "lat": 38.91018733333333, "fusion_lon": 0.0, "fusion_lat": 0.0, "type": "electric_scooter", "name": "b9adef74a294a980fca9b88448fdc0a3", "is_disabled": 0, "rental_uris": {"ios": "https://dc.lft.to/lastmile_qr_scan", "android": "https://dc.lft.to/lastmile_qr_scan"}, "is_reserved": 0}, {"lon": -77.02788966666667, "bike_id": "5253490ae90e3da9724a5af6b402ea8c", "lat": 38.956819333333335, "fusion_lon": 0.0, "fusion_lat": 0.0, "type": "electric_scooter", "name": "5253490ae90e3da9724a5af6b402ea8c", "is_disabled": 0, "rental_uris": {"ios": "https://dc.lft.to/lastmile_qr_scan", "android": "https://dc.lft.to/lastmile_qr_scan"}, "is_reserved": 0}, {"lon": -77.025983, "bike_id": "3bf630351e50671821fc584f03568ceb", "lat": 38.9027035, "fusion_lon": 0.0, "fusion_lat": 0.0, "type": "electric_scooter", "name": "3bf630351e50671821fc584f03568ceb", "is_disabled": 0, "rental_uris": {"ios": "https://dc.lft.to/lastmile_qr_scan", "android": "https://dc.lft.to/lastmile_qr_scan"}, "is_reserved": 0}, {"lon": -76.99402816666667, "bike_id": "81722fcb8955b93497e1bf40ea4acabb", "lat": 38.83140266666667, "fusion_lon": 0.0, "fusion_lat": 0.0, "type": "electric_bike", "name": "81722fcb8955b93497e1bf40ea4acabb", "is_disabled": 0, "rental_uris": {"ios": "https://dc.lft.to/lastmile_qr_scan", "android": "https://dc.lft.to/lastmile_qr_scan"}, "is_reserved": 0}, {"lon": -76.98262166666666, "bike_id": "62ea03e241c91a24e6cf4a184392214c", "lat": 38.9085675, "fusion_lon": 0.0, "fusion_lat": 0.0, "type": "electric_scooter", "name": "62ea03e241c91a24e6cf4a184392214c", "is_disabled": 0, "rental_uris": {"ios": "https://dc.lft.to/lastmile_qr_scan", "android": "https://dc.lft.to/lastmile_qr_scan"}, "is_reserved": 0}, {"lon": -76.985916, "bike_id": "d277a8294dee70dba8c3ae93801b608b", "lat": 38.90815416666667, "fusion_lon": 0.0, "fusion_lat": 0.0, "type": "electric_scooter", "name": "d277a8294dee70dba8c3ae93801b608b", "is_disabled": 0, "rental_uris": {"ios": "https://dc.lft.to/lastmile_qr_scan", "android": "https://dc.lft.to/lastmile_qr_scan"}, "is_reserved": 0}, {"lon": -76.95484383333333, "bike_id": "8e07cd7582daae0d05bd0f34874e26cd", "lat": 38.884701666666665, "fusion_lon": 0.0, "fusion_lat": 0.0, "type": "electric_scooter", "name": "8e07cd7582daae0d05bd0f34874e26cd", "is_disabled": 0, "rental_uris": {"ios": "https://dc.lft.to/lastmile_qr_scan", "android": "https://dc.lft.to/lastmile_qr_scan"}, "is_reserved": 0}, {"lon": -76.9948485, "bike_id": "8674a256ca98ee212663e9f7eb5c8037", "lat": 38.91571583333333, "fusion_lon": 0.0, "fusion_lat": 0.0, "type": "electric_scooter", "name": "8674a256ca98ee212663e9f7eb5c8037", "is_disabled": 0, "rental_uris": {"ios": "https://dc.lft.to/lastmile_qr_scan", "android": "https://dc.lft.to/lastmile_qr_scan"}, "is_reserved": 0}, {"lon": -77.04164983333334, "bike_id": "909c5e0dbdefe669e686de3979b85010", "lat": 38.913568833333336, "fusion_lon": 0.0, "fusion_lat": 0.0, "type": "electric_scooter", "name": "909c5e0dbdefe669e686de3979b85010", "is_disabled": 0, "rental_uris": {"ios": "https://dc.lft.to/lastmile_qr_scan", "android": "https://dc.lft.to/lastmile_qr_scan"}, "is_reserved": 0}, {"lon": -76.98884266666667, "bike_id": "034c723b248b6e653651eed5627a1435", "lat": 38.8665705, "fusion_lon": 0.0, "fusion_lat": 0.0, "type": "electric_scooter", "name": "034c723b248b6e653651eed5627a1435", "is_disabled": 0, "rental_uris": {"ios": "https://dc.lft.to/lastmile_qr_scan", "android": "https://dc.lft.to/lastmile_qr_scan"}, "is_reserved": 0}, {"lon": -77.02622933333333, "bike_id": "b61fe61bf7639e3d41b32459a9a09ecf", "lat": 38.962287833333335, "fusion_lon": 0.0, "fusion_lat": 0.0, "type": "electric_bike", "name": "b61fe61bf7639e3d41b32459a9a09ecf", "is_disabled": 0, "rental_uris": {"ios": "https://dc.lft.to/lastmile_qr_scan", "android": "https://dc.lft.to/lastmile_qr_scan"}, "is_reserved": 0}, {"lon": -77.041037, "bike_id": "344a3a3ac642a3104865359e2681d82c", "lat": 38.92030033333333, "fusion_lon": 0.0, "fusion_lat": 0.0, "type": "electric_scooter", "name": "344a3a3ac642a3104865359e2681d82c", "is_disabled": 0, "rental_uris": {"ios": "https://dc.lft.to/lastmile_qr_scan", "android": "https://dc.lft.to/lastmile_qr_scan"}, "is_reserved": 0}, {"lon": -76.9336495, "bike_id": "aabb0a527f6b9bdf2ef8c8814abf1851", "lat": 38.899119166666665, "fusion_lon": 0.0, "fusion_lat": 0.0, "type": "electric_scooter", "name": "aabb0a527f6b9bdf2ef8c8814abf1851", "is_disabled": 0, "rental_uris": {"ios": "https://dc.lft.to/lastmile_qr_scan", "android": "https://dc.lft.to/lastmile_qr_scan"}, "is_reserved": 0}, {"lon": -76.98899683333333, "bike_id": "a94a705c347a57e2738dd24516162b38", "lat": 38.91351133333333, "fusion_lon": 0.0, "fusion_lat": 0.0, "type": "electric_scooter", "name": "a94a705c347a57e2738dd24516162b38", "is_disabled": 0, "rental_uris": {"ios": "https://dc.lft.to/lastmile_qr_scan", "android": "https://dc.lft.to/lastmile_qr_scan"}, "is_reserved": 0}, {"lon": -77.03874066666667, "bike_id": "e5fb0e04558c5fcc2961581664e6a2ad", "lat": 38.933061333333335, "fusion_lon": 0.0, "fusion_lat": 0.0, "type": "electric_scooter", "name": "e5fb0e04558c5fcc2961581664e6a2ad", "is_disabled": 0, "rental_uris": {"ios": "https://dc.lft.to/lastmile_qr_scan", "android": "https://dc.lft.to/lastmile_qr_scan"}, "is_reserved": 0}, {"lon": -77.006974, "bike_id": "d275354456040bbef9776e099039f9bc", "lat": 38.879466, "fusion_lon": 0.0, "fusion_lat": 0.0, "type": "electric_scooter", "name": "d275354456040bbef9776e099039f9bc", "is_disabled": 0, "rental_uris": {"ios": "https://dc.lft.to/lastmile_qr_scan", "android": "https://dc.lft.to/lastmile_qr_scan"}, "is_reserved": 0}, {"lon": -76.9818305, "bike_id": "4f2a9fa38c393dcaedb4eb49ae811954", "lat": 38.92606816666667, "fusion_lon": 0.0, "fusion_lat": 0.0, "type": "electric_scooter", "name": "4f2a9fa38c393dcaedb4eb49ae811954", "is_disabled": 0, "rental_uris": {"ios": "https://dc.lft.to/lastmile_qr_scan", "android": "https://dc.lft.to/lastmile_qr_scan"}, "is_reserved": 0}, {"lon": -77.038942, "bike_id": "ddb2275ac7fa1960a3c1751bcdff45c2", "lat": 38.922447, "fusion_lon": 0.0, "fusion_lat": 0.0, "type": "electric_scooter", "name": "ddb2275ac7fa1960a3c1751bcdff45c2", "is_disabled": 0, "rental_uris": {"ios": "https://dc.lft.to/lastmile_qr_scan", "android": "https://dc.lft.to/lastmile_qr_scan"}, "is_reserved": 0}, {"lon": -76.95670433333333, "bike_id": "895c930cc6de3270c93f9fab8ffc87e1", "lat": 38.94664816666667, "fusion_lon": 0.0, "fusion_lat": 0.0, "type": "electric_bike", "name": "895c930cc6de3270c93f9fab8ffc87e1", "is_disabled": 0, "rental_uris": {"ios": "https://dc.lft.to/lastmile_qr_scan", "android": "https://dc.lft.to/lastmile_qr_scan"}, "is_reserved": 0}, {"lon": -77.1009405, "bike_id": "8bd9ff9d2cc45f2e13b693c41a06a9e2", "lat": 38.959595, "fusion_lon": 0.0, "fusion_lat": 0.0, "type": "electric_bike", "name": "8bd9ff9d2cc45f2e13b693c41a06a9e2", "is_disabled": 0, "rental_uris": {"ios": "https://dc.lft.to/lastmile_qr_scan", "android": "https://dc.lft.to/lastmile_qr_scan"}, "is_reserved": 0}, {"lon": -77.01548683333333, "bike_id": "30333c87f39e40e1d77f77f273db216a", "lat": 38.9395265, "fusion_lon": 0.0, "fusion_lat": 0.0, "type": "electric_scooter", "name": "30333c87f39e40e1d77f77f273db216a", "is_disabled": 0, "rental_uris": {"ios": "https://dc.lft.to/lastmile_qr_scan", "android": "https://dc.lft.to/lastmile_qr_scan"}, "is_reserved": 0}, {"lon": -77.0424545, "bike_id": "dd52bf3a3a64cfee2ba693b3f83d303c", "lat": 38.92228016666667, "fusion_lon": 0.0, "fusion_lat": 0.0, "type": "electric_scooter", "name": "dd52bf3a3a64cfee2ba693b3f83d303c", "is_disabled": 0, "rental_uris": {"ios": "https://dc.lft.to/lastmile_qr_scan", "android": "https://dc.lft.to/lastmile_qr_scan"}, "is_reserved": 0}, {"lon": -77.03484033333334, "bike_id": "c43fc7d1789b807bcf5ae388d51bc796", "lat": 38.91711633333333, "fusion_lon": 0.0, "fusion_lat": 0.0, "type": "electric_scooter", "name": "c43fc7d1789b807bcf5ae388d51bc796", "is_disabled": 0, "rental_uris": {"ios": "https://dc.lft.to/lastmile_qr_scan", "android": "https://dc.lft.to/lastmile_qr_scan"}, "is_reserved": 0}, {"lon": -77.02715, "bike_id": "f1e5452cd47e3f1b2b362fc5f66df869", "lat": 38.92772733333334, "fusion_lon": 0.0, "fusion_lat": 0.0, "type": "electric_scooter", "name": "f1e5452cd47e3f1b2b362fc5f66df869", "is_disabled": 0, "rental_uris": {"ios": "https://dc.lft.to/lastmile_qr_scan", "android": "https://dc.lft.to/lastmile_qr_scan"}, "is_reserved": 0}, {"lon": -77.04639566666667, "bike_id": "c10959a8f5552756b6243cc78d576d18", "lat": 38.921153833333335, "fusion_lon": 0.0, "fusion_lat": 0.0, "type": "electric_scooter", "name": "c10959a8f5552756b6243cc78d576d18", "is_disabled": 0, "rental_uris": {"ios": "https://dc.lft.to/lastmile_qr_scan", "android": "https://dc.lft.to/lastmile_qr_scan"}, "is_reserved": 0}, {"lon": -76.9853715, "bike_id": "2bcb8c4da349462030d38c19d94e7586", "lat": 38.9102685, "fusion_lon": 0.0, "fusion_lat": 0.0, "type": "electric_scooter", "name": "2bcb8c4da349462030d38c19d94e7586", "is_disabled": 0, "rental_uris": {"ios": "https://dc.lft.to/lastmile_qr_scan", "android": "https://dc.lft.to/lastmile_qr_scan"}, "is_reserved": 0}, {"lon": -77.02560916666667, "bike_id": "10259d4d1d8b5621e05decbf242e63fc", "lat": 38.9240675, "fusion_lon": 0.0, "fusion_lat": 0.0, "type": "electric_scooter", "name": "10259d4d1d8b5621e05decbf242e63fc", "is_disabled": 0, "rental_uris": {"ios": "https://dc.lft.to/lastmile_qr_scan", "android": "https://dc.lft.to/lastmile_qr_scan"}, "is_reserved": 0}, {"lon": -77.05045783333334, "bike_id": "598c1fec62b37eec08a335e3fd22f32a", "lat": 38.903054, "fusion_lon": 0.0, "fusion_lat": 0.0, "type": "electric_scooter", "name": "598c1fec62b37eec08a335e3fd22f32a", "is_disabled": 0, "rental_uris": {"ios": "https://dc.lft.to/lastmile_qr_scan", "android": "https://dc.lft.to/lastmile_qr_scan"}, "is_reserved": 0}, {"lon": -76.98723966666667, "bike_id": "350cf403b7a48018da592bbd86ff686f", "lat": 38.86707833333333, "fusion_lon": 0.0, "fusion_lat": 0.0, "type": "electric_scooter", "name": "350cf403b7a48018da592bbd86ff686f", "is_disabled": 0, "rental_uris": {"ios": "https://dc.lft.to/lastmile_qr_scan", "android": "https://dc.lft.to/lastmile_qr_scan"}, "is_reserved": 0}, {"lon": -77.00369616666667, "bike_id": "711de84b9b4b530a848f17e9e6d51d99", "lat": 38.89731233333333, "fusion_lon": 0.0, "fusion_lat": 0.0, "type": "electric_scooter", "name": "711de84b9b4b530a848f17e9e6d51d99", "is_disabled": 0, "rental_uris": {"ios": "https://dc.lft.to/lastmile_qr_scan", "android": "https://dc.lft.to/lastmile_qr_scan"}, "is_reserved": 0}, {"lon": -77.023638, "bike_id": "27b4c49d94cdbdc68115a9fda26f5f45", "lat": 38.89226583333333, "fusion_lon": 0.0, "fusion_lat": 0.0, "type": "electric_scooter", "name": "27b4c49d94cdbdc68115a9fda26f5f45", "is_disabled": 0, "rental_uris": {"ios": "https://dc.lft.to/lastmile_qr_scan", "android": "https://dc.lft.to/lastmile_qr_scan"}, "is_reserved": 0}, {"lon": -77.02977866666667, "bike_id": "218bead1ed53ad5e045a54bd0eb10b93", "lat": 38.9474315, "fusion_lon": 0.0, "fusion_lat": 0.0, "type": "electric_scooter", "name": "218bead1ed53ad5e045a54bd0eb10b93", "is_disabled": 0, "rental_uris": {"ios": "https://dc.lft.to/lastmile_qr_scan", "android": "https://dc.lft.to/lastmile_qr_scan"}, "is_reserved": 0}, {"lon": -77.0340555, "bike_id": "7a82daf4e4df02c6e07eb915f4b68b69", "lat": 38.93424, "fusion_lon": 0.0, "fusion_lat": 0.0, "type": "electric_scooter", "name": "7a82daf4e4df02c6e07eb915f4b68b69", "is_disabled": 0, "rental_uris": {"ios": "https://dc.lft.to/lastmile_qr_scan", "android": "https://dc.lft.to/lastmile_qr_scan"}, "is_reserved": 0}, {"lon": -77.02504966666666, "bike_id": "2573aa270506e586db343053e8d23304", "lat": 38.920773, "fusion_lon": 0.0, "fusion_lat": 0.0, "type": "electric_scooter", "name": "2573aa270506e586db343053e8d23304", "is_disabled": 0, "rental_uris": {"ios": "https://dc.lft.to/lastmile_qr_scan", "android": "https://dc.lft.to/lastmile_qr_scan"}, "is_reserved": 0}, {"lon": -77.04610483333333, "bike_id": "b4145f5522b1bdba184c29df3735a2c7", "lat": 38.9157335, "fusion_lon": 0.0, "fusion_lat": 0.0, "type": "electric_scooter", "name": "b4145f5522b1bdba184c29df3735a2c7", "is_disabled": 0, "rental_uris": {"ios": "https://dc.lft.to/lastmile_qr_scan", "android": "https://dc.lft.to/lastmile_qr_scan"}, "is_reserved": 0}, {"lon": -77.02118966666667, "bike_id": "7a4c4956432274461b591b8ec2dc8ef3", "lat": 38.937027, "fusion_lon": 0.0, "fusion_lat": 0.0, "type": "electric_scooter", "name": "7a4c4956432274461b591b8ec2dc8ef3", "is_disabled": 0, "rental_uris": {"ios": "https://dc.lft.to/lastmile_qr_scan", "android": "https://dc.lft.to/lastmile_qr_scan"}, "is_reserved": 0}, {"lon": -77.042335, "bike_id": "bf614c1c19c05847b9e7aea049575656", "lat": 38.911209, "fusion_lon": 0.0, "fusion_lat": 0.0, "type": "electric_scooter", "name": "bf614c1c19c05847b9e7aea049575656", "is_disabled": 0, "rental_uris": {"ios": "https://dc.lft.to/lastmile_qr_scan", "android": "https://dc.lft.to/lastmile_qr_scan"}, "is_reserved": 0}, {"lon": -77.03268466666667, "bike_id": "b4d6d50b93d43aefab3e968820fc67b6", "lat": 38.92874066666667, "fusion_lon": 0.0, "fusion_lat": 0.0, "type": "electric_scooter", "name": "b4d6d50b93d43aefab3e968820fc67b6", "is_disabled": 0, "rental_uris": {"ios": "https://dc.lft.to/lastmile_qr_scan", "android": "https://dc.lft.to/lastmile_qr_scan"}, "is_reserved": 0}, {"lon": -77.023898, "bike_id": "33a24c654519df77be23effe6e25e2b3", "lat": 38.91996833333333, "fusion_lon": 0.0, "fusion_lat": 0.0, "type": "electric_scooter", "name": "33a24c654519df77be23effe6e25e2b3", "is_disabled": 0, "rental_uris": {"ios": "https://dc.lft.to/lastmile_qr_scan", "android": "https://dc.lft.to/lastmile_qr_scan"}, "is_reserved": 0}, {"lon": -77.0557875, "bike_id": "dfcedf1320b1def9f9e60ffe97e8e554", "lat": 38.8931285, "fusion_lon": 0.0, "fusion_lat": 0.0, "type": "electric_scooter", "name": "dfcedf1320b1def9f9e60ffe97e8e554", "is_disabled": 0, "rental_uris": {"ios": "https://dc.lft.to/lastmile_qr_scan", "android": "https://dc.lft.to/lastmile_qr_scan"}, "is_reserved": 0}, {"lon": -77.04465416666666, "bike_id": "531a0423682e94444efadcecac1ae00f", "lat": 38.907202, "fusion_lon": 0.0, "fusion_lat": 0.0, "type": "electric_scooter", "name": "531a0423682e94444efadcecac1ae00f", "is_disabled": 0, "rental_uris": {"ios": "https://dc.lft.to/lastmile_qr_scan", "android": "https://dc.lft.to/lastmile_qr_scan"}, "is_reserved": 0}, {"lon": -77.06391433333333, "bike_id": "201d05a1355ec8c5679e810359bc4be2", "lat": 38.909205166666666, "fusion_lon": 0.0, "fusion_lat": 0.0, "type": "electric_scooter", "name": "201d05a1355ec8c5679e810359bc4be2", "is_disabled": 0, "rental_uris": {"ios": "https://dc.lft.to/lastmile_qr_scan", "android": "https://dc.lft.to/lastmile_qr_scan"}, "is_reserved": 0}, {"lon": -77.003321, "bike_id": "04e76b3329501fcc6141a01cc90ac0e2", "lat": 38.8919095, "fusion_lon": 0.0, "fusion_lat": 0.0, "type": "electric_scooter", "name": "04e76b3329501fcc6141a01cc90ac0e2", "is_disabled": 0, "rental_uris": {"ios": "https://dc.lft.to/lastmile_qr_scan", "android": "https://dc.lft.to/lastmile_qr_scan"}, "is_reserved": 0}, {"lon": -77.05210616666666, "bike_id": "6147214bb5e15453f60128bade087dbf", "lat": 38.90081516666667, "fusion_lon": 0.0, "fusion_lat": 0.0, "type": "electric_scooter", "name": "6147214bb5e15453f60128bade087dbf", "is_disabled": 0, "rental_uris": {"ios": "https://dc.lft.to/lastmile_qr_scan", "android": "https://dc.lft.to/lastmile_qr_scan"}, "is_reserved": 0}, {"lon": -77.044395, "bike_id": "103beb2d4b9c384ee80bc506c83e2326", "lat": 38.918766833333336, "fusion_lon": 0.0, "fusion_lat": 0.0, "type": "electric_scooter", "name": "103beb2d4b9c384ee80bc506c83e2326", "is_disabled": 0, "rental_uris": {"ios": "https://dc.lft.to/lastmile_qr_scan", "android": "https://dc.lft.to/lastmile_qr_scan"}, "is_reserved": 0}, {"lon": -76.99466033333333, "bike_id": "7c1788b687e4eb2889f9c0e9a355422d", "lat": 38.940707333333336, "fusion_lon": 0.0, "fusion_lat": 0.0, "type": "electric_bike", "name": "7c1788b687e4eb2889f9c0e9a355422d", "is_disabled": 0, "rental_uris": {"ios": "https://dc.lft.to/lastmile_qr_scan", "android": "https://dc.lft.to/lastmile_qr_scan"}, "is_reserved": 0}, {"lon": -77.034621, "bike_id": "7c23144c3f084a767f76d542e2cf6a20", "lat": 38.92647066666667, "fusion_lon": 0.0, "fusion_lat": 0.0, "type": "electric_scooter", "name": "7c23144c3f084a767f76d542e2cf6a20", "is_disabled": 0, "rental_uris": {"ios": "https://dc.lft.to/lastmile_qr_scan", "android": "https://dc.lft.to/lastmile_qr_scan"}, "is_reserved": 0}, {"lon": -77.0272425, "bike_id": "60f1327984682c77e792b17b9a15d9d4", "lat": 38.89788566666667, "fusion_lon": 0.0, "fusion_lat": 0.0, "type": "electric_scooter", "name": "60f1327984682c77e792b17b9a15d9d4", "is_disabled": 0, "rental_uris": {"ios": "https://dc.lft.to/lastmile_qr_scan", "android": "https://dc.lft.to/lastmile_qr_scan"}, "is_reserved": 0}, {"lon": -77.02215666666666, "bike_id": "236c01ecaaae01415f4782e267055d8d", "lat": 38.94098133333333, "fusion_lon": 0.0, "fusion_lat": 0.0, "type": "electric_scooter", "name": "236c01ecaaae01415f4782e267055d8d", "is_disabled": 0, "rental_uris": {"ios": "https://dc.lft.to/lastmile_qr_scan", "android": "https://dc.lft.to/lastmile_qr_scan"}, "is_reserved": 0}, {"lon": -77.02954033333333, "bike_id": "b5d3fbfc685595c5a89a4e1d8e9abb07", "lat": 38.905019, "fusion_lon": 0.0, "fusion_lat": 0.0, "type": "electric_scooter", "name": "b5d3fbfc685595c5a89a4e1d8e9abb07", "is_disabled": 0, "rental_uris": {"ios": "https://dc.lft.to/lastmile_qr_scan", "android": "https://dc.lft.to/lastmile_qr_scan"}, "is_reserved": 0}, {"lon": -77.03076066666667, "bike_id": "b8d3dd2b4d8dc9aca464093e084c8611", "lat": 38.880403333333334, "fusion_lon": 0.0, "fusion_lat": 0.0, "type": "electric_scooter", "name": "b8d3dd2b4d8dc9aca464093e084c8611", "is_disabled": 0, "rental_uris": {"ios": "https://dc.lft.to/lastmile_qr_scan", "android": "https://dc.lft.to/lastmile_qr_scan"}, "is_reserved": 0}, {"lon": -77.020922, "bike_id": "80f3586b7409c86cbe92665d336674a7", "lat": 38.899836, "fusion_lon": 0.0, "fusion_lat": 0.0, "type": "electric_scooter", "name": "80f3586b7409c86cbe92665d336674a7", "is_disabled": 0, "rental_uris": {"ios": "https://dc.lft.to/lastmile_qr_scan", "android": "https://dc.lft.to/lastmile_qr_scan"}, "is_reserved": 0}, {"lon": -76.9888265, "bike_id": "137100fd849c745496c716d6174d3ce5", "lat": 38.866560166666666, "fusion_lon": 0.0, "fusion_lat": 0.0, "type": "electric_scooter", "name": "137100fd849c745496c716d6174d3ce5", "is_disabled": 0, "rental_uris": {"ios": "https://dc.lft.to/lastmile_qr_scan", "android": "https://dc.lft.to/lastmile_qr_scan"}, "is_reserved": 0}, {"lon": -77.03590416666667, "bike_id": "8011f534522f8aae9470c38ed65d8313", "lat": 38.93674566666667, "fusion_lon": 0.0, "fusion_lat": 0.0, "type": "electric_scooter", "name": "8011f534522f8aae9470c38ed65d8313", "is_disabled": 0, "rental_uris": {"ios": "https://dc.lft.to/lastmile_qr_scan", "android": "https://dc.lft.to/lastmile_qr_scan"}, "is_reserved": 0}, {"lon": -77.02097933333333, "bike_id": "6acca9a4bf2e36fd176ad416226fd1ee", "lat": 38.949973166666666, "fusion_lon": 0.0, "fusion_lat": 0.0, "type": "electric_scooter", "name": "6acca9a4bf2e36fd176ad416226fd1ee", "is_disabled": 0, "rental_uris": {"ios": "https://dc.lft.to/lastmile_qr_scan", "android": "https://dc.lft.to/lastmile_qr_scan"}, "is_reserved": 0}, {"lon": -77.00562216666667, "bike_id": "41bc893781f55678d0233fe6d33a17a7", "lat": 38.905638333333336, "fusion_lon": 0.0, "fusion_lat": 0.0, "type": "electric_scooter", "name": "41bc893781f55678d0233fe6d33a17a7", "is_disabled": 0, "rental_uris": {"ios": "https://dc.lft.to/lastmile_qr_scan", "android": "https://dc.lft.to/lastmile_qr_scan"}, "is_reserved": 0}, {"lon": -77.03213016666666, "bike_id": "8ecc17d68c7f796c6261a3720a00cb19", "lat": 38.921285166666664, "fusion_lon": 0.0, "fusion_lat": 0.0, "type": "electric_scooter", "name": "8ecc17d68c7f796c6261a3720a00cb19", "is_disabled": 0, "rental_uris": {"ios": "https://dc.lft.to/lastmile_qr_scan", "android": "https://dc.lft.to/lastmile_qr_scan"}, "is_reserved": 0}, {"lon": -77.02343316666666, "bike_id": "7385a437fd9bcc165d7375270ab8ef2a", "lat": 38.89633716666667, "fusion_lon": 0.0, "fusion_lat": 0.0, "type": "electric_scooter", "name": "7385a437fd9bcc165d7375270ab8ef2a", "is_disabled": 0, "rental_uris": {"ios": "https://dc.lft.to/lastmile_qr_scan", "android": "https://dc.lft.to/lastmile_qr_scan"}, "is_reserved": 0}, {"lon": -76.98555983333333, "bike_id": "b2013481d05ef22eaa8d2665f7ffc816", "lat": 38.8962215, "fusion_lon": 0.0, "fusion_lat": 0.0, "type": "electric_scooter", "name": "b2013481d05ef22eaa8d2665f7ffc816", "is_disabled": 0, "rental_uris": {"ios": "https://dc.lft.to/lastmile_qr_scan", "android": "https://dc.lft.to/lastmile_qr_scan"}, "is_reserved": 0}, {"lon": -77.02007833333333, "bike_id": "a5a7c0f60d809d190603d8d193e030ca", "lat": 38.9242105, "fusion_lon": 0.0, "fusion_lat": 0.0, "type": "electric_scooter", "name": "a5a7c0f60d809d190603d8d193e030ca", "is_disabled": 0, "rental_uris": {"ios": "https://dc.lft.to/lastmile_qr_scan", "android": "https://dc.lft.to/lastmile_qr_scan"}, "is_reserved": 0}, {"lon": -77.02086083333333, "bike_id": "7fb82c3e6f8def3031eecaf25ace23bd", "lat": 38.9269655, "fusion_lon": 0.0, "fusion_lat": 0.0, "type": "electric_scooter", "name": "7fb82c3e6f8def3031eecaf25ace23bd", "is_disabled": 0, "rental_uris": {"ios": "https://dc.lft.to/lastmile_qr_scan", "android": "https://dc.lft.to/lastmile_qr_scan"}, "is_reserved": 0}, {"lon": -77.0272095, "bike_id": "d2cb0e925f6b181b7bcf2b402d65860a", "lat": 38.897838166666666, "fusion_lon": 0.0, "fusion_lat": 0.0, "type": "electric_scooter", "name": "d2cb0e925f6b181b7bcf2b402d65860a", "is_disabled": 0, "rental_uris": {"ios": "https://dc.lft.to/lastmile_qr_scan", "android": "https://dc.lft.to/lastmile_qr_scan"}, "is_reserved": 0}, {"lon": -77.03040266666666, "bike_id": "2916fc3780d4690b5523338b65631e22", "lat": 38.87842533333333, "fusion_lon": 0.0, "fusion_lat": 0.0, "type": "electric_scooter", "name": "2916fc3780d4690b5523338b65631e22", "is_disabled": 0, "rental_uris": {"ios": "https://dc.lft.to/lastmile_qr_scan", "android": "https://dc.lft.to/lastmile_qr_scan"}, "is_reserved": 0}, {"lon": -76.9899955, "bike_id": "ff26ace36f1eb65c48b272414675b347", "lat": 38.865049666666664, "fusion_lon": 0.0, "fusion_lat": 0.0, "type": "electric_scooter", "name": "ff26ace36f1eb65c48b272414675b347", "is_disabled": 0, "rental_uris": {"ios": "https://dc.lft.to/lastmile_qr_scan", "android": "https://dc.lft.to/lastmile_qr_scan"}, "is_reserved": 0}, {"lon": -76.98947716666666, "bike_id": "f24a65ac07f0c6cf05b2dd41717af63a", "lat": 38.901909, "fusion_lon": 0.0, "fusion_lat": 0.0, "type": "electric_scooter", "name": "f24a65ac07f0c6cf05b2dd41717af63a", "is_disabled": 0, "rental_uris": {"ios": "https://dc.lft.to/lastmile_qr_scan", "android": "https://dc.lft.to/lastmile_qr_scan"}, "is_reserved": 0}, {"lon": -76.93732333333334, "bike_id": "599174f3686d506eda7d12582f25fd92", "lat": 38.89017333333334, "fusion_lon": 0.0, "fusion_lat": 0.0, "type": "electric_scooter", "name": "599174f3686d506eda7d12582f25fd92", "is_disabled": 0, "rental_uris": {"ios": "https://dc.lft.to/lastmile_qr_scan", "android": "https://dc.lft.to/lastmile_qr_scan"}, "is_reserved": 0}, {"lon": -77.02166133333333, "bike_id": "9a17c9ca9ac501557f4fa1537ded848c", "lat": 38.897357166666666, "fusion_lon": 0.0, "fusion_lat": 0.0, "type": "electric_scooter", "name": "9a17c9ca9ac501557f4fa1537ded848c", "is_disabled": 0, "rental_uris": {"ios": "https://dc.lft.to/lastmile_qr_scan", "android": "https://dc.lft.to/lastmile_qr_scan"}, "is_reserved": 0}, {"lon": -77.02413383333334, "bike_id": "7e81ef794dff5a16fea3c4888992e5ec", "lat": 38.93486683333333, "fusion_lon": 0.0, "fusion_lat": 0.0, "type": "electric_bike", "name": "7e81ef794dff5a16fea3c4888992e5ec", "is_disabled": 0, "rental_uris": {"ios": "https://dc.lft.to/lastmile_qr_scan", "android": "https://dc.lft.to/lastmile_qr_scan"}, "is_reserved": 0}, {"lon": -77.02579683333333, "bike_id": "08172491e590899dcc3fa23f36c1152a", "lat": 38.90575583333333, "fusion_lon": 0.0, "fusion_lat": 0.0, "type": "electric_scooter", "name": "08172491e590899dcc3fa23f36c1152a", "is_disabled": 0, "rental_uris": {"ios": "https://dc.lft.to/lastmile_qr_scan", "android": "https://dc.lft.to/lastmile_qr_scan"}, "is_reserved": 0}, {"lon": -77.0221135, "bike_id": "d4cd2fa644c3d00a6c5237401e58ab53", "lat": 38.893553, "fusion_lon": 0.0, "fusion_lat": 0.0, "type": "electric_scooter", "name": "d4cd2fa644c3d00a6c5237401e58ab53", "is_disabled": 0, "rental_uris": {"ios": "https://dc.lft.to/lastmile_qr_scan", "android": "https://dc.lft.to/lastmile_qr_scan"}, "is_reserved": 0}, {"lon": -77.05010866666667, "bike_id": "fda1205672ae253629d319f7d7de759d", "lat": 38.901644, "fusion_lon": 0.0, "fusion_lat": 0.0, "type": "electric_scooter", "name": "fda1205672ae253629d319f7d7de759d", "is_disabled": 0, "rental_uris": {"ios": "https://dc.lft.to/lastmile_qr_scan", "android": "https://dc.lft.to/lastmile_qr_scan"}, "is_reserved": 0}, {"lon": -76.95749116666667, "bike_id": "67584ad32d528ab5c9ae4913d209b716", "lat": 38.884282166666665, "fusion_lon": 0.0, "fusion_lat": 0.0, "type": "electric_scooter", "name": "67584ad32d528ab5c9ae4913d209b716", "is_disabled": 0, "rental_uris": {"ios": "https://dc.lft.to/lastmile_qr_scan", "android": "https://dc.lft.to/lastmile_qr_scan"}, "is_reserved": 0}, {"lon": -77.01964383333333, "bike_id": "f24b5ad74f24edc4173b3ee38c2e9047", "lat": 38.9358885, "fusion_lon": 0.0, "fusion_lat": 0.0, "type": "electric_scooter", "name": "f24b5ad74f24edc4173b3ee38c2e9047", "is_disabled": 0, "rental_uris": {"ios": "https://dc.lft.to/lastmile_qr_scan", "android": "https://dc.lft.to/lastmile_qr_scan"}, "is_reserved": 0}, {"lon": -77.04282666666667, "bike_id": "6e6bfb8d1a3cd96cbadde6d6954f0f7c", "lat": 38.9156905, "fusion_lon": 0.0, "fusion_lat": 0.0, "type": "electric_scooter", "name": "6e6bfb8d1a3cd96cbadde6d6954f0f7c", "is_disabled": 0, "rental_uris": {"ios": "https://dc.lft.to/lastmile_qr_scan", "android": "https://dc.lft.to/lastmile_qr_scan"}, "is_reserved": 0}, {"lon": -77.03621566666666, "bike_id": "cd976f141e4edb0edb05ff4f72685338", "lat": 38.931626, "fusion_lon": 0.0, "fusion_lat": 0.0, "type": "electric_scooter", "name": "cd976f141e4edb0edb05ff4f72685338", "is_disabled": 0, "rental_uris": {"ios": "https://dc.lft.to/lastmile_qr_scan", "android": "https://dc.lft.to/lastmile_qr_scan"}, "is_reserved": 0}, {"lon": -76.89535133333334, "bike_id": "86e96f0362391521f6c57151652a11d3", "lat": 38.9455195, "fusion_lon": 0.0, "fusion_lat": 0.0, "type": "electric_bike", "name": "86e96f0362391521f6c57151652a11d3", "is_disabled": 0, "rental_uris": {"ios": "https://dc.lft.to/lastmile_qr_scan", "android": "https://dc.lft.to/lastmile_qr_scan"}, "is_reserved": 0}, {"lon": -77.03189083333334, "bike_id": "f790f9e2280a920bb9886cc64b1aad2d", "lat": 38.91640666666667, "fusion_lon": 0.0, "fusion_lat": 0.0, "type": "electric_scooter", "name": "f790f9e2280a920bb9886cc64b1aad2d", "is_disabled": 0, "rental_uris": {"ios": "https://dc.lft.to/lastmile_qr_scan", "android": "https://dc.lft.to/lastmile_qr_scan"}, "is_reserved": 0}, {"lon": -77.02083466666667, "bike_id": "689f32adc0f2558f876ff38dba0b7c1c", "lat": 38.899845166666665, "fusion_lon": 0.0, "fusion_lat": 0.0, "type": "electric_scooter", "name": "689f32adc0f2558f876ff38dba0b7c1c", "is_disabled": 0, "rental_uris": {"ios": "https://dc.lft.to/lastmile_qr_scan", "android": "https://dc.lft.to/lastmile_qr_scan"}, "is_reserved": 0}, {"lon": -77.03211966666667, "bike_id": "c82057e65e0ebbe6f0a41159e84bec1d", "lat": 38.907303166666665, "fusion_lon": 0.0, "fusion_lat": 0.0, "type": "electric_scooter", "name": "c82057e65e0ebbe6f0a41159e84bec1d", "is_disabled": 0, "rental_uris": {"ios": "https://dc.lft.to/lastmile_qr_scan", "android": "https://dc.lft.to/lastmile_qr_scan"}, "is_reserved": 0}, {"lon": -76.97814666666666, "bike_id": "de5a137e8f94198c041744676aa7f010", "lat": 38.906688833333334, "fusion_lon": 0.0, "fusion_lat": 0.0, "type": "electric_scooter", "name": "de5a137e8f94198c041744676aa7f010", "is_disabled": 0, "rental_uris": {"ios": "https://dc.lft.to/lastmile_qr_scan", "android": "https://dc.lft.to/lastmile_qr_scan"}, "is_reserved": 0}, {"lon": -77.07113816666667, "bike_id": "65cbd07f0f3a5e0d0495551b8eba8ad3", "lat": 38.91973933333333, "fusion_lon": 0.0, "fusion_lat": 0.0, "type": "electric_scooter", "name": "65cbd07f0f3a5e0d0495551b8eba8ad3", "is_disabled": 0, "rental_uris": {"ios": "https://dc.lft.to/lastmile_qr_scan", "android": "https://dc.lft.to/lastmile_qr_scan"}, "is_reserved": 0}, {"lon": -76.99177933333333, "bike_id": "66c972d7cd0c3eeba7db6275435c9c42", "lat": 38.90507933333333, "fusion_lon": 0.0, "fusion_lat": 0.0, "type": "electric_scooter", "name": "66c972d7cd0c3eeba7db6275435c9c42", "is_disabled": 0, "rental_uris": {"ios": "https://dc.lft.to/lastmile_qr_scan", "android": "https://dc.lft.to/lastmile_qr_scan"}, "is_reserved": 0}, {"lon": -77.0261545, "bike_id": "b51997cc00cca6461639864cae54f99f", "lat": 38.91413033333333, "fusion_lon": 0.0, "fusion_lat": 0.0, "type": "electric_scooter", "name": "b51997cc00cca6461639864cae54f99f", "is_disabled": 0, "rental_uris": {"ios": "https://dc.lft.to/lastmile_qr_scan", "android": "https://dc.lft.to/lastmile_qr_scan"}, "is_reserved": 0}, {"lon": -77.108398, "bike_id": "1a8fa949d056e9d3a41579236b414633", "lat": 38.812023833333335, "fusion_lon": 0.0, "fusion_lat": 0.0, "type": "electric_bike", "name": "1a8fa949d056e9d3a41579236b414633", "is_disabled": 0, "rental_uris": {"ios": "https://dc.lft.to/lastmile_qr_scan", "android": "https://dc.lft.to/lastmile_qr_scan"}, "is_reserved": 0}, {"lon": -77.02948866666667, "bike_id": "b0236517af8bb095e2fe442d62d2822f", "lat": 38.905083166666664, "fusion_lon": 0.0, "fusion_lat": 0.0, "type": "electric_scooter", "name": "b0236517af8bb095e2fe442d62d2822f", "is_disabled": 0, "rental_uris": {"ios": "https://dc.lft.to/lastmile_qr_scan", "android": "https://dc.lft.to/lastmile_qr_scan"}, "is_reserved": 0}, {"lon": -77.03253716666667, "bike_id": "c5bc7087f310955dcdf990922b22c1d3", "lat": 38.90133483333334, "fusion_lon": 0.0, "fusion_lat": 0.0, "type": "electric_scooter", "name": "c5bc7087f310955dcdf990922b22c1d3", "is_disabled": 0, "rental_uris": {"ios": "https://dc.lft.to/lastmile_qr_scan", "android": "https://dc.lft.to/lastmile_qr_scan"}, "is_reserved": 0}, {"lon": -77.04005266666667, "bike_id": "9cc6edb29fa06004d3d853cd14d7b384", "lat": 38.90994283333333, "fusion_lon": 0.0, "fusion_lat": 0.0, "type": "electric_scooter", "name": "9cc6edb29fa06004d3d853cd14d7b384", "is_disabled": 0, "rental_uris": {"ios": "https://dc.lft.to/lastmile_qr_scan", "android": "https://dc.lft.to/lastmile_qr_scan"}, "is_reserved": 0}, {"lon": -77.03477966666667, "bike_id": "513ba32125ac14addaf9cfae8e180436", "lat": 38.91995633333333, "fusion_lon": 0.0, "fusion_lat": 0.0, "type": "electric_scooter", "name": "513ba32125ac14addaf9cfae8e180436", "is_disabled": 0, "rental_uris": {"ios": "https://dc.lft.to/lastmile_qr_scan", "android": "https://dc.lft.to/lastmile_qr_scan"}, "is_reserved": 0}, {"lon": -77.01456633333333, "bike_id": "946469ba6d4db50d9e2ad36ae80263c7", "lat": 38.91775066666667, "fusion_lon": 0.0, "fusion_lat": 0.0, "type": "electric_scooter", "name": "946469ba6d4db50d9e2ad36ae80263c7", "is_disabled": 0, "rental_uris": {"ios": "https://dc.lft.to/lastmile_qr_scan", "android": "https://dc.lft.to/lastmile_qr_scan"}, "is_reserved": 0}, {"lon": -77.0987165, "bike_id": "705a172a1f1f4a25c32dcc49ea3696ac", "lat": 38.94971016666667, "fusion_lon": 0.0, "fusion_lat": 0.0, "type": "electric_scooter", "name": "705a172a1f1f4a25c32dcc49ea3696ac", "is_disabled": 0, "rental_uris": {"ios": "https://dc.lft.to/lastmile_qr_scan", "android": "https://dc.lft.to/lastmile_qr_scan"}, "is_reserved": 0}, {"lon": -77.02722766666666, "bike_id": "4dd0c2b2c6010d680009b0d8b80f1257", "lat": 38.89727883333333, "fusion_lon": 0.0, "fusion_lat": 0.0, "type": "electric_scooter", "name": "4dd0c2b2c6010d680009b0d8b80f1257", "is_disabled": 0, "rental_uris": {"ios": "https://dc.lft.to/lastmile_qr_scan", "android": "https://dc.lft.to/lastmile_qr_scan"}, "is_reserved": 0}, {"lon": -77.03741683333334, "bike_id": "882f2f4b45d050a38e1bf2e0fdbffea6", "lat": 38.918106, "fusion_lon": 0.0, "fusion_lat": 0.0, "type": "electric_scooter", "name": "882f2f4b45d050a38e1bf2e0fdbffea6", "is_disabled": 0, "rental_uris": {"ios": "https://dc.lft.to/lastmile_qr_scan", "android": "https://dc.lft.to/lastmile_qr_scan"}, "is_reserved": 0}, {"lon": -77.0346915, "bike_id": "3e675b1588deb88a7314dfcefc3ccf72", "lat": 38.907494166666666, "fusion_lon": 0.0, "fusion_lat": 0.0, "type": "electric_scooter", "name": "3e675b1588deb88a7314dfcefc3ccf72", "is_disabled": 0, "rental_uris": {"ios": "https://dc.lft.to/lastmile_qr_scan", "android": "https://dc.lft.to/lastmile_qr_scan"}, "is_reserved": 0}, {"lon": -77.01322183333333, "bike_id": "ab0f1891ddaa533f08e63a645e0ef509", "lat": 38.8715875, "fusion_lon": 0.0, "fusion_lat": 0.0, "type": "electric_scooter", "name": "ab0f1891ddaa533f08e63a645e0ef509", "is_disabled": 0, "rental_uris": {"ios": "https://dc.lft.to/lastmile_qr_scan", "android": "https://dc.lft.to/lastmile_qr_scan"}, "is_reserved": 0}, {"lon": -76.99543166666666, "bike_id": "4d5701e8a77590f879f196973637948c", "lat": 38.86262883333333, "fusion_lon": 0.0, "fusion_lat": 0.0, "type": "electric_scooter", "name": "4d5701e8a77590f879f196973637948c", "is_disabled": 0, "rental_uris": {"ios": "https://dc.lft.to/lastmile_qr_scan", "android": "https://dc.lft.to/lastmile_qr_scan"}, "is_reserved": 0}, {"lon": -77.0004985, "bike_id": "cc2df10068a110896ad52b3957661734", "lat": 38.875358, "fusion_lon": 0.0, "fusion_lat": 0.0, "type": "electric_scooter", "name": "cc2df10068a110896ad52b3957661734", "is_disabled": 0, "rental_uris": {"ios": "https://dc.lft.to/lastmile_qr_scan", "android": "https://dc.lft.to/lastmile_qr_scan"}, "is_reserved": 0}, {"lon": -77.01134633333334, "bike_id": "4648090099bb886ceb0f1f206d207d17", "lat": 38.900232833333334, "fusion_lon": 0.0, "fusion_lat": 0.0, "type": "electric_scooter", "name": "4648090099bb886ceb0f1f206d207d17", "is_disabled": 0, "rental_uris": {"ios": "https://dc.lft.to/lastmile_qr_scan", "android": "https://dc.lft.to/lastmile_qr_scan"}, "is_reserved": 0}, {"lon": -76.99003666666667, "bike_id": "b2b8966c79d3c8b83d74336140c507f2", "lat": 38.86508166666667, "fusion_lon": 0.0, "fusion_lat": 0.0, "type": "electric_scooter", "name": "b2b8966c79d3c8b83d74336140c507f2", "is_disabled": 0, "rental_uris": {"ios": "https://dc.lft.to/lastmile_qr_scan", "android": "https://dc.lft.to/lastmile_qr_scan"}, "is_reserved": 0}, {"lon": -76.99367683333334, "bike_id": "57b89eb3ba6b03797cdea7a6400290b1", "lat": 38.879752333333336, "fusion_lon": 0.0, "fusion_lat": 0.0, "type": "electric_scooter", "name": "57b89eb3ba6b03797cdea7a6400290b1", "is_disabled": 0, "rental_uris": {"ios": "https://dc.lft.to/lastmile_qr_scan", "android": "https://dc.lft.to/lastmile_qr_scan"}, "is_reserved": 0}, {"lon": -77.00834433333333, "bike_id": "51acd8bfe3f5c79678778f5963f32076", "lat": 38.913488, "fusion_lon": 0.0, "fusion_lat": 0.0, "type": "electric_scooter", "name": "51acd8bfe3f5c79678778f5963f32076", "is_disabled": 0, "rental_uris": {"ios": "https://dc.lft.to/lastmile_qr_scan", "android": "https://dc.lft.to/lastmile_qr_scan"}, "is_reserved": 0}, {"lon": -77.03754366666666, "bike_id": "577aeddb0e1b1650810637e58dbe9ce2", "lat": 38.9254895, "fusion_lon": 0.0, "fusion_lat": 0.0, "type": "electric_scooter", "name": "577aeddb0e1b1650810637e58dbe9ce2", "is_disabled": 0, "rental_uris": {"ios": "https://dc.lft.to/lastmile_qr_scan", "android": "https://dc.lft.to/lastmile_qr_scan"}, "is_reserved": 0}, {"lon": -76.97921483333333, "bike_id": "11b7de3f413dda8395b72bd67b9219b8", "lat": 38.905064, "fusion_lon": 0.0, "fusion_lat": 0.0, "type": "electric_scooter", "name": "11b7de3f413dda8395b72bd67b9219b8", "is_disabled": 0, "rental_uris": {"ios": "https://dc.lft.to/lastmile_qr_scan", "android": "https://dc.lft.to/lastmile_qr_scan"}, "is_reserved": 0}, {"lon": -76.994541, "bike_id": "58322640c26f416a89332d50eddbca10", "lat": 38.966171, "fusion_lon": 0.0, "fusion_lat": 0.0, "type": "electric_bike", "name": "58322640c26f416a89332d50eddbca10", "is_disabled": 0, "rental_uris": {"ios": "https://dc.lft.to/lastmile_qr_scan", "android": "https://dc.lft.to/lastmile_qr_scan"}, "is_reserved": 0}, {"lon": -77.03675916666667, "bike_id": "8ae4da7bd14bb72ffefd7e1497d41770", "lat": 38.932113333333334, "fusion_lon": 0.0, "fusion_lat": 0.0, "type": "electric_scooter", "name": "8ae4da7bd14bb72ffefd7e1497d41770", "is_disabled": 0, "rental_uris": {"ios": "https://dc.lft.to/lastmile_qr_scan", "android": "https://dc.lft.to/lastmile_qr_scan"}, "is_reserved": 0}, {"lon": -77.018104, "bike_id": "8c60a26f74183066f1ae44d88ceb8d73", "lat": 38.964876333333336, "fusion_lon": 0.0, "fusion_lat": 0.0, "type": "electric_scooter", "name": "8c60a26f74183066f1ae44d88ceb8d73", "is_disabled": 0, "rental_uris": {"ios": "https://dc.lft.to/lastmile_qr_scan", "android": "https://dc.lft.to/lastmile_qr_scan"}, "is_reserved": 0}, {"lon": -77.12737916666667, "bike_id": "5e8236c7912ff2b6ccd8d0db14e903cc", "lat": 38.8956885, "fusion_lon": 0.0, "fusion_lat": 0.0, "type": "electric_bike", "name": "5e8236c7912ff2b6ccd8d0db14e903cc", "is_disabled": 0, "rental_uris": {"ios": "https://dc.lft.to/lastmile_qr_scan", "android": "https://dc.lft.to/lastmile_qr_scan"}, "is_reserved": 0}, {"lon": -76.8840115, "bike_id": "32380103cc1c9acf510e4f1c70e4b8f0", "lat": 38.9317115, "fusion_lon": 0.0, "fusion_lat": 0.0, "type": "electric_bike", "name": "32380103cc1c9acf510e4f1c70e4b8f0", "is_disabled": 0, "rental_uris": {"ios": "https://dc.lft.to/lastmile_qr_scan", "android": "https://dc.lft.to/lastmile_qr_scan"}, "is_reserved": 0}, {"lon": -77.05584933333333, "bike_id": "badcba62c90fdd3be4242194f00aa103", "lat": 38.9335805, "fusion_lon": 0.0, "fusion_lat": 0.0, "type": "electric_scooter", "name": "badcba62c90fdd3be4242194f00aa103", "is_disabled": 0, "rental_uris": {"ios": "https://dc.lft.to/lastmile_qr_scan", "android": "https://dc.lft.to/lastmile_qr_scan"}, "is_reserved": 0}, {"lon": -77.04650933333333, "bike_id": "0348802539057e83eb998490a82c9c66", "lat": 39.055005, "fusion_lon": 0.0, "fusion_lat": 0.0, "type": "electric_bike", "name": "0348802539057e83eb998490a82c9c66", "is_disabled": 0, "rental_uris": {"ios": "https://dc.lft.to/lastmile_qr_scan", "android": "https://dc.lft.to/lastmile_qr_scan"}, "is_reserved": 0}, {"lon": -77.03879883333333, "bike_id": "4faecf3831867cea38624de12e6f0b42", "lat": 38.94868916666667, "fusion_lon": 0.0, "fusion_lat": 0.0, "type": "electric_scooter", "name": "4faecf3831867cea38624de12e6f0b42", "is_disabled": 0, "rental_uris": {"ios": "https://dc.lft.to/lastmile_qr_scan", "android": "https://dc.lft.to/lastmile_qr_scan"}, "is_reserved": 0}, {"lon": -77.02747066666667, "bike_id": "594c221461b53c95a2907d34f5bdd652", "lat": 38.9656975, "fusion_lon": 0.0, "fusion_lat": 0.0, "type": "electric_bike", "name": "594c221461b53c95a2907d34f5bdd652", "is_disabled": 0, "rental_uris": {"ios": "https://dc.lft.to/lastmile_qr_scan", "android": "https://dc.lft.to/lastmile_qr_scan"}, "is_reserved": 0}, {"lon": -76.96128433333334, "bike_id": "a045a547fa1aa8661313cc838cbedad2", "lat": 38.942157, "fusion_lon": 0.0, "fusion_lat": 0.0, "type": "electric_bike", "name": "a045a547fa1aa8661313cc838cbedad2", "is_disabled": 0, "rental_uris": {"ios": "https://dc.lft.to/lastmile_qr_scan", "android": "https://dc.lft.to/lastmile_qr_scan"}, "is_reserved": 0}, {"lon": -77.01765766666666, "bike_id": "4f7a6b317d3272cb650748dbfb5c38dc", "lat": 38.887427, "fusion_lon": 0.0, "fusion_lat": 0.0, "type": "electric_scooter", "name": "4f7a6b317d3272cb650748dbfb5c38dc", "is_disabled": 0, "rental_uris": {"ios": "https://dc.lft.to/lastmile_qr_scan", "android": "https://dc.lft.to/lastmile_qr_scan"}, "is_reserved": 0}, {"lon": -77.06036216666666, "bike_id": "9c071455bd801d10ef46544a937bcf82", "lat": 38.933589166666664, "fusion_lon": 0.0, "fusion_lat": 0.0, "type": "electric_scooter", "name": "9c071455bd801d10ef46544a937bcf82", "is_disabled": 0, "rental_uris": {"ios": "https://dc.lft.to/lastmile_qr_scan", "android": "https://dc.lft.to/lastmile_qr_scan"}, "is_reserved": 0}, {"lon": -76.95655183333334, "bike_id": "182e1ec4cc69907ad524421621cba31b", "lat": 38.89624083333333, "fusion_lon": 0.0, "fusion_lat": 0.0, "type": "electric_scooter", "name": "182e1ec4cc69907ad524421621cba31b", "is_disabled": 0, "rental_uris": {"ios": "https://dc.lft.to/lastmile_qr_scan", "android": "https://dc.lft.to/lastmile_qr_scan"}, "is_reserved": 0}, {"lon": -77.031575, "bike_id": "36c9836b78dd9186598052d209eec25b", "lat": 38.92857266666667, "fusion_lon": 0.0, "fusion_lat": 0.0, "type": "electric_scooter", "name": "36c9836b78dd9186598052d209eec25b", "is_disabled": 0, "rental_uris": {"ios": "https://dc.lft.to/lastmile_qr_scan", "android": "https://dc.lft.to/lastmile_qr_scan"}, "is_reserved": 0}, {"lon": -77.05232516666666, "bike_id": "eb605b4f152f585faff63f21c6c3ff29", "lat": 38.92341566666666, "fusion_lon": 0.0, "fusion_lat": 0.0, "type": "electric_scooter", "name": "eb605b4f152f585faff63f21c6c3ff29", "is_disabled": 0, "rental_uris": {"ios": "https://dc.lft.to/lastmile_qr_scan", "android": "https://dc.lft.to/lastmile_qr_scan"}, "is_reserved": 0}, {"lon": -77.068292, "bike_id": "68d66600ae6c4d21deedb4c45c76bb39", "lat": 38.80569633333333, "fusion_lon": 0.0, "fusion_lat": 0.0, "type": "electric_bike", "name": "68d66600ae6c4d21deedb4c45c76bb39", "is_disabled": 0, "rental_uris": {"ios": "https://dc.lft.to/lastmile_qr_scan", "android": "https://dc.lft.to/lastmile_qr_scan"}, "is_reserved": 0}, {"lon": -76.98081266666667, "bike_id": "9182a0bad70ca61d6ff62c45c2e85661", "lat": 38.9071085, "fusion_lon": 0.0, "fusion_lat": 0.0, "type": "electric_scooter", "name": "9182a0bad70ca61d6ff62c45c2e85661", "is_disabled": 0, "rental_uris": {"ios": "https://dc.lft.to/lastmile_qr_scan", "android": "https://dc.lft.to/lastmile_qr_scan"}, "is_reserved": 0}, {"lon": -77.03263716666666, "bike_id": "ae4a31c43ffa996fab307f1ea9c59ebc", "lat": 38.9372515, "fusion_lon": 0.0, "fusion_lat": 0.0, "type": "electric_scooter", "name": "ae4a31c43ffa996fab307f1ea9c59ebc", "is_disabled": 0, "rental_uris": {"ios": "https://dc.lft.to/lastmile_qr_scan", "android": "https://dc.lft.to/lastmile_qr_scan"}, "is_reserved": 0}, {"lon": -77.033266, "bike_id": "868bca059011f598ab56558401988000", "lat": 38.91569833333333, "fusion_lon": 0.0, "fusion_lat": 0.0, "type": "electric_scooter", "name": "868bca059011f598ab56558401988000", "is_disabled": 0, "rental_uris": {"ios": "https://dc.lft.to/lastmile_qr_scan", "android": "https://dc.lft.to/lastmile_qr_scan"}, "is_reserved": 0}, {"lon": -76.99002666666667, "bike_id": "4c2073ffb16dec8b1a249bcee43baa8b", "lat": 38.86510116666667, "fusion_lon": 0.0, "fusion_lat": 0.0, "type": "electric_scooter", "name": "4c2073ffb16dec8b1a249bcee43baa8b", "is_disabled": 0, "rental_uris": {"ios": "https://dc.lft.to/lastmile_qr_scan", "android": "https://dc.lft.to/lastmile_qr_scan"}, "is_reserved": 0}, {"lon": -77.003323, "bike_id": "99ec5a0468270d69d2a839b013744165", "lat": 38.897303666666666, "fusion_lon": 0.0, "fusion_lat": 0.0, "type": "electric_scooter", "name": "99ec5a0468270d69d2a839b013744165", "is_disabled": 0, "rental_uris": {"ios": "https://dc.lft.to/lastmile_qr_scan", "android": "https://dc.lft.to/lastmile_qr_scan"}, "is_reserved": 0}, {"lon": -77.02806866666667, "bike_id": "a00309e865607aefbf6a1a88bf9bd14b", "lat": 38.930802666666665, "fusion_lon": 0.0, "fusion_lat": 0.0, "type": "electric_scooter", "name": "a00309e865607aefbf6a1a88bf9bd14b", "is_disabled": 0, "rental_uris": {"ios": "https://dc.lft.to/lastmile_qr_scan", "android": "https://dc.lft.to/lastmile_qr_scan"}, "is_reserved": 0}, {"lon": -77.00520666666667, "bike_id": "1a9ac22c36f33e2cba32504d5bd48dc3", "lat": 38.875456666666665, "fusion_lon": 0.0, "fusion_lat": 0.0, "type": "electric_scooter", "name": "1a9ac22c36f33e2cba32504d5bd48dc3", "is_disabled": 0, "rental_uris": {"ios": "https://dc.lft.to/lastmile_qr_scan", "android": "https://dc.lft.to/lastmile_qr_scan"}, "is_reserved": 0}, {"lon": -77.027682, "bike_id": "ee5df799ebce4a6a1ef3eacccefe70b7", "lat": 38.954283333333336, "fusion_lon": 0.0, "fusion_lat": 0.0, "type": "electric_scooter", "name": "ee5df799ebce4a6a1ef3eacccefe70b7", "is_disabled": 0, "rental_uris": {"ios": "https://dc.lft.to/lastmile_qr_scan", "android": "https://dc.lft.to/lastmile_qr_scan"}, "is_reserved": 0}, {"lon": -77.05855383333333, "bike_id": "195d4cf627ed54e7cd026a5baa4a420a", "lat": 38.936096166666665, "fusion_lon": 0.0, "fusion_lat": 0.0, "type": "electric_scooter", "name": "195d4cf627ed54e7cd026a5baa4a420a", "is_disabled": 0, "rental_uris": {"ios": "https://dc.lft.to/lastmile_qr_scan", "android": "https://dc.lft.to/lastmile_qr_scan"}, "is_reserved": 0}, {"lon": -77.02176783333333, "bike_id": "371e10022be8a3ba86f01990b8e402e7", "lat": 38.89359133333333, "fusion_lon": 0.0, "fusion_lat": 0.0, "type": "electric_scooter", "name": "371e10022be8a3ba86f01990b8e402e7", "is_disabled": 0, "rental_uris": {"ios": "https://dc.lft.to/lastmile_qr_scan", "android": "https://dc.lft.to/lastmile_qr_scan"}, "is_reserved": 0}, {"lon": -76.98081666666667, "bike_id": "82b5873e1899d471233b05d0dbbc5617", "lat": 38.88426, "fusion_lon": 0.0, "fusion_lat": 0.0, "type": "electric_scooter", "name": "82b5873e1899d471233b05d0dbbc5617", "is_disabled": 0, "rental_uris": {"ios": "https://dc.lft.to/lastmile_qr_scan", "android": "https://dc.lft.to/lastmile_qr_scan"}, "is_reserved": 0}, {"lon": -76.9733095, "bike_id": "0e52a40aa2eba4ccbd15fca93b4e76aa", "lat": 38.865173, "fusion_lon": 0.0, "fusion_lat": 0.0, "type": "electric_bike", "name": "0e52a40aa2eba4ccbd15fca93b4e76aa", "is_disabled": 0, "rental_uris": {"ios": "https://dc.lft.to/lastmile_qr_scan", "android": "https://dc.lft.to/lastmile_qr_scan"}, "is_reserved": 0}, {"lon": -76.98356516666666, "bike_id": "be83e84e0f85677bf6f35e0e7a79d4d9", "lat": 38.90298216666667, "fusion_lon": 0.0, "fusion_lat": 0.0, "type": "electric_scooter", "name": "be83e84e0f85677bf6f35e0e7a79d4d9", "is_disabled": 0, "rental_uris": {"ios": "https://dc.lft.to/lastmile_qr_scan", "android": "https://dc.lft.to/lastmile_qr_scan"}, "is_reserved": 0}, {"lon": -77.04893283333334, "bike_id": "c7afb46e54f563397ea2bf2bb3ca2cf4", "lat": 38.9162195, "fusion_lon": 0.0, "fusion_lat": 0.0, "type": "electric_scooter", "name": "c7afb46e54f563397ea2bf2bb3ca2cf4", "is_disabled": 0, "rental_uris": {"ios": "https://dc.lft.to/lastmile_qr_scan", "android": "https://dc.lft.to/lastmile_qr_scan"}, "is_reserved": 0}, {"lon": -77.02331683333334, "bike_id": "dec1c02b18df48cbdb6b994300f62ec7", "lat": 38.9185725, "fusion_lon": 0.0, "fusion_lat": 0.0, "type": "electric_scooter", "name": "dec1c02b18df48cbdb6b994300f62ec7", "is_disabled": 0, "rental_uris": {"ios": "https://dc.lft.to/lastmile_qr_scan", "android": "https://dc.lft.to/lastmile_qr_scan"}, "is_reserved": 0}, {"lon": -77.01894933333334, "bike_id": "ae0730f24a7234c17077d3e1daa1282c", "lat": 38.87465133333333, "fusion_lon": 0.0, "fusion_lat": 0.0, "type": "electric_scooter", "name": "ae0730f24a7234c17077d3e1daa1282c", "is_disabled": 0, "rental_uris": {"ios": "https://dc.lft.to/lastmile_qr_scan", "android": "https://dc.lft.to/lastmile_qr_scan"}, "is_reserved": 0}, {"lon": -77.11611266666667, "bike_id": "53dd9fac1978e71474f6d4ea5edb30d5", "lat": 38.85491366666667, "fusion_lon": 0.0, "fusion_lat": 0.0, "type": "electric_bike", "name": "53dd9fac1978e71474f6d4ea5edb30d5", "is_disabled": 0, "rental_uris": {"ios": "https://dc.lft.to/lastmile_qr_scan", "android": "https://dc.lft.to/lastmile_qr_scan"}, "is_reserved": 0}, {"lon": -76.9962045, "bike_id": "0774ffad21d86c1ee42565e77e380f6b", "lat": 38.909383, "fusion_lon": 0.0, "fusion_lat": 0.0, "type": "electric_scooter", "name": "0774ffad21d86c1ee42565e77e380f6b", "is_disabled": 0, "rental_uris": {"ios": "https://dc.lft.to/lastmile_qr_scan", "android": "https://dc.lft.to/lastmile_qr_scan"}, "is_reserved": 0}, {"lon": -77.002555, "bike_id": "4571f3285c8a55da1ebed2b9637ca122", "lat": 38.918206, "fusion_lon": 0.0, "fusion_lat": 0.0, "type": "electric_scooter", "name": "4571f3285c8a55da1ebed2b9637ca122", "is_disabled": 0, "rental_uris": {"ios": "https://dc.lft.to/lastmile_qr_scan", "android": "https://dc.lft.to/lastmile_qr_scan"}, "is_reserved": 0}, {"lon": -76.94176566666667, "bike_id": "6df9580077983ad87687ddae7529809f", "lat": 38.892711166666665, "fusion_lon": 0.0, "fusion_lat": 0.0, "type": "electric_scooter", "name": "6df9580077983ad87687ddae7529809f", "is_disabled": 0, "rental_uris": {"ios": "https://dc.lft.to/lastmile_qr_scan", "android": "https://dc.lft.to/lastmile_qr_scan"}, "is_reserved": 0}, {"lon": -77.00106466666666, "bike_id": "eff5f0b375cd42bf67e75f14758b5f64", "lat": 38.91709983333333, "fusion_lon": 0.0, "fusion_lat": 0.0, "type": "electric_scooter", "name": "eff5f0b375cd42bf67e75f14758b5f64", "is_disabled": 0, "rental_uris": {"ios": "https://dc.lft.to/lastmile_qr_scan", "android": "https://dc.lft.to/lastmile_qr_scan"}, "is_reserved": 0}, {"lon": -77.0360455, "bike_id": "1d5cddd42db9402d4fdbbcba098ba99f", "lat": 38.9270075, "fusion_lon": 0.0, "fusion_lat": 0.0, "type": "electric_scooter", "name": "1d5cddd42db9402d4fdbbcba098ba99f", "is_disabled": 0, "rental_uris": {"ios": "https://dc.lft.to/lastmile_qr_scan", "android": "https://dc.lft.to/lastmile_qr_scan"}, "is_reserved": 0}, {"lon": -77.032595, "bike_id": "2f5baa5942246dcfbee8587980318291", "lat": 38.93270016666666, "fusion_lon": 0.0, "fusion_lat": 0.0, "type": "electric_scooter", "name": "2f5baa5942246dcfbee8587980318291", "is_disabled": 0, "rental_uris": {"ios": "https://dc.lft.to/lastmile_qr_scan", "android": "https://dc.lft.to/lastmile_qr_scan"}, "is_reserved": 0}, {"lon": -77.037182, "bike_id": "726c5d87ec385b846491ab00bc45d548", "lat": 38.914829, "fusion_lon": 0.0, "fusion_lat": 0.0, "type": "electric_scooter", "name": "726c5d87ec385b846491ab00bc45d548", "is_disabled": 0, "rental_uris": {"ios": "https://dc.lft.to/lastmile_qr_scan", "android": "https://dc.lft.to/lastmile_qr_scan"}, "is_reserved": 0}, {"lon": -77.02707783333334, "bike_id": "87186402c3e35fdf4f76206a812ccb41", "lat": 38.90677216666667, "fusion_lon": 0.0, "fusion_lat": 0.0, "type": "electric_scooter", "name": "87186402c3e35fdf4f76206a812ccb41", "is_disabled": 0, "rental_uris": {"ios": "https://dc.lft.to/lastmile_qr_scan", "android": "https://dc.lft.to/lastmile_qr_scan"}, "is_reserved": 0}, {"lon": -77.00209266666667, "bike_id": "55b7902e428e61b440ab2069c0aa44a8", "lat": 38.900450166666666, "fusion_lon": 0.0, "fusion_lat": 0.0, "type": "electric_scooter", "name": "55b7902e428e61b440ab2069c0aa44a8", "is_disabled": 0, "rental_uris": {"ios": "https://dc.lft.to/lastmile_qr_scan", "android": "https://dc.lft.to/lastmile_qr_scan"}, "is_reserved": 0}, {"lon": -77.01054533333334, "bike_id": "eeffaca2884b7153562867f9e4e28a7f", "lat": 38.9635355, "fusion_lon": 0.0, "fusion_lat": 0.0, "type": "electric_scooter", "name": "eeffaca2884b7153562867f9e4e28a7f", "is_disabled": 0, "rental_uris": {"ios": "https://dc.lft.to/lastmile_qr_scan", "android": "https://dc.lft.to/lastmile_qr_scan"}, "is_reserved": 0}, {"lon": -77.03203366666666, "bike_id": "891b44dcc968a061a85ec828f27bc2fb", "lat": 38.909543166666666, "fusion_lon": 0.0, "fusion_lat": 0.0, "type": "electric_scooter", "name": "891b44dcc968a061a85ec828f27bc2fb", "is_disabled": 0, "rental_uris": {"ios": "https://dc.lft.to/lastmile_qr_scan", "android": "https://dc.lft.to/lastmile_qr_scan"}, "is_reserved": 0}, {"lon": -77.021986, "bike_id": "f81fb5b92082f716ed098b1376a51c1f", "lat": 38.915139, "fusion_lon": 0.0, "fusion_lat": 0.0, "type": "electric_scooter", "name": "f81fb5b92082f716ed098b1376a51c1f", "is_disabled": 0, "rental_uris": {"ios": "https://dc.lft.to/lastmile_qr_scan", "android": "https://dc.lft.to/lastmile_qr_scan"}, "is_reserved": 0}, {"lon": -77.02596, "bike_id": "5b43f868edd9f56ee86226e37601ec90", "lat": 38.9049365, "fusion_lon": 0.0, "fusion_lat": 0.0, "type": "electric_scooter", "name": "5b43f868edd9f56ee86226e37601ec90", "is_disabled": 0, "rental_uris": {"ios": "https://dc.lft.to/lastmile_qr_scan", "android": "https://dc.lft.to/lastmile_qr_scan"}, "is_reserved": 0}, {"lon": -77.11913916666667, "bike_id": "5372eff0ad40f36bcbbbde1f225f0c51", "lat": 38.87635983333333, "fusion_lon": 0.0, "fusion_lat": 0.0, "type": "electric_bike", "name": "5372eff0ad40f36bcbbbde1f225f0c51", "is_disabled": 0, "rental_uris": {"ios": "https://dc.lft.to/lastmile_qr_scan", "android": "https://dc.lft.to/lastmile_qr_scan"}, "is_reserved": 0}, {"lon": -77.0326125, "bike_id": "4fed1bbd29fbafd88433145543037dc4", "lat": 38.936694333333335, "fusion_lon": 0.0, "fusion_lat": 0.0, "type": "electric_scooter", "name": "4fed1bbd29fbafd88433145543037dc4", "is_disabled": 0, "rental_uris": {"ios": "https://dc.lft.to/lastmile_qr_scan", "android": "https://dc.lft.to/lastmile_qr_scan"}, "is_reserved": 0}, {"lon": -77.02171316666667, "bike_id": "6e494b6ccd0329e39998789676503d8b", "lat": 38.897486, "fusion_lon": 0.0, "fusion_lat": 0.0, "type": "electric_scooter", "name": "6e494b6ccd0329e39998789676503d8b", "is_disabled": 0, "rental_uris": {"ios": "https://dc.lft.to/lastmile_qr_scan", "android": "https://dc.lft.to/lastmile_qr_scan"}, "is_reserved": 0}, {"lon": -77.02134533333333, "bike_id": "f6bac9478d1692c41e610e45b2ec28f6", "lat": 38.9159875, "fusion_lon": 0.0, "fusion_lat": 0.0, "type": "electric_scooter", "name": "f6bac9478d1692c41e610e45b2ec28f6", "is_disabled": 0, "rental_uris": {"ios": "https://dc.lft.to/lastmile_qr_scan", "android": "https://dc.lft.to/lastmile_qr_scan"}, "is_reserved": 0}, {"lon": -77.0175, "bike_id": "609e0831a7cb5544062c46dc9fa9245b", "lat": 38.902602, "fusion_lon": 0.0, "fusion_lat": 0.0, "type": "electric_scooter", "name": "609e0831a7cb5544062c46dc9fa9245b", "is_disabled": 0, "rental_uris": {"ios": "https://dc.lft.to/lastmile_qr_scan", "android": "https://dc.lft.to/lastmile_qr_scan"}, "is_reserved": 0}, {"lon": -77.011063, "bike_id": "0ef29d6e794f7c776a68d40e37312379", "lat": 38.918128333333335, "fusion_lon": 0.0, "fusion_lat": 0.0, "type": "electric_scooter", "name": "0ef29d6e794f7c776a68d40e37312379", "is_disabled": 0, "rental_uris": {"ios": "https://dc.lft.to/lastmile_qr_scan", "android": "https://dc.lft.to/lastmile_qr_scan"}, "is_reserved": 0}, {"lon": -77.03203883333333, "bike_id": "b1bd247ae363b116b502021b0e9f7084", "lat": 38.939702833333335, "fusion_lon": 0.0, "fusion_lat": 0.0, "type": "electric_scooter", "name": "b1bd247ae363b116b502021b0e9f7084", "is_disabled": 0, "rental_uris": {"ios": "https://dc.lft.to/lastmile_qr_scan", "android": "https://dc.lft.to/lastmile_qr_scan"}, "is_reserved": 0}, {"lon": -77.04438283333333, "bike_id": "47eb55b5f9614e4c505b5183724bd13a", "lat": 38.921776, "fusion_lon": 0.0, "fusion_lat": 0.0, "type": "electric_scooter", "name": "47eb55b5f9614e4c505b5183724bd13a", "is_disabled": 0, "rental_uris": {"ios": "https://dc.lft.to/lastmile_qr_scan", "android": "https://dc.lft.to/lastmile_qr_scan"}, "is_reserved": 0}, {"lon": -77.05621683333334, "bike_id": "b3328d52fce084c8ef3b895839c080cf", "lat": 38.92347066666667, "fusion_lon": 0.0, "fusion_lat": 0.0, "type": "electric_scooter", "name": "b3328d52fce084c8ef3b895839c080cf", "is_disabled": 0, "rental_uris": {"ios": "https://dc.lft.to/lastmile_qr_scan", "android": "https://dc.lft.to/lastmile_qr_scan"}, "is_reserved": 0}, {"lon": -77.01396, "bike_id": "2f6fcf2850741b96ff85351a20979bbd", "lat": 38.92844933333333, "fusion_lon": 0.0, "fusion_lat": 0.0, "type": "electric_scooter", "name": "2f6fcf2850741b96ff85351a20979bbd", "is_disabled": 0, "rental_uris": {"ios": "https://dc.lft.to/lastmile_qr_scan", "android": "https://dc.lft.to/lastmile_qr_scan"}, "is_reserved": 0}, {"lon": -77.04495966666667, "bike_id": "6f050807ae6ed16008f55448445b37dc", "lat": 38.9129345, "fusion_lon": 0.0, "fusion_lat": 0.0, "type": "electric_scooter", "name": "6f050807ae6ed16008f55448445b37dc", "is_disabled": 0, "rental_uris": {"ios": "https://dc.lft.to/lastmile_qr_scan", "android": "https://dc.lft.to/lastmile_qr_scan"}, "is_reserved": 0}, {"lon": -76.99268816666667, "bike_id": "7a696167626dac30dc87dc6850c09c62", "lat": 38.896137, "fusion_lon": 0.0, "fusion_lat": 0.0, "type": "electric_scooter", "name": "7a696167626dac30dc87dc6850c09c62", "is_disabled": 0, "rental_uris": {"ios": "https://dc.lft.to/lastmile_qr_scan", "android": "https://dc.lft.to/lastmile_qr_scan"}, "is_reserved": 0}, {"lon": -77.03611983333333, "bike_id": "019c9c0038c9b749bdf41c182b5dd898", "lat": 38.9376845, "fusion_lon": 0.0, "fusion_lat": 0.0, "type": "electric_bike", "name": "019c9c0038c9b749bdf41c182b5dd898", "is_disabled": 0, "rental_uris": {"ios": "https://dc.lft.to/lastmile_qr_scan", "android": "https://dc.lft.to/lastmile_qr_scan"}, "is_reserved": 0}, {"lon": -77.04719333333334, "bike_id": "3de168a0417d4f863522f6b578b060cc", "lat": 38.89969133333334, "fusion_lon": 0.0, "fusion_lat": 0.0, "type": "electric_scooter", "name": "3de168a0417d4f863522f6b578b060cc", "is_disabled": 0, "rental_uris": {"ios": "https://dc.lft.to/lastmile_qr_scan", "android": "https://dc.lft.to/lastmile_qr_scan"}, "is_reserved": 0}, {"lon": -77.057369, "bike_id": "57f06fbe71924004565d5c4103574863", "lat": 38.933659, "fusion_lon": 0.0, "fusion_lat": 0.0, "type": "electric_scooter", "name": "57f06fbe71924004565d5c4103574863", "is_disabled": 0, "rental_uris": {"ios": "https://dc.lft.to/lastmile_qr_scan", "android": "https://dc.lft.to/lastmile_qr_scan"}, "is_reserved": 0}, {"lon": -77.03194133333334, "bike_id": "b3363f88d480abef46be2662726912ac", "lat": 38.9306685, "fusion_lon": 0.0, "fusion_lat": 0.0, "type": "electric_scooter", "name": "b3363f88d480abef46be2662726912ac", "is_disabled": 0, "rental_uris": {"ios": "https://dc.lft.to/lastmile_qr_scan", "android": "https://dc.lft.to/lastmile_qr_scan"}, "is_reserved": 0}, {"lon": -76.97910633333333, "bike_id": "10ccf287b17de6fe0fac1d8da6c9817b", "lat": 38.924632333333335, "fusion_lon": 0.0, "fusion_lat": 0.0, "type": "electric_bike", "name": "10ccf287b17de6fe0fac1d8da6c9817b", "is_disabled": 0, "rental_uris": {"ios": "https://dc.lft.to/lastmile_qr_scan", "android": "https://dc.lft.to/lastmile_qr_scan"}, "is_reserved": 0}, {"lon": -76.9733295, "bike_id": "626d7f4c4e073b44dae58f7c05021b06", "lat": 38.904856, "fusion_lon": 0.0, "fusion_lat": 0.0, "type": "electric_bike", "name": "626d7f4c4e073b44dae58f7c05021b06", "is_disabled": 0, "rental_uris": {"ios": "https://dc.lft.to/lastmile_qr_scan", "android": "https://dc.lft.to/lastmile_qr_scan"}, "is_reserved": 0}, {"lon": -77.06521616666667, "bike_id": "5634909051f43ac229cef228fe314676", "lat": 38.908856666666665, "fusion_lon": 0.0, "fusion_lat": 0.0, "type": "electric_scooter", "name": "5634909051f43ac229cef228fe314676", "is_disabled": 0, "rental_uris": {"ios": "https://dc.lft.to/lastmile_qr_scan", "android": "https://dc.lft.to/lastmile_qr_scan"}, "is_reserved": 0}, {"lon": -76.99793616666666, "bike_id": "2c139cedfad18f1b12d04be404da0231", "lat": 38.956447833333335, "fusion_lon": 0.0, "fusion_lat": 0.0, "type": "electric_bike", "name": "2c139cedfad18f1b12d04be404da0231", "is_disabled": 0, "rental_uris": {"ios": "https://dc.lft.to/lastmile_qr_scan", "android": "https://dc.lft.to/lastmile_qr_scan"}, "is_reserved": 0}, {"lon": -77.017684, "bike_id": "9ca0fb9f8bc8d3315685e29076202280", "lat": 38.90086483333333, "fusion_lon": 0.0, "fusion_lat": 0.0, "type": "electric_scooter", "name": "9ca0fb9f8bc8d3315685e29076202280", "is_disabled": 0, "rental_uris": {"ios": "https://dc.lft.to/lastmile_qr_scan", "android": "https://dc.lft.to/lastmile_qr_scan"}, "is_reserved": 0}, {"lon": -77.00048733333334, "bike_id": "3e02094957b35eb49a84e7d0b66fd664", "lat": 38.874521333333334, "fusion_lon": 0.0, "fusion_lat": 0.0, "type": "electric_scooter", "name": "3e02094957b35eb49a84e7d0b66fd664", "is_disabled": 0, "rental_uris": {"ios": "https://dc.lft.to/lastmile_qr_scan", "android": "https://dc.lft.to/lastmile_qr_scan"}, "is_reserved": 0}, {"lon": -76.9257385, "bike_id": "fb5744cdcec3c9cd1e6091bc8cece2dc", "lat": 38.897824, "fusion_lon": 0.0, "fusion_lat": 0.0, "type": "electric_scooter", "name": "fb5744cdcec3c9cd1e6091bc8cece2dc", "is_disabled": 0, "rental_uris": {"ios": "https://dc.lft.to/lastmile_qr_scan", "android": "https://dc.lft.to/lastmile_qr_scan"}, "is_reserved": 0}, {"lon": -77.02400483333334, "bike_id": "21bb45cd00e0cb24208ef137bed2bf5c", "lat": 38.8813985, "fusion_lon": 0.0, "fusion_lat": 0.0, "type": "electric_scooter", "name": "21bb45cd00e0cb24208ef137bed2bf5c", "is_disabled": 0, "rental_uris": {"ios": "https://dc.lft.to/lastmile_qr_scan", "android": "https://dc.lft.to/lastmile_qr_scan"}, "is_reserved": 0}, {"lon": -77.015497, "bike_id": "e23b9f26968fd7dddeed11872061e8dc", "lat": 38.88338783333333, "fusion_lon": 0.0, "fusion_lat": 0.0, "type": "electric_scooter", "name": "e23b9f26968fd7dddeed11872061e8dc", "is_disabled": 0, "rental_uris": {"ios": "https://dc.lft.to/lastmile_qr_scan", "android": "https://dc.lft.to/lastmile_qr_scan"}, "is_reserved": 0}, {"lon": -77.030573, "bike_id": "3420bbb3d8cfe75f2a92fbb280f2ff78", "lat": 38.93876616666667, "fusion_lon": 0.0, "fusion_lat": 0.0, "type": "electric_scooter", "name": "3420bbb3d8cfe75f2a92fbb280f2ff78", "is_disabled": 0, "rental_uris": {"ios": "https://dc.lft.to/lastmile_qr_scan", "android": "https://dc.lft.to/lastmile_qr_scan"}, "is_reserved": 0}, {"lon": -77.01980666666667, "bike_id": "feeeb20bdbccca4015171a1fc87aa1bb", "lat": 38.96030116666667, "fusion_lon": 0.0, "fusion_lat": 0.0, "type": "electric_scooter", "name": "feeeb20bdbccca4015171a1fc87aa1bb", "is_disabled": 0, "rental_uris": {"ios": "https://dc.lft.to/lastmile_qr_scan", "android": "https://dc.lft.to/lastmile_qr_scan"}, "is_reserved": 0}, {"lon": -77.024672, "bike_id": "998009758be6de383cfdbc850bdad801", "lat": 38.9385495, "fusion_lon": 0.0, "fusion_lat": 0.0, "type": "electric_scooter", "name": "998009758be6de383cfdbc850bdad801", "is_disabled": 0, "rental_uris": {"ios": "https://dc.lft.to/lastmile_qr_scan", "android": "https://dc.lft.to/lastmile_qr_scan"}, "is_reserved": 0}, {"lon": -77.0329465, "bike_id": "b2d9437308c0e5f8b99263601fb98098", "lat": 38.925487833333335, "fusion_lon": 0.0, "fusion_lat": 0.0, "type": "electric_scooter", "name": "b2d9437308c0e5f8b99263601fb98098", "is_disabled": 0, "rental_uris": {"ios": "https://dc.lft.to/lastmile_qr_scan", "android": "https://dc.lft.to/lastmile_qr_scan"}, "is_reserved": 0}, {"lon": -77.00882683333333, "bike_id": "02963e625c91ed632de741fe40bbf7ab", "lat": 38.917925833333335, "fusion_lon": 0.0, "fusion_lat": 0.0, "type": "electric_scooter", "name": "02963e625c91ed632de741fe40bbf7ab", "is_disabled": 0, "rental_uris": {"ios": "https://dc.lft.to/lastmile_qr_scan", "android": "https://dc.lft.to/lastmile_qr_scan"}, "is_reserved": 0}, {"lon": -77.0214855, "bike_id": "308e4610dc1a217524a80502a158937a", "lat": 38.89503916666666, "fusion_lon": 0.0, "fusion_lat": 0.0, "type": "electric_scooter", "name": "308e4610dc1a217524a80502a158937a", "is_disabled": 0, "rental_uris": {"ios": "https://dc.lft.to/lastmile_qr_scan", "android": "https://dc.lft.to/lastmile_qr_scan"}, "is_reserved": 0}, {"lon": -76.931736, "bike_id": "21f8ad01916d9cf1fa92f86e71879b90", "lat": 38.89886, "fusion_lon": 0.0, "fusion_lat": 0.0, "type": "electric_scooter", "name": "21f8ad01916d9cf1fa92f86e71879b90", "is_disabled": 0, "rental_uris": {"ios": "https://dc.lft.to/lastmile_qr_scan", "android": "https://dc.lft.to/lastmile_qr_scan"}, "is_reserved": 0}, {"lon": -77.04319933333333, "bike_id": "831db780c80699a30ce786691e3df026", "lat": 38.91881133333333, "fusion_lon": 0.0, "fusion_lat": 0.0, "type": "electric_scooter", "name": "831db780c80699a30ce786691e3df026", "is_disabled": 0, "rental_uris": {"ios": "https://dc.lft.to/lastmile_qr_scan", "android": "https://dc.lft.to/lastmile_qr_scan"}, "is_reserved": 0}, {"lon": -76.98752466666667, "bike_id": "ec70009cc05922aeb189ea57612b86eb", "lat": 38.90382866666667, "fusion_lon": 0.0, "fusion_lat": 0.0, "type": "electric_scooter", "name": "ec70009cc05922aeb189ea57612b86eb", "is_disabled": 0, "rental_uris": {"ios": "https://dc.lft.to/lastmile_qr_scan", "android": "https://dc.lft.to/lastmile_qr_scan"}, "is_reserved": 0}, {"lon": -77.03192683333333, "bike_id": "033cfe8545db06c6ec324ce5cf8b1d3f", "lat": 38.884260166666664, "fusion_lon": 0.0, "fusion_lat": 0.0, "type": "electric_scooter", "name": "033cfe8545db06c6ec324ce5cf8b1d3f", "is_disabled": 0, "rental_uris": {"ios": "https://dc.lft.to/lastmile_qr_scan", "android": "https://dc.lft.to/lastmile_qr_scan"}, "is_reserved": 0}, {"lon": -77.01398566666667, "bike_id": "f2a5c264f7fda01a4ae55e3357eca6b7", "lat": 38.92812166666667, "fusion_lon": 0.0, "fusion_lat": 0.0, "type": "electric_scooter", "name": "f2a5c264f7fda01a4ae55e3357eca6b7", "is_disabled": 0, "rental_uris": {"ios": "https://dc.lft.to/lastmile_qr_scan", "android": "https://dc.lft.to/lastmile_qr_scan"}, "is_reserved": 0}, {"lon": -76.98710616666666, "bike_id": "74f54acc899f5163090d020f338e47c0", "lat": 38.867046, "fusion_lon": 0.0, "fusion_lat": 0.0, "type": "electric_scooter", "name": "74f54acc899f5163090d020f338e47c0", "is_disabled": 0, "rental_uris": {"ios": "https://dc.lft.to/lastmile_qr_scan", "android": "https://dc.lft.to/lastmile_qr_scan"}, "is_reserved": 0}, {"lon": -76.99207533333333, "bike_id": "8b006ea274b31e2c9232757df59488d1", "lat": 38.90822816666667, "fusion_lon": 0.0, "fusion_lat": 0.0, "type": "electric_scooter", "name": "8b006ea274b31e2c9232757df59488d1", "is_disabled": 0, "rental_uris": {"ios": "https://dc.lft.to/lastmile_qr_scan", "android": "https://dc.lft.to/lastmile_qr_scan"}, "is_reserved": 0}, {"lon": -77.02104316666667, "bike_id": "5b2d9161c11308ffffe11641cb6e2c72", "lat": 38.921799166666666, "fusion_lon": 0.0, "fusion_lat": 0.0, "type": "electric_scooter", "name": "5b2d9161c11308ffffe11641cb6e2c72", "is_disabled": 0, "rental_uris": {"ios": "https://dc.lft.to/lastmile_qr_scan", "android": "https://dc.lft.to/lastmile_qr_scan"}, "is_reserved": 0}, {"lon": -77.0268, "bike_id": "ba112e6585d534b29d82d7b8763210bc", "lat": 38.984872, "fusion_lon": 0.0, "fusion_lat": 0.0, "type": "electric_scooter", "name": "ba112e6585d534b29d82d7b8763210bc", "is_disabled": 0, "rental_uris": {"ios": "https://dc.lft.to/lastmile_qr_scan", "android": "https://dc.lft.to/lastmile_qr_scan"}, "is_reserved": 0}, {"lon": -76.9871115, "bike_id": "a53d0c2aa774ba67dd04a3de78710713", "lat": 38.86702966666667, "fusion_lon": 0.0, "fusion_lat": 0.0, "type": "electric_scooter", "name": "a53d0c2aa774ba67dd04a3de78710713", "is_disabled": 0, "rental_uris": {"ios": "https://dc.lft.to/lastmile_qr_scan", "android": "https://dc.lft.to/lastmile_qr_scan"}, "is_reserved": 0}, {"lon": -77.00154183333333, "bike_id": "585f48ade92a1324aaa814097da15c11", "lat": 38.842898, "fusion_lon": 0.0, "fusion_lat": 0.0, "type": "electric_scooter", "name": "585f48ade92a1324aaa814097da15c11", "is_disabled": 0, "rental_uris": {"ios": "https://dc.lft.to/lastmile_qr_scan", "android": "https://dc.lft.to/lastmile_qr_scan"}, "is_reserved": 0}, {"lon": -77.03063766666666, "bike_id": "b87d7f185a2da4f806ff0e85d991b923", "lat": 38.908096666666665, "fusion_lon": 0.0, "fusion_lat": 0.0, "type": "electric_scooter", "name": "b87d7f185a2da4f806ff0e85d991b923", "is_disabled": 0, "rental_uris": {"ios": "https://dc.lft.to/lastmile_qr_scan", "android": "https://dc.lft.to/lastmile_qr_scan"}, "is_reserved": 0}, {"lon": -77.0335535, "bike_id": "d3fb94e5a66a3289a761b1956b6b2189", "lat": 38.92348233333333, "fusion_lon": 0.0, "fusion_lat": 0.0, "type": "electric_scooter", "name": "d3fb94e5a66a3289a761b1956b6b2189", "is_disabled": 0, "rental_uris": {"ios": "https://dc.lft.to/lastmile_qr_scan", "android": "https://dc.lft.to/lastmile_qr_scan"}, "is_reserved": 0}, {"lon": -77.00051616666667, "bike_id": "7bcc9add27a2dc871fcfb1a38234aba7", "lat": 38.875151333333335, "fusion_lon": 0.0, "fusion_lat": 0.0, "type": "electric_scooter", "name": "7bcc9add27a2dc871fcfb1a38234aba7", "is_disabled": 0, "rental_uris": {"ios": "https://dc.lft.to/lastmile_qr_scan", "android": "https://dc.lft.to/lastmile_qr_scan"}, "is_reserved": 0}, {"lon": -77.00884633333334, "bike_id": "34016ce2694d6af368ce72d6013d7f72", "lat": 38.917138, "fusion_lon": 0.0, "fusion_lat": 0.0, "type": "electric_scooter", "name": "34016ce2694d6af368ce72d6013d7f72", "is_disabled": 0, "rental_uris": {"ios": "https://dc.lft.to/lastmile_qr_scan", "android": "https://dc.lft.to/lastmile_qr_scan"}, "is_reserved": 0}, {"lon": -77.0045235, "bike_id": "c0b82ac0524c92dc743888ae05a0075f", "lat": 38.91766883333333, "fusion_lon": 0.0, "fusion_lat": 0.0, "type": "electric_scooter", "name": "c0b82ac0524c92dc743888ae05a0075f", "is_disabled": 0, "rental_uris": {"ios": "https://dc.lft.to/lastmile_qr_scan", "android": "https://dc.lft.to/lastmile_qr_scan"}, "is_reserved": 0}, {"lon": -77.005824, "bike_id": "a66ef67221b383ad716b3b0fcdf57074", "lat": 38.905640166666664, "fusion_lon": 0.0, "fusion_lat": 0.0, "type": "electric_scooter", "name": "a66ef67221b383ad716b3b0fcdf57074", "is_disabled": 0, "rental_uris": {"ios": "https://dc.lft.to/lastmile_qr_scan", "android": "https://dc.lft.to/lastmile_qr_scan"}, "is_reserved": 0}, {"lon": -77.0266755, "bike_id": "90a4513ded41a182b78c152a1f86a385", "lat": 38.97196233333333, "fusion_lon": 0.0, "fusion_lat": 0.0, "type": "electric_scooter", "name": "90a4513ded41a182b78c152a1f86a385", "is_disabled": 0, "rental_uris": {"ios": "https://dc.lft.to/lastmile_qr_scan", "android": "https://dc.lft.to/lastmile_qr_scan"}, "is_reserved": 0}, {"lon": -76.98235333333334, "bike_id": "b9f9d50098ec91cfa46eccbea21166e8", "lat": 38.88865233333333, "fusion_lon": 0.0, "fusion_lat": 0.0, "type": "electric_scooter", "name": "b9f9d50098ec91cfa46eccbea21166e8", "is_disabled": 0, "rental_uris": {"ios": "https://dc.lft.to/lastmile_qr_scan", "android": "https://dc.lft.to/lastmile_qr_scan"}, "is_reserved": 0}, {"lon": -77.01910283333333, "bike_id": "4751143997e47784ea6a3f996a80b6d5", "lat": 38.87748916666666, "fusion_lon": 0.0, "fusion_lat": 0.0, "type": "electric_scooter", "name": "4751143997e47784ea6a3f996a80b6d5", "is_disabled": 0, "rental_uris": {"ios": "https://dc.lft.to/lastmile_qr_scan", "android": "https://dc.lft.to/lastmile_qr_scan"}, "is_reserved": 0}, {"lon": -77.03526983333333, "bike_id": "77476b6dd1984740e2ce2b1638b9a702", "lat": 38.923590833333336, "fusion_lon": 0.0, "fusion_lat": 0.0, "type": "electric_scooter", "name": "77476b6dd1984740e2ce2b1638b9a702", "is_disabled": 0, "rental_uris": {"ios": "https://dc.lft.to/lastmile_qr_scan", "android": "https://dc.lft.to/lastmile_qr_scan"}, "is_reserved": 0}, {"lon": -76.99033316666667, "bike_id": "c325e2dab51289c4438ff6e697565398", "lat": 38.887578, "fusion_lon": 0.0, "fusion_lat": 0.0, "type": "electric_scooter", "name": "c325e2dab51289c4438ff6e697565398", "is_disabled": 0, "rental_uris": {"ios": "https://dc.lft.to/lastmile_qr_scan", "android": "https://dc.lft.to/lastmile_qr_scan"}, "is_reserved": 0}, {"lon": -77.0218615, "bike_id": "93c819bcb33e4d7cba5075f1332de6c5", "lat": 38.9095385, "fusion_lon": 0.0, "fusion_lat": 0.0, "type": "electric_scooter", "name": "93c819bcb33e4d7cba5075f1332de6c5", "is_disabled": 0, "rental_uris": {"ios": "https://dc.lft.to/lastmile_qr_scan", "android": "https://dc.lft.to/lastmile_qr_scan"}, "is_reserved": 0}, {"lon": -77.06490633333334, "bike_id": "2f2843cd24d9d6109a3dc845da7533eb", "lat": 38.9290725, "fusion_lon": 0.0, "fusion_lat": 0.0, "type": "electric_scooter", "name": "2f2843cd24d9d6109a3dc845da7533eb", "is_disabled": 0, "rental_uris": {"ios": "https://dc.lft.to/lastmile_qr_scan", "android": "https://dc.lft.to/lastmile_qr_scan"}, "is_reserved": 0}, {"lon": -77.03398916666667, "bike_id": "ddfb39e132bfc29b4379a117fafcbb82", "lat": 38.93126933333333, "fusion_lon": 0.0, "fusion_lat": 0.0, "type": "electric_scooter", "name": "ddfb39e132bfc29b4379a117fafcbb82", "is_disabled": 0, "rental_uris": {"ios": "https://dc.lft.to/lastmile_qr_scan", "android": "https://dc.lft.to/lastmile_qr_scan"}, "is_reserved": 0}, {"lon": -77.0249805, "bike_id": "f2ac3a3c30c382d4c69029c059e7cdf7", "lat": 38.903422666666664, "fusion_lon": 0.0, "fusion_lat": 0.0, "type": "electric_scooter", "name": "f2ac3a3c30c382d4c69029c059e7cdf7", "is_disabled": 0, "rental_uris": {"ios": "https://dc.lft.to/lastmile_qr_scan", "android": "https://dc.lft.to/lastmile_qr_scan"}, "is_reserved": 0}, {"lon": -76.92107116666666, "bike_id": "77a3965cd8e11c1ae1e0e7907ee3cea9", "lat": 38.89108, "fusion_lon": 0.0, "fusion_lat": 0.0, "type": "electric_scooter", "name": "77a3965cd8e11c1ae1e0e7907ee3cea9", "is_disabled": 0, "rental_uris": {"ios": "https://dc.lft.to/lastmile_qr_scan", "android": "https://dc.lft.to/lastmile_qr_scan"}, "is_reserved": 0}, {"lon": -77.1391835, "bike_id": "87905c742e52d1ac274302e7dd2ffd61", "lat": 38.8730205, "fusion_lon": 0.0, "fusion_lat": 0.0, "type": "electric_bike", "name": "87905c742e52d1ac274302e7dd2ffd61", "is_disabled": 0, "rental_uris": {"ios": "https://dc.lft.to/lastmile_qr_scan", "android": "https://dc.lft.to/lastmile_qr_scan"}, "is_reserved": 0}, {"lon": -76.972074, "bike_id": "3fa447321926350cc118713bea275c40", "lat": 38.892931833333336, "fusion_lon": 0.0, "fusion_lat": 0.0, "type": "electric_bike", "name": "3fa447321926350cc118713bea275c40", "is_disabled": 0, "rental_uris": {"ios": "https://dc.lft.to/lastmile_qr_scan", "android": "https://dc.lft.to/lastmile_qr_scan"}, "is_reserved": 0}, {"lon": -76.9823865, "bike_id": "047641e6a384553f1f79478f82ddacaf", "lat": 38.86478566666667, "fusion_lon": 0.0, "fusion_lat": 0.0, "type": "electric_scooter", "name": "047641e6a384553f1f79478f82ddacaf", "is_disabled": 0, "rental_uris": {"ios": "https://dc.lft.to/lastmile_qr_scan", "android": "https://dc.lft.to/lastmile_qr_scan"}, "is_reserved": 0}, {"lon": -77.01821733333334, "bike_id": "3095ad6a0b392344dcd4fd1d1d293905", "lat": 38.90082066666667, "fusion_lon": 0.0, "fusion_lat": 0.0, "type": "electric_scooter", "name": "3095ad6a0b392344dcd4fd1d1d293905", "is_disabled": 0, "rental_uris": {"ios": "https://dc.lft.to/lastmile_qr_scan", "android": "https://dc.lft.to/lastmile_qr_scan"}, "is_reserved": 0}, {"lon": -77.0561885, "bike_id": "cac43424e28c08f575d86f9753cb35d5", "lat": 38.923455833333335, "fusion_lon": 0.0, "fusion_lat": 0.0, "type": "electric_scooter", "name": "cac43424e28c08f575d86f9753cb35d5", "is_disabled": 0, "rental_uris": {"ios": "https://dc.lft.to/lastmile_qr_scan", "android": "https://dc.lft.to/lastmile_qr_scan"}, "is_reserved": 0}, {"lon": -77.00973866666666, "bike_id": "aca1ddb1fb4e6157a34f0512f17e38d0", "lat": 38.87074966666667, "fusion_lon": 0.0, "fusion_lat": 0.0, "type": "electric_scooter", "name": "aca1ddb1fb4e6157a34f0512f17e38d0", "is_disabled": 0, "rental_uris": {"ios": "https://dc.lft.to/lastmile_qr_scan", "android": "https://dc.lft.to/lastmile_qr_scan"}, "is_reserved": 0}, {"lon": -77.03508666666667, "bike_id": "0c9708434a87d4990ca62879af438964", "lat": 38.965261, "fusion_lon": 0.0, "fusion_lat": 0.0, "type": "electric_bike", "name": "0c9708434a87d4990ca62879af438964", "is_disabled": 0, "rental_uris": {"ios": "https://dc.lft.to/lastmile_qr_scan", "android": "https://dc.lft.to/lastmile_qr_scan"}, "is_reserved": 0}, {"lon": -76.98838116666667, "bike_id": "c5634f22dc9c19831538fbd9c77f563e", "lat": 38.896695666666666, "fusion_lon": 0.0, "fusion_lat": 0.0, "type": "electric_scooter", "name": "c5634f22dc9c19831538fbd9c77f563e", "is_disabled": 0, "rental_uris": {"ios": "https://dc.lft.to/lastmile_qr_scan", "android": "https://dc.lft.to/lastmile_qr_scan"}, "is_reserved": 0}, {"lon": -77.0221015, "bike_id": "3f89b636b9dedb5ff14328e418921b74", "lat": 38.893554, "fusion_lon": 0.0, "fusion_lat": 0.0, "type": "electric_scooter", "name": "3f89b636b9dedb5ff14328e418921b74", "is_disabled": 0, "rental_uris": {"ios": "https://dc.lft.to/lastmile_qr_scan", "android": "https://dc.lft.to/lastmile_qr_scan"}, "is_reserved": 0},