{"data": {"bikes": [{"name": "f128465779d8eb47543eeed13a0a8892", "type": "electric_scooter", "fusion_lon": 0.0, "lon": -77.023526, "is_disabled": 0, "lat": 38.9317955, "fusion_lat": 0.0, "is_reserved": 0, "rental_uris": {"android": "https://dc.lft.to/lastmile_qr_scan", "ios": "https://dc.lft.to/lastmile_qr_scan"}, "bike_id": "f128465779d8eb47543eeed13a0a8892"}, {"name": "36358d13f7ce6dd693c4be160a9137b6", "type": "electric_scooter", "fusion_lon": 0.0, "lon": -77.0053415, "is_disabled": 0, "lat": 38.918013, "fusion_lat": 0.0, "is_reserved": 0, "rental_uris": {"android": "https://dc.lft.to/lastmile_qr_scan", "ios": "https://dc.lft.to/lastmile_qr_scan"}, "bike_id": "36358d13f7ce6dd693c4be160a9137b6"}, {"name": "888538ab144a4d3ba5e2d9e75247f25f", "type": "electric_scooter", "fusion_lon": 0.0, "lon": -77.00491283333334, "is_disabled": 0, "lat": 38.874665666666665, "fusion_lat": 0.0, "is_reserved": 0, "rental_uris": {"android": "https://dc.lft.to/lastmile_qr_scan", "ios": "https://dc.lft.to/lastmile_qr_scan"}, "bike_id": "888538ab144a4d3ba5e2d9e75247f25f"}, {"name": "3f8dc37c3df9e511c7a9664ebdd39c3e", "type": "electric_scooter", "fusion_lon": 0.0, "lon": -77.02596816666667, "is_disabled": 0, "lat": 38.896245, "fusion_lat": 0.0, "is_reserved": 0, "rental_uris": {"android": "https://dc.lft.to/lastmile_qr_scan", "ios": "https://dc.lft.to/lastmile_qr_scan"}, "bike_id": "3f8dc37c3df9e511c7a9664ebdd39c3e"}, {"name": "7d94d3e3dcf291b76bf364544077c875", "type": "electric_scooter", "fusion_lon": 0.0, "lon": -77.03618433333334, "is_disabled": 0, "lat": 38.93916316666667, "fusion_lat": 0.0, "is_reserved": 0, "rental_uris": {"android": "https://dc.lft.to/lastmile_qr_scan", "ios": "https://dc.lft.to/lastmile_qr_scan"}, "bike_id": "7d94d3e3dcf291b76bf364544077c875"}, {"name": "a1ef103c3ae0c3b01fa27961f15f8987", "type": "electric_scooter", "fusion_lon": 0.0, "lon": -77.046151, "is_disabled": 0, "lat": 38.91674316666667, "fusion_lat": 0.0, "is_reserved": 0, "rental_uris": {"android": "https://dc.lft.to/lastmile_qr_scan", "ios": "https://dc.lft.to/lastmile_qr_scan"}, "bike_id": "a1ef103c3ae0c3b01fa27961f15f8987"}, {"name": "1de20b67c047371b5ec20e7181548a19", "type": "electric_scooter", "fusion_lon": 0.0, "lon": -77.02928166666666, "is_disabled": 0, "lat": 38.918191666666665, "fusion_lat": 0.0, "is_reserved": 0, "rental_uris": {"android": "https://dc.lft.to/lastmile_qr_scan", "ios": "https://dc.lft.to/lastmile_qr_scan"}, "bike_id": "1de20b67c047371b5ec20e7181548a19"}, {"name": "67437f145aa4fc730a93a3d1747405ad", "type": "electric_scooter", "fusion_lon": 0.0, "lon": -77.03389883333334, "is_disabled": 0, "lat": 38.92164116666667, "fusion_lat": 0.0, "is_reserved": 0, "rental_uris": {"android": "https://dc.lft.to/lastmile_qr_scan", "ios": "https://dc.lft.to/lastmile_qr_scan"}, "bike_id": "67437f145aa4fc730a93a3d1747405ad"}, {"name": "5f63837647584dd93ea6ac9c1fe28b1a", "type": "electric_scooter", "fusion_lon": 0.0, "lon": -76.97036016666667, "is_disabled": 0, "lat": 38.873627666666664, "fusion_lat": 0.0, "is_reserved": 0, "rental_uris": {"android": "https://dc.lft.to/lastmile_qr_scan", "ios": "https://dc.lft.to/lastmile_qr_scan"}, "bike_id": "5f63837647584dd93ea6ac9c1fe28b1a"}, {"name": "a2f66084f1def125bacb55192f2f1dc7", "type": "electric_scooter", "fusion_lon": 0.0, "lon": -77.02972433333333, "is_disabled": 0, "lat": 38.902746, "fusion_lat": 0.0, "is_reserved": 0, "rental_uris": {"android": "https://dc.lft.to/lastmile_qr_scan", "ios": "https://dc.lft.to/lastmile_qr_scan"}, "bike_id": "a2f66084f1def125bacb55192f2f1dc7"}, {"name": "8fc694252b9cf0d146a2dd647e338b7b", "type": "electric_scooter", "fusion_lon": 0.0, "lon": -77.04586266666666, "is_disabled": 0, "lat": 38.91467633333333, "fusion_lat": 0.0, "is_reserved": 0, "rental_uris": {"android": "https://dc.lft.to/lastmile_qr_scan", "ios": "https://dc.lft.to/lastmile_qr_scan"}, "bike_id": "8fc694252b9cf0d146a2dd647e338b7b"}, {"name": "3dd63e3c13d87d1d15cf06d874fb7241", "type": "electric_scooter", "fusion_lon": 0.0, "lon": -77.03382983333333, "is_disabled": 0, "lat": 38.925479, "fusion_lat": 0.0, "is_reserved": 0, "rental_uris": {"android": "https://dc.lft.to/lastmile_qr_scan", "ios": "https://dc.lft.to/lastmile_qr_scan"}, "bike_id": "3dd63e3c13d87d1d15cf06d874fb7241"}, {"name": "594b653bf72a477d4b3bf04004cd7c71", "type": "electric_bike", "fusion_lon": 0.0, "lon": -77.08065066666667, "is_disabled": 0, "lat": 39.0525635, "fusion_lat": 0.0, "is_reserved": 0, "rental_uris": {"android": "https://dc.lft.to/lastmile_qr_scan", "ios": "https://dc.lft.to/lastmile_qr_scan"}, "bike_id": "594b653bf72a477d4b3bf04004cd7c71"}, {"name": "1dca0d39710baacb8765d42e9fe6e96c", "type": "electric_scooter", "fusion_lon": 0.0, "lon": -76.947755, "is_disabled": 0, "lat": 38.896178, "fusion_lat": 0.0, "is_reserved": 0, "rental_uris": {"android": "https://dc.lft.to/lastmile_qr_scan", "ios": "https://dc.lft.to/lastmile_qr_scan"}, "bike_id": "1dca0d39710baacb8765d42e9fe6e96c"}, {"name": "a00473768ca2ff84750778539b2b4b7d", "type": "electric_scooter", "fusion_lon": 0.0, "lon": -77.032002, "is_disabled": 0, "lat": 38.892245333333335, "fusion_lat": 0.0, "is_reserved": 0, "rental_uris": {"android": "https://dc.lft.to/lastmile_qr_scan", "ios": "https://dc.lft.to/lastmile_qr_scan"}, "bike_id": "a00473768ca2ff84750778539b2b4b7d"}, {"name": "70c070829328b7d7c673fc264d562ef9", "type": "electric_scooter", "fusion_lon": 0.0, "lon": -76.94893333333333, "is_disabled": 0, "lat": 38.895382833333336, "fusion_lat": 0.0, "is_reserved": 0, "rental_uris": {"android": "https://dc.lft.to/lastmile_qr_scan", "ios": "https://dc.lft.to/lastmile_qr_scan"}, "bike_id": "70c070829328b7d7c673fc264d562ef9"}, {"name": "e8e02d9b6c3dc47d7ee483d6ef418ae3", "type": "electric_scooter", "fusion_lon": 0.0, "lon": -77.03175833333333, "is_disabled": 0, "lat": 38.91411083333333, "fusion_lat": 0.0, "is_reserved": 0, "rental_uris": {"android": "https://dc.lft.to/lastmile_qr_scan", "ios": "https://dc.lft.to/lastmile_qr_scan"}, "bike_id": "e8e02d9b6c3dc47d7ee483d6ef418ae3"}, {"name": "346d2dd4fb5c2a49400db59ed130cd88", "type": "electric_scooter", "fusion_lon": 0.0, "lon": -77.02791233333333, "is_disabled": 0, "lat": 38.91706466666667, "fusion_lat": 0.0, "is_reserved": 0, "rental_uris": {"android": "https://dc.lft.to/lastmile_qr_scan", "ios": "https://dc.lft.to/lastmile_qr_scan"}, "bike_id": "346d2dd4fb5c2a49400db59ed130cd88"}, {"name": "10b5e6e9e9132ea4becb9e3deb0993b8", "type": "electric_bike", "fusion_lon": 0.0, "lon": -76.91092266666666, "is_disabled": 0, "lat": 38.88320216666666, "fusion_lat": 0.0, "is_reserved": 0, "rental_uris": {"android": "https://dc.lft.to/lastmile_qr_scan", "ios": "https://dc.lft.to/lastmile_qr_scan"}, "bike_id": "10b5e6e9e9132ea4becb9e3deb0993b8"}, {"name": "d9f1cad748bbc8b830906c98293095ec", "type": "electric_scooter", "fusion_lon": 0.0, "lon": -76.94853483333333, "is_disabled": 0, "lat": 38.88300783333333, "fusion_lat": 0.0, "is_reserved": 0, "rental_uris": {"android": "https://dc.lft.to/lastmile_qr_scan", "ios": "https://dc.lft.to/lastmile_qr_scan"}, "bike_id": "d9f1cad748bbc8b830906c98293095ec"}, {"name": "5e2be5c97f758dd7b05a41e5f3a9205e", "type": "electric_scooter", "fusion_lon": 0.0, "lon": -77.0415955, "is_disabled": 0, "lat": 38.89231733333333, "fusion_lat": 0.0, "is_reserved": 0, "rental_uris": {"android": "https://dc.lft.to/lastmile_qr_scan", "ios": "https://dc.lft.to/lastmile_qr_scan"}, "bike_id": "5e2be5c97f758dd7b05a41e5f3a9205e"}, {"name": "b1a06cf1ea469b6d6a910f2b25540b9d", "type": "electric_scooter", "fusion_lon": 0.0, "lon": -77.0469955, "is_disabled": 0, "lat": 38.9211545, "fusion_lat": 0.0, "is_reserved": 0, "rental_uris": {"android": "https://dc.lft.to/lastmile_qr_scan", "ios": "https://dc.lft.to/lastmile_qr_scan"}, "bike_id": "b1a06cf1ea469b6d6a910f2b25540b9d"}, {"name": "7296a8235b6735ee70d3ca6d3fa10bef", "type": "electric_scooter", "fusion_lon": 0.0, "lon": -77.0385195, "is_disabled": 0, "lat": 38.9031585, "fusion_lat": 0.0, "is_reserved": 0, "rental_uris": {"android": "https://dc.lft.to/lastmile_qr_scan", "ios": "https://dc.lft.to/lastmile_qr_scan"}, "bike_id": "7296a8235b6735ee70d3ca6d3fa10bef"}, {"name": "d6452d2ff0d7e64f11a55ae40534735c", "type": "electric_scooter", "fusion_lon": 0.0, "lon": -76.9900375, "is_disabled": 0, "lat": 38.865096666666666, "fusion_lat": 0.0, "is_reserved": 0, "rental_uris": {"android": "https://dc.lft.to/lastmile_qr_scan", "ios": "https://dc.lft.to/lastmile_qr_scan"}, "bike_id": "d6452d2ff0d7e64f11a55ae40534735c"}, {"name": "1735e1e3373a54ec18e11dfe62cf027f", "type": "electric_bike", "fusion_lon": 0.0, "lon": -76.95166083333334, "is_disabled": 0, "lat": 38.885173333333334, "fusion_lat": 0.0, "is_reserved": 0, "rental_uris": {"android": "https://dc.lft.to/lastmile_qr_scan", "ios": "https://dc.lft.to/lastmile_qr_scan"}, "bike_id": "1735e1e3373a54ec18e11dfe62cf027f"}, {"name": "1824b51d8cd28000ec28f78e73daccaa", "type": "electric_scooter", "fusion_lon": 0.0, "lon": -77.03201633333333, "is_disabled": 0, "lat": 38.9036785, "fusion_lat": 0.0, "is_reserved": 0, "rental_uris": {"android": "https://dc.lft.to/lastmile_qr_scan", "ios": "https://dc.lft.to/lastmile_qr_scan"}, "bike_id": "1824b51d8cd28000ec28f78e73daccaa"}, {"name": "1e0f71f54ffeb61e0ba642cdad55a43e", "type": "electric_scooter", "fusion_lon": 0.0, "lon": -76.980878, "is_disabled": 0, "lat": 38.92247016666666, "fusion_lat": 0.0, "is_reserved": 0, "rental_uris": {"android": "https://dc.lft.to/lastmile_qr_scan", "ios": "https://dc.lft.to/lastmile_qr_scan"}, "bike_id": "1e0f71f54ffeb61e0ba642cdad55a43e"}, {"name": "977ed813f1dc6826c7897a9c58db91f0", "type": "electric_scooter", "fusion_lon": 0.0, "lon": -76.99501466666666, "is_disabled": 0, "lat": 38.909811833333336, "fusion_lat": 0.0, "is_reserved": 0, "rental_uris": {"android": "https://dc.lft.to/lastmile_qr_scan", "ios": "https://dc.lft.to/lastmile_qr_scan"}, "bike_id": "977ed813f1dc6826c7897a9c58db91f0"}, {"name": "4ef2d23ab59e302cab8453b58dc18abf", "type": "electric_scooter", "fusion_lon": 0.0, "lon": -77.04339733333333, "is_disabled": 0, "lat": 38.92814716666667, "fusion_lat": 0.0, "is_reserved": 0, "rental_uris": {"android": "https://dc.lft.to/lastmile_qr_scan", "ios": "https://dc.lft.to/lastmile_qr_scan"}, "bike_id": "4ef2d23ab59e302cab8453b58dc18abf"}, {"name": "7b0e88ac66e2a1e45ad8836ee19e4cfc", "type": "electric_scooter", "fusion_lon": 0.0, "lon": -77.04497466666666, "is_disabled": 0, "lat": 38.89949033333333, "fusion_lat": 0.0, "is_reserved": 0, "rental_uris": {"android": "https://dc.lft.to/lastmile_qr_scan", "ios": "https://dc.lft.to/lastmile_qr_scan"}, "bike_id": "7b0e88ac66e2a1e45ad8836ee19e4cfc"}, {"name": "05112fcd01ccf5c5440d38982e9c962f", "type": "electric_bike", "fusion_lon": 0.0, "lon": -77.08526916666666, "is_disabled": 0, "lat": 38.856498, "fusion_lat": 0.0, "is_reserved": 0, "rental_uris": {"android": "https://dc.lft.to/lastmile_qr_scan", "ios": "https://dc.lft.to/lastmile_qr_scan"}, "bike_id": "05112fcd01ccf5c5440d38982e9c962f"}, {"name": "41f988da127022f8855019f95726b9f7", "type": "electric_scooter", "fusion_lon": 0.0, "lon": -77.04143716666667, "is_disabled": 0, "lat": 38.916342666666665, "fusion_lat": 0.0, "is_reserved": 0, "rental_uris": {"android": "https://dc.lft.to/lastmile_qr_scan", "ios": "https://dc.lft.to/lastmile_qr_scan"}, "bike_id": "41f988da127022f8855019f95726b9f7"}, {"name": "77abe06962293dcb02a5bac28391470a", "type": "electric_scooter", "fusion_lon": 0.0, "lon": -77.0325815, "is_disabled": 0, "lat": 38.90142633333333, "fusion_lat": 0.0, "is_reserved": 0, "rental_uris": {"android": "https://dc.lft.to/lastmile_qr_scan", "ios": "https://dc.lft.to/lastmile_qr_scan"}, "bike_id": "77abe06962293dcb02a5bac28391470a"}, {"name": "b2e8e77895dd15813d2274fd72b232b3", "type": "electric_scooter", "fusion_lon": 0.0, "lon": -77.007998, "is_disabled": 0, "lat": 38.907521333333335, "fusion_lat": 0.0, "is_reserved": 0, "rental_uris": {"android": "https://dc.lft.to/lastmile_qr_scan", "ios": "https://dc.lft.to/lastmile_qr_scan"}, "bike_id": "b2e8e77895dd15813d2274fd72b232b3"}, {"name": "551c082741eb035e3dc0073f934c068f", "type": "electric_scooter", "fusion_lon": 0.0, "lon": -77.04171783333334, "is_disabled": 0, "lat": 38.917078, "fusion_lat": 0.0, "is_reserved": 0, "rental_uris": {"android": "https://dc.lft.to/lastmile_qr_scan", "ios": "https://dc.lft.to/lastmile_qr_scan"}, "bike_id": "551c082741eb035e3dc0073f934c068f"}, {"name": "761cbad9f073212cd38571ca367f18c8", "type": "electric_scooter", "fusion_lon": 0.0, "lon": -76.9960365, "is_disabled": 0, "lat": 38.85692266666667, "fusion_lat": 0.0, "is_reserved": 0, "rental_uris": {"android": "https://dc.lft.to/lastmile_qr_scan", "ios": "https://dc.lft.to/lastmile_qr_scan"}, "bike_id": "761cbad9f073212cd38571ca367f18c8"}, {"name": "df066f77db89f761d1b46ef06ca3cce6", "type": "electric_scooter", "fusion_lon": 0.0, "lon": -77.02508866666666, "is_disabled": 0, "lat": 38.9180975, "fusion_lat": 0.0, "is_reserved": 0, "rental_uris": {"android": "https://dc.lft.to/lastmile_qr_scan", "ios": "https://dc.lft.to/lastmile_qr_scan"}, "bike_id": "df066f77db89f761d1b46ef06ca3cce6"}, {"name": "f16d67fdb6ed54eab2bd85ccd4fa38af", "type": "electric_scooter", "fusion_lon": 0.0, "lon": -77.0459305, "is_disabled": 0, "lat": 38.9214135, "fusion_lat": 0.0, "is_reserved": 0, "rental_uris": {"android": "https://dc.lft.to/lastmile_qr_scan", "ios": "https://dc.lft.to/lastmile_qr_scan"}, "bike_id": "f16d67fdb6ed54eab2bd85ccd4fa38af"}, {"name": "876dfddf1b02a15be8c39fa447eca174", "type": "electric_scooter", "fusion_lon": 0.0, "lon": -77.03214133333333, "is_disabled": 0, "lat": 38.92288116666667, "fusion_lat": 0.0, "is_reserved": 0, "rental_uris": {"android": "https://dc.lft.to/lastmile_qr_scan", "ios": "https://dc.lft.to/lastmile_qr_scan"}, "bike_id": "876dfddf1b02a15be8c39fa447eca174"}, {"name": "7b6ac420fa53e1bd1199166900364969", "type": "electric_scooter", "fusion_lon": 0.0, "lon": -77.040809, "is_disabled": 0, "lat": 38.914837166666665, "fusion_lat": 0.0, "is_reserved": 0, "rental_uris": {"android": "https://dc.lft.to/lastmile_qr_scan", "ios": "https://dc.lft.to/lastmile_qr_scan"}, "bike_id": "7b6ac420fa53e1bd1199166900364969"}, {"name": "aa3ef427d093ca000d43e9d7275af94d", "type": "electric_scooter", "fusion_lon": 0.0, "lon": -77.026573, "is_disabled": 0, "lat": 38.8973405, "fusion_lat": 0.0, "is_reserved": 0, "rental_uris": {"android": "https://dc.lft.to/lastmile_qr_scan", "ios": "https://dc.lft.to/lastmile_qr_scan"}, "bike_id": "aa3ef427d093ca000d43e9d7275af94d"}, {"name": "5d7f7ac12dc225ed5258fcc0fc0653ed", "type": "electric_scooter", "fusion_lon": 0.0, "lon": -77.00817866666667, "is_disabled": 0, "lat": 38.83167, "fusion_lat": 0.0, "is_reserved": 0, "rental_uris": {"android": "https://dc.lft.to/lastmile_qr_scan", "ios": "https://dc.lft.to/lastmile_qr_scan"}, "bike_id": "5d7f7ac12dc225ed5258fcc0fc0653ed"}, {"name": "6336f1adb7040a79d1ed4930466b197c", "type": "electric_scooter", "fusion_lon": 0.0, "lon": -77.043679, "is_disabled": 0, "lat": 38.903927, "fusion_lat": 0.0, "is_reserved": 0, "rental_uris": {"android": "https://dc.lft.to/lastmile_qr_scan", "ios": "https://dc.lft.to/lastmile_qr_scan"}, "bike_id": "6336f1adb7040a79d1ed4930466b197c"}, {"name": "9f695d3c446111359e565b08384346a6", "type": "electric_scooter", "fusion_lon": 0.0, "lon": -77.043975, "is_disabled": 0, "lat": 38.897472666666665, "fusion_lat": 0.0, "is_reserved": 0, "rental_uris": {"android": "https://dc.lft.to/lastmile_qr_scan", "ios": "https://dc.lft.to/lastmile_qr_scan"}, "bike_id": "9f695d3c446111359e565b08384346a6"}, {"name": "f832e80ff243ad4f41f42e8d07ebec0f", "type": "electric_scooter", "fusion_lon": 0.0, "lon": -77.04530133333333, "is_disabled": 0, "lat": 38.8947505, "fusion_lat": 0.0, "is_reserved": 0, "rental_uris": {"android": "https://dc.lft.to/lastmile_qr_scan", "ios": "https://dc.lft.to/lastmile_qr_scan"}, "bike_id": "f832e80ff243ad4f41f42e8d07ebec0f"}, {"name": "bb7b516c44f8355b07aa2f39438fa78d", "type": "electric_scooter", "fusion_lon": 0.0, "lon": -77.036854, "is_disabled": 0, "lat": 38.90963816666667, "fusion_lat": 0.0, "is_reserved": 0, "rental_uris": {"android": "https://dc.lft.to/lastmile_qr_scan", "ios": "https://dc.lft.to/lastmile_qr_scan"}, "bike_id": "bb7b516c44f8355b07aa2f39438fa78d"}, {"name": "9e28166cf9126c20b6c0f9284e4e6d1c", "type": "electric_scooter", "fusion_lon": 0.0, "lon": -77.038253, "is_disabled": 0, "lat": 38.903569833333336, "fusion_lat": 0.0, "is_reserved": 0, "rental_uris": {"android": "https://dc.lft.to/lastmile_qr_scan", "ios": "https://dc.lft.to/lastmile_qr_scan"}, "bike_id": "9e28166cf9126c20b6c0f9284e4e6d1c"}, {"name": "27bff08ddd54c288ba628f2f56a18d93", "type": "electric_scooter", "fusion_lon": 0.0, "lon": -77.03455283333334, "is_disabled": 0, "lat": 38.902627333333335, "fusion_lat": 0.0, "is_reserved": 0, "rental_uris": {"android": "https://dc.lft.to/lastmile_qr_scan", "ios": "https://dc.lft.to/lastmile_qr_scan"}, "bike_id": "27bff08ddd54c288ba628f2f56a18d93"}, {"name": "814a93b1804189b7717e6c49ce106fe0", "type": "electric_scooter", "fusion_lon": 0.0, "lon": -77.02609533333333, "is_disabled": 0, "lat": 38.918237500000004, "fusion_lat": 0.0, "is_reserved": 0, "rental_uris": {"android": "https://dc.lft.to/lastmile_qr_scan", "ios": "https://dc.lft.to/lastmile_qr_scan"}, "bike_id": "814a93b1804189b7717e6c49ce106fe0"}, {"name": "b9fcf87dfadfa617604f61739339eca6", "type": "electric_scooter", "fusion_lon": 0.0, "lon": -77.03588216666667, "is_disabled": 0, "lat": 38.91880033333333, "fusion_lat": 0.0, "is_reserved": 0, "rental_uris": {"android": "https://dc.lft.to/lastmile_qr_scan", "ios": "https://dc.lft.to/lastmile_qr_scan"}, "bike_id": "b9fcf87dfadfa617604f61739339eca6"}, {"name": "d59d86ce0edbbdfec19826e7a8a14e2d", "type": "electric_scooter", "fusion_lon": 0.0, "lon": -76.96017916666666, "is_disabled": 0, "lat": 38.8693375, "fusion_lat": 0.0, "is_reserved": 0, "rental_uris": {"android": "https://dc.lft.to/lastmile_qr_scan", "ios": "https://dc.lft.to/lastmile_qr_scan"}, "bike_id": "d59d86ce0edbbdfec19826e7a8a14e2d"}, {"name": "93cd58bb67454e89f873942b3e3802e6", "type": "electric_scooter", "fusion_lon": 0.0, "lon": -76.9260105, "is_disabled": 0, "lat": 38.89785216666667, "fusion_lat": 0.0, "is_reserved": 0, "rental_uris": {"android": "https://dc.lft.to/lastmile_qr_scan", "ios": "https://dc.lft.to/lastmile_qr_scan"}, "bike_id": "93cd58bb67454e89f873942b3e3802e6"}, {"name": "76361e963aa816e7c4d139456e259a3b", "type": "electric_scooter", "fusion_lon": 0.0, "lon": -77.041624, "is_disabled": 0, "lat": 38.91521633333333, "fusion_lat": 0.0, "is_reserved": 0, "rental_uris": {"android": "https://dc.lft.to/lastmile_qr_scan", "ios": "https://dc.lft.to/lastmile_qr_scan"}, "bike_id": "76361e963aa816e7c4d139456e259a3b"}, {"name": "5666f21709c450f2ae5a6628df600c11", "type": "electric_scooter", "fusion_lon": 0.0, "lon": -77.00624483333333, "is_disabled": 0, "lat": 38.8716865, "fusion_lat": 0.0, "is_reserved": 0, "rental_uris": {"android": "https://dc.lft.to/lastmile_qr_scan", "ios": "https://dc.lft.to/lastmile_qr_scan"}, "bike_id": "5666f21709c450f2ae5a6628df600c11"}, {"name": "5727059402bcbfb41216142eec9d2380", "type": "electric_scooter", "fusion_lon": 0.0, "lon": -77.02412766666667, "is_disabled": 0, "lat": 38.89223166666667, "fusion_lat": 0.0, "is_reserved": 0, "rental_uris": {"android": "https://dc.lft.to/lastmile_qr_scan", "ios": "https://dc.lft.to/lastmile_qr_scan"}, "bike_id": "5727059402bcbfb41216142eec9d2380"}, {"name": "dd9ccdcdee6843bc4916249c1761ebb3", "type": "electric_scooter", "fusion_lon": 0.0, "lon": -77.02279483333334, "is_disabled": 0, "lat": 38.92708733333333, "fusion_lat": 0.0, "is_reserved": 0, "rental_uris": {"android": "https://dc.lft.to/lastmile_qr_scan", "ios": "https://dc.lft.to/lastmile_qr_scan"}, "bike_id": "dd9ccdcdee6843bc4916249c1761ebb3"}, {"name": "6c14c8a2953886edda0914811acb84f7", "type": "electric_bike", "fusion_lon": 0.0, "lon": -76.90420966666667, "is_disabled": 0, "lat": 38.940585666666664, "fusion_lat": 0.0, "is_reserved": 0, "rental_uris": {"android": "https://dc.lft.to/lastmile_qr_scan", "ios": "https://dc.lft.to/lastmile_qr_scan"}, "bike_id": "6c14c8a2953886edda0914811acb84f7"}, {"name": "c29f27b9de9d16600a4f0921e5b336dc", "type": "electric_scooter", "fusion_lon": 0.0, "lon": -77.03324266666667, "is_disabled": 0, "lat": 38.905809, "fusion_lat": 0.0, "is_reserved": 0, "rental_uris": {"android": "https://dc.lft.to/lastmile_qr_scan", "ios": "https://dc.lft.to/lastmile_qr_scan"}, "bike_id": "c29f27b9de9d16600a4f0921e5b336dc"}, {"name": "14cba80c6626a17c6bbe44a3c090670f", "type": "electric_scooter", "fusion_lon": 0.0, "lon": -77.0831865, "is_disabled": 0, "lat": 38.93040033333333, "fusion_lat": 0.0, "is_reserved": 0, "rental_uris": {"android": "https://dc.lft.to/lastmile_qr_scan", "ios": "https://dc.lft.to/lastmile_qr_scan"}, "bike_id": "14cba80c6626a17c6bbe44a3c090670f"}, {"name": "b3e4737a3d20ffe9adc7363afd228b7f", "type": "electric_scooter", "fusion_lon": 0.0, "lon": -77.04466566666666, "is_disabled": 0, "lat": 38.91264533333333, "fusion_lat": 0.0, "is_reserved": 0, "rental_uris": {"android": "https://dc.lft.to/lastmile_qr_scan", "ios": "https://dc.lft.to/lastmile_qr_scan"}, "bike_id": "b3e4737a3d20ffe9adc7363afd228b7f"}, {"name": "f4edcbc7d4a8b932519e38399dfe755c", "type": "electric_scooter", "fusion_lon": 0.0, "lon": -77.00943016666666, "is_disabled": 0, "lat": 38.9057275, "fusion_lat": 0.0, "is_reserved": 0, "rental_uris": {"android": "https://dc.lft.to/lastmile_qr_scan", "ios": "https://dc.lft.to/lastmile_qr_scan"}, "bike_id": "f4edcbc7d4a8b932519e38399dfe755c"}, {"name": "56c854cfa5b1c1b7eae60ad0d1e82828", "type": "electric_scooter", "fusion_lon": 0.0, "lon": -77.02465666666667, "is_disabled": 0, "lat": 38.93851183333334, "fusion_lat": 0.0, "is_reserved": 0, "rental_uris": {"android": "https://dc.lft.to/lastmile_qr_scan", "ios": "https://dc.lft.to/lastmile_qr_scan"}, "bike_id": "56c854cfa5b1c1b7eae60ad0d1e82828"}, {"name": "a8276e40f9a51c5ebbd389bdbf28d91d", "type": "electric_scooter", "fusion_lon": 0.0, "lon": -76.98325116666666, "is_disabled": 0, "lat": 38.9044005, "fusion_lat": 0.0, "is_reserved": 0, "rental_uris": {"android": "https://dc.lft.to/lastmile_qr_scan", "ios": "https://dc.lft.to/lastmile_qr_scan"}, "bike_id": "a8276e40f9a51c5ebbd389bdbf28d91d"}, {"name": "a4c633253b5ff4b0f46152a73d68279b", "type": "electric_scooter", "fusion_lon": 0.0, "lon": -77.07717266666667, "is_disabled": 0, "lat": 38.9409885, "fusion_lat": 0.0, "is_reserved": 0, "rental_uris": {"android": "https://dc.lft.to/lastmile_qr_scan", "ios": "https://dc.lft.to/lastmile_qr_scan"}, "bike_id": "a4c633253b5ff4b0f46152a73d68279b"}, {"name": "6573307f8939904ccbc819da5dffc53d", "type": "electric_bike", "fusion_lon": 0.0, "lon": -77.0181995, "is_disabled": 0, "lat": 38.90826533333333, "fusion_lat": 0.0, "is_reserved": 0, "rental_uris": {"android": "https://dc.lft.to/lastmile_qr_scan", "ios": "https://dc.lft.to/lastmile_qr_scan"}, "bike_id": "6573307f8939904ccbc819da5dffc53d"}, {"name": "31ea66d53ffd8534d3daada6ab499712", "type": "electric_scooter", "fusion_lon": 0.0, "lon": -77.0034475, "is_disabled": 0, "lat": 38.894633, "fusion_lat": 0.0, "is_reserved": 0, "rental_uris": {"android": "https://dc.lft.to/lastmile_qr_scan", "ios": "https://dc.lft.to/lastmile_qr_scan"}, "bike_id": "31ea66d53ffd8534d3daada6ab499712"}, {"name": "b898ff8f7d58b6965badac8c0cd0aa98", "type": "electric_scooter", "fusion_lon": 0.0, "lon": -77.02436383333334, "is_disabled": 0, "lat": 38.937509166666665, "fusion_lat": 0.0, "is_reserved": 0, "rental_uris": {"android": "https://dc.lft.to/lastmile_qr_scan", "ios": "https://dc.lft.to/lastmile_qr_scan"}, "bike_id": "b898ff8f7d58b6965badac8c0cd0aa98"}, {"name": "1e68ae2a0c9611fe2ba11e63e35252ec", "type": "electric_scooter", "fusion_lon": 0.0, "lon": -77.02278433333333, "is_disabled": 0, "lat": 38.91414233333333, "fusion_lat": 0.0, "is_reserved": 0, "rental_uris": {"android": "https://dc.lft.to/lastmile_qr_scan", "ios": "https://dc.lft.to/lastmile_qr_scan"}, "bike_id": "1e68ae2a0c9611fe2ba11e63e35252ec"}, {"name": "73a7509c8f15df174bd400b227625eb3", "type": "electric_scooter", "fusion_lon": 0.0, "lon": -77.00571216666667, "is_disabled": 0, "lat": 38.87663233333333, "fusion_lat": 0.0, "is_reserved": 0, "rental_uris": {"android": "https://dc.lft.to/lastmile_qr_scan", "ios": "https://dc.lft.to/lastmile_qr_scan"}, "bike_id": "73a7509c8f15df174bd400b227625eb3"}, {"name": "67fce73e6bf81600e6018acdaf316bb2", "type": "electric_scooter", "fusion_lon": 0.0, "lon": -77.00217566666667, "is_disabled": 0, "lat": 38.8952335, "fusion_lat": 0.0, "is_reserved": 0, "rental_uris": {"android": "https://dc.lft.to/lastmile_qr_scan", "ios": "https://dc.lft.to/lastmile_qr_scan"}, "bike_id": "67fce73e6bf81600e6018acdaf316bb2"}, {"name": "d25eafbddf2414906637a88363c46827", "type": "electric_scooter", "fusion_lon": 0.0, "lon": -77.034775, "is_disabled": 0, "lat": 38.9170975, "fusion_lat": 0.0, "is_reserved": 0, "rental_uris": {"android": "https://dc.lft.to/lastmile_qr_scan", "ios": "https://dc.lft.to/lastmile_qr_scan"}, "bike_id": "d25eafbddf2414906637a88363c46827"}, {"name": "b11830dfe59bdc63bfe96af3e15ddacb", "type": "electric_scooter", "fusion_lon": 0.0, "lon": -77.07032433333333, "is_disabled": 0, "lat": 38.922554833333336, "fusion_lat": 0.0, "is_reserved": 0, "rental_uris": {"android": "https://dc.lft.to/lastmile_qr_scan", "ios": "https://dc.lft.to/lastmile_qr_scan"}, "bike_id": "b11830dfe59bdc63bfe96af3e15ddacb"}, {"name": "618aa7b5c4ad642365b506ebf91abd65", "type": "electric_scooter", "fusion_lon": 0.0, "lon": -77.02497283333334, "is_disabled": 0, "lat": 38.9042355, "fusion_lat": 0.0, "is_reserved": 0, "rental_uris": {"android": "https://dc.lft.to/lastmile_qr_scan", "ios": "https://dc.lft.to/lastmile_qr_scan"}, "bike_id": "618aa7b5c4ad642365b506ebf91abd65"}, {"name": "b78460016450b33d9960f47142c6f01e", "type": "electric_scooter", "fusion_lon": 0.0, "lon": -77.03265116666667, "is_disabled": 0, "lat": 38.939893833333336, "fusion_lat": 0.0, "is_reserved": 0, "rental_uris": {"android": "https://dc.lft.to/lastmile_qr_scan", "ios": "https://dc.lft.to/lastmile_qr_scan"}, "bike_id": "b78460016450b33d9960f47142c6f01e"}, {"name": "27f8fb04a7c6ec9627cc0a11775691c3", "type": "electric_scooter", "fusion_lon": 0.0, "lon": -77.05067366666667, "is_disabled": 0, "lat": 38.9005905, "fusion_lat": 0.0, "is_reserved": 0, "rental_uris": {"android": "https://dc.lft.to/lastmile_qr_scan", "ios": "https://dc.lft.to/lastmile_qr_scan"}, "bike_id": "27f8fb04a7c6ec9627cc0a11775691c3"}, {"name": "259c83a0aafd345c114483f2e93b7e55", "type": "electric_scooter", "fusion_lon": 0.0, "lon": -77.02630566666667, "is_disabled": 0, "lat": 38.8877315, "fusion_lat": 0.0, "is_reserved": 0, "rental_uris": {"android": "https://dc.lft.to/lastmile_qr_scan", "ios": "https://dc.lft.to/lastmile_qr_scan"}, "bike_id": "259c83a0aafd345c114483f2e93b7e55"}, {"name": "1fb3b4b2522cbcaf4a14feb871c789ca", "type": "electric_scooter", "fusion_lon": 0.0, "lon": -76.99581333333333, "is_disabled": 0, "lat": 38.85175683333333, "fusion_lat": 0.0, "is_reserved": 0, "rental_uris": {"android": "https://dc.lft.to/lastmile_qr_scan", "ios": "https://dc.lft.to/lastmile_qr_scan"}, "bike_id": "1fb3b4b2522cbcaf4a14feb871c789ca"}, {"name": "3daffc00dc6e0994e83dfd7e169ed8f3", "type": "electric_scooter", "fusion_lon": 0.0, "lon": -77.036128, "is_disabled": 0, "lat": 38.931620833333334, "fusion_lat": 0.0, "is_reserved": 0, "rental_uris": {"android": "https://dc.lft.to/lastmile_qr_scan", "ios": "https://dc.lft.to/lastmile_qr_scan"}, "bike_id": "3daffc00dc6e0994e83dfd7e169ed8f3"}, {"name": "1eb10f227e55c44d3fa14743ca7c7531", "type": "electric_scooter", "fusion_lon": 0.0, "lon": -77.00141816666667, "is_disabled": 0, "lat": 38.90776983333333, "fusion_lat": 0.0, "is_reserved": 0, "rental_uris": {"android": "https://dc.lft.to/lastmile_qr_scan", "ios": "https://dc.lft.to/lastmile_qr_scan"}, "bike_id": "1eb10f227e55c44d3fa14743ca7c7531"}, {"name": "0adba57217696af086231354530b4f5e", "type": "electric_scooter", "fusion_lon": 0.0, "lon": -77.01768583333333, "is_disabled": 0, "lat": 38.8790065, "fusion_lat": 0.0, "is_reserved": 0, "rental_uris": {"android": "https://dc.lft.to/lastmile_qr_scan", "ios": "https://dc.lft.to/lastmile_qr_scan"}, "bike_id": "0adba57217696af086231354530b4f5e"}, {"name": "46368b33398e8d1240ff725d2af5688f", "type": "electric_scooter", "fusion_lon": 0.0, "lon": -76.98717816666667, "is_disabled": 0, "lat": 38.86631116666667, "fusion_lat": 0.0, "is_reserved": 0, "rental_uris": {"android": "https://dc.lft.to/lastmile_qr_scan", "ios": "https://dc.lft.to/lastmile_qr_scan"}, "bike_id": "46368b33398e8d1240ff725d2af5688f"}, {"name": "8f49a199a77c7be0693ff20a3bc69969", "type": "electric_scooter", "fusion_lon": 0.0, "lon": -77.0218495, "is_disabled": 0, "lat": 38.91216133333333, "fusion_lat": 0.0, "is_reserved": 0, "rental_uris": {"android": "https://dc.lft.to/lastmile_qr_scan", "ios": "https://dc.lft.to/lastmile_qr_scan"}, "bike_id": "8f49a199a77c7be0693ff20a3bc69969"}, {"name": "ecbdb89c181f45a47803e71adf57ccc4", "type": "electric_scooter", "fusion_lon": 0.0, "lon": -77.0203815, "is_disabled": 0, "lat": 38.92087466666667, "fusion_lat": 0.0, "is_reserved": 0, "rental_uris": {"android": "https://dc.lft.to/lastmile_qr_scan", "ios": "https://dc.lft.to/lastmile_qr_scan"}, "bike_id": "ecbdb89c181f45a47803e71adf57ccc4"}, {"name": "961ecf7216fe64786bb16337827e6c71", "type": "electric_scooter", "fusion_lon": 0.0, "lon": -76.98546383333333, "is_disabled": 0, "lat": 38.86691966666667, "fusion_lat": 0.0, "is_reserved": 0, "rental_uris": {"android": "https://dc.lft.to/lastmile_qr_scan", "ios": "https://dc.lft.to/lastmile_qr_scan"}, "bike_id": "961ecf7216fe64786bb16337827e6c71"}, {"name": "bff376d6623ba69bf5bcf3e7c8858c8e", "type": "electric_scooter", "fusion_lon": 0.0, "lon": -76.9979605, "is_disabled": 0, "lat": 38.96159766666667, "fusion_lat": 0.0, "is_reserved": 0, "rental_uris": {"android": "https://dc.lft.to/lastmile_qr_scan", "ios": "https://dc.lft.to/lastmile_qr_scan"}, "bike_id": "bff376d6623ba69bf5bcf3e7c8858c8e"}, {"name": "008ed150b2f068f921eaeb0f76b9126d", "type": "electric_scooter", "fusion_lon": 0.0, "lon": -77.0435165, "is_disabled": 0, "lat": 38.904269666666664, "fusion_lat": 0.0, "is_reserved": 0, "rental_uris": {"android": "https://dc.lft.to/lastmile_qr_scan", "ios": "https://dc.lft.to/lastmile_qr_scan"}, "bike_id": "008ed150b2f068f921eaeb0f76b9126d"}, {"name": "2061d85a779f7e28ce1c812c9d684122", "type": "electric_scooter", "fusion_lon": 0.0, "lon": -77.02973433333334, "is_disabled": 0, "lat": 38.93147883333334, "fusion_lat": 0.0, "is_reserved": 0, "rental_uris": {"android": "https://dc.lft.to/lastmile_qr_scan", "ios": "https://dc.lft.to/lastmile_qr_scan"}, "bike_id": "2061d85a779f7e28ce1c812c9d684122"}, {"name": "1ee0e5ba78b13a74fd46ae3356a82d61", "type": "electric_scooter", "fusion_lon": 0.0, "lon": -77.00485, "is_disabled": 0, "lat": 38.8746765, "fusion_lat": 0.0, "is_reserved": 0, "rental_uris": {"android": "https://dc.lft.to/lastmile_qr_scan", "ios": "https://dc.lft.to/lastmile_qr_scan"}, "bike_id": "1ee0e5ba78b13a74fd46ae3356a82d61"}, {"name": "1a754c25f6920f5c588d68ed73b0d0b2", "type": "electric_scooter", "fusion_lon": 0.0, "lon": -77.04185666666666, "is_disabled": 0, "lat": 38.92051283333333, "fusion_lat": 0.0, "is_reserved": 0, "rental_uris": {"android": "https://dc.lft.to/lastmile_qr_scan", "ios": "https://dc.lft.to/lastmile_qr_scan"}, "bike_id": "1a754c25f6920f5c588d68ed73b0d0b2"}, {"name": "ff9417ca205c2edfad48fd46d047426e", "type": "electric_scooter", "fusion_lon": 0.0, "lon": -77.02476066666667, "is_disabled": 0, "lat": 38.93965166666667, "fusion_lat": 0.0, "is_reserved": 0, "rental_uris": {"android": "https://dc.lft.to/lastmile_qr_scan", "ios": "https://dc.lft.to/lastmile_qr_scan"}, "bike_id": "ff9417ca205c2edfad48fd46d047426e"}, {"name": "e29c2858264744e0f09d69200ccced23", "type": "electric_scooter", "fusion_lon": 0.0, "lon": -77.06200933333334, "is_disabled": 0, "lat": 38.918467, "fusion_lat": 0.0, "is_reserved": 0, "rental_uris": {"android": "https://dc.lft.to/lastmile_qr_scan", "ios": "https://dc.lft.to/lastmile_qr_scan"}, "bike_id": "e29c2858264744e0f09d69200ccced23"}, {"name": "3fba7c700a7783bce010d918829a6522", "type": "electric_scooter", "fusion_lon": 0.0, "lon": -77.03847966666666, "is_disabled": 0, "lat": 38.91551316666666, "fusion_lat": 0.0, "is_reserved": 0, "rental_uris": {"android": "https://dc.lft.to/lastmile_qr_scan", "ios": "https://dc.lft.to/lastmile_qr_scan"}, "bike_id": "3fba7c700a7783bce010d918829a6522"}, {"name": "11866dd1a269bae57456260e4c3efb39", "type": "electric_scooter", "fusion_lon": 0.0, "lon": -77.02340016666666, "is_disabled": 0, "lat": 38.929744666666664, "fusion_lat": 0.0, "is_reserved": 0, "rental_uris": {"android": "https://dc.lft.to/lastmile_qr_scan", "ios": "https://dc.lft.to/lastmile_qr_scan"}, "bike_id": "11866dd1a269bae57456260e4c3efb39"}, {"name": "e7b39182c2b2cbc9c4b8f056e85a627e", "type": "electric_scooter", "fusion_lon": 0.0, "lon": -77.03145616666667, "is_disabled": 0, "lat": 38.904476833333334, "fusion_lat": 0.0, "is_reserved": 0, "rental_uris": {"android": "https://dc.lft.to/lastmile_qr_scan", "ios": "https://dc.lft.to/lastmile_qr_scan"}, "bike_id": "e7b39182c2b2cbc9c4b8f056e85a627e"}, {"name": "750cfcc1fcdda8d1540fc768f3528645", "type": "electric_scooter", "fusion_lon": 0.0, "lon": -77.09055333333333, "is_disabled": 0, "lat": 38.94251716666667, "fusion_lat": 0.0, "is_reserved": 0, "rental_uris": {"android": "https://dc.lft.to/lastmile_qr_scan", "ios": "https://dc.lft.to/lastmile_qr_scan"}, "bike_id": "750cfcc1fcdda8d1540fc768f3528645"}, {"name": "1291d980322a2dabaae0d0c420e10d14", "type": "electric_bike", "fusion_lon": 0.0, "lon": -77.12021333333334, "is_disabled": 0, "lat": 38.857894, "fusion_lat": 0.0, "is_reserved": 0, "rental_uris": {"android": "https://dc.lft.to/lastmile_qr_scan", "ios": "https://dc.lft.to/lastmile_qr_scan"}, "bike_id": "1291d980322a2dabaae0d0c420e10d14"}, {"name": "7118c7678c4b23a968df3e3167307833", "type": "electric_scooter", "fusion_lon": 0.0, "lon": -77.01411666666667, "is_disabled": 0, "lat": 38.905117, "fusion_lat": 0.0, "is_reserved": 0, "rental_uris": {"android": "https://dc.lft.to/lastmile_qr_scan", "ios": "https://dc.lft.to/lastmile_qr_scan"}, "bike_id": "7118c7678c4b23a968df3e3167307833"}, {"name": "0a7bc614dc78834a07389b034852cd75", "type": "electric_scooter", "fusion_lon": 0.0, "lon": -77.02605583333333, "is_disabled": 0, "lat": 38.89567666666667, "fusion_lat": 0.0, "is_reserved": 0, "rental_uris": {"android": "https://dc.lft.to/lastmile_qr_scan", "ios": "https://dc.lft.to/lastmile_qr_scan"}, "bike_id": "0a7bc614dc78834a07389b034852cd75"}, {"name": "39ec11f7353295adaea037d110df72a5", "type": "electric_scooter", "fusion_lon": 0.0, "lon": -77.01169483333334, "is_disabled": 0, "lat": 38.9214075, "fusion_lat": 0.0, "is_reserved": 0, "rental_uris": {"android": "https://dc.lft.to/lastmile_qr_scan", "ios": "https://dc.lft.to/lastmile_qr_scan"}, "bike_id": "39ec11f7353295adaea037d110df72a5"}, {"name": "6c623a864f812eedb6e2db1757c90257", "type": "electric_bike", "fusion_lon": 0.0, "lon": -76.944282, "is_disabled": 0, "lat": 38.992197833333336, "fusion_lat": 0.0, "is_reserved": 0, "rental_uris": {"android": "https://dc.lft.to/lastmile_qr_scan", "ios": "https://dc.lft.to/lastmile_qr_scan"}, "bike_id": "6c623a864f812eedb6e2db1757c90257"}, {"name": "6e6f8778074fa05cc4aad1c1bfbf149b", "type": "electric_bike", "fusion_lon": 0.0, "lon": -77.12063466666666, "is_disabled": 0, "lat": 38.855009333333335, "fusion_lat": 0.0, "is_reserved": 0, "rental_uris": {"android": "https://dc.lft.to/lastmile_qr_scan", "ios": "https://dc.lft.to/lastmile_qr_scan"}, "bike_id": "6e6f8778074fa05cc4aad1c1bfbf149b"}, {"name": "55146ebb39af9dc408358efc13905d66", "type": "electric_scooter", "fusion_lon": 0.0, "lon": -77.04545133333333, "is_disabled": 0, "lat": 38.9193665, "fusion_lat": 0.0, "is_reserved": 0, "rental_uris": {"android": "https://dc.lft.to/lastmile_qr_scan", "ios": "https://dc.lft.to/lastmile_qr_scan"}, "bike_id": "55146ebb39af9dc408358efc13905d66"}, {"name": "e6ebe755363027bcf948c820c28b2b72", "type": "electric_scooter", "fusion_lon": 0.0, "lon": -76.99943983333333, "is_disabled": 0, "lat": 38.940752333333336, "fusion_lat": 0.0, "is_reserved": 0, "rental_uris": {"android": "https://dc.lft.to/lastmile_qr_scan", "ios": "https://dc.lft.to/lastmile_qr_scan"}, "bike_id": "e6ebe755363027bcf948c820c28b2b72"}, {"name": "ddf61cd3c0e54bb1aab78f9d238a87fa", "type": "electric_scooter", "fusion_lon": 0.0, "lon": -76.95694333333333, "is_disabled": 0, "lat": 38.892096, "fusion_lat": 0.0, "is_reserved": 0, "rental_uris": {"android": "https://dc.lft.to/lastmile_qr_scan", "ios": "https://dc.lft.to/lastmile_qr_scan"}, "bike_id": "ddf61cd3c0e54bb1aab78f9d238a87fa"}, {"name": "71bc466d90390c732d6e5e5f5791d9b4", "type": "electric_scooter", "fusion_lon": 0.0, "lon": -77.03315316666666, "is_disabled": 0, "lat": 38.898276833333334, "fusion_lat": 0.0, "is_reserved": 0, "rental_uris": {"android": "https://dc.lft.to/lastmile_qr_scan", "ios": "https://dc.lft.to/lastmile_qr_scan"}, "bike_id": "71bc466d90390c732d6e5e5f5791d9b4"}, {"name": "fe208fac23f8c6fab31144483738fd80", "type": "electric_scooter", "fusion_lon": 0.0, "lon": -77.03997233333334, "is_disabled": 0, "lat": 38.902707, "fusion_lat": 0.0, "is_reserved": 0, "rental_uris": {"android": "https://dc.lft.to/lastmile_qr_scan", "ios": "https://dc.lft.to/lastmile_qr_scan"}, "bike_id": "fe208fac23f8c6fab31144483738fd80"}, {"name": "b6050e1c960ee9bb14689179831512d3", "type": "electric_scooter", "fusion_lon": 0.0, "lon": -77.04397066666667, "is_disabled": 0, "lat": 38.9135815, "fusion_lat": 0.0, "is_reserved": 0, "rental_uris": {"android": "https://dc.lft.to/lastmile_qr_scan", "ios": "https://dc.lft.to/lastmile_qr_scan"}, "bike_id": "b6050e1c960ee9bb14689179831512d3"}, {"name": "1ed8fa24a37bc7fad2468cca75de726b", "type": "electric_scooter", "fusion_lon": 0.0, "lon": -77.02695733333333, "is_disabled": 0, "lat": 38.90684066666667, "fusion_lat": 0.0, "is_reserved": 0, "rental_uris": {"android": "https://dc.lft.to/lastmile_qr_scan", "ios": "https://dc.lft.to/lastmile_qr_scan"}, "bike_id": "1ed8fa24a37bc7fad2468cca75de726b"}, {"name": "30a69e503e0eb36c7e1d4bea87a1fd72", "type": "electric_scooter", "fusion_lon": 0.0, "lon": -77.01126116666667, "is_disabled": 0, "lat": 38.8997875, "fusion_lat": 0.0, "is_reserved": 0, "rental_uris": {"android": "https://dc.lft.to/lastmile_qr_scan", "ios": "https://dc.lft.to/lastmile_qr_scan"}, "bike_id": "30a69e503e0eb36c7e1d4bea87a1fd72"}, {"name": "3888f6731f739bfb5a0318370e2b2d80", "type": "electric_scooter", "fusion_lon": 0.0, "lon": -77.0592125, "is_disabled": 0, "lat": 38.90453, "fusion_lat": 0.0, "is_reserved": 0, "rental_uris": {"android": "https://dc.lft.to/lastmile_qr_scan", "ios": "https://dc.lft.to/lastmile_qr_scan"}, "bike_id": "3888f6731f739bfb5a0318370e2b2d80"}, {"name": "b70f98b29f507f122703052553b6d68d", "type": "electric_scooter", "fusion_lon": 0.0, "lon": -77.06116, "is_disabled": 0, "lat": 38.90479883333333, "fusion_lat": 0.0, "is_reserved": 0, "rental_uris": {"android": "https://dc.lft.to/lastmile_qr_scan", "ios": "https://dc.lft.to/lastmile_qr_scan"}, "bike_id": "b70f98b29f507f122703052553b6d68d"}, {"name": "0ae8194418fc65a3e79542c4fb5ffffb", "type": "electric_scooter", "fusion_lon": 0.0, "lon": -76.99606116666666, "is_disabled": 0, "lat": 38.884989833333336, "fusion_lat": 0.0, "is_reserved": 0, "rental_uris": {"android": "https://dc.lft.to/lastmile_qr_scan", "ios": "https://dc.lft.to/lastmile_qr_scan"}, "bike_id": "0ae8194418fc65a3e79542c4fb5ffffb"}, {"name": "ec8f7b8ebe1207bbfabf3a982038d9c4", "type": "electric_scooter", "fusion_lon": 0.0, "lon": -76.99490866666666, "is_disabled": 0, "lat": 38.90107366666667, "fusion_lat": 0.0, "is_reserved": 0, "rental_uris": {"android": "https://dc.lft.to/lastmile_qr_scan", "ios": "https://dc.lft.to/lastmile_qr_scan"}, "bike_id": "ec8f7b8ebe1207bbfabf3a982038d9c4"}, {"name": "8f0d19de36a53c38390f95a2d32c3822", "type": "electric_scooter", "fusion_lon": 0.0, "lon": -76.9851715, "is_disabled": 0, "lat": 38.860006166666665, "fusion_lat": 0.0, "is_reserved": 0, "rental_uris": {"android": "https://dc.lft.to/lastmile_qr_scan", "ios": "https://dc.lft.to/lastmile_qr_scan"}, "bike_id": "8f0d19de36a53c38390f95a2d32c3822"}, {"name": "9de9a669df40b7a49c0ca8ceb21cf890", "type": "electric_bike", "fusion_lon": 0.0, "lon": -77.1622855, "is_disabled": 0, "lat": 38.88662566666667, "fusion_lat": 0.0, "is_reserved": 0, "rental_uris": {"android": "https://dc.lft.to/lastmile_qr_scan", "ios": "https://dc.lft.to/lastmile_qr_scan"}, "bike_id": "9de9a669df40b7a49c0ca8ceb21cf890"}, {"name": "3631af60ec3153b590ea3f9a765be9c8", "type": "electric_scooter", "fusion_lon": 0.0, "lon": -77.030381, "is_disabled": 0, "lat": 38.902542333333336, "fusion_lat": 0.0, "is_reserved": 0, "rental_uris": {"android": "https://dc.lft.to/lastmile_qr_scan", "ios": "https://dc.lft.to/lastmile_qr_scan"}, "bike_id": "3631af60ec3153b590ea3f9a765be9c8"}, {"name": "0bfc99604d97ecfdfc378120ba2961e1", "type": "electric_scooter", "fusion_lon": 0.0, "lon": -76.973323, "is_disabled": 0, "lat": 38.904119333333334, "fusion_lat": 0.0, "is_reserved": 0, "rental_uris": {"android": "https://dc.lft.to/lastmile_qr_scan", "ios": "https://dc.lft.to/lastmile_qr_scan"}, "bike_id": "0bfc99604d97ecfdfc378120ba2961e1"}, {"name": "5ff32a60ae61d869b9016c42c46f6c2c", "type": "electric_scooter", "fusion_lon": 0.0, "lon": -77.04562266666667, "is_disabled": 0, "lat": 38.9023105, "fusion_lat": 0.0, "is_reserved": 0, "rental_uris": {"android": "https://dc.lft.to/lastmile_qr_scan", "ios": "https://dc.lft.to/lastmile_qr_scan"}, "bike_id": "5ff32a60ae61d869b9016c42c46f6c2c"}, {"name": "56dbe9797f36737adcf7a3f4ec0ace33", "type": "electric_scooter", "fusion_lon": 0.0, "lon": -77.0343975, "is_disabled": 0, "lat": 38.93328116666667, "fusion_lat": 0.0, "is_reserved": 0, "rental_uris": {"android": "https://dc.lft.to/lastmile_qr_scan", "ios": "https://dc.lft.to/lastmile_qr_scan"}, "bike_id": "56dbe9797f36737adcf7a3f4ec0ace33"}, {"name": "824a73d093bac7c171235252a699c6ec", "type": "electric_scooter", "fusion_lon": 0.0, "lon": -77.00710066666667, "is_disabled": 0, "lat": 38.884903333333334, "fusion_lat": 0.0, "is_reserved": 0, "rental_uris": {"android": "https://dc.lft.to/lastmile_qr_scan", "ios": "https://dc.lft.to/lastmile_qr_scan"}, "bike_id": "824a73d093bac7c171235252a699c6ec"}, {"name": "b1fe6c5abc1bfef631fdb084f9932dcb", "type": "electric_scooter", "fusion_lon": 0.0, "lon": -77.01628183333334, "is_disabled": 0, "lat": 38.901117666666664, "fusion_lat": 0.0, "is_reserved": 0, "rental_uris": {"android": "https://dc.lft.to/lastmile_qr_scan", "ios": "https://dc.lft.to/lastmile_qr_scan"}, "bike_id": "b1fe6c5abc1bfef631fdb084f9932dcb"}, {"name": "5dfffd6ad646f7a7bf1d2731667451ca", "type": "electric_scooter", "fusion_lon": 0.0, "lon": -77.04706316666666, "is_disabled": 0, "lat": 38.912699333333336, "fusion_lat": 0.0, "is_reserved": 0, "rental_uris": {"android": "https://dc.lft.to/lastmile_qr_scan", "ios": "https://dc.lft.to/lastmile_qr_scan"}, "bike_id": "5dfffd6ad646f7a7bf1d2731667451ca"}, {"name": "56d0dbb5af218b6daea6acf20b8c19a9", "type": "electric_scooter", "fusion_lon": 0.0, "lon": -77.03340383333334, "is_disabled": 0, "lat": 38.914083833333336, "fusion_lat": 0.0, "is_reserved": 0, "rental_uris": {"android": "https://dc.lft.to/lastmile_qr_scan", "ios": "https://dc.lft.to/lastmile_qr_scan"}, "bike_id": "56d0dbb5af218b6daea6acf20b8c19a9"}, {"name": "5934be4ff153e9d96a803f4d2ce7c9a4", "type": "electric_scooter", "fusion_lon": 0.0, "lon": -77.022194, "is_disabled": 0, "lat": 38.92611183333333, "fusion_lat": 0.0, "is_reserved": 0, "rental_uris": {"android": "https://dc.lft.to/lastmile_qr_scan", "ios": "https://dc.lft.to/lastmile_qr_scan"}, "bike_id": "5934be4ff153e9d96a803f4d2ce7c9a4"}, {"name": "9928d3fe4bb710781145e2e4b1eb087a", "type": "electric_scooter", "fusion_lon": 0.0, "lon": -77.02487783333333, "is_disabled": 0, "lat": 38.938713666666665, "fusion_lat": 0.0, "is_reserved": 0, "rental_uris": {"android": "https://dc.lft.to/lastmile_qr_scan", "ios": "https://dc.lft.to/lastmile_qr_scan"}, "bike_id": "9928d3fe4bb710781145e2e4b1eb087a"}, {"name": "148082a23a40cd2c2e0b60dde044d6a6", "type": "electric_scooter", "fusion_lon": 0.0, "lon": -77.00249716666667, "is_disabled": 0, "lat": 38.911911333333336, "fusion_lat": 0.0, "is_reserved": 0, "rental_uris": {"android": "https://dc.lft.to/lastmile_qr_scan", "ios": "https://dc.lft.to/lastmile_qr_scan"}, "bike_id": "148082a23a40cd2c2e0b60dde044d6a6"}, {"name": "8027772cc2040fa2c9b8f1ecd16a52c1", "type": "electric_scooter", "fusion_lon": 0.0, "lon": -77.01547266666667, "is_disabled": 0, "lat": 38.891678666666664, "fusion_lat": 0.0, "is_reserved": 0, "rental_uris": {"android": "https://dc.lft.to/lastmile_qr_scan", "ios": "https://dc.lft.to/lastmile_qr_scan"}, "bike_id": "8027772cc2040fa2c9b8f1ecd16a52c1"}, {"name": "94984f98f308ed74f45664447ef4d1b9", "type": "electric_scooter", "fusion_lon": 0.0, "lon": -77.04999383333333, "is_disabled": 0, "lat": 38.89231766666666, "fusion_lat": 0.0, "is_reserved": 0, "rental_uris": {"android": "https://dc.lft.to/lastmile_qr_scan", "ios": "https://dc.lft.to/lastmile_qr_scan"}, "bike_id": "94984f98f308ed74f45664447ef4d1b9"}, {"name": "adf47d0c77067a85657987b8ece5d2de", "type": "electric_scooter", "fusion_lon": 0.0, "lon": -77.03348583333333, "is_disabled": 0, "lat": 38.9170855, "fusion_lat": 0.0, "is_reserved": 0, "rental_uris": {"android": "https://dc.lft.to/lastmile_qr_scan", "ios": "https://dc.lft.to/lastmile_qr_scan"}, "bike_id": "adf47d0c77067a85657987b8ece5d2de"}, {"name": "e8c052586938fb3d7e336b98eec3b1c9", "type": "electric_scooter", "fusion_lon": 0.0, "lon": -77.03211066666667, "is_disabled": 0, "lat": 38.922813, "fusion_lat": 0.0, "is_reserved": 0, "rental_uris": {"android": "https://dc.lft.to/lastmile_qr_scan", "ios": "https://dc.lft.to/lastmile_qr_scan"}, "bike_id": "e8c052586938fb3d7e336b98eec3b1c9"}, {"name": "882fa293ea1badeea18a5cac067e0abb", "type": "electric_scooter", "fusion_lon": 0.0, "lon": -77.04123683333333, "is_disabled": 0, "lat": 38.92248266666667, "fusion_lat": 0.0, "is_reserved": 0, "rental_uris": {"android": "https://dc.lft.to/lastmile_qr_scan", "ios": "https://dc.lft.to/lastmile_qr_scan"}, "bike_id": "882fa293ea1badeea18a5cac067e0abb"}, {"name": "14a8892b0d72176584e6e5ece0bc5c7e", "type": "electric_scooter", "fusion_lon": 0.0, "lon": -76.98694416666666, "is_disabled": 0, "lat": 38.86718, "fusion_lat": 0.0, "is_reserved": 0, "rental_uris": {"android": "https://dc.lft.to/lastmile_qr_scan", "ios": "https://dc.lft.to/lastmile_qr_scan"}, "bike_id": "14a8892b0d72176584e6e5ece0bc5c7e"}, {"name": "a796d3289348bc65a9848faf89d8b01f", "type": "electric_scooter", "fusion_lon": 0.0, "lon": -77.04480066666666, "is_disabled": 0, "lat": 38.895169333333335, "fusion_lat": 0.0, "is_reserved": 0, "rental_uris": {"android": "https://dc.lft.to/lastmile_qr_scan", "ios": "https://dc.lft.to/lastmile_qr_scan"}, "bike_id": "a796d3289348bc65a9848faf89d8b01f"}, {"name": "367fcb53ee5f26269d94c95d7dc08acc", "type": "electric_scooter", "fusion_lon": 0.0, "lon": -77.04303966666667, "is_disabled": 0, "lat": 38.931882, "fusion_lat": 0.0, "is_reserved": 0, "rental_uris": {"android": "https://dc.lft.to/lastmile_qr_scan", "ios": "https://dc.lft.to/lastmile_qr_scan"}, "bike_id": "367fcb53ee5f26269d94c95d7dc08acc"}, {"name": "02e586d85b936c106b802bb5d7253948", "type": "electric_scooter", "fusion_lon": 0.0, "lon": -76.99845283333333, "is_disabled": 0, "lat": 38.900497, "fusion_lat": 0.0, "is_reserved": 0, "rental_uris": {"android": "https://dc.lft.to/lastmile_qr_scan", "ios": "https://dc.lft.to/lastmile_qr_scan"}, "bike_id": "02e586d85b936c106b802bb5d7253948"}, {"name": "889a85210c367252a4d72c2ed0e40e6b", "type": "electric_scooter", "fusion_lon": 0.0, "lon": -77.02398216666667, "is_disabled": 0, "lat": 38.91990833333333, "fusion_lat": 0.0, "is_reserved": 0, "rental_uris": {"android": "https://dc.lft.to/lastmile_qr_scan", "ios": "https://dc.lft.to/lastmile_qr_scan"}, "bike_id": "889a85210c367252a4d72c2ed0e40e6b"}, {"name": "b7c9c2224eaf0024675b5c247627ee94", "type": "electric_scooter", "fusion_lon": 0.0, "lon": -76.98870566666666, "is_disabled": 0, "lat": 38.85772866666667, "fusion_lat": 0.0, "is_reserved": 0, "rental_uris": {"android": "https://dc.lft.to/lastmile_qr_scan", "ios": "https://dc.lft.to/lastmile_qr_scan"}, "bike_id": "b7c9c2224eaf0024675b5c247627ee94"}, {"name": "1c6da733688b7b3242d20f4fffe3a93c", "type": "electric_scooter", "fusion_lon": 0.0, "lon": -76.99807966666667, "is_disabled": 0, "lat": 38.901350666666666, "fusion_lat": 0.0, "is_reserved": 0, "rental_uris": {"android": "https://dc.lft.to/lastmile_qr_scan", "ios": "https://dc.lft.to/lastmile_qr_scan"}, "bike_id": "1c6da733688b7b3242d20f4fffe3a93c"}, {"name": "035841f9fb74f307d90ff9ac7002c2e9", "type": "electric_scooter", "fusion_lon": 0.0, "lon": -76.95892583333334, "is_disabled": 0, "lat": 38.8818405, "fusion_lat": 0.0, "is_reserved": 0, "rental_uris": {"android": "https://dc.lft.to/lastmile_qr_scan", "ios": "https://dc.lft.to/lastmile_qr_scan"}, "bike_id": "035841f9fb74f307d90ff9ac7002c2e9"}, {"name": "7f17ea0b3deaa82f08863be1899b3ce6", "type": "electric_scooter", "fusion_lon": 0.0, "lon": -77.032856, "is_disabled": 0, "lat": 38.948177, "fusion_lat": 0.0, "is_reserved": 0, "rental_uris": {"android": "https://dc.lft.to/lastmile_qr_scan", "ios": "https://dc.lft.to/lastmile_qr_scan"}, "bike_id": "7f17ea0b3deaa82f08863be1899b3ce6"}, {"name": "3c53090ebb2a0e8a68c6a63e2442c2bf", "type": "electric_scooter", "fusion_lon": 0.0, "lon": -77.05002166666667, "is_disabled": 0, "lat": 38.892307833333334, "fusion_lat": 0.0, "is_reserved": 0, "rental_uris": {"android": "https://dc.lft.to/lastmile_qr_scan", "ios": "https://dc.lft.to/lastmile_qr_scan"}, "bike_id": "3c53090ebb2a0e8a68c6a63e2442c2bf"}, {"name": "21232aaa86d0b99c589078b96ef070a9", "type": "electric_scooter", "fusion_lon": 0.0, "lon": -77.017794, "is_disabled": 0, "lat": 38.87735966666666, "fusion_lat": 0.0, "is_reserved": 0, "rental_uris": {"android": "https://dc.lft.to/lastmile_qr_scan", "ios": "https://dc.lft.to/lastmile_qr_scan"}, "bike_id": "21232aaa86d0b99c589078b96ef070a9"}, {"name": "2fa74455463469d267d06e8756fbf620", "type": "electric_scooter", "fusion_lon": 0.0, "lon": -76.99540183333333, "is_disabled": 0, "lat": 38.92661016666667, "fusion_lat": 0.0, "is_reserved": 0, "rental_uris": {"android": "https://dc.lft.to/lastmile_qr_scan", "ios": "https://dc.lft.to/lastmile_qr_scan"}, "bike_id": "2fa74455463469d267d06e8756fbf620"}, {"name": "1155ddd8528f284e7978d1c25ab2854f", "type": "electric_scooter", "fusion_lon": 0.0, "lon": -77.02507033333333, "is_disabled": 0, "lat": 38.91813416666667, "fusion_lat": 0.0, "is_reserved": 0, "rental_uris": {"android": "https://dc.lft.to/lastmile_qr_scan", "ios": "https://dc.lft.to/lastmile_qr_scan"}, "bike_id": "1155ddd8528f284e7978d1c25ab2854f"}, {"name": "4eef2dc91b29c56823afb7eabfb4ddfc", "type": "electric_scooter", "fusion_lon": 0.0, "lon": -77.02212016666667, "is_disabled": 0, "lat": 38.924705833333334, "fusion_lat": 0.0, "is_reserved": 0, "rental_uris": {"android": "https://dc.lft.to/lastmile_qr_scan", "ios": "https://dc.lft.to/lastmile_qr_scan"}, "bike_id": "4eef2dc91b29c56823afb7eabfb4ddfc"}, {"name": "87b5063cecccd238ed8970c6aea2bc5a", "type": "electric_scooter", "fusion_lon": 0.0, "lon": -77.03298183333334, "is_disabled": 0, "lat": 38.9286515, "fusion_lat": 0.0, "is_reserved": 0, "rental_uris": {"android": "https://dc.lft.to/lastmile_qr_scan", "ios": "https://dc.lft.to/lastmile_qr_scan"}, "bike_id": "87b5063cecccd238ed8970c6aea2bc5a"}, {"name": "4d7c4c8bdf238b8b1c181f04d5765305", "type": "electric_scooter", "fusion_lon": 0.0, "lon": -77.04330166666666, "is_disabled": 0, "lat": 38.90420916666667, "fusion_lat": 0.0, "is_reserved": 0, "rental_uris": {"android": "https://dc.lft.to/lastmile_qr_scan", "ios": "https://dc.lft.to/lastmile_qr_scan"}, "bike_id": "4d7c4c8bdf238b8b1c181f04d5765305"}, {"name": "1a15878976ec0f0c883b6a8b29c0c210", "type": "electric_scooter", "fusion_lon": 0.0, "lon": -76.955905, "is_disabled": 0, "lat": 38.88617033333333, "fusion_lat": 0.0, "is_reserved": 0, "rental_uris": {"android": "https://dc.lft.to/lastmile_qr_scan", "ios": "https://dc.lft.to/lastmile_qr_scan"}, "bike_id": "1a15878976ec0f0c883b6a8b29c0c210"}, {"name": "e9f95105d1110b30279d8c361eba64ca", "type": "electric_scooter", "fusion_lon": 0.0, "lon": -77.04694516666666, "is_disabled": 0, "lat": 38.89222133333333, "fusion_lat": 0.0, "is_reserved": 0, "rental_uris": {"android": "https://dc.lft.to/lastmile_qr_scan", "ios": "https://dc.lft.to/lastmile_qr_scan"}, "bike_id": "e9f95105d1110b30279d8c361eba64ca"}, {"name": "157d61009bb00477035342f3ca318313", "type": "electric_scooter", "fusion_lon": 0.0, "lon": -76.97918016666667, "is_disabled": 0, "lat": 38.92459433333333, "fusion_lat": 0.0, "is_reserved": 0, "rental_uris": {"android": "https://dc.lft.to/lastmile_qr_scan", "ios": "https://dc.lft.to/lastmile_qr_scan"}, "bike_id": "157d61009bb00477035342f3ca318313"}, {"name": "682248ab4c46b92a00acce0aa1be26b2", "type": "electric_scooter", "fusion_lon": 0.0, "lon": -77.0404355, "is_disabled": 0, "lat": 38.92425566666667, "fusion_lat": 0.0, "is_reserved": 0, "rental_uris": {"android": "https://dc.lft.to/lastmile_qr_scan", "ios": "https://dc.lft.to/lastmile_qr_scan"}, "bike_id": "682248ab4c46b92a00acce0aa1be26b2"}, {"name": "0a35b67d2c6677b7e084d16d637b07cf", "type": "electric_scooter", "fusion_lon": 0.0, "lon": -77.007044, "is_disabled": 0, "lat": 38.876723, "fusion_lat": 0.0, "is_reserved": 0, "rental_uris": {"android": "https://dc.lft.to/lastmile_qr_scan", "ios": "https://dc.lft.to/lastmile_qr_scan"}, "bike_id": "0a35b67d2c6677b7e084d16d637b07cf"}, {"name": "1967bd0dcbb1e9a3c6f2174307cf0cc2", "type": "electric_scooter", "fusion_lon": 0.0, "lon": -76.9744315, "is_disabled": 0, "lat": 38.902479166666666, "fusion_lat": 0.0, "is_reserved": 0, "rental_uris": {"android": "https://dc.lft.to/lastmile_qr_scan", "ios": "https://dc.lft.to/lastmile_qr_scan"}, "bike_id": "1967bd0dcbb1e9a3c6f2174307cf0cc2"}, {"name": "b4a2fd4a9bbfc52fff3a7d403a479aca", "type": "electric_scooter", "fusion_lon": 0.0, "lon": -77.0415425, "is_disabled": 0, "lat": 38.92359783333333, "fusion_lat": 0.0, "is_reserved": 0, "rental_uris": {"android": "https://dc.lft.to/lastmile_qr_scan", "ios": "https://dc.lft.to/lastmile_qr_scan"}, "bike_id": "b4a2fd4a9bbfc52fff3a7d403a479aca"}, {"name": "aea2a415c75be6e87dd3281e58ea3cd3", "type": "electric_scooter", "fusion_lon": 0.0, "lon": -76.98566416666667, "is_disabled": 0, "lat": 38.866846, "fusion_lat": 0.0, "is_reserved": 0, "rental_uris": {"android": "https://dc.lft.to/lastmile_qr_scan", "ios": "https://dc.lft.to/lastmile_qr_scan"}, "bike_id": "aea2a415c75be6e87dd3281e58ea3cd3"}, {"name": "a0e8e40b70acd7cd916274a37168dd0b", "type": "electric_scooter", "fusion_lon": 0.0, "lon": -77.027942, "is_disabled": 0, "lat": 38.9306145, "fusion_lat": 0.0, "is_reserved": 0, "rental_uris": {"android": "https://dc.lft.to/lastmile_qr_scan", "ios": "https://dc.lft.to/lastmile_qr_scan"}, "bike_id": "a0e8e40b70acd7cd916274a37168dd0b"}, {"name": "9f7a347aaa044f291ff3afe127070b39", "type": "electric_scooter", "fusion_lon": 0.0, "lon": -77.03401166666667, "is_disabled": 0, "lat": 38.92436633333333, "fusion_lat": 0.0, "is_reserved": 0, "rental_uris": {"android": "https://dc.lft.to/lastmile_qr_scan", "ios": "https://dc.lft.to/lastmile_qr_scan"}, "bike_id": "9f7a347aaa044f291ff3afe127070b39"}, {"name": "b42afcfa1c090fa0e4a7c50dc05ebe8f", "type": "electric_scooter", "fusion_lon": 0.0, "lon": -76.99487716666667, "is_disabled": 0, "lat": 38.877680833333336, "fusion_lat": 0.0, "is_reserved": 0, "rental_uris": {"android": "https://dc.lft.to/lastmile_qr_scan", "ios": "https://dc.lft.to/lastmile_qr_scan"}, "bike_id": "b42afcfa1c090fa0e4a7c50dc05ebe8f"}, {"name": "5c3d4e51a656c8bd1b6f98a2c6d57b16", "type": "electric_scooter", "fusion_lon": 0.0, "lon": -77.03663, "is_disabled": 0, "lat": 38.916809, "fusion_lat": 0.0, "is_reserved": 0, "rental_uris": {"android": "https://dc.lft.to/lastmile_qr_scan", "ios": "https://dc.lft.to/lastmile_qr_scan"}, "bike_id": "5c3d4e51a656c8bd1b6f98a2c6d57b16"}, {"name": "2d509e84f95031e30719b738c7ffa677", "type": "electric_scooter", "fusion_lon": 0.0, "lon": -77.01711616666667, "is_disabled": 0, "lat": 38.902141666666665, "fusion_lat": 0.0, "is_reserved": 0, "rental_uris": {"android": "https://dc.lft.to/lastmile_qr_scan", "ios": "https://dc.lft.to/lastmile_qr_scan"}, "bike_id": "2d509e84f95031e30719b738c7ffa677"}, {"name": "c346b20385686d352f1d475cd8ba2310", "type": "electric_scooter", "fusion_lon": 0.0, "lon": -77.04260766666667, "is_disabled": 0, "lat": 38.925373666666665, "fusion_lat": 0.0, "is_reserved": 0, "rental_uris": {"android": "https://dc.lft.to/lastmile_qr_scan", "ios": "https://dc.lft.to/lastmile_qr_scan"}, "bike_id": "c346b20385686d352f1d475cd8ba2310"}, {"name": "2738203d09a43d629ca5cdd259d20bd6", "type": "electric_scooter", "fusion_lon": 0.0, "lon": -76.99981783333334, "is_disabled": 0, "lat": 38.874826, "fusion_lat": 0.0, "is_reserved": 0, "rental_uris": {"android": "https://dc.lft.to/lastmile_qr_scan", "ios": "https://dc.lft.to/lastmile_qr_scan"}, "bike_id": "2738203d09a43d629ca5cdd259d20bd6"}, {"name": "511693c5d78cfde19a78d7cf4d8656a2", "type": "electric_scooter", "fusion_lon": 0.0, "lon": -77.03726583333334, "is_disabled": 0, "lat": 38.902393000000004, "fusion_lat": 0.0, "is_reserved": 0, "rental_uris": {"android": "https://dc.lft.to/lastmile_qr_scan", "ios": "https://dc.lft.to/lastmile_qr_scan"}, "bike_id": "511693c5d78cfde19a78d7cf4d8656a2"}, {"name": "1b2e6497b2bda519eb3f9b117d5835a3", "type": "electric_scooter", "fusion_lon": 0.0, "lon": -77.03262216666667, "is_disabled": 0, "lat": 38.93984833333333, "fusion_lat": 0.0, "is_reserved": 0, "rental_uris": {"android": "https://dc.lft.to/lastmile_qr_scan", "ios": "https://dc.lft.to/lastmile_qr_scan"}, "bike_id": "1b2e6497b2bda519eb3f9b117d5835a3"}, {"name": "7fbf9bdcbfc36b0d25bcb1ffb19f2dd3", "type": "electric_scooter", "fusion_lon": 0.0, "lon": -76.98339933333334, "is_disabled": 0, "lat": 38.86571266666667, "fusion_lat": 0.0, "is_reserved": 0, "rental_uris": {"android": "https://dc.lft.to/lastmile_qr_scan", "ios": "https://dc.lft.to/lastmile_qr_scan"}, "bike_id": "7fbf9bdcbfc36b0d25bcb1ffb19f2dd3"}, {"name": "92bed76ccbc6fad477d0d4dd5f52de6d", "type": "electric_scooter", "fusion_lon": 0.0, "lon": -77.02348416666666, "is_disabled": 0, "lat": 38.93179666666666, "fusion_lat": 0.0, "is_reserved": 0, "rental_uris": {"android": "https://dc.lft.to/lastmile_qr_scan", "ios": "https://dc.lft.to/lastmile_qr_scan"}, "bike_id": "92bed76ccbc6fad477d0d4dd5f52de6d"}, {"name": "d6390f9ad0711660f3a2ed5a7e95d637", "type": "electric_scooter", "fusion_lon": 0.0, "lon": -77.04063366666666, "is_disabled": 0, "lat": 38.93157, "fusion_lat": 0.0, "is_reserved": 0, "rental_uris": {"android": "https://dc.lft.to/lastmile_qr_scan", "ios": "https://dc.lft.to/lastmile_qr_scan"}, "bike_id": "d6390f9ad0711660f3a2ed5a7e95d637"}, {"name": "0e4e3182f77f0e527cbf59f55ac071df", "type": "electric_scooter", "fusion_lon": 0.0, "lon": -77.03848983333333, "is_disabled": 0, "lat": 38.902611666666665, "fusion_lat": 0.0, "is_reserved": 0, "rental_uris": {"android": "https://dc.lft.to/lastmile_qr_scan", "ios": "https://dc.lft.to/lastmile_qr_scan"}, "bike_id": "0e4e3182f77f0e527cbf59f55ac071df"}, {"name": "99a64b511f5d246328619e4835a1e98e", "type": "electric_scooter", "fusion_lon": 0.0, "lon": -77.02958116666667, "is_disabled": 0, "lat": 38.92273016666667, "fusion_lat": 0.0, "is_reserved": 0, "rental_uris": {"android": "https://dc.lft.to/lastmile_qr_scan", "ios": "https://dc.lft.to/lastmile_qr_scan"}, "bike_id": "99a64b511f5d246328619e4835a1e98e"}, {"name": "5729dcb21aea94f9240fd88b3d83d538", "type": "electric_scooter", "fusion_lon": 0.0, "lon": -77.02167266666666, "is_disabled": 0, "lat": 38.94292133333333, "fusion_lat": 0.0, "is_reserved": 0, "rental_uris": {"android": "https://dc.lft.to/lastmile_qr_scan", "ios": "https://dc.lft.to/lastmile_qr_scan"}, "bike_id": "5729dcb21aea94f9240fd88b3d83d538"}, {"name": "5214f15df5f9c71ed04f4bb97a9b6f12", "type": "electric_scooter", "fusion_lon": 0.0, "lon": -77.0256615, "is_disabled": 0, "lat": 38.925768833333336, "fusion_lat": 0.0, "is_reserved": 0, "rental_uris": {"android": "https://dc.lft.to/lastmile_qr_scan", "ios": "https://dc.lft.to/lastmile_qr_scan"}, "bike_id": "5214f15df5f9c71ed04f4bb97a9b6f12"}, {"name": "2bd6ec991df70cf0f2babea18d3eea08", "type": "electric_scooter", "fusion_lon": 0.0, "lon": -77.0224395, "is_disabled": 0, "lat": 38.924693166666664, "fusion_lat": 0.0, "is_reserved": 0, "rental_uris": {"android": "https://dc.lft.to/lastmile_qr_scan", "ios": "https://dc.lft.to/lastmile_qr_scan"}, "bike_id": "2bd6ec991df70cf0f2babea18d3eea08"}, {"name": "b21eba9a7a09586e7f0e9701bc2f59e7", "type": "electric_scooter", "fusion_lon": 0.0, "lon": -77.04116516666667, "is_disabled": 0, "lat": 38.933530833333336, "fusion_lat": 0.0, "is_reserved": 0, "rental_uris": {"android": "https://dc.lft.to/lastmile_qr_scan", "ios": "https://dc.lft.to/lastmile_qr_scan"}, "bike_id": "b21eba9a7a09586e7f0e9701bc2f59e7"}, {"name": "48f267f80b8d8ca4901f25f132a750c5", "type": "electric_scooter", "fusion_lon": 0.0, "lon": -77.026418, "is_disabled": 0, "lat": 38.89224166666666, "fusion_lat": 0.0, "is_reserved": 0, "rental_uris": {"android": "https://dc.lft.to/lastmile_qr_scan", "ios": "https://dc.lft.to/lastmile_qr_scan"}, "bike_id": "48f267f80b8d8ca4901f25f132a750c5"}, {"name": "6a2e4cb980736e27cc85c443a3f55a51", "type": "electric_scooter", "fusion_lon": 0.0, "lon": -77.04517183333333, "is_disabled": 0, "lat": 38.892214833333334, "fusion_lat": 0.0, "is_reserved": 0, "rental_uris": {"android": "https://dc.lft.to/lastmile_qr_scan", "ios": "https://dc.lft.to/lastmile_qr_scan"}, "bike_id": "6a2e4cb980736e27cc85c443a3f55a51"}, {"name": "2a3f878ffa790bd82e55eb624b67c836", "type": "electric_scooter", "fusion_lon": 0.0, "lon": -77.04681783333334, "is_disabled": 0, "lat": 38.90091983333333, "fusion_lat": 0.0, "is_reserved": 0, "rental_uris": {"android": "https://dc.lft.to/lastmile_qr_scan", "ios": "https://dc.lft.to/lastmile_qr_scan"}, "bike_id": "2a3f878ffa790bd82e55eb624b67c836"}, {"name": "fa33932824d6958725197b0f6676f597", "type": "electric_scooter", "fusion_lon": 0.0, "lon": -76.983367, "is_disabled": 0, "lat": 38.865627833333335, "fusion_lat": 0.0, "is_reserved": 0, "rental_uris": {"android": "https://dc.lft.to/lastmile_qr_scan", "ios": "https://dc.lft.to/lastmile_qr_scan"}, "bike_id": "fa33932824d6958725197b0f6676f597"}, {"name": "2bdb7798a04cbb68bd38a22d1cdf5817", "type": "electric_scooter", "fusion_lon": 0.0, "lon": -77.03329816666667, "is_disabled": 0, "lat": 38.8983805, "fusion_lat": 0.0, "is_reserved": 0, "rental_uris": {"android": "https://dc.lft.to/lastmile_qr_scan", "ios": "https://dc.lft.to/lastmile_qr_scan"}, "bike_id": "2bdb7798a04cbb68bd38a22d1cdf5817"}, {"name": "863839a288a85d791f96d3fe3370b5c3", "type": "electric_scooter", "fusion_lon": 0.0, "lon": -77.061007, "is_disabled": 0, "lat": 38.9053915, "fusion_lat": 0.0, "is_reserved": 0, "rental_uris": {"android": "https://dc.lft.to/lastmile_qr_scan", "ios": "https://dc.lft.to/lastmile_qr_scan"}, "bike_id": "863839a288a85d791f96d3fe3370b5c3"}, {"name": "d041105393ae85c3e757d39d96d73701", "type": "electric_scooter", "fusion_lon": 0.0, "lon": -77.04412583333334, "is_disabled": 0, "lat": 38.93426733333333, "fusion_lat": 0.0, "is_reserved": 0, "rental_uris": {"android": "https://dc.lft.to/lastmile_qr_scan", "ios": "https://dc.lft.to/lastmile_qr_scan"}, "bike_id": "d041105393ae85c3e757d39d96d73701"}, {"name": "3e6b061f664b9bc1ca56216b4e1fe143", "type": "electric_scooter", "fusion_lon": 0.0, "lon": -77.01765083333333, "is_disabled": 0, "lat": 38.902667, "fusion_lat": 0.0, "is_reserved": 0, "rental_uris": {"android": "https://dc.lft.to/lastmile_qr_scan", "ios": "https://dc.lft.to/lastmile_qr_scan"}, "bike_id": "3e6b061f664b9bc1ca56216b4e1fe143"}, {"name": "67d0033b85b50fa1e960a4ca17ba1b17", "type": "electric_bike", "fusion_lon": 0.0, "lon": -77.22887, "is_disabled": 0, "lat": 38.90960366666667, "fusion_lat": 0.0, "is_reserved": 0, "rental_uris": {"android": "https://dc.lft.to/lastmile_qr_scan", "ios": "https://dc.lft.to/lastmile_qr_scan"}, "bike_id": "67d0033b85b50fa1e960a4ca17ba1b17"}, {"name": "95c551fc9c3ae482569dc1d1ebb07fb4", "type": "electric_scooter", "fusion_lon": 0.0, "lon": -76.98882933333333, "is_disabled": 0, "lat": 38.86658, "fusion_lat": 0.0, "is_reserved": 0, "rental_uris": {"android": "https://dc.lft.to/lastmile_qr_scan", "ios": "https://dc.lft.to/lastmile_qr_scan"}, "bike_id": "95c551fc9c3ae482569dc1d1ebb07fb4"}, {"name": "c3ee4922a43ea79a32aab7627ddc102e", "type": "electric_scooter", "fusion_lon": 0.0, "lon": -77.029644, "is_disabled": 0, "lat": 38.906337, "fusion_lat": 0.0, "is_reserved": 0, "rental_uris": {"android": "https://dc.lft.to/lastmile_qr_scan", "ios": "https://dc.lft.to/lastmile_qr_scan"}, "bike_id": "c3ee4922a43ea79a32aab7627ddc102e"}, {"name": "ca8c698c8e0cf3ad0422ae746d9cbb2c", "type": "electric_scooter", "fusion_lon": 0.0, "lon": -77.00717016666667, "is_disabled": 0, "lat": 38.88492266666667, "fusion_lat": 0.0, "is_reserved": 0, "rental_uris": {"android": "https://dc.lft.to/lastmile_qr_scan", "ios": "https://dc.lft.to/lastmile_qr_scan"}, "bike_id": "ca8c698c8e0cf3ad0422ae746d9cbb2c"}, {"name": "35e36ca18a217f9bd922017c345ab580", "type": "electric_scooter", "fusion_lon": 0.0, "lon": -77.03100016666667, "is_disabled": 0, "lat": 38.92395283333333, "fusion_lat": 0.0, "is_reserved": 0, "rental_uris": {"android": "https://dc.lft.to/lastmile_qr_scan", "ios": "https://dc.lft.to/lastmile_qr_scan"}, "bike_id": "35e36ca18a217f9bd922017c345ab580"}, {"name": "63e9129ecb5ef7549c9c9b4a314f1f01", "type": "electric_scooter", "fusion_lon": 0.0, "lon": -77.02594066666667, "is_disabled": 0, "lat": 38.9639375, "fusion_lat": 0.0, "is_reserved": 0, "rental_uris": {"android": "https://dc.lft.to/lastmile_qr_scan", "ios": "https://dc.lft.to/lastmile_qr_scan"}, "bike_id": "63e9129ecb5ef7549c9c9b4a314f1f01"}, {"name": "4b3d6c1c13c8cdf5c0ac84143035e57e", "type": "electric_scooter", "fusion_lon": 0.0, "lon": -77.03213533333333, "is_disabled": 0, "lat": 38.920069166666664, "fusion_lat": 0.0, "is_reserved": 0, "rental_uris": {"android": "https://dc.lft.to/lastmile_qr_scan", "ios": "https://dc.lft.to/lastmile_qr_scan"}, "bike_id": "4b3d6c1c13c8cdf5c0ac84143035e57e"}, {"name": "36321cbb9fb4ad0f443083e537c078f0", "type": "electric_scooter", "fusion_lon": 0.0, "lon": -77.034933, "is_disabled": 0, "lat": 38.91696866666667, "fusion_lat": 0.0, "is_reserved": 0, "rental_uris": {"android": "https://dc.lft.to/lastmile_qr_scan", "ios": "https://dc.lft.to/lastmile_qr_scan"}, "bike_id": "36321cbb9fb4ad0f443083e537c078f0"}, {"name": "bc07ba94b4d5ba433d3b52e181797075", "type": "electric_scooter", "fusion_lon": 0.0, "lon": -77.01505533333334, "is_disabled": 0, "lat": 38.890138666666665, "fusion_lat": 0.0, "is_reserved": 0, "rental_uris": {"android": "https://dc.lft.to/lastmile_qr_scan", "ios": "https://dc.lft.to/lastmile_qr_scan"}, "bike_id": "bc07ba94b4d5ba433d3b52e181797075"}, {"name": "9fbb38687b362df34288f65cf500eade", "type": "electric_scooter", "fusion_lon": 0.0, "lon": -77.03831933333333, "is_disabled": 0, "lat": 38.92176933333333, "fusion_lat": 0.0, "is_reserved": 0, "rental_uris": {"android": "https://dc.lft.to/lastmile_qr_scan", "ios": "https://dc.lft.to/lastmile_qr_scan"}, "bike_id": "9fbb38687b362df34288f65cf500eade"}, {"name": "397bb2ba01d81ecbafd1eb33979fa261", "type": "electric_scooter", "fusion_lon": 0.0, "lon": -77.0586535, "is_disabled": 0, "lat": 38.936089833333334, "fusion_lat": 0.0, "is_reserved": 0, "rental_uris": {"android": "https://dc.lft.to/lastmile_qr_scan", "ios": "https://dc.lft.to/lastmile_qr_scan"}, "bike_id": "397bb2ba01d81ecbafd1eb33979fa261"}, {"name": "633ee0ec7ad96ed4de42440687fc7ea8", "type": "electric_scooter", "fusion_lon": 0.0, "lon": -77.0489915, "is_disabled": 0, "lat": 38.897630666666664, "fusion_lat": 0.0, "is_reserved": 0, "rental_uris": {"android": "https://dc.lft.to/lastmile_qr_scan", "ios": "https://dc.lft.to/lastmile_qr_scan"}, "bike_id": "633ee0ec7ad96ed4de42440687fc7ea8"}, {"name": "0bcf54285435ec5088d0043a919af91a", "type": "electric_scooter", "fusion_lon": 0.0, "lon": -77.02193266666667, "is_disabled": 0, "lat": 38.896064, "fusion_lat": 0.0, "is_reserved": 0, "rental_uris": {"android": "https://dc.lft.to/lastmile_qr_scan", "ios": "https://dc.lft.to/lastmile_qr_scan"}, "bike_id": "0bcf54285435ec5088d0043a919af91a"}, {"name": "f4400612062774e74a92ee96eb7f9e90", "type": "electric_scooter", "fusion_lon": 0.0, "lon": -77.07357816666666, "is_disabled": 0, "lat": 38.93567383333333, "fusion_lat": 0.0, "is_reserved": 0, "rental_uris": {"android": "https://dc.lft.to/lastmile_qr_scan", "ios": "https://dc.lft.to/lastmile_qr_scan"}, "bike_id": "f4400612062774e74a92ee96eb7f9e90"}, {"name": "6fca38ce660d0b0d9bae2f78bbb74d4d", "type": "electric_scooter", "fusion_lon": 0.0, "lon": -77.00373533333334, "is_disabled": 0, "lat": 38.87638833333333, "fusion_lat": 0.0, "is_reserved": 0, "rental_uris": {"android": "https://dc.lft.to/lastmile_qr_scan", "ios": "https://dc.lft.to/lastmile_qr_scan"}, "bike_id": "6fca38ce660d0b0d9bae2f78bbb74d4d"}, {"name": "69bb74c426d5eb6e94c9b05c17f15e11", "type": "electric_scooter", "fusion_lon": 0.0, "lon": -77.03251566666667, "is_disabled": 0, "lat": 38.93131733333333, "fusion_lat": 0.0, "is_reserved": 0, "rental_uris": {"android": "https://dc.lft.to/lastmile_qr_scan", "ios": "https://dc.lft.to/lastmile_qr_scan"}, "bike_id": "69bb74c426d5eb6e94c9b05c17f15e11"}, {"name": "ec2b690b13abcd2412217618252bbb7f", "type": "electric_scooter", "fusion_lon": 0.0, "lon": -77.09718916666667, "is_disabled": 0, "lat": 38.951000666666665, "fusion_lat": 0.0, "is_reserved": 0, "rental_uris": {"android": "https://dc.lft.to/lastmile_qr_scan", "ios": "https://dc.lft.to/lastmile_qr_scan"}, "bike_id": "ec2b690b13abcd2412217618252bbb7f"}, {"name": "7aa3dce9d5c7a07d174ff7390d28888c", "type": "electric_scooter", "fusion_lon": 0.0, "lon": -76.96708366666667, "is_disabled": 0, "lat": 38.8603335, "fusion_lat": 0.0, "is_reserved": 0, "rental_uris": {"android": "https://dc.lft.to/lastmile_qr_scan", "ios": "https://dc.lft.to/lastmile_qr_scan"}, "bike_id": "7aa3dce9d5c7a07d174ff7390d28888c"}, {"name": "ce8f39f069cf5ec48fcb3ea9db9cefc2", "type": "electric_scooter", "fusion_lon": 0.0, "lon": -77.02708133333333, "is_disabled": 0, "lat": 38.90778783333333, "fusion_lat": 0.0, "is_reserved": 0, "rental_uris": {"android": "https://dc.lft.to/lastmile_qr_scan", "ios": "https://dc.lft.to/lastmile_qr_scan"}, "bike_id": "ce8f39f069cf5ec48fcb3ea9db9cefc2"}, {"name": "46f47c919fbb48fe8d7db21d62d1c23c", "type": "electric_scooter", "fusion_lon": 0.0, "lon": -77.0070735, "is_disabled": 0, "lat": 38.884899, "fusion_lat": 0.0, "is_reserved": 0, "rental_uris": {"android": "https://dc.lft.to/lastmile_qr_scan", "ios": "https://dc.lft.to/lastmile_qr_scan"}, "bike_id": "46f47c919fbb48fe8d7db21d62d1c23c"}, {"name": "0fad7b703248976610661430754e0f42", "type": "electric_scooter", "fusion_lon": 0.0, "lon": -77.07168, "is_disabled": 0, "lat": 38.907772, "fusion_lat": 0.0, "is_reserved": 0, "rental_uris": {"android": "https://dc.lft.to/lastmile_qr_scan", "ios": "https://dc.lft.to/lastmile_qr_scan"}, "bike_id": "0fad7b703248976610661430754e0f42"}, {"name": "8eb16f1d85fa1da930bfc367774d95ea", "type": "electric_scooter", "fusion_lon": 0.0, "lon": -77.02386383333334, "is_disabled": 0, "lat": 38.906797, "fusion_lat": 0.0, "is_reserved": 0, "rental_uris": {"android": "https://dc.lft.to/lastmile_qr_scan", "ios": "https://dc.lft.to/lastmile_qr_scan"}, "bike_id": "8eb16f1d85fa1da930bfc367774d95ea"}, {"name": "551042889561d80a5340535f674209ac", "type": "electric_scooter", "fusion_lon": 0.0, "lon": -77.00437516666666, "is_disabled": 0, "lat": 38.877038, "fusion_lat": 0.0, "is_reserved": 0, "rental_uris": {"android": "https://dc.lft.to/lastmile_qr_scan", "ios": "https://dc.lft.to/lastmile_qr_scan"}, "bike_id": "551042889561d80a5340535f674209ac"}, {"name": "62b5e7c010ab045815b1a3c939f9a792", "type": "electric_bike", "fusion_lon": 0.0, "lon": -76.98205883333333, "is_disabled": 0, "lat": 38.984974333333334, "fusion_lat": 0.0, "is_reserved": 0, "rental_uris": {"android": "https://dc.lft.to/lastmile_qr_scan", "ios": "https://dc.lft.to/lastmile_qr_scan"}, "bike_id": "62b5e7c010ab045815b1a3c939f9a792"}, {"name": "670f862bd77c51437329caa32b6a6f9d", "type": "electric_scooter", "fusion_lon": 0.0, "lon": -77.03187, "is_disabled": 0, "lat": 38.90341266666667, "fusion_lat": 0.0, "is_reserved": 0, "rental_uris": {"android": "https://dc.lft.to/lastmile_qr_scan", "ios": "https://dc.lft.to/lastmile_qr_scan"}, "bike_id": "670f862bd77c51437329caa32b6a6f9d"}, {"name": "6483f9e91ac0d2ac6bdcab64ad65cdda", "type": "electric_bike", "fusion_lon": 0.0, "lon": -77.06576016666666, "is_disabled": 0, "lat": 38.9112905, "fusion_lat": 0.0, "is_reserved": 0, "rental_uris": {"android": "https://dc.lft.to/lastmile_qr_scan", "ios": "https://dc.lft.to/lastmile_qr_scan"}, "bike_id": "6483f9e91ac0d2ac6bdcab64ad65cdda"}, {"name": "529427075594fe699421e6f3d9a39c0d", "type": "electric_scooter", "fusion_lon": 0.0, "lon": -77.04903783333333, "is_disabled": 0, "lat": 38.900732833333336, "fusion_lat": 0.0, "is_reserved": 0, "rental_uris": {"android": "https://dc.lft.to/lastmile_qr_scan", "ios": "https://dc.lft.to/lastmile_qr_scan"}, "bike_id": "529427075594fe699421e6f3d9a39c0d"}, {"name": "607a52faf780b558c1de325485ed6a60", "type": "electric_scooter", "fusion_lon": 0.0, "lon": -77.04153433333333, "is_disabled": 0, "lat": 38.917466166666664, "fusion_lat": 0.0, "is_reserved": 0, "rental_uris": {"android": "https://dc.lft.to/lastmile_qr_scan", "ios": "https://dc.lft.to/lastmile_qr_scan"}, "bike_id": "607a52faf780b558c1de325485ed6a60"}, {"name": "de86844b6cc9b570dc4e37c9bb42f219", "type": "electric_scooter", "fusion_lon": 0.0, "lon": -77.03531283333334, "is_disabled": 0, "lat": 38.92526016666667, "fusion_lat": 0.0, "is_reserved": 0, "rental_uris": {"android": "https://dc.lft.to/lastmile_qr_scan", "ios": "https://dc.lft.to/lastmile_qr_scan"}, "bike_id": "de86844b6cc9b570dc4e37c9bb42f219"}, {"name": "d7a7f00089b6b342efc6572f0fc50a46", "type": "electric_scooter", "fusion_lon": 0.0, "lon": -77.0315835, "is_disabled": 0, "lat": 38.930691833333334, "fusion_lat": 0.0, "is_reserved": 0, "rental_uris": {"android": "https://dc.lft.to/lastmile_qr_scan", "ios": "https://dc.lft.to/lastmile_qr_scan"}, "bike_id": "d7a7f00089b6b342efc6572f0fc50a46"}, {"name": "65ad80a051e0a30c9de3eda2f8d5c467", "type": "electric_scooter", "fusion_lon": 0.0, "lon": -77.04691683333333, "is_disabled": 0, "lat": 38.921796666666665, "fusion_lat": 0.0, "is_reserved": 0, "rental_uris": {"android": "https://dc.lft.to/lastmile_qr_scan", "ios": "https://dc.lft.to/lastmile_qr_scan"}, "bike_id": "65ad80a051e0a30c9de3eda2f8d5c467"}, {"name": "e2a6b26db143a574a06ea37bd7b6ace7", "type": "electric_scooter", "fusion_lon": 0.0, "lon": -77.031054, "is_disabled": 0, "lat": 38.88319466666667, "fusion_lat": 0.0, "is_reserved": 0, "rental_uris": {"android": "https://dc.lft.to/lastmile_qr_scan", "ios": "https://dc.lft.to/lastmile_qr_scan"}, "bike_id": "e2a6b26db143a574a06ea37bd7b6ace7"}, {"name": "7a895dfaeafb6d7cbcef5a21851d10a1", "type": "electric_scooter", "fusion_lon": 0.0, "lon": -77.00545316666667, "is_disabled": 0, "lat": 38.876705333333334, "fusion_lat": 0.0, "is_reserved": 0, "rental_uris": {"android": "https://dc.lft.to/lastmile_qr_scan", "ios": "https://dc.lft.to/lastmile_qr_scan"}, "bike_id": "7a895dfaeafb6d7cbcef5a21851d10a1"}, {"name": "f87df17dfdc685409d76486f4dca0b02", "type": "electric_scooter", "fusion_lon": 0.0, "lon": -77.0292315, "is_disabled": 0, "lat": 38.91690066666666, "fusion_lat": 0.0, "is_reserved": 0, "rental_uris": {"android": "https://dc.lft.to/lastmile_qr_scan", "ios": "https://dc.lft.to/lastmile_qr_scan"}, "bike_id": "f87df17dfdc685409d76486f4dca0b02"}, {"name": "67f7696f68a0a12d731578d89a6bdf97", "type": "electric_bike", "fusion_lon": 0.0, "lon": -77.0459415, "is_disabled": 0, "lat": 38.91479866666667, "fusion_lat": 0.0, "is_reserved": 0, "rental_uris": {"android": "https://dc.lft.to/lastmile_qr_scan", "ios": "https://dc.lft.to/lastmile_qr_scan"}, "bike_id": "67f7696f68a0a12d731578d89a6bdf97"}, {"name": "affcbd2e0965d529bd869427ffbc80c6", "type": "electric_scooter", "fusion_lon": 0.0, "lon": -77.0295065, "is_disabled": 0, "lat": 38.91683733333333, "fusion_lat": 0.0, "is_reserved": 0, "rental_uris": {"android": "https://dc.lft.to/lastmile_qr_scan", "ios": "https://dc.lft.to/lastmile_qr_scan"}, "bike_id": "affcbd2e0965d529bd869427ffbc80c6"}, {"name": "6bf742e0fd70ad257438dbea5904c9b4", "type": "electric_scooter", "fusion_lon": 0.0, "lon": -77.02408733333333, "is_disabled": 0, "lat": 38.9086325, "fusion_lat": 0.0, "is_reserved": 0, "rental_uris": {"android": "https://dc.lft.to/lastmile_qr_scan", "ios": "https://dc.lft.to/lastmile_qr_scan"}, "bike_id": "6bf742e0fd70ad257438dbea5904c9b4"}, {"name": "e1159756a88e1d119f83a4e6bbd403ec", "type": "electric_scooter", "fusion_lon": 0.0, "lon": -77.03946, "is_disabled": 0, "lat": 38.90145916666667, "fusion_lat": 0.0, "is_reserved": 0, "rental_uris": {"android": "https://dc.lft.to/lastmile_qr_scan", "ios": "https://dc.lft.to/lastmile_qr_scan"}, "bike_id": "e1159756a88e1d119f83a4e6bbd403ec"}, {"name": "de188d02b45bd7f145941bf8b3dddfc6", "type": "electric_scooter", "fusion_lon": 0.0, "lon": -77.04307166666666, "is_disabled": 0, "lat": 38.92332733333333, "fusion_lat": 0.0, "is_reserved": 0, "rental_uris": {"android": "https://dc.lft.to/lastmile_qr_scan", "ios": "https://dc.lft.to/lastmile_qr_scan"}, "bike_id": "de188d02b45bd7f145941bf8b3dddfc6"}, {"name": "7ab813ab83e91b2ce935cf0ab30f75ab", "type": "electric_scooter", "fusion_lon": 0.0, "lon": -77.04255666666667, "is_disabled": 0, "lat": 38.908401166666664, "fusion_lat": 0.0, "is_reserved": 0, "rental_uris": {"android": "https://dc.lft.to/lastmile_qr_scan", "ios": "https://dc.lft.to/lastmile_qr_scan"}, "bike_id": "7ab813ab83e91b2ce935cf0ab30f75ab"}, {"name": "814177e32126a33b836de6e944d54f0e", "type": "electric_scooter", "fusion_lon": 0.0, "lon": -77.04256883333333, "is_disabled": 0, "lat": 38.9064175, "fusion_lat": 0.0, "is_reserved": 0, "rental_uris": {"android": "https://dc.lft.to/lastmile_qr_scan", "ios": "https://dc.lft.to/lastmile_qr_scan"}, "bike_id": "814177e32126a33b836de6e944d54f0e"}, {"name": "faefe0d2f64f9f96ddb87f1a42bf4990", "type": "electric_scooter", "fusion_lon": 0.0, "lon": -77.03577983333334, "is_disabled": 0, "lat": 38.90142183333333, "fusion_lat": 0.0, "is_reserved": 0, "rental_uris": {"android": "https://dc.lft.to/lastmile_qr_scan", "ios": "https://dc.lft.to/lastmile_qr_scan"}, "bike_id": "faefe0d2f64f9f96ddb87f1a42bf4990"}, {"name": "d6ca007d6fcd78205790e02ad5de1e22", "type": "electric_scooter", "fusion_lon": 0.0, "lon": -76.93340283333333, "is_disabled": 0, "lat": 38.9087125, "fusion_lat": 0.0, "is_reserved": 0, "rental_uris": {"android": "https://dc.lft.to/lastmile_qr_scan", "ios": "https://dc.lft.to/lastmile_qr_scan"}, "bike_id": "d6ca007d6fcd78205790e02ad5de1e22"}, {"name": "f962cfd03ba5f3644159989c5d31b91a", "type": "electric_scooter", "fusion_lon": 0.0, "lon": -76.994833, "is_disabled": 0, "lat": 38.92964383333333, "fusion_lat": 0.0, "is_reserved": 0, "rental_uris": {"android": "https://dc.lft.to/lastmile_qr_scan", "ios": "https://dc.lft.to/lastmile_qr_scan"}, "bike_id": "f962cfd03ba5f3644159989c5d31b91a"}, {"name": "24e2e9f9ee31e98eb298cb1e0fbc2fd7", "type": "electric_scooter", "fusion_lon": 0.0, "lon": -77.017995, "is_disabled": 0, "lat": 38.914016333333336, "fusion_lat": 0.0, "is_reserved": 0, "rental_uris": {"android": "https://dc.lft.to/lastmile_qr_scan", "ios": "https://dc.lft.to/lastmile_qr_scan"}, "bike_id": "24e2e9f9ee31e98eb298cb1e0fbc2fd7"}, {"name": "ba6d87d8e19fd97e7b280c2ab004f20d", "type": "electric_scooter", "fusion_lon": 0.0, "lon": -77.03867116666666, "is_disabled": 0, "lat": 38.9171055, "fusion_lat": 0.0, "is_reserved": 0, "rental_uris": {"android": "https://dc.lft.to/lastmile_qr_scan", "ios": "https://dc.lft.to/lastmile_qr_scan"}, "bike_id": "ba6d87d8e19fd97e7b280c2ab004f20d"}, {"name": "999c6c83287f00b7a41957f58d28967a", "type": "electric_scooter", "fusion_lon": 0.0, "lon": -77.02192333333333, "is_disabled": 0, "lat": 38.9001335, "fusion_lat": 0.0, "is_reserved": 0, "rental_uris": {"android": "https://dc.lft.to/lastmile_qr_scan", "ios": "https://dc.lft.to/lastmile_qr_scan"}, "bike_id": "999c6c83287f00b7a41957f58d28967a"}, {"name": "720f8ff2abbaec0f1a01d945ec5e92d7", "type": "electric_scooter", "fusion_lon": 0.0, "lon": -77.035072, "is_disabled": 0, "lat": 38.92348233333333, "fusion_lat": 0.0, "is_reserved": 0, "rental_uris": {"android": "https://dc.lft.to/lastmile_qr_scan", "ios": "https://dc.lft.to/lastmile_qr_scan"}, "bike_id": "720f8ff2abbaec0f1a01d945ec5e92d7"}, {"name": "9646aefdce0988b8a3ad0c081befa3bc", "type": "electric_scooter", "fusion_lon": 0.0, "lon": -77.031781, "is_disabled": 0, "lat": 38.915343, "fusion_lat": 0.0, "is_reserved": 0, "rental_uris": {"android": "https://dc.lft.to/lastmile_qr_scan", "ios": "https://dc.lft.to/lastmile_qr_scan"}, "bike_id": "9646aefdce0988b8a3ad0c081befa3bc"}, {"name": "125c8eb24d52b946c8e3e53d75ac431c", "type": "electric_scooter", "fusion_lon": 0.0, "lon": -77.02742866666667, "is_disabled": 0, "lat": 38.927646833333334, "fusion_lat": 0.0, "is_reserved": 0, "rental_uris": {"android": "https://dc.lft.to/lastmile_qr_scan", "ios": "https://dc.lft.to/lastmile_qr_scan"}, "bike_id": "125c8eb24d52b946c8e3e53d75ac431c"}, {"name": "89cdafeee136ecc258039aa0cc9dee67", "type": "electric_scooter", "fusion_lon": 0.0, "lon": -77.04408266666667, "is_disabled": 0, "lat": 38.90919783333333, "fusion_lat": 0.0, "is_reserved": 0, "rental_uris": {"android": "https://dc.lft.to/lastmile_qr_scan", "ios": "https://dc.lft.to/lastmile_qr_scan"}, "bike_id": "89cdafeee136ecc258039aa0cc9dee67"}, {"name": "268edcecd8040ca3cdfa723bf1d732a5", "type": "electric_scooter", "fusion_lon": 0.0, "lon": -77.0212405, "is_disabled": 0, "lat": 38.9226625, "fusion_lat": 0.0, "is_reserved": 0, "rental_uris": {"android": "https://dc.lft.to/lastmile_qr_scan", "ios": "https://dc.lft.to/lastmile_qr_scan"}, "bike_id": "268edcecd8040ca3cdfa723bf1d732a5"}, {"name": "424c1707621032a87ce3c30c90c72089", "type": "electric_scooter", "fusion_lon": 0.0, "lon": -77.00931766666666, "is_disabled": 0, "lat": 38.87603583333333, "fusion_lat": 0.0, "is_reserved": 0, "rental_uris": {"android": "https://dc.lft.to/lastmile_qr_scan", "ios": "https://dc.lft.to/lastmile_qr_scan"}, "bike_id": "424c1707621032a87ce3c30c90c72089"}, {"name": "786d5faf9517cc8f93eb10294170a11b", "type": "electric_bike", "fusion_lon": 0.0, "lon": -77.18745616666666, "is_disabled": 0, "lat": 38.893536833333336, "fusion_lat": 0.0, "is_reserved": 0, "rental_uris": {"android": "https://dc.lft.to/lastmile_qr_scan", "ios": "https://dc.lft.to/lastmile_qr_scan"}, "bike_id": "786d5faf9517cc8f93eb10294170a11b"}, {"name": "9415ae83e57e4daabf22c2776f2c86c5", "type": "electric_scooter", "fusion_lon": 0.0, "lon": -77.06045233333333, "is_disabled": 0, "lat": 38.93912316666667, "fusion_lat": 0.0, "is_reserved": 0, "rental_uris": {"android": "https://dc.lft.to/lastmile_qr_scan", "ios": "https://dc.lft.to/lastmile_qr_scan"}, "bike_id": "9415ae83e57e4daabf22c2776f2c86c5"}, {"name": "78b56931edd2ac0ea6eda28266c5b320", "type": "electric_bike", "fusion_lon": 0.0, "lon": -77.0059475, "is_disabled": 0, "lat": 38.87846966666667, "fusion_lat": 0.0, "is_reserved": 0, "rental_uris": {"android": "https://dc.lft.to/lastmile_qr_scan", "ios": "https://dc.lft.to/lastmile_qr_scan"}, "bike_id": "78b56931edd2ac0ea6eda28266c5b320"}, {"name": "9936b0e4b7440e519c4defacae619784", "type": "electric_scooter", "fusion_lon": 0.0, "lon": -77.03158183333333, "is_disabled": 0, "lat": 38.9140895, "fusion_lat": 0.0, "is_reserved": 0, "rental_uris": {"android": "https://dc.lft.to/lastmile_qr_scan", "ios": "https://dc.lft.to/lastmile_qr_scan"}, "bike_id": "9936b0e4b7440e519c4defacae619784"}, {"name": "c5d366449e4dfa69931bcbfba17eab80", "type": "electric_scooter", "fusion_lon": 0.0, "lon": -77.014419, "is_disabled": 0, "lat": 38.90960233333333, "fusion_lat": 0.0, "is_reserved": 0, "rental_uris": {"android": "https://dc.lft.to/lastmile_qr_scan", "ios": "https://dc.lft.to/lastmile_qr_scan"}, "bike_id": "c5d366449e4dfa69931bcbfba17eab80"}, {"name": "d30ed740808b0171f89ecf3b40121492", "type": "electric_scooter", "fusion_lon": 0.0, "lon": -76.9850635, "is_disabled": 0, "lat": 38.90036116666667, "fusion_lat": 0.0, "is_reserved": 0, "rental_uris": {"android": "https://dc.lft.to/lastmile_qr_scan", "ios": "https://dc.lft.to/lastmile_qr_scan"}, "bike_id": "d30ed740808b0171f89ecf3b40121492"}, {"name": "c64fa67d4899cb65a6640d9239c58b5b", "type": "electric_scooter", "fusion_lon": 0.0, "lon": -77.00545566666666, "is_disabled": 0, "lat": 38.92789766666667, "fusion_lat": 0.0, "is_reserved": 0, "rental_uris": {"android": "https://dc.lft.to/lastmile_qr_scan", "ios": "https://dc.lft.to/lastmile_qr_scan"}, "bike_id": "c64fa67d4899cb65a6640d9239c58b5b"}, {"name": "656db98b386c76c76b237ec9ca59c9d4", "type": "electric_bike", "fusion_lon": 0.0, "lon": -76.95280833333334, "is_disabled": 0, "lat": 38.8624385, "fusion_lat": 0.0, "is_reserved": 0, "rental_uris": {"android": "https://dc.lft.to/lastmile_qr_scan", "ios": "https://dc.lft.to/lastmile_qr_scan"}, "bike_id": "656db98b386c76c76b237ec9ca59c9d4"}, {"name": "d346061f5acfdb0768fd3bce9391f080", "type": "electric_scooter", "fusion_lon": 0.0, "lon": -77.0336235, "is_disabled": 0, "lat": 38.90984183333333, "fusion_lat": 0.0, "is_reserved": 0, "rental_uris": {"android": "https://dc.lft.to/lastmile_qr_scan", "ios": "https://dc.lft.to/lastmile_qr_scan"}, "bike_id": "d346061f5acfdb0768fd3bce9391f080"}, {"name": "9ce8a5229fd2f6def1c32137d19f6735", "type": "electric_scooter", "fusion_lon": 0.0, "lon": -77.04474016666667, "is_disabled": 0, "lat": 38.918688333333336, "fusion_lat": 0.0, "is_reserved": 0, "rental_uris": {"android": "https://dc.lft.to/lastmile_qr_scan", "ios": "https://dc.lft.to/lastmile_qr_scan"}, "bike_id": "9ce8a5229fd2f6def1c32137d19f6735"}, {"name": "0dc71d7aea57467b3f2b847c38e028a9", "type": "electric_scooter", "fusion_lon": 0.0, "lon": -76.99006466666667, "is_disabled": 0, "lat": 38.865096, "fusion_lat": 0.0, "is_reserved": 0, "rental_uris": {"android": "https://dc.lft.to/lastmile_qr_scan", "ios": "https://dc.lft.to/lastmile_qr_scan"}, "bike_id": "0dc71d7aea57467b3f2b847c38e028a9"}, {"name": "b7be77a0db536f91758e4eecad2b677d", "type": "electric_scooter", "fusion_lon": 0.0, "lon": -77.028056, "is_disabled": 0, "lat": 38.91775616666666, "fusion_lat": 0.0, "is_reserved": 0, "rental_uris": {"android": "https://dc.lft.to/lastmile_qr_scan", "ios": "https://dc.lft.to/lastmile_qr_scan"}, "bike_id": "b7be77a0db536f91758e4eecad2b677d"}, {"name": "2d61347d082f7f466fec8e47c5cbc665", "type": "electric_scooter", "fusion_lon": 0.0, "lon": -77.03223183333333, "is_disabled": 0, "lat": 38.925912833333335, "fusion_lat": 0.0, "is_reserved": 0, "rental_uris": {"android": "https://dc.lft.to/lastmile_qr_scan", "ios": "https://dc.lft.to/lastmile_qr_scan"}, "bike_id": "2d61347d082f7f466fec8e47c5cbc665"}, {"name": "575afccd030bc55e78a4e0ae9a2f17fd", "type": "electric_scooter", "fusion_lon": 0.0, "lon": -77.00763066666667, "is_disabled": 0, "lat": 38.898327, "fusion_lat": 0.0, "is_reserved": 0, "rental_uris": {"android": "https://dc.lft.to/lastmile_qr_scan", "ios": "https://dc.lft.to/lastmile_qr_scan"}, "bike_id": "575afccd030bc55e78a4e0ae9a2f17fd"}, {"name": "e46e450dd3739dfcea706a855f5d17c8", "type": "electric_scooter", "fusion_lon": 0.0, "lon": -77.04123033333333, "is_disabled": 0, "lat": 38.93457166666666, "fusion_lat": 0.0, "is_reserved": 0, "rental_uris": {"android": "https://dc.lft.to/lastmile_qr_scan", "ios": "https://dc.lft.to/lastmile_qr_scan"}, "bike_id": "e46e450dd3739dfcea706a855f5d17c8"}, {"name": "7d0b03040b3b566d4827b99a80f826d5", "type": "electric_bike", "fusion_lon": 0.0, "lon": -77.00294216666667, "is_disabled": 0, "lat": 38.8337815, "fusion_lat": 0.0, "is_reserved": 0, "rental_uris": {"android": "https://dc.lft.to/lastmile_qr_scan", "ios": "https://dc.lft.to/lastmile_qr_scan"}, "bike_id": "7d0b03040b3b566d4827b99a80f826d5"}, {"name": "ae2caedd89a6a1b14074d3a2bb476f11", "type": "electric_scooter", "fusion_lon": 0.0, "lon": -77.03326666666666, "is_disabled": 0, "lat": 38.9131445, "fusion_lat": 0.0, "is_reserved": 0, "rental_uris": {"android": "https://dc.lft.to/lastmile_qr_scan", "ios": "https://dc.lft.to/lastmile_qr_scan"}, "bike_id": "ae2caedd89a6a1b14074d3a2bb476f11"}, {"name": "55f10edea8ad52498156d035d3b0a90f", "type": "electric_scooter", "fusion_lon": 0.0, "lon": -77.02409433333334, "is_disabled": 0, "lat": 38.896907, "fusion_lat": 0.0, "is_reserved": 0, "rental_uris": {"android": "https://dc.lft.to/lastmile_qr_scan", "ios": "https://dc.lft.to/lastmile_qr_scan"}, "bike_id": "55f10edea8ad52498156d035d3b0a90f"}, {"name": "4e765e2af0d47f61d902f1c538479406", "type": "electric_scooter", "fusion_lon": 0.0, "lon": -77.03614166666667, "is_disabled": 0, "lat": 38.931637, "fusion_lat": 0.0, "is_reserved": 0, "rental_uris": {"android": "https://dc.lft.to/lastmile_qr_scan", "ios": "https://dc.lft.to/lastmile_qr_scan"}, "bike_id": "4e765e2af0d47f61d902f1c538479406"}, {"name": "567cebe9e9564107175df7b5acad8142", "type": "electric_scooter", "fusion_lon": 0.0, "lon": -77.03708766666666, "is_disabled": 0, "lat": 38.92645783333333, "fusion_lat": 0.0, "is_reserved": 0, "rental_uris": {"android": "https://dc.lft.to/lastmile_qr_scan", "ios": "https://dc.lft.to/lastmile_qr_scan"}, "bike_id": "567cebe9e9564107175df7b5acad8142"}, {"name": "5bba4e156f537509c18b02b6bb4604a5", "type": "electric_scooter", "fusion_lon": 0.0, "lon": -77.00297933333333, "is_disabled": 0, "lat": 38.894939666666666, "fusion_lat": 0.0, "is_reserved": 0, "rental_uris": {"android": "https://dc.lft.to/lastmile_qr_scan", "ios": "https://dc.lft.to/lastmile_qr_scan"}, "bike_id": "5bba4e156f537509c18b02b6bb4604a5"}, {"name": "b999bb0611ae24d426988b2ddca75c7e", "type": "electric_bike", "fusion_lon": 0.0, "lon": -77.0745675, "is_disabled": 0, "lat": 38.92076266666667, "fusion_lat": 0.0, "is_reserved": 0, "rental_uris": {"android": "https://dc.lft.to/lastmile_qr_scan", "ios": "https://dc.lft.to/lastmile_qr_scan"}, "bike_id": "b999bb0611ae24d426988b2ddca75c7e"}, {"name": "84ccf30b70e0073a31fcd35f2d6665d6", "type": "electric_scooter", "fusion_lon": 0.0, "lon": -77.0363235, "is_disabled": 0, "lat": 38.90961016666667, "fusion_lat": 0.0, "is_reserved": 0, "rental_uris": {"android": "https://dc.lft.to/lastmile_qr_scan", "ios": "https://dc.lft.to/lastmile_qr_scan"}, "bike_id": "84ccf30b70e0073a31fcd35f2d6665d6"}, {"name": "e99987d98c6b17eef69d4efa5022a514", "type": "electric_scooter", "fusion_lon": 0.0, "lon": -77.02959916666667, "is_disabled": 0, "lat": 38.92250633333333, "fusion_lat": 0.0, "is_reserved": 0, "rental_uris": {"android": "https://dc.lft.to/lastmile_qr_scan", "ios": "https://dc.lft.to/lastmile_qr_scan"}, "bike_id": "e99987d98c6b17eef69d4efa5022a514"}, {"name": "125c23388544416e050fc1977688b1b3", "type": "electric_scooter", "fusion_lon": 0.0, "lon": -77.04346566666666, "is_disabled": 0, "lat": 38.923603, "fusion_lat": 0.0, "is_reserved": 0, "rental_uris": {"android": "https://dc.lft.to/lastmile_qr_scan", "ios": "https://dc.lft.to/lastmile_qr_scan"}, "bike_id": "125c23388544416e050fc1977688b1b3"}, {"name": "896d2dd53e1bfccc5526fdaf705aa205", "type": "electric_scooter", "fusion_lon": 0.0, "lon": -77.04579766666667, "is_disabled": 0, "lat": 38.898746833333334, "fusion_lat": 0.0, "is_reserved": 0, "rental_uris": {"android": "https://dc.lft.to/lastmile_qr_scan", "ios": "https://dc.lft.to/lastmile_qr_scan"}, "bike_id": "896d2dd53e1bfccc5526fdaf705aa205"}, {"name": "1be2f75015f369bbe022bc09608cd566", "type": "electric_scooter", "fusion_lon": 0.0, "lon": -77.0552255, "is_disabled": 0, "lat": 38.897406, "fusion_lat": 0.0, "is_reserved": 0, "rental_uris": {"android": "https://dc.lft.to/lastmile_qr_scan", "ios": "https://dc.lft.to/lastmile_qr_scan"}, "bike_id": "1be2f75015f369bbe022bc09608cd566"}, {"name": "37d4117c0625f4274054103992ad28d5", "type": "electric_bike", "fusion_lon": 0.0, "lon": -76.977796, "is_disabled": 0, "lat": 38.891913333333335, "fusion_lat": 0.0, "is_reserved": 0, "rental_uris": {"android": "https://dc.lft.to/lastmile_qr_scan", "ios": "https://dc.lft.to/lastmile_qr_scan"}, "bike_id": "37d4117c0625f4274054103992ad28d5"}, {"name": "12bcbc8701f9bfb4b618fb1de8839b2e", "type": "electric_scooter", "fusion_lon": 0.0, "lon": -77.02477533333334, "is_disabled": 0, "lat": 38.9038625, "fusion_lat": 0.0, "is_reserved": 0, "rental_uris": {"android": "https://dc.lft.to/lastmile_qr_scan", "ios": "https://dc.lft.to/lastmile_qr_scan"}, "bike_id": "12bcbc8701f9bfb4b618fb1de8839b2e"}, {"name": "3b337edb174ff73f500610676d98b024", "type": "electric_scooter", "fusion_lon": 0.0, "lon": -76.98569916666666, "is_disabled": 0, "lat": 38.88383, "fusion_lat": 0.0, "is_reserved": 0, "rental_uris": {"android": "https://dc.lft.to/lastmile_qr_scan", "ios": "https://dc.lft.to/lastmile_qr_scan"}, "bike_id": "3b337edb174ff73f500610676d98b024"}, {"name": "6bd7cd8b21ddd05065a3525bb738598e", "type": "electric_scooter", "fusion_lon": 0.0, "lon": -77.05499033333334, "is_disabled": 0, "lat": 38.9282865, "fusion_lat": 0.0, "is_reserved": 0, "rental_uris": {"android": "https://dc.lft.to/lastmile_qr_scan", "ios": "https://dc.lft.to/lastmile_qr_scan"}, "bike_id": "6bd7cd8b21ddd05065a3525bb738598e"}, {"name": "1e8df092ba1eb445a3f16c33511a7e34", "type": "electric_scooter", "fusion_lon": 0.0, "lon": -77.03149833333333, "is_disabled": 0, "lat": 38.9157165, "fusion_lat": 0.0, "is_reserved": 0, "rental_uris": {"android": "https://dc.lft.to/lastmile_qr_scan", "ios": "https://dc.lft.to/lastmile_qr_scan"}, "bike_id": "1e8df092ba1eb445a3f16c33511a7e34"}, {"name": "9302473ff25b355d0498e8f79f7b6890", "type": "electric_scooter", "fusion_lon": 0.0, "lon": -77.03856733333333, "is_disabled": 0, "lat": 38.9026765, "fusion_lat": 0.0, "is_reserved": 0, "rental_uris": {"android": "https://dc.lft.to/lastmile_qr_scan", "ios": "https://dc.lft.to/lastmile_qr_scan"}, "bike_id": "9302473ff25b355d0498e8f79f7b6890"}, {"name": "4c2b95ab08c5602ac1508540d007ef13", "type": "electric_scooter", "fusion_lon": 0.0, "lon": -76.946312, "is_disabled": 0, "lat": 38.898655166666664, "fusion_lat": 0.0, "is_reserved": 0, "rental_uris": {"android": "https://dc.lft.to/lastmile_qr_scan", "ios": "https://dc.lft.to/lastmile_qr_scan"}, "bike_id": "4c2b95ab08c5602ac1508540d007ef13"}, {"name": "3b5f3ce373d550ebbe8fb8810250231f", "type": "electric_scooter", "fusion_lon": 0.0, "lon": -77.03782516666666, "is_disabled": 0, "lat": 38.925562166666666, "fusion_lat": 0.0, "is_reserved": 0, "rental_uris": {"android": "https://dc.lft.to/lastmile_qr_scan", "ios": "https://dc.lft.to/lastmile_qr_scan"}, "bike_id": "3b5f3ce373d550ebbe8fb8810250231f"}, {"name": "8ae04cbc3fd1693fe12868aa02e1bb6d", "type": "electric_bike", "fusion_lon": 0.0, "lon": -77.06473316666667, "is_disabled": 0, "lat": 38.973837333333336, "fusion_lat": 0.0, "is_reserved": 0, "rental_uris": {"android": "https://dc.lft.to/lastmile_qr_scan", "ios": "https://dc.lft.to/lastmile_qr_scan"}, "bike_id": "8ae04cbc3fd1693fe12868aa02e1bb6d"}, {"name": "f08625ddce0ac67f2888f18944360e24", "type": "electric_scooter", "fusion_lon": 0.0, "lon": -77.04029033333333, "is_disabled": 0, "lat": 38.90237366666667, "fusion_lat": 0.0, "is_reserved": 0, "rental_uris": {"android": "https://dc.lft.to/lastmile_qr_scan", "ios": "https://dc.lft.to/lastmile_qr_scan"}, "bike_id": "f08625ddce0ac67f2888f18944360e24"}, {"name": "d5f9a79136cbd022e944a4a4a00e837d", "type": "electric_scooter", "fusion_lon": 0.0, "lon": -76.990154, "is_disabled": 0, "lat": 38.88275383333333, "fusion_lat": 0.0, "is_reserved": 0, "rental_uris": {"android": "https://dc.lft.to/lastmile_qr_scan", "ios": "https://dc.lft.to/lastmile_qr_scan"}, "bike_id": "d5f9a79136cbd022e944a4a4a00e837d"}, {"name": "56a58e0cfa46db6f96758b075fc7a28f", "type": "electric_scooter", "fusion_lon": 0.0, "lon": -77.02684433333333, "is_disabled": 0, "lat": 38.89486933333333, "fusion_lat": 0.0, "is_reserved": 0, "rental_uris": {"android": "https://dc.lft.to/lastmile_qr_scan", "ios": "https://dc.lft.to/lastmile_qr_scan"}, "bike_id": "56a58e0cfa46db6f96758b075fc7a28f"}, {"name": "d35767ca6de54b0113e32aa28d53046f", "type": "electric_scooter", "fusion_lon": 0.0, "lon": -77.03196616666666, "is_disabled": 0, "lat": 38.907837, "fusion_lat": 0.0, "is_reserved": 0, "rental_uris": {"android": "https://dc.lft.to/lastmile_qr_scan", "ios": "https://dc.lft.to/lastmile_qr_scan"}, "bike_id": "d35767ca6de54b0113e32aa28d53046f"}, {"name": "1c696a129b88efb359910443f38d85fd", "type": "electric_scooter", "fusion_lon": 0.0, "lon": -77.02768516666667, "is_disabled": 0, "lat": 38.89858683333333, "fusion_lat": 0.0, "is_reserved": 0, "rental_uris": {"android": "https://dc.lft.to/lastmile_qr_scan", "ios": "https://dc.lft.to/lastmile_qr_scan"}, "bike_id": "1c696a129b88efb359910443f38d85fd"}, {"name": "0b970570618dd90ec4fb26c0300b6412", "type": "electric_scooter", "fusion_lon": 0.0, "lon": -77.02404683333333, "is_disabled": 0, "lat": 38.91967266666666, "fusion_lat": 0.0, "is_reserved": 0, "rental_uris": {"android": "https://dc.lft.to/lastmile_qr_scan", "ios": "https://dc.lft.to/lastmile_qr_scan"}, "bike_id": "0b970570618dd90ec4fb26c0300b6412"}, {"name": "ef25d3597d207ded9e10c908e0788dd6", "type": "electric_scooter", "fusion_lon": 0.0, "lon": -77.02235566666667, "is_disabled": 0, "lat": 38.90849133333333, "fusion_lat": 0.0, "is_reserved": 0, "rental_uris": {"android": "https://dc.lft.to/lastmile_qr_scan", "ios": "https://dc.lft.to/lastmile_qr_scan"}, "bike_id": "ef25d3597d207ded9e10c908e0788dd6"}, {"name": "4603f929c0e95f57fd3ec19bd667f42a", "type": "electric_scooter", "fusion_lon": 0.0, "lon": -76.98358833333333, "is_disabled": 0, "lat": 38.89435733333333, "fusion_lat": 0.0, "is_reserved": 0, "rental_uris": {"android": "https://dc.lft.to/lastmile_qr_scan", "ios": "https://dc.lft.to/lastmile_qr_scan"}, "bike_id": "4603f929c0e95f57fd3ec19bd667f42a"}, {"name": "9508694b2f28e0988159ac8bc251fbc9", "type": "electric_scooter", "fusion_lon": 0.0, "lon": -77.000367, "is_disabled": 0, "lat": 38.9075785, "fusion_lat": 0.0, "is_reserved": 0, "rental_uris": {"android": "https://dc.lft.to/lastmile_qr_scan", "ios": "https://dc.lft.to/lastmile_qr_scan"}, "bike_id": "9508694b2f28e0988159ac8bc251fbc9"}, {"name": "80257885709693c94ecf6c19b5b8baac", "type": "electric_scooter", "fusion_lon": 0.0, "lon": -77.0371315, "is_disabled": 0, "lat": 38.92640883333333, "fusion_lat": 0.0, "is_reserved": 0, "rental_uris": {"android": "https://dc.lft.to/lastmile_qr_scan", "ios": "https://dc.lft.to/lastmile_qr_scan"}, "bike_id": "80257885709693c94ecf6c19b5b8baac"}, {"name": "d6848789a43140b02e568adb5120e2cf", "type": "electric_scooter", "fusion_lon": 0.0, "lon": -76.99554733333333, "is_disabled": 0, "lat": 38.90013666666667, "fusion_lat": 0.0, "is_reserved": 0, "rental_uris": {"android": "https://dc.lft.to/lastmile_qr_scan", "ios": "https://dc.lft.to/lastmile_qr_scan"}, "bike_id": "d6848789a43140b02e568adb5120e2cf"}, {"name": "363b3d84eec60418a37463eca10c92ca", "type": "electric_scooter", "fusion_lon": 0.0, "lon": -77.040123, "is_disabled": 0, "lat": 38.896387833333335, "fusion_lat": 0.0, "is_reserved": 0, "rental_uris": {"android": "https://dc.lft.to/lastmile_qr_scan", "ios": "https://dc.lft.to/lastmile_qr_scan"}, "bike_id": "363b3d84eec60418a37463eca10c92ca"},