{"data": {"bikes": [{"fusion_lat": 0.0, "name": "bf68df1d5dabcbd458e177239118b3b1", "is_disabled": 0, "rental_uris": {"android": "https://dc.lft.to/lastmile_qr_scan", "ios": "https://dc.lft.to/lastmile_qr_scan"}, "fusion_lon": 0.0, "lat": 38.929315, "bike_id": "bf68df1d5dabcbd458e177239118b3b1", "type": "electric_scooter", "is_reserved": 0, "lon": -77.0233345}, {"fusion_lat": 0.0, "name": "11ae72f5107512d4f1d1899f8db88ffc", "is_disabled": 0, "rental_uris": {"android": "https://dc.lft.to/lastmile_qr_scan", "ios": "https://dc.lft.to/lastmile_qr_scan"}, "fusion_lon": 0.0, "lat": 38.930781, "bike_id": "11ae72f5107512d4f1d1899f8db88ffc", "type": "electric_scooter", "is_reserved": 0, "lon": -77.07760633333334}, {"fusion_lat": 0.0, "name": "cda9bb35b9e61f4f50f56f073ee3cc0d", "is_disabled": 0, "rental_uris": {"android": "https://dc.lft.to/lastmile_qr_scan", "ios": "https://dc.lft.to/lastmile_qr_scan"}, "fusion_lon": 0.0, "lat": 38.92323233333333, "bike_id": "cda9bb35b9e61f4f50f56f073ee3cc0d", "type": "electric_scooter", "is_reserved": 0, "lon": -77.020407}, {"fusion_lat": 0.0, "name": "fea2f8d30434e46f7c9514a7644e9451", "is_disabled": 0, "rental_uris": {"android": "https://dc.lft.to/lastmile_qr_scan", "ios": "https://dc.lft.to/lastmile_qr_scan"}, "fusion_lon": 0.0, "lat": 38.90733133333333, "bike_id": "fea2f8d30434e46f7c9514a7644e9451", "type": "electric_scooter", "is_reserved": 0, "lon": -77.02886866666667}, {"fusion_lat": 0.0, "name": "2b2d33d182e105575fc0df93871b85ec", "is_disabled": 0, "rental_uris": {"android": "https://dc.lft.to/lastmile_qr_scan", "ios": "https://dc.lft.to/lastmile_qr_scan"}, "fusion_lon": 0.0, "lat": 38.95237566666667, "bike_id": "2b2d33d182e105575fc0df93871b85ec", "type": "electric_scooter", "is_reserved": 0, "lon": -76.9900625}, {"fusion_lat": 0.0, "name": "7aaf4e0f59ad92888050ec26af592d5a", "is_disabled": 0, "rental_uris": {"android": "https://dc.lft.to/lastmile_qr_scan", "ios": "https://dc.lft.to/lastmile_qr_scan"}, "fusion_lon": 0.0, "lat": 38.9220935, "bike_id": "7aaf4e0f59ad92888050ec26af592d5a", "type": "electric_scooter", "is_reserved": 0, "lon": -77.04253333333334}, {"fusion_lat": 0.0, "name": "023e390b7f23b6b77a3623960ef7d4c2", "is_disabled": 0, "rental_uris": {"android": "https://dc.lft.to/lastmile_qr_scan", "ios": "https://dc.lft.to/lastmile_qr_scan"}, "fusion_lon": 0.0, "lat": 38.907305666666666, "bike_id": "023e390b7f23b6b77a3623960ef7d4c2", "type": "electric_scooter", "is_reserved": 0, "lon": -77.01221316666667}, {"fusion_lat": 0.0, "name": "768bd973624ad6c41425f2c99771873b", "is_disabled": 0, "rental_uris": {"android": "https://dc.lft.to/lastmile_qr_scan", "ios": "https://dc.lft.to/lastmile_qr_scan"}, "fusion_lon": 0.0, "lat": 38.903968666666664, "bike_id": "768bd973624ad6c41425f2c99771873b", "type": "electric_scooter", "is_reserved": 0, "lon": -76.9901025}, {"fusion_lat": 0.0, "name": "daf0da0a6c6437884891beae7ac79957", "is_disabled": 0, "rental_uris": {"android": "https://dc.lft.to/lastmile_qr_scan", "ios": "https://dc.lft.to/lastmile_qr_scan"}, "fusion_lon": 0.0, "lat": 38.860183166666665, "bike_id": "daf0da0a6c6437884891beae7ac79957", "type": "electric_bike", "is_reserved": 0, "lon": -77.1280785}, {"fusion_lat": 0.0, "name": "9977bcf5e9249e5f5f3b2ccf9e9eab5b", "is_disabled": 0, "rental_uris": {"android": "https://dc.lft.to/lastmile_qr_scan", "ios": "https://dc.lft.to/lastmile_qr_scan"}, "fusion_lon": 0.0, "lat": 38.90410516666667, "bike_id": "9977bcf5e9249e5f5f3b2ccf9e9eab5b", "type": "electric_scooter", "is_reserved": 0, "lon": -76.9733235}, {"fusion_lat": 0.0, "name": "2f945d2583541f75aff1207e8cec6a05", "is_disabled": 0, "rental_uris": {"android": "https://dc.lft.to/lastmile_qr_scan", "ios": "https://dc.lft.to/lastmile_qr_scan"}, "fusion_lon": 0.0, "lat": 38.930266333333336, "bike_id": "2f945d2583541f75aff1207e8cec6a05", "type": "electric_scooter", "is_reserved": 0, "lon": -77.03788216666666}, {"fusion_lat": 0.0, "name": "e38dd689dbb7c354fed19dcb05add03f", "is_disabled": 0, "rental_uris": {"android": "https://dc.lft.to/lastmile_qr_scan", "ios": "https://dc.lft.to/lastmile_qr_scan"}, "fusion_lon": 0.0, "lat": 38.90144466666667, "bike_id": "e38dd689dbb7c354fed19dcb05add03f", "type": "electric_scooter", "is_reserved": 0, "lon": -77.03369533333333}, {"fusion_lat": 0.0, "name": "a794c9dd27d574718882da657da254c7", "is_disabled": 0, "rental_uris": {"android": "https://dc.lft.to/lastmile_qr_scan", "ios": "https://dc.lft.to/lastmile_qr_scan"}, "fusion_lon": 0.0, "lat": 38.90260516666667, "bike_id": "a794c9dd27d574718882da657da254c7", "type": "electric_scooter", "is_reserved": 0, "lon": -76.9744575}, {"fusion_lat": 0.0, "name": "bf202dbe9ac2ca363b8d4c8714a9bd8e", "is_disabled": 0, "rental_uris": {"android": "https://dc.lft.to/lastmile_qr_scan", "ios": "https://dc.lft.to/lastmile_qr_scan"}, "fusion_lon": 0.0, "lat": 38.920799333333335, "bike_id": "bf202dbe9ac2ca363b8d4c8714a9bd8e", "type": "electric_bike", "is_reserved": 0, "lon": -76.98943433333334}, {"fusion_lat": 0.0, "name": "9cb47ce16eb3f08eddd0c68d39d00b81", "is_disabled": 0, "rental_uris": {"android": "https://dc.lft.to/lastmile_qr_scan", "ios": "https://dc.lft.to/lastmile_qr_scan"}, "fusion_lon": 0.0, "lat": 38.9365655, "bike_id": "9cb47ce16eb3f08eddd0c68d39d00b81", "type": "electric_scooter", "is_reserved": 0, "lon": -77.030536}, {"fusion_lat": 0.0, "name": "d4600079f17aa08e8136b3924520c64e", "is_disabled": 0, "rental_uris": {"android": "https://dc.lft.to/lastmile_qr_scan", "ios": "https://dc.lft.to/lastmile_qr_scan"}, "fusion_lon": 0.0, "lat": 38.89731366666667, "bike_id": "d4600079f17aa08e8136b3924520c64e", "type": "electric_scooter", "is_reserved": 0, "lon": -77.033446}, {"fusion_lat": 0.0, "name": "9c0bcfc80fe913721213afc6785c0bd1", "is_disabled": 0, "rental_uris": {"android": "https://dc.lft.to/lastmile_qr_scan", "ios": "https://dc.lft.to/lastmile_qr_scan"}, "fusion_lon": 0.0, "lat": 38.917698333333334, "bike_id": "9c0bcfc80fe913721213afc6785c0bd1", "type": "electric_scooter", "is_reserved": 0, "lon": -77.014978}, {"fusion_lat": 0.0, "name": "710a59636ea34bfc7993891aac994772", "is_disabled": 0, "rental_uris": {"android": "https://dc.lft.to/lastmile_qr_scan", "ios": "https://dc.lft.to/lastmile_qr_scan"}, "fusion_lon": 0.0, "lat": 38.89329983333333, "bike_id": "710a59636ea34bfc7993891aac994772", "type": "electric_scooter", "is_reserved": 0, "lon": -77.02247983333334}, {"fusion_lat": 0.0, "name": "c559e3a01ff30b4636472b7783f25c5e", "is_disabled": 0, "rental_uris": {"android": "https://dc.lft.to/lastmile_qr_scan", "ios": "https://dc.lft.to/lastmile_qr_scan"}, "fusion_lon": 0.0, "lat": 38.942316, "bike_id": "c559e3a01ff30b4636472b7783f25c5e", "type": "electric_scooter", "is_reserved": 0, "lon": -77.01383766666666}, {"fusion_lat": 0.0, "name": "b082c4a9262c4be8164f36956f862f3d", "is_disabled": 0, "rental_uris": {"android": "https://dc.lft.to/lastmile_qr_scan", "ios": "https://dc.lft.to/lastmile_qr_scan"}, "fusion_lon": 0.0, "lat": 38.885349833333336, "bike_id": "b082c4a9262c4be8164f36956f862f3d", "type": "electric_scooter", "is_reserved": 0, "lon": -77.015161}, {"fusion_lat": 0.0, "name": "59561aa0354b2a31f64a0bce9b6f15ee", "is_disabled": 0, "rental_uris": {"android": "https://dc.lft.to/lastmile_qr_scan", "ios": "https://dc.lft.to/lastmile_qr_scan"}, "fusion_lon": 0.0, "lat": 38.887256, "bike_id": "59561aa0354b2a31f64a0bce9b6f15ee", "type": "electric_scooter", "is_reserved": 0, "lon": -76.9835495}, {"fusion_lat": 0.0, "name": "34c69eaf16467ac3f6a23e7dea076d6b", "is_disabled": 0, "rental_uris": {"android": "https://dc.lft.to/lastmile_qr_scan", "ios": "https://dc.lft.to/lastmile_qr_scan"}, "fusion_lon": 0.0, "lat": 38.89973083333334, "bike_id": "34c69eaf16467ac3f6a23e7dea076d6b", "type": "electric_scooter", "is_reserved": 0, "lon": -76.98703166666667}, {"fusion_lat": 0.0, "name": "6e5dc3c848d6b52de76011eb9a8f4332", "is_disabled": 0, "rental_uris": {"android": "https://dc.lft.to/lastmile_qr_scan", "ios": "https://dc.lft.to/lastmile_qr_scan"}, "fusion_lon": 0.0, "lat": 38.9001365, "bike_id": "6e5dc3c848d6b52de76011eb9a8f4332", "type": "electric_scooter", "is_reserved": 0, "lon": -77.01243733333334}, {"fusion_lat": 0.0, "name": "b683f17fa098dec5d43889703412aab5", "is_disabled": 0, "rental_uris": {"android": "https://dc.lft.to/lastmile_qr_scan", "ios": "https://dc.lft.to/lastmile_qr_scan"}, "fusion_lon": 0.0, "lat": 38.9027445, "bike_id": "b683f17fa098dec5d43889703412aab5", "type": "electric_scooter", "is_reserved": 0, "lon": -77.03967933333334}, {"fusion_lat": 0.0, "name": "29dbb41a17c961e14012c32d9883a3c8", "is_disabled": 0, "rental_uris": {"android": "https://dc.lft.to/lastmile_qr_scan", "ios": "https://dc.lft.to/lastmile_qr_scan"}, "fusion_lon": 0.0, "lat": 38.902283, "bike_id": "29dbb41a17c961e14012c32d9883a3c8", "type": "electric_scooter", "is_reserved": 0, "lon": -77.02858933333333}, {"fusion_lat": 0.0, "name": "bb9ce92d5bad00d9678e78dc72adeb35", "is_disabled": 0, "rental_uris": {"android": "https://dc.lft.to/lastmile_qr_scan", "ios": "https://dc.lft.to/lastmile_qr_scan"}, "fusion_lon": 0.0, "lat": 38.925678166666664, "bike_id": "bb9ce92d5bad00d9678e78dc72adeb35", "type": "electric_scooter", "is_reserved": 0, "lon": -77.02285333333333}, {"fusion_lat": 0.0, "name": "6e57bae6b63675f35aaab826e73d55e5", "is_disabled": 0, "rental_uris": {"android": "https://dc.lft.to/lastmile_qr_scan", "ios": "https://dc.lft.to/lastmile_qr_scan"}, "fusion_lon": 0.0, "lat": 38.89731883333333, "bike_id": "6e57bae6b63675f35aaab826e73d55e5", "type": "electric_scooter", "is_reserved": 0, "lon": -77.02713466666667}, {"fusion_lat": 0.0, "name": "429b4fd94d7d05d9a188df3247128b58", "is_disabled": 0, "rental_uris": {"android": "https://dc.lft.to/lastmile_qr_scan", "ios": "https://dc.lft.to/lastmile_qr_scan"}, "fusion_lon": 0.0, "lat": 38.964453666666664, "bike_id": "429b4fd94d7d05d9a188df3247128b58", "type": "electric_scooter", "is_reserved": 0, "lon": -77.02067866666667}, {"fusion_lat": 0.0, "name": "3e766f69e29c7a836671d579128fc5d8", "is_disabled": 0, "rental_uris": {"android": "https://dc.lft.to/lastmile_qr_scan", "ios": "https://dc.lft.to/lastmile_qr_scan"}, "fusion_lon": 0.0, "lat": 38.921897333333334, "bike_id": "3e766f69e29c7a836671d579128fc5d8", "type": "electric_scooter", "is_reserved": 0, "lon": -77.04233216666667}, {"fusion_lat": 0.0, "name": "ef1c4a8b0e64cebe14e451373d12386e", "is_disabled": 0, "rental_uris": {"android": "https://dc.lft.to/lastmile_qr_scan", "ios": "https://dc.lft.to/lastmile_qr_scan"}, "fusion_lon": 0.0, "lat": 38.9089315, "bike_id": "ef1c4a8b0e64cebe14e451373d12386e", "type": "electric_scooter", "is_reserved": 0, "lon": -77.04377066666666}, {"fusion_lat": 0.0, "name": "44db350fbe55ffe31453384374304281", "is_disabled": 0, "rental_uris": {"android": "https://dc.lft.to/lastmile_qr_scan", "ios": "https://dc.lft.to/lastmile_qr_scan"}, "fusion_lon": 0.0, "lat": 38.89853983333333, "bike_id": "44db350fbe55ffe31453384374304281", "type": "electric_scooter", "is_reserved": 0, "lon": -76.99272316666666}, {"fusion_lat": 0.0, "name": "00450509a8f6ad64cda64d8bd773ba95", "is_disabled": 0, "rental_uris": {"android": "https://dc.lft.to/lastmile_qr_scan", "ios": "https://dc.lft.to/lastmile_qr_scan"}, "fusion_lon": 0.0, "lat": 38.9349075, "bike_id": "00450509a8f6ad64cda64d8bd773ba95", "type": "electric_scooter", "is_reserved": 0, "lon": -77.03073533333334}, {"fusion_lat": 0.0, "name": "98ca2929fe2a5edfcee8c3764bdbc781", "is_disabled": 0, "rental_uris": {"android": "https://dc.lft.to/lastmile_qr_scan", "ios": "https://dc.lft.to/lastmile_qr_scan"}, "fusion_lon": 0.0, "lat": 38.8889805, "bike_id": "98ca2929fe2a5edfcee8c3764bdbc781", "type": "electric_bike", "is_reserved": 0, "lon": -77.115258}, {"fusion_lat": 0.0, "name": "e61b1c643a19092e4179ec23de5de027", "is_disabled": 0, "rental_uris": {"android": "https://dc.lft.to/lastmile_qr_scan", "ios": "https://dc.lft.to/lastmile_qr_scan"}, "fusion_lon": 0.0, "lat": 38.890198166666664, "bike_id": "e61b1c643a19092e4179ec23de5de027", "type": "electric_scooter", "is_reserved": 0, "lon": -76.937399}, {"fusion_lat": 0.0, "name": "ade9087808628e889deecd56e0080816", "is_disabled": 0, "rental_uris": {"android": "https://dc.lft.to/lastmile_qr_scan", "ios": "https://dc.lft.to/lastmile_qr_scan"}, "fusion_lon": 0.0, "lat": 38.913529833333335, "bike_id": "ade9087808628e889deecd56e0080816", "type": "electric_scooter", "is_reserved": 0, "lon": -77.003446}, {"fusion_lat": 0.0, "name": "83536924cedf8f346ba83f66728c969f", "is_disabled": 0, "rental_uris": {"android": "https://dc.lft.to/lastmile_qr_scan", "ios": "https://dc.lft.to/lastmile_qr_scan"}, "fusion_lon": 0.0, "lat": 38.903841, "bike_id": "83536924cedf8f346ba83f66728c969f", "type": "electric_scooter", "is_reserved": 0, "lon": -76.98482116666666}, {"fusion_lat": 0.0, "name": "a2f8399c100ed549815d6454cfb8baf0", "is_disabled": 0, "rental_uris": {"android": "https://dc.lft.to/lastmile_qr_scan", "ios": "https://dc.lft.to/lastmile_qr_scan"}, "fusion_lon": 0.0, "lat": 38.924596, "bike_id": "a2f8399c100ed549815d6454cfb8baf0", "type": "electric_scooter", "is_reserved": 0, "lon": -77.02406383333333}, {"fusion_lat": 0.0, "name": "c251f71c92ab594c430a1f8d8d18c15e", "is_disabled": 0, "rental_uris": {"android": "https://dc.lft.to/lastmile_qr_scan", "ios": "https://dc.lft.to/lastmile_qr_scan"}, "fusion_lon": 0.0, "lat": 38.92999833333333, "bike_id": "c251f71c92ab594c430a1f8d8d18c15e", "type": "electric_scooter", "is_reserved": 0, "lon": -77.03228433333334}, {"fusion_lat": 0.0, "name": "cdc9dcd381f6651e66f5885d2021aa7c", "is_disabled": 0, "rental_uris": {"android": "https://dc.lft.to/lastmile_qr_scan", "ios": "https://dc.lft.to/lastmile_qr_scan"}, "fusion_lon": 0.0, "lat": 38.925836333333336, "bike_id": "cdc9dcd381f6651e66f5885d2021aa7c", "type": "electric_scooter", "is_reserved": 0, "lon": -77.027266}, {"fusion_lat": 0.0, "name": "a4d71e415754aebdecbd5f5a859a3caa", "is_disabled": 0, "rental_uris": {"android": "https://dc.lft.to/lastmile_qr_scan", "ios": "https://dc.lft.to/lastmile_qr_scan"}, "fusion_lon": 0.0, "lat": 38.90186216666667, "bike_id": "a4d71e415754aebdecbd5f5a859a3caa", "type": "electric_scooter", "is_reserved": 0, "lon": -77.05918816666667}, {"fusion_lat": 0.0, "name": "5c04a155975102d26a3079e5a9f843e6", "is_disabled": 0, "rental_uris": {"android": "https://dc.lft.to/lastmile_qr_scan", "ios": "https://dc.lft.to/lastmile_qr_scan"}, "fusion_lon": 0.0, "lat": 38.9206775, "bike_id": "5c04a155975102d26a3079e5a9f843e6", "type": "electric_scooter", "is_reserved": 0, "lon": -77.02711816666667}, {"fusion_lat": 0.0, "name": "909e0c9a736a465cd272815000e89b21", "is_disabled": 0, "rental_uris": {"android": "https://dc.lft.to/lastmile_qr_scan", "ios": "https://dc.lft.to/lastmile_qr_scan"}, "fusion_lon": 0.0, "lat": 38.915623833333335, "bike_id": "909e0c9a736a465cd272815000e89b21", "type": "electric_scooter", "is_reserved": 0, "lon": -77.032411}, {"fusion_lat": 0.0, "name": "7bd719f99d974af30d583e887f7eecb7", "is_disabled": 0, "rental_uris": {"android": "https://dc.lft.to/lastmile_qr_scan", "ios": "https://dc.lft.to/lastmile_qr_scan"}, "fusion_lon": 0.0, "lat": 38.92377366666667, "bike_id": "7bd719f99d974af30d583e887f7eecb7", "type": "electric_scooter", "is_reserved": 0, "lon": -77.08150816666667}, {"fusion_lat": 0.0, "name": "d4b753d59fb2abcfd66b2aa5629898a8", "is_disabled": 0, "rental_uris": {"android": "https://dc.lft.to/lastmile_qr_scan", "ios": "https://dc.lft.to/lastmile_qr_scan"}, "fusion_lon": 0.0, "lat": 38.961334, "bike_id": "d4b753d59fb2abcfd66b2aa5629898a8", "type": "electric_scooter", "is_reserved": 0, "lon": -77.0278925}, {"fusion_lat": 0.0, "name": "5118fae8879434c3cfb59a8709ef1d1b", "is_disabled": 0, "rental_uris": {"android": "https://dc.lft.to/lastmile_qr_scan", "ios": "https://dc.lft.to/lastmile_qr_scan"}, "fusion_lon": 0.0, "lat": 38.876931166666665, "bike_id": "5118fae8879434c3cfb59a8709ef1d1b", "type": "electric_scooter", "is_reserved": 0, "lon": -77.017587}, {"fusion_lat": 0.0, "name": "e74f55139ffca3a4fd6e5edddcc524f2", "is_disabled": 0, "rental_uris": {"android": "https://dc.lft.to/lastmile_qr_scan", "ios": "https://dc.lft.to/lastmile_qr_scan"}, "fusion_lon": 0.0, "lat": 38.8848165, "bike_id": "e74f55139ffca3a4fd6e5edddcc524f2", "type": "electric_scooter", "is_reserved": 0, "lon": -77.0242485}, {"fusion_lat": 0.0, "name": "05dcce7f147e727ff2a57b37a2497270", "is_disabled": 0, "rental_uris": {"android": "https://dc.lft.to/lastmile_qr_scan", "ios": "https://dc.lft.to/lastmile_qr_scan"}, "fusion_lon": 0.0, "lat": 38.8896745, "bike_id": "05dcce7f147e727ff2a57b37a2497270", "type": "electric_scooter", "is_reserved": 0, "lon": -77.01505333333333}, {"fusion_lat": 0.0, "name": "d62aad7d0ea170e10c16ad0eb2f260c3", "is_disabled": 0, "rental_uris": {"android": "https://dc.lft.to/lastmile_qr_scan", "ios": "https://dc.lft.to/lastmile_qr_scan"}, "fusion_lon": 0.0, "lat": 38.922379, "bike_id": "d62aad7d0ea170e10c16ad0eb2f260c3", "type": "electric_scooter", "is_reserved": 0, "lon": -77.04247966666667}, {"fusion_lat": 0.0, "name": "f97da3115d2de2655738eb1e59c0db6f", "is_disabled": 0, "rental_uris": {"android": "https://dc.lft.to/lastmile_qr_scan", "ios": "https://dc.lft.to/lastmile_qr_scan"}, "fusion_lon": 0.0, "lat": 38.93104116666667, "bike_id": "f97da3115d2de2655738eb1e59c0db6f", "type": "electric_scooter", "is_reserved": 0, "lon": -77.02549266666666}, {"fusion_lat": 0.0, "name": "4ff2038adc84f9564056b4f5fb357ac0", "is_disabled": 0, "rental_uris": {"android": "https://dc.lft.to/lastmile_qr_scan", "ios": "https://dc.lft.to/lastmile_qr_scan"}, "fusion_lon": 0.0, "lat": 38.940729166666664, "bike_id": "4ff2038adc84f9564056b4f5fb357ac0", "type": "electric_bike", "is_reserved": 0, "lon": -76.99456633333334}, {"fusion_lat": 0.0, "name": "4d6c7729ce9a5281d5ca00be56b9946c", "is_disabled": 0, "rental_uris": {"android": "https://dc.lft.to/lastmile_qr_scan", "ios": "https://dc.lft.to/lastmile_qr_scan"}, "fusion_lon": 0.0, "lat": 38.92337, "bike_id": "4d6c7729ce9a5281d5ca00be56b9946c", "type": "electric_scooter", "is_reserved": 0, "lon": -77.05621733333334}, {"fusion_lat": 0.0, "name": "b05aa1f20dd0758edcec7f502723e3de", "is_disabled": 0, "rental_uris": {"android": "https://dc.lft.to/lastmile_qr_scan", "ios": "https://dc.lft.to/lastmile_qr_scan"}, "fusion_lon": 0.0, "lat": 38.90781333333334, "bike_id": "b05aa1f20dd0758edcec7f502723e3de", "type": "electric_scooter", "is_reserved": 0, "lon": -77.074327}, {"fusion_lat": 0.0, "name": "9e077628d5239e209006b941bb63e998", "is_disabled": 0, "rental_uris": {"android": "https://dc.lft.to/lastmile_qr_scan", "ios": "https://dc.lft.to/lastmile_qr_scan"}, "fusion_lon": 0.0, "lat": 38.8973265, "bike_id": "9e077628d5239e209006b941bb63e998", "type": "electric_scooter", "is_reserved": 0, "lon": -77.027174}, {"fusion_lat": 0.0, "name": "70655279afbf7ff4a02a2f629f65c074", "is_disabled": 0, "rental_uris": {"android": "https://dc.lft.to/lastmile_qr_scan", "ios": "https://dc.lft.to/lastmile_qr_scan"}, "fusion_lon": 0.0, "lat": 38.90210366666667, "bike_id": "70655279afbf7ff4a02a2f629f65c074", "type": "electric_scooter", "is_reserved": 0, "lon": -76.99501966666666}, {"fusion_lat": 0.0, "name": "31916ce77989b207a5316d31756e3111", "is_disabled": 0, "rental_uris": {"android": "https://dc.lft.to/lastmile_qr_scan", "ios": "https://dc.lft.to/lastmile_qr_scan"}, "fusion_lon": 0.0, "lat": 38.905031666666666, "bike_id": "31916ce77989b207a5316d31756e3111", "type": "electric_scooter", "is_reserved": 0, "lon": -76.996855}, {"fusion_lat": 0.0, "name": "18868cc9a28c1ba191e36c8ca1cc6dc8", "is_disabled": 0, "rental_uris": {"android": "https://dc.lft.to/lastmile_qr_scan", "ios": "https://dc.lft.to/lastmile_qr_scan"}, "fusion_lon": 0.0, "lat": 38.93866516666667, "bike_id": "18868cc9a28c1ba191e36c8ca1cc6dc8", "type": "electric_scooter", "is_reserved": 0, "lon": -77.024456}, {"fusion_lat": 0.0, "name": "c749ed8e80c9b7c250ffac96340f9186", "is_disabled": 0, "rental_uris": {"android": "https://dc.lft.to/lastmile_qr_scan", "ios": "https://dc.lft.to/lastmile_qr_scan"}, "fusion_lon": 0.0, "lat": 38.9023585, "bike_id": "c749ed8e80c9b7c250ffac96340f9186", "type": "electric_scooter", "is_reserved": 0, "lon": -77.02299283333333}, {"fusion_lat": 0.0, "name": "0d9e2c0e5bd2ddf6568d5b74a4812f86", "is_disabled": 0, "rental_uris": {"android": "https://dc.lft.to/lastmile_qr_scan", "ios": "https://dc.lft.to/lastmile_qr_scan"}, "fusion_lon": 0.0, "lat": 38.874695333333335, "bike_id": "0d9e2c0e5bd2ddf6568d5b74a4812f86", "type": "electric_scooter", "is_reserved": 0, "lon": -77.01706383333334}, {"fusion_lat": 0.0, "name": "7aff93bdeda064a57dc64ce1e2d710a1", "is_disabled": 0, "rental_uris": {"android": "https://dc.lft.to/lastmile_qr_scan", "ios": "https://dc.lft.to/lastmile_qr_scan"}, "fusion_lon": 0.0, "lat": 38.92737233333333, "bike_id": "7aff93bdeda064a57dc64ce1e2d710a1", "type": "electric_scooter", "is_reserved": 0, "lon": -77.0271035}, {"fusion_lat": 0.0, "name": "f5d2ba7c0aa7c0778177fc8dcf09845a", "is_disabled": 0, "rental_uris": {"android": "https://dc.lft.to/lastmile_qr_scan", "ios": "https://dc.lft.to/lastmile_qr_scan"}, "fusion_lon": 0.0, "lat": 38.86519033333333, "bike_id": "f5d2ba7c0aa7c0778177fc8dcf09845a", "type": "electric_bike", "is_reserved": 0, "lon": -77.12937216666667}, {"fusion_lat": 0.0, "name": "f0921e0d2f6b3d7c511249f15cd239be", "is_disabled": 0, "rental_uris": {"android": "https://dc.lft.to/lastmile_qr_scan", "ios": "https://dc.lft.to/lastmile_qr_scan"}, "fusion_lon": 0.0, "lat": 38.89882033333333, "bike_id": "f0921e0d2f6b3d7c511249f15cd239be", "type": "electric_scooter", "is_reserved": 0, "lon": -77.0260695}, {"fusion_lat": 0.0, "name": "ad868595400a0f7b30ee904d6371b553", "is_disabled": 0, "rental_uris": {"android": "https://dc.lft.to/lastmile_qr_scan", "ios": "https://dc.lft.to/lastmile_qr_scan"}, "fusion_lon": 0.0, "lat": 38.93255766666667, "bike_id": "ad868595400a0f7b30ee904d6371b553", "type": "electric_scooter", "is_reserved": 0, "lon": -77.0386555}, {"fusion_lat": 0.0, "name": "fef648f2e515e7d07c7933a5d0c6f350", "is_disabled": 0, "rental_uris": {"android": "https://dc.lft.to/lastmile_qr_scan", "ios": "https://dc.lft.to/lastmile_qr_scan"}, "fusion_lon": 0.0, "lat": 38.93816183333333, "bike_id": "fef648f2e515e7d07c7933a5d0c6f350", "type": "electric_scooter", "is_reserved": 0, "lon": -77.0601715}, {"fusion_lat": 0.0, "name": "a5adc649cd31570680488dcc4f7e3367", "is_disabled": 0, "rental_uris": {"android": "https://dc.lft.to/lastmile_qr_scan", "ios": "https://dc.lft.to/lastmile_qr_scan"}, "fusion_lon": 0.0, "lat": 38.914829, "bike_id": "a5adc649cd31570680488dcc4f7e3367", "type": "electric_scooter", "is_reserved": 0, "lon": -77.01808283333334}, {"fusion_lat": 0.0, "name": "5b6a28a541ba1adb6542d74c64af8cbc", "is_disabled": 0, "rental_uris": {"android": "https://dc.lft.to/lastmile_qr_scan", "ios": "https://dc.lft.to/lastmile_qr_scan"}, "fusion_lon": 0.0, "lat": 38.92863716666667, "bike_id": "5b6a28a541ba1adb6542d74c64af8cbc", "type": "electric_scooter", "is_reserved": 0, "lon": -77.03498733333333}, {"fusion_lat": 0.0, "name": "aa8414deb77413090bf01738d0a3d806", "is_disabled": 0, "rental_uris": {"android": "https://dc.lft.to/lastmile_qr_scan", "ios": "https://dc.lft.to/lastmile_qr_scan"}, "fusion_lon": 0.0, "lat": 38.905536833333336, "bike_id": "aa8414deb77413090bf01738d0a3d806", "type": "electric_scooter", "is_reserved": 0, "lon": -77.00491183333334}, {"fusion_lat": 0.0, "name": "034b8791db93059754f2e02d4ee3b561", "is_disabled": 0, "rental_uris": {"android": "https://dc.lft.to/lastmile_qr_scan", "ios": "https://dc.lft.to/lastmile_qr_scan"}, "fusion_lon": 0.0, "lat": 38.93904766666667, "bike_id": "034b8791db93059754f2e02d4ee3b561", "type": "electric_scooter", "is_reserved": 0, "lon": -77.03260683333333}, {"fusion_lat": 0.0, "name": "c01470628d5c5b198e22be0e71f21e5e", "is_disabled": 0, "rental_uris": {"android": "https://dc.lft.to/lastmile_qr_scan", "ios": "https://dc.lft.to/lastmile_qr_scan"}, "fusion_lon": 0.0, "lat": 38.92857933333333, "bike_id": "c01470628d5c5b198e22be0e71f21e5e", "type": "electric_scooter", "is_reserved": 0, "lon": -77.03638066666667}, {"fusion_lat": 0.0, "name": "d128f76a820bb150ac6fe842d7b508ae", "is_disabled": 0, "rental_uris": {"android": "https://dc.lft.to/lastmile_qr_scan", "ios": "https://dc.lft.to/lastmile_qr_scan"}, "fusion_lon": 0.0, "lat": 38.9247285, "bike_id": "d128f76a820bb150ac6fe842d7b508ae", "type": "electric_scooter", "is_reserved": 0, "lon": -77.02074733333333}, {"fusion_lat": 0.0, "name": "c982f30b9711491ae42b01dbf312a928", "is_disabled": 0, "rental_uris": {"android": "https://dc.lft.to/lastmile_qr_scan", "ios": "https://dc.lft.to/lastmile_qr_scan"}, "fusion_lon": 0.0, "lat": 38.900833166666665, "bike_id": "c982f30b9711491ae42b01dbf312a928", "type": "electric_scooter", "is_reserved": 0, "lon": -77.04950616666666}, {"fusion_lat": 0.0, "name": "1e42db0b04a56fa0eec20fed301466c7", "is_disabled": 0, "rental_uris": {"android": "https://dc.lft.to/lastmile_qr_scan", "ios": "https://dc.lft.to/lastmile_qr_scan"}, "fusion_lon": 0.0, "lat": 38.883155, "bike_id": "1e42db0b04a56fa0eec20fed301466c7", "type": "electric_scooter", "is_reserved": 0, "lon": -77.01921016666667}, {"fusion_lat": 0.0, "name": "93a3a18781879d10a5cd6f54351d0961", "is_disabled": 0, "rental_uris": {"android": "https://dc.lft.to/lastmile_qr_scan", "ios": "https://dc.lft.to/lastmile_qr_scan"}, "fusion_lon": 0.0, "lat": 38.90736483333333, "bike_id": "93a3a18781879d10a5cd6f54351d0961", "type": "electric_scooter", "is_reserved": 0, "lon": -77.04759883333334}, {"fusion_lat": 0.0, "name": "171bd9cc5fba4aaa7be0a6938e5e19fd", "is_disabled": 0, "rental_uris": {"android": "https://dc.lft.to/lastmile_qr_scan", "ios": "https://dc.lft.to/lastmile_qr_scan"}, "fusion_lon": 0.0, "lat": 38.91627416666667, "bike_id": "171bd9cc5fba4aaa7be0a6938e5e19fd", "type": "electric_scooter", "is_reserved": 0, "lon": -77.02389833333334}, {"fusion_lat": 0.0, "name": "1386e1013058556039f3d9123dfec86c", "is_disabled": 0, "rental_uris": {"android": "https://dc.lft.to/lastmile_qr_scan", "ios": "https://dc.lft.to/lastmile_qr_scan"}, "fusion_lon": 0.0, "lat": 38.89878616666667, "bike_id": "1386e1013058556039f3d9123dfec86c", "type": "electric_scooter", "is_reserved": 0, "lon": -76.93183766666667}, {"fusion_lat": 0.0, "name": "981a01270092500a9ce9fbe82a7c4f5c", "is_disabled": 0, "rental_uris": {"android": "https://dc.lft.to/lastmile_qr_scan", "ios": "https://dc.lft.to/lastmile_qr_scan"}, "fusion_lon": 0.0, "lat": 38.8797025, "bike_id": "981a01270092500a9ce9fbe82a7c4f5c", "type": "electric_bike", "is_reserved": 0, "lon": -76.9161425}, {"fusion_lat": 0.0, "name": "1b4d88ea0baa96ccb9b8e64761d06b54", "is_disabled": 0, "rental_uris": {"android": "https://dc.lft.to/lastmile_qr_scan", "ios": "https://dc.lft.to/lastmile_qr_scan"}, "fusion_lon": 0.0, "lat": 38.93415433333333, "bike_id": "1b4d88ea0baa96ccb9b8e64761d06b54", "type": "electric_scooter", "is_reserved": 0, "lon": -77.04281916666666}, {"fusion_lat": 0.0, "name": "f1797b8f4144c95c605e578e055e7ff2", "is_disabled": 0, "rental_uris": {"android": "https://dc.lft.to/lastmile_qr_scan", "ios": "https://dc.lft.to/lastmile_qr_scan"}, "fusion_lon": 0.0, "lat": 38.89319366666667, "bike_id": "f1797b8f4144c95c605e578e055e7ff2", "type": "electric_scooter", "is_reserved": 0, "lon": -77.0557335}, {"fusion_lat": 0.0, "name": "81797160081c1622f86e0d747ed7b963", "is_disabled": 0, "rental_uris": {"android": "https://dc.lft.to/lastmile_qr_scan", "ios": "https://dc.lft.to/lastmile_qr_scan"}, "fusion_lon": 0.0, "lat": 38.956913666666665, "bike_id": "81797160081c1622f86e0d747ed7b963", "type": "electric_bike", "is_reserved": 0, "lon": -77.02226466666667}, {"fusion_lat": 0.0, "name": "4f1ae8ecf881e95f2fe6ee6981ff80cb", "is_disabled": 0, "rental_uris": {"android": "https://dc.lft.to/lastmile_qr_scan", "ios": "https://dc.lft.to/lastmile_qr_scan"}, "fusion_lon": 0.0, "lat": 38.924204, "bike_id": "4f1ae8ecf881e95f2fe6ee6981ff80cb", "type": "electric_scooter", "is_reserved": 0, "lon": -77.01952933333334}, {"fusion_lat": 0.0, "name": "1dddede88ab6e99a74e1957a0de63535", "is_disabled": 0, "rental_uris": {"android": "https://dc.lft.to/lastmile_qr_scan", "ios": "https://dc.lft.to/lastmile_qr_scan"}, "fusion_lon": 0.0, "lat": 38.9132805, "bike_id": "1dddede88ab6e99a74e1957a0de63535", "type": "electric_scooter", "is_reserved": 0, "lon": -77.02165633333334}, {"fusion_lat": 0.0, "name": "f3b66bc60026fd20435b12b0a7677a6d", "is_disabled": 0, "rental_uris": {"android": "https://dc.lft.to/lastmile_qr_scan", "ios": "https://dc.lft.to/lastmile_qr_scan"}, "fusion_lon": 0.0, "lat": 38.915657, "bike_id": "f3b66bc60026fd20435b12b0a7677a6d", "type": "electric_scooter", "is_reserved": 0, "lon": -77.03148616666667}, {"fusion_lat": 0.0, "name": "fa7296fdb7ef8cc3585e707933b9f6d7", "is_disabled": 0, "rental_uris": {"android": "https://dc.lft.to/lastmile_qr_scan", "ios": "https://dc.lft.to/lastmile_qr_scan"}, "fusion_lon": 0.0, "lat": 38.903250166666666, "bike_id": "fa7296fdb7ef8cc3585e707933b9f6d7", "type": "electric_scooter", "is_reserved": 0, "lon": -76.9815}, {"fusion_lat": 0.0, "name": "cff6fa437620a07e9b1efcd1583eb5d8", "is_disabled": 0, "rental_uris": {"android": "https://dc.lft.to/lastmile_qr_scan", "ios": "https://dc.lft.to/lastmile_qr_scan"}, "fusion_lon": 0.0, "lat": 38.91416683333333, "bike_id": "cff6fa437620a07e9b1efcd1583eb5d8", "type": "electric_scooter", "is_reserved": 0, "lon": -77.03809266666667}, {"fusion_lat": 0.0, "name": "d2ee6e2d4f86c46e96ca144e9f5ea577", "is_disabled": 0, "rental_uris": {"android": "https://dc.lft.to/lastmile_qr_scan", "ios": "https://dc.lft.to/lastmile_qr_scan"}, "fusion_lon": 0.0, "lat": 38.933594666666664, "bike_id": "d2ee6e2d4f86c46e96ca144e9f5ea577", "type": "electric_scooter", "is_reserved": 0, "lon": -77.024416}, {"fusion_lat": 0.0, "name": "2f3a5cbf7addd98beda935496da03097", "is_disabled": 0, "rental_uris": {"android": "https://dc.lft.to/lastmile_qr_scan", "ios": "https://dc.lft.to/lastmile_qr_scan"}, "fusion_lon": 0.0, "lat": 38.929613333333336, "bike_id": "2f3a5cbf7addd98beda935496da03097", "type": "electric_scooter", "is_reserved": 0, "lon": -77.02017733333334}, {"fusion_lat": 0.0, "name": "c4b244ab162f1005cb361523040844c7", "is_disabled": 0, "rental_uris": {"android": "https://dc.lft.to/lastmile_qr_scan", "ios": "https://dc.lft.to/lastmile_qr_scan"}, "fusion_lon": 0.0, "lat": 38.858894, "bike_id": "c4b244ab162f1005cb361523040844c7", "type": "electric_bike", "is_reserved": 0, "lon": -77.0954585}, {"fusion_lat": 0.0, "name": "58748980a53ca8418694e71704c4d1fc", "is_disabled": 0, "rental_uris": {"android": "https://dc.lft.to/lastmile_qr_scan", "ios": "https://dc.lft.to/lastmile_qr_scan"}, "fusion_lon": 0.0, "lat": 38.90049966666667, "bike_id": "58748980a53ca8418694e71704c4d1fc", "type": "electric_scooter", "is_reserved": 0, "lon": -77.0018875}, {"fusion_lat": 0.0, "name": "ca598051687fb71eca411c61b7c3fe4c", "is_disabled": 0, "rental_uris": {"android": "https://dc.lft.to/lastmile_qr_scan", "ios": "https://dc.lft.to/lastmile_qr_scan"}, "fusion_lon": 0.0, "lat": 38.9095225, "bike_id": "ca598051687fb71eca411c61b7c3fe4c", "type": "electric_scooter", "is_reserved": 0, "lon": -77.02384533333333}, {"fusion_lat": 0.0, "name": "6eba3b802cb77bc45c7f0f6d6f8f138d", "is_disabled": 0, "rental_uris": {"android": "https://dc.lft.to/lastmile_qr_scan", "ios": "https://dc.lft.to/lastmile_qr_scan"}, "fusion_lon": 0.0, "lat": 38.88993516666667, "bike_id": "6eba3b802cb77bc45c7f0f6d6f8f138d", "type": "electric_scooter", "is_reserved": 0, "lon": -76.996362}, {"fusion_lat": 0.0, "name": "7ac53a5776c3bede1fc276192e45d635", "is_disabled": 0, "rental_uris": {"android": "https://dc.lft.to/lastmile_qr_scan", "ios": "https://dc.lft.to/lastmile_qr_scan"}, "fusion_lon": 0.0, "lat": 38.90935266666666, "bike_id": "7ac53a5776c3bede1fc276192e45d635", "type": "electric_scooter", "is_reserved": 0, "lon": -77.02124666666667}, {"fusion_lat": 0.0, "name": "09d46dd9de1afefd00b2ffcb57cfbd09", "is_disabled": 0, "rental_uris": {"android": "https://dc.lft.to/lastmile_qr_scan", "ios": "https://dc.lft.to/lastmile_qr_scan"}, "fusion_lon": 0.0, "lat": 38.9173315, "bike_id": "09d46dd9de1afefd00b2ffcb57cfbd09", "type": "electric_scooter", "is_reserved": 0, "lon": -77.04827783333333}, {"fusion_lat": 0.0, "name": "8e7260f6b8ef1254efa77dda8d0a0278", "is_disabled": 0, "rental_uris": {"android": "https://dc.lft.to/lastmile_qr_scan", "ios": "https://dc.lft.to/lastmile_qr_scan"}, "fusion_lon": 0.0, "lat": 38.8994715, "bike_id": "8e7260f6b8ef1254efa77dda8d0a0278", "type": "electric_scooter", "is_reserved": 0, "lon": -77.053541}, {"fusion_lat": 0.0, "name": "37167a55f3b67f73c8e1122b7e591848", "is_disabled": 0, "rental_uris": {"android": "https://dc.lft.to/lastmile_qr_scan", "ios": "https://dc.lft.to/lastmile_qr_scan"}, "fusion_lon": 0.0, "lat": 38.92052133333333, "bike_id": "37167a55f3b67f73c8e1122b7e591848", "type": "electric_scooter", "is_reserved": 0, "lon": -77.03400666666667}, {"fusion_lat": 0.0, "name": "a4b09ef78188eaa26708c0fbf46852b9", "is_disabled": 0, "rental_uris": {"android": "https://dc.lft.to/lastmile_qr_scan", "ios": "https://dc.lft.to/lastmile_qr_scan"}, "fusion_lon": 0.0, "lat": 38.91397166666667, "bike_id": "a4b09ef78188eaa26708c0fbf46852b9", "type": "electric_scooter", "is_reserved": 0, "lon": -77.034623}, {"fusion_lat": 0.0, "name": "1536cfd13b2339c599f69a0748a10958", "is_disabled": 0, "rental_uris": {"android": "https://dc.lft.to/lastmile_qr_scan", "ios": "https://dc.lft.to/lastmile_qr_scan"}, "fusion_lon": 0.0, "lat": 38.88989133333333, "bike_id": "1536cfd13b2339c599f69a0748a10958", "type": "electric_scooter", "is_reserved": 0, "lon": -76.987364}, {"fusion_lat": 0.0, "name": "687cda899e93a174ab95f0ea593a323a", "is_disabled": 0, "rental_uris": {"android": "https://dc.lft.to/lastmile_qr_scan", "ios": "https://dc.lft.to/lastmile_qr_scan"}, "fusion_lon": 0.0, "lat": 38.93950066666667, "bike_id": "687cda899e93a174ab95f0ea593a323a", "type": "electric_scooter", "is_reserved": 0, "lon": -77.03329216666667}, {"fusion_lat": 0.0, "name": "7d76d8b98d4a0f95635c7c96ba8a2e84", "is_disabled": 0, "rental_uris": {"android": "https://dc.lft.to/lastmile_qr_scan", "ios": "https://dc.lft.to/lastmile_qr_scan"}, "fusion_lon": 0.0, "lat": 38.92243066666666, "bike_id": "7d76d8b98d4a0f95635c7c96ba8a2e84", "type": "electric_scooter", "is_reserved": 0, "lon": -77.04242933333333}, {"fusion_lat": 0.0, "name": "2a5f0158f4db39f0589ed3714aae84d6", "is_disabled": 0, "rental_uris": {"android": "https://dc.lft.to/lastmile_qr_scan", "ios": "https://dc.lft.to/lastmile_qr_scan"}, "fusion_lon": 0.0, "lat": 38.90464333333333, "bike_id": "2a5f0158f4db39f0589ed3714aae84d6", "type": "electric_scooter", "is_reserved": 0, "lon": -77.01700683333334}, {"fusion_lat": 0.0, "name": "806970cebb0e3ac11083931744b53aec", "is_disabled": 0, "rental_uris": {"android": "https://dc.lft.to/lastmile_qr_scan", "ios": "https://dc.lft.to/lastmile_qr_scan"}, "fusion_lon": 0.0, "lat": 38.892289833333336, "bike_id": "806970cebb0e3ac11083931744b53aec", "type": "electric_scooter", "is_reserved": 0, "lon": -77.050344}, {"fusion_lat": 0.0, "name": "ff3f34dc15b1699324c004d54bc28f5b", "is_disabled": 0, "rental_uris": {"android": "https://dc.lft.to/lastmile_qr_scan", "ios": "https://dc.lft.to/lastmile_qr_scan"}, "fusion_lon": 0.0, "lat": 38.94980133333333, "bike_id": "ff3f34dc15b1699324c004d54bc28f5b", "type": "electric_scooter", "is_reserved": 0, "lon": -77.02443816666667}, {"fusion_lat": 0.0, "name": "ac37065b1ff4377cd7784d4442621437", "is_disabled": 0, "rental_uris": {"android": "https://dc.lft.to/lastmile_qr_scan", "ios": "https://dc.lft.to/lastmile_qr_scan"}, "fusion_lon": 0.0, "lat": 38.877993000000004, "bike_id": "ac37065b1ff4377cd7784d4442621437", "type": "electric_scooter", "is_reserved": 0, "lon": -77.0011825}, {"fusion_lat": 0.0, "name": "09990d30402dcb12571a85447968e084", "is_disabled": 0, "rental_uris": {"android": "https://dc.lft.to/lastmile_qr_scan", "ios": "https://dc.lft.to/lastmile_qr_scan"}, "fusion_lon": 0.0, "lat": 38.927573833333334, "bike_id": "09990d30402dcb12571a85447968e084", "type": "electric_scooter", "is_reserved": 0, "lon": -77.03297566666667}, {"fusion_lat": 0.0, "name": "6a12e40d2e43f9fbd112b6f6c4b214f5", "is_disabled": 0, "rental_uris": {"android": "https://dc.lft.to/lastmile_qr_scan", "ios": "https://dc.lft.to/lastmile_qr_scan"}, "fusion_lon": 0.0, "lat": 38.93100333333334, "bike_id": "6a12e40d2e43f9fbd112b6f6c4b214f5", "type": "electric_scooter", "is_reserved": 0, "lon": -77.0247545}, {"fusion_lat": 0.0, "name": "df73df857464e7099bcb88dff04305bc", "is_disabled": 0, "rental_uris": {"android": "https://dc.lft.to/lastmile_qr_scan", "ios": "https://dc.lft.to/lastmile_qr_scan"}, "fusion_lon": 0.0, "lat": 38.887192666666664, "bike_id": "df73df857464e7099bcb88dff04305bc", "type": "electric_scooter", "is_reserved": 0, "lon": -76.99675816666667}, {"fusion_lat": 0.0, "name": "4f1187faa88f5ac4a21e01cc3b30db47", "is_disabled": 0, "rental_uris": {"android": "https://dc.lft.to/lastmile_qr_scan", "ios": "https://dc.lft.to/lastmile_qr_scan"}, "fusion_lon": 0.0, "lat": 38.946070166666665, "bike_id": "4f1187faa88f5ac4a21e01cc3b30db47", "type": "electric_bike", "is_reserved": 0, "lon": -77.0286595}, {"fusion_lat": 0.0, "name": "36851380879f41300f2cb32a71e106b9", "is_disabled": 0, "rental_uris": {"android": "https://dc.lft.to/lastmile_qr_scan", "ios": "https://dc.lft.to/lastmile_qr_scan"}, "fusion_lon": 0.0, "lat": 38.88768966666667, "bike_id": "36851380879f41300f2cb32a71e106b9", "type": "electric_scooter", "is_reserved": 0, "lon": -76.99470883333333}, {"fusion_lat": 0.0, "name": "a23dd84cb720162d8e6c71b22b6a469b", "is_disabled": 0, "rental_uris": {"android": "https://dc.lft.to/lastmile_qr_scan", "ios": "https://dc.lft.to/lastmile_qr_scan"}, "fusion_lon": 0.0, "lat": 38.924806333333336, "bike_id": "a23dd84cb720162d8e6c71b22b6a469b", "type": "electric_scooter", "is_reserved": 0, "lon": -77.02837733333334}, {"fusion_lat": 0.0, "name": "a7fb1adc23b91d5c2a976d021bbdb797", "is_disabled": 0, "rental_uris": {"android": "https://dc.lft.to/lastmile_qr_scan", "ios": "https://dc.lft.to/lastmile_qr_scan"}, "fusion_lon": 0.0, "lat": 38.900146666666664, "bike_id": "a7fb1adc23b91d5c2a976d021bbdb797", "type": "electric_scooter", "is_reserved": 0, "lon": -76.99762733333333}, {"fusion_lat": 0.0, "name": "7ffe8e3fb78a7316484994600d536611", "is_disabled": 0, "rental_uris": {"android": "https://dc.lft.to/lastmile_qr_scan", "ios": "https://dc.lft.to/lastmile_qr_scan"}, "fusion_lon": 0.0, "lat": 38.9184975, "bike_id": "7ffe8e3fb78a7316484994600d536611", "type": "electric_scooter", "is_reserved": 0, "lon": -76.96535583333333}, {"fusion_lat": 0.0, "name": "d643db67d2441dd2a3fc3e8a649118e8", "is_disabled": 0, "rental_uris": {"android": "https://dc.lft.to/lastmile_qr_scan", "ios": "https://dc.lft.to/lastmile_qr_scan"}, "fusion_lon": 0.0, "lat": 38.91663, "bike_id": "d643db67d2441dd2a3fc3e8a649118e8", "type": "electric_scooter", "is_reserved": 0, "lon": -77.028224}, {"fusion_lat": 0.0, "name": "d40df13102dac4537ed3edecdf8c1e9a", "is_disabled": 0, "rental_uris": {"android": "https://dc.lft.to/lastmile_qr_scan", "ios": "https://dc.lft.to/lastmile_qr_scan"}, "fusion_lon": 0.0, "lat": 38.901541333333334, "bike_id": "d40df13102dac4537ed3edecdf8c1e9a", "type": "electric_scooter", "is_reserved": 0, "lon": -77.02565766666666}, {"fusion_lat": 0.0, "name": "fa0055938dfa60ff17ce3c7d2bfb4f1f", "is_disabled": 0, "rental_uris": {"android": "https://dc.lft.to/lastmile_qr_scan", "ios": "https://dc.lft.to/lastmile_qr_scan"}, "fusion_lon": 0.0, "lat": 38.921017666666664, "bike_id": "fa0055938dfa60ff17ce3c7d2bfb4f1f", "type": "electric_scooter", "is_reserved": 0, "lon": -77.036547}, {"fusion_lat": 0.0, "name": "724919a3a0c11d6c0c100067dfafc09f", "is_disabled": 0, "rental_uris": {"android": "https://dc.lft.to/lastmile_qr_scan", "ios": "https://dc.lft.to/lastmile_qr_scan"}, "fusion_lon": 0.0, "lat": 38.92140583333333, "bike_id": "724919a3a0c11d6c0c100067dfafc09f", "type": "electric_scooter", "is_reserved": 0, "lon": -77.01796616666667}, {"fusion_lat": 0.0, "name": "ac49a9ea87bdf742b32173494b9cc444", "is_disabled": 0, "rental_uris": {"android": "https://dc.lft.to/lastmile_qr_scan", "ios": "https://dc.lft.to/lastmile_qr_scan"}, "fusion_lon": 0.0, "lat": 38.98477316666666, "bike_id": "ac49a9ea87bdf742b32173494b9cc444", "type": "electric_scooter", "is_reserved": 0, "lon": -77.02643416666666}, {"fusion_lat": 0.0, "name": "af2ff409a091676545f19abf43c52bbb", "is_disabled": 0, "rental_uris": {"android": "https://dc.lft.to/lastmile_qr_scan", "ios": "https://dc.lft.to/lastmile_qr_scan"}, "fusion_lon": 0.0, "lat": 38.905754, "bike_id": "af2ff409a091676545f19abf43c52bbb", "type": "electric_scooter", "is_reserved": 0, "lon": -77.0278465}, {"fusion_lat": 0.0, "name": "b63fd2b212f0ea1d6859da3aa46714be", "is_disabled": 0, "rental_uris": {"android": "https://dc.lft.to/lastmile_qr_scan", "ios": "https://dc.lft.to/lastmile_qr_scan"}, "fusion_lon": 0.0, "lat": 38.90736783333333, "bike_id": "b63fd2b212f0ea1d6859da3aa46714be", "type": "electric_scooter", "is_reserved": 0, "lon": -77.042463}, {"fusion_lat": 0.0, "name": "60dd87598ae3d5b0632fb38fdb4fd8f0", "is_disabled": 0, "rental_uris": {"android": "https://dc.lft.to/lastmile_qr_scan", "ios": "https://dc.lft.to/lastmile_qr_scan"}, "fusion_lon": 0.0, "lat": 38.92172633333333, "bike_id": "60dd87598ae3d5b0632fb38fdb4fd8f0", "type": "electric_scooter", "is_reserved": 0, "lon": -77.0364325}, {"fusion_lat": 0.0, "name": "994710b9308f15a72ae8a5a1937ace63", "is_disabled": 0, "rental_uris": {"android": "https://dc.lft.to/lastmile_qr_scan", "ios": "https://dc.lft.to/lastmile_qr_scan"}, "fusion_lon": 0.0, "lat": 38.91357566666667, "bike_id": "994710b9308f15a72ae8a5a1937ace63", "type": "electric_scooter", "is_reserved": 0, "lon": -77.03326866666667}, {"fusion_lat": 0.0, "name": "b4085caa2c64302df5c9f671106226da", "is_disabled": 0, "rental_uris": {"android": "https://dc.lft.to/lastmile_qr_scan", "ios": "https://dc.lft.to/lastmile_qr_scan"}, "fusion_lon": 0.0, "lat": 38.941532, "bike_id": "b4085caa2c64302df5c9f671106226da", "type": "electric_bike", "is_reserved": 0, "lon": -77.00197366666667}, {"fusion_lat": 0.0, "name": "d121432630fe594e9a4720a8f7c3b48f", "is_disabled": 0, "rental_uris": {"android": "https://dc.lft.to/lastmile_qr_scan", "ios": "https://dc.lft.to/lastmile_qr_scan"}, "fusion_lon": 0.0, "lat": 38.929749, "bike_id": "d121432630fe594e9a4720a8f7c3b48f", "type": "electric_scooter", "is_reserved": 0, "lon": -77.03137216666667}, {"fusion_lat": 0.0, "name": "dde1e1fb70931d33bb2321e0e9d83338", "is_disabled": 0, "rental_uris": {"android": "https://dc.lft.to/lastmile_qr_scan", "ios": "https://dc.lft.to/lastmile_qr_scan"}, "fusion_lon": 0.0, "lat": 38.902241, "bike_id": "dde1e1fb70931d33bb2321e0e9d83338", "type": "electric_scooter", "is_reserved": 0, "lon": -77.05983666666667}, {"fusion_lat": 0.0, "name": "d64daaa6575cb1f85c7ae153bc19fbe4", "is_disabled": 0, "rental_uris": {"android": "https://dc.lft.to/lastmile_qr_scan", "ios": "https://dc.lft.to/lastmile_qr_scan"}, "fusion_lon": 0.0, "lat": 38.9879145, "bike_id": "d64daaa6575cb1f85c7ae153bc19fbe4", "type": "electric_bike", "is_reserved": 0, "lon": -77.1409935}, {"fusion_lat": 0.0, "name": "104abb2ae289744b464cfd630e3b136b", "is_disabled": 0, "rental_uris": {"android": "https://dc.lft.to/lastmile_qr_scan", "ios": "https://dc.lft.to/lastmile_qr_scan"}, "fusion_lon": 0.0, "lat": 38.90414533333333, "bike_id": "104abb2ae289744b464cfd630e3b136b", "type": "electric_scooter", "is_reserved": 0, "lon": -76.9732855}, {"fusion_lat": 0.0, "name": "25f88764c2bfe07a2d4cea6699e8dda9", "is_disabled": 0, "rental_uris": {"android": "https://dc.lft.to/lastmile_qr_scan", "ios": "https://dc.lft.to/lastmile_qr_scan"}, "fusion_lon": 0.0, "lat": 38.941701, "bike_id": "25f88764c2bfe07a2d4cea6699e8dda9", "type": "electric_bike", "is_reserved": 0, "lon": -76.96646833333334}, {"fusion_lat": 0.0, "name": "f93eb82eb9703a90a2c95e9da73ddb69", "is_disabled": 0, "rental_uris": {"android": "https://dc.lft.to/lastmile_qr_scan", "ios": "https://dc.lft.to/lastmile_qr_scan"}, "fusion_lon": 0.0, "lat": 38.88509633333334, "bike_id": "f93eb82eb9703a90a2c95e9da73ddb69", "type": "electric_scooter", "is_reserved": 0, "lon": -76.99759283333333}, {"fusion_lat": 0.0, "name": "c6b102cff380a4038f7d7e585a9bb2dd", "is_disabled": 0, "rental_uris": {"android": "https://dc.lft.to/lastmile_qr_scan", "ios": "https://dc.lft.to/lastmile_qr_scan"}, "fusion_lon": 0.0, "lat": 38.915801, "bike_id": "c6b102cff380a4038f7d7e585a9bb2dd", "type": "electric_scooter", "is_reserved": 0, "lon": -77.01248983333333}, {"fusion_lat": 0.0, "name": "76b407185234e6e198034dcb54318c13", "is_disabled": 0, "rental_uris": {"android": "https://dc.lft.to/lastmile_qr_scan", "ios": "https://dc.lft.to/lastmile_qr_scan"}, "fusion_lon": 0.0, "lat": 38.936552166666665, "bike_id": "76b407185234e6e198034dcb54318c13", "type": "electric_scooter", "is_reserved": 0, "lon": -77.03697933333333}, {"fusion_lat": 0.0, "name": "02c0af203ae760a43f89c5a363e3eebe", "is_disabled": 0, "rental_uris": {"android": "https://dc.lft.to/lastmile_qr_scan", "ios": "https://dc.lft.to/lastmile_qr_scan"}, "fusion_lon": 0.0, "lat": 38.92863366666667, "bike_id": "02c0af203ae760a43f89c5a363e3eebe", "type": "electric_scooter", "is_reserved": 0, "lon": -77.03261016666667}, {"fusion_lat": 0.0, "name": "a4bc1fd4ec2286ecc42cc5d226845ae7", "is_disabled": 0, "rental_uris": {"android": "https://dc.lft.to/lastmile_qr_scan", "ios": "https://dc.lft.to/lastmile_qr_scan"}, "fusion_lon": 0.0, "lat": 38.92081183333333, "bike_id": "a4bc1fd4ec2286ecc42cc5d226845ae7", "type": "electric_scooter", "is_reserved": 0, "lon": -77.00442433333333}, {"fusion_lat": 0.0, "name": "8f8febdcd21ee3e5ce90b190c5cc93a6", "is_disabled": 0, "rental_uris": {"android": "https://dc.lft.to/lastmile_qr_scan", "ios": "https://dc.lft.to/lastmile_qr_scan"}, "fusion_lon": 0.0, "lat": 38.916262, "bike_id": "8f8febdcd21ee3e5ce90b190c5cc93a6", "type": "electric_scooter", "is_reserved": 0, "lon": -77.03648916666667}, {"fusion_lat": 0.0, "name": "ff23d9f09d710ef20b4141372b45fd27", "is_disabled": 0, "rental_uris": {"android": "https://dc.lft.to/lastmile_qr_scan", "ios": "https://dc.lft.to/lastmile_qr_scan"}, "fusion_lon": 0.0, "lat": 38.874786, "bike_id": "ff23d9f09d710ef20b4141372b45fd27", "type": "electric_scooter", "is_reserved": 0, "lon": -77.000458}, {"fusion_lat": 0.0, "name": "51299b75767b745271dc763d11d5c503", "is_disabled": 0, "rental_uris": {"android": "https://dc.lft.to/lastmile_qr_scan", "ios": "https://dc.lft.to/lastmile_qr_scan"}, "fusion_lon": 0.0, "lat": 38.90388183333334, "bike_id": "51299b75767b745271dc763d11d5c503", "type": "electric_scooter", "is_reserved": 0, "lon": -77.04599616666667}, {"fusion_lat": 0.0, "name": "9607b52d35f4a14a29cf46b23a6810f3", "is_disabled": 0, "rental_uris": {"android": "https://dc.lft.to/lastmile_qr_scan", "ios": "https://dc.lft.to/lastmile_qr_scan"}, "fusion_lon": 0.0, "lat": 38.938629166666665, "bike_id": "9607b52d35f4a14a29cf46b23a6810f3", "type": "electric_scooter", "is_reserved": 0, "lon": -77.024552}, {"fusion_lat": 0.0, "name": "0e1844feea53f61489566909499468e1", "is_disabled": 0, "rental_uris": {"android": "https://dc.lft.to/lastmile_qr_scan", "ios": "https://dc.lft.to/lastmile_qr_scan"}, "fusion_lon": 0.0, "lat": 38.89704533333333, "bike_id": "0e1844feea53f61489566909499468e1", "type": "electric_scooter", "is_reserved": 0, "lon": -77.0434665}, {"fusion_lat": 0.0, "name": "1013d32d4f020de92441b15d38165c77", "is_disabled": 0, "rental_uris": {"android": "https://dc.lft.to/lastmile_qr_scan", "ios": "https://dc.lft.to/lastmile_qr_scan"}, "fusion_lon": 0.0, "lat": 38.878536, "bike_id": "1013d32d4f020de92441b15d38165c77", "type": "electric_bike", "is_reserved": 0, "lon": -77.03017583333333}, {"fusion_lat": 0.0, "name": "b115ea5872efbe00c24f3bb2d31e383a", "is_disabled": 0, "rental_uris": {"android": "https://dc.lft.to/lastmile_qr_scan", "ios": "https://dc.lft.to/lastmile_qr_scan"}, "fusion_lon": 0.0, "lat": 38.88121366666667, "bike_id": "b115ea5872efbe00c24f3bb2d31e383a", "type": "electric_scooter", "is_reserved": 0, "lon": -77.01647483333333}, {"fusion_lat": 0.0, "name": "2185d12055c7ec286a9780ef60906d07", "is_disabled": 0, "rental_uris": {"android": "https://dc.lft.to/lastmile_qr_scan", "ios": "https://dc.lft.to/lastmile_qr_scan"}, "fusion_lon": 0.0, "lat": 38.91265033333333, "bike_id": "2185d12055c7ec286a9780ef60906d07", "type": "electric_bike", "is_reserved": 0, "lon": -77.0362185}, {"fusion_lat": 0.0, "name": "3c167c3d37aac77d69a48fe9520104af", "is_disabled": 0, "rental_uris": {"android": "https://dc.lft.to/lastmile_qr_scan", "ios": "https://dc.lft.to/lastmile_qr_scan"}, "fusion_lon": 0.0, "lat": 38.92794683333334, "bike_id": "3c167c3d37aac77d69a48fe9520104af", "type": "electric_scooter", "is_reserved": 0, "lon": -76.95559383333334}, {"fusion_lat": 0.0, "name": "00c88765fd2953b9a6dbe6e854bc8727", "is_disabled": 0, "rental_uris": {"android": "https://dc.lft.to/lastmile_qr_scan", "ios": "https://dc.lft.to/lastmile_qr_scan"}, "fusion_lon": 0.0, "lat": 38.988214, "bike_id": "00c88765fd2953b9a6dbe6e854bc8727", "type": "electric_bike", "is_reserved": 0, "lon": -77.02653783333334}, {"fusion_lat": 0.0, "name": "f9ccd729008a10a7b438e93b8b9e37ab", "is_disabled": 0, "rental_uris": {"android": "https://dc.lft.to/lastmile_qr_scan", "ios": "https://dc.lft.to/lastmile_qr_scan"}, "fusion_lon": 0.0, "lat": 38.930614166666665, "bike_id": "f9ccd729008a10a7b438e93b8b9e37ab", "type": "electric_scooter", "is_reserved": 0, "lon": -77.03946566666667}, {"fusion_lat": 0.0, "name": "e613383cad43d5c5f0ff9482e0aedcf0", "is_disabled": 0, "rental_uris": {"android": "https://dc.lft.to/lastmile_qr_scan", "ios": "https://dc.lft.to/lastmile_qr_scan"}, "fusion_lon": 0.0, "lat": 38.92406233333333, "bike_id": "e613383cad43d5c5f0ff9482e0aedcf0", "type": "electric_scooter", "is_reserved": 0, "lon": -77.04275666666666}, {"fusion_lat": 0.0, "name": "a4ea6a0fdb79b4f8ecabde0dff8bd66e", "is_disabled": 0, "rental_uris": {"android": "https://dc.lft.to/lastmile_qr_scan", "ios": "https://dc.lft.to/lastmile_qr_scan"}, "fusion_lon": 0.0, "lat": 38.91619, "bike_id": "a4ea6a0fdb79b4f8ecabde0dff8bd66e", "type": "electric_scooter", "is_reserved": 0, "lon": -77.0385625}, {"fusion_lat": 0.0, "name": "3ca6d75912a0f3e22cfa8b70783a60fb", "is_disabled": 0, "rental_uris": {"android": "https://dc.lft.to/lastmile_qr_scan", "ios": "https://dc.lft.to/lastmile_qr_scan"}, "fusion_lon": 0.0, "lat": 38.94923033333333, "bike_id": "3ca6d75912a0f3e22cfa8b70783a60fb", "type": "electric_scooter", "is_reserved": 0, "lon": -77.01855883333333}, {"fusion_lat": 0.0, "name": "33b0a9c0597e8bb9a307ed6aba8c5239", "is_disabled": 0, "rental_uris": {"android": "https://dc.lft.to/lastmile_qr_scan", "ios": "https://dc.lft.to/lastmile_qr_scan"}, "fusion_lon": 0.0, "lat": 38.9248155, "bike_id": "33b0a9c0597e8bb9a307ed6aba8c5239", "type": "electric_scooter", "is_reserved": 0, "lon": -77.02668483333333}, {"fusion_lat": 0.0, "name": "1513a447a2c1e1a6dc948b1ff1d5097e", "is_disabled": 0, "rental_uris": {"android": "https://dc.lft.to/lastmile_qr_scan", "ios": "https://dc.lft.to/lastmile_qr_scan"}, "fusion_lon": 0.0, "lat": 38.904886, "bike_id": "1513a447a2c1e1a6dc948b1ff1d5097e", "type": "electric_scooter", "is_reserved": 0, "lon": -76.94956833333333}, {"fusion_lat": 0.0, "name": "7981f82b58dfa529737e187c5cd646ba", "is_disabled": 0, "rental_uris": {"android": "https://dc.lft.to/lastmile_qr_scan", "ios": "https://dc.lft.to/lastmile_qr_scan"}, "fusion_lon": 0.0, "lat": 38.8784135, "bike_id": "7981f82b58dfa529737e187c5cd646ba", "type": "electric_scooter", "is_reserved": 0, "lon": -77.00443266666667}, {"fusion_lat": 0.0, "name": "a11f8506a869e0d7d2ec8f1cd3120caf", "is_disabled": 0, "rental_uris": {"android": "https://dc.lft.to/lastmile_qr_scan", "ios": "https://dc.lft.to/lastmile_qr_scan"}, "fusion_lon": 0.0, "lat": 38.905113, "bike_id": "a11f8506a869e0d7d2ec8f1cd3120caf", "type": "electric_scooter", "is_reserved": 0, "lon": -77.07031616666667}, {"fusion_lat": 0.0, "name": "46929082f7662f9446cd59bd42e59c83", "is_disabled": 0, "rental_uris": {"android": "https://dc.lft.to/lastmile_qr_scan", "ios": "https://dc.lft.to/lastmile_qr_scan"}, "fusion_lon": 0.0, "lat": 38.920408, "bike_id": "46929082f7662f9446cd59bd42e59c83", "type": "electric_scooter", "is_reserved": 0, "lon": -77.02371733333334}, {"fusion_lat": 0.0, "name": "28d0ed7dfaabe37d23506ee6fd73c4a4", "is_disabled": 0, "rental_uris": {"android": "https://dc.lft.to/lastmile_qr_scan", "ios": "https://dc.lft.to/lastmile_qr_scan"}, "fusion_lon": 0.0, "lat": 38.88616016666667, "bike_id": "28d0ed7dfaabe37d23506ee6fd73c4a4", "type": "electric_scooter", "is_reserved": 0, "lon": -77.01557183333334}, {"fusion_lat": 0.0, "name": "5f007c890aec9d6420713c4823510625", "is_disabled": 0, "rental_uris": {"android": "https://dc.lft.to/lastmile_qr_scan", "ios": "https://dc.lft.to/lastmile_qr_scan"}, "fusion_lon": 0.0, "lat": 38.9002165, "bike_id": "5f007c890aec9d6420713c4823510625", "type": "electric_scooter", "is_reserved": 0, "lon": -77.00103683333333}, {"fusion_lat": 0.0, "name": "453c2329e59e67dc222135d4c01d2b1b", "is_disabled": 0, "rental_uris": {"android": "https://dc.lft.to/lastmile_qr_scan", "ios": "https://dc.lft.to/lastmile_qr_scan"}, "fusion_lon": 0.0, "lat": 38.8771385, "bike_id": "453c2329e59e67dc222135d4c01d2b1b", "type": "electric_scooter", "is_reserved": 0, "lon": -76.9938165}, {"fusion_lat": 0.0, "name": "d40ccebab130bc84ad3688b178d22b75", "is_disabled": 0, "rental_uris": {"android": "https://dc.lft.to/lastmile_qr_scan", "ios": "https://dc.lft.to/lastmile_qr_scan"}, "fusion_lon": 0.0, "lat": 38.89879583333333, "bike_id": "d40ccebab130bc84ad3688b178d22b75", "type": "electric_scooter", "is_reserved": 0, "lon": -76.9318485}, {"fusion_lat": 0.0, "name": "d78a30f251544435b43f4e5012c08a26", "is_disabled": 0, "rental_uris": {"android": "https://dc.lft.to/lastmile_qr_scan", "ios": "https://dc.lft.to/lastmile_qr_scan"}, "fusion_lon": 0.0, "lat": 38.90807983333333, "bike_id": "d78a30f251544435b43f4e5012c08a26", "type": "electric_scooter", "is_reserved": 0, "lon": -77.0426595}, {"fusion_lat": 0.0, "name": "41ec876ba2d316bcd70242806df7eb59", "is_disabled": 0, "rental_uris": {"android": "https://dc.lft.to/lastmile_qr_scan", "ios": "https://dc.lft.to/lastmile_qr_scan"}, "fusion_lon": 0.0, "lat": 38.896085, "bike_id": "41ec876ba2d316bcd70242806df7eb59", "type": "electric_scooter", "is_reserved": 0, "lon": -77.00924016666667}, {"fusion_lat": 0.0, "name": "77eb4a4176ddb09281c3dbb02fa32b6b", "is_disabled": 0, "rental_uris": {"android": "https://dc.lft.to/lastmile_qr_scan", "ios": "https://dc.lft.to/lastmile_qr_scan"}, "fusion_lon": 0.0, "lat": 38.948782, "bike_id": "77eb4a4176ddb09281c3dbb02fa32b6b", "type": "electric_scooter", "is_reserved": 0, "lon": -77.026885}, {"fusion_lat": 0.0, "name": "3a22f13a27860b47e08f058b79450706", "is_disabled": 0, "rental_uris": {"android": "https://dc.lft.to/lastmile_qr_scan", "ios": "https://dc.lft.to/lastmile_qr_scan"}, "fusion_lon": 0.0, "lat": 38.9255575, "bike_id": "3a22f13a27860b47e08f058b79450706", "type": "electric_scooter", "is_reserved": 0, "lon": -77.0776105}, {"fusion_lat": 0.0, "name": "22e098e9e52947cc1a671a45f865005c", "is_disabled": 0, "rental_uris": {"android": "https://dc.lft.to/lastmile_qr_scan", "ios": "https://dc.lft.to/lastmile_qr_scan"}, "fusion_lon": 0.0, "lat": 38.927929666666664, "bike_id": "22e098e9e52947cc1a671a45f865005c", "type": "electric_scooter", "is_reserved": 0, "lon": -77.03215566666667}, {"fusion_lat": 0.0, "name": "ac09196b55a3989eb65cb758a4e829b4", "is_disabled": 0, "rental_uris": {"android": "https://dc.lft.to/lastmile_qr_scan", "ios": "https://dc.lft.to/lastmile_qr_scan"}, "fusion_lon": 0.0, "lat": 38.948969166666664, "bike_id": "ac09196b55a3989eb65cb758a4e829b4", "type": "electric_bike", "is_reserved": 0, "lon": -76.96377833333334}, {"fusion_lat": 0.0, "name": "3ef055f6f05b8136004bfbaf96dd420d", "is_disabled": 0, "rental_uris": {"android": "https://dc.lft.to/lastmile_qr_scan", "ios": "https://dc.lft.to/lastmile_qr_scan"}, "fusion_lon": 0.0, "lat": 38.91124766666667, "bike_id": "3ef055f6f05b8136004bfbaf96dd420d", "type": "electric_scooter", "is_reserved": 0, "lon": -76.99766766666667}, {"fusion_lat": 0.0, "name": "dfce4be31659e2761611cc8d7a4f8e66", "is_disabled": 0, "rental_uris": {"android": "https://dc.lft.to/lastmile_qr_scan", "ios": "https://dc.lft.to/lastmile_qr_scan"}, "fusion_lon": 0.0, "lat": 38.913086166666666, "bike_id": "dfce4be31659e2761611cc8d7a4f8e66", "type": "electric_scooter", "is_reserved": 0, "lon": -77.04874716666667}, {"fusion_lat": 0.0, "name": "bd40aa5948447d7c6be04505904af4f9", "is_disabled": 0, "rental_uris": {"android": "https://dc.lft.to/lastmile_qr_scan", "ios": "https://dc.lft.to/lastmile_qr_scan"}, "fusion_lon": 0.0, "lat": 38.911075333333336, "bike_id": "bd40aa5948447d7c6be04505904af4f9", "type": "electric_scooter", "is_reserved": 0, "lon": -77.02052583333334}, {"fusion_lat": 0.0, "name": "c9c3fe80f503ebdcb78940d0b0dd8fe9", "is_disabled": 0, "rental_uris": {"android": "https://dc.lft.to/lastmile_qr_scan", "ios": "https://dc.lft.to/lastmile_qr_scan"}, "fusion_lon": 0.0, "lat": 38.919662833333334, "bike_id": "c9c3fe80f503ebdcb78940d0b0dd8fe9", "type": "electric_scooter", "is_reserved": 0, "lon": -77.07085883333333}, {"fusion_lat": 0.0, "name": "30cb6a23248d671be7a603ea6f0197f8", "is_disabled": 0, "rental_uris": {"android": "https://dc.lft.to/lastmile_qr_scan", "ios": "https://dc.lft.to/lastmile_qr_scan"}, "fusion_lon": 0.0, "lat": 38.93136033333333, "bike_id": "30cb6a23248d671be7a603ea6f0197f8", "type": "electric_scooter", "is_reserved": 0, "lon": -77.03255966666667}, {"fusion_lat": 0.0, "name": "7b6935f698c2d29bb1371820cf662f38", "is_disabled": 0, "rental_uris": {"android": "https://dc.lft.to/lastmile_qr_scan", "ios": "https://dc.lft.to/lastmile_qr_scan"}, "fusion_lon": 0.0, "lat": 38.81917583333333, "bike_id": "7b6935f698c2d29bb1371820cf662f38", "type": "electric_bike", "is_reserved": 0, "lon": -77.12665133333333}, {"fusion_lat": 0.0, "name": "2b7b6e62df19391e270106a706c1f537", "is_disabled": 0, "rental_uris": {"android": "https://dc.lft.to/lastmile_qr_scan", "ios": "https://dc.lft.to/lastmile_qr_scan"}, "fusion_lon": 0.0, "lat": 38.892880166666664, "bike_id": "2b7b6e62df19391e270106a706c1f537", "type": "electric_scooter", "is_reserved": 0, "lon": -76.98300433333333}, {"fusion_lat": 0.0, "name": "9b8af2191cdb6dab4782e06c9b10277a", "is_disabled": 0, "rental_uris": {"android": "https://dc.lft.to/lastmile_qr_scan", "ios": "https://dc.lft.to/lastmile_qr_scan"}, "fusion_lon": 0.0, "lat": 38.9181645, "bike_id": "9b8af2191cdb6dab4782e06c9b10277a", "type": "electric_scooter", "is_reserved": 0, "lon": -77.011318}, {"fusion_lat": 0.0, "name": "176e2042f981e0c4f2871eb12862ca13", "is_disabled": 0, "rental_uris": {"android": "https://dc.lft.to/lastmile_qr_scan", "ios": "https://dc.lft.to/lastmile_qr_scan"}, "fusion_lon": 0.0, "lat": 38.936421833333334, "bike_id": "176e2042f981e0c4f2871eb12862ca13", "type": "electric_scooter", "is_reserved": 0, "lon": -77.03656733333334}, {"fusion_lat": 0.0, "name": "bb53bf8abfa4bbb464a2754e6f21ae4f", "is_disabled": 0, "rental_uris": {"android": "https://dc.lft.to/lastmile_qr_scan", "ios": "https://dc.lft.to/lastmile_qr_scan"}, "fusion_lon": 0.0, "lat": 38.929426166666666, "bike_id": "bb53bf8abfa4bbb464a2754e6f21ae4f", "type": "electric_scooter", "is_reserved": 0, "lon": -77.02336683333333}, {"fusion_lat": 0.0, "name": "a5446f80fdf313f5c5d525ac5b1d2652", "is_disabled": 0, "rental_uris": {"android": "https://dc.lft.to/lastmile_qr_scan", "ios": "https://dc.lft.to/lastmile_qr_scan"}, "fusion_lon": 0.0, "lat": 38.89556616666667, "bike_id": "a5446f80fdf313f5c5d525ac5b1d2652", "type": "electric_scooter", "is_reserved": 0, "lon": -76.99837783333334}, {"fusion_lat": 0.0, "name": "57bfe7ce82eec2a83a7799ba920eeae2", "is_disabled": 0, "rental_uris": {"android": "https://dc.lft.to/lastmile_qr_scan", "ios": "https://dc.lft.to/lastmile_qr_scan"}, "fusion_lon": 0.0, "lat": 38.9192145, "bike_id": "57bfe7ce82eec2a83a7799ba920eeae2", "type": "electric_scooter", "is_reserved": 0, "lon": -77.01445066666666}, {"fusion_lat": 0.0, "name": "cda0fbdf9990136d1297b77804b5523d", "is_disabled": 0, "rental_uris": {"android": "https://dc.lft.to/lastmile_qr_scan", "ios": "https://dc.lft.to/lastmile_qr_scan"}, "fusion_lon": 0.0, "lat": 38.92321883333334, "bike_id": "cda0fbdf9990136d1297b77804b5523d", "type": "electric_scooter", "is_reserved": 0, "lon": -77.04373733333334}, {"fusion_lat": 0.0, "name": "95042d0ddadff2e103c19906ccf300f5", "is_disabled": 0, "rental_uris": {"android": "https://dc.lft.to/lastmile_qr_scan", "ios": "https://dc.lft.to/lastmile_qr_scan"}, "fusion_lon": 0.0, "lat": 38.909661, "bike_id": "95042d0ddadff2e103c19906ccf300f5", "type": "electric_scooter", "is_reserved": 0, "lon": -77.03940266666666}, {"fusion_lat": 0.0, "name": "bb20493c3dea2a842178436bd6d80b88", "is_disabled": 0, "rental_uris": {"android": "https://dc.lft.to/lastmile_qr_scan", "ios": "https://dc.lft.to/lastmile_qr_scan"}, "fusion_lon": 0.0, "lat": 38.932222833333334, "bike_id": "bb20493c3dea2a842178436bd6d80b88", "type": "electric_scooter", "is_reserved": 0, "lon": -77.04406533333334}, {"fusion_lat": 0.0, "name": "08410a0f36b28d8f0abd3ec09c03a96b", "is_disabled": 0, "rental_uris": {"android": "https://dc.lft.to/lastmile_qr_scan", "ios": "https://dc.lft.to/lastmile_qr_scan"}, "fusion_lon": 0.0, "lat": 38.92089333333333, "bike_id": "08410a0f36b28d8f0abd3ec09c03a96b", "type": "electric_scooter", "is_reserved": 0, "lon": -77.01221883333334}, {"fusion_lat": 0.0, "name": "7f24842526c98c04d2c501f1cdb266a0", "is_disabled": 0, "rental_uris": {"android": "https://dc.lft.to/lastmile_qr_scan", "ios": "https://dc.lft.to/lastmile_qr_scan"}, "fusion_lon": 0.0, "lat": 38.899869333333335, "bike_id": "7f24842526c98c04d2c501f1cdb266a0", "type": "electric_scooter", "is_reserved": 0, "lon": -77.04054216666667}, {"fusion_lat": 0.0, "name": "b8c48952de14d5366c3bce2b606e868e", "is_disabled": 0, "rental_uris": {"android": "https://dc.lft.to/lastmile_qr_scan", "ios": "https://dc.lft.to/lastmile_qr_scan"}, "fusion_lon": 0.0, "lat": 38.906483, "bike_id": "b8c48952de14d5366c3bce2b606e868e", "type": "electric_scooter", "is_reserved": 0, "lon": -77.01415}, {"fusion_lat": 0.0, "name": "c93070e775044c99f8ce1530ff06d789", "is_disabled": 0, "rental_uris": {"android": "https://dc.lft.to/lastmile_qr_scan", "ios": "https://dc.lft.to/lastmile_qr_scan"}, "fusion_lon": 0.0, "lat": 38.845086, "bike_id": "c93070e775044c99f8ce1530ff06d789", "type": "electric_bike", "is_reserved": 0, "lon": -76.99350533333333}, {"fusion_lat": 0.0, "name": "130b6b1d678b36f45a1559044c2329e6", "is_disabled": 0, "rental_uris": {"android": "https://dc.lft.to/lastmile_qr_scan", "ios": "https://dc.lft.to/lastmile_qr_scan"}, "fusion_lon": 0.0, "lat": 38.907836, "bike_id": "130b6b1d678b36f45a1559044c2329e6", "type": "electric_scooter", "is_reserved": 0, "lon": -77.03860983333334}, {"fusion_lat": 0.0, "name": "c07f84759b94312968df9a1f507f0499", "is_disabled": 0, "rental_uris": {"android": "https://dc.lft.to/lastmile_qr_scan", "ios": "https://dc.lft.to/lastmile_qr_scan"}, "fusion_lon": 0.0, "lat": 38.912736833333334, "bike_id": "c07f84759b94312968df9a1f507f0499", "type": "electric_scooter", "is_reserved": 0, "lon": -77.044645}, {"fusion_lat": 0.0, "name": "d50f7b043abb45596863d82265e88dbc", "is_disabled": 0, "rental_uris": {"android": "https://dc.lft.to/lastmile_qr_scan", "ios": "https://dc.lft.to/lastmile_qr_scan"}, "fusion_lon": 0.0, "lat": 38.9228205, "bike_id": "d50f7b043abb45596863d82265e88dbc", "type": "electric_scooter", "is_reserved": 0, "lon": -77.03679433333333}, {"fusion_lat": 0.0, "name": "0e48830e89d125e09a2ea8739696d57f", "is_disabled": 0, "rental_uris": {"android": "https://dc.lft.to/lastmile_qr_scan", "ios": "https://dc.lft.to/lastmile_qr_scan"}, "fusion_lon": 0.0, "lat": 38.96015166666667, "bike_id": "0e48830e89d125e09a2ea8739696d57f", "type": "electric_scooter", "is_reserved": 0, "lon": -77.019803}, {"fusion_lat": 0.0, "name": "6c7effeacf2c716651412f724690da46", "is_disabled": 0, "rental_uris": {"android": "https://dc.lft.to/lastmile_qr_scan", "ios": "https://dc.lft.to/lastmile_qr_scan"}, "fusion_lon": 0.0, "lat": 38.9179555, "bike_id": "6c7effeacf2c716651412f724690da46", "type": "electric_scooter", "is_reserved": 0, "lon": -77.009278}, {"fusion_lat": 0.0, "name": "843e0f631ddc1821b3fdbadda8315a6a", "is_disabled": 0, "rental_uris": {"android": "https://dc.lft.to/lastmile_qr_scan", "ios": "https://dc.lft.to/lastmile_qr_scan"}, "fusion_lon": 0.0, "lat": 38.89067, "bike_id": "843e0f631ddc1821b3fdbadda8315a6a", "type": "electric_scooter", "is_reserved": 0, "lon": -76.94447233333334}, {"fusion_lat": 0.0, "name": "30fa2b74b7285f98ac1bba1eda20bd51", "is_disabled": 0, "rental_uris": {"android": "https://dc.lft.to/lastmile_qr_scan", "ios": "https://dc.lft.to/lastmile_qr_scan"}, "fusion_lon": 0.0, "lat": 38.89741, "bike_id": "30fa2b74b7285f98ac1bba1eda20bd51", "type": "electric_scooter", "is_reserved": 0, "lon": -77.04533583333334}, {"fusion_lat": 0.0, "name": "5ee123c55c4e49ceb15ef9d116401205", "is_disabled": 0, "rental_uris": {"android": "https://dc.lft.to/lastmile_qr_scan", "ios": "https://dc.lft.to/lastmile_qr_scan"}, "fusion_lon": 0.0, "lat": 38.9040675, "bike_id": "5ee123c55c4e49ceb15ef9d116401205", "type": "electric_scooter", "is_reserved": 0, "lon": -77.00576733333334}, {"fusion_lat": 0.0, "name": "b9b655b098a45829df05eb5b396d6c2a", "is_disabled": 0, "rental_uris": {"android": "https://dc.lft.to/lastmile_qr_scan", "ios": "https://dc.lft.to/lastmile_qr_scan"}, "fusion_lon": 0.0, "lat": 38.936599333333334, "bike_id": "b9b655b098a45829df05eb5b396d6c2a", "type": "electric_scooter", "is_reserved": 0, "lon": -77.03683566666666}, {"fusion_lat": 0.0, "name": "1fd96e1a0d1efe138a9629b174dbbfd6", "is_disabled": 0, "rental_uris": {"android": "https://dc.lft.to/lastmile_qr_scan", "ios": "https://dc.lft.to/lastmile_qr_scan"}, "fusion_lon": 0.0, "lat": 38.91330766666667, "bike_id": "1fd96e1a0d1efe138a9629b174dbbfd6", "type": "electric_scooter", "is_reserved": 0, "lon": -77.03654116666667}, {"fusion_lat": 0.0, "name": "2c968d14d801bd501b0f0c9d2a9ed761", "is_disabled": 0, "rental_uris": {"android": "https://dc.lft.to/lastmile_qr_scan", "ios": "https://dc.lft.to/lastmile_qr_scan"}, "fusion_lon": 0.0, "lat": 38.880688166666665, "bike_id": "2c968d14d801bd501b0f0c9d2a9ed761", "type": "electric_scooter", "is_reserved": 0, "lon": -76.985037}, {"fusion_lat": 0.0, "name": "9f681db66b7f4721689af99b58f40594", "is_disabled": 0, "rental_uris": {"android": "https://dc.lft.to/lastmile_qr_scan", "ios": "https://dc.lft.to/lastmile_qr_scan"}, "fusion_lon": 0.0, "lat": 38.942031166666666, "bike_id": "9f681db66b7f4721689af99b58f40594", "type": "electric_scooter", "is_reserved": 0, "lon": -77.02592116666666}, {"fusion_lat": 0.0, "name": "abd01e0b8d9027df8660500ef187536a", "is_disabled": 0, "rental_uris": {"android": "https://dc.lft.to/lastmile_qr_scan", "ios": "https://dc.lft.to/lastmile_qr_scan"}, "fusion_lon": 0.0, "lat": 38.90575416666667, "bike_id": "abd01e0b8d9027df8660500ef187536a", "type": "electric_scooter", "is_reserved": 0, "lon": -77.03360666666667}, {"fusion_lat": 0.0, "name": "70f2e678e7b91e853735c3f80a87f112", "is_disabled": 0, "rental_uris": {"android": "https://dc.lft.to/lastmile_qr_scan", "ios": "https://dc.lft.to/lastmile_qr_scan"}, "fusion_lon": 0.0, "lat": 38.905257, "bike_id": "70f2e678e7b91e853735c3f80a87f112", "type": "electric_scooter", "is_reserved": 0, "lon": -77.066017}, {"fusion_lat": 0.0, "name": "7e7c2424cf80f2c014d4b0e883bec41c", "is_disabled": 0, "rental_uris": {"android": "https://dc.lft.to/lastmile_qr_scan", "ios": "https://dc.lft.to/lastmile_qr_scan"}, "fusion_lon": 0.0, "lat": 38.93415, "bike_id": "7e7c2424cf80f2c014d4b0e883bec41c", "type": "electric_scooter", "is_reserved": 0, "lon": -77.0196475}, {"fusion_lat": 0.0, "name": "1882e36723010a0c66935ebbdbd5fbf8", "is_disabled": 0, "rental_uris": {"android": "https://dc.lft.to/lastmile_qr_scan", "ios": "https://dc.lft.to/lastmile_qr_scan"}, "fusion_lon": 0.0, "lat": 38.879257333333335, "bike_id": "1882e36723010a0c66935ebbdbd5fbf8", "type": "electric_scooter", "is_reserved": 0, "lon": -76.94488083333333}, {"fusion_lat": 0.0, "name": "8fb487bfc13564f6b60a73a05814e7e0", "is_disabled": 0, "rental_uris": {"android": "https://dc.lft.to/lastmile_qr_scan", "ios": "https://dc.lft.to/lastmile_qr_scan"}, "fusion_lon": 0.0, "lat": 38.933029, "bike_id": "8fb487bfc13564f6b60a73a05814e7e0", "type": "electric_scooter", "is_reserved": 0, "lon": -77.0279775}, {"fusion_lat": 0.0, "name": "c75a266e1e23359fcc99f611256f5c2a", "is_disabled": 0, "rental_uris": {"android": "https://dc.lft.to/lastmile_qr_scan", "ios": "https://dc.lft.to/lastmile_qr_scan"}, "fusion_lon": 0.0, "lat": 38.879544, "bike_id": "c75a266e1e23359fcc99f611256f5c2a", "type": "electric_scooter", "is_reserved": 0, "lon": -77.00833166666666}, {"fusion_lat": 0.0, "name": "487cdba1efd52f789487a156d427eb58", "is_disabled": 0, "rental_uris": {"android": "https://dc.lft.to/lastmile_qr_scan", "ios": "https://dc.lft.to/lastmile_qr_scan"}, "fusion_lon": 0.0, "lat": 38.94954166666667, "bike_id": "487cdba1efd52f789487a156d427eb58", "type": "electric_scooter", "is_reserved": 0, "lon": -77.0231375}, {"fusion_lat": 0.0, "name": "0a2a5aeb77a587bd64eb243db63c4a09", "is_disabled": 0, "rental_uris": {"android": "https://dc.lft.to/lastmile_qr_scan", "ios": "https://dc.lft.to/lastmile_qr_scan"}, "fusion_lon": 0.0, "lat": 38.902244333333336, "bike_id": "0a2a5aeb77a587bd64eb243db63c4a09", "type": "electric_scooter", "is_reserved": 0, "lon": -77.03224183333333}, {"fusion_lat": 0.0, "name": "52ce345a5b7abc27dcce0841716e38f2", "is_disabled": 0, "rental_uris": {"android": "https://dc.lft.to/lastmile_qr_scan", "ios": "https://dc.lft.to/lastmile_qr_scan"}, "fusion_lon": 0.0, "lat": 38.928777333333336, "bike_id": "52ce345a5b7abc27dcce0841716e38f2", "type": "electric_scooter", "is_reserved": 0, "lon": -77.03297716666667}, {"fusion_lat": 0.0, "name": "e5834eae236b4ab599314ac356e6c955", "is_disabled": 0, "rental_uris": {"android": "https://dc.lft.to/lastmile_qr_scan", "ios": "https://dc.lft.to/lastmile_qr_scan"}, "fusion_lon": 0.0, "lat": 38.9062515, "bike_id": "e5834eae236b4ab599314ac356e6c955", "type": "electric_scooter", "is_reserved": 0, "lon": -77.03319383333333}, {"fusion_lat": 0.0, "name": "5b8fac1407c65f7a607193bb4126c793", "is_disabled": 0, "rental_uris": {"android": "https://dc.lft.to/lastmile_qr_scan", "ios": "https://dc.lft.to/lastmile_qr_scan"}, "fusion_lon": 0.0, "lat": 38.919450833333336, "bike_id": "5b8fac1407c65f7a607193bb4126c793", "type": "electric_scooter", "is_reserved": 0, "lon": -77.03946566666667}, {"fusion_lat": 0.0, "name": "2c54e11d167f76124e450d7fcb192911", "is_disabled": 0, "rental_uris": {"android": "https://dc.lft.to/lastmile_qr_scan", "ios": "https://dc.lft.to/lastmile_qr_scan"}, "fusion_lon": 0.0, "lat": 38.96236716666667, "bike_id": "2c54e11d167f76124e450d7fcb192911", "type": "electric_bike", "is_reserved": 0, "lon": -76.92759016666666}, {"fusion_lat": 0.0, "name": "219da98d2167fcb28a5adc376f7858db", "is_disabled": 0, "rental_uris": {"android": "https://dc.lft.to/lastmile_qr_scan", "ios": "https://dc.lft.to/lastmile_qr_scan"}, "fusion_lon": 0.0, "lat": 38.95693266666667, "bike_id": "219da98d2167fcb28a5adc376f7858db", "type": "electric_scooter", "is_reserved": 0, "lon": -77.03252783333333}, {"fusion_lat": 0.0, "name": "847ac0f94131547826145e46ad558919", "is_disabled": 0, "rental_uris": {"android": "https://dc.lft.to/lastmile_qr_scan", "ios": "https://dc.lft.to/lastmile_qr_scan"}, "fusion_lon": 0.0, "lat": 38.866837833333335, "bike_id": "847ac0f94131547826145e46ad558919", "type": "electric_bike", "is_reserved": 0, "lon": -76.98235166666667}, {"fusion_lat": 0.0, "name": "25b24e6e8527410e7a17c85cd21614fd", "is_disabled": 0, "rental_uris": {"android": "https://dc.lft.to/lastmile_qr_scan", "ios": "https://dc.lft.to/lastmile_qr_scan"}, "fusion_lon": 0.0, "lat": 38.915658666666666, "bike_id": "25b24e6e8527410e7a17c85cd21614fd", "type": "electric_scooter", "is_reserved": 0, "lon": -77.031498}, {"fusion_lat": 0.0, "name": "6ede690d2d6fd3101d55d413bc973adf", "is_disabled": 0, "rental_uris": {"android": "https://dc.lft.to/lastmile_qr_scan", "ios": "https://dc.lft.to/lastmile_qr_scan"}, "fusion_lon": 0.0, "lat": 38.847577333333334, "bike_id": "6ede690d2d6fd3101d55d413bc973adf", "type": "electric_scooter", "is_reserved": 0, "lon": -76.99501583333333}, {"fusion_lat": 0.0, "name": "04eeb6ea1fac794662b9883927bc7e70", "is_disabled": 0, "rental_uris": {"android": "https://dc.lft.to/lastmile_qr_scan", "ios": "https://dc.lft.to/lastmile_qr_scan"}, "fusion_lon": 0.0, "lat": 38.9070325, "bike_id": "04eeb6ea1fac794662b9883927bc7e70", "type": "electric_scooter", "is_reserved": 0, "lon": -77.03721416666667}, {"fusion_lat": 0.0, "name": "e8d8f2150fbea48bb7c86fc674cc2cc1", "is_disabled": 0, "rental_uris": {"android": "https://dc.lft.to/lastmile_qr_scan", "ios": "https://dc.lft.to/lastmile_qr_scan"}, "fusion_lon": 0.0, "lat": 38.923997666666665, "bike_id": "e8d8f2150fbea48bb7c86fc674cc2cc1", "type": "electric_scooter", "is_reserved": 0, "lon": -77.02523233333334}, {"fusion_lat": 0.0, "name": "62209f0537033460f23e780358d4bd1f", "is_disabled": 0, "rental_uris": {"android": "https://dc.lft.to/lastmile_qr_scan", "ios": "https://dc.lft.to/lastmile_qr_scan"}, "fusion_lon": 0.0, "lat": 38.91490183333333, "bike_id": "62209f0537033460f23e780358d4bd1f", "type": "electric_scooter", "is_reserved": 0, "lon": -77.01325883333334}, {"fusion_lat": 0.0, "name": "8599e3c2e2e7ca32c767e85314ea2a58", "is_disabled": 0, "rental_uris": {"android": "https://dc.lft.to/lastmile_qr_scan", "ios": "https://dc.lft.to/lastmile_qr_scan"}, "fusion_lon": 0.0, "lat": 38.90527516666667, "bike_id": "8599e3c2e2e7ca32c767e85314ea2a58", "type": "electric_scooter", "is_reserved": 0, "lon": -77.06451283333334}, {"fusion_lat": 0.0, "name": "66f1583c28bdf41ea58bf4f2bb102885", "is_disabled": 0, "rental_uris": {"android": "https://dc.lft.to/lastmile_qr_scan", "ios": "https://dc.lft.to/lastmile_qr_scan"}, "fusion_lon": 0.0, "lat": 38.92462883333334, "bike_id": "66f1583c28bdf41ea58bf4f2bb102885", "type": "electric_scooter", "is_reserved": 0, "lon": -77.03633016666667}, {"fusion_lat": 0.0, "name": "8ea58cf7571f06acd81c3cb6e97e13ed", "is_disabled": 0, "rental_uris": {"android": "https://dc.lft.to/lastmile_qr_scan", "ios": "https://dc.lft.to/lastmile_qr_scan"}, "fusion_lon": 0.0, "lat": 38.90144216666667, "bike_id": "8ea58cf7571f06acd81c3cb6e97e13ed", "type": "electric_scooter", "is_reserved": 0, "lon": -76.998418}, {"fusion_lat": 0.0, "name": "d93ea912b6458cc75d3a97798b0d0cd4", "is_disabled": 0, "rental_uris": {"android": "https://dc.lft.to/lastmile_qr_scan", "ios": "https://dc.lft.to/lastmile_qr_scan"}, "fusion_lon": 0.0, "lat": 38.853555666666665, "bike_id": "d93ea912b6458cc75d3a97798b0d0cd4", "type": "electric_bike", "is_reserved": 0, "lon": -77.13467016666667}, {"fusion_lat": 0.0, "name": "244f0f69eeb6a19dbd0563da7f2fe912", "is_disabled": 0, "rental_uris": {"android": "https://dc.lft.to/lastmile_qr_scan", "ios": "https://dc.lft.to/lastmile_qr_scan"}, "fusion_lon": 0.0, "lat": 38.92162, "bike_id": "244f0f69eeb6a19dbd0563da7f2fe912", "type": "electric_scooter", "is_reserved": 0, "lon": -77.03392066666666}, {"fusion_lat": 0.0, "name": "0dae7b86cf73e781c5c35f54ca027b7f", "is_disabled": 0, "rental_uris": {"android": "https://dc.lft.to/lastmile_qr_scan", "ios": "https://dc.lft.to/lastmile_qr_scan"}, "fusion_lon": 0.0, "lat": 38.91675216666667, "bike_id": "0dae7b86cf73e781c5c35f54ca027b7f", "type": "electric_scooter", "is_reserved": 0, "lon": -77.02722216666666}, {"fusion_lat": 0.0, "name": "55e0da81027059af6b557f87bc665d1b", "is_disabled": 0, "rental_uris": {"android": "https://dc.lft.to/lastmile_qr_scan", "ios": "https://dc.lft.to/lastmile_qr_scan"}, "fusion_lon": 0.0, "lat": 38.93070433333333, "bike_id": "55e0da81027059af6b557f87bc665d1b", "type": "electric_scooter", "is_reserved": 0, "lon": -77.02977883333334}, {"fusion_lat": 0.0, "name": "f73ba470f1948a923e6759ca3be88651", "is_disabled": 0, "rental_uris": {"android": "https://dc.lft.to/lastmile_qr_scan", "ios": "https://dc.lft.to/lastmile_qr_scan"}, "fusion_lon": 0.0, "lat": 38.906164833333335, "bike_id": "f73ba470f1948a923e6759ca3be88651", "type": "electric_scooter", "is_reserved": 0, "lon": -77.04113633333333}, {"fusion_lat": 0.0, "name": "bdcb2edf57415c4ca5c23e6d3d8c7dbe", "is_disabled": 0, "rental_uris": {"android": "https://dc.lft.to/lastmile_qr_scan", "ios": "https://dc.lft.to/lastmile_qr_scan"}, "fusion_lon": 0.0, "lat": 38.895112, "bike_id": "bdcb2edf57415c4ca5c23e6d3d8c7dbe", "type": "electric_scooter", "is_reserved": 0, "lon": -77.0111115}, {"fusion_lat": 0.0, "name": "933575a162b11b7a331f9c1e7223cd5b", "is_disabled": 0, "rental_uris": {"android": "https://dc.lft.to/lastmile_qr_scan", "ios": "https://dc.lft.to/lastmile_qr_scan"}, "fusion_lon": 0.0, "lat": 38.930490166666665, "bike_id": "933575a162b11b7a331f9c1e7223cd5b", "type": "electric_scooter", "is_reserved": 0, "lon": -77.0335585}, {"fusion_lat": 0.0, "name": "cd8c7e2dc8ac9bd0716f1c275b883c60", "is_disabled": 0, "rental_uris": {"android": "https://dc.lft.to/lastmile_qr_scan", "ios": "https://dc.lft.to/lastmile_qr_scan"}, "fusion_lon": 0.0, "lat": 38.857974, "bike_id": "cd8c7e2dc8ac9bd0716f1c275b883c60", "type": "electric_bike", "is_reserved": 0, "lon": -77.12016033333333}, {"fusion_lat": 0.0, "name": "074617a0ee238ff19cd175a46116a620", "is_disabled": 0, "rental_uris": {"android": "https://dc.lft.to/lastmile_qr_scan", "ios": "https://dc.lft.to/lastmile_qr_scan"}, "fusion_lon": 0.0, "lat": 38.89479683333333, "bike_id": "074617a0ee238ff19cd175a46116a620", "type": "electric_scooter", "is_reserved": 0, "lon": -77.02687516666667}, {"fusion_lat": 0.0, "name": "918f5bf32fda5585809e8a5611c28d5a", "is_disabled": 0, "rental_uris": {"android": "https://dc.lft.to/lastmile_qr_scan", "ios": "https://dc.lft.to/lastmile_qr_scan"}, "fusion_lon": 0.0, "lat": 38.93569033333333, "bike_id": "918f5bf32fda5585809e8a5611c28d5a", "type": "electric_scooter", "is_reserved": 0, "lon": -77.0348075}, {"fusion_lat": 0.0, "name": "967762d68a51e33f69a6f646511141a7", "is_disabled": 0, "rental_uris": {"android": "https://dc.lft.to/lastmile_qr_scan", "ios": "https://dc.lft.to/lastmile_qr_scan"}, "fusion_lon": 0.0, "lat": 38.862669833333335, "bike_id": "967762d68a51e33f69a6f646511141a7", "type": "electric_bike", "is_reserved": 0, "lon": -76.98349}, {"fusion_lat": 0.0, "name": "2f604037d1724cc24b32a1ee4443bb48", "is_disabled": 0, "rental_uris": {"android": "https://dc.lft.to/lastmile_qr_scan", "ios": "https://dc.lft.to/lastmile_qr_scan"}, "fusion_lon": 0.0, "lat": 38.902411, "bike_id": "2f604037d1724cc24b32a1ee4443bb48", "type": "electric_scooter", "is_reserved": 0, "lon": -77.01923766666667}, {"fusion_lat": 0.0, "name": "eed429e037154c2a3e6ad01bfeef0bd4", "is_disabled": 0, "rental_uris": {"android": "https://dc.lft.to/lastmile_qr_scan", "ios": "https://dc.lft.to/lastmile_qr_scan"}, "fusion_lon": 0.0, "lat": 38.94922016666666, "bike_id": "eed429e037154c2a3e6ad01bfeef0bd4", "type": "electric_bike", "is_reserved": 0, "lon": -77.00794133333333}, {"fusion_lat": 0.0, "name": "435f836026da752554da124b3622d26d", "is_disabled": 0, "rental_uris": {"android": "https://dc.lft.to/lastmile_qr_scan", "ios": "https://dc.lft.to/lastmile_qr_scan"}, "fusion_lon": 0.0, "lat": 38.89971633333333, "bike_id": "435f836026da752554da124b3622d26d", "type": "electric_scooter", "is_reserved": 0, "lon": -77.0150465}, {"fusion_lat": 0.0, "name": "84b0f99e0c959359560264712d500306", "is_disabled": 0, "rental_uris": {"android": "https://dc.lft.to/lastmile_qr_scan", "ios": "https://dc.lft.to/lastmile_qr_scan"}, "fusion_lon": 0.0, "lat": 38.95875083333333, "bike_id": "84b0f99e0c959359560264712d500306", "type": "electric_bike", "is_reserved": 0, "lon": -76.9705855}, {"fusion_lat": 0.0, "name": "277d7a0c30a36456e1982be6cb1aeefd", "is_disabled": 0, "rental_uris": {"android": "https://dc.lft.to/lastmile_qr_scan", "ios": "https://dc.lft.to/lastmile_qr_scan"}, "fusion_lon": 0.0, "lat": 38.919859333333335, "bike_id": "277d7a0c30a36456e1982be6cb1aeefd", "type": "electric_scooter", "is_reserved": 0, "lon": -77.0332985}, {"fusion_lat": 0.0, "name": "d4ca86c3477c11b2a9d145cf02b3c682", "is_disabled": 0, "rental_uris": {"android": "https://dc.lft.to/lastmile_qr_scan", "ios": "https://dc.lft.to/lastmile_qr_scan"}, "fusion_lon": 0.0, "lat": 38.8998165, "bike_id": "d4ca86c3477c11b2a9d145cf02b3c682", "type": "electric_scooter", "is_reserved": 0, "lon": -77.03343466666666}, {"fusion_lat": 0.0, "name": "206f364122fe99e55ba99539b2117976", "is_disabled": 0, "rental_uris": {"android": "https://dc.lft.to/lastmile_qr_scan", "ios": "https://dc.lft.to/lastmile_qr_scan"}, "fusion_lon": 0.0, "lat": 38.92344933333333, "bike_id": "206f364122fe99e55ba99539b2117976", "type": "electric_scooter", "is_reserved": 0, "lon": -77.03531666666667}, {"fusion_lat": 0.0, "name": "4f9d4403516a74e89181ed29f5a1a202", "is_disabled": 0, "rental_uris": {"android": "https://dc.lft.to/lastmile_qr_scan", "ios": "https://dc.lft.to/lastmile_qr_scan"}, "fusion_lon": 0.0, "lat": 38.936097, "bike_id": "4f9d4403516a74e89181ed29f5a1a202", "type": "electric_scooter", "is_reserved": 0, "lon": -77.0229795}, {"fusion_lat": 0.0, "name": "015f10b9b1e798de755d1794225a8830", "is_disabled": 0, "rental_uris": {"android": "https://dc.lft.to/lastmile_qr_scan", "ios": "https://dc.lft.to/lastmile_qr_scan"}, "fusion_lon": 0.0, "lat": 38.95637966666666, "bike_id": "015f10b9b1e798de755d1794225a8830", "type": "electric_scooter", "is_reserved": 0, "lon": -77.03304483333334}, {"fusion_lat": 0.0, "name": "43bac9dd1dadc6b803d4572fd5145d71", "is_disabled": 0, "rental_uris": {"android": "https://dc.lft.to/lastmile_qr_scan", "ios": "https://dc.lft.to/lastmile_qr_scan"}, "fusion_lon": 0.0, "lat": 38.9062775, "bike_id": "43bac9dd1dadc6b803d4572fd5145d71", "type": "electric_scooter", "is_reserved": 0, "lon": -77.029842}, {"fusion_lat": 0.0, "name": "87abd9871cb71e6bf4d5c72e25e28388", "is_disabled": 0, "rental_uris": {"android": "https://dc.lft.to/lastmile_qr_scan", "ios": "https://dc.lft.to/lastmile_qr_scan"}, "fusion_lon": 0.0, "lat": 38.925683666666664, "bike_id": "87abd9871cb71e6bf4d5c72e25e28388", "type": "electric_scooter", "is_reserved": 0, "lon": -77.0227535}, {"fusion_lat": 0.0, "name": "0b0ce3c509c965f87e006d90263a2ea6", "is_disabled": 0, "rental_uris": {"android": "https://dc.lft.to/lastmile_qr_scan", "ios": "https://dc.lft.to/lastmile_qr_scan"}, "fusion_lon": 0.0, "lat": 38.9355175, "bike_id": "0b0ce3c509c965f87e006d90263a2ea6", "type": "electric_scooter", "is_reserved": 0, "lon": -77.0346505}, {"fusion_lat": 0.0, "name": "d944c523e14bf85cb456921b3fb3d995", "is_disabled": 0, "rental_uris": {"android": "https://dc.lft.to/lastmile_qr_scan", "ios": "https://dc.lft.to/lastmile_qr_scan"}, "fusion_lon": 0.0, "lat": 39.070569166666665, "bike_id": "d944c523e14bf85cb456921b3fb3d995", "type": "electric_bike", "is_reserved": 0, "lon": -77.11479883333334}, {"fusion_lat": 0.0, "name": "1bc6d93a971a0b24b795ec573a15c1cc", "is_disabled": 0, "rental_uris": {"android": "https://dc.lft.to/lastmile_qr_scan", "ios": "https://dc.lft.to/lastmile_qr_scan"}, "fusion_lon": 0.0, "lat": 38.94862333333333, "bike_id": "1bc6d93a971a0b24b795ec573a15c1cc", "type": "electric_scooter", "is_reserved": 0, "lon": -77.025698}, {"fusion_lat": 0.0, "name": "f05c87ff5a5d3fad02925fe9dbacdb9b", "is_disabled": 0, "rental_uris": {"android": "https://dc.lft.to/lastmile_qr_scan", "ios": "https://dc.lft.to/lastmile_qr_scan"}, "fusion_lon": 0.0, "lat": 38.883003333333335, "bike_id": "f05c87ff5a5d3fad02925fe9dbacdb9b", "type": "electric_scooter", "is_reserved": 0, "lon": -76.94853566666667}, {"fusion_lat": 0.0, "name": "d3a9a9cf005cc58c1bf9d4219d1bf541", "is_disabled": 0, "rental_uris": {"android": "https://dc.lft.to/lastmile_qr_scan", "ios": "https://dc.lft.to/lastmile_qr_scan"}, "fusion_lon": 0.0, "lat": 38.854207, "bike_id": "d3a9a9cf005cc58c1bf9d4219d1bf541", "type": "electric_bike", "is_reserved": 0, "lon": -77.12077383333333}, {"fusion_lat": 0.0, "name": "5413cf3b74791cb4529b35cda8319f6c", "is_disabled": 0, "rental_uris": {"android": "https://dc.lft.to/lastmile_qr_scan", "ios": "https://dc.lft.to/lastmile_qr_scan"}, "fusion_lon": 0.0, "lat": 38.912569166666664, "bike_id": "5413cf3b74791cb4529b35cda8319f6c", "type": "electric_scooter", "is_reserved": 0, "lon": -77.00624966666666}, {"fusion_lat": 0.0, "name": "cd061e653edab75674dbab29537faf46", "is_disabled": 0, "rental_uris": {"android": "https://dc.lft.to/lastmile_qr_scan", "ios": "https://dc.lft.to/lastmile_qr_scan"}, "fusion_lon": 0.0, "lat": 38.92087883333333, "bike_id": "cd061e653edab75674dbab29537faf46", "type": "electric_scooter", "is_reserved": 0, "lon": -76.99448433333333}, {"fusion_lat": 0.0, "name": "dacc934091a2319c44a40b7822dbfb0a", "is_disabled": 0, "rental_uris": {"android": "https://dc.lft.to/lastmile_qr_scan", "ios": "https://dc.lft.to/lastmile_qr_scan"}, "fusion_lon": 0.0, "lat": 38.924245166666665, "bike_id": "dacc934091a2319c44a40b7822dbfb0a", "type": "electric_scooter", "is_reserved": 0, "lon": -77.0254535}, {"fusion_lat": 0.0, "name": "a5f0949b418aa646283a591d49b3c678", "is_disabled": 0, "rental_uris": {"android": "https://dc.lft.to/lastmile_qr_scan", "ios": "https://dc.lft.to/lastmile_qr_scan"}, "fusion_lon": 0.0, "lat": 38.93582216666667, "bike_id": "a5f0949b418aa646283a591d49b3c678", "type": "electric_scooter", "is_reserved": 0, "lon": -77.028476}, {"fusion_lat": 0.0, "name": "95bae0380a4ce697908103ab5e4441e4", "is_disabled": 0, "rental_uris": {"android": "https://dc.lft.to/lastmile_qr_scan", "ios": "https://dc.lft.to/lastmile_qr_scan"}, "fusion_lon": 0.0, "lat": 38.952229833333334, "bike_id": "95bae0380a4ce697908103ab5e4441e4", "type": "electric_scooter", "is_reserved": 0, "lon": -77.082167}, {"fusion_lat": 0.0, "name": "3e2e494beca49a7032aac1a587739750", "is_disabled": 0, "rental_uris": {"android": "https://dc.lft.to/lastmile_qr_scan", "ios": "https://dc.lft.to/lastmile_qr_scan"}, "fusion_lon": 0.0, "lat": 38.915997833333336, "bike_id": "3e2e494beca49a7032aac1a587739750", "type": "electric_scooter", "is_reserved": 0, "lon": -77.03211733333333}, {"fusion_lat": 0.0, "name": "7f7a358aa68acb573e8e3eeef4f10677", "is_disabled": 0, "rental_uris": {"android": "https://dc.lft.to/lastmile_qr_scan", "ios": "https://dc.lft.to/lastmile_qr_scan"}, "fusion_lon": 0.0, "lat": 38.88226433333333, "bike_id": "7f7a358aa68acb573e8e3eeef4f10677", "type": "electric_scooter", "is_reserved": 0, "lon": -77.029378}, {"fusion_lat": 0.0, "name": "e5fdcff67c1f441262bea0d86f13e262", "is_disabled": 0, "rental_uris": {"android": "https://dc.lft.to/lastmile_qr_scan", "ios": "https://dc.lft.to/lastmile_qr_scan"}, "fusion_lon": 0.0, "lat": 38.92001283333333, "bike_id": "e5fdcff67c1f441262bea0d86f13e262", "type": "electric_scooter", "is_reserved": 0, "lon": -77.07192033333334}, {"fusion_lat": 0.0, "name": "fbc5b9899ad62dd3438e58662f39f49e", "is_disabled": 0, "rental_uris": {"android": "https://dc.lft.to/lastmile_qr_scan", "ios": "https://dc.lft.to/lastmile_qr_scan"}, "fusion_lon": 0.0, "lat": 38.9197345, "bike_id": "fbc5b9899ad62dd3438e58662f39f49e", "type": "electric_scooter", "is_reserved": 0, "lon": -77.071037}, {"fusion_lat": 0.0, "name": "dcc6c36adc446df00c77efb71151f35f", "is_disabled": 0, "rental_uris": {"android": "https://dc.lft.to/lastmile_qr_scan", "ios": "https://dc.lft.to/lastmile_qr_scan"}, "fusion_lon": 0.0, "lat": 38.90411016666667, "bike_id": "dcc6c36adc446df00c77efb71151f35f", "type": "electric_scooter", "is_reserved": 0, "lon": -77.050274}, {"fusion_lat": 0.0, "name": "1576b94038c30306cf9654296ba4d32c", "is_disabled": 0, "rental_uris": {"android": "https://dc.lft.to/lastmile_qr_scan", "ios": "https://dc.lft.to/lastmile_qr_scan"}, "fusion_lon": 0.0, "lat": 38.93704833333334, "bike_id": "1576b94038c30306cf9654296ba4d32c", "type": "electric_scooter", "is_reserved": 0, "lon": -77.060986}, {"fusion_lat": 0.0, "name": "ac95ed5f25d694ef0b77b9ebad46e1af", "is_disabled": 0, "rental_uris": {"android": "https://dc.lft.to/lastmile_qr_scan", "ios": "https://dc.lft.to/lastmile_qr_scan"}, "fusion_lon": 0.0, "lat": 38.93517466666667, "bike_id": "ac95ed5f25d694ef0b77b9ebad46e1af", "type": "electric_scooter", "is_reserved": 0, "lon": -77.03345933333334}, {"fusion_lat": 0.0, "name": "3f02ca43a2a07003f7c8362bd94b4767", "is_disabled": 0, "rental_uris": {"android": "https://dc.lft.to/lastmile_qr_scan", "ios": "https://dc.lft.to/lastmile_qr_scan"}, "fusion_lon": 0.0, "lat": 38.918256166666666, "bike_id": "3f02ca43a2a07003f7c8362bd94b4767", "type": "electric_scooter", "is_reserved": 0, "lon": -77.0451225}, {"fusion_lat": 0.0, "name": "4bbc8a7e8f6a8285949d51472aad199b", "is_disabled": 0, "rental_uris": {"android": "https://dc.lft.to/lastmile_qr_scan", "ios": "https://dc.lft.to/lastmile_qr_scan"}, "fusion_lon": 0.0, "lat": 38.908727999999996, "bike_id": "4bbc8a7e8f6a8285949d51472aad199b", "type": "electric_scooter", "is_reserved": 0, "lon": -77.0487345}, {"fusion_lat": 0.0, "name": "48aa594f1ed1b1018b24d0b58692a5d1", "is_disabled": 0, "rental_uris": {"android": "https://dc.lft.to/lastmile_qr_scan", "ios": "https://dc.lft.to/lastmile_qr_scan"}, "fusion_lon": 0.0, "lat": 38.93180733333333, "bike_id": "48aa594f1ed1b1018b24d0b58692a5d1", "type": "electric_scooter", "is_reserved": 0, "lon": -77.03786183333334}, {"fusion_lat": 0.0, "name": "29e800efdd4775ba88f1fc73fefd42f7", "is_disabled": 0, "rental_uris": {"android": "https://dc.lft.to/lastmile_qr_scan", "ios": "https://dc.lft.to/lastmile_qr_scan"}, "fusion_lon": 0.0, "lat": 38.929045333333335, "bike_id": "29e800efdd4775ba88f1fc73fefd42f7", "type": "electric_scooter", "is_reserved": 0, "lon": -77.021423}, {"fusion_lat": 0.0, "name": "d8636ff9ee6446941e5117488fc9de25", "is_disabled": 0, "rental_uris": {"android": "https://dc.lft.to/lastmile_qr_scan", "ios": "https://dc.lft.to/lastmile_qr_scan"}, "fusion_lon": 0.0, "lat": 38.8852155, "bike_id": "d8636ff9ee6446941e5117488fc9de25", "type": "electric_scooter", "is_reserved": 0, "lon": -76.9978045}, {"fusion_lat": 0.0, "name": "a9dbcbebf974429fd57d4aed331c5566", "is_disabled": 0, "rental_uris": {"android": "https://dc.lft.to/lastmile_qr_scan", "ios": "https://dc.lft.to/lastmile_qr_scan"}, "fusion_lon": 0.0, "lat": 38.910465333333335, "bike_id": "a9dbcbebf974429fd57d4aed331c5566", "type": "electric_scooter", "is_reserved": 0, "lon": -77.03945816666666}, {"fusion_lat": 0.0, "name": "7f6ef3b049489a8d5b9adb3440a0bf42", "is_disabled": 0, "rental_uris": {"android": "https://dc.lft.to/lastmile_qr_scan", "ios": "https://dc.lft.to/lastmile_qr_scan"}, "fusion_lon": 0.0, "lat": 38.906693, "bike_id": "7f6ef3b049489a8d5b9adb3440a0bf42", "type": "electric_scooter", "is_reserved": 0, "lon": -77.038674}, {"fusion_lat": 0.0, "name": "c36fc0fc53d89d850926195a54723a06", "is_disabled": 0, "rental_uris": {"android": "https://dc.lft.to/lastmile_qr_scan", "ios": "https://dc.lft.to/lastmile_qr_scan"}, "fusion_lon": 0.0, "lat": 38.9003205, "bike_id": "c36fc0fc53d89d850926195a54723a06", "type": "electric_scooter", "is_reserved": 0, "lon": -76.98462833333333}, {"fusion_lat": 0.0, "name": "e0d2c552e56e97fceb0eded398d60b62", "is_disabled": 0, "rental_uris": {"android": "https://dc.lft.to/lastmile_qr_scan", "ios": "https://dc.lft.to/lastmile_qr_scan"}, "fusion_lon": 0.0, "lat": 38.9004275, "bike_id": "e0d2c552e56e97fceb0eded398d60b62", "type": "electric_scooter", "is_reserved": 0, "lon": -77.03518766666667}, {"fusion_lat": 0.0, "name": "a2c5823efe8fba1c4dd7db08f5129359", "is_disabled": 0, "rental_uris": {"android": "https://dc.lft.to/lastmile_qr_scan", "ios": "https://dc.lft.to/lastmile_qr_scan"}, "fusion_lon": 0.0, "lat": 38.922617333333335, "bike_id": "a2c5823efe8fba1c4dd7db08f5129359", "type": "electric_scooter", "is_reserved": 0, "lon": -77.00915283333333}, {"fusion_lat": 0.0, "name": "0343d14939d7d16f35ddab034ce25e3d", "is_disabled": 0, "rental_uris": {"android": "https://dc.lft.to/lastmile_qr_scan", "ios": "https://dc.lft.to/lastmile_qr_scan"}, "fusion_lon": 0.0, "lat": 38.8969745, "bike_id": "0343d14939d7d16f35ddab034ce25e3d", "type": "electric_scooter", "is_reserved": 0, "lon": -77.04346816666667}, {"fusion_lat": 0.0, "name": "a493587bfca47c9889ebaa4bcc09fb48", "is_disabled": 0, "rental_uris": {"android": "https://dc.lft.to/lastmile_qr_scan", "ios": "https://dc.lft.to/lastmile_qr_scan"}, "fusion_lon": 0.0, "lat": 38.831629, "bike_id": "a493587bfca47c9889ebaa4bcc09fb48", "type": "electric_bike", "is_reserved": 0, "lon": -76.99573066666666}, {"fusion_lat": 0.0, "name": "e5cfffae3c639111ac00c73bbda8c101", "is_disabled": 0, "rental_uris": {"android": "https://dc.lft.to/lastmile_qr_scan", "ios": "https://dc.lft.to/lastmile_qr_scan"}, "fusion_lon": 0.0, "lat": 38.914385833333334, "bike_id": "e5cfffae3c639111ac00c73bbda8c101", "type": "electric_scooter", "is_reserved": 0, "lon": -76.9935675}, {"fusion_lat": 0.0, "name": "5550b769b7ddd63949d12947568c0604", "is_disabled": 0, "rental_uris": {"android": "https://dc.lft.to/lastmile_qr_scan", "ios": "https://dc.lft.to/lastmile_qr_scan"}, "fusion_lon": 0.0, "lat": 38.885133333333336, "bike_id": "5550b769b7ddd63949d12947568c0604", "type": "electric_scooter", "is_reserved": 0, "lon": -77.0111545}, {"fusion_lat": 0.0, "name": "07cd6883bcbfa9c65f76118f886a02da", "is_disabled": 0, "rental_uris": {"android": "https://dc.lft.to/lastmile_qr_scan", "ios": "https://dc.lft.to/lastmile_qr_scan"}, "fusion_lon": 0.0, "lat": 38.781754, "bike_id": "07cd6883bcbfa9c65f76118f886a02da", "type": "electric_bike", "is_reserved": 0, "lon": -77.01437683333333}, {"fusion_lat": 0.0, "name": "ac7d4091677e1a99fa3821617abad9d6", "is_disabled": 0, "rental_uris": {"android": "https://dc.lft.to/lastmile_qr_scan", "ios": "https://dc.lft.to/lastmile_qr_scan"}, "fusion_lon": 0.0, "lat": 38.92961783333333, "bike_id": "ac7d4091677e1a99fa3821617abad9d6", "type": "electric_scooter", "is_reserved": 0, "lon": -76.99172166666666}, {"fusion_lat": 0.0, "name": "da209cb950c8e6e23cce388110d1cc3e", "is_disabled": 0, "rental_uris": {"android": "https://dc.lft.to/lastmile_qr_scan", "ios": "https://dc.lft.to/lastmile_qr_scan"}, "fusion_lon": 0.0, "lat": 38.937748, "bike_id": "da209cb950c8e6e23cce388110d1cc3e", "type": "electric_scooter", "is_reserved": 0, "lon": -77.03263816666667}, {"fusion_lat": 0.0, "name": "318aece33b75f435be6aac95ff9e06ce", "is_disabled": 0, "rental_uris": {"android": "https://dc.lft.to/lastmile_qr_scan", "ios": "https://dc.lft.to/lastmile_qr_scan"}, "fusion_lon": 0.0, "lat": 38.93533166666667, "bike_id": "318aece33b75f435be6aac95ff9e06ce", "type": "electric_scooter", "is_reserved": 0, "lon": -77.04512033333333}, {"fusion_lat": 0.0, "name": "c07a484ce2ceef0896ae95255e388591", "is_disabled": 0, "rental_uris": {"android": "https://dc.lft.to/lastmile_qr_scan", "ios": "https://dc.lft.to/lastmile_qr_scan"}, "fusion_lon": 0.0, "lat": 38.921047, "bike_id": "c07a484ce2ceef0896ae95255e388591", "type": "electric_scooter", "is_reserved": 0, "lon": -77.04696633333333}, {"fusion_lat": 0.0, "name": "df2f661078227b7e276d86667f5c5e37", "is_disabled": 0, "rental_uris": {"android": "https://dc.lft.to/lastmile_qr_scan", "ios": "https://dc.lft.to/lastmile_qr_scan"}, "fusion_lon": 0.0, "lat": 38.88332583333333, "bike_id": "df2f661078227b7e276d86667f5c5e37", "type": "electric_scooter", "is_reserved": 0, "lon": -77.01465533333334}, {"fusion_lat": 0.0, "name": "2505c069fe9327c2b0ad32d042c3a7f2", "is_disabled": 0, "rental_uris": {"android": "https://dc.lft.to/lastmile_qr_scan", "ios": "https://dc.lft.to/lastmile_qr_scan"}, "fusion_lon": 0.0, "lat": 38.925974, "bike_id": "2505c069fe9327c2b0ad32d042c3a7f2", "type": "electric_scooter", "is_reserved": 0, "lon": -77.02475483333333}, {"fusion_lat": 0.0, "name": "d1ac33a05dc5ff70cdb3617a98369e13", "is_disabled": 0, "rental_uris": {"android": "https://dc.lft.to/lastmile_qr_scan", "ios": "https://dc.lft.to/lastmile_qr_scan"}, "fusion_lon": 0.0, "lat": 38.909326666666665, "bike_id": "d1ac33a05dc5ff70cdb3617a98369e13", "type": "electric_scooter", "is_reserved": 0, "lon": -77.06250066666666}, {"fusion_lat": 0.0, "name": "01de440c338a9425c71d0d3f1aa47591", "is_disabled": 0, "rental_uris": {"android": "https://dc.lft.to/lastmile_qr_scan", "ios": "https://dc.lft.to/lastmile_qr_scan"}, "fusion_lon": 0.0, "lat": 38.9035435, "bike_id": "01de440c338a9425c71d0d3f1aa47591", "type": "electric_scooter", "is_reserved": 0, "lon": -76.97472033333334}, {"fusion_lat": 0.0, "name": "78a0e9ef64a749c9025d3f070fb3cfe0", "is_disabled": 0, "rental_uris": {"android": "https://dc.lft.to/lastmile_qr_scan", "ios": "https://dc.lft.to/lastmile_qr_scan"}, "fusion_lon": 0.0, "lat": 38.90476866666667, "bike_id": "78a0e9ef64a749c9025d3f070fb3cfe0", "type": "electric_scooter", "is_reserved": 0, "lon": -77.035529}, {"fusion_lat": 0.0, "name": "9ccbc57e7e347f30f46a1c0d02f5a0b3", "is_disabled": 0, "rental_uris": {"android": "https://dc.lft.to/lastmile_qr_scan", "ios": "https://dc.lft.to/lastmile_qr_scan"}, "fusion_lon": 0.0, "lat": 38.89223666666667, "bike_id": "9ccbc57e7e347f30f46a1c0d02f5a0b3", "type": "electric_scooter", "is_reserved": 0, "lon": -77.03335366666667}, {"fusion_lat": 0.0, "name": "26a2b9e28eae23d453b077e897862246", "is_disabled": 0, "rental_uris": {"android": "https://dc.lft.to/lastmile_qr_scan", "ios": "https://dc.lft.to/lastmile_qr_scan"}, "fusion_lon": 0.0, "lat": 38.93465233333333, "bike_id": "26a2b9e28eae23d453b077e897862246", "type": "electric_scooter", "is_reserved": 0, "lon": -77.034015}, {"fusion_lat": 0.0, "name": "033ce6edd82d962915066568962099fc", "is_disabled": 0, "rental_uris": {"android": "https://dc.lft.to/lastmile_qr_scan", "ios": "https://dc.lft.to/lastmile_qr_scan"}, "fusion_lon": 0.0, "lat": 38.900901833333336, "bike_id": "033ce6edd82d962915066568962099fc", "type": "electric_scooter", "is_reserved": 0, "lon": -77.05053033333333}, {"fusion_lat": 0.0, "name": "be7877388aedc2c7e9daa746e5bc9c3f", "is_disabled": 0, "rental_uris": {"android": "https://dc.lft.to/lastmile_qr_scan", "ios": "https://dc.lft.to/lastmile_qr_scan"}, "fusion_lon": 0.0, "lat": 38.97378333333333, "bike_id": "be7877388aedc2c7e9daa746e5bc9c3f", "type": "electric_scooter", "is_reserved": 0, "lon": -77.012869}, {"fusion_lat": 0.0, "name": "3e8386aa1bcdb1e9699d8e946cf549bf", "is_disabled": 0, "rental_uris": {"android": "https://dc.lft.to/lastmile_qr_scan", "ios": "https://dc.lft.to/lastmile_qr_scan"}, "fusion_lon": 0.0, "lat": 38.938856333333334, "bike_id": "3e8386aa1bcdb1e9699d8e946cf549bf", "type": "electric_scooter", "is_reserved": 0, "lon": -77.02468916666666}, {"fusion_lat": 0.0, "name": "4404cf0199b22cfb537103394260884a", "is_disabled": 0, "rental_uris": {"android": "https://dc.lft.to/lastmile_qr_scan", "ios": "https://dc.lft.to/lastmile_qr_scan"}, "fusion_lon": 0.0, "lat": 38.907325166666666, "bike_id": "4404cf0199b22cfb537103394260884a", "type": "electric_scooter", "is_reserved": 0, "lon": -77.00955433333333}, {"fusion_lat": 0.0, "name": "4bb18e46016ba48ec3edbda7021a866b", "is_disabled": 0, "rental_uris": {"android": "https://dc.lft.to/lastmile_qr_scan", "ios": "https://dc.lft.to/lastmile_qr_scan"}, "fusion_lon": 0.0, "lat": 38.9007945, "bike_id": "4bb18e46016ba48ec3edbda7021a866b", "type": "electric_scooter", "is_reserved": 0, "lon": -77.04939583333334}, {"fusion_lat": 0.0, "name": "a90ac5bd050aa43d20c4cdde3238a0e4", "is_disabled": 0, "rental_uris": {"android": "https://dc.lft.to/lastmile_qr_scan", "ios": "https://dc.lft.to/lastmile_qr_scan"}, "fusion_lon": 0.0, "lat": 38.92909383333333, "bike_id": "a90ac5bd050aa43d20c4cdde3238a0e4", "type": "electric_scooter", "is_reserved": 0, "lon": -77.03744066666667}, {"fusion_lat": 0.0, "name": "d7378a0672821779f2f8d67e7b680159", "is_disabled": 0, "rental_uris": {"android": "https://dc.lft.to/lastmile_qr_scan", "ios": "https://dc.lft.to/lastmile_qr_scan"},