{"data": {"bikes": [{"is_reserved": 0, "type": "electric_scooter", "bike_id": "2ba61625dfb158b2b993949596bf7d0c", "lat": 38.935945333333336, "lon": -77.0336735, "rental_uris": {"android": "https://dc.lft.to/lastmile_qr_scan", "ios": "https://dc.lft.to/lastmile_qr_scan"}, "is_disabled": 0, "fusion_lat": 0.0, "name": "2ba61625dfb158b2b993949596bf7d0c", "fusion_lon": 0.0}, {"is_reserved": 0, "type": "electric_scooter", "bike_id": "a0d7226e98c3a52ddbcc2d28667b072d", "lat": 38.9170595, "lon": -77.040364, "rental_uris": {"android": "https://dc.lft.to/lastmile_qr_scan", "ios": "https://dc.lft.to/lastmile_qr_scan"}, "is_disabled": 0, "fusion_lat": 0.0, "name": "a0d7226e98c3a52ddbcc2d28667b072d", "fusion_lon": 0.0}, {"is_reserved": 0, "type": "electric_scooter", "bike_id": "d90e2b838495300655df15426dc1bf97", "lat": 38.917843500000004, "lon": -77.031743, "rental_uris": {"android": "https://dc.lft.to/lastmile_qr_scan", "ios": "https://dc.lft.to/lastmile_qr_scan"}, "is_disabled": 0, "fusion_lat": 0.0, "name": "d90e2b838495300655df15426dc1bf97", "fusion_lon": 0.0}, {"is_reserved": 0, "type": "electric_scooter", "bike_id": "d096da264e65076e58d821af54564001", "lat": 38.87471933333333, "lon": -77.003358, "rental_uris": {"android": "https://dc.lft.to/lastmile_qr_scan", "ios": "https://dc.lft.to/lastmile_qr_scan"}, "is_disabled": 0, "fusion_lat": 0.0, "name": "d096da264e65076e58d821af54564001", "fusion_lon": 0.0}, {"is_reserved": 0, "type": "electric_scooter", "bike_id": "2a92a13dba6fbb3f272a6160ffd80e88", "lat": 38.91263466666667, "lon": -77.03873833333333, "rental_uris": {"android": "https://dc.lft.to/lastmile_qr_scan", "ios": "https://dc.lft.to/lastmile_qr_scan"}, "is_disabled": 0, "fusion_lat": 0.0, "name": "2a92a13dba6fbb3f272a6160ffd80e88", "fusion_lon": 0.0}, {"is_reserved": 0, "type": "electric_scooter", "bike_id": "eb6bcdf89213c160f8eb3096595941c1", "lat": 38.898985, "lon": -76.97997483333333, "rental_uris": {"android": "https://dc.lft.to/lastmile_qr_scan", "ios": "https://dc.lft.to/lastmile_qr_scan"}, "is_disabled": 0, "fusion_lat": 0.0, "name": "eb6bcdf89213c160f8eb3096595941c1", "fusion_lon": 0.0}, {"is_reserved": 0, "type": "electric_bike", "bike_id": "caff0497b898870908650b86da97ef6d", "lat": 38.97314183333334, "lon": -76.99475966666667, "rental_uris": {"android": "https://dc.lft.to/lastmile_qr_scan", "ios": "https://dc.lft.to/lastmile_qr_scan"}, "is_disabled": 0, "fusion_lat": 0.0, "name": "caff0497b898870908650b86da97ef6d", "fusion_lon": 0.0}, {"is_reserved": 0, "type": "electric_scooter", "bike_id": "1799e817dc676fc4808a4d6c4de3dde5", "lat": 38.8755965, "lon": -77.00602433333333, "rental_uris": {"android": "https://dc.lft.to/lastmile_qr_scan", "ios": "https://dc.lft.to/lastmile_qr_scan"}, "is_disabled": 0, "fusion_lat": 0.0, "name": "1799e817dc676fc4808a4d6c4de3dde5", "fusion_lon": 0.0}, {"is_reserved": 0, "type": "electric_scooter", "bike_id": "811f3cab1a89da3eafa275548c2cd954", "lat": 38.90305383333333, "lon": -76.97650616666667, "rental_uris": {"android": "https://dc.lft.to/lastmile_qr_scan", "ios": "https://dc.lft.to/lastmile_qr_scan"}, "is_disabled": 0, "fusion_lat": 0.0, "name": "811f3cab1a89da3eafa275548c2cd954", "fusion_lon": 0.0}, {"is_reserved": 0, "type": "electric_scooter", "bike_id": "ab1d0ec170454960be9b5ef328a830d5", "lat": 38.900297333333334, "lon": -76.98764616666666, "rental_uris": {"android": "https://dc.lft.to/lastmile_qr_scan", "ios": "https://dc.lft.to/lastmile_qr_scan"}, "is_disabled": 0, "fusion_lat": 0.0, "name": "ab1d0ec170454960be9b5ef328a830d5", "fusion_lon": 0.0}, {"is_reserved": 0, "type": "electric_scooter", "bike_id": "b82dde628cd8a5d587d968bfc962920b", "lat": 38.91144716666667, "lon": -77.01891483333333, "rental_uris": {"android": "https://dc.lft.to/lastmile_qr_scan", "ios": "https://dc.lft.to/lastmile_qr_scan"}, "is_disabled": 0, "fusion_lat": 0.0, "name": "b82dde628cd8a5d587d968bfc962920b", "fusion_lon": 0.0}, {"is_reserved": 0, "type": "electric_scooter", "bike_id": "4d2931200670536df15d27b265b7e9e0", "lat": 38.916904, "lon": -77.003514, "rental_uris": {"android": "https://dc.lft.to/lastmile_qr_scan", "ios": "https://dc.lft.to/lastmile_qr_scan"}, "is_disabled": 0, "fusion_lat": 0.0, "name": "4d2931200670536df15d27b265b7e9e0", "fusion_lon": 0.0}, {"is_reserved": 0, "type": "electric_scooter", "bike_id": "ab214a6a648e66862c0e5debae7030a3", "lat": 38.90025383333333, "lon": -76.98854916666667, "rental_uris": {"android": "https://dc.lft.to/lastmile_qr_scan", "ios": "https://dc.lft.to/lastmile_qr_scan"}, "is_disabled": 0, "fusion_lat": 0.0, "name": "ab214a6a648e66862c0e5debae7030a3", "fusion_lon": 0.0}, {"is_reserved": 0, "type": "electric_scooter", "bike_id": "28b8fae28df48455c64f97c5dc13926d", "lat": 38.8792015, "lon": -77.00244783333333, "rental_uris": {"android": "https://dc.lft.to/lastmile_qr_scan", "ios": "https://dc.lft.to/lastmile_qr_scan"}, "is_disabled": 0, "fusion_lat": 0.0, "name": "28b8fae28df48455c64f97c5dc13926d", "fusion_lon": 0.0}, {"is_reserved": 0, "type": "electric_scooter", "bike_id": "9889fa6d223083f81a53f08e6904d4be", "lat": 38.87651833333334, "lon": -77.00735583333334, "rental_uris": {"android": "https://dc.lft.to/lastmile_qr_scan", "ios": "https://dc.lft.to/lastmile_qr_scan"}, "is_disabled": 0, "fusion_lat": 0.0, "name": "9889fa6d223083f81a53f08e6904d4be", "fusion_lon": 0.0}, {"is_reserved": 0, "type": "electric_scooter", "bike_id": "5c7b8c113adf0de1f4c59910f73c75fe", "lat": 38.897430166666666, "lon": -77.0250465, "rental_uris": {"android": "https://dc.lft.to/lastmile_qr_scan", "ios": "https://dc.lft.to/lastmile_qr_scan"}, "is_disabled": 0, "fusion_lat": 0.0, "name": "5c7b8c113adf0de1f4c59910f73c75fe", "fusion_lon": 0.0}, {"is_reserved": 0, "type": "electric_bike", "bike_id": "fe9066b6342e8dbd8f403f51a5904efd", "lat": 39.038147, "lon": -77.04254883333333, "rental_uris": {"android": "https://dc.lft.to/lastmile_qr_scan", "ios": "https://dc.lft.to/lastmile_qr_scan"}, "is_disabled": 0, "fusion_lat": 0.0, "name": "fe9066b6342e8dbd8f403f51a5904efd", "fusion_lon": 0.0}, {"is_reserved": 0, "type": "electric_scooter", "bike_id": "6197905b93b561e20d618ec066c92544", "lat": 38.906876833333335, "lon": -77.06256583333334, "rental_uris": {"android": "https://dc.lft.to/lastmile_qr_scan", "ios": "https://dc.lft.to/lastmile_qr_scan"}, "is_disabled": 0, "fusion_lat": 0.0, "name": "6197905b93b561e20d618ec066c92544", "fusion_lon": 0.0}, {"is_reserved": 0, "type": "electric_scooter", "bike_id": "0e11f9af4b42f73ffb663695c156b8c3", "lat": 38.9191185, "lon": -77.0134325, "rental_uris": {"android": "https://dc.lft.to/lastmile_qr_scan", "ios": "https://dc.lft.to/lastmile_qr_scan"}, "is_disabled": 0, "fusion_lat": 0.0, "name": "0e11f9af4b42f73ffb663695c156b8c3", "fusion_lon": 0.0}, {"is_reserved": 0, "type": "electric_scooter", "bike_id": "3240c17fd56e23854832a8d6a4977e6b", "lat": 38.917086, "lon": -77.03146083333333, "rental_uris": {"android": "https://dc.lft.to/lastmile_qr_scan", "ios": "https://dc.lft.to/lastmile_qr_scan"}, "is_disabled": 0, "fusion_lat": 0.0, "name": "3240c17fd56e23854832a8d6a4977e6b", "fusion_lon": 0.0}, {"is_reserved": 0, "type": "electric_scooter", "bike_id": "cc20787173829e21ab743edddb543977", "lat": 38.917278833333334, "lon": -77.02384983333333, "rental_uris": {"android": "https://dc.lft.to/lastmile_qr_scan", "ios": "https://dc.lft.to/lastmile_qr_scan"}, "is_disabled": 0, "fusion_lat": 0.0, "name": "cc20787173829e21ab743edddb543977", "fusion_lon": 0.0}, {"is_reserved": 0, "type": "electric_scooter", "bike_id": "89f017bc10fc9875fdf282fb1690d7fc", "lat": 38.92240483333333, "lon": -77.02335216666667, "rental_uris": {"android": "https://dc.lft.to/lastmile_qr_scan", "ios": "https://dc.lft.to/lastmile_qr_scan"}, "is_disabled": 0, "fusion_lat": 0.0, "name": "89f017bc10fc9875fdf282fb1690d7fc", "fusion_lon": 0.0}, {"is_reserved": 0, "type": "electric_scooter", "bike_id": "0d402719d62cba9624357381fc25beb6", "lat": 38.90715866666667, "lon": -77.02716616666666, "rental_uris": {"android": "https://dc.lft.to/lastmile_qr_scan", "ios": "https://dc.lft.to/lastmile_qr_scan"}, "is_disabled": 0, "fusion_lat": 0.0, "name": "0d402719d62cba9624357381fc25beb6", "fusion_lon": 0.0}, {"is_reserved": 0, "type": "electric_scooter", "bike_id": "7957fc066da8d14cf58e7e631304eba9", "lat": 38.899473, "lon": -76.981964, "rental_uris": {"android": "https://dc.lft.to/lastmile_qr_scan", "ios": "https://dc.lft.to/lastmile_qr_scan"}, "is_disabled": 0, "fusion_lat": 0.0, "name": "7957fc066da8d14cf58e7e631304eba9", "fusion_lon": 0.0}, {"is_reserved": 0, "type": "electric_scooter", "bike_id": "8da8a635147178c6e499b7921a9017db", "lat": 38.9609615, "lon": -77.03386583333334, "rental_uris": {"android": "https://dc.lft.to/lastmile_qr_scan", "ios": "https://dc.lft.to/lastmile_qr_scan"}, "is_disabled": 0, "fusion_lat": 0.0, "name": "8da8a635147178c6e499b7921a9017db", "fusion_lon": 0.0}, {"is_reserved": 0, "type": "electric_scooter", "bike_id": "e1ae782e3a7ec68e6397e49a59f577b5", "lat": 38.9268905, "lon": -77.02290016666667, "rental_uris": {"android": "https://dc.lft.to/lastmile_qr_scan", "ios": "https://dc.lft.to/lastmile_qr_scan"}, "is_disabled": 0, "fusion_lat": 0.0, "name": "e1ae782e3a7ec68e6397e49a59f577b5", "fusion_lon": 0.0}, {"is_reserved": 0, "type": "electric_scooter", "bike_id": "f71fa97ee747ec336fcda7bd26e06feb", "lat": 38.883291, "lon": -77.00953016666666, "rental_uris": {"android": "https://dc.lft.to/lastmile_qr_scan", "ios": "https://dc.lft.to/lastmile_qr_scan"}, "is_disabled": 0, "fusion_lat": 0.0, "name": "f71fa97ee747ec336fcda7bd26e06feb", "fusion_lon": 0.0}, {"is_reserved": 0, "type": "electric_scooter", "bike_id": "e63672cc51a1ce1effe677c2d3620c67", "lat": 38.89561583333333, "lon": -77.0110305, "rental_uris": {"android": "https://dc.lft.to/lastmile_qr_scan", "ios": "https://dc.lft.to/lastmile_qr_scan"}, "is_disabled": 0, "fusion_lat": 0.0, "name": "e63672cc51a1ce1effe677c2d3620c67", "fusion_lon": 0.0}, {"is_reserved": 0, "type": "electric_scooter", "bike_id": "dc30a4bff70d46ec3545e6279b517c7b", "lat": 38.9096135, "lon": -77.0341795, "rental_uris": {"android": "https://dc.lft.to/lastmile_qr_scan", "ios": "https://dc.lft.to/lastmile_qr_scan"}, "is_disabled": 0, "fusion_lat": 0.0, "name": "dc30a4bff70d46ec3545e6279b517c7b", "fusion_lon": 0.0}, {"is_reserved": 0, "type": "electric_scooter", "bike_id": "454650e33de1dc51a8664bcb6f732e25", "lat": 38.892222833333335, "lon": -77.032196, "rental_uris": {"android": "https://dc.lft.to/lastmile_qr_scan", "ios": "https://dc.lft.to/lastmile_qr_scan"}, "is_disabled": 0, "fusion_lat": 0.0, "name": "454650e33de1dc51a8664bcb6f732e25", "fusion_lon": 0.0}, {"is_reserved": 0, "type": "electric_scooter", "bike_id": "dcad76551177d9d640ec4ef82c037ad4", "lat": 38.938391333333335, "lon": -77.08537283333334, "rental_uris": {"android": "https://dc.lft.to/lastmile_qr_scan", "ios": "https://dc.lft.to/lastmile_qr_scan"}, "is_disabled": 0, "fusion_lat": 0.0, "name": "dcad76551177d9d640ec4ef82c037ad4", "fusion_lon": 0.0}, {"is_reserved": 0, "type": "electric_scooter", "bike_id": "1edbb88446a763733ae6e359299b2c2c", "lat": 38.9090915, "lon": -77.0440175, "rental_uris": {"android": "https://dc.lft.to/lastmile_qr_scan", "ios": "https://dc.lft.to/lastmile_qr_scan"}, "is_disabled": 0, "fusion_lat": 0.0, "name": "1edbb88446a763733ae6e359299b2c2c", "fusion_lon": 0.0}, {"is_reserved": 0, "type": "electric_scooter", "bike_id": "0dcb248ddad30d2a8527418be710e522", "lat": 38.9037135, "lon": -77.0539505, "rental_uris": {"android": "https://dc.lft.to/lastmile_qr_scan", "ios": "https://dc.lft.to/lastmile_qr_scan"}, "is_disabled": 0, "fusion_lat": 0.0, "name": "0dcb248ddad30d2a8527418be710e522", "fusion_lon": 0.0}, {"is_reserved": 0, "type": "electric_scooter", "bike_id": "4f8ea5f1f4ed02aed6142f84c2160e27", "lat": 38.920849, "lon": -77.0315555, "rental_uris": {"android": "https://dc.lft.to/lastmile_qr_scan", "ios": "https://dc.lft.to/lastmile_qr_scan"}, "is_disabled": 0, "fusion_lat": 0.0, "name": "4f8ea5f1f4ed02aed6142f84c2160e27", "fusion_lon": 0.0}, {"is_reserved": 0, "type": "electric_scooter", "bike_id": "8bca25a9bc7bccafc69a9b50ca9a82d5", "lat": 38.92484733333333, "lon": -77.02274833333334, "rental_uris": {"android": "https://dc.lft.to/lastmile_qr_scan", "ios": "https://dc.lft.to/lastmile_qr_scan"}, "is_disabled": 0, "fusion_lat": 0.0, "name": "8bca25a9bc7bccafc69a9b50ca9a82d5", "fusion_lon": 0.0}, {"is_reserved": 0, "type": "electric_bike", "bike_id": "d73bb178e7934b7df8da37bfb0b613ba", "lat": 38.78401733333333, "lon": -77.1207555, "rental_uris": {"android": "https://dc.lft.to/lastmile_qr_scan", "ios": "https://dc.lft.to/lastmile_qr_scan"}, "is_disabled": 0, "fusion_lat": 0.0, "name": "d73bb178e7934b7df8da37bfb0b613ba", "fusion_lon": 0.0}, {"is_reserved": 0, "type": "electric_scooter", "bike_id": "a2860cda1e0fb0ed67ef998d52cb09ec", "lat": 38.903885333333335, "lon": -77.03164616666666, "rental_uris": {"android": "https://dc.lft.to/lastmile_qr_scan", "ios": "https://dc.lft.to/lastmile_qr_scan"}, "is_disabled": 0, "fusion_lat": 0.0, "name": "a2860cda1e0fb0ed67ef998d52cb09ec", "fusion_lon": 0.0}, {"is_reserved": 0, "type": "electric_scooter", "bike_id": "0449395188a182207a41b9b591f8df38", "lat": 38.913849, "lon": -77.01983833333334, "rental_uris": {"android": "https://dc.lft.to/lastmile_qr_scan", "ios": "https://dc.lft.to/lastmile_qr_scan"}, "is_disabled": 0, "fusion_lat": 0.0, "name": "0449395188a182207a41b9b591f8df38", "fusion_lon": 0.0}, {"is_reserved": 0, "type": "electric_scooter", "bike_id": "1e52b947ed73a82d75b68607b23b5ec0", "lat": 38.93276083333333, "lon": -76.9853125, "rental_uris": {"android": "https://dc.lft.to/lastmile_qr_scan", "ios": "https://dc.lft.to/lastmile_qr_scan"}, "is_disabled": 0, "fusion_lat": 0.0, "name": "1e52b947ed73a82d75b68607b23b5ec0", "fusion_lon": 0.0}, {"is_reserved": 0, "type": "electric_scooter", "bike_id": "41321133f403757be61fa2ed5b1e1c5c", "lat": 38.896665666666664, "lon": -77.04325833333333, "rental_uris": {"android": "https://dc.lft.to/lastmile_qr_scan", "ios": "https://dc.lft.to/lastmile_qr_scan"}, "is_disabled": 0, "fusion_lat": 0.0, "name": "41321133f403757be61fa2ed5b1e1c5c", "fusion_lon": 0.0}, {"is_reserved": 0, "type": "electric_bike", "bike_id": "6a3113fcb3dd74e9db8d7f69cf7c9ac5", "lat": 38.869221, "lon": -76.9595885, "rental_uris": {"android": "https://dc.lft.to/lastmile_qr_scan", "ios": "https://dc.lft.to/lastmile_qr_scan"}, "is_disabled": 0, "fusion_lat": 0.0, "name": "6a3113fcb3dd74e9db8d7f69cf7c9ac5", "fusion_lon": 0.0}, {"is_reserved": 0, "type": "electric_scooter", "bike_id": "057b31391f9cb2d7e4cd6156c6c5838f", "lat": 38.895146, "lon": -76.9920875, "rental_uris": {"android": "https://dc.lft.to/lastmile_qr_scan", "ios": "https://dc.lft.to/lastmile_qr_scan"}, "is_disabled": 0, "fusion_lat": 0.0, "name": "057b31391f9cb2d7e4cd6156c6c5838f", "fusion_lon": 0.0}, {"is_reserved": 0, "type": "electric_scooter", "bike_id": "5858cc78c0ac0b7fb637b96a5094c157", "lat": 38.907215666666666, "lon": -77.02444233333334, "rental_uris": {"android": "https://dc.lft.to/lastmile_qr_scan", "ios": "https://dc.lft.to/lastmile_qr_scan"}, "is_disabled": 0, "fusion_lat": 0.0, "name": "5858cc78c0ac0b7fb637b96a5094c157", "fusion_lon": 0.0}, {"is_reserved": 0, "type": "electric_scooter", "bike_id": "2f598337a147d2e6037f4fa1410bcc19", "lat": 38.91070033333333, "lon": -77.01625066666666, "rental_uris": {"android": "https://dc.lft.to/lastmile_qr_scan", "ios": "https://dc.lft.to/lastmile_qr_scan"}, "is_disabled": 0, "fusion_lat": 0.0, "name": "2f598337a147d2e6037f4fa1410bcc19", "fusion_lon": 0.0}, {"is_reserved": 0, "type": "electric_scooter", "bike_id": "1e5733d021f11e94cb04686cc30fd641", "lat": 38.916164333333334, "lon": -77.04878266666667, "rental_uris": {"android": "https://dc.lft.to/lastmile_qr_scan", "ios": "https://dc.lft.to/lastmile_qr_scan"}, "is_disabled": 0, "fusion_lat": 0.0, "name": "1e5733d021f11e94cb04686cc30fd641", "fusion_lon": 0.0}, {"is_reserved": 0, "type": "electric_scooter", "bike_id": "bc6b7af18c1213f7364e49b2f02ff220", "lat": 38.91984866666667, "lon": -77.03473183333334, "rental_uris": {"android": "https://dc.lft.to/lastmile_qr_scan", "ios": "https://dc.lft.to/lastmile_qr_scan"}, "is_disabled": 0, "fusion_lat": 0.0, "name": "bc6b7af18c1213f7364e49b2f02ff220", "fusion_lon": 0.0}, {"is_reserved": 0, "type": "electric_scooter", "bike_id": "616e0b0665630a37141022cf8fec6edf", "lat": 38.92612583333333, "lon": -77.056527, "rental_uris": {"android": "https://dc.lft.to/lastmile_qr_scan", "ios": "https://dc.lft.to/lastmile_qr_scan"}, "is_disabled": 0, "fusion_lat": 0.0, "name": "616e0b0665630a37141022cf8fec6edf", "fusion_lon": 0.0}, {"is_reserved": 0, "type": "electric_scooter", "bike_id": "44141bcf5aafd11b4553ddc4b273f856", "lat": 38.896356833333336, "lon": -77.03193, "rental_uris": {"android": "https://dc.lft.to/lastmile_qr_scan", "ios": "https://dc.lft.to/lastmile_qr_scan"}, "is_disabled": 0, "fusion_lat": 0.0, "name": "44141bcf5aafd11b4553ddc4b273f856", "fusion_lon": 0.0}, {"is_reserved": 0, "type": "electric_scooter", "bike_id": "e7ca61ab961b27aef0e236b01cc5d19f", "lat": 38.9370105, "lon": -77.05596733333333, "rental_uris": {"android": "https://dc.lft.to/lastmile_qr_scan", "ios": "https://dc.lft.to/lastmile_qr_scan"}, "is_disabled": 0, "fusion_lat": 0.0, "name": "e7ca61ab961b27aef0e236b01cc5d19f", "fusion_lon": 0.0}, {"is_reserved": 0, "type": "electric_bike", "bike_id": "b8f2daed7b1b21b1585ed079e274550e", "lat": 39.0000465, "lon": -76.918038, "rental_uris": {"android": "https://dc.lft.to/lastmile_qr_scan", "ios": "https://dc.lft.to/lastmile_qr_scan"}, "is_disabled": 0, "fusion_lat": 0.0, "name": "b8f2daed7b1b21b1585ed079e274550e", "fusion_lon": 0.0}, {"is_reserved": 0, "type": "electric_scooter", "bike_id": "2a57a0c20bedc455d84567b3d9fd882c", "lat": 38.90393783333333, "lon": -77.03034616666666, "rental_uris": {"android": "https://dc.lft.to/lastmile_qr_scan", "ios": "https://dc.lft.to/lastmile_qr_scan"}, "is_disabled": 0, "fusion_lat": 0.0, "name": "2a57a0c20bedc455d84567b3d9fd882c", "fusion_lon": 0.0}, {"is_reserved": 0, "type": "electric_bike", "bike_id": "2a3482860dc2f3da6dfa76d6c77112dd", "lat": 39.010919666666666, "lon": -77.049611, "rental_uris": {"android": "https://dc.lft.to/lastmile_qr_scan", "ios": "https://dc.lft.to/lastmile_qr_scan"}, "is_disabled": 0, "fusion_lat": 0.0, "name": "2a3482860dc2f3da6dfa76d6c77112dd", "fusion_lon": 0.0}, {"is_reserved": 0, "type": "electric_scooter", "bike_id": "25b3a72615b7b01deeb48221af5324d3", "lat": 38.91698216666666, "lon": -77.02918216666667, "rental_uris": {"android": "https://dc.lft.to/lastmile_qr_scan", "ios": "https://dc.lft.to/lastmile_qr_scan"}, "is_disabled": 0, "fusion_lat": 0.0, "name": "25b3a72615b7b01deeb48221af5324d3", "fusion_lon": 0.0}, {"is_reserved": 0, "type": "electric_bike", "bike_id": "67556ebcd0c27400c96c78c33e495528", "lat": 38.87426466666667, "lon": -77.08566266666666, "rental_uris": {"android": "https://dc.lft.to/lastmile_qr_scan", "ios": "https://dc.lft.to/lastmile_qr_scan"}, "is_disabled": 0, "fusion_lat": 0.0, "name": "67556ebcd0c27400c96c78c33e495528", "fusion_lon": 0.0}, {"is_reserved": 0, "type": "electric_scooter", "bike_id": "7879353113598825d95e62e70b3be36f", "lat": 38.92982816666667, "lon": -77.0378745, "rental_uris": {"android": "https://dc.lft.to/lastmile_qr_scan", "ios": "https://dc.lft.to/lastmile_qr_scan"}, "is_disabled": 0, "fusion_lat": 0.0, "name": "7879353113598825d95e62e70b3be36f", "fusion_lon": 0.0}, {"is_reserved": 0, "type": "electric_scooter", "bike_id": "00a066bdb8eaabd6a75a42a305afab27", "lat": 38.9183335, "lon": -77.0318135, "rental_uris": {"android": "https://dc.lft.to/lastmile_qr_scan", "ios": "https://dc.lft.to/lastmile_qr_scan"}, "is_disabled": 0, "fusion_lat": 0.0, "name": "00a066bdb8eaabd6a75a42a305afab27", "fusion_lon": 0.0}, {"is_reserved": 0, "type": "electric_scooter", "bike_id": "cf1f8b23e46a053a873b7a4b7a2e86f7", "lat": 38.929700833333335, "lon": -77.02341583333333, "rental_uris": {"android": "https://dc.lft.to/lastmile_qr_scan", "ios": "https://dc.lft.to/lastmile_qr_scan"}, "is_disabled": 0, "fusion_lat": 0.0, "name": "cf1f8b23e46a053a873b7a4b7a2e86f7", "fusion_lon": 0.0}, {"is_reserved": 0, "type": "electric_scooter", "bike_id": "c196fc50daa2eeca626ce873fa76267b", "lat": 38.89360416666667, "lon": -76.94102166666667, "rental_uris": {"android": "https://dc.lft.to/lastmile_qr_scan", "ios": "https://dc.lft.to/lastmile_qr_scan"}, "is_disabled": 0, "fusion_lat": 0.0, "name": "c196fc50daa2eeca626ce873fa76267b", "fusion_lon": 0.0}, {"is_reserved": 0, "type": "electric_scooter", "bike_id": "8b53b2602ef1eb02186e818bddd2c83d", "lat": 38.94732416666667, "lon": -77.02458, "rental_uris": {"android": "https://dc.lft.to/lastmile_qr_scan", "ios": "https://dc.lft.to/lastmile_qr_scan"}, "is_disabled": 0, "fusion_lat": 0.0, "name": "8b53b2602ef1eb02186e818bddd2c83d", "fusion_lon": 0.0}, {"is_reserved": 0, "type": "electric_scooter", "bike_id": "85f2fdf64494ab89250b5461902cdb98", "lat": 38.922348666666664, "lon": -77.02125733333334, "rental_uris": {"android": "https://dc.lft.to/lastmile_qr_scan", "ios": "https://dc.lft.to/lastmile_qr_scan"}, "is_disabled": 0, "fusion_lat": 0.0, "name": "85f2fdf64494ab89250b5461902cdb98", "fusion_lon": 0.0}, {"is_reserved": 0, "type": "electric_bike", "bike_id": "85b6b80833c15cae33c0b185a7f1ad35", "lat": 38.951347166666665, "lon": -76.96592766666667, "rental_uris": {"android": "https://dc.lft.to/lastmile_qr_scan", "ios": "https://dc.lft.to/lastmile_qr_scan"}, "is_disabled": 0, "fusion_lat": 0.0, "name": "85b6b80833c15cae33c0b185a7f1ad35", "fusion_lon": 0.0}, {"is_reserved": 0, "type": "electric_scooter", "bike_id": "c734f0b3013201678aa38ee31a852e72", "lat": 38.933682833333336, "lon": -77.05733716666667, "rental_uris": {"android": "https://dc.lft.to/lastmile_qr_scan", "ios": "https://dc.lft.to/lastmile_qr_scan"}, "is_disabled": 0, "fusion_lat": 0.0, "name": "c734f0b3013201678aa38ee31a852e72", "fusion_lon": 0.0}, {"is_reserved": 0, "type": "electric_scooter", "bike_id": "b8c1a8650ac1707a87781cf59a9996fa", "lat": 38.89224016666667, "lon": -77.02310333333334, "rental_uris": {"android": "https://dc.lft.to/lastmile_qr_scan", "ios": "https://dc.lft.to/lastmile_qr_scan"}, "is_disabled": 0, "fusion_lat": 0.0, "name": "b8c1a8650ac1707a87781cf59a9996fa", "fusion_lon": 0.0}, {"is_reserved": 0, "type": "electric_scooter", "bike_id": "c71c1941a167152a9b1fac4864b616ce", "lat": 38.9256545, "lon": -76.97007566666667, "rental_uris": {"android": "https://dc.lft.to/lastmile_qr_scan", "ios": "https://dc.lft.to/lastmile_qr_scan"}, "is_disabled": 0, "fusion_lat": 0.0, "name": "c71c1941a167152a9b1fac4864b616ce", "fusion_lon": 0.0}, {"is_reserved": 0, "type": "electric_scooter", "bike_id": "43365ce0fc53486a38c93cdd40e8c7a8", "lat": 38.93102233333333, "lon": -77.03488233333333, "rental_uris": {"android": "https://dc.lft.to/lastmile_qr_scan", "ios": "https://dc.lft.to/lastmile_qr_scan"}, "is_disabled": 0, "fusion_lat": 0.0, "name": "43365ce0fc53486a38c93cdd40e8c7a8", "fusion_lon": 0.0}, {"is_reserved": 0, "type": "electric_scooter", "bike_id": "3a88cf18688ae8ab776aff22ba81b983", "lat": 38.900344833333335, "lon": -76.99151466666666, "rental_uris": {"android": "https://dc.lft.to/lastmile_qr_scan", "ios": "https://dc.lft.to/lastmile_qr_scan"}, "is_disabled": 0, "fusion_lat": 0.0, "name": "3a88cf18688ae8ab776aff22ba81b983", "fusion_lon": 0.0}, {"is_reserved": 0, "type": "electric_scooter", "bike_id": "259f38baf46ad2b50fa67142d661816e", "lat": 38.911812833333336, "lon": -77.00494883333333, "rental_uris": {"android": "https://dc.lft.to/lastmile_qr_scan", "ios": "https://dc.lft.to/lastmile_qr_scan"}, "is_disabled": 0, "fusion_lat": 0.0, "name": "259f38baf46ad2b50fa67142d661816e", "fusion_lon": 0.0}, {"is_reserved": 0, "type": "electric_scooter", "bike_id": "9966b6d45bb8d7b992800559135d969c", "lat": 38.892289166666664, "lon": -77.0218015, "rental_uris": {"android": "https://dc.lft.to/lastmile_qr_scan", "ios": "https://dc.lft.to/lastmile_qr_scan"}, "is_disabled": 0, "fusion_lat": 0.0, "name": "9966b6d45bb8d7b992800559135d969c", "fusion_lon": 0.0}, {"is_reserved": 0, "type": "electric_scooter", "bike_id": "87d464678146ebe385de07412242890e", "lat": 38.9228285, "lon": -76.99780466666667, "rental_uris": {"android": "https://dc.lft.to/lastmile_qr_scan", "ios": "https://dc.lft.to/lastmile_qr_scan"}, "is_disabled": 0, "fusion_lat": 0.0, "name": "87d464678146ebe385de07412242890e", "fusion_lon": 0.0}, {"is_reserved": 0, "type": "electric_scooter", "bike_id": "fb479d2de91c42da8b04e6babc8ef58c", "lat": 38.8993325, "lon": -77.03207066666667, "rental_uris": {"android": "https://dc.lft.to/lastmile_qr_scan", "ios": "https://dc.lft.to/lastmile_qr_scan"}, "is_disabled": 0, "fusion_lat": 0.0, "name": "fb479d2de91c42da8b04e6babc8ef58c", "fusion_lon": 0.0}, {"is_reserved": 0, "type": "electric_scooter", "bike_id": "859a9d3e0d633bd763903cf50972fbd7", "lat": 38.910698, "lon": -77.01614183333334, "rental_uris": {"android": "https://dc.lft.to/lastmile_qr_scan", "ios": "https://dc.lft.to/lastmile_qr_scan"}, "is_disabled": 0, "fusion_lat": 0.0, "name": "859a9d3e0d633bd763903cf50972fbd7", "fusion_lon": 0.0}, {"is_reserved": 0, "type": "electric_scooter", "bike_id": "1a942deb70d560a0fe7ad531b590c583", "lat": 38.9045015, "lon": -76.99618916666667, "rental_uris": {"android": "https://dc.lft.to/lastmile_qr_scan", "ios": "https://dc.lft.to/lastmile_qr_scan"}, "is_disabled": 0, "fusion_lat": 0.0, "name": "1a942deb70d560a0fe7ad531b590c583", "fusion_lon": 0.0}, {"is_reserved": 0, "type": "electric_scooter", "bike_id": "abd1ade0e3079f3e6ce4a26ce4596f9d", "lat": 38.907265, "lon": -77.07027716666667, "rental_uris": {"android": "https://dc.lft.to/lastmile_qr_scan", "ios": "https://dc.lft.to/lastmile_qr_scan"}, "is_disabled": 0, "fusion_lat": 0.0, "name": "abd1ade0e3079f3e6ce4a26ce4596f9d", "fusion_lon": 0.0}, {"is_reserved": 0, "type": "electric_scooter", "bike_id": "b2856b933e2aefdeed59af053d349f47", "lat": 38.85653466666667, "lon": -76.9967115, "rental_uris": {"android": "https://dc.lft.to/lastmile_qr_scan", "ios": "https://dc.lft.to/lastmile_qr_scan"}, "is_disabled": 0, "fusion_lat": 0.0, "name": "b2856b933e2aefdeed59af053d349f47", "fusion_lon": 0.0}, {"is_reserved": 0, "type": "electric_scooter", "bike_id": "29807d45938d64439a6a6d793f6285f4", "lat": 38.90031533333333, "lon": -76.98819266666666, "rental_uris": {"android": "https://dc.lft.to/lastmile_qr_scan", "ios": "https://dc.lft.to/lastmile_qr_scan"}, "is_disabled": 0, "fusion_lat": 0.0, "name": "29807d45938d64439a6a6d793f6285f4", "fusion_lon": 0.0}, {"is_reserved": 0, "type": "electric_scooter", "bike_id": "be434166ebcd3385fcfdfdffcaa1d3db", "lat": 38.88986583333333, "lon": -77.0031355, "rental_uris": {"android": "https://dc.lft.to/lastmile_qr_scan", "ios": "https://dc.lft.to/lastmile_qr_scan"}, "is_disabled": 0, "fusion_lat": 0.0, "name": "be434166ebcd3385fcfdfdffcaa1d3db", "fusion_lon": 0.0}, {"is_reserved": 0, "type": "electric_scooter", "bike_id": "37f097d195ea787c37a56e8e2be5d331", "lat": 38.87489983333333, "lon": -77.00032316666666, "rental_uris": {"android": "https://dc.lft.to/lastmile_qr_scan", "ios": "https://dc.lft.to/lastmile_qr_scan"}, "is_disabled": 0, "fusion_lat": 0.0, "name": "37f097d195ea787c37a56e8e2be5d331", "fusion_lon": 0.0}, {"is_reserved": 0, "type": "electric_scooter", "bike_id": "087f43040a401a5dc04dd1e5bb06b6eb", "lat": 38.9350615, "lon": -77.04284283333334, "rental_uris": {"android": "https://dc.lft.to/lastmile_qr_scan", "ios": "https://dc.lft.to/lastmile_qr_scan"}, "is_disabled": 0, "fusion_lat": 0.0, "name": "087f43040a401a5dc04dd1e5bb06b6eb", "fusion_lon": 0.0}, {"is_reserved": 0, "type": "electric_scooter", "bike_id": "3c0b560adf37da4f515ba55d0a0f2c44", "lat": 38.931956, "lon": -77.02560016666666, "rental_uris": {"android": "https://dc.lft.to/lastmile_qr_scan", "ios": "https://dc.lft.to/lastmile_qr_scan"}, "is_disabled": 0, "fusion_lat": 0.0, "name": "3c0b560adf37da4f515ba55d0a0f2c44", "fusion_lon": 0.0}, {"is_reserved": 0, "type": "electric_bike", "bike_id": "2474f2735875708d73595db355f53710", "lat": 38.894609333333335, "lon": -77.103612, "rental_uris": {"android": "https://dc.lft.to/lastmile_qr_scan", "ios": "https://dc.lft.to/lastmile_qr_scan"}, "is_disabled": 0, "fusion_lat": 0.0, "name": "2474f2735875708d73595db355f53710", "fusion_lon": 0.0}, {"is_reserved": 0, "type": "electric_scooter", "bike_id": "62d48485b10c0657f0dafc176a3bab49", "lat": 38.90786466666667, "lon": -77.00205616666666, "rental_uris": {"android": "https://dc.lft.to/lastmile_qr_scan", "ios": "https://dc.lft.to/lastmile_qr_scan"}, "is_disabled": 0, "fusion_lat": 0.0, "name": "62d48485b10c0657f0dafc176a3bab49", "fusion_lon": 0.0}, {"is_reserved": 0, "type": "electric_scooter", "bike_id": "fdb123500ffe892964bc153ae859c1b6", "lat": 38.9128075, "lon": -77.07280883333334, "rental_uris": {"android": "https://dc.lft.to/lastmile_qr_scan", "ios": "https://dc.lft.to/lastmile_qr_scan"}, "is_disabled": 0, "fusion_lat": 0.0, "name": "fdb123500ffe892964bc153ae859c1b6", "fusion_lon": 0.0}, {"is_reserved": 0, "type": "electric_scooter", "bike_id": "d9112da4855506c28364e7af82dd044b", "lat": 38.927446833333335, "lon": -77.05355516666667, "rental_uris": {"android": "https://dc.lft.to/lastmile_qr_scan", "ios": "https://dc.lft.to/lastmile_qr_scan"}, "is_disabled": 0, "fusion_lat": 0.0, "name": "d9112da4855506c28364e7af82dd044b", "fusion_lon": 0.0}, {"is_reserved": 0, "type": "electric_scooter", "bike_id": "6631d92dbf38e53b195013ae562b0ed0", "lat": 38.87499583333334, "lon": -77.00329933333333, "rental_uris": {"android": "https://dc.lft.to/lastmile_qr_scan", "ios": "https://dc.lft.to/lastmile_qr_scan"}, "is_disabled": 0, "fusion_lat": 0.0, "name": "6631d92dbf38e53b195013ae562b0ed0", "fusion_lon": 0.0}, {"is_reserved": 0, "type": "electric_scooter", "bike_id": "f417b022a6cd180e1b91b5d634ae2b12", "lat": 38.88451033333333, "lon": -77.024717, "rental_uris": {"android": "https://dc.lft.to/lastmile_qr_scan", "ios": "https://dc.lft.to/lastmile_qr_scan"}, "is_disabled": 0, "fusion_lat": 0.0, "name": "f417b022a6cd180e1b91b5d634ae2b12", "fusion_lon": 0.0}, {"is_reserved": 0, "type": "electric_scooter", "bike_id": "9ff28ef8255075d4322d4c68bb946c2e", "lat": 38.9028185, "lon": -77.036672, "rental_uris": {"android": "https://dc.lft.to/lastmile_qr_scan", "ios": "https://dc.lft.to/lastmile_qr_scan"}, "is_disabled": 0, "fusion_lat": 0.0, "name": "9ff28ef8255075d4322d4c68bb946c2e", "fusion_lon": 0.0}, {"is_reserved": 0, "type": "electric_scooter", "bike_id": "11b1b862343d659f2e55a80ea80ae862", "lat": 38.918236, "lon": -77.02596666666666, "rental_uris": {"android": "https://dc.lft.to/lastmile_qr_scan", "ios": "https://dc.lft.to/lastmile_qr_scan"}, "is_disabled": 0, "fusion_lat": 0.0, "name": "11b1b862343d659f2e55a80ea80ae862", "fusion_lon": 0.0}, {"is_reserved": 0, "type": "electric_scooter", "bike_id": "ee32a0eba2ee7a95ec485497f4660077", "lat": 38.88037083333333, "lon": -77.01981116666667, "rental_uris": {"android": "https://dc.lft.to/lastmile_qr_scan", "ios": "https://dc.lft.to/lastmile_qr_scan"}, "is_disabled": 0, "fusion_lat": 0.0, "name": "ee32a0eba2ee7a95ec485497f4660077", "fusion_lon": 0.0}, {"is_reserved": 0, "type": "electric_scooter", "bike_id": "d57f1d60daeb85007dd390c7a4bc57e0", "lat": 38.92011183333334, "lon": -77.07151566666667, "rental_uris": {"android": "https://dc.lft.to/lastmile_qr_scan", "ios": "https://dc.lft.to/lastmile_qr_scan"}, "is_disabled": 0, "fusion_lat": 0.0, "name": "d57f1d60daeb85007dd390c7a4bc57e0", "fusion_lon": 0.0}, {"is_reserved": 0, "type": "electric_scooter", "bike_id": "7469a90474cd6d3f4dbac690d3d01189", "lat": 38.903972, "lon": -77.03155983333333, "rental_uris": {"android": "https://dc.lft.to/lastmile_qr_scan", "ios": "https://dc.lft.to/lastmile_qr_scan"}, "is_disabled": 0, "fusion_lat": 0.0, "name": "7469a90474cd6d3f4dbac690d3d01189", "fusion_lon": 0.0}, {"is_reserved": 0, "type": "electric_scooter", "bike_id": "cf797677f015475d01d186f6b3cc8952", "lat": 38.9157715, "lon": -77.01998966666666, "rental_uris": {"android": "https://dc.lft.to/lastmile_qr_scan", "ios": "https://dc.lft.to/lastmile_qr_scan"}, "is_disabled": 0, "fusion_lat": 0.0, "name": "cf797677f015475d01d186f6b3cc8952", "fusion_lon": 0.0}, {"is_reserved": 0, "type": "electric_scooter", "bike_id": "d6774720480fb89979ca7615ad381f1d", "lat": 38.92022, "lon": -77.03121133333333, "rental_uris": {"android": "https://dc.lft.to/lastmile_qr_scan", "ios": "https://dc.lft.to/lastmile_qr_scan"}, "is_disabled": 0, "fusion_lat": 0.0, "name": "d6774720480fb89979ca7615ad381f1d", "fusion_lon": 0.0}, {"is_reserved": 0, "type": "electric_scooter", "bike_id": "3e7d9c0183e640c84cb0ebb1ab299978", "lat": 38.91693866666667, "lon": -77.03598966666667, "rental_uris": {"android": "https://dc.lft.to/lastmile_qr_scan", "ios": "https://dc.lft.to/lastmile_qr_scan"}, "is_disabled": 0, "fusion_lat": 0.0, "name": "3e7d9c0183e640c84cb0ebb1ab299978", "fusion_lon": 0.0}, {"is_reserved": 0, "type": "electric_scooter", "bike_id": "2827e30dc5b036322e15f030a6524c61", "lat": 38.91396116666667, "lon": -77.019954, "rental_uris": {"android": "https://dc.lft.to/lastmile_qr_scan", "ios": "https://dc.lft.to/lastmile_qr_scan"}, "is_disabled": 0, "fusion_lat": 0.0, "name": "2827e30dc5b036322e15f030a6524c61", "fusion_lon": 0.0}, {"is_reserved": 0, "type": "electric_scooter", "bike_id": "8738c7e2a36d77377206adf84041d3b3", "lat": 38.901198, "lon": -77.049906, "rental_uris": {"android": "https://dc.lft.to/lastmile_qr_scan", "ios": "https://dc.lft.to/lastmile_qr_scan"}, "is_disabled": 0, "fusion_lat": 0.0, "name": "8738c7e2a36d77377206adf84041d3b3", "fusion_lon": 0.0}, {"is_reserved": 0, "type": "electric_scooter", "bike_id": "e2015c1edd0bc63b1618828d7730325a", "lat": 38.88404966666667, "lon": -77.03048983333333, "rental_uris": {"android": "https://dc.lft.to/lastmile_qr_scan", "ios": "https://dc.lft.to/lastmile_qr_scan"}, "is_disabled": 0, "fusion_lat": 0.0, "name": "e2015c1edd0bc63b1618828d7730325a", "fusion_lon": 0.0}, {"is_reserved": 0, "type": "electric_scooter", "bike_id": "44c4b692912ee4e1e6a7de3633e303d1", "lat": 38.93125666666667, "lon": -77.0230545, "rental_uris": {"android": "https://dc.lft.to/lastmile_qr_scan", "ios": "https://dc.lft.to/lastmile_qr_scan"}, "is_disabled": 0, "fusion_lat": 0.0, "name": "44c4b692912ee4e1e6a7de3633e303d1", "fusion_lon": 0.0}, {"is_reserved": 0, "type": "electric_scooter", "bike_id": "9f8ff3b30dabd1eaa95000c0ccb832e3", "lat": 38.898096333333335, "lon": -77.023714, "rental_uris": {"android": "https://dc.lft.to/lastmile_qr_scan", "ios": "https://dc.lft.to/lastmile_qr_scan"}, "is_disabled": 0, "fusion_lat": 0.0, "name": "9f8ff3b30dabd1eaa95000c0ccb832e3", "fusion_lon": 0.0}, {"is_reserved": 0, "type": "electric_scooter", "bike_id": "713cf4f42956408f921846c218409b29", "lat": 38.960249833333336, "lon": -77.07158116666666, "rental_uris": {"android": "https://dc.lft.to/lastmile_qr_scan", "ios": "https://dc.lft.to/lastmile_qr_scan"}, "is_disabled": 0, "fusion_lat": 0.0, "name": "713cf4f42956408f921846c218409b29", "fusion_lon": 0.0}, {"is_reserved": 0, "type": "electric_bike", "bike_id": "9817b29fae139f1adef8a37f373af503", "lat": 38.8363195, "lon": -77.002816, "rental_uris": {"android": "https://dc.lft.to/lastmile_qr_scan", "ios": "https://dc.lft.to/lastmile_qr_scan"}, "is_disabled": 0, "fusion_lat": 0.0, "name": "9817b29fae139f1adef8a37f373af503", "fusion_lon": 0.0}, {"is_reserved": 0, "type": "electric_scooter", "bike_id": "1497238dcc9ca3501329dcbb2987d2fb", "lat": 38.933527833333336, "lon": -77.03424633333333, "rental_uris": {"android": "https://dc.lft.to/lastmile_qr_scan", "ios": "https://dc.lft.to/lastmile_qr_scan"}, "is_disabled": 0, "fusion_lat": 0.0, "name": "1497238dcc9ca3501329dcbb2987d2fb", "fusion_lon": 0.0}, {"is_reserved": 0, "type": "electric_scooter", "bike_id": "c7dc3a90e7d7fa0834d45381205404a4", "lat": 38.9233045, "lon": -77.05686, "rental_uris": {"android": "https://dc.lft.to/lastmile_qr_scan", "ios": "https://dc.lft.to/lastmile_qr_scan"}, "is_disabled": 0, "fusion_lat": 0.0, "name": "c7dc3a90e7d7fa0834d45381205404a4", "fusion_lon": 0.0}, {"is_reserved": 0, "type": "electric_scooter", "bike_id": "202e8b51eb8d58d30ef235141961f42f", "lat": 38.9191345, "lon": -77.048133, "rental_uris": {"android": "https://dc.lft.to/lastmile_qr_scan", "ios": "https://dc.lft.to/lastmile_qr_scan"}, "is_disabled": 0, "fusion_lat": 0.0, "name": "202e8b51eb8d58d30ef235141961f42f", "fusion_lon": 0.0}, {"is_reserved": 0, "type": "electric_scooter", "bike_id": "ab4a643011e99594b198664f67854f47", "lat": 38.909812, "lon": -77.06459333333333, "rental_uris": {"android": "https://dc.lft.to/lastmile_qr_scan", "ios": "https://dc.lft.to/lastmile_qr_scan"}, "is_disabled": 0, "fusion_lat": 0.0, "name": "ab4a643011e99594b198664f67854f47", "fusion_lon": 0.0}, {"is_reserved": 0, "type": "electric_scooter", "bike_id": "1fb42eb1a367a9cfa3bf91715ae7c810", "lat": 38.911126, "lon": -77.03826566666666, "rental_uris": {"android": "https://dc.lft.to/lastmile_qr_scan", "ios": "https://dc.lft.to/lastmile_qr_scan"}, "is_disabled": 0, "fusion_lat": 0.0, "name": "1fb42eb1a367a9cfa3bf91715ae7c810", "fusion_lon": 0.0}, {"is_reserved": 0, "type": "electric_scooter", "bike_id": "c69b043562f7499d2932cad53464dfa0", "lat": 38.910460666666665, "lon": -77.01512833333334, "rental_uris": {"android": "https://dc.lft.to/lastmile_qr_scan", "ios": "https://dc.lft.to/lastmile_qr_scan"}, "is_disabled": 0, "fusion_lat": 0.0, "name": "c69b043562f7499d2932cad53464dfa0", "fusion_lon": 0.0}, {"is_reserved": 0, "type": "electric_scooter", "bike_id": "9f63fa1ac32b91d182594d1d4c744abf", "lat": 38.949765166666666, "lon": -77.024468, "rental_uris": {"android": "https://dc.lft.to/lastmile_qr_scan", "ios": "https://dc.lft.to/lastmile_qr_scan"}, "is_disabled": 0, "fusion_lat": 0.0, "name": "9f63fa1ac32b91d182594d1d4c744abf", "fusion_lon": 0.0}, {"is_reserved": 0, "type": "electric_bike", "bike_id": "828ea2530a35d3043dcf636b17ac1e16", "lat": 38.95154816666667, "lon": -76.93330916666666, "rental_uris": {"android": "https://dc.lft.to/lastmile_qr_scan", "ios": "https://dc.lft.to/lastmile_qr_scan"}, "is_disabled": 0, "fusion_lat": 0.0, "name": "828ea2530a35d3043dcf636b17ac1e16", "fusion_lon": 0.0}, {"is_reserved": 0, "type": "electric_scooter", "bike_id": "d321029250bc2c9b6be6d89d3521fe7b", "lat": 38.926035, "lon": -77.057035, "rental_uris": {"android": "https://dc.lft.to/lastmile_qr_scan", "ios": "https://dc.lft.to/lastmile_qr_scan"}, "is_disabled": 0, "fusion_lat": 0.0, "name": "d321029250bc2c9b6be6d89d3521fe7b", "fusion_lon": 0.0}, {"is_reserved": 0, "type": "electric_bike", "bike_id": "ab49da4c9b2bf173600b13fa08e75826", "lat": 38.8025685, "lon": -77.12172566666666, "rental_uris": {"android": "https://dc.lft.to/lastmile_qr_scan", "ios": "https://dc.lft.to/lastmile_qr_scan"}, "is_disabled": 0, "fusion_lat": 0.0, "name": "ab49da4c9b2bf173600b13fa08e75826", "fusion_lon": 0.0}, {"is_reserved": 0, "type": "electric_scooter", "bike_id": "63247a1a74be34ec21ee6e5512ab3ce0", "lat": 38.899310166666666, "lon": -77.02683816666666, "rental_uris": {"android": "https://dc.lft.to/lastmile_qr_scan", "ios": "https://dc.lft.to/lastmile_qr_scan"}, "is_disabled": 0, "fusion_lat": 0.0, "name": "63247a1a74be34ec21ee6e5512ab3ce0", "fusion_lon": 0.0}, {"is_reserved": 0, "type": "electric_scooter", "bike_id": "476520f57eb4d3d553005dab1e60a156", "lat": 38.900360666666664, "lon": -77.00203433333333, "rental_uris": {"android": "https://dc.lft.to/lastmile_qr_scan", "ios": "https://dc.lft.to/lastmile_qr_scan"}, "is_disabled": 0, "fusion_lat": 0.0, "name": "476520f57eb4d3d553005dab1e60a156", "fusion_lon": 0.0}, {"is_reserved": 0, "type": "electric_scooter", "bike_id": "71cc37168546ce0016f7aaad4ba422d0", "lat": 38.921902833333334, "lon": -77.04229016666666, "rental_uris": {"android": "https://dc.lft.to/lastmile_qr_scan", "ios": "https://dc.lft.to/lastmile_qr_scan"}, "is_disabled": 0, "fusion_lat": 0.0, "name": "71cc37168546ce0016f7aaad4ba422d0", "fusion_lon": 0.0}, {"is_reserved": 0, "type": "electric_scooter", "bike_id": "ec49e884b9ffcc04393369354d28efb9", "lat": 38.913305666666666, "lon": -77.0500245, "rental_uris": {"android": "https://dc.lft.to/lastmile_qr_scan", "ios": "https://dc.lft.to/lastmile_qr_scan"}, "is_disabled": 0, "fusion_lat": 0.0, "name": "ec49e884b9ffcc04393369354d28efb9", "fusion_lon": 0.0}, {"is_reserved": 0, "type": "electric_scooter", "bike_id": "8ed4607b1f30e3e4d36efff747733925", "lat": 38.884119, "lon": -76.98587233333333, "rental_uris": {"android": "https://dc.lft.to/lastmile_qr_scan", "ios": "https://dc.lft.to/lastmile_qr_scan"}, "is_disabled": 0, "fusion_lat": 0.0, "name": "8ed4607b1f30e3e4d36efff747733925", "fusion_lon": 0.0}, {"is_reserved": 0, "type": "electric_scooter", "bike_id": "de6cd3ef454b7545780f99dd5b068113", "lat": 38.904074, "lon": -77.02506466666667, "rental_uris": {"android": "https://dc.lft.to/lastmile_qr_scan", "ios": "https://dc.lft.to/lastmile_qr_scan"}, "is_disabled": 0, "fusion_lat": 0.0, "name": "de6cd3ef454b7545780f99dd5b068113", "fusion_lon": 0.0}, {"is_reserved": 0, "type": "electric_scooter", "bike_id": "f7be994f4312fefb225d5210dc56b5e3", "lat": 38.920292, "lon": -77.01034683333333, "rental_uris": {"android": "https://dc.lft.to/lastmile_qr_scan", "ios": "https://dc.lft.to/lastmile_qr_scan"}, "is_disabled": 0, "fusion_lat": 0.0, "name": "f7be994f4312fefb225d5210dc56b5e3", "fusion_lon": 0.0}, {"is_reserved": 0, "type": "electric_scooter", "bike_id": "6b12d64038ba3255cb26d6d2d54a7d82", "lat": 38.906193, "lon": -77.0703055, "rental_uris": {"android": "https://dc.lft.to/lastmile_qr_scan", "ios": "https://dc.lft.to/lastmile_qr_scan"}, "is_disabled": 0, "fusion_lat": 0.0, "name": "6b12d64038ba3255cb26d6d2d54a7d82", "fusion_lon": 0.0}, {"is_reserved": 0, "type": "electric_scooter", "bike_id": "0ff1a67acc557595d7244c24a0d33d1d", "lat": 38.88179066666667, "lon": -77.0176255, "rental_uris": {"android": "https://dc.lft.to/lastmile_qr_scan", "ios": "https://dc.lft.to/lastmile_qr_scan"}, "is_disabled": 0, "fusion_lat": 0.0, "name": "0ff1a67acc557595d7244c24a0d33d1d", "fusion_lon": 0.0}, {"is_reserved": 0, "type": "electric_scooter", "bike_id": "7f73184e831e519c11f1f0da5e490653", "lat": 38.9207265, "lon": -77.07461233333333, "rental_uris": {"android": "https://dc.lft.to/lastmile_qr_scan", "ios": "https://dc.lft.to/lastmile_qr_scan"}, "is_disabled": 0, "fusion_lat": 0.0, "name": "7f73184e831e519c11f1f0da5e490653", "fusion_lon": 0.0}, {"is_reserved": 0, "type": "electric_scooter", "bike_id": "f1bccd2974a29f5b7206f67e8f376c14", "lat": 38.912593, "lon": -77.03029816666667, "rental_uris": {"android": "https://dc.lft.to/lastmile_qr_scan", "ios": "https://dc.lft.to/lastmile_qr_scan"}, "is_disabled": 0, "fusion_lat": 0.0, "name": "f1bccd2974a29f5b7206f67e8f376c14", "fusion_lon": 0.0}, {"is_reserved": 0, "type": "electric_scooter", "bike_id": "a4c812d99b8fd4e88a444d68beb377c1", "lat": 38.92106283333333, "lon": -77.030128, "rental_uris": {"android": "https://dc.lft.to/lastmile_qr_scan", "ios": "https://dc.lft.to/lastmile_qr_scan"}, "is_disabled": 0, "fusion_lat": 0.0, "name": "a4c812d99b8fd4e88a444d68beb377c1", "fusion_lon": 0.0}, {"is_reserved": 0, "type": "electric_scooter", "bike_id": "c60ce0809759f781b2537fcdf3b44b3d", "lat": 38.90536383333333, "lon": -77.06284866666667, "rental_uris": {"android": "https://dc.lft.to/lastmile_qr_scan", "ios": "https://dc.lft.to/lastmile_qr_scan"}, "is_disabled": 0, "fusion_lat": 0.0, "name": "c60ce0809759f781b2537fcdf3b44b3d", "fusion_lon": 0.0}, {"is_reserved": 0, "type": "electric_scooter", "bike_id": "ce23a4268f4538824f3c719c15c400a6", "lat": 38.89531366666667, "lon": -77.01113183333334, "rental_uris": {"android": "https://dc.lft.to/lastmile_qr_scan", "ios": "https://dc.lft.to/lastmile_qr_scan"}, "is_disabled": 0, "fusion_lat": 0.0, "name": "ce23a4268f4538824f3c719c15c400a6", "fusion_lon": 0.0}, {"is_reserved": 0, "type": "electric_scooter", "bike_id": "4b919382a94765fd30f581edfa888646", "lat": 38.897349166666665, "lon": -77.02013616666666, "rental_uris": {"android": "https://dc.lft.to/lastmile_qr_scan", "ios": "https://dc.lft.to/lastmile_qr_scan"}, "is_disabled": 0, "fusion_lat": 0.0, "name": "4b919382a94765fd30f581edfa888646", "fusion_lon": 0.0}, {"is_reserved": 0, "type": "electric_scooter", "bike_id": "199e43657ebb811bf78d27795a7bec61", "lat": 38.92402583333333, "lon": -77.02977266666667, "rental_uris": {"android": "https://dc.lft.to/lastmile_qr_scan", "ios": "https://dc.lft.to/lastmile_qr_scan"}, "is_disabled": 0, "fusion_lat": 0.0, "name": "199e43657ebb811bf78d27795a7bec61", "fusion_lon": 0.0}, {"is_reserved": 0, "type": "electric_scooter", "bike_id": "a6418f283413d095b1a06a710d4a1aa8", "lat": 38.90537233333333, "lon": -76.98827566666667, "rental_uris": {"android": "https://dc.lft.to/lastmile_qr_scan", "ios": "https://dc.lft.to/lastmile_qr_scan"}, "is_disabled": 0, "fusion_lat": 0.0, "name": "a6418f283413d095b1a06a710d4a1aa8", "fusion_lon": 0.0}, {"is_reserved": 0, "type": "electric_scooter", "bike_id": "d9bfe96aca5f989eda3a459e1087e578", "lat": 38.927157333333334, "lon": -77.0228975, "rental_uris": {"android": "https://dc.lft.to/lastmile_qr_scan", "ios": "https://dc.lft.to/lastmile_qr_scan"}, "is_disabled": 0, "fusion_lat": 0.0, "name": "d9bfe96aca5f989eda3a459e1087e578", "fusion_lon": 0.0}, {"is_reserved": 0, "type": "electric_scooter", "bike_id": "ac8967d5100582227607f4f4de2b4fde", "lat": 38.90075383333333, "lon": -77.02713833333334, "rental_uris": {"android": "https://dc.lft.to/lastmile_qr_scan", "ios": "https://dc.lft.to/lastmile_qr_scan"}, "is_disabled": 0, "fusion_lat": 0.0, "name": "ac8967d5100582227607f4f4de2b4fde", "fusion_lon": 0.0}, {"is_reserved": 0, "type": "electric_scooter", "bike_id": "f74c5bd43235c3b7f4e1b8b982bd0925", "lat": 38.9150075, "lon": -77.00343083333334, "rental_uris": {"android": "https://dc.lft.to/lastmile_qr_scan", "ios": "https://dc.lft.to/lastmile_qr_scan"}, "is_disabled": 0, "fusion_lat": 0.0, "name": "f74c5bd43235c3b7f4e1b8b982bd0925", "fusion_lon": 0.0}, {"is_reserved": 0, "type": "electric_scooter", "bike_id": "17e8abaf6938b333c7d86faab1d1f439", "lat": 38.89958266666667, "lon": -77.02643316666666, "rental_uris": {"android": "https://dc.lft.to/lastmile_qr_scan", "ios": "https://dc.lft.to/lastmile_qr_scan"}, "is_disabled": 0, "fusion_lat": 0.0, "name": "17e8abaf6938b333c7d86faab1d1f439", "fusion_lon": 0.0}, {"is_reserved": 0, "type": "electric_scooter", "bike_id": "4c40dd719d2b3c4ee511c9ed1c1559b8", "lat": 38.920710666666665, "lon": -77.02216816666666, "rental_uris": {"android": "https://dc.lft.to/lastmile_qr_scan", "ios": "https://dc.lft.to/lastmile_qr_scan"}, "is_disabled": 0, "fusion_lat": 0.0, "name": "4c40dd719d2b3c4ee511c9ed1c1559b8", "fusion_lon": 0.0}, {"is_reserved": 0, "type": "electric_scooter", "bike_id": "df7eef57cfe752d49d3d1c274e3e1df4", "lat": 38.8959985, "lon": -76.929818, "rental_uris": {"android": "https://dc.lft.to/lastmile_qr_scan", "ios": "https://dc.lft.to/lastmile_qr_scan"}, "is_disabled": 0, "fusion_lat": 0.0, "name": "df7eef57cfe752d49d3d1c274e3e1df4", "fusion_lon": 0.0}, {"is_reserved": 0, "type": "electric_scooter", "bike_id": "700048f2d171b6926631d165c593f8a0", "lat": 38.9181655, "lon": -77.04535183333333, "rental_uris": {"android": "https://dc.lft.to/lastmile_qr_scan", "ios": "https://dc.lft.to/lastmile_qr_scan"}, "is_disabled": 0, "fusion_lat": 0.0, "name": "700048f2d171b6926631d165c593f8a0", "fusion_lon": 0.0}, {"is_reserved": 0, "type": "electric_scooter", "bike_id": "0e5695bbf91580c2b51397cb1fc0300d", "lat": 38.929270833333334, "lon": -77.02049883333333, "rental_uris": {"android": "https://dc.lft.to/lastmile_qr_scan", "ios": "https://dc.lft.to/lastmile_qr_scan"}, "is_disabled": 0, "fusion_lat": 0.0, "name": "0e5695bbf91580c2b51397cb1fc0300d", "fusion_lon": 0.0}, {"is_reserved": 0, "type": "electric_scooter", "bike_id": "734b44dc28bad031daa06555677711c9", "lat": 38.908814166666666, "lon": -76.99813566666667, "rental_uris": {"android": "https://dc.lft.to/lastmile_qr_scan", "ios": "https://dc.lft.to/lastmile_qr_scan"}, "is_disabled": 0, "fusion_lat": 0.0, "name": "734b44dc28bad031daa06555677711c9", "fusion_lon": 0.0}, {"is_reserved": 0, "type": "electric_scooter", "bike_id": "c293e73e0158e52d161c9711039f0295", "lat": 38.90109016666667, "lon": -77.01980733333333, "rental_uris": {"android": "https://dc.lft.to/lastmile_qr_scan", "ios": "https://dc.lft.to/lastmile_qr_scan"}, "is_disabled": 0, "fusion_lat": 0.0, "name": "c293e73e0158e52d161c9711039f0295", "fusion_lon": 0.0}, {"is_reserved": 0, "type": "electric_scooter", "bike_id": "f50a5013cd1f8bc3f0cd8dd14d832e3f", "lat": 38.90617316666667, "lon": -77.00914433333334, "rental_uris": {"android": "https://dc.lft.to/lastmile_qr_scan", "ios": "https://dc.lft.to/lastmile_qr_scan"}, "is_disabled": 0, "fusion_lat": 0.0, "name": "f50a5013cd1f8bc3f0cd8dd14d832e3f", "fusion_lon": 0.0}, {"is_reserved": 0, "type": "electric_scooter", "bike_id": "b7a75edc4396ae1f803e771fcf7765aa", "lat": 38.887388, "lon": -77.013516, "rental_uris": {"android": "https://dc.lft.to/lastmile_qr_scan", "ios": "https://dc.lft.to/lastmile_qr_scan"}, "is_disabled": 0, "fusion_lat": 0.0, "name": "b7a75edc4396ae1f803e771fcf7765aa", "fusion_lon": 0.0}, {"is_reserved": 0, "type": "electric_scooter", "bike_id": "6594467f0c1e52b1db63c294097d849b", "lat": 38.893611666666665, "lon": -76.986838, "rental_uris": {"android": "https://dc.lft.to/lastmile_qr_scan", "ios": "https://dc.lft.to/lastmile_qr_scan"}, "is_disabled": 0, "fusion_lat": 0.0, "name": "6594467f0c1e52b1db63c294097d849b", "fusion_lon": 0.0}, {"is_reserved": 0, "type": "electric_bike", "bike_id": "9bce523c33d17ca351851a465a6d05ae", "lat": 38.90521233333333, "lon": -77.0417825, "rental_uris": {"android": "https://dc.lft.to/lastmile_qr_scan", "ios": "https://dc.lft.to/lastmile_qr_scan"}, "is_disabled": 0, "fusion_lat": 0.0, "name": "9bce523c33d17ca351851a465a6d05ae", "fusion_lon": 0.0}, {"is_reserved": 0, "type": "electric_scooter", "bike_id": "970e96009eadbb045b1c3acfe7223b4d", "lat": 38.92439516666666, "lon": -77.02027216666667, "rental_uris": {"android": "https://dc.lft.to/lastmile_qr_scan", "ios": "https://dc.lft.to/lastmile_qr_scan"}, "is_disabled": 0, "fusion_lat": 0.0, "name": "970e96009eadbb045b1c3acfe7223b4d", "fusion_lon": 0.0}, {"is_reserved": 0, "type": "electric_scooter", "bike_id": "afb35053068842a59d09607cb3f34ff1", "lat": 38.91269966666667, "lon": -77.03862833333334, "rental_uris": {"android": "https://dc.lft.to/lastmile_qr_scan", "ios": "https://dc.lft.to/lastmile_qr_scan"}, "is_disabled": 0, "fusion_lat": 0.0, "name": "afb35053068842a59d09607cb3f34ff1", "fusion_lon": 0.0}, {"is_reserved": 0, "type": "electric_scooter", "bike_id": "5b752a8ae7a8134905c894b35481c5b5", "lat": 38.98990116666667, "lon": -77.03360783333333, "rental_uris": {"android": "https://dc.lft.to/lastmile_qr_scan", "ios": "https://dc.lft.to/lastmile_qr_scan"}, "is_disabled": 0, "fusion_lat": 0.0, "name": "5b752a8ae7a8134905c894b35481c5b5", "fusion_lon": 0.0}, {"is_reserved": 0, "type": "electric_bike", "bike_id": "b4ccc35c3dfa89731a2c711a81028fb5", "lat": 38.951055333333336, "lon": -77.02005966666667, "rental_uris": {"android": "https://dc.lft.to/lastmile_qr_scan", "ios": "https://dc.lft.to/lastmile_qr_scan"}, "is_disabled": 0, "fusion_lat": 0.0, "name": "b4ccc35c3dfa89731a2c711a81028fb5", "fusion_lon": 0.0}, {"is_reserved": 0, "type": "electric_scooter", "bike_id": "4d2bdfd9c504e3645144e74080fa8789", "lat": 38.894939666666666, "lon": -76.92785366666666, "rental_uris": {"android": "https://dc.lft.to/lastmile_qr_scan", "ios": "https://dc.lft.to/lastmile_qr_scan"}, "is_disabled": 0, "fusion_lat": 0.0, "name": "4d2bdfd9c504e3645144e74080fa8789", "fusion_lon": 0.0}, {"is_reserved": 0, "type": "electric_scooter", "bike_id": "bcdb560f5963cf2cffa7aadd28243419", "lat": 38.93581016666667, "lon": -77.03265666666667, "rental_uris": {"android": "https://dc.lft.to/lastmile_qr_scan", "ios": "https://dc.lft.to/lastmile_qr_scan"}, "is_disabled": 0, "fusion_lat": 0.0, "name": "bcdb560f5963cf2cffa7aadd28243419", "fusion_lon": 0.0}, {"is_reserved": 0, "type": "electric_scooter", "bike_id": "7e6ae7245c31640efd6af39b312320ee", "lat": 38.912688, "lon": -77.03865716666667, "rental_uris": {"android": "https://dc.lft.to/lastmile_qr_scan", "ios": "https://dc.lft.to/lastmile_qr_scan"}, "is_disabled": 0, "fusion_lat": 0.0, "name": "7e6ae7245c31640efd6af39b312320ee", "fusion_lon": 0.0}, {"is_reserved": 0, "type": "electric_scooter", "bike_id": "b2b2098fb91a2bd3c11632d7eda3731d", "lat": 38.898757833333335, "lon": -76.931825, "rental_uris": {"android": "https://dc.lft.to/lastmile_qr_scan", "ios": "https://dc.lft.to/lastmile_qr_scan"}, "is_disabled": 0, "fusion_lat": 0.0, "name": "b2b2098fb91a2bd3c11632d7eda3731d", "fusion_lon": 0.0}, {"is_reserved": 0, "type": "electric_scooter", "bike_id": "f484c22c28b2990cd78353737672c7d0", "lat": 38.89182733333333, "lon": -77.01592216666667, "rental_uris": {"android": "https://dc.lft.to/lastmile_qr_scan", "ios": "https://dc.lft.to/lastmile_qr_scan"}, "is_disabled": 0, "fusion_lat": 0.0, "name": "f484c22c28b2990cd78353737672c7d0", "fusion_lon": 0.0}, {"is_reserved": 0, "type": "electric_scooter", "bike_id": "fdacd91a034e83f72d3656950def1346", "lat": 38.93198233333333, "lon": -77.03856633333334, "rental_uris": {"android": "https://dc.lft.to/lastmile_qr_scan", "ios": "https://dc.lft.to/lastmile_qr_scan"}, "is_disabled": 0, "fusion_lat": 0.0, "name": "fdacd91a034e83f72d3656950def1346", "fusion_lon": 0.0}, {"is_reserved": 0, "type": "electric_bike", "bike_id": "e6b57176481a23d259e3c7c36a270bf6", "lat": 38.803828833333334, "lon": -76.988157, "rental_uris": {"android": "https://dc.lft.to/lastmile_qr_scan", "ios": "https://dc.lft.to/lastmile_qr_scan"}, "is_disabled": 0, "fusion_lat": 0.0, "name": "e6b57176481a23d259e3c7c36a270bf6", "fusion_lon": 0.0}, {"is_reserved": 0, "type": "electric_scooter", "bike_id": "3d61f9743b2bbce971bfa0b8547d0ace", "lat": 38.84815, "lon": -76.9782235, "rental_uris": {"android": "https://dc.lft.to/lastmile_qr_scan", "ios": "https://dc.lft.to/lastmile_qr_scan"}, "is_disabled": 0, "fusion_lat": 0.0, "name": "3d61f9743b2bbce971bfa0b8547d0ace", "fusion_lon": 0.0}, {"is_reserved": 0, "type": "electric_scooter", "bike_id": "d24f7c23a756e8ce0314c1d425d60fee", "lat": 38.9036765, "lon": -77.04174583333334, "rental_uris": {"android": "https://dc.lft.to/lastmile_qr_scan", "ios": "https://dc.lft.to/lastmile_qr_scan"}, "is_disabled": 0, "fusion_lat": 0.0, "name": "d24f7c23a756e8ce0314c1d425d60fee", "fusion_lon": 0.0}, {"is_reserved": 0, "type": "electric_scooter", "bike_id": "e7a9b87a709ae94446014dbef16ea124", "lat": 38.926276666666666, "lon": -77.03783866666667, "rental_uris": {"android": "https://dc.lft.to/lastmile_qr_scan", "ios": "https://dc.lft.to/lastmile_qr_scan"}, "is_disabled": 0, "fusion_lat": 0.0, "name": "e7a9b87a709ae94446014dbef16ea124", "fusion_lon": 0.0}, {"is_reserved": 0, "type": "electric_scooter", "bike_id": "1aacc8744f40b74da52a4ba01add181d", "lat": 38.898264833333336, "lon": -77.04814733333333, "rental_uris": {"android": "https://dc.lft.to/lastmile_qr_scan", "ios": "https://dc.lft.to/lastmile_qr_scan"}, "is_disabled": 0, "fusion_lat": 0.0, "name": "1aacc8744f40b74da52a4ba01add181d", "fusion_lon": 0.0}, {"is_reserved": 0, "type": "electric_scooter", "bike_id": "f0463b4004d08a1e0d2b3b30d25330da", "lat": 38.90133566666667, "lon": -77.01623933333333, "rental_uris": {"android": "https://dc.lft.to/lastmile_qr_scan", "ios": "https://dc.lft.to/lastmile_qr_scan"}, "is_disabled": 0, "fusion_lat": 0.0, "name": "f0463b4004d08a1e0d2b3b30d25330da", "fusion_lon": 0.0}, {"is_reserved": 0, "type": "electric_scooter", "bike_id": "df14ba749eb787f51638920387a033a3", "lat": 38.931461, "lon": -77.07842583333333, "rental_uris": {"android": "https://dc.lft.to/lastmile_qr_scan", "ios": "https://dc.lft.to/lastmile_qr_scan"}, "is_disabled": 0, "fusion_lat": 0.0, "name": "df14ba749eb787f51638920387a033a3", "fusion_lon": 0.0}, {"is_reserved": 0, "type": "electric_scooter", "bike_id": "fa23b77532433b158f85d5b9c7cc5812", "lat": 38.89345616666667, "lon": -77.02826383333333, "rental_uris": {"android": "https://dc.lft.to/lastmile_qr_scan", "ios": "https://dc.lft.to/lastmile_qr_scan"}, "is_disabled": 0, "fusion_lat": 0.0, "name": "fa23b77532433b158f85d5b9c7cc5812", "fusion_lon": 0.0}, {"is_reserved": 0, "type": "electric_scooter", "bike_id": "df6e948f060ad66a537afaaab374644b", "lat": 38.8996045, "lon": -77.02638066666667, "rental_uris": {"android": "https://dc.lft.to/lastmile_qr_scan", "ios": "https://dc.lft.to/lastmile_qr_scan"}, "is_disabled": 0, "fusion_lat": 0.0, "name": "df6e948f060ad66a537afaaab374644b", "fusion_lon": 0.0}, {"is_reserved": 0, "type": "electric_scooter", "bike_id": "f7ee8c03274752b2c1d41db4e3710247", "lat": 38.908579833333334, "lon": -77.04320566666667, "rental_uris": {"android": "https://dc.lft.to/lastmile_qr_scan", "ios": "https://dc.lft.to/lastmile_qr_scan"}, "is_disabled": 0, "fusion_lat": 0.0, "name": "f7ee8c03274752b2c1d41db4e3710247", "fusion_lon": 0.0}, {"is_reserved": 0, "type": "electric_bike", "bike_id": "8ece7062185621caa61d1ad4de92dfda", "lat": 38.97419566666667, "lon": -77.01254683333333, "rental_uris": {"android": "https://dc.lft.to/lastmile_qr_scan", "ios": "https://dc.lft.to/lastmile_qr_scan"}, "is_disabled": 0, "fusion_lat": 0.0, "name": "8ece7062185621caa61d1ad4de92dfda", "fusion_lon": 0.0}, {"is_reserved": 0, "type": "electric_scooter", "bike_id": "f885d33116f4d57347c871a4d9d16ab2", "lat": 38.93237766666667, "lon": -77.04084233333333, "rental_uris": {"android": "https://dc.lft.to/lastmile_qr_scan", "ios": "https://dc.lft.to/lastmile_qr_scan"}, "is_disabled": 0, "fusion_lat": 0.0, "name": "f885d33116f4d57347c871a4d9d16ab2", "fusion_lon": 0.0}, {"is_reserved": 0, "type": "electric_scooter", "bike_id": "f4e3130c4f259f9489e2e8815bf2133a", "lat": 38.93522316666667, "lon": -77.03262783333334, "rental_uris": {"android": "https://dc.lft.to/lastmile_qr_scan", "ios": "https://dc.lft.to/lastmile_qr_scan"}, "is_disabled": 0, "fusion_lat": 0.0, "name": "f4e3130c4f259f9489e2e8815bf2133a", "fusion_lon": 0.0}, {"is_reserved": 0, "type": "electric_scooter", "bike_id": "be029fce7f65c596738b4ca67b0edcb1", "lat": 38.930995, "lon": -77.0247085, "rental_uris": {"android": "https://dc.lft.to/lastmile_qr_scan", "ios": "https://dc.lft.to/lastmile_qr_scan"}, "is_disabled": 0, "fusion_lat": 0.0, "name": "be029fce7f65c596738b4ca67b0edcb1", "fusion_lon": 0.0}, {"is_reserved": 0, "type": "electric_scooter", "bike_id": "54545f9199d5b67bf7889e93e373c2d7", "lat": 38.91114733333333, "lon": -77.018235, "rental_uris": {"android": "https://dc.lft.to/lastmile_qr_scan", "ios": "https://dc.lft.to/lastmile_qr_scan"}, "is_disabled": 0, "fusion_lat": 0.0, "name": "54545f9199d5b67bf7889e93e373c2d7", "fusion_lon": 0.0}, {"is_reserved": 0, "type": "electric_scooter", "bike_id": "231de8d4bd4dd41526639a06a8ad27b3", "lat": 38.93064866666667, "lon": -77.02839983333334, "rental_uris": {"android": "https://dc.lft.to/lastmile_qr_scan", "ios": "https://dc.lft.to/lastmile_qr_scan"}, "is_disabled": 0, "fusion_lat": 0.0, "name": "231de8d4bd4dd41526639a06a8ad27b3", "fusion_lon": 0.0}, {"is_reserved": 0, "type": "electric_scooter", "bike_id": "d3e50753e4538e2d32da5d8763f3fd9f", "lat": 38.90358966666667, "lon": -77.02562716666667, "rental_uris": {"android": "https://dc.lft.to/lastmile_qr_scan", "ios": "https://dc.lft.to/lastmile_qr_scan"}, "is_disabled": 0, "fusion_lat": 0.0, "name": "d3e50753e4538e2d32da5d8763f3fd9f", "fusion_lon": 0.0}, {"is_reserved": 0, "type": "electric_bike", "bike_id": "c9ccdd98ed4bf1b58faf929ca5314a05", "lat": 38.986732833333335, "lon": -77.1006065, "rental_uris": {"android": "https://dc.lft.to/lastmile_qr_scan", "ios": "https://dc.lft.to/lastmile_qr_scan"}, "is_disabled": 0, "fusion_lat": 0.0, "name": "c9ccdd98ed4bf1b58faf929ca5314a05", "fusion_lon": 0.0}, {"is_reserved": 0, "type": "electric_scooter", "bike_id": "0887d7deba5c371ee5dd019e05b70d3f", "lat": 38.901143166666664, "lon": -77.01990733333334, "rental_uris": {"android": "https://dc.lft.to/lastmile_qr_scan", "ios": "https://dc.lft.to/lastmile_qr_scan"}, "is_disabled": 0, "fusion_lat": 0.0, "name": "0887d7deba5c371ee5dd019e05b70d3f", "fusion_lon": 0.0}, {"is_reserved": 0, "type": "electric_scooter", "bike_id": "1b1f89b51fcf93404dadea649f0ba534", "lat": 38.9245795, "lon": -77.00851783333333, "rental_uris": {"android": "https://dc.lft.to/lastmile_qr_scan", "ios": "https://dc.lft.to/lastmile_qr_scan"}, "is_disabled": 0, "fusion_lat": 0.0, "name": "1b1f89b51fcf93404dadea649f0ba534", "fusion_lon": 0.0}, {"is_reserved": 0, "type": "electric_scooter", "bike_id": "7b530e29c7a136270f247dc7f5289949", "lat": 38.90746816666667, "lon": -77.00271933333333, "rental_uris": {"android": "https://dc.lft.to/lastmile_qr_scan", "ios": "https://dc.lft.to/lastmile_qr_scan"}, "is_disabled": 0, "fusion_lat": 0.0, "name": "7b530e29c7a136270f247dc7f5289949", "fusion_lon": 0.0}, {"is_reserved": 0, "type": "electric_scooter", "bike_id": "c309c366369ade6fbd7d63be217666f2", "lat": 38.95288083333333, "lon": -77.06850983333334, "rental_uris": {"android": "https://dc.lft.to/lastmile_qr_scan", "ios": "https://dc.lft.to/lastmile_qr_scan"}, "is_disabled": 0, "fusion_lat": 0.0, "name": "c309c366369ade6fbd7d63be217666f2", "fusion_lon": 0.0}, {"is_reserved": 0, "type": "electric_scooter", "bike_id": "7447467c625c67c64202cd36dfa2a2c4", "lat": 38.89370516666666, "lon": -77.02982683333333, "rental_uris": {"android": "https://dc.lft.to/lastmile_qr_scan", "ios": "https://dc.lft.to/lastmile_qr_scan"}, "is_disabled": 0, "fusion_lat": 0.0, "name": "7447467c625c67c64202cd36dfa2a2c4", "fusion_lon": 0.0}, {"is_reserved": 0, "type": "electric_scooter", "bike_id": "225183265ebcecabe0ef34e460def3f1", "lat": 38.90596633333333, "lon": -77.06421416666667, "rental_uris": {"android": "https://dc.lft.to/lastmile_qr_scan", "ios": "https://dc.lft.to/lastmile_qr_scan"}, "is_disabled": 0, "fusion_lat": 0.0, "name": "225183265ebcecabe0ef34e460def3f1", "fusion_lon": 0.0}, {"is_reserved": 0, "type": "electric_scooter", "bike_id": "ff66c824022b3c5daa03deb49adb6cde", "lat": 38.920876, "lon": -77.07184366666667, "rental_uris": {"android": "https://dc.lft.to/lastmile_qr_scan", "ios": "https://dc.lft.to/lastmile_qr_scan"}, "is_disabled": 0, "fusion_lat": 0.0, "name": "ff66c824022b3c5daa03deb49adb6cde", "fusion_lon": 0.0}, {"is_reserved": 0, "type": "electric_scooter", "bike_id": "1a444332030ff8e3ea057e83b60930e3", "lat": 38.8934495, "lon": -77.028248, "rental_uris": {"android": "https://dc.lft.to/lastmile_qr_scan", "ios": "https://dc.lft.to/lastmile_qr_scan"}, "is_disabled": 0, "fusion_lat": 0.0, "name": "1a444332030ff8e3ea057e83b60930e3", "fusion_lon": 0.0}, {"is_reserved": 0, "type": "electric_scooter", "bike_id": "e30bc089fbdcfc973356eefe7b44b658", "lat": 38.911173833333336, "lon": -77.04347, "rental_uris": {"android": "https://dc.lft.to/lastmile_qr_scan", "ios": "https://dc.lft.to/lastmile_qr_scan"}, "is_disabled": 0, "fusion_lat": 0.0, "name": "e30bc089fbdcfc973356eefe7b44b658", "fusion_lon": 0.0}, {"is_reserved": 0, "type": "electric_scooter", "bike_id": "c1853fd3e5f371b16a31ba3c588a50cd", "lat": 38.932848, "lon": -77.0284075, "rental_uris": {"android": "https://dc.lft.to/lastmile_qr_scan", "ios": "https://dc.lft.to/lastmile_qr_scan"}, "is_disabled": 0, "fusion_lat": 0.0, "name": "c1853fd3e5f371b16a31ba3c588a50cd", "fusion_lon": 0.0}, {"is_reserved": 0, "type": "electric_scooter", "bike_id": "c0404787e88bdcf62a7ba03395fe0794", "lat": 38.87087183333333, "lon": -77.01371433333334, "rental_uris": {"android": "https://dc.lft.to/lastmile_qr_scan", "ios": "https://dc.lft.to/lastmile_qr_scan"}, "is_disabled": 0, "fusion_lat": 0.0, "name": "c0404787e88bdcf62a7ba03395fe0794", "fusion_lon": 0.0}, {"is_reserved": 0, "type": "electric_scooter", "bike_id": "297b9960b4fa0bda19d7d8a23ba46b7b", "lat": 38.92413083333334, "lon": -76.951505, "rental_uris": {"android": "https://dc.lft.to/lastmile_qr_scan", "ios": "https://dc.lft.to/lastmile_qr_scan"}, "is_disabled": 0, "fusion_lat": 0.0, "name": "297b9960b4fa0bda19d7d8a23ba46b7b", "fusion_lon": 0.0}, {"is_reserved": 0, "type": "electric_scooter", "bike_id": "566fd623d087fd5d756a66bfbda6606c", "lat": 38.8922915, "lon": -77.019766, "rental_uris": {"android": "https://dc.lft.to/lastmile_qr_scan", "ios": "https://dc.lft.to/lastmile_qr_scan"}, "is_disabled": 0, "fusion_lat": 0.0, "name": "566fd623d087fd5d756a66bfbda6606c", "fusion_lon": 0.0}, {"is_reserved": 0, "type": "electric_scooter", "bike_id": "29859c4890b4e1644517470e7d6d18c7", "lat": 38.89224516666667, "lon": -77.01599866666666, "rental_uris": {"android": "https://dc.lft.to/lastmile_qr_scan", "ios": "https://dc.lft.to/lastmile_qr_scan"}, "is_disabled": 0, "fusion_lat": 0.0, "name": "29859c4890b4e1644517470e7d6d18c7", "fusion_lon": 0.0}, {"is_reserved": 0, "type": "electric_scooter", "bike_id": "ee14cd455010d0ed466dc94c43106553", "lat": 38.9003825, "lon": -77.03204266666667, "rental_uris": {"android": "https://dc.lft.to/lastmile_qr_scan", "ios": "https://dc.lft.to/lastmile_qr_scan"}, "is_disabled": 0, "fusion_lat": 0.0, "name": "ee14cd455010d0ed466dc94c43106553", "fusion_lon": 0.0}, {"is_reserved": 0, "type": "electric_bike", "bike_id": "a1d4c3cfd4294a5609b96d4c8d6336a1", "lat": 38.912064666666666, "lon": -77.047936, "rental_uris": {"android": "https://dc.lft.to/lastmile_qr_scan", "ios": "https://dc.lft.to/lastmile_qr_scan"}, "is_disabled": 0, "fusion_lat": 0.0, "name": "a1d4c3cfd4294a5609b96d4c8d6336a1", "fusion_lon": 0.0}, {"is_reserved": 0, "type": "electric_scooter", "bike_id": "8a1563e239bb1af1a4e218fe477a1b42", "lat": 38.89882516666667, "lon": -77.048824, "rental_uris": {"android": "https://dc.lft.to/lastmile_qr_scan", "ios": "https://dc.lft.to/lastmile_qr_scan"}, "is_disabled": 0, "fusion_lat": 0.0, "name": "8a1563e239bb1af1a4e218fe477a1b42", "fusion_lon": 0.0}, {"is_reserved": 0, "type": "electric_scooter", "bike_id": "563801143761ae863d8782f9d854ac76", "lat": 38.89930566666666, "lon": -77.01888216666667, "rental_uris": {"android": "https://dc.lft.to/lastmile_qr_scan", "ios": "https://dc.lft.to/lastmile_qr_scan"}, "is_disabled": 0, "fusion_lat": 0.0, "name": "563801143761ae863d8782f9d854ac76", "fusion_lon": 0.0}, {"is_reserved": 0, "type": "electric_scooter", "bike_id": "78419c26f52eb8da1e866269394e4a0f", "lat": 38.8996265, "lon": -77.01508, "rental_uris": {"android": "https://dc.lft.to/lastmile_qr_scan", "ios": "https://dc.lft.to/lastmile_qr_scan"}, "is_disabled": 0, "fusion_lat": 0.0, "name": "78419c26f52eb8da1e866269394e4a0f", "fusion_lon": 0.0}, {"is_reserved": 0, "type": "electric_scooter", "bike_id": "fb498ff532790d4f743aa40d4005d072", "lat": 38.90374966666667, "lon": -77.02861683333333, "rental_uris": {"android": "https://dc.lft.to/lastmile_qr_scan", "ios": "https://dc.lft.to/lastmile_qr_scan"}, "is_disabled": 0, "fusion_lat": 0.0, "name": "fb498ff532790d4f743aa40d4005d072", "fusion_lon": 0.0}, {"is_reserved": 0, "type": "electric_scooter", "bike_id": "3a81bf354d6d9da68fae75cc83251810", "lat": 38.93021366666667, "lon": -77.03786516666666, "rental_uris": {"android": "https://dc.lft.to/lastmile_qr_scan", "ios": "https://dc.lft.to/lastmile_qr_scan"}, "is_disabled": 0, "fusion_lat": 0.0, "name": "3a81bf354d6d9da68fae75cc83251810", "fusion_lon": 0.0}, {"is_reserved": 0, "type": "electric_scooter", "bike_id": "1b25b0265c8e4648fc3134e7b58a7cae", "lat": 38.91411983333333, "lon": -77.02725933333333, "rental_uris": {"android": "https://dc.lft.to/lastmile_qr_scan", "ios": "https://dc.lft.to/lastmile_qr_scan"}, "is_disabled": 0, "fusion_lat": 0.0, "name": "1b25b0265c8e4648fc3134e7b58a7cae", "fusion_lon": 0.0}, {"is_reserved": 0, "type": "electric_scooter", "bike_id": "b4ae8c643c9338879bbcdc63e0d68b98", "lat": 38.9508955, "lon": -77.02534033333333, "rental_uris": {"android": "https://dc.lft.to/lastmile_qr_scan", "ios": "https://dc.lft.to/lastmile_qr_scan"}, "is_disabled": 0, "fusion_lat": 0.0, "name": "b4ae8c643c9338879bbcdc63e0d68b98", "fusion_lon": 0.0}, {"is_reserved": 0, "type": "electric_scooter", "bike_id": "dc19de3a06e3dae0d9a89e8129f373eb", "lat": 38.9346295, "lon": -77.02767333333334, "rental_uris": {"android": "https://dc.lft.to/lastmile_qr_scan", "ios": "https://dc.lft.to/lastmile_qr_scan"}, "is_disabled": 0, "fusion_lat": 0.0, "name": "dc19de3a06e3dae0d9a89e8129f373eb", "fusion_lon": 0.0}, {"is_reserved": 0, "type": "electric_scooter", "bike_id": "efd38c9f8c0fce698593eb1479f0c454", "lat": 38.907224, "lon": -77.029417, "rental_uris": {"android": "https://dc.lft.to/lastmile_qr_scan", "ios": "https://dc.lft.to/lastmile_qr_scan"}, "is_disabled": 0, "fusion_lat": 0.0, "name": "efd38c9f8c0fce698593eb1479f0c454", "fusion_lon": 0.0}, {"is_reserved": 0, "type": "electric_scooter", "bike_id": "0a43707452ed84950320a790c8be2bf1", "lat": 38.897689166666666, "lon": -77.02673183333333, "rental_uris": {"android": "https://dc.lft.to/lastmile_qr_scan", "ios": "https://dc.lft.to/lastmile_qr_scan"}, "is_disabled": 0, "fusion_lat": 0.0, "name": "0a43707452ed84950320a790c8be2bf1", "fusion_lon": 0.0}, {"is_reserved": 0, "type": "electric_scooter", "bike_id": "adebc7637682b3e9e526a34994e8e020", "lat": 38.915668, "lon": -77.02971416666666, "rental_uris": {"android": "https://dc.lft.to/lastmile_qr_scan", "ios": "https://dc.lft.to/lastmile_qr_scan"}, "is_disabled": 0, "fusion_lat": 0.0, "name": "adebc7637682b3e9e526a34994e8e020", "fusion_lon": 0.0}, {"is_reserved": 0, "type": "electric_scooter", "bike_id": "5140a1b2110799dde26fcf60d6ed0b6a", "lat": 38.925784666666665, "lon": -77.0293655, "rental_uris": {"android": "https://dc.lft.to/lastmile_qr_scan", "ios": "https://dc.lft.to/lastmile_qr_scan"}, "is_disabled": 0, "fusion_lat": 0.0, "name": "5140a1b2110799dde26fcf60d6ed0b6a", "fusion_lon": 0.0}, {"is_reserved": 0, "type": "electric_scooter", "bike_id": "332aac66d1aa1551d656600143095a97", "lat": 38.89729666666667, "lon": -77.02167866666667, "rental_uris": {"android": "https://dc.lft.to/lastmile_qr_scan", "ios": "https://dc.lft.to/lastmile_qr_scan"}, "is_disabled": 0, "fusion_lat": 0.0, "name": "332aac66d1aa1551d656600143095a97", "fusion_lon": 0.0}, {"is_reserved": 0, "type": "electric_bike", "bike_id": "3de3b95fa6ec5c262395fcd1881403a1", "lat": 38.889306, "lon": -76.9132595, "rental_uris": {"android": "https://dc.lft.to/lastmile_qr_scan", "ios": "https://dc.lft.to/lastmile_qr_scan"}, "is_disabled": 0, "fusion_lat": 0.0, "name": "3de3b95fa6ec5c262395fcd1881403a1", "fusion_lon": 0.0}, {"is_reserved": 0, "type": "electric_scooter", "bike_id": "1cd3329277d797dd80a66b09427b180d", "lat": 38.85456516666667, "lon": -76.97236916666667, "rental_uris": {"android": "https://dc.lft.to/lastmile_qr_scan", "ios": "https://dc.lft.to/lastmile_qr_scan"}, "is_disabled": 0, "fusion_lat": 0.0, "name": "1cd3329277d797dd80a66b09427b180d", "fusion_lon": 0.0}, {"is_reserved": 0, "type": "electric_scooter", "bike_id": "ab5897f453d8bd5e5cb94496cd89a8cf", "lat": 38.927471, "lon": -77.02296333333334, "rental_uris": {"android": "https://dc.lft.to/lastmile_qr_scan", "ios": "https://dc.lft.to/lastmile_qr_scan"}, "is_disabled": 0, "fusion_lat": 0.0, "name": "ab5897f453d8bd5e5cb94496cd89a8cf", "fusion_lon": 0.0}, {"is_reserved": 0, "type": "electric_scooter", "bike_id": "66f91cb24ee5a0ac49ca95276073f8df", "lat": 38.92153316666667, "lon": -77.0338955, "rental_uris": {"android": "https://dc.lft.to/lastmile_qr_scan", "ios": "https://dc.lft.to/lastmile_qr_scan"}, "is_disabled": 0, "fusion_lat": 0.0, "name": "66f91cb24ee5a0ac49ca95276073f8df", "fusion_lon": 0.0}, {"is_reserved": 0, "type": "electric_scooter", "bike_id": "9b16c86daa40ee746e63215240cdfc13", "lat": 38.90711833333334, "lon": -77.04612033333333, "rental_uris": {"android": "https://dc.lft.to/lastmile_qr_scan", "ios": "https://dc.lft.to/lastmile_qr_scan"}, "is_disabled": 0, "fusion_lat": 0.0, "name": "9b16c86daa40ee746e63215240cdfc13", "fusion_lon": 0.0}, {"is_reserved": 0, "type": "electric_scooter", "bike_id": "04e327cba49a878876d1fd2b7de8097b", "lat": 38.908973333333336, "lon": -77.031769, "rental_uris": {"android": "https://dc.lft.to/lastmile_qr_scan", "ios": "https://dc.lft.to/lastmile_qr_scan"}, "is_disabled": 0, "fusion_lat": 0.0, "name": "04e327cba49a878876d1fd2b7de8097b", "fusion_lon": 0.0}, {"is_reserved": 0, "type": "electric_scooter", "bike_id": "a593be38e72af279ba495ea2bd952f8b", "lat": 38.9038795, "lon": -77.02732933333333, "rental_uris": {"android": "https://dc.lft.to/lastmile_qr_scan", "ios": "https://dc.lft.to/lastmile_qr_scan"}, "is_disabled": 0, "fusion_lat": 0.0, "name": "a593be38e72af279ba495ea2bd952f8b", "fusion_lon": 0.0}, {"is_reserved": 0, "type": "electric_scooter", "bike_id": "d76570b656bc5795406ba8e2627127e9", "lat": 38.90776783333333, "lon": -76.99986633333333, "rental_uris": {"android": "https://dc.lft.to/lastmile_qr_scan", "ios": "https://dc.lft.to/lastmile_qr_scan"}, "is_disabled": 0, "fusion_lat": 0.0, "name": "d76570b656bc5795406ba8e2627127e9", "fusion_lon": 0.0}, {"is_reserved": 0, "type": "electric_scooter", "bike_id": "c0fd2dcea57d9986fe3c675a014459ca", "lat": 38.89870416666667, "lon": -77.01969233333334, "rental_uris": {"android": "https://dc.lft.to/lastmile_qr_scan", "ios": "https://dc.lft.to/lastmile_qr_scan"}, "is_disabled": 0, "fusion_lat": 0.0, "name": "c0fd2dcea57d9986fe3c675a014459ca", "fusion_lon": 0.0}, {"is_reserved": 0, "type": "electric_scooter", "bike_id": "ccb52fd7010b81ae56beaf099a40a3db", "lat": 38.90843483333333, "lon": -77.0436095, "rental_uris": {"android": "https://dc.lft.to/lastmile_qr_scan", "ios": "https://dc.lft.to/lastmile_qr_scan"}, "is_disabled": 0, "fusion_lat": 0.0, "name": "ccb52fd7010b81ae56beaf099a40a3db", "fusion_lon": 0.0}, {"is_reserved": 0, "type": "electric_scooter", "bike_id": "4bba7891bbe00b4d4e819b414d82a010", "lat": 38.907312, "lon": -77.045055, "rental_uris": {"android": "https://dc.lft.to/lastmile_qr_scan", "ios": "https://dc.lft.to/lastmile_qr_scan"}, "is_disabled": 0, "fusion_lat": 0.0, "name": "4bba7891bbe00b4d4e819b414d82a010", "fusion_lon": 0.0}, {"is_reserved": 0, "type": "electric_bike", "bike_id": "3f59c8cfce5ed37f3a4d92c0f1208f4c", "lat": 38.9120795, "lon": -77.046622, "rental_uris": {"android": "https://dc.lft.to/lastmile_qr_scan", "ios": "https://dc.lft.to/lastmile_qr_scan"}, "is_disabled": 0, "fusion_lat": 0.0, "name": "3f59c8cfce5ed37f3a4d92c0f1208f4c", "fusion_lon": 0.0}, {"is_reserved": 0, "type": "electric_scooter", "bike_id": "264208e4c080172f0b9075213141b10c", "lat": 38.907185, "lon": -77.04755233333333, "rental_uris": {"android": "https://dc.lft.to/lastmile_qr_scan", "ios": "https://dc.lft.to/lastmile_qr_scan"}, "is_disabled": 0, "fusion_lat": 0.0, "name": "264208e4c080172f0b9075213141b10c", "fusion_lon": 0.0}, {"is_reserved": 0, "type": "electric_scooter", "bike_id": "29c6d2a0876116a5231e5acfa80fdc63", "lat": 38.92910033333333, "lon": -77.02188266666667, "rental_uris": {"android": "https://dc.lft.to/lastmile_qr_scan", "ios": "https://dc.lft.to/lastmile_qr_scan"}, "is_disabled": 0, "fusion_lat": 0.0, "name": "29c6d2a0876116a5231e5acfa80fdc63", "fusion_lon": 0.0}, {"is_reserved": 0, "type": "electric_scooter", "bike_id": "ffb107d3fc1828aa1c4c7dfb32a217e6", "lat": 38.918149, "lon": -77.03963116666667, "rental_uris": {"android": "https://dc.lft.to/lastmile_qr_scan", "ios": "https://dc.lft.to/lastmile_qr_scan"}, "is_disabled": 0, "fusion_lat": 0.0, "name": "ffb107d3fc1828aa1c4c7dfb32a217e6", "fusion_lon": 0.0}, {"is_reserved": 0, "type": "electric_scooter", "bike_id": "ce1390166a007b45aa4f8c1a70caeff5", "lat": 38.8898765, "lon": -77.0014695, "rental_uris": {"android": "https://dc.lft.to/lastmile_qr_scan", "ios": "https://dc.lft.to/lastmile_qr_scan"}, "is_disabled": 0, "fusion_lat": 0.0, "name": "ce1390166a007b45aa4f8c1a70caeff5", "fusion_lon": 0.0}, {"is_reserved": 0, "type": "electric_scooter", "bike_id": "4c1967aff480ba2f187c7ed94b57d964", "lat": 38.91511083333333, "lon": -77.0034025, "rental_uris": {"android": "https://dc.lft.to/lastmile_qr_scan", "ios": "https://dc.lft.to/lastmile_qr_scan"}, "is_disabled": 0, "fusion_lat": 0.0, "name": "4c1967aff480ba2f187c7ed94b57d964", "fusion_lon": 0.0}, {"is_reserved": 0, "type": "electric_bike", "bike_id": "ad7a92c9927a947bb0b134448ff03273", "lat": 38.8749635, "lon": -77.13688816666667, "rental_uris": {"android": "https://dc.lft.to/lastmile_qr_scan", "ios": "https://dc.lft.to/lastmile_qr_scan"}, "is_disabled": 0, "fusion_lat": 0.0, "name": "ad7a92c9927a947bb0b134448ff03273", "fusion_lon": 0.0}, {"is_reserved": 0, "type": "electric_scooter", "bike_id": "277a3d6bf5e47a6547b87c59534eca29", "lat": 38.900638666666666, "lon": -77.04532, "rental_uris": {"android": "https://dc.lft.to/lastmile_qr_scan", "ios": "https://dc.lft.to/lastmile_qr_scan"}, "is_disabled": 0, "fusion_lat": 0.0, "name": "277a3d6bf5e47a6547b87c59534eca29", "fusion_lon": 0.0}, {"is_reserved": 0, "type": "electric_scooter", "bike_id": "36b872e528cf045c30565591b858e996", "lat": 38.883804, "lon": -77.04609033333334, "rental_uris": {"android": "https://dc.lft.to/lastmile_qr_scan", "ios": "https://dc.lft.to/lastmile_qr_scan"}, "is_disabled": 0, "fusion_lat": 0.0, "name": "36b872e528cf045c30565591b858e996", "fusion_lon": 0.0}, {"is_reserved": 0, "type": "electric_scooter", "bike_id": "5255b1f180c7e5fa4de2083714550e0b", "lat": 38.91942133333333, "lon": -77.04802983333333, "rental_uris": {"android": "https://dc.lft.to/lastmile_qr_scan", "ios": "https://dc.lft.to/lastmile_qr_scan"}, "is_disabled": 0, "fusion_lat": 0.0, "name": "5255b1f180c7e5fa4de2083714550e0b", "fusion_lon": 0.0}, {"is_reserved": 0, "type": "electric_scooter", "bike_id": "5963dd39b44bfda867886f9d5759a378", "lat": 38.887286, "lon": -76.98374283333334, "rental_uris": {"android": "https://dc.lft.to/lastmile_qr_scan", "ios": "https://dc.lft.to/lastmile_qr_scan"}, "is_disabled": 0, "fusion_lat": 0.0, "name": "5963dd39b44bfda867886f9d5759a378", "fusion_lon": 0.0}, {"is_reserved": 0, "type": "electric_scooter", "bike_id": "517489394821711b84977400c594723f", "lat": 38.93083, "lon": -77.02806133333333, "rental_uris": {"android": "https://dc.lft.to/lastmile_qr_scan", "ios": "https://dc.lft.to/lastmile_qr_scan"}, "is_disabled": 0, "fusion_lat": 0.0, "name": "517489394821711b84977400c594723f", "fusion_lon": 0.0}, {"is_reserved": 0, "type": "electric_scooter", "bike_id": "acd17166393f2ac7bbcbaab1803ec472", "lat": 38.920638, "lon": -77.03200983333333, "rental_uris": {"android": "https://dc.lft.to/lastmile_qr_scan", "ios": "https://dc.lft.to/lastmile_qr_scan"}, "is_disabled": 0, "fusion_lat": 0.0, "name": "acd17166393f2ac7bbcbaab1803ec472", "fusion_lon": 0.0}, {"is_reserved": 0, "type": "electric_scooter", "bike_id": "55e47bdc7776e3f51ac215f514f404e3", "lat": 38.9155975, "lon": -77.03102766666666, "rental_uris": {"android": "https://dc.lft.to/lastmile_qr_scan", "ios": "https://dc.lft.to/lastmile_qr_scan"}, "is_disabled": 0, "fusion_lat": 0.0, "name": "55e47bdc7776e3f51ac215f514f404e3", "fusion_lon": 0.0}, {"is_reserved": 0, "type": "electric_scooter", "bike_id": "04659a91b120dfae360ecf09d8b28d5d", "lat": 38.916932833333334, "lon": -77.02902133333333, "rental_uris": {"android": "https://dc.lft.to/lastmile_qr_scan", "ios": "https://dc.lft.to/lastmile_qr_scan"}, "is_disabled": 0, "fusion_lat": 0.0, "name": "04659a91b120dfae360ecf09d8b28d5d", "fusion_lon": 0.0}, {"is_reserved": 0, "type": "electric_scooter", "bike_id": "bfc495dbfef78b24b81ff5b03bac63a6", "lat": 38.892216, "lon": -77.03220183333333, "rental_uris": {"android": "https://dc.lft.to/lastmile_qr_scan", "ios": "https://dc.lft.to/lastmile_qr_scan"}, "is_disabled": 0, "fusion_lat": 0.0, "name": "bfc495dbfef78b24b81ff5b03bac63a6", "fusion_lon": 0.0}, {"is_reserved": 0, "type": "electric_scooter", "bike_id": "3435b49199993c8bbae5fcf1f9669ded", "lat": 38.93399983333333, "lon": -77.039836, "rental_uris": {"android": "https://dc.lft.to/lastmile_qr_scan", "ios": "https://dc.lft.to/lastmile_qr_scan"}, "is_disabled": 0, "fusion_lat": 0.0, "name": "3435b49199993c8bbae5fcf1f9669ded", "fusion_lon": 0.0}, {"is_reserved": 0, "type": "electric_scooter", "bike_id": "798f062fe7b06ed4597ddb21baab79fb", "lat": 38.93035, "lon": -77.08309666666666, "rental_uris": {"android": "https://dc.lft.to/lastmile_qr_scan", "ios": "https://dc.lft.to/lastmile_qr_scan"}, "is_disabled": 0, "fusion_lat": 0.0, "name": "798f062fe7b06ed4597ddb21baab79fb", "fusion_lon": 0.0}, {"is_reserved": 0, "type": "electric_scooter", "bike_id": "833ae7f8b29357ce64038bd17430d487", "lat": 38.898286166666665, "lon": -77.04826966666667, "rental_uris": {"android": "https://dc.lft.to/lastmile_qr_scan", "ios": "https://dc.lft.to/lastmile_qr_scan"}, "is_disabled": 0, "fusion_lat": 0.0, "name": "833ae7f8b29357ce64038bd17430d487", "fusion_lon": 0.0}, {"is_reserved": 0, "type": "electric_scooter", "bike_id": "2f9d428b1eba62a566dad749411bcff7", "lat": 38.92381983333333, "lon": -77.02739233333334, "rental_uris": {"android": "https://dc.lft.to/lastmile_qr_scan", "ios": "https://dc.lft.to/lastmile_qr_scan"}, "is_disabled": 0, "fusion_lat": 0.0, "name": "2f9d428b1eba62a566dad749411bcff7", "fusion_lon": 0.0}, {"is_reserved": 0, "type": "electric_scooter", "bike_id": "d08552f961165bc25ebf2d55a7a2fa9c", "lat": 38.90619366666667, "lon": -77.03300583333333, "rental_uris": {"android": "https://dc.lft.to/lastmile_qr_scan", "ios": "https://dc.lft.to/lastmile_qr_scan"}, "is_disabled": 0, "fusion_lat": 0.0, "name": "d08552f961165bc25ebf2d55a7a2fa9c", "fusion_lon": 0.0}, {"is_reserved": 0, "type": "electric_scooter", "bike_id": "e4dd75b4c53028801aae1e70f452a56b", "lat": 38.90481616666667, "lon": -77.04877, "rental_uris": {"android": "https://dc.lft.to/lastmile_qr_scan", "ios": "https://dc.lft.to/lastmile_qr_scan"}, "is_disabled": 0, "fusion_lat": 0.0, "name": "e4dd75b4c53028801aae1e70f452a56b", "fusion_lon": 0.0}, {"is_reserved": 0, "type": "electric_scooter", "bike_id": "e4be91e6763cc7b1cc30ccd0c529931d", "lat": 38.89215083333333, "lon": -77.024138, "rental_uris": {"android": "https://dc.lft.to/lastmile_qr_scan", "ios": "https://dc.lft.to/lastmile_qr_scan"}, "is_disabled": 0, "fusion_lat": 0.0, "name": "e4be91e6763cc7b1cc30ccd0c529931d", "fusion_lon": 0.0}, {"is_reserved": 0, "type": "electric_scooter", "bike_id": "1c7d670a95cf5b950f43d11381595c99", "lat": 38.8841495, "lon": -77.0257895, "rental_uris": {"android": "https://dc.lft.to/lastmile_qr_scan", "ios": "https://dc.lft.to/lastmile_qr_scan"}, "is_disabled": 0, "fusion_lat": 0.0, "name": "1c7d670a95cf5b950f43d11381595c99", "fusion_lon": 0.0}, {"is_reserved": 0, "type": "electric_scooter", "bike_id": "bd7c5a33de470392e3788a4aecff1b4c", "lat": 38.899473666666665, "lon": -77.0144365, "rental_uris": {"android": "https://dc.lft.to/lastmile_qr_scan", "ios": "https://dc.lft.to/lastmile_qr_scan"}, "is_disabled": 0, "fusion_lat": 0.0, "name": "bd7c5a33de470392e3788a4aecff1b4c", "fusion_lon": 0.0}, {"is_reserved": 0, "type": "electric_scooter", "bike_id": "4012a1341558a8582fcb37be1b52607c", "lat": 38.89738666666667, "lon": -77.02442733333334, "rental_uris": {"android": "https://dc.lft.to/lastmile_qr_scan", "ios": "https://dc.lft.to/lastmile_qr_scan"}, "is_disabled": 0, "fusion_lat": 0.0, "name": "4012a1341558a8582fcb37be1b52607c", "fusion_lon": 0.0}, {"is_reserved": 0, "type": "electric_scooter", "bike_id": "92719f5e04597186a2c005124a415044", "lat": 38.919554166666664, "lon": -77.044532, "rental_uris": {"android": "https://dc.lft.to/lastmile_qr_scan", "ios": "https://dc.lft.to/lastmile_qr_scan"}, "is_disabled": 0, "fusion_lat": 0.0, "name": "92719f5e04597186a2c005124a415044", "fusion_lon": 0.0}, {"is_reserved": 0, "type": "electric_scooter", "bike_id": "7078eac040cc27b4b3c5f53131a2d43b", "lat": 38.8918425, "lon": -77.01591966666666, "rental_uris": {"android": "https://dc.lft.to/lastmile_qr_scan", "ios": "https://dc.lft.to/lastmile_qr_scan"}, "is_disabled": 0, "fusion_lat": 0.0, "name": "7078eac040cc27b4b3c5f53131a2d43b", "fusion_lon": 0.0}, {"is_reserved": 0, "type": "electric_scooter", "bike_id": "ba028fc85cfc349429815bdd6f1b2292", "lat": 38.8967745, "lon": -77.0121755, "rental_uris": {"android": "https://dc.lft.to/lastmile_qr_scan", "ios": "https://dc.lft.to/lastmile_qr_scan"}, "is_disabled": 0, "fusion_lat": 0.0, "name": "ba028fc85cfc349429815bdd6f1b2292", "fusion_lon": 0.0}, {"is_reserved": 0, "type": "electric_scooter", "bike_id": "9d0f5b0e202f4835a356b4cc7500a292", "lat": 38.9179795, "lon": -77.02707033333333, "rental_uris": {"android": "https://dc.lft.to/lastmile_qr_scan", "ios": "https://dc.lft.to/lastmile_qr_scan"}, "is_disabled": 0, "fusion_lat": 0.0, "name": "9d0f5b0e202f4835a356b4cc7500a292", "fusion_lon": 0.0}, {"is_reserved": 0, "type": "electric_scooter", "bike_id": "89dfbe55aa8f6caf10ef0f6a42d12a4f", "lat": 38.90286783333333, "lon": -77.01739666666667, "rental_uris": {"android": "https://dc.lft.to/lastmile_qr_scan", "ios": "https://dc.lft.to/lastmile_qr_scan"}, "is_disabled": 0, "fusion_lat": 0.0, "name": "89dfbe55aa8f6caf10ef0f6a42d12a4f", "fusion_lon": 0.0}, {"is_reserved": 0, "type": "electric_scooter", "bike_id": "6b26ea8f231b8f992af50d2a274745e4", "lat": 38.925489166666665, "lon": -76.9995505, "rental_uris": {"android": "https://dc.lft.to/lastmile_qr_scan", "ios": "https://dc.lft.to/lastmile_qr_scan"}, "is_disabled": 0, "fusion_lat": 0.0, "name": "6b26ea8f231b8f992af50d2a274745e4", "fusion_lon": 0.0}, {"is_reserved": 0, "type": "electric_scooter", "bike_id": "edf1b84f5497cb76a5d4de12f0ee9936", "lat": 38.903827666666665, "lon": -77.03146083333333, "rental_uris": {"android": "https://dc.lft.to/lastmile_qr_scan", "ios": "https://dc.lft.to/lastmile_qr_scan"}, "is_disabled": 0, "fusion_lat": 0.0, "name": "edf1b84f5497cb76a5d4de12f0ee9936", "fusion_lon": 0.0}, {"is_reserved": 0, "type": "electric_scooter", "bike_id": "ea4fa5a93f9429b28bfa7345e3547161", "lat": 38.88635983333333, "lon": -76.99629716666666, "rental_uris": {"android": "https://dc.lft.to/lastmile_qr_scan", "ios": "https://dc.lft.to/lastmile_qr_scan"}, "is_disabled": 0, "fusion_lat": 0.0, "name": "ea4fa5a93f9429b28bfa7345e3547161", "fusion_lon": 0.0}, {"is_reserved": 0, "type": "electric_scooter", "bike_id": "c0088b433919abe8b8aa2eb93253304b", "lat": 38.9430485, "lon": -77.02002783333333, "rental_uris": {"android": "https://dc.lft.to/lastmile_qr_scan", "ios": "https://dc.lft.to/lastmile_qr_scan"}, "is_disabled": 0, "fusion_lat": 0.0, "name": "c0088b433919abe8b8aa2eb93253304b", "fusion_lon": 0.0}, {"is_reserved": 0, "type": "electric_scooter", "bike_id": "ffddb3bdcce7f84648ec535203f31881", "lat": 38.9214155, "lon": -77.012219, "rental_uris": {"android": "https://dc.lft.to/lastmile_qr_scan", "ios": "https://dc.lft.to/lastmile_qr_scan"}, "is_disabled": 0, "fusion_lat": 0.0, "name": "ffddb3bdcce7f84648ec535203f31881", "fusion_lon": 0.0}, {"is_reserved": 0, "type": "electric_scooter", "bike_id": "3c846cb523489adf4f89be35f51ad209", "lat": 38.907255, "lon": -77.04482983333334, "rental_uris": {"android": "https://dc.lft.to/lastmile_qr_scan", "ios": "https://dc.lft.to/lastmile_qr_scan"}, "is_disabled": 0, "fusion_lat": 0.0, "name": "3c846cb523489adf4f89be35f51ad209", "fusion_lon": 0.0}, {"is_reserved": 0, "type": "electric_scooter", "bike_id": "1de9583f370d3c6b860082f278b6df05", "lat": 38.90370166666666, "lon": -77.0163735, "rental_uris": {"android": "https://dc.lft.to/lastmile_qr_scan", "ios": "https://dc.lft.to/lastmile_qr_scan"}, "is_disabled": 0, "fusion_lat": 0.0, "name": "1de9583f370d3c6b860082f278b6df05", "fusion_lon": 0.0}, {"is_reserved": 0, "type": "electric_scooter", "bike_id": "b0f6247b3fac80f5595ea3dfce36704f", "lat": 38.887712666666665, "lon": -76.93262883333334, "rental_uris": {"android": "https://dc.lft.to/lastmile_qr_scan", "ios": "https://dc.lft.to/lastmile_qr_scan"}, "is_disabled": 0, "fusion_lat": 0.0, "name": "b0f6247b3fac80f5595ea3dfce36704f", "fusion_lon": 0.0}, {"is_reserved": 0, "type": "electric_scooter", "bike_id": "3ead48652fe1e1e61ea9295d1a343485", "lat": 38.9318395, "lon": -77.0262885, "rental_uris": {"android": "https://dc.lft.to/lastmile_qr_scan", "ios": "https://dc.lft.to/lastmile_qr_scan"}, "is_disabled": 0, "fusion_lat": 0.0, "name": "3ead48652fe1e1e61ea9295d1a343485", "fusion_lon": 0.0}, {"is_reserved": 0, "type": "electric_scooter", "bike_id": "cfdfe84174f766e89a7aac23d4a3e339", "lat": 38.922434833333334, "lon": -77.03894033333333, "rental_uris": {"android": "https://dc.lft.to/lastmile_qr_scan", "ios": "https://dc.lft.to/lastmile_qr_scan"}, "is_disabled": 0, "fusion_lat": 0.0, "name": "cfdfe84174f766e89a7aac23d4a3e339", "fusion_lon": 0.0}, {"is_reserved": 0, "type": "electric_scooter", "bike_id": "164f06e30b6f31ec21015f9f9d8fae62", "lat": 38.90515883333333, "lon": -76.99562983333334, "rental_uris": {"android": "https://dc.lft.to/lastmile_qr_scan", "ios": "https://dc.lft.to/lastmile_qr_scan"}, "is_disabled": 0, "fusion_lat": 0.0, "name": "164f06e30b6f31ec21015f9f9d8fae62", "fusion_lon": 0.0}, {"is_reserved": 0, "type": "electric_scooter", "bike_id": "799ee11ad9b56cc766aa773d2491cee5", "lat": 38.940273, "lon": -77.02643883333333, "rental_uris": {"android": "https://dc.lft.to/lastmile_qr_scan", "ios": "https://dc.lft.to/lastmile_qr_scan"}, "is_disabled": 0, "fusion_lat": 0.0, "name": "799ee11ad9b56cc766aa773d2491cee5", "fusion_lon": 0.0}, {"is_reserved": 0, "type": "electric_scooter", "bike_id": "864fbef670c1144cd00abfc76ccd3925", "lat": 38.892454, "lon": -77.03346733333333, "rental_uris": {"android": "https://dc.lft.to/lastmile_qr_scan", "ios": "https://dc.lft.to/lastmile_qr_scan"}, "is_disabled": 0, "fusion_lat": 0.0, "name": "864fbef670c1144cd00abfc76ccd3925", "fusion_lon": 0.0}, {"is_reserved": 0, "type": "electric_bike", "bike_id": "df53007e4cddd63d544b2c23d3589a7d", "lat": 38.8956515, "lon": -77.1273615, "rental_uris": {"android": "https://dc.lft.to/lastmile_qr_scan", "ios": "https://dc.lft.to/lastmile_qr_scan"}, "is_disabled": 0, "fusion_lat": 0.0, "name": "df53007e4cddd63d544b2c23d3589a7d", "fusion_lon": 0.0}, {"is_reserved": 0, "type": "electric_scooter", "bike_id": "3a0ee6b4f19efe85ce785f4f181261fa", "lat": 38.90355383333333, "lon": -77.0110765, "rental_uris": {"android": "https://dc.lft.to/lastmile_qr_scan", "ios": "https://dc.lft.to/lastmile_qr_scan"}, "is_disabled": 0, "fusion_lat": 0.0, "name": "3a0ee6b4f19efe85ce785f4f181261fa", "fusion_lon": 0.0}, {"is_reserved": 0, "type": "electric_scooter", "bike_id": "e55b2e9cec619891d83bd244395542c0", "lat": 38.89643816666667, "lon": -77.02621216666667, "rental_uris": {"android": "https://dc.lft.to/lastmile_qr_scan", "ios": "https://dc.lft.to/lastmile_qr_scan"}, "is_disabled": 0, "fusion_lat": 0.0, "name": "e55b2e9cec619891d83bd244395542c0", "fusion_lon": 0.0}, {"is_reserved": 0, "type": "electric_scooter", "bike_id": "9ff8ac1742219f461f6f1dd4cb3312c0", "lat": 38.90968816666667, "lon": -77.04503, "rental_uris": {"android": "https://dc.lft.to/lastmile_qr_scan", "ios": "https://dc.lft.to/lastmile_qr_scan"}, "is_disabled": 0, "fusion_lat": 0.0, "name": "9ff8ac1742219f461f6f1dd4cb3312c0", "fusion_lon": 0.0}, {"is_reserved": 0, "type": "electric_scooter", "bike_id": "3a277b2626bf5ca5cb04a1ee84a84553", "lat": 38.917102166666666, "lon": -77.03146566666666, "rental_uris": {"android": "https://dc.lft.to/lastmile_qr_scan", "ios": "https://dc.lft.to/lastmile_qr_scan"}, "is_disabled": 0, "fusion_lat": 0.0, "name": "3a277b2626bf5ca5cb04a1ee84a84553", "fusion_lon": 0.0}, {"is_reserved": 0, "type": "electric_scooter", "bike_id": "71e4f23cf755d8cc8fd20dea32582468", "lat": 38.920901, "lon": -77.01792483333334, "rental_uris": {"android": "https://dc.lft.to/lastmile_qr_scan", "ios": "https://dc.lft.to/lastmile_qr_scan"}, "is_disabled": 0, "fusion_lat": 0.0, "name": "71e4f23cf755d8cc8fd20dea32582468", "fusion_lon": 0.0}, {"is_reserved": 0, "type": "electric_scooter", "bike_id": "c40b8532532bb1863036d71d5051545b", "lat": 38.906306, "lon": -77.05140383333334, "rental_uris": {"android": "https://dc.lft.to/lastmile_qr_scan", "ios": "https://dc.lft.to/lastmile_qr_scan"}, "is_disabled": 0, "fusion_lat": 0.0, "name": "c40b8532532bb1863036d71d5051545b", "fusion_lon": 0.0}, {"is_reserved": 0, "type": "electric_scooter", "bike_id": "5d97ee008aa7792f432640486c0bb699", "lat": 38.90921183333333, "lon": -77.03986, "rental_uris": {"android": "https://dc.lft.to/lastmile_qr_scan", "ios": "https://dc.lft.to/lastmile_qr_scan"}, "is_disabled": 0, "fusion_lat": 0.0, "name": "5d97ee008aa7792f432640486c0bb699", "fusion_lon": 0.0}, {"is_reserved": 0, "type": "electric_scooter", "bike_id": "c7a18919ef506d539ca9fbde5aaefe5a", "lat": 38.93524083333333, "lon": -77.019391, "rental_uris": {"android": "https://dc.lft.to/lastmile_qr_scan", "ios": "https://dc.lft.to/lastmile_qr_scan"}, "is_disabled": 0, "fusion_lat": 0.0, "name": "c7a18919ef506d539ca9fbde5aaefe5a", "fusion_lon": 0.0}, {"is_reserved": 0, "type": "electric_scooter", "bike_id": "f7a3c10802c78a845a3250cf75c922eb", "lat": 38.9111955, "lon": -77.0383535, "rental_uris": {"android": "https://dc.lft.to/lastmile_qr_scan", "ios": "https://dc.lft.to/lastmile_qr_scan"}, "is_disabled": 0, "fusion_lat": 0.0, "name": "f7a3c10802c78a845a3250cf75c922eb", "fusion_lon": 0.0}, {"is_reserved": 0, "type": "electric_scooter", "bike_id": "453f7c5a9dfe0cdc05a8ff6aff0164d4", "lat": 38.90695566666667, "lon": -76.98352283333334, "rental_uris": {"android": "https://dc.lft.to/lastmile_qr_scan", "ios": "https://dc.lft.to/lastmile_qr_scan"}, "is_disabled": 0, "fusion_lat": 0.0, "name": "453f7c5a9dfe0cdc05a8ff6aff0164d4", "fusion_lon": 0.0}, {"is_reserved": 0, "type": "electric_scooter", "bike_id": "60c0fc4f5f6664b6865b0d3d6f661236", "lat": 38.9056, "lon": -77.0159035, "rental_uris": {"android": "https://dc.lft.to/lastmile_qr_scan", "ios": "https://dc.lft.to/lastmile_qr_scan"}, "is_disabled": 0, "fusion_lat": 0.0, "name": "60c0fc4f5f6664b6865b0d3d6f661236", "fusion_lon": 0.0}, {"is_reserved": 0, "type": "electric_scooter", "bike_id": "9802fc2a907ba523e04f1090d4592e9d", "lat": 38.899478333333334, "lon": -76.9791445, "rental_uris": {"android": "https://dc.lft.to/lastmile_qr_scan", "ios": "https://dc.lft.to/lastmile_qr_scan"}, "is_disabled": 0, "fusion_lat": 0.0, "name": "9802fc2a907ba523e04f1090d4592e9d", "fusion_lon": 0.0}, {"is_reserved": 0, "type": "electric_scooter", "bike_id": "207498064cf80f6b07651345a3fbf594", "lat": 38.9086185, "lon": -77.04346783333334, "rental_uris": {"android": "https://dc.lft.to/lastmile_qr_scan", "ios": "https://dc.lft.to/lastmile_qr_scan"}, "is_disabled": 0, "fusion_lat": 0.0, "name": "207498064cf80f6b07651345a3fbf594", "fusion_lon": 0.0}, {"is_reserved": 0, "type": "electric_scooter", "bike_id": "68d6f9801ccd99f962a1940c88cc863f", "lat": 38.90554683333333, "lon": -77.05697316666667, "rental_uris": {"android": "https://dc.lft.to/lastmile_qr_scan", "ios": "https://dc.lft.to/lastmile_qr_scan"}, "is_disabled": 0, "fusion_lat": 0.0, "name": "68d6f9801ccd99f962a1940c88cc863f", "fusion_lon": 0.0}, {"is_reserved": 0, "type": "electric_scooter", "bike_id": "7a1da538717d866610dcccf47089ed29", "lat": 38.872129666666666, "lon": -77.013518, "rental_uris": {"android": "https://dc.lft.to/lastmile_qr_scan", "ios": "https://dc.lft.to/lastmile_qr_scan"}, "is_disabled": 0, "fusion_lat": 0.0, "name": "7a1da538717d866610dcccf47089ed29", "fusion_lon": 0.0}, {"is_reserved": 0, "type": "electric_scooter", "bike_id": "696d319bc284d4d60a6ab125ff39361b", "lat": 38.90930816666667, "lon": -76.99626233333333, "rental_uris": {"android": "https://dc.lft.to/lastmile_qr_scan", "ios": "https://dc.lft.to/lastmile_qr_scan"}, "is_disabled": 0, "fusion_lat": 0.0, "name": "696d319bc284d4d60a6ab125ff39361b", "fusion_lon": 0.0}, {"is_reserved": 0, "type": "electric_scooter", "bike_id": "34321b964bbe91a29d1cd91657becb6d", "lat": 38.9097515, "lon": -77.02418016666667, "rental_uris": {"android": "https://dc.lft.to/lastmile_qr_scan", "ios": "https://dc.lft.to/lastmile_qr_scan"}, "is_disabled": 0, "fusion_lat": 0.0, "name": "34321b964bbe91a29d1cd91657becb6d", "fusion_lon": 0.0}, {"is_reserved": 0, "type": "electric_scooter", "bike_id": "d99c628c7686a76ca4a4ed5f57ffc09b", "lat": 38.92480583333333, "lon": -77.02721883333334, "rental_uris": {"android": "https://dc.lft.to/lastmile_qr_scan", "ios": "https://dc.lft.to/lastmile_qr_scan"}, "is_disabled": 0, "fusion_lat": 0.0, "name": "d99c628c7686a76ca4a4ed5f57ffc09b", "fusion_lon": 0.0}, {"is_reserved": 0, "type": "electric_scooter", "bike_id": "93c7cc1329631f2622f01d7de57b010f", "lat": 38.91555133333333, "lon": -77.03100783333333, "rental_uris": {"android": "https://dc.lft.to/lastmile_qr_scan", "ios": "https://dc.lft.to/lastmile_qr_scan"}, "is_disabled": 0, "fusion_lat": 0.0, "name": "93c7cc1329631f2622f01d7de57b010f", "fusion_lon": 0.0}, {"is_reserved": 0, "type": "electric_scooter", "bike_id": "575cfbd32a30eb5070f213150b46f0f0", "lat": 38.909762, "lon": -77.04774783333333, "rental_uris": {"android": "https://dc.lft.to/lastmile_qr_scan", "ios": "https://dc.lft.to/lastmile_qr_scan"}, "is_disabled": 0, "fusion_lat": 0.0, "name": "575cfbd32a30eb5070f213150b46f0f0", "fusion_lon": 0.0}, {"is_reserved": 0, "type": "electric_scooter", "bike_id": "d1c7e5fac89342387b742819fa4c7615", "lat": 38.93408016666667, "lon": -77.0203945, "rental_uris": {"android": "https://dc.lft.to/lastmile_qr_scan", "ios": "https://dc.lft.to/lastmile_qr_scan"}, "is_disabled": 0, "fusion_lat": 0.0, "name": "d1c7e5fac89342387b742819fa4c7615", "fusion_lon": 0.0}, {"is_reserved": 0, "type": "electric_scooter", "bike_id": "4cd416b39e2dd9532d4622b6370d8109", "lat": 38.89898383333333, "lon": -77.00353533333333, "rental_uris": {"android": "https://dc.lft.to/lastmile_qr_scan", "ios": "https://dc.lft.to/lastmile_qr_scan"}, "is_disabled": 0, "fusion_lat": 0.0, "name": "4cd416b39e2dd9532d4622b6370d8109", "fusion_lon": 0.0}, {"is_reserved": 0, "type": "electric_scooter", "bike_id": "11dd69ec28fa4f54ea478d59a36d6b34", "lat": 38.89888116666667, "lon": -77.0162085, "rental_uris": {"android": "https://dc.lft.to/lastmile_qr_scan", "ios": "https://dc.lft.to/lastmile_qr_scan"}, "is_disabled": 0, "fusion_lat": 0.0, "name": "11dd69ec28fa4f54ea478d59a36d6b34", "fusion_lon": 0.0}, {"is_reserved": 0, "type": "electric_scooter", "bike_id": "80e58d69a96a8ba2a6a00e81812a6214", "lat": 38.91058266666667, "lon": -77.04386133333334, "rental_uris": {"android": "https://dc.lft.to/lastmile_qr_scan", "ios": "https://dc.lft.to/lastmile_qr_scan"}, "is_disabled": 0, "fusion_lat": 0.0, "name": "80e58d69a96a8ba2a6a00e81812a6214", "fusion_lon": 0.0}, {"is_reserved": 0, "type": "electric_scooter", "bike_id": "ba750cad39a84d7c041902b7ae5049b0", "lat": 38.983028833333336, "lon": -77.02650833333334, "rental_uris": {"android": "https://dc.lft.to/lastmile_qr_scan", "ios": "https://dc.lft.to/lastmile_qr_scan"}, "is_disabled": 0, "fusion_lat": 0.0, "name": "ba750cad39a84d7c041902b7ae5049b0", "fusion_lon": 0.0}, {"is_reserved": 0, "type": "electric_scooter", "bike_id": "48133686f53c9078b8cddfc19c369174", "lat": 38.9258495, "lon": -77.041001, "rental_uris": {"android": "https://dc.lft.to/lastmile_qr_scan", "ios": "https://dc.lft.to/lastmile_qr_scan"}, "is_disabled": 0, "fusion_lat": 0.0, "name": "48133686f53c9078b8cddfc19c369174", "fusion_lon": 0.0}, {"is_reserved": 0, "type": "electric_scooter", "bike_id": "7f26c39e8575cdb4e462584cfca50db9", "lat": 38.887386, "lon": -77.0134965, "rental_uris": {"android": "https://dc.lft.to/lastmile_qr_scan", "ios": "https://dc.lft.to/lastmile_qr_scan"}, "is_disabled": 0, "fusion_lat": 0.0, "name": "7f26c39e8575cdb4e462584cfca50db9", "fusion_lon": 0.0}, {"is_reserved": 0, "type": "electric_scooter", "bike_id": "bd82e6d1e864f9206e4d9629f632389f", "lat": 38.94440916666667, "lon": -77.029168, "rental_uris": {"android": "https://dc.lft.to/lastmile_qr_scan", "ios": "https://dc.lft.to/lastmile_qr_scan"}, "is_disabled": 0, "fusion_lat": 0.0, "name": "bd82e6d1e864f9206e4d9629f632389f", "fusion_lon": 0.0}, {"is_reserved": 0, "type": "electric_scooter", "bike_id": "b9beee77a8f39fa2edf21d36de0a1e2e", "lat": 38.90043, "lon": -76.982869, "rental_uris": {"android": "https://dc.lft.to/lastmile_qr_scan", "ios": "https://dc.lft.to/lastmile_qr_scan"},