{"data": {"bikes": [{"is_disabled": 0, "is_reserved": 0, "type": "electric_scooter", "lon": -77.03336683333333, "fusion_lon": 0.0, "lat": 38.892285, "rental_uris": {"android": "https://dc.lft.to/lastmile_qr_scan", "ios": "https://dc.lft.to/lastmile_qr_scan"}, "fusion_lat": 0.0, "name": "6b4c2acbd44f422982bc4209b8f492b5", "bike_id": "6b4c2acbd44f422982bc4209b8f492b5"}, {"is_disabled": 0, "is_reserved": 0, "type": "electric_bike", "lon": -76.93022716666667, "fusion_lon": 0.0, "lat": 38.96644933333334, "rental_uris": {"android": "https://dc.lft.to/lastmile_qr_scan", "ios": "https://dc.lft.to/lastmile_qr_scan"}, "fusion_lat": 0.0, "name": "896068a35f8e770deda6e415d84ac65a", "bike_id": "896068a35f8e770deda6e415d84ac65a"}, {"is_disabled": 0, "is_reserved": 0, "type": "electric_scooter", "lon": -77.048827, "fusion_lon": 0.0, "lat": 38.898149333333336, "rental_uris": {"android": "https://dc.lft.to/lastmile_qr_scan", "ios": "https://dc.lft.to/lastmile_qr_scan"}, "fusion_lat": 0.0, "name": "4079430c0d2e56bea353f0f80a9141ac", "bike_id": "4079430c0d2e56bea353f0f80a9141ac"}, {"is_disabled": 0, "is_reserved": 0, "type": "electric_scooter", "lon": -76.99956233333333, "fusion_lon": 0.0, "lat": 38.90112383333334, "rental_uris": {"android": "https://dc.lft.to/lastmile_qr_scan", "ios": "https://dc.lft.to/lastmile_qr_scan"}, "fusion_lat": 0.0, "name": "372042e5a275c7bc0b4ce2b8960c03d1", "bike_id": "372042e5a275c7bc0b4ce2b8960c03d1"}, {"is_disabled": 0, "is_reserved": 0, "type": "electric_scooter", "lon": -77.01304416666666, "fusion_lon": 0.0, "lat": 38.9009585, "rental_uris": {"android": "https://dc.lft.to/lastmile_qr_scan", "ios": "https://dc.lft.to/lastmile_qr_scan"}, "fusion_lat": 0.0, "name": "ea55f98d6581fc7b644d817461b5e203", "bike_id": "ea55f98d6581fc7b644d817461b5e203"}, {"is_disabled": 0, "is_reserved": 0, "type": "electric_scooter", "lon": -76.99609183333334, "fusion_lon": 0.0, "lat": 38.88484866666667, "rental_uris": {"android": "https://dc.lft.to/lastmile_qr_scan", "ios": "https://dc.lft.to/lastmile_qr_scan"}, "fusion_lat": 0.0, "name": "b035576308804484139af9d87f7aaed6", "bike_id": "b035576308804484139af9d87f7aaed6"}, {"is_disabled": 0, "is_reserved": 0, "type": "electric_scooter", "lon": -76.9982315, "fusion_lon": 0.0, "lat": 38.90868666666667, "rental_uris": {"android": "https://dc.lft.to/lastmile_qr_scan", "ios": "https://dc.lft.to/lastmile_qr_scan"}, "fusion_lat": 0.0, "name": "aa0a89d2afd31d6eb1f7d122870edd96", "bike_id": "aa0a89d2afd31d6eb1f7d122870edd96"}, {"is_disabled": 0, "is_reserved": 0, "type": "electric_bike", "lon": -76.91323366666667, "fusion_lon": 0.0, "lat": 38.895988, "rental_uris": {"android": "https://dc.lft.to/lastmile_qr_scan", "ios": "https://dc.lft.to/lastmile_qr_scan"}, "fusion_lat": 0.0, "name": "c7227bec1a93d94848d7d2c6e2ad39bc", "bike_id": "c7227bec1a93d94848d7d2c6e2ad39bc"}, {"is_disabled": 0, "is_reserved": 0, "type": "electric_scooter", "lon": -77.025879, "fusion_lon": 0.0, "lat": 38.920373166666664, "rental_uris": {"android": "https://dc.lft.to/lastmile_qr_scan", "ios": "https://dc.lft.to/lastmile_qr_scan"}, "fusion_lat": 0.0, "name": "bd63bf1f019d9529d72c511ab3aee55b", "bike_id": "bd63bf1f019d9529d72c511ab3aee55b"}, {"is_disabled": 0, "is_reserved": 0, "type": "electric_scooter", "lon": -77.034081, "fusion_lon": 0.0, "lat": 38.921588166666666, "rental_uris": {"android": "https://dc.lft.to/lastmile_qr_scan", "ios": "https://dc.lft.to/lastmile_qr_scan"}, "fusion_lat": 0.0, "name": "6897aeffdcab412a92c196a47018c9f9", "bike_id": "6897aeffdcab412a92c196a47018c9f9"}, {"is_disabled": 0, "is_reserved": 0, "type": "electric_scooter", "lon": -76.9987325, "fusion_lon": 0.0, "lat": 38.90015266666666, "rental_uris": {"android": "https://dc.lft.to/lastmile_qr_scan", "ios": "https://dc.lft.to/lastmile_qr_scan"}, "fusion_lat": 0.0, "name": "bb6714efb42ceba64e7a03d21ab4c4fb", "bike_id": "bb6714efb42ceba64e7a03d21ab4c4fb"}, {"is_disabled": 0, "is_reserved": 0, "type": "electric_scooter", "lon": -77.032623, "fusion_lon": 0.0, "lat": 38.90974883333333, "rental_uris": {"android": "https://dc.lft.to/lastmile_qr_scan", "ios": "https://dc.lft.to/lastmile_qr_scan"}, "fusion_lat": 0.0, "name": "6ab454258af15f321abe557d6aebc826", "bike_id": "6ab454258af15f321abe557d6aebc826"}, {"is_disabled": 0, "is_reserved": 0, "type": "electric_scooter", "lon": -77.02008366666666, "fusion_lon": 0.0, "lat": 38.8789055, "rental_uris": {"android": "https://dc.lft.to/lastmile_qr_scan", "ios": "https://dc.lft.to/lastmile_qr_scan"}, "fusion_lat": 0.0, "name": "43c53940bd1c61874d1d6e7871267698", "bike_id": "43c53940bd1c61874d1d6e7871267698"}, {"is_disabled": 0, "is_reserved": 0, "type": "electric_scooter", "lon": -77.04167433333333, "fusion_lon": 0.0, "lat": 38.91859266666667, "rental_uris": {"android": "https://dc.lft.to/lastmile_qr_scan", "ios": "https://dc.lft.to/lastmile_qr_scan"}, "fusion_lat": 0.0, "name": "b5eabb9f862f4de496748364c629df5c", "bike_id": "b5eabb9f862f4de496748364c629df5c"}, {"is_disabled": 0, "is_reserved": 0, "type": "electric_scooter", "lon": -77.08010033333333, "fusion_lon": 0.0, "lat": 38.94907716666667, "rental_uris": {"android": "https://dc.lft.to/lastmile_qr_scan", "ios": "https://dc.lft.to/lastmile_qr_scan"}, "fusion_lat": 0.0, "name": "8ca2035262c50fb6dfde7d75473f7898", "bike_id": "8ca2035262c50fb6dfde7d75473f7898"}, {"is_disabled": 0, "is_reserved": 0, "type": "electric_scooter", "lon": -77.04056516666667, "fusion_lon": 0.0, "lat": 38.901315333333336, "rental_uris": {"android": "https://dc.lft.to/lastmile_qr_scan", "ios": "https://dc.lft.to/lastmile_qr_scan"}, "fusion_lat": 0.0, "name": "e092aa22ce71159351b264ae97220fa7", "bike_id": "e092aa22ce71159351b264ae97220fa7"}, {"is_disabled": 0, "is_reserved": 0, "type": "electric_scooter", "lon": -77.032136, "fusion_lon": 0.0, "lat": 38.918396333333334, "rental_uris": {"android": "https://dc.lft.to/lastmile_qr_scan", "ios": "https://dc.lft.to/lastmile_qr_scan"}, "fusion_lat": 0.0, "name": "ad2994a73618e0d8e892c4e204664564", "bike_id": "ad2994a73618e0d8e892c4e204664564"}, {"is_disabled": 0, "is_reserved": 0, "type": "electric_scooter", "lon": -77.00361683333334, "fusion_lon": 0.0, "lat": 38.916922, "rental_uris": {"android": "https://dc.lft.to/lastmile_qr_scan", "ios": "https://dc.lft.to/lastmile_qr_scan"}, "fusion_lat": 0.0, "name": "df38c028c8a37a622555ebdd3aa13078", "bike_id": "df38c028c8a37a622555ebdd3aa13078"}, {"is_disabled": 0, "is_reserved": 0, "type": "electric_scooter", "lon": -76.91879216666666, "fusion_lon": 0.0, "lat": 38.89077566666667, "rental_uris": {"android": "https://dc.lft.to/lastmile_qr_scan", "ios": "https://dc.lft.to/lastmile_qr_scan"}, "fusion_lat": 0.0, "name": "ff21a482811183f20e93d586b927f711", "bike_id": "ff21a482811183f20e93d586b927f711"}, {"is_disabled": 0, "is_reserved": 0, "type": "electric_scooter", "lon": -77.02493933333334, "fusion_lon": 0.0, "lat": 38.91808783333333, "rental_uris": {"android": "https://dc.lft.to/lastmile_qr_scan", "ios": "https://dc.lft.to/lastmile_qr_scan"}, "fusion_lat": 0.0, "name": "1b82b43d8560838db687785e4bd87754", "bike_id": "1b82b43d8560838db687785e4bd87754"}, {"is_disabled": 0, "is_reserved": 0, "type": "electric_bike", "lon": -76.98327433333333, "fusion_lon": 0.0, "lat": 38.9660385, "rental_uris": {"android": "https://dc.lft.to/lastmile_qr_scan", "ios": "https://dc.lft.to/lastmile_qr_scan"}, "fusion_lat": 0.0, "name": "e80770ac98cc5f3084314e247d7c5020", "bike_id": "e80770ac98cc5f3084314e247d7c5020"}, {"is_disabled": 0, "is_reserved": 0, "type": "electric_scooter", "lon": -77.0046345, "fusion_lon": 0.0, "lat": 38.87740933333333, "rental_uris": {"android": "https://dc.lft.to/lastmile_qr_scan", "ios": "https://dc.lft.to/lastmile_qr_scan"}, "fusion_lat": 0.0, "name": "b3e8e27da67279588ff67825277e9157", "bike_id": "b3e8e27da67279588ff67825277e9157"}, {"is_disabled": 0, "is_reserved": 0, "type": "electric_scooter", "lon": -77.016167, "fusion_lon": 0.0, "lat": 38.88745333333333, "rental_uris": {"android": "https://dc.lft.to/lastmile_qr_scan", "ios": "https://dc.lft.to/lastmile_qr_scan"}, "fusion_lat": 0.0, "name": "2553c4e3fb949ad33ea31e172604ccbc", "bike_id": "2553c4e3fb949ad33ea31e172604ccbc"}, {"is_disabled": 0, "is_reserved": 0, "type": "electric_bike", "lon": -77.04363616666667, "fusion_lon": 0.0, "lat": 38.831826, "rental_uris": {"android": "https://dc.lft.to/lastmile_qr_scan", "ios": "https://dc.lft.to/lastmile_qr_scan"}, "fusion_lat": 0.0, "name": "b42b0b0fff36de31b2e1f7b0d8b69e7e", "bike_id": "b42b0b0fff36de31b2e1f7b0d8b69e7e"}, {"is_disabled": 0, "is_reserved": 0, "type": "electric_scooter", "lon": -77.02841466666666, "fusion_lon": 0.0, "lat": 38.92234766666667, "rental_uris": {"android": "https://dc.lft.to/lastmile_qr_scan", "ios": "https://dc.lft.to/lastmile_qr_scan"}, "fusion_lat": 0.0, "name": "4a6ae94fc0d7c5e1addf2c2a4d718324", "bike_id": "4a6ae94fc0d7c5e1addf2c2a4d718324"}, {"is_disabled": 0, "is_reserved": 0, "type": "electric_scooter", "lon": -76.93370866666666, "fusion_lon": 0.0, "lat": 38.89923833333334, "rental_uris": {"android": "https://dc.lft.to/lastmile_qr_scan", "ios": "https://dc.lft.to/lastmile_qr_scan"}, "fusion_lat": 0.0, "name": "682636d83ef010ec12cdc448e34a2ec2", "bike_id": "682636d83ef010ec12cdc448e34a2ec2"}, {"is_disabled": 0, "is_reserved": 0, "type": "electric_scooter", "lon": -77.05339533333333, "fusion_lon": 0.0, "lat": 38.927901166666665, "rental_uris": {"android": "https://dc.lft.to/lastmile_qr_scan", "ios": "https://dc.lft.to/lastmile_qr_scan"}, "fusion_lat": 0.0, "name": "f173bf1585ba5554b64cebc366e73056", "bike_id": "f173bf1585ba5554b64cebc366e73056"}, {"is_disabled": 0, "is_reserved": 0, "type": "electric_scooter", "lon": -77.02473816666667, "fusion_lon": 0.0, "lat": 38.918847, "rental_uris": {"android": "https://dc.lft.to/lastmile_qr_scan", "ios": "https://dc.lft.to/lastmile_qr_scan"}, "fusion_lat": 0.0, "name": "7e3c13456b93d8d516fd610a0d745c04", "bike_id": "7e3c13456b93d8d516fd610a0d745c04"}, {"is_disabled": 0, "is_reserved": 0, "type": "electric_scooter", "lon": -77.0446845, "fusion_lon": 0.0, "lat": 38.912655, "rental_uris": {"android": "https://dc.lft.to/lastmile_qr_scan", "ios": "https://dc.lft.to/lastmile_qr_scan"}, "fusion_lat": 0.0, "name": "646c5024c0ae969ed4113a3d688a6c1d", "bike_id": "646c5024c0ae969ed4113a3d688a6c1d"}, {"is_disabled": 0, "is_reserved": 0, "type": "electric_scooter", "lon": -77.022241, "fusion_lon": 0.0, "lat": 38.895957, "rental_uris": {"android": "https://dc.lft.to/lastmile_qr_scan", "ios": "https://dc.lft.to/lastmile_qr_scan"}, "fusion_lat": 0.0, "name": "557c6664aaefcbbcebfff4442367b4f4", "bike_id": "557c6664aaefcbbcebfff4442367b4f4"}, {"is_disabled": 0, "is_reserved": 0, "type": "electric_scooter", "lon": -77.00339216666667, "fusion_lon": 0.0, "lat": 38.893565, "rental_uris": {"android": "https://dc.lft.to/lastmile_qr_scan", "ios": "https://dc.lft.to/lastmile_qr_scan"}, "fusion_lat": 0.0, "name": "b0f8f7a28f3b87e37365a98243505c0c", "bike_id": "b0f8f7a28f3b87e37365a98243505c0c"}, {"is_disabled": 0, "is_reserved": 0, "type": "electric_scooter", "lon": -76.9872495, "fusion_lon": 0.0, "lat": 38.8671195, "rental_uris": {"android": "https://dc.lft.to/lastmile_qr_scan", "ios": "https://dc.lft.to/lastmile_qr_scan"}, "fusion_lat": 0.0, "name": "60e00c0d56be67d526213a58622ca642", "bike_id": "60e00c0d56be67d526213a58622ca642"}, {"is_disabled": 0, "is_reserved": 0, "type": "electric_scooter", "lon": -77.032148, "fusion_lon": 0.0, "lat": 38.90747916666667, "rental_uris": {"android": "https://dc.lft.to/lastmile_qr_scan", "ios": "https://dc.lft.to/lastmile_qr_scan"}, "fusion_lat": 0.0, "name": "ee42fcad9f46adbe7cc4f08e2187c41b", "bike_id": "ee42fcad9f46adbe7cc4f08e2187c41b"}, {"is_disabled": 0, "is_reserved": 0, "type": "electric_scooter", "lon": -77.033464, "fusion_lon": 0.0, "lat": 38.917050833333334, "rental_uris": {"android": "https://dc.lft.to/lastmile_qr_scan", "ios": "https://dc.lft.to/lastmile_qr_scan"}, "fusion_lat": 0.0, "name": "698a0c66267496ada0274793bc416717", "bike_id": "698a0c66267496ada0274793bc416717"}, {"is_disabled": 0, "is_reserved": 0, "type": "electric_scooter", "lon": -77.0320675, "fusion_lon": 0.0, "lat": 38.9109585, "rental_uris": {"android": "https://dc.lft.to/lastmile_qr_scan", "ios": "https://dc.lft.to/lastmile_qr_scan"}, "fusion_lat": 0.0, "name": "de02ab4a169bb4d7f59ad628dc1469ac", "bike_id": "de02ab4a169bb4d7f59ad628dc1469ac"}, {"is_disabled": 0, "is_reserved": 0, "type": "electric_scooter", "lon": -77.023499, "fusion_lon": 0.0, "lat": 38.922647, "rental_uris": {"android": "https://dc.lft.to/lastmile_qr_scan", "ios": "https://dc.lft.to/lastmile_qr_scan"}, "fusion_lat": 0.0, "name": "5c6a07d6d3753fccfe6789329684d4e4", "bike_id": "5c6a07d6d3753fccfe6789329684d4e4"}, {"is_disabled": 0, "is_reserved": 0, "type": "electric_bike", "lon": -77.08799816666667, "fusion_lon": 0.0, "lat": 38.8317195, "rental_uris": {"android": "https://dc.lft.to/lastmile_qr_scan", "ios": "https://dc.lft.to/lastmile_qr_scan"}, "fusion_lat": 0.0, "name": "abf50fad77f80ef0b26edf1db76263bb", "bike_id": "abf50fad77f80ef0b26edf1db76263bb"}, {"is_disabled": 0, "is_reserved": 0, "type": "electric_scooter", "lon": -77.04630616666667, "fusion_lon": 0.0, "lat": 38.91813066666667, "rental_uris": {"android": "https://dc.lft.to/lastmile_qr_scan", "ios": "https://dc.lft.to/lastmile_qr_scan"}, "fusion_lat": 0.0, "name": "16707f90357440790f4cfa76c9dd4222", "bike_id": "16707f90357440790f4cfa76c9dd4222"}, {"is_disabled": 0, "is_reserved": 0, "type": "electric_scooter", "lon": -77.03845633333333, "fusion_lon": 0.0, "lat": 38.926475833333335, "rental_uris": {"android": "https://dc.lft.to/lastmile_qr_scan", "ios": "https://dc.lft.to/lastmile_qr_scan"}, "fusion_lat": 0.0, "name": "89e6996d51d4e420773925d8084ba302", "bike_id": "89e6996d51d4e420773925d8084ba302"}, {"is_disabled": 0, "is_reserved": 0, "type": "electric_bike", "lon": -76.95206183333333, "fusion_lon": 0.0, "lat": 38.93670983333333, "rental_uris": {"android": "https://dc.lft.to/lastmile_qr_scan", "ios": "https://dc.lft.to/lastmile_qr_scan"}, "fusion_lat": 0.0, "name": "9b5c556d5ca9d41ca083ab71cdab7965", "bike_id": "9b5c556d5ca9d41ca083ab71cdab7965"}, {"is_disabled": 0, "is_reserved": 0, "type": "electric_scooter", "lon": -77.01018283333333, "fusion_lon": 0.0, "lat": 38.90625933333333, "rental_uris": {"android": "https://dc.lft.to/lastmile_qr_scan", "ios": "https://dc.lft.to/lastmile_qr_scan"}, "fusion_lat": 0.0, "name": "7433cfb05d654342491ab57f167ac45c", "bike_id": "7433cfb05d654342491ab57f167ac45c"}, {"is_disabled": 0, "is_reserved": 0, "type": "electric_scooter", "lon": -77.04361066666667, "fusion_lon": 0.0, "lat": 38.8986035, "rental_uris": {"android": "https://dc.lft.to/lastmile_qr_scan", "ios": "https://dc.lft.to/lastmile_qr_scan"}, "fusion_lat": 0.0, "name": "0b45593e9ae89df159a2628ba8b58461", "bike_id": "0b45593e9ae89df159a2628ba8b58461"}, {"is_disabled": 0, "is_reserved": 0, "type": "electric_scooter", "lon": -77.0354265, "fusion_lon": 0.0, "lat": 38.90357133333333, "rental_uris": {"android": "https://dc.lft.to/lastmile_qr_scan", "ios": "https://dc.lft.to/lastmile_qr_scan"}, "fusion_lat": 0.0, "name": "9ccdf60ffb6787da2ccb118cd3abfd6e", "bike_id": "9ccdf60ffb6787da2ccb118cd3abfd6e"}, {"is_disabled": 0, "is_reserved": 0, "type": "electric_scooter", "lon": -76.9781875, "fusion_lon": 0.0, "lat": 38.8460835, "rental_uris": {"android": "https://dc.lft.to/lastmile_qr_scan", "ios": "https://dc.lft.to/lastmile_qr_scan"}, "fusion_lat": 0.0, "name": "f8793c039c081846807da9dcd9f9e345", "bike_id": "f8793c039c081846807da9dcd9f9e345"}, {"is_disabled": 0, "is_reserved": 0, "type": "electric_bike", "lon": -77.10726583333333, "fusion_lon": 0.0, "lat": 38.8555705, "rental_uris": {"android": "https://dc.lft.to/lastmile_qr_scan", "ios": "https://dc.lft.to/lastmile_qr_scan"}, "fusion_lat": 0.0, "name": "013e571ba21529f77355e2f7133c269a", "bike_id": "013e571ba21529f77355e2f7133c269a"}, {"is_disabled": 0, "is_reserved": 0, "type": "electric_scooter", "lon": -76.94893466666667, "fusion_lon": 0.0, "lat": 38.895149, "rental_uris": {"android": "https://dc.lft.to/lastmile_qr_scan", "ios": "https://dc.lft.to/lastmile_qr_scan"}, "fusion_lat": 0.0, "name": "380d8bdcb723e5295684b859cadd9f12", "bike_id": "380d8bdcb723e5295684b859cadd9f12"}, {"is_disabled": 0, "is_reserved": 0, "type": "electric_scooter", "lon": -77.00833, "fusion_lon": 0.0, "lat": 38.876347333333335, "rental_uris": {"android": "https://dc.lft.to/lastmile_qr_scan", "ios": "https://dc.lft.to/lastmile_qr_scan"}, "fusion_lat": 0.0, "name": "ceeb5750f5ea5ac17245ad18c57b95df", "bike_id": "ceeb5750f5ea5ac17245ad18c57b95df"}, {"is_disabled": 0, "is_reserved": 0, "type": "electric_scooter", "lon": -77.0235425, "fusion_lon": 0.0, "lat": 38.93164866666667, "rental_uris": {"android": "https://dc.lft.to/lastmile_qr_scan", "ios": "https://dc.lft.to/lastmile_qr_scan"}, "fusion_lat": 0.0, "name": "7bf73170bc5075cccb245e95499815f1", "bike_id": "7bf73170bc5075cccb245e95499815f1"}, {"is_disabled": 0, "is_reserved": 0, "type": "electric_scooter", "lon": -76.99548416666667, "fusion_lon": 0.0, "lat": 38.90020716666667, "rental_uris": {"android": "https://dc.lft.to/lastmile_qr_scan", "ios": "https://dc.lft.to/lastmile_qr_scan"}, "fusion_lat": 0.0, "name": "17d00a19e9077bfbd7a137396bdbd069", "bike_id": "17d00a19e9077bfbd7a137396bdbd069"}, {"is_disabled": 0, "is_reserved": 0, "type": "electric_bike", "lon": -76.96388566666667, "fusion_lon": 0.0, "lat": 38.97578333333333, "rental_uris": {"android": "https://dc.lft.to/lastmile_qr_scan", "ios": "https://dc.lft.to/lastmile_qr_scan"}, "fusion_lat": 0.0, "name": "8c951c648622fd0b579b648138604e40", "bike_id": "8c951c648622fd0b579b648138604e40"}, {"is_disabled": 0, "is_reserved": 0, "type": "electric_scooter", "lon": -77.0411915, "fusion_lon": 0.0, "lat": 38.901438166666665, "rental_uris": {"android": "https://dc.lft.to/lastmile_qr_scan", "ios": "https://dc.lft.to/lastmile_qr_scan"}, "fusion_lat": 0.0, "name": "e75520e149420cef158f7c036ecbcb93", "bike_id": "e75520e149420cef158f7c036ecbcb93"}, {"is_disabled": 0, "is_reserved": 0, "type": "electric_bike", "lon": -77.033151, "fusion_lon": 0.0, "lat": 38.89227416666667, "rental_uris": {"android": "https://dc.lft.to/lastmile_qr_scan", "ios": "https://dc.lft.to/lastmile_qr_scan"}, "fusion_lat": 0.0, "name": "2244466506836120303ee1efc5147784", "bike_id": "2244466506836120303ee1efc5147784"}, {"is_disabled": 0, "is_reserved": 0, "type": "electric_scooter", "lon": -77.02327233333334, "fusion_lon": 0.0, "lat": 38.91764416666667, "rental_uris": {"android": "https://dc.lft.to/lastmile_qr_scan", "ios": "https://dc.lft.to/lastmile_qr_scan"}, "fusion_lat": 0.0, "name": "cad7ee712049a3a705580cf528f4cba7", "bike_id": "cad7ee712049a3a705580cf528f4cba7"}, {"is_disabled": 0, "is_reserved": 0, "type": "electric_bike", "lon": -76.87769816666666, "fusion_lon": 0.0, "lat": 38.99225, "rental_uris": {"android": "https://dc.lft.to/lastmile_qr_scan", "ios": "https://dc.lft.to/lastmile_qr_scan"}, "fusion_lat": 0.0, "name": "ffcdc36a084fbfc1119bae84c2202fa3", "bike_id": "ffcdc36a084fbfc1119bae84c2202fa3"}, {"is_disabled": 0, "is_reserved": 0, "type": "electric_scooter", "lon": -77.0326645, "fusion_lon": 0.0, "lat": 38.91910933333333, "rental_uris": {"android": "https://dc.lft.to/lastmile_qr_scan", "ios": "https://dc.lft.to/lastmile_qr_scan"}, "fusion_lat": 0.0, "name": "9d939b95e1937b58ea3cc66532c27a7b", "bike_id": "9d939b95e1937b58ea3cc66532c27a7b"}, {"is_disabled": 0, "is_reserved": 0, "type": "electric_bike", "lon": -76.94866316666666, "fusion_lon": 0.0, "lat": 38.889654166666666, "rental_uris": {"android": "https://dc.lft.to/lastmile_qr_scan", "ios": "https://dc.lft.to/lastmile_qr_scan"}, "fusion_lat": 0.0, "name": "52042ce784fc1765b67574f60ab71bdf", "bike_id": "52042ce784fc1765b67574f60ab71bdf"}, {"is_disabled": 0, "is_reserved": 0, "type": "electric_scooter", "lon": -77.06763566666666, "fusion_lon": 0.0, "lat": 38.94979516666667, "rental_uris": {"android": "https://dc.lft.to/lastmile_qr_scan", "ios": "https://dc.lft.to/lastmile_qr_scan"}, "fusion_lat": 0.0, "name": "4f6ffb4504c60893ef7f2b5aa66a59c3", "bike_id": "4f6ffb4504c60893ef7f2b5aa66a59c3"}, {"is_disabled": 0, "is_reserved": 0, "type": "electric_scooter", "lon": -77.05827266666667, "fusion_lon": 0.0, "lat": 38.93534966666667, "rental_uris": {"android": "https://dc.lft.to/lastmile_qr_scan", "ios": "https://dc.lft.to/lastmile_qr_scan"}, "fusion_lat": 0.0, "name": "17fed20c4df76591c56084dc2fe10501", "bike_id": "17fed20c4df76591c56084dc2fe10501"}, {"is_disabled": 0, "is_reserved": 0, "type": "electric_bike", "lon": -77.0289045, "fusion_lon": 0.0, "lat": 38.998726833333336, "rental_uris": {"android": "https://dc.lft.to/lastmile_qr_scan", "ios": "https://dc.lft.to/lastmile_qr_scan"}, "fusion_lat": 0.0, "name": "5e3d43ab520a419e3026e78c5510d91d", "bike_id": "5e3d43ab520a419e3026e78c5510d91d"}, {"is_disabled": 0, "is_reserved": 0, "type": "electric_scooter", "lon": -76.97336466666667, "fusion_lon": 0.0, "lat": 38.86509066666667, "rental_uris": {"android": "https://dc.lft.to/lastmile_qr_scan", "ios": "https://dc.lft.to/lastmile_qr_scan"}, "fusion_lat": 0.0, "name": "3cac13092f54e95c31a6db78bf6d2563", "bike_id": "3cac13092f54e95c31a6db78bf6d2563"}, {"is_disabled": 0, "is_reserved": 0, "type": "electric_scooter", "lon": -77.02694566666666, "fusion_lon": 0.0, "lat": 38.90868, "rental_uris": {"android": "https://dc.lft.to/lastmile_qr_scan", "ios": "https://dc.lft.to/lastmile_qr_scan"}, "fusion_lat": 0.0, "name": "842414f7736670e9c6ba68030e9cb7e4", "bike_id": "842414f7736670e9c6ba68030e9cb7e4"}, {"is_disabled": 0, "is_reserved": 0, "type": "electric_scooter", "lon": -77.04059616666666, "fusion_lon": 0.0, "lat": 38.924005333333334, "rental_uris": {"android": "https://dc.lft.to/lastmile_qr_scan", "ios": "https://dc.lft.to/lastmile_qr_scan"}, "fusion_lat": 0.0, "name": "ca08fb2e7604bfbaeb7cd92dcf973059", "bike_id": "ca08fb2e7604bfbaeb7cd92dcf973059"}, {"is_disabled": 0, "is_reserved": 0, "type": "electric_scooter", "lon": -77.04167933333333, "fusion_lon": 0.0, "lat": 38.91729816666667, "rental_uris": {"android": "https://dc.lft.to/lastmile_qr_scan", "ios": "https://dc.lft.to/lastmile_qr_scan"}, "fusion_lat": 0.0, "name": "8c518561f19169c9501bc6a2bd841f38", "bike_id": "8c518561f19169c9501bc6a2bd841f38"}, {"is_disabled": 0, "is_reserved": 0, "type": "electric_bike", "lon": -76.97217516666667, "fusion_lon": 0.0, "lat": 38.84480033333333, "rental_uris": {"android": "https://dc.lft.to/lastmile_qr_scan", "ios": "https://dc.lft.to/lastmile_qr_scan"}, "fusion_lat": 0.0, "name": "e5bffa58a50f15f2402da75404c0ce9c", "bike_id": "e5bffa58a50f15f2402da75404c0ce9c"}, {"is_disabled": 0, "is_reserved": 0, "type": "electric_bike", "lon": -77.03696733333334, "fusion_lon": 0.0, "lat": 38.9356405, "rental_uris": {"android": "https://dc.lft.to/lastmile_qr_scan", "ios": "https://dc.lft.to/lastmile_qr_scan"}, "fusion_lat": 0.0, "name": "2f671ec1424662553ba0bc92feab2fca", "bike_id": "2f671ec1424662553ba0bc92feab2fca"}, {"is_disabled": 0, "is_reserved": 0, "type": "electric_scooter", "lon": -77.0215435, "fusion_lon": 0.0, "lat": 38.92601283333333, "rental_uris": {"android": "https://dc.lft.to/lastmile_qr_scan", "ios": "https://dc.lft.to/lastmile_qr_scan"}, "fusion_lat": 0.0, "name": "95e657cc67df2d288b6e0ae8c8d591ad", "bike_id": "95e657cc67df2d288b6e0ae8c8d591ad"}, {"is_disabled": 0, "is_reserved": 0, "type": "electric_scooter", "lon": -77.01598283333334, "fusion_lon": 0.0, "lat": 38.90164566666667, "rental_uris": {"android": "https://dc.lft.to/lastmile_qr_scan", "ios": "https://dc.lft.to/lastmile_qr_scan"}, "fusion_lat": 0.0, "name": "3a111ebade415a04dc9653c106a13284", "bike_id": "3a111ebade415a04dc9653c106a13284"}, {"is_disabled": 0, "is_reserved": 0, "type": "electric_scooter", "lon": -77.01949366666666, "fusion_lon": 0.0, "lat": 38.92252033333333, "rental_uris": {"android": "https://dc.lft.to/lastmile_qr_scan", "ios": "https://dc.lft.to/lastmile_qr_scan"}, "fusion_lat": 0.0, "name": "d39e72f8a7f19f2bf1cf8e7d05f25a4d", "bike_id": "d39e72f8a7f19f2bf1cf8e7d05f25a4d"}, {"is_disabled": 0, "is_reserved": 0, "type": "electric_scooter", "lon": -77.02362716666667, "fusion_lon": 0.0, "lat": 38.916014833333335, "rental_uris": {"android": "https://dc.lft.to/lastmile_qr_scan", "ios": "https://dc.lft.to/lastmile_qr_scan"}, "fusion_lat": 0.0, "name": "15e0bccd5fb94f10978f4092808d1e4c", "bike_id": "15e0bccd5fb94f10978f4092808d1e4c"}, {"is_disabled": 0, "is_reserved": 0, "type": "electric_scooter", "lon": -77.0436995, "fusion_lon": 0.0, "lat": 38.8982395, "rental_uris": {"android": "https://dc.lft.to/lastmile_qr_scan", "ios": "https://dc.lft.to/lastmile_qr_scan"}, "fusion_lat": 0.0, "name": "5c560564f5ad076a4827dd82d2f578fc", "bike_id": "5c560564f5ad076a4827dd82d2f578fc"}, {"is_disabled": 0, "is_reserved": 0, "type": "electric_scooter", "lon": -77.043955, "fusion_lon": 0.0, "lat": 38.90110166666667, "rental_uris": {"android": "https://dc.lft.to/lastmile_qr_scan", "ios": "https://dc.lft.to/lastmile_qr_scan"}, "fusion_lat": 0.0, "name": "411683170abf23227f7fd05b393f6f04", "bike_id": "411683170abf23227f7fd05b393f6f04"}, {"is_disabled": 0, "is_reserved": 0, "type": "electric_scooter", "lon": -77.02705783333333, "fusion_lon": 0.0, "lat": 38.918826, "rental_uris": {"android": "https://dc.lft.to/lastmile_qr_scan", "ios": "https://dc.lft.to/lastmile_qr_scan"}, "fusion_lat": 0.0, "name": "e800e741706cb51f9e2b97bb0a2c1206", "bike_id": "e800e741706cb51f9e2b97bb0a2c1206"}, {"is_disabled": 0, "is_reserved": 0, "type": "electric_scooter", "lon": -77.04551333333333, "fusion_lon": 0.0, "lat": 38.91780133333334, "rental_uris": {"android": "https://dc.lft.to/lastmile_qr_scan", "ios": "https://dc.lft.to/lastmile_qr_scan"}, "fusion_lat": 0.0, "name": "90a6aab9a92a9ea762a87209ee4a652f", "bike_id": "90a6aab9a92a9ea762a87209ee4a652f"}, {"is_disabled": 0, "is_reserved": 0, "type": "electric_scooter", "lon": -76.94822333333333, "fusion_lon": 0.0, "lat": 38.8851295, "rental_uris": {"android": "https://dc.lft.to/lastmile_qr_scan", "ios": "https://dc.lft.to/lastmile_qr_scan"}, "fusion_lat": 0.0, "name": "878bbbb4323c35d6c9c6270f99ac6243", "bike_id": "878bbbb4323c35d6c9c6270f99ac6243"}, {"is_disabled": 0, "is_reserved": 0, "type": "electric_scooter", "lon": -77.0543725, "fusion_lon": 0.0, "lat": 38.8960235, "rental_uris": {"android": "https://dc.lft.to/lastmile_qr_scan", "ios": "https://dc.lft.to/lastmile_qr_scan"}, "fusion_lat": 0.0, "name": "ba287fb3c3a42d4d269177cf18cd07f4", "bike_id": "ba287fb3c3a42d4d269177cf18cd07f4"}, {"is_disabled": 0, "is_reserved": 0, "type": "electric_scooter", "lon": -77.02289966666666, "fusion_lon": 0.0, "lat": 38.91663, "rental_uris": {"android": "https://dc.lft.to/lastmile_qr_scan", "ios": "https://dc.lft.to/lastmile_qr_scan"}, "fusion_lat": 0.0, "name": "5ee012ef76acb98228968176ed96b5ba", "bike_id": "5ee012ef76acb98228968176ed96b5ba"}, {"is_disabled": 0, "is_reserved": 0, "type": "electric_bike", "lon": -77.00959566666667, "fusion_lon": 0.0, "lat": 38.907072, "rental_uris": {"android": "https://dc.lft.to/lastmile_qr_scan", "ios": "https://dc.lft.to/lastmile_qr_scan"}, "fusion_lat": 0.0, "name": "ceb7d75c5890cf34c0afda1c790659d1", "bike_id": "ceb7d75c5890cf34c0afda1c790659d1"}, {"is_disabled": 0, "is_reserved": 0, "type": "electric_scooter", "lon": -77.03841516666667, "fusion_lon": 0.0, "lat": 38.903201, "rental_uris": {"android": "https://dc.lft.to/lastmile_qr_scan", "ios": "https://dc.lft.to/lastmile_qr_scan"}, "fusion_lat": 0.0, "name": "13608e9525c45a073ff11e2bb74fe602", "bike_id": "13608e9525c45a073ff11e2bb74fe602"}, {"is_disabled": 0, "is_reserved": 0, "type": "electric_scooter", "lon": -77.04079666666667, "fusion_lon": 0.0, "lat": 38.89857833333333, "rental_uris": {"android": "https://dc.lft.to/lastmile_qr_scan", "ios": "https://dc.lft.to/lastmile_qr_scan"}, "fusion_lat": 0.0, "name": "3bade1bd086484a5594f4981ad8a3f6f", "bike_id": "3bade1bd086484a5594f4981ad8a3f6f"}, {"is_disabled": 0, "is_reserved": 0, "type": "electric_scooter", "lon": -77.04863283333333, "fusion_lon": 0.0, "lat": 38.89222433333333, "rental_uris": {"android": "https://dc.lft.to/lastmile_qr_scan", "ios": "https://dc.lft.to/lastmile_qr_scan"}, "fusion_lat": 0.0, "name": "6468e5466723d2fdba3ec6a19fd2f12d", "bike_id": "6468e5466723d2fdba3ec6a19fd2f12d"}, {"is_disabled": 0, "is_reserved": 0, "type": "electric_scooter", "lon": -76.998275, "fusion_lon": 0.0, "lat": 38.88531066666667, "rental_uris": {"android": "https://dc.lft.to/lastmile_qr_scan", "ios": "https://dc.lft.to/lastmile_qr_scan"}, "fusion_lat": 0.0, "name": "95477bfe85da1533ef0cf0b6464d62ff", "bike_id": "95477bfe85da1533ef0cf0b6464d62ff"}, {"is_disabled": 0, "is_reserved": 0, "type": "electric_scooter", "lon": -76.98208033333333, "fusion_lon": 0.0, "lat": 38.89935766666667, "rental_uris": {"android": "https://dc.lft.to/lastmile_qr_scan", "ios": "https://dc.lft.to/lastmile_qr_scan"}, "fusion_lat": 0.0, "name": "fd01c3c2cfeb84c616668cb4285060d7", "bike_id": "fd01c3c2cfeb84c616668cb4285060d7"}, {"is_disabled": 0, "is_reserved": 0, "type": "electric_bike", "lon": -77.03043066666666, "fusion_lon": 0.0, "lat": 38.884046, "rental_uris": {"android": "https://dc.lft.to/lastmile_qr_scan", "ios": "https://dc.lft.to/lastmile_qr_scan"}, "fusion_lat": 0.0, "name": "727adf25986d6bfec5ab9e378a62a42d", "bike_id": "727adf25986d6bfec5ab9e378a62a42d"}, {"is_disabled": 0, "is_reserved": 0, "type": "electric_scooter", "lon": -77.01561566666666, "fusion_lon": 0.0, "lat": 38.915154, "rental_uris": {"android": "https://dc.lft.to/lastmile_qr_scan", "ios": "https://dc.lft.to/lastmile_qr_scan"}, "fusion_lat": 0.0, "name": "54a1e580d84a3762c4308ccaa49609d5", "bike_id": "54a1e580d84a3762c4308ccaa49609d5"}, {"is_disabled": 0, "is_reserved": 0, "type": "electric_scooter", "lon": -77.03517983333333, "fusion_lon": 0.0, "lat": 38.9215495, "rental_uris": {"android": "https://dc.lft.to/lastmile_qr_scan", "ios": "https://dc.lft.to/lastmile_qr_scan"}, "fusion_lat": 0.0, "name": "541bbb4b6a65cc107afa34800433281c", "bike_id": "541bbb4b6a65cc107afa34800433281c"}, {"is_disabled": 0, "is_reserved": 0, "type": "electric_scooter", "lon": -77.0501905, "fusion_lon": 0.0, "lat": 38.896919833333335, "rental_uris": {"android": "https://dc.lft.to/lastmile_qr_scan", "ios": "https://dc.lft.to/lastmile_qr_scan"}, "fusion_lat": 0.0, "name": "f85e9bd79f6683a566299f46dd06cce9", "bike_id": "f85e9bd79f6683a566299f46dd06cce9"}, {"is_disabled": 0, "is_reserved": 0, "type": "electric_scooter", "lon": -77.00340333333334, "fusion_lon": 0.0, "lat": 38.903630666666665, "rental_uris": {"android": "https://dc.lft.to/lastmile_qr_scan", "ios": "https://dc.lft.to/lastmile_qr_scan"}, "fusion_lat": 0.0, "name": "4442fcc37d99844e67ff454314bfef3b", "bike_id": "4442fcc37d99844e67ff454314bfef3b"}, {"is_disabled": 0, "is_reserved": 0, "type": "electric_scooter", "lon": -77.02026633333334, "fusion_lon": 0.0, "lat": 38.88315866666667, "rental_uris": {"android": "https://dc.lft.to/lastmile_qr_scan", "ios": "https://dc.lft.to/lastmile_qr_scan"}, "fusion_lat": 0.0, "name": "2e00e67513d09040805e586a59fd08c0", "bike_id": "2e00e67513d09040805e586a59fd08c0"}, {"is_disabled": 0, "is_reserved": 0, "type": "electric_scooter", "lon": -77.04794633333333, "fusion_lon": 0.0, "lat": 38.907191, "rental_uris": {"android": "https://dc.lft.to/lastmile_qr_scan", "ios": "https://dc.lft.to/lastmile_qr_scan"}, "fusion_lat": 0.0, "name": "1d2a7563b2c144f34c4a7a871d26f3f7", "bike_id": "1d2a7563b2c144f34c4a7a871d26f3f7"}, {"is_disabled": 0, "is_reserved": 0, "type": "electric_scooter", "lon": -76.96709183333333, "fusion_lon": 0.0, "lat": 38.847979333333335, "rental_uris": {"android": "https://dc.lft.to/lastmile_qr_scan", "ios": "https://dc.lft.to/lastmile_qr_scan"}, "fusion_lat": 0.0, "name": "df2cf8047b64895240f7a2126ea944d6", "bike_id": "df2cf8047b64895240f7a2126ea944d6"}, {"is_disabled": 0, "is_reserved": 0, "type": "electric_scooter", "lon": -77.02586433333333, "fusion_lon": 0.0, "lat": 38.88087066666667, "rental_uris": {"android": "https://dc.lft.to/lastmile_qr_scan", "ios": "https://dc.lft.to/lastmile_qr_scan"}, "fusion_lat": 0.0, "name": "7b060ff56ced39af35acd027d7960279", "bike_id": "7b060ff56ced39af35acd027d7960279"}, {"is_disabled": 0, "is_reserved": 0, "type": "electric_scooter", "lon": -77.0297145, "fusion_lon": 0.0, "lat": 38.896215, "rental_uris": {"android": "https://dc.lft.to/lastmile_qr_scan", "ios": "https://dc.lft.to/lastmile_qr_scan"}, "fusion_lat": 0.0, "name": "bb00bf7c2067cf10b3e7039a4c69df36", "bike_id": "bb00bf7c2067cf10b3e7039a4c69df36"}, {"is_disabled": 0, "is_reserved": 0, "type": "electric_scooter", "lon": -77.02357066666667, "fusion_lon": 0.0, "lat": 38.93534416666667, "rental_uris": {"android": "https://dc.lft.to/lastmile_qr_scan", "ios": "https://dc.lft.to/lastmile_qr_scan"}, "fusion_lat": 0.0, "name": "05462e1f61bab4d45bf43559e8f3c3f0", "bike_id": "05462e1f61bab4d45bf43559e8f3c3f0"}, {"is_disabled": 0, "is_reserved": 0, "type": "electric_scooter", "lon": -77.033057, "fusion_lon": 0.0, "lat": 38.9056065, "rental_uris": {"android": "https://dc.lft.to/lastmile_qr_scan", "ios": "https://dc.lft.to/lastmile_qr_scan"}, "fusion_lat": 0.0, "name": "03e624d746491f82df3748d11b2c97ab", "bike_id": "03e624d746491f82df3748d11b2c97ab"}, {"is_disabled": 0, "is_reserved": 0, "type": "electric_scooter", "lon": -77.01997183333333, "fusion_lon": 0.0, "lat": 38.966270333333334, "rental_uris": {"android": "https://dc.lft.to/lastmile_qr_scan", "ios": "https://dc.lft.to/lastmile_qr_scan"}, "fusion_lat": 0.0, "name": "f1cf2629c94edfb4e20a216343d4625c", "bike_id": "f1cf2629c94edfb4e20a216343d4625c"}, {"is_disabled": 0, "is_reserved": 0, "type": "electric_bike", "lon": -77.07083133333333, "fusion_lon": 0.0, "lat": 38.90628483333333, "rental_uris": {"android": "https://dc.lft.to/lastmile_qr_scan", "ios": "https://dc.lft.to/lastmile_qr_scan"}, "fusion_lat": 0.0, "name": "db422cdb214c2394937c815ca90d9720", "bike_id": "db422cdb214c2394937c815ca90d9720"}, {"is_disabled": 0, "is_reserved": 0, "type": "electric_scooter", "lon": -77.045827, "fusion_lon": 0.0, "lat": 38.924191, "rental_uris": {"android": "https://dc.lft.to/lastmile_qr_scan", "ios": "https://dc.lft.to/lastmile_qr_scan"}, "fusion_lat": 0.0, "name": "d3e1fa6512836d49cd99563f03874ff0", "bike_id": "d3e1fa6512836d49cd99563f03874ff0"}, {"is_disabled": 0, "is_reserved": 0, "type": "electric_bike", "lon": -76.948103, "fusion_lon": 0.0, "lat": 38.861878, "rental_uris": {"android": "https://dc.lft.to/lastmile_qr_scan", "ios": "https://dc.lft.to/lastmile_qr_scan"}, "fusion_lat": 0.0, "name": "58a948f01960e646ab3a1f18012ae3cf", "bike_id": "58a948f01960e646ab3a1f18012ae3cf"}, {"is_disabled": 0, "is_reserved": 0, "type": "electric_scooter", "lon": -77.03766283333333, "fusion_lon": 0.0, "lat": 38.9169025, "rental_uris": {"android": "https://dc.lft.to/lastmile_qr_scan", "ios": "https://dc.lft.to/lastmile_qr_scan"}, "fusion_lat": 0.0, "name": "094d9bbcf1b3a7658887f25afe78073c", "bike_id": "094d9bbcf1b3a7658887f25afe78073c"}, {"is_disabled": 0, "is_reserved": 0, "type": "electric_scooter", "lon": -77.01511, "fusion_lon": 0.0, "lat": 38.910338, "rental_uris": {"android": "https://dc.lft.to/lastmile_qr_scan", "ios": "https://dc.lft.to/lastmile_qr_scan"}, "fusion_lat": 0.0, "name": "13c12f6b8bf111e72cf0aa930c1322f4", "bike_id": "13c12f6b8bf111e72cf0aa930c1322f4"}, {"is_disabled": 0, "is_reserved": 0, "type": "electric_scooter", "lon": -77.00585666666667, "fusion_lon": 0.0, "lat": 38.9039495, "rental_uris": {"android": "https://dc.lft.to/lastmile_qr_scan", "ios": "https://dc.lft.to/lastmile_qr_scan"}, "fusion_lat": 0.0, "name": "1bdb7485cca9d683c94c76f2a965b5f8", "bike_id": "1bdb7485cca9d683c94c76f2a965b5f8"}, {"is_disabled": 0, "is_reserved": 0, "type": "electric_scooter", "lon": -77.02719866666666, "fusion_lon": 0.0, "lat": 38.91103283333333, "rental_uris": {"android": "https://dc.lft.to/lastmile_qr_scan", "ios": "https://dc.lft.to/lastmile_qr_scan"}, "fusion_lat": 0.0, "name": "57c1ba1b908454fb5b8ad0f71e8389f5", "bike_id": "57c1ba1b908454fb5b8ad0f71e8389f5"}, {"is_disabled": 0, "is_reserved": 0, "type": "electric_bike", "lon": -77.038947, "fusion_lon": 0.0, "lat": 38.943966, "rental_uris": {"android": "https://dc.lft.to/lastmile_qr_scan", "ios": "https://dc.lft.to/lastmile_qr_scan"}, "fusion_lat": 0.0, "name": "9c2f42eac5b1f893fbd9bc82a8b3ab2b", "bike_id": "9c2f42eac5b1f893fbd9bc82a8b3ab2b"}, {"is_disabled": 0, "is_reserved": 0, "type": "electric_scooter", "lon": -77.00955283333333, "fusion_lon": 0.0, "lat": 38.896496666666664, "rental_uris": {"android": "https://dc.lft.to/lastmile_qr_scan", "ios": "https://dc.lft.to/lastmile_qr_scan"}, "fusion_lat": 0.0, "name": "a891737e5f616018fa2fe9a39caa35b0", "bike_id": "a891737e5f616018fa2fe9a39caa35b0"}, {"is_disabled": 0, "is_reserved": 0, "type": "electric_scooter", "lon": -77.04673016666666, "fusion_lon": 0.0, "lat": 38.90542716666667, "rental_uris": {"android": "https://dc.lft.to/lastmile_qr_scan", "ios": "https://dc.lft.to/lastmile_qr_scan"}, "fusion_lat": 0.0, "name": "9b4d4a296a0f4443d745a834500c1681", "bike_id": "9b4d4a296a0f4443d745a834500c1681"}, {"is_disabled": 0, "is_reserved": 0, "type": "electric_scooter", "lon": -77.04172783333334, "fusion_lon": 0.0, "lat": 38.920162166666664, "rental_uris": {"android": "https://dc.lft.to/lastmile_qr_scan", "ios": "https://dc.lft.to/lastmile_qr_scan"}, "fusion_lat": 0.0, "name": "8e8e4630c47d45e72804365a96c08b0c", "bike_id": "8e8e4630c47d45e72804365a96c08b0c"}, {"is_disabled": 0, "is_reserved": 0, "type": "electric_scooter", "lon": -77.05012516666666, "fusion_lon": 0.0, "lat": 38.90530966666667, "rental_uris": {"android": "https://dc.lft.to/lastmile_qr_scan", "ios": "https://dc.lft.to/lastmile_qr_scan"}, "fusion_lat": 0.0, "name": "5ea8fde12c896b40d7b0e6f4c196c4e7", "bike_id": "5ea8fde12c896b40d7b0e6f4c196c4e7"}, {"is_disabled": 0, "is_reserved": 0, "type": "electric_bike", "lon": -77.03778266666667, "fusion_lon": 0.0, "lat": 38.93007083333333, "rental_uris": {"android": "https://dc.lft.to/lastmile_qr_scan", "ios": "https://dc.lft.to/lastmile_qr_scan"}, "fusion_lat": 0.0, "name": "e4d8e3124cf1d50a9bba5c8fe7aabc15", "bike_id": "e4d8e3124cf1d50a9bba5c8fe7aabc15"}, {"is_disabled": 0, "is_reserved": 0, "type": "electric_scooter", "lon": -77.03111533333333, "fusion_lon": 0.0, "lat": 38.920184666666664, "rental_uris": {"android": "https://dc.lft.to/lastmile_qr_scan", "ios": "https://dc.lft.to/lastmile_qr_scan"}, "fusion_lat": 0.0, "name": "eca013742f2b4e10180b45e56fdb47d6", "bike_id": "eca013742f2b4e10180b45e56fdb47d6"}, {"is_disabled": 0, "is_reserved": 0, "type": "electric_scooter", "lon": -77.0226645, "fusion_lon": 0.0, "lat": 38.878595, "rental_uris": {"android": "https://dc.lft.to/lastmile_qr_scan", "ios": "https://dc.lft.to/lastmile_qr_scan"}, "fusion_lat": 0.0, "name": "9305e7fb94bc9c3ccc154d046978e977", "bike_id": "9305e7fb94bc9c3ccc154d046978e977"}, {"is_disabled": 0, "is_reserved": 0, "type": "electric_bike", "lon": -77.07046233333334, "fusion_lon": 0.0, "lat": 38.82448816666667, "rental_uris": {"android": "https://dc.lft.to/lastmile_qr_scan", "ios": "https://dc.lft.to/lastmile_qr_scan"}, "fusion_lat": 0.0, "name": "9344a27e20e9e1162103784f2dfa2495", "bike_id": "9344a27e20e9e1162103784f2dfa2495"}, {"is_disabled": 0, "is_reserved": 0, "type": "electric_scooter", "lon": -77.038488, "fusion_lon": 0.0, "lat": 38.926510666666665, "rental_uris": {"android": "https://dc.lft.to/lastmile_qr_scan", "ios": "https://dc.lft.to/lastmile_qr_scan"}, "fusion_lat": 0.0, "name": "ad631422845093ab4e513e1de6533ad6", "bike_id": "ad631422845093ab4e513e1de6533ad6"}, {"is_disabled": 0, "is_reserved": 0, "type": "electric_scooter", "lon": -77.041747, "fusion_lon": 0.0, "lat": 38.915678, "rental_uris": {"android": "https://dc.lft.to/lastmile_qr_scan", "ios": "https://dc.lft.to/lastmile_qr_scan"}, "fusion_lat": 0.0, "name": "2f9b0342d4abb25ef491f5043b9a05e9", "bike_id": "2f9b0342d4abb25ef491f5043b9a05e9"}, {"is_disabled": 0, "is_reserved": 0, "type": "electric_scooter", "lon": -77.04026133333333, "fusion_lon": 0.0, "lat": 38.903812, "rental_uris": {"android": "https://dc.lft.to/lastmile_qr_scan", "ios": "https://dc.lft.to/lastmile_qr_scan"}, "fusion_lat": 0.0, "name": "8112230d355420da302e3639285d6df1", "bike_id": "8112230d355420da302e3639285d6df1"}, {"is_disabled": 0, "is_reserved": 0, "type": "electric_scooter", "lon": -76.98706716666666, "fusion_lon": 0.0, "lat": 38.86534866666667, "rental_uris": {"android": "https://dc.lft.to/lastmile_qr_scan", "ios": "https://dc.lft.to/lastmile_qr_scan"}, "fusion_lat": 0.0, "name": "428cb96005f74e9db2aacd6f238e1171", "bike_id": "428cb96005f74e9db2aacd6f238e1171"}, {"is_disabled": 0, "is_reserved": 0, "type": "electric_scooter", "lon": -77.04672266666667, "fusion_lon": 0.0, "lat": 38.8955295, "rental_uris": {"android": "https://dc.lft.to/lastmile_qr_scan", "ios": "https://dc.lft.to/lastmile_qr_scan"}, "fusion_lat": 0.0, "name": "6b424e360df17e5b05daeb09717be3d5", "bike_id": "6b424e360df17e5b05daeb09717be3d5"}, {"is_disabled": 0, "is_reserved": 0, "type": "electric_scooter", "lon": -76.97873466666667, "fusion_lon": 0.0, "lat": 38.899235833333336, "rental_uris": {"android": "https://dc.lft.to/lastmile_qr_scan", "ios": "https://dc.lft.to/lastmile_qr_scan"}, "fusion_lat": 0.0, "name": "e43e038c60146f599dbed66c7ae4ebf3", "bike_id": "e43e038c60146f599dbed66c7ae4ebf3"}, {"is_disabled": 0, "is_reserved": 0, "type": "electric_scooter", "lon": -77.04001566666666, "fusion_lon": 0.0, "lat": 38.9036525, "rental_uris": {"android": "https://dc.lft.to/lastmile_qr_scan", "ios": "https://dc.lft.to/lastmile_qr_scan"}, "fusion_lat": 0.0, "name": "b5492ce88a90256c943ff53eaee76060", "bike_id": "b5492ce88a90256c943ff53eaee76060"}, {"is_disabled": 0, "is_reserved": 0, "type": "electric_bike", "lon": -77.12817316666667, "fusion_lon": 0.0, "lat": 38.86532033333334, "rental_uris": {"android": "https://dc.lft.to/lastmile_qr_scan", "ios": "https://dc.lft.to/lastmile_qr_scan"}, "fusion_lat": 0.0, "name": "89b0796f1bae70e3f70f040e493b39fd", "bike_id": "89b0796f1bae70e3f70f040e493b39fd"}, {"is_disabled": 0, "is_reserved": 0, "type": "electric_scooter", "lon": -76.996528, "fusion_lon": 0.0, "lat": 38.93256133333333, "rental_uris": {"android": "https://dc.lft.to/lastmile_qr_scan", "ios": "https://dc.lft.to/lastmile_qr_scan"}, "fusion_lat": 0.0, "name": "2b72ff42cf73fddd2030d9eaa9b1389c", "bike_id": "2b72ff42cf73fddd2030d9eaa9b1389c"}, {"is_disabled": 0, "is_reserved": 0, "type": "electric_scooter", "lon": -77.028177, "fusion_lon": 0.0, "lat": 38.91634333333333, "rental_uris": {"android": "https://dc.lft.to/lastmile_qr_scan", "ios": "https://dc.lft.to/lastmile_qr_scan"}, "fusion_lat": 0.0, "name": "dca2b07e7add590bb890398f899c58d4", "bike_id": "dca2b07e7add590bb890398f899c58d4"}, {"is_disabled": 0, "is_reserved": 0, "type": "electric_scooter", "lon": -77.01011383333334, "fusion_lon": 0.0, "lat": 38.8796655, "rental_uris": {"android": "https://dc.lft.to/lastmile_qr_scan", "ios": "https://dc.lft.to/lastmile_qr_scan"}, "fusion_lat": 0.0, "name": "9f82117cac645822362546b668d0b113", "bike_id": "9f82117cac645822362546b668d0b113"}, {"is_disabled": 0, "is_reserved": 0, "type": "electric_scooter", "lon": -77.01754383333333, "fusion_lon": 0.0, "lat": 38.87691683333333, "rental_uris": {"android": "https://dc.lft.to/lastmile_qr_scan", "ios": "https://dc.lft.to/lastmile_qr_scan"}, "fusion_lat": 0.0, "name": "9c88272477299aab92f082a79a8848e6", "bike_id": "9c88272477299aab92f082a79a8848e6"}, {"is_disabled": 0, "is_reserved": 0, "type": "electric_scooter", "lon": -77.05135383333334, "fusion_lon": 0.0, "lat": 38.90558816666667, "rental_uris": {"android": "https://dc.lft.to/lastmile_qr_scan", "ios": "https://dc.lft.to/lastmile_qr_scan"}, "fusion_lat": 0.0, "name": "e00169febc110b28f83f1515f7c4e0a9", "bike_id": "e00169febc110b28f83f1515f7c4e0a9"}, {"is_disabled": 0, "is_reserved": 0, "type": "electric_scooter", "lon": -76.995135, "fusion_lon": 0.0, "lat": 38.8948215, "rental_uris": {"android": "https://dc.lft.to/lastmile_qr_scan", "ios": "https://dc.lft.to/lastmile_qr_scan"}, "fusion_lat": 0.0, "name": "3033e6b5cfe0e529a0e001b0092d347d", "bike_id": "3033e6b5cfe0e529a0e001b0092d347d"}, {"is_disabled": 0, "is_reserved": 0, "type": "electric_scooter", "lon": -76.99060083333333, "fusion_lon": 0.0, "lat": 38.863561833333335, "rental_uris": {"android": "https://dc.lft.to/lastmile_qr_scan", "ios": "https://dc.lft.to/lastmile_qr_scan"}, "fusion_lat": 0.0, "name": "f44c27ddcb4ada1550220175bc91482d", "bike_id": "f44c27ddcb4ada1550220175bc91482d"}, {"is_disabled": 0, "is_reserved": 0, "type": "electric_scooter", "lon": -77.01297833333334, "fusion_lon": 0.0, "lat": 38.886421, "rental_uris": {"android": "https://dc.lft.to/lastmile_qr_scan", "ios": "https://dc.lft.to/lastmile_qr_scan"}, "fusion_lat": 0.0, "name": "ffd1ea04e8ab06b1ca2e886a97c0f072", "bike_id": "ffd1ea04e8ab06b1ca2e886a97c0f072"}, {"is_disabled": 0, "is_reserved": 0, "type": "electric_scooter", "lon": -77.03174616666666, "fusion_lon": 0.0, "lat": 38.919141333333336, "rental_uris": {"android": "https://dc.lft.to/lastmile_qr_scan", "ios": "https://dc.lft.to/lastmile_qr_scan"}, "fusion_lat": 0.0, "name": "c111ad2a0a9ee2a968043d364df7d08b", "bike_id": "c111ad2a0a9ee2a968043d364df7d08b"}, {"is_disabled": 0, "is_reserved": 0, "type": "electric_scooter", "lon": -77.00743466666667, "fusion_lon": 0.0, "lat": 38.876690333333336, "rental_uris": {"android": "https://dc.lft.to/lastmile_qr_scan", "ios": "https://dc.lft.to/lastmile_qr_scan"}, "fusion_lat": 0.0, "name": "3829085c940185749500a4b113b5d476", "bike_id": "3829085c940185749500a4b113b5d476"}, {"is_disabled": 0, "is_reserved": 0, "type": "electric_bike", "lon": -76.981771, "fusion_lon": 0.0, "lat": 38.984886333333336, "rental_uris": {"android": "https://dc.lft.to/lastmile_qr_scan", "ios": "https://dc.lft.to/lastmile_qr_scan"}, "fusion_lat": 0.0, "name": "590b8c28266498b011bfd1d28efab105", "bike_id": "590b8c28266498b011bfd1d28efab105"}, {"is_disabled": 0, "is_reserved": 0, "type": "electric_scooter", "lon": -77.03159516666666, "fusion_lon": 0.0, "lat": 38.927195, "rental_uris": {"android": "https://dc.lft.to/lastmile_qr_scan", "ios": "https://dc.lft.to/lastmile_qr_scan"}, "fusion_lat": 0.0, "name": "fa5e2999b6a9376f82cf6c42b7167633", "bike_id": "fa5e2999b6a9376f82cf6c42b7167633"}, {"is_disabled": 0, "is_reserved": 0, "type": "electric_scooter", "lon": -77.01873816666667, "fusion_lon": 0.0, "lat": 38.8998145, "rental_uris": {"android": "https://dc.lft.to/lastmile_qr_scan", "ios": "https://dc.lft.to/lastmile_qr_scan"}, "fusion_lat": 0.0, "name": "f9162ace2d1e27769406cd6d01efe095", "bike_id": "f9162ace2d1e27769406cd6d01efe095"}, {"is_disabled": 0, "is_reserved": 0, "type": "electric_scooter", "lon": -77.02582233333334, "fusion_lon": 0.0, "lat": 38.942125833333336, "rental_uris": {"android": "https://dc.lft.to/lastmile_qr_scan", "ios": "https://dc.lft.to/lastmile_qr_scan"}, "fusion_lat": 0.0, "name": "cbe3af45fcc05a3f33869d84e890b49c", "bike_id": "cbe3af45fcc05a3f33869d84e890b49c"}, {"is_disabled": 0, "is_reserved": 0, "type": "electric_scooter", "lon": -77.03747233333333, "fusion_lon": 0.0, "lat": 38.9290055, "rental_uris": {"android": "https://dc.lft.to/lastmile_qr_scan", "ios": "https://dc.lft.to/lastmile_qr_scan"}, "fusion_lat": 0.0, "name": "9b135220bb385be9e520aa7b8108aaf9", "bike_id": "9b135220bb385be9e520aa7b8108aaf9"}, {"is_disabled": 0, "is_reserved": 0, "type": "electric_scooter", "lon": -77.044643, "fusion_lon": 0.0, "lat": 38.919389833333334, "rental_uris": {"android": "https://dc.lft.to/lastmile_qr_scan", "ios": "https://dc.lft.to/lastmile_qr_scan"}, "fusion_lat": 0.0, "name": "3fba102ebf8a9ac73e8f6088cce51627", "bike_id": "3fba102ebf8a9ac73e8f6088cce51627"}, {"is_disabled": 0, "is_reserved": 0, "type": "electric_scooter", "lon": -76.99911033333333, "fusion_lon": 0.0, "lat": 38.900160666666665, "rental_uris": {"android": "https://dc.lft.to/lastmile_qr_scan", "ios": "https://dc.lft.to/lastmile_qr_scan"}, "fusion_lat": 0.0, "name": "edbd3602aef42d72be2ceea8298649be", "bike_id": "edbd3602aef42d72be2ceea8298649be"}, {"is_disabled": 0, "is_reserved": 0, "type": "electric_scooter", "lon": -77.03862083333334, "fusion_lon": 0.0, "lat": 38.91810366666667, "rental_uris": {"android": "https://dc.lft.to/lastmile_qr_scan", "ios": "https://dc.lft.to/lastmile_qr_scan"}, "fusion_lat": 0.0, "name": "341fbc885737024cbb1d0447f3c3332b", "bike_id": "341fbc885737024cbb1d0447f3c3332b"}, {"is_disabled": 0, "is_reserved": 0, "type": "electric_scooter", "lon": -77.04341833333334, "fusion_lon": 0.0, "lat": 38.913582166666664, "rental_uris": {"android": "https://dc.lft.to/lastmile_qr_scan", "ios": "https://dc.lft.to/lastmile_qr_scan"}, "fusion_lat": 0.0, "name": "f6067d1620177862ed683632f272e518", "bike_id": "f6067d1620177862ed683632f272e518"}, {"is_disabled": 0, "is_reserved": 0, "type": "electric_scooter", "lon": -77.012247, "fusion_lon": 0.0, "lat": 38.885813166666665, "rental_uris": {"android": "https://dc.lft.to/lastmile_qr_scan", "ios": "https://dc.lft.to/lastmile_qr_scan"}, "fusion_lat": 0.0, "name": "52bf4bfc66b89ec312ffcd8684b57450", "bike_id": "52bf4bfc66b89ec312ffcd8684b57450"}, {"is_disabled": 0, "is_reserved": 0, "type": "electric_scooter", "lon": -77.0227315, "fusion_lon": 0.0, "lat": 38.924628, "rental_uris": {"android": "https://dc.lft.to/lastmile_qr_scan", "ios": "https://dc.lft.to/lastmile_qr_scan"}, "fusion_lat": 0.0, "name": "7844f44d6a56119c59ec1fe8d7ae286a", "bike_id": "7844f44d6a56119c59ec1fe8d7ae286a"}, {"is_disabled": 0, "is_reserved": 0, "type": "electric_scooter", "lon": -77.060407, "fusion_lon": 0.0, "lat": 38.93911516666667, "rental_uris": {"android": "https://dc.lft.to/lastmile_qr_scan", "ios": "https://dc.lft.to/lastmile_qr_scan"}, "fusion_lat": 0.0, "name": "75fee48b8dd2d4febab2267546415fd5", "bike_id": "75fee48b8dd2d4febab2267546415fd5"}, {"is_disabled": 0, "is_reserved": 0, "type": "electric_scooter", "lon": -76.95756683333333, "fusion_lon": 0.0, "lat": 38.88432266666667, "rental_uris": {"android": "https://dc.lft.to/lastmile_qr_scan", "ios": "https://dc.lft.to/lastmile_qr_scan"}, "fusion_lat": 0.0, "name": "b0351826a80b985d3145215d53b1769c", "bike_id": "b0351826a80b985d3145215d53b1769c"}, {"is_disabled": 0, "is_reserved": 0, "type": "electric_scooter", "lon": -77.0135425, "fusion_lon": 0.0, "lat": 38.903882, "rental_uris": {"android": "https://dc.lft.to/lastmile_qr_scan", "ios": "https://dc.lft.to/lastmile_qr_scan"}, "fusion_lat": 0.0, "name": "9e044658fa8f0036726c60b3db0ebc71", "bike_id": "9e044658fa8f0036726c60b3db0ebc71"}, {"is_disabled": 0, "is_reserved": 0, "type": "electric_bike", "lon": -76.92164416666667, "fusion_lon": 0.0, "lat": 39.010389333333336, "rental_uris": {"android": "https://dc.lft.to/lastmile_qr_scan", "ios": "https://dc.lft.to/lastmile_qr_scan"}, "fusion_lat": 0.0, "name": "e4d92676b1d75e72f66f2875063e9ccf", "bike_id": "e4d92676b1d75e72f66f2875063e9ccf"}, {"is_disabled": 0, "is_reserved": 0, "type": "electric_scooter", "lon": -77.0398215, "fusion_lon": 0.0, "lat": 38.91812433333333, "rental_uris": {"android": "https://dc.lft.to/lastmile_qr_scan", "ios": "https://dc.lft.to/lastmile_qr_scan"}, "fusion_lat": 0.0, "name": "0a7690c3b157ba0f4d1a4afac7a403b6", "bike_id": "0a7690c3b157ba0f4d1a4afac7a403b6"}, {"is_disabled": 0, "is_reserved": 0, "type": "electric_scooter", "lon": -76.99607, "fusion_lon": 0.0, "lat": 38.8847645, "rental_uris": {"android": "https://dc.lft.to/lastmile_qr_scan", "ios": "https://dc.lft.to/lastmile_qr_scan"}, "fusion_lat": 0.0, "name": "46d6393cbb09b353731b65b1210c473a", "bike_id": "46d6393cbb09b353731b65b1210c473a"}, {"is_disabled": 0, "is_reserved": 0, "type": "electric_scooter", "lon": -77.04481833333334, "fusion_lon": 0.0, "lat": 38.9242405, "rental_uris": {"android": "https://dc.lft.to/lastmile_qr_scan", "ios": "https://dc.lft.to/lastmile_qr_scan"}, "fusion_lat": 0.0, "name": "6dd0b0a2e112c2ad2c171a0bc1bfe288", "bike_id": "6dd0b0a2e112c2ad2c171a0bc1bfe288"}, {"is_disabled": 0, "is_reserved": 0, "type": "electric_scooter", "lon": -77.02188083333333, "fusion_lon": 0.0, "lat": 38.89486266666667, "rental_uris": {"android": "https://dc.lft.to/lastmile_qr_scan", "ios": "https://dc.lft.to/lastmile_qr_scan"}, "fusion_lat": 0.0, "name": "2b61b1647379b45d162bbb66b7557c48", "bike_id": "2b61b1647379b45d162bbb66b7557c48"}, {"is_disabled": 0, "is_reserved": 0, "type": "electric_scooter", "lon": -77.07116466666666, "fusion_lon": 0.0, "lat": 38.9197105, "rental_uris": {"android": "https://dc.lft.to/lastmile_qr_scan", "ios": "https://dc.lft.to/lastmile_qr_scan"}, "fusion_lat": 0.0, "name": "676735adb30c15808e7ce9f9ea9d7960", "bike_id": "676735adb30c15808e7ce9f9ea9d7960"}, {"is_disabled": 0, "is_reserved": 0, "type": "electric_scooter", "lon": -76.99155783333333, "fusion_lon": 0.0, "lat": 38.897768166666665, "rental_uris": {"android": "https://dc.lft.to/lastmile_qr_scan", "ios": "https://dc.lft.to/lastmile_qr_scan"}, "fusion_lat": 0.0, "name": "29f3d0686535c034c0df91a1bc376d52", "bike_id": "29f3d0686535c034c0df91a1bc376d52"}, {"is_disabled": 0, "is_reserved": 0, "type": "electric_scooter", "lon": -77.04605383333333, "fusion_lon": 0.0, "lat": 38.914772666666664, "rental_uris": {"android": "https://dc.lft.to/lastmile_qr_scan", "ios": "https://dc.lft.to/lastmile_qr_scan"}, "fusion_lat": 0.0, "name": "ff5e15c041b999c9954b839e974bebb1", "bike_id": "ff5e15c041b999c9954b839e974bebb1"}, {"is_disabled": 0, "is_reserved": 0, "type": "electric_scooter", "lon": -77.016067, "fusion_lon": 0.0, "lat": 38.917604, "rental_uris": {"android": "https://dc.lft.to/lastmile_qr_scan", "ios": "https://dc.lft.to/lastmile_qr_scan"}, "fusion_lat": 0.0, "name": "a3a0989c36852177bc9747dbe8709234", "bike_id": "a3a0989c36852177bc9747dbe8709234"}, {"is_disabled": 0, "is_reserved": 0, "type": "electric_scooter", "lon": -77.04158166666667, "fusion_lon": 0.0, "lat": 38.90853383333334, "rental_uris": {"android": "https://dc.lft.to/lastmile_qr_scan", "ios": "https://dc.lft.to/lastmile_qr_scan"}, "fusion_lat": 0.0, "name": "fc667653a8aac0f554f641f27428ae44", "bike_id": "fc667653a8aac0f554f641f27428ae44"}, {"is_disabled": 0, "is_reserved": 0, "type": "electric_scooter", "lon": -76.9902925, "fusion_lon": 0.0, "lat": 38.928716, "rental_uris": {"android": "https://dc.lft.to/lastmile_qr_scan", "ios": "https://dc.lft.to/lastmile_qr_scan"}, "fusion_lat": 0.0, "name": "8e6604771e7eaad975b573a5152fc1ef", "bike_id": "8e6604771e7eaad975b573a5152fc1ef"}, {"is_disabled": 0, "is_reserved": 0, "type": "electric_scooter", "lon": -77.00375266666667, "fusion_lon": 0.0, "lat": 38.876457333333335, "rental_uris": {"android": "https://dc.lft.to/lastmile_qr_scan", "ios": "https://dc.lft.to/lastmile_qr_scan"}, "fusion_lat": 0.0, "name": "3069e81938a8c070140825b105f136ad", "bike_id": "3069e81938a8c070140825b105f136ad"}, {"is_disabled": 0, "is_reserved": 0, "type": "electric_scooter", "lon": -77.03223566666666, "fusion_lon": 0.0, "lat": 38.936133, "rental_uris": {"android": "https://dc.lft.to/lastmile_qr_scan", "ios": "https://dc.lft.to/lastmile_qr_scan"}, "fusion_lat": 0.0, "name": "0eddec183a4a9cb5fd28864985420eea", "bike_id": "0eddec183a4a9cb5fd28864985420eea"}, {"is_disabled": 0, "is_reserved": 0, "type": "electric_scooter", "lon": -77.0330665, "fusion_lon": 0.0, "lat": 38.903904833333335, "rental_uris": {"android": "https://dc.lft.to/lastmile_qr_scan", "ios": "https://dc.lft.to/lastmile_qr_scan"}, "fusion_lat": 0.0, "name": "083452c56cc579cf2fd1aa30ae5998a9", "bike_id": "083452c56cc579cf2fd1aa30ae5998a9"}, {"is_disabled": 0, "is_reserved": 0, "type": "electric_scooter", "lon": -77.01963033333334, "fusion_lon": 0.0, "lat": 38.878491333333336, "rental_uris": {"android": "https://dc.lft.to/lastmile_qr_scan", "ios": "https://dc.lft.to/lastmile_qr_scan"}, "fusion_lat": 0.0, "name": "79ba1e9730854e34cea228e74fbabd01", "bike_id": "79ba1e9730854e34cea228e74fbabd01"}, {"is_disabled": 0, "is_reserved": 0, "type": "electric_scooter", "lon": -77.039181, "fusion_lon": 0.0, "lat": 38.91182033333333, "rental_uris": {"android": "https://dc.lft.to/lastmile_qr_scan", "ios": "https://dc.lft.to/lastmile_qr_scan"}, "fusion_lat": 0.0, "name": "22a9b03be6241904ee24335314a0adaa", "bike_id": "22a9b03be6241904ee24335314a0adaa"}, {"is_disabled": 0, "is_reserved": 0, "type": "electric_scooter", "lon": -77.04488183333333, "fusion_lon": 0.0, "lat": 38.90845, "rental_uris": {"android": "https://dc.lft.to/lastmile_qr_scan", "ios": "https://dc.lft.to/lastmile_qr_scan"}, "fusion_lat": 0.0, "name": "2db7b9681be3d5fc76109980930467b4", "bike_id": "2db7b9681be3d5fc76109980930467b4"}, {"is_disabled": 0, "is_reserved": 0, "type": "electric_scooter", "lon": -77.01714066666666, "fusion_lon": 0.0, "lat": 38.9050945, "rental_uris": {"android": "https://dc.lft.to/lastmile_qr_scan", "ios": "https://dc.lft.to/lastmile_qr_scan"}, "fusion_lat": 0.0, "name": "fa68bb1dc4620a92df65bfc9f72f75f0", "bike_id": "fa68bb1dc4620a92df65bfc9f72f75f0"}, {"is_disabled": 0, "is_reserved": 0, "type": "electric_bike", "lon": -77.095638, "fusion_lon": 0.0, "lat": 38.91699466666667, "rental_uris": {"android": "https://dc.lft.to/lastmile_qr_scan", "ios": "https://dc.lft.to/lastmile_qr_scan"}, "fusion_lat": 0.0, "name": "5af817a036104999c9cdfee2d752e5b7", "bike_id": "5af817a036104999c9cdfee2d752e5b7"}, {"is_disabled": 0, "is_reserved": 0, "type": "electric_scooter", "lon": -77.02697883333333, "fusion_lon": 0.0, "lat": 38.949577166666664, "rental_uris": {"android": "https://dc.lft.to/lastmile_qr_scan", "ios": "https://dc.lft.to/lastmile_qr_scan"}, "fusion_lat": 0.0, "name": "86a2a4949c178a4560096a0debe24adf", "bike_id": "86a2a4949c178a4560096a0debe24adf"}, {"is_disabled": 0, "is_reserved": 0, "type": "electric_scooter", "lon": -77.01896516666666, "fusion_lon": 0.0, "lat": 38.91216266666667, "rental_uris": {"android": "https://dc.lft.to/lastmile_qr_scan", "ios": "https://dc.lft.to/lastmile_qr_scan"}, "fusion_lat": 0.0, "name": "fe0245bbbffdf5a92aee2f6c0814f2a3", "bike_id": "fe0245bbbffdf5a92aee2f6c0814f2a3"}, {"is_disabled": 0, "is_reserved": 0, "type": "electric_scooter", "lon": -77.03199, "fusion_lon": 0.0, "lat": 38.911346, "rental_uris": {"android": "https://dc.lft.to/lastmile_qr_scan", "ios": "https://dc.lft.to/lastmile_qr_scan"}, "fusion_lat": 0.0, "name": "75607e06e591fb892cae26f7852ab533", "bike_id": "75607e06e591fb892cae26f7852ab533"}, {"is_disabled": 0, "is_reserved": 0, "type": "electric_scooter", "lon": -77.03644166666666, "fusion_lon": 0.0, "lat": 38.935267333333336, "rental_uris": {"android": "https://dc.lft.to/lastmile_qr_scan", "ios": "https://dc.lft.to/lastmile_qr_scan"}, "fusion_lat": 0.0, "name": "f313cb994b807f3d80578286dd6a82d5", "bike_id": "f313cb994b807f3d80578286dd6a82d5"}, {"is_disabled": 0, "is_reserved": 0, "type": "electric_scooter", "lon": -77.0228665, "fusion_lon": 0.0, "lat": 38.909154666666666, "rental_uris": {"android": "https://dc.lft.to/lastmile_qr_scan", "ios": "https://dc.lft.to/lastmile_qr_scan"}, "fusion_lat": 0.0, "name": "3fe25b8b4777812ed1eb8385e98325ac", "bike_id": "3fe25b8b4777812ed1eb8385e98325ac"}, {"is_disabled": 0, "is_reserved": 0, "type": "electric_scooter", "lon": -77.03377666666667, "fusion_lon": 0.0, "lat": 38.9027175, "rental_uris": {"android": "https://dc.lft.to/lastmile_qr_scan", "ios": "https://dc.lft.to/lastmile_qr_scan"}, "fusion_lat": 0.0, "name": "6a6b982b92f16427d965e8b5abe86451", "bike_id": "6a6b982b92f16427d965e8b5abe86451"}, {"is_disabled": 0, "is_reserved": 0, "type": "electric_scooter", "lon": -77.03232116666666, "fusion_lon": 0.0, "lat": 38.925079333333336, "rental_uris": {"android": "https://dc.lft.to/lastmile_qr_scan", "ios": "https://dc.lft.to/lastmile_qr_scan"}, "fusion_lat": 0.0, "name": "a6e7e7cace8ccc05490c8dbd98c5cbcf", "bike_id": "a6e7e7cace8ccc05490c8dbd98c5cbcf"}, {"is_disabled": 0, "is_reserved": 0, "type": "electric_scooter", "lon": -77.0120145, "fusion_lon": 0.0, "lat": 38.927410333333334, "rental_uris": {"android": "https://dc.lft.to/lastmile_qr_scan", "ios": "https://dc.lft.to/lastmile_qr_scan"}, "fusion_lat": 0.0, "name": "b0a907e5b7835b8bfcc5aaf870f368c8", "bike_id": "b0a907e5b7835b8bfcc5aaf870f368c8"}, {"is_disabled": 0, "is_reserved": 0, "type": "electric_scooter", "lon": -77.00206583333333, "fusion_lon": 0.0, "lat": 38.902955, "rental_uris": {"android": "https://dc.lft.to/lastmile_qr_scan", "ios": "https://dc.lft.to/lastmile_qr_scan"}, "fusion_lat": 0.0, "name": "83e4b828053703bd9d7c7b78093f11cd", "bike_id": "83e4b828053703bd9d7c7b78093f11cd"}, {"is_disabled": 0, "is_reserved": 0, "type": "electric_scooter", "lon": -76.98552366666667, "fusion_lon": 0.0, "lat": 38.904216166666664, "rental_uris": {"android": "https://dc.lft.to/lastmile_qr_scan", "ios": "https://dc.lft.to/lastmile_qr_scan"}, "fusion_lat": 0.0, "name": "7960b25cb654dba92dff933fab154841", "bike_id": "7960b25cb654dba92dff933fab154841"}, {"is_disabled": 0, "is_reserved": 0, "type": "electric_scooter", "lon": -76.935524, "fusion_lon": 0.0, "lat": 38.901577833333334, "rental_uris": {"android": "https://dc.lft.to/lastmile_qr_scan", "ios": "https://dc.lft.to/lastmile_qr_scan"}, "fusion_lat": 0.0, "name": "e3ad3ce3eea08337c4eab8f91943db8f", "bike_id": "e3ad3ce3eea08337c4eab8f91943db8f"}, {"is_disabled": 0, "is_reserved": 0, "type": "electric_scooter", "lon": -77.02532133333334, "fusion_lon": 0.0, "lat": 38.948421, "rental_uris": {"android": "https://dc.lft.to/lastmile_qr_scan", "ios": "https://dc.lft.to/lastmile_qr_scan"}, "fusion_lat": 0.0, "name": "47156edb6208197f0669ddd946c9b750", "bike_id": "47156edb6208197f0669ddd946c9b750"}, {"is_disabled": 0, "is_reserved": 0, "type": "electric_scooter", "lon": -77.03956866666667, "fusion_lon": 0.0, "lat": 38.91969016666667, "rental_uris": {"android": "https://dc.lft.to/lastmile_qr_scan", "ios": "https://dc.lft.to/lastmile_qr_scan"}, "fusion_lat": 0.0, "name": "115a180d2688a494ee99ca635a3c27ad", "bike_id": "115a180d2688a494ee99ca635a3c27ad"}, {"is_disabled": 0, "is_reserved": 0, "type": "electric_scooter", "lon": -77.01560033333334, "fusion_lon": 0.0, "lat": 38.91407133333333, "rental_uris": {"android": "https://dc.lft.to/lastmile_qr_scan", "ios": "https://dc.lft.to/lastmile_qr_scan"}, "fusion_lat": 0.0, "name": "da9b076df94ad393bcd0409b72dcb787", "bike_id": "da9b076df94ad393bcd0409b72dcb787"}, {"is_disabled": 0, "is_reserved": 0, "type": "electric_scooter", "lon": -76.99335733333334, "fusion_lon": 0.0, "lat": 38.838803166666665, "rental_uris": {"android": "https://dc.lft.to/lastmile_qr_scan", "ios": "https://dc.lft.to/lastmile_qr_scan"}, "fusion_lat": 0.0, "name": "69c9bf55b53376d4240cd270a5d0b5be", "bike_id": "69c9bf55b53376d4240cd270a5d0b5be"}, {"is_disabled": 0, "is_reserved": 0, "type": "electric_scooter", "lon": -77.0258415, "fusion_lon": 0.0, "lat": 38.942142833333335, "rental_uris": {"android": "https://dc.lft.to/lastmile_qr_scan", "ios": "https://dc.lft.to/lastmile_qr_scan"}, "fusion_lat": 0.0, "name": "ab47693e560c51e464eb7ebd03db75fb", "bike_id": "ab47693e560c51e464eb7ebd03db75fb"}, {"is_disabled": 0, "is_reserved": 0, "type": "electric_scooter", "lon": -77.031659, "fusion_lon": 0.0, "lat": 38.920091, "rental_uris": {"android": "https://dc.lft.to/lastmile_qr_scan", "ios": "https://dc.lft.to/lastmile_qr_scan"}, "fusion_lat": 0.0, "name": "fa82a28eedca8eb59c58e1908023c864", "bike_id": "fa82a28eedca8eb59c58e1908023c864"}, {"is_disabled": 0, "is_reserved": 0, "type": "electric_bike", "lon": -76.94761533333333, "fusion_lon": 0.0, "lat": 38.896365, "rental_uris": {"android": "https://dc.lft.to/lastmile_qr_scan", "ios": "https://dc.lft.to/lastmile_qr_scan"}, "fusion_lat": 0.0, "name": "c9e66b1b507b16df7fd2fba51738a82e", "bike_id": "c9e66b1b507b16df7fd2fba51738a82e"}, {"is_disabled": 0, "is_reserved": 0, "type": "electric_scooter", "lon": -77.02586466666666, "fusion_lon": 0.0, "lat": 38.9203595, "rental_uris": {"android": "https://dc.lft.to/lastmile_qr_scan", "ios": "https://dc.lft.to/lastmile_qr_scan"}, "fusion_lat": 0.0, "name": "33fcac01215c59fe1f40e0d8634a55bf", "bike_id": "33fcac01215c59fe1f40e0d8634a55bf"}, {"is_disabled": 0, "is_reserved": 0, "type": "electric_scooter", "lon": -77.04262933333334, "fusion_lon": 0.0, "lat": 38.910383333333336, "rental_uris": {"android": "https://dc.lft.to/lastmile_qr_scan", "ios": "https://dc.lft.to/lastmile_qr_scan"}, "fusion_lat": 0.0, "name": "49fffc71da4f2037af71c7a00e560240", "bike_id": "49fffc71da4f2037af71c7a00e560240"}, {"is_disabled": 0, "is_reserved": 0, "type": "electric_scooter", "lon": -77.045459, "fusion_lon": 0.0, "lat": 38.917714, "rental_uris": {"android": "https://dc.lft.to/lastmile_qr_scan", "ios": "https://dc.lft.to/lastmile_qr_scan"}, "fusion_lat": 0.0, "name": "c532f514838762d4117d84f0a300369e", "bike_id": "c532f514838762d4117d84f0a300369e"}, {"is_disabled": 0, "is_reserved": 0, "type": "electric_scooter", "lon": -77.05144583333333, "fusion_lon": 0.0, "lat": 38.90649633333334, "rental_uris": {"android": "https://dc.lft.to/lastmile_qr_scan", "ios": "https://dc.lft.to/lastmile_qr_scan"}, "fusion_lat": 0.0, "name": "4a3f6d126a4da7bec4d54b5bcd9ff054", "bike_id": "4a3f6d126a4da7bec4d54b5bcd9ff054"}, {"is_disabled": 0, "is_reserved": 0, "type": "electric_scooter", "lon": -76.9846035, "fusion_lon": 0.0, "lat": 38.89369083333333, "rental_uris": {"android": "https://dc.lft.to/lastmile_qr_scan", "ios": "https://dc.lft.to/lastmile_qr_scan"}, "fusion_lat": 0.0, "name": "485fef8bb057c001bd08ec811da666a3", "bike_id": "485fef8bb057c001bd08ec811da666a3"}, {"is_disabled": 0, "is_reserved": 0, "type": "electric_scooter", "lon": -76.94998266666667, "fusion_lon": 0.0, "lat": 38.89396766666667, "rental_uris": {"android": "https://dc.lft.to/lastmile_qr_scan", "ios": "https://dc.lft.to/lastmile_qr_scan"}, "fusion_lat": 0.0, "name": "33481ee1780c95ccbbee4f534e02cfd6", "bike_id": "33481ee1780c95ccbbee4f534e02cfd6"}, {"is_disabled": 0, "is_reserved": 0, "type": "electric_scooter", "lon": -77.02490916666666, "fusion_lon": 0.0, "lat": 38.9418655, "rental_uris": {"android": "https://dc.lft.to/lastmile_qr_scan", "ios": "https://dc.lft.to/lastmile_qr_scan"}, "fusion_lat": 0.0, "name": "b6177591ad72336c7b3a43aa36f23724", "bike_id": "b6177591ad72336c7b3a43aa36f23724"}, {"is_disabled": 0, "is_reserved": 0, "type": "electric_scooter", "lon": -77.044935, "fusion_lon": 0.0, "lat": 38.9067135, "rental_uris": {"android": "https://dc.lft.to/lastmile_qr_scan", "ios": "https://dc.lft.to/lastmile_qr_scan"}, "fusion_lat": 0.0, "name": "90012d6dc66895523502292e261d768e", "bike_id": "90012d6dc66895523502292e261d768e"}, {"is_disabled": 0, "is_reserved": 0, "type": "electric_scooter", "lon": -77.02124633333334, "fusion_lon": 0.0, "lat": 38.89220133333333, "rental_uris": {"android": "https://dc.lft.to/lastmile_qr_scan", "ios": "https://dc.lft.to/lastmile_qr_scan"}, "fusion_lat": 0.0, "name": "bd6cb404b4e16930297137aad4387f02", "bike_id": "bd6cb404b4e16930297137aad4387f02"}, {"is_disabled": 0, "is_reserved": 0, "type": "electric_scooter", "lon": -77.05793, "fusion_lon": 0.0, "lat": 38.934811, "rental_uris": {"android": "https://dc.lft.to/lastmile_qr_scan", "ios": "https://dc.lft.to/lastmile_qr_scan"}, "fusion_lat": 0.0, "name": "24be24b8388168c4f4c2eea448224bc6", "bike_id": "24be24b8388168c4f4c2eea448224bc6"}, {"is_disabled": 0, "is_reserved": 0, "type": "electric_scooter", "lon": -77.034326, "fusion_lon": 0.0, "lat": 38.91032583333333, "rental_uris": {"android": "https://dc.lft.to/lastmile_qr_scan", "ios": "https://dc.lft.to/lastmile_qr_scan"}, "fusion_lat": 0.0, "name": "24aacdb4e558e03a37b5484b9a78c33f", "bike_id": "24aacdb4e558e03a37b5484b9a78c33f"}, {"is_disabled": 0, "is_reserved": 0, "type": "electric_scooter", "lon": -77.00719816666667, "fusion_lon": 0.0, "lat": 38.876937166666664, "rental_uris": {"android": "https://dc.lft.to/lastmile_qr_scan", "ios": "https://dc.lft.to/lastmile_qr_scan"}, "fusion_lat": 0.0, "name": "4c5e9fe885a3139d6978370c5aeb36ec", "bike_id": "4c5e9fe885a3139d6978370c5aeb36ec"}, {"is_disabled": 0, "is_reserved": 0, "type": "electric_scooter", "lon": -77.04369483333333, "fusion_lon": 0.0, "lat": 38.916737166666664, "rental_uris": {"android": "https://dc.lft.to/lastmile_qr_scan", "ios": "https://dc.lft.to/lastmile_qr_scan"}, "fusion_lat": 0.0, "name": "db8074c5087451b7cbbb908ca53ff9fd", "bike_id": "db8074c5087451b7cbbb908ca53ff9fd"}, {"is_disabled": 0, "is_reserved": 0, "type": "electric_scooter", "lon": -77.04604916666666, "fusion_lon": 0.0, "lat": 38.91712583333333, "rental_uris": {"android": "https://dc.lft.to/lastmile_qr_scan", "ios": "https://dc.lft.to/lastmile_qr_scan"}, "fusion_lat": 0.0, "name": "6fc6d77c3cfa813d6ad5d5be32594d94", "bike_id": "6fc6d77c3cfa813d6ad5d5be32594d94"}, {"is_disabled": 0, "is_reserved": 0, "type": "electric_scooter", "lon": -77.02484766666667, "fusion_lon": 0.0, "lat": 38.92991033333333, "rental_uris": {"android": "https://dc.lft.to/lastmile_qr_scan", "ios": "https://dc.lft.to/lastmile_qr_scan"}, "fusion_lat": 0.0, "name": "3e1f0f315047ec7dd415dfdbf6f82185", "bike_id": "3e1f0f315047ec7dd415dfdbf6f82185"}, {"is_disabled": 0, "is_reserved": 0, "type": "electric_scooter", "lon": -77.0382955, "fusion_lon": 0.0, "lat": 38.912605166666665, "rental_uris": {"android": "https://dc.lft.to/lastmile_qr_scan", "ios": "https://dc.lft.to/lastmile_qr_scan"}, "fusion_lat": 0.0, "name": "d47aa2306c52f5054c0ae84a6fa01253", "bike_id": "d47aa2306c52f5054c0ae84a6fa01253"}, {"is_disabled": 0, "is_reserved": 0, "type": "electric_scooter", "lon": -77.050672, "fusion_lon": 0.0, "lat": 38.90064366666667, "rental_uris": {"android": "https://dc.lft.to/lastmile_qr_scan", "ios": "https://dc.lft.to/lastmile_qr_scan"}, "fusion_lat": 0.0, "name": "f3cb941933650f477ef24fa0e380088e", "bike_id": "f3cb941933650f477ef24fa0e380088e"}, {"is_disabled": 0, "is_reserved": 0, "type": "electric_scooter", "lon": -76.998075, "fusion_lon": 0.0, "lat": 38.876685333333334, "rental_uris": {"android": "https://dc.lft.to/lastmile_qr_scan", "ios": "https://dc.lft.to/lastmile_qr_scan"}, "fusion_lat": 0.0, "name": "aebc3a700afc22fd41ee413930602bba", "bike_id": "aebc3a700afc22fd41ee413930602bba"}, {"is_disabled": 0, "is_reserved": 0, "type": "electric_scooter", "lon": -77.04320266666667, "fusion_lon": 0.0, "lat": 38.918758833333335, "rental_uris": {"android": "https://dc.lft.to/lastmile_qr_scan", "ios": "https://dc.lft.to/lastmile_qr_scan"}, "fusion_lat": 0.0, "name": "f1cf33f9b9f259609cc395dc3b66f691", "bike_id": "f1cf33f9b9f259609cc395dc3b66f691"}, {"is_disabled": 0, "is_reserved": 0, "type": "electric_scooter", "lon": -76.94469566666666, "fusion_lon": 0.0, "lat": 38.90284583333333, "rental_uris": {"android": "https://dc.lft.to/lastmile_qr_scan", "ios": "https://dc.lft.to/lastmile_qr_scan"}, "fusion_lat": 0.0, "name": "db15958b7345156f93e105e874e01f96", "bike_id": "db15958b7345156f93e105e874e01f96"}, {"is_disabled": 0, "is_reserved": 0, "type": "electric_scooter", "lon": -77.047736, "fusion_lon": 0.0, "lat": 38.900487, "rental_uris": {"android": "https://dc.lft.to/lastmile_qr_scan", "ios": "https://dc.lft.to/lastmile_qr_scan"}, "fusion_lat": 0.0, "name": "e917a76a2a9454d5eb2ebd8b75a16b10", "bike_id": "e917a76a2a9454d5eb2ebd8b75a16b10"}, {"is_disabled": 0, "is_reserved": 0, "type": "electric_bike", "lon": -76.92913666666666, "fusion_lon": 0.0, "lat": 38.980268833333334, "rental_uris": {"android": "https://dc.lft.to/lastmile_qr_scan", "ios": "https://dc.lft.to/lastmile_qr_scan"}, "fusion_lat": 0.0, "name": "b9c9a1576b83c3ca9c9218b8536f993d", "bike_id": "b9c9a1576b83c3ca9c9218b8536f993d"}, {"is_disabled": 0, "is_reserved": 0, "type": "electric_scooter", "lon": -77.026869, "fusion_lon": 0.0, "lat": 38.916941, "rental_uris": {"android": "https://dc.lft.to/lastmile_qr_scan", "ios": "https://dc.lft.to/lastmile_qr_scan"}, "fusion_lat": 0.0, "name": "2b8d963b798d84f5a7ebbf536c0b0490", "bike_id": "2b8d963b798d84f5a7ebbf536c0b0490"}, {"is_disabled": 0, "is_reserved": 0, "type": "electric_scooter", "lon": -77.0332745, "fusion_lon": 0.0, "lat": 38.89836233333333, "rental_uris": {"android": "https://dc.lft.to/lastmile_qr_scan", "ios": "https://dc.lft.to/lastmile_qr_scan"}, "fusion_lat": 0.0, "name": "4f627507c91d8d4f78f5808918ab8642", "bike_id": "4f627507c91d8d4f78f5808918ab8642"}, {"is_disabled": 0, "is_reserved": 0, "type": "electric_scooter", "lon": -77.02182316666666, "fusion_lon": 0.0, "lat": 38.897450166666665, "rental_uris": {"android": "https://dc.lft.to/lastmile_qr_scan", "ios": "https://dc.lft.to/lastmile_qr_scan"}, "fusion_lat": 0.0, "name": "538c07d7177764ed7b5dd620139632b3", "bike_id": "538c07d7177764ed7b5dd620139632b3"}, {"is_disabled": 0, "is_reserved": 0, "type": "electric_scooter", "lon": -76.94639416666666, "fusion_lon": 0.0, "lat": 38.898434, "rental_uris": {"android": "https://dc.lft.to/lastmile_qr_scan", "ios": "https://dc.lft.to/lastmile_qr_scan"}, "fusion_lat": 0.0, "name": "73b830098dcf0092147cf16fab81279e", "bike_id": "73b830098dcf0092147cf16fab81279e"}, {"is_disabled": 0, "is_reserved": 0, "type": "electric_bike", "lon": -76.95468816666667, "fusion_lon": 0.0, "lat": 38.935675333333336, "rental_uris": {"android": "https://dc.lft.to/lastmile_qr_scan", "ios": "https://dc.lft.to/lastmile_qr_scan"}, "fusion_lat": 0.0, "name": "eaac8829e7538c198ffc0d9310954835", "bike_id": "eaac8829e7538c198ffc0d9310954835"}, {"is_disabled": 0, "is_reserved": 0, "type": "electric_scooter", "lon": -77.00207233333333, "fusion_lon": 0.0, "lat": 38.90032383333333, "rental_uris": {"android": "https://dc.lft.to/lastmile_qr_scan", "ios": "https://dc.lft.to/lastmile_qr_scan"}, "fusion_lat": 0.0, "name": "89995c330d3d689588a4745e82866f55", "bike_id": "89995c330d3d689588a4745e82866f55"}, {"is_disabled": 0, "is_reserved": 0, "type": "electric_scooter", "lon": -77.00198466666667, "fusion_lon": 0.0, "lat": 38.902307, "rental_uris": {"android": "https://dc.lft.to/lastmile_qr_scan", "ios": "https://dc.lft.to/lastmile_qr_scan"}, "fusion_lat": 0.0, "name": "062700c11ce424a0e03b1d0c811838b1", "bike_id": "062700c11ce424a0e03b1d0c811838b1"}, {"is_disabled": 0, "is_reserved": 0, "type": "electric_scooter", "lon": -76.99049916666667, "fusion_lon": 0.0, "lat": 38.858939666666664, "rental_uris": {"android": "https://dc.lft.to/lastmile_qr_scan", "ios": "https://dc.lft.to/lastmile_qr_scan"}, "fusion_lat": 0.0, "name": "3443338e144dc89e66187a4a2d6322a7", "bike_id": "3443338e144dc89e66187a4a2d6322a7"}, {"is_disabled": 0, "is_reserved": 0, "type": "electric_scooter", "lon": -77.00746566666666, "fusion_lon": 0.0, "lat": 38.903695166666665, "rental_uris": {"android": "https://dc.lft.to/lastmile_qr_scan", "ios": "https://dc.lft.to/lastmile_qr_scan"}, "fusion_lat": 0.0, "name": "65454b0f012c245225232e9bbb6ba85d", "bike_id": "65454b0f012c245225232e9bbb6ba85d"}, {"is_disabled": 0, "is_reserved": 0, "type": "electric_bike", "lon": -77.03657766666667, "fusion_lon": 0.0, "lat": 38.93653966666667, "rental_uris": {"android": "https://dc.lft.to/lastmile_qr_scan", "ios": "https://dc.lft.to/lastmile_qr_scan"}, "fusion_lat": 0.0, "name": "48f9b6c61df6f89b4e56c47a7530fa35", "bike_id": "48f9b6c61df6f89b4e56c47a7530fa35"}, {"is_disabled": 0, "is_reserved": 0, "type": "electric_scooter", "lon": -76.9948875, "fusion_lon": 0.0, "lat": 38.862473, "rental_uris": {"android": "https://dc.lft.to/lastmile_qr_scan", "ios": "https://dc.lft.to/lastmile_qr_scan"}, "fusion_lat": 0.0, "name": "71929c14302c540f570539a74035de60", "bike_id": "71929c14302c540f570539a74035de60"}, {"is_disabled": 0, "is_reserved": 0, "type": "electric_scooter", "lon": -77.01543416666667, "fusion_lon": 0.0, "lat": 38.8863085, "rental_uris": {"android": "https://dc.lft.to/lastmile_qr_scan", "ios": "https://dc.lft.to/lastmile_qr_scan"}, "fusion_lat": 0.0, "name": "62118c1cbe0f42912c1462102ebc6fb4", "bike_id": "62118c1cbe0f42912c1462102ebc6fb4"}, {"is_disabled": 0, "is_reserved": 0, "type": "electric_scooter", "lon": -77.02762416666667, "fusion_lon": 0.0, "lat": 38.881584833333335, "rental_uris": {"android": "https://dc.lft.to/lastmile_qr_scan", "ios": "https://dc.lft.to/lastmile_qr_scan"}, "fusion_lat": 0.0, "name": "7eee3e8b10c3a249b61db35fcd8951ab", "bike_id": "7eee3e8b10c3a249b61db35fcd8951ab"}, {"is_disabled": 0, "is_reserved": 0, "type": "electric_scooter", "lon": -77.00368516666667, "fusion_lon": 0.0, "lat": 38.8774925, "rental_uris": {"android": "https://dc.lft.to/lastmile_qr_scan", "ios": "https://dc.lft.to/lastmile_qr_scan"}, "fusion_lat": 0.0, "name": "0c9244d4bca4dd44cfb8b6bd495b5d5a", "bike_id": "0c9244d4bca4dd44cfb8b6bd495b5d5a"}, {"is_disabled": 0, "is_reserved": 0, "type": "electric_scooter", "lon": -77.042985, "fusion_lon": 0.0, "lat": 38.916636833333335, "rental_uris": {"android": "https://dc.lft.to/lastmile_qr_scan", "ios": "https://dc.lft.to/lastmile_qr_scan"}, "fusion_lat": 0.0, "name": "9572f75a030781722de5c04815099d31", "bike_id": "9572f75a030781722de5c04815099d31"}, {"is_disabled": 0, "is_reserved": 0, "type": "electric_scooter", "lon": -77.0319755, "fusion_lon": 0.0, "lat": 38.9121165, "rental_uris": {"android": "https://dc.lft.to/lastmile_qr_scan", "ios": "https://dc.lft.to/lastmile_qr_scan"}, "fusion_lat": 0.0, "name": "19c09f40a13eb2c31b6b36d2873a5035", "bike_id": "19c09f40a13eb2c31b6b36d2873a5035"}, {"is_disabled": 0, "is_reserved": 0, "type": "electric_scooter", "lon": -77.02169266666667, "fusion_lon": 0.0, "lat": 38.942935, "rental_uris": {"android": "https://dc.lft.to/lastmile_qr_scan", "ios": "https://dc.lft.to/lastmile_qr_scan"}, "fusion_lat": 0.0, "name": "8a8254021be87223e2221c30f1b3dbb2", "bike_id": "8a8254021be87223e2221c30f1b3dbb2"}, {"is_disabled": 0, "is_reserved": 0, "type": "electric_scooter", "lon": -77.0044405, "fusion_lon": 0.0, "lat": 38.877086166666665, "rental_uris": {"android": "https://dc.lft.to/lastmile_qr_scan", "ios": "https://dc.lft.to/lastmile_qr_scan"}, "fusion_lat": 0.0, "name": "a050b017fe60761bc920885a83ee7784", "bike_id": "a050b017fe60761bc920885a83ee7784"}, {"is_disabled": 0, "is_reserved": 0, "type": "electric_scooter", "lon": -77.06608316666667, "fusion_lon": 0.0, "lat": 38.907395666666666, "rental_uris": {"android": "https://dc.lft.to/lastmile_qr_scan", "ios": "https://dc.lft.to/lastmile_qr_scan"}, "fusion_lat": 0.0, "name": "d66565f1e48479432710d99a047dd5fb", "bike_id": "d66565f1e48479432710d99a047dd5fb"}, {"is_disabled": 0, "is_reserved": 0, "type": "electric_bike", "lon": -77.132284, "fusion_lon": 0.0, "lat": 38.86974933333333, "rental_uris": {"android": "https://dc.lft.to/lastmile_qr_scan", "ios": "https://dc.lft.to/lastmile_qr_scan"}, "fusion_lat": 0.0, "name": "3409ca58f27217f102efb92f8b2bf879", "bike_id": "3409ca58f27217f102efb92f8b2bf879"}, {"is_disabled": 0, "is_reserved": 0, "type": "electric_scooter", "lon": -77.03597566666667, "fusion_lon": 0.0, "lat": 38.91697, "rental_uris": {"android": "https://dc.lft.to/lastmile_qr_scan", "ios": "https://dc.lft.to/lastmile_qr_scan"}, "fusion_lat": 0.0, "name": "3eef9af84aa4d0f3aafeff39d3de78cd", "bike_id": "3eef9af84aa4d0f3aafeff39d3de78cd"}, {"is_disabled": 0, "is_reserved": 0, "type": "electric_scooter", "lon": -77.00580916666667, "fusion_lon": 0.0, "lat": 38.8751165, "rental_uris": {"android": "https://dc.lft.to/lastmile_qr_scan", "ios": "https://dc.lft.to/lastmile_qr_scan"}, "fusion_lat": 0.0, "name": "4416c70255812364b504105621094123", "bike_id": "4416c70255812364b504105621094123"}, {"is_disabled": 0, "is_reserved": 0, "type": "electric_scooter", "lon": -77.02538266666667, "fusion_lon": 0.0, "lat": 38.900942666666666, "rental_uris": {"android": "https://dc.lft.to/lastmile_qr_scan", "ios": "https://dc.lft.to/lastmile_qr_scan"}, "fusion_lat": 0.0, "name": "279361e794bffdb6c58efbfb72bf9497", "bike_id": "279361e794bffdb6c58efbfb72bf9497"}, {"is_disabled": 0, "is_reserved": 0, "type": "electric_scooter", "lon": -77.031166, "fusion_lon": 0.0, "lat": 38.920156666666664, "rental_uris": {"android": "https://dc.lft.to/lastmile_qr_scan", "ios": "https://dc.lft.to/lastmile_qr_scan"}, "fusion_lat": 0.0, "name": "50237c757291733960dea0021d7415d1", "bike_id": "50237c757291733960dea0021d7415d1"}, {"is_disabled": 0, "is_reserved": 0, "type": "electric_scooter", "lon": -77.00903083333333, "fusion_lon": 0.0, "lat": 38.91289, "rental_uris": {"android": "https://dc.lft.to/lastmile_qr_scan", "ios": "https://dc.lft.to/lastmile_qr_scan"}, "fusion_lat": 0.0, "name": "323078fd593b0a5c75ce6dbd3a6eb7ac", "bike_id": "323078fd593b0a5c75ce6dbd3a6eb7ac"}, {"is_disabled": 0, "is_reserved": 0, "type": "electric_scooter", "lon": -77.06361183333334, "fusion_lon": 0.0, "lat": 38.94448383333334, "rental_uris": {"android": "https://dc.lft.to/lastmile_qr_scan", "ios": "https://dc.lft.to/lastmile_qr_scan"}, "fusion_lat": 0.0, "name": "0e5b19b440796558ae4ea41eb8be107c", "bike_id": "0e5b19b440796558ae4ea41eb8be107c"}, {"is_disabled": 0, "is_reserved": 0, "type": "electric_scooter", "lon": -77.02463, "fusion_lon": 0.0, "lat": 38.937575, "rental_uris": {"android": "https://dc.lft.to/lastmile_qr_scan", "ios": "https://dc.lft.to/lastmile_qr_scan"}, "fusion_lat": 0.0, "name": "c775adf551ea1cad5715ea68a95549d1", "bike_id": "c775adf551ea1cad5715ea68a95549d1"}, {"is_disabled": 0, "is_reserved": 0, "type": "electric_bike", "lon": -77.16242966666667, "fusion_lon": 0.0, "lat": 38.886631333333334, "rental_uris": {"android": "https://dc.lft.to/lastmile_qr_scan", "ios": "https://dc.lft.to/lastmile_qr_scan"}, "fusion_lat": 0.0, "name": "77785cc66733319c374238e98d24fa65", "bike_id": "77785cc66733319c374238e98d24fa65"}, {"is_disabled": 0, "is_reserved": 0, "type": "electric_scooter", "lon": -77.010019, "fusion_lon": 0.0, "lat": 38.872103333333335, "rental_uris": {"android": "https://dc.lft.to/lastmile_qr_scan", "ios": "https://dc.lft.to/lastmile_qr_scan"}, "fusion_lat": 0.0, "name": "56a73f201970d8f8e25b2df65214c331", "bike_id": "56a73f201970d8f8e25b2df65214c331"}, {"is_disabled": 0, "is_reserved": 0, "type": "electric_scooter", "lon": -77.00764283333334, "fusion_lon": 0.0, "lat": 38.90061433333333, "rental_uris": {"android": "https://dc.lft.to/lastmile_qr_scan", "ios": "https://dc.lft.to/lastmile_qr_scan"}, "fusion_lat": 0.0, "name": "050d9dcc9b7279940198be01bda419de", "bike_id": "050d9dcc9b7279940198be01bda419de"}, {"is_disabled": 0, "is_reserved": 0, "type": "electric_scooter", "lon": -76.9868265, "fusion_lon": 0.0, "lat": 38.8557305, "rental_uris": {"android": "https://dc.lft.to/lastmile_qr_scan", "ios": "https://dc.lft.to/lastmile_qr_scan"}, "fusion_lat": 0.0, "name": "1557f0917e092f51809ef7eecc39146d", "bike_id": "1557f0917e092f51809ef7eecc39146d"}, {"is_disabled": 0, "is_reserved": 0, "type": "electric_scooter", "lon": -77.046126, "fusion_lon": 0.0, "lat": 38.899656, "rental_uris": {"android": "https://dc.lft.to/lastmile_qr_scan", "ios": "https://dc.lft.to/lastmile_qr_scan"}, "fusion_lat": 0.0, "name": "57d1c25476ec5c9c2afb2667a39dbec5", "bike_id": "57d1c25476ec5c9c2afb2667a39dbec5"}, {"is_disabled": 0, "is_reserved": 0, "type": "electric_scooter", "lon": -77.02237733333334, "fusion_lon": 0.0, "lat": 38.9055785, "rental_uris": {"android": "https://dc.lft.to/lastmile_qr_scan", "ios": "https://dc.lft.to/lastmile_qr_scan"}, "fusion_lat": 0.0, "name": "9fa4591cd8a595264f040e6f752147cd", "bike_id": "9fa4591cd8a595264f040e6f752147cd"}, {"is_disabled": 0, "is_reserved": 0, "type": "electric_scooter", "lon": -77.04186216666666, "fusion_lon": 0.0, "lat": 38.907954, "rental_uris": {"android": "https://dc.lft.to/lastmile_qr_scan", "ios": "https://dc.lft.to/lastmile_qr_scan"}, "fusion_lat": 0.0, "name": "b6ba2791b0c3afdb72f1ed3c58400237", "bike_id": "b6ba2791b0c3afdb72f1ed3c58400237"}, {"is_disabled": 0, "is_reserved": 0, "type": "electric_scooter", "lon": -77.02185833333333, "fusion_lon": 0.0, "lat": 38.905101333333334, "rental_uris": {"android": "https://dc.lft.to/lastmile_qr_scan", "ios": "https://dc.lft.to/lastmile_qr_scan"}, "fusion_lat": 0.0, "name": "4777d9172448ab88d1e8e5ec1cf1b35b", "bike_id": "4777d9172448ab88d1e8e5ec1cf1b35b"}, {"is_disabled": 0, "is_reserved": 0, "type": "electric_scooter", "lon": -77.02722016666667, "fusion_lon": 0.0, "lat": 38.9248505, "rental_uris": {"android": "https://dc.lft.to/lastmile_qr_scan", "ios": "https://dc.lft.to/lastmile_qr_scan"}, "fusion_lat": 0.0, "name": "575d1e90205cb28a2f68b1749347a5e3", "bike_id": "575d1e90205cb28a2f68b1749347a5e3"}, {"is_disabled": 0, "is_reserved": 0, "type": "electric_scooter", "lon": -77.02712283333334, "fusion_lon": 0.0, "lat": 38.91964683333333, "rental_uris": {"android": "https://dc.lft.to/lastmile_qr_scan", "ios": "https://dc.lft.to/lastmile_qr_scan"}, "fusion_lat": 0.0, "name": "f1c687d49ea8e7514fe3ab18ba5aa4ae", "bike_id": "f1c687d49ea8e7514fe3ab18ba5aa4ae"}, {"is_disabled": 0, "is_reserved": 0, "type": "electric_scooter", "lon": -76.94119216666667, "fusion_lon": 0.0, "lat": 38.907939, "rental_uris": {"android": "https://dc.lft.to/lastmile_qr_scan", "ios": "https://dc.lft.to/lastmile_qr_scan"}, "fusion_lat": 0.0, "name": "e9580fc90d14daf3c4b0e5f9ba23e554", "bike_id": "e9580fc90d14daf3c4b0e5f9ba23e554"}, {"is_disabled": 0, "is_reserved": 0, "type": "electric_scooter", "lon": -77.0126325, "fusion_lon": 0.0, "lat": 38.87482283333333, "rental_uris": {"android": "https://dc.lft.to/lastmile_qr_scan", "ios": "https://dc.lft.to/lastmile_qr_scan"}, "fusion_lat": 0.0, "name": "a1c0f7be9b0bf676864361f486cfad09", "bike_id": "a1c0f7be9b0bf676864361f486cfad09"}, {"is_disabled": 0, "is_reserved": 0, "type": "electric_scooter", "lon": -77.02319416666667, "fusion_lon": 0.0, "lat": 38.9275855, "rental_uris": {"android": "https://dc.lft.to/lastmile_qr_scan", "ios": "https://dc.lft.to/lastmile_qr_scan"}, "fusion_lat": 0.0, "name": "d73669c9c6a9d4e42edb2dcdd748f8dc", "bike_id": "d73669c9c6a9d4e42edb2dcdd748f8dc"}, {"is_disabled": 0, "is_reserved": 0, "type": "electric_scooter", "lon": -77.04657966666667, "fusion_lon": 0.0, "lat": 38.89347016666667, "rental_uris": {"android": "https://dc.lft.to/lastmile_qr_scan", "ios": "https://dc.lft.to/lastmile_qr_scan"}, "fusion_lat": 0.0, "name": "e2eea97dd6a0dd599f01579287db324a", "bike_id": "e2eea97dd6a0dd599f01579287db324a"}, {"is_disabled": 0, "is_reserved": 0, "type": "electric_scooter", "lon": -76.9575935, "fusion_lon": 0.0, "lat": 38.884306, "rental_uris": {"android": "https://dc.lft.to/lastmile_qr_scan", "ios": "https://dc.lft.to/lastmile_qr_scan"}, "fusion_lat": 0.0, "name": "47927e159bb49bebe4cbd33640a64171", "bike_id": "47927e159bb49bebe4cbd33640a64171"}, {"is_disabled": 0, "is_reserved": 0, "type": "electric_scooter", "lon": -77.0459725, "fusion_lon": 0.0, "lat": 38.917145833333336, "rental_uris": {"android": "https://dc.lft.to/lastmile_qr_scan", "ios": "https://dc.lft.to/lastmile_qr_scan"}, "fusion_lat": 0.0, "name": "b077611313b1cbbc076814d997017cc6", "bike_id": "b077611313b1cbbc076814d997017cc6"}, {"is_disabled": 0, "is_reserved": 0, "type": "electric_scooter", "lon": -77.01992066666666, "fusion_lon": 0.0, "lat": 38.87573716666667, "rental_uris": {"android": "https://dc.lft.to/lastmile_qr_scan", "ios": "https://dc.lft.to/lastmile_qr_scan"}, "fusion_lat": 0.0, "name": "3834664f973364350f3ac9c7d6d2c2df", "bike_id": "3834664f973364350f3ac9c7d6d2c2df"}, {"is_disabled": 0, "is_reserved": 0, "type": "electric_scooter", "lon": -77.01026016666667, "fusion_lon": 0.0, "lat": 38.911191, "rental_uris": {"android": "https://dc.lft.to/lastmile_qr_scan", "ios": "https://dc.lft.to/lastmile_qr_scan"}, "fusion_lat": 0.0, "name": "1e8cda1723488d2c9d1d719f3a172620", "bike_id": "1e8cda1723488d2c9d1d719f3a172620"}, {"is_disabled": 0, "is_reserved": 0, "type": "electric_scooter", "lon": -77.04490383333334, "fusion_lon": 0.0, "lat": 38.90852266666667, "rental_uris": {"android": "https://dc.lft.to/lastmile_qr_scan", "ios": "https://dc.lft.to/lastmile_qr_scan"}, "fusion_lat": 0.0, "name": "60d5ce66a2b99710b05001be35b4de26", "bike_id": "60d5ce66a2b99710b05001be35b4de26"}, {"is_disabled": 0, "is_reserved": 0, "type": "electric_scooter", "lon": -77.0319075, "fusion_lon": 0.0, "lat": 38.8966555, "rental_uris": {"android": "https://dc.lft.to/lastmile_qr_scan", "ios": "https://dc.lft.to/lastmile_qr_scan"}, "fusion_lat": 0.0, "name": "d68d74ddf9761d32033d38dd739b3dce", "bike_id": "d68d74ddf9761d32033d38dd739b3dce"}, {"is_disabled": 0, "is_reserved": 0, "type": "electric_scooter", "lon": -77.04348033333333, "fusion_lon": 0.0, "lat": 38.911219, "rental_uris": {"android": "https://dc.lft.to/lastmile_qr_scan", "ios": "https://dc.lft.to/lastmile_qr_scan"}, "fusion_lat": 0.0, "name": "6d961a38aeb74fe15e2f0d985b279174", "bike_id": "6d961a38aeb74fe15e2f0d985b279174"}, {"is_disabled": 0, "is_reserved": 0, "type": "electric_scooter", "lon": -77.03211833333333, "fusion_lon": 0.0, "lat": 38.892224666666664, "rental_uris": {"android": "https://dc.lft.to/lastmile_qr_scan", "ios": "https://dc.lft.to/lastmile_qr_scan"}, "fusion_lat": 0.0, "name": "e0a2904a30fbea8b00628486054dcf22", "bike_id": "e0a2904a30fbea8b00628486054dcf22"}, {"is_disabled": 0, "is_reserved": 0, "type": "electric_bike", "lon": -76.96679433333334, "fusion_lon": 0.0, "lat": 38.9588625, "rental_uris": {"android": "https://dc.lft.to/lastmile_qr_scan", "ios": "https://dc.lft.to/lastmile_qr_scan"}, "fusion_lat": 0.0, "name": "761156d4beaaebdf95ad33cf2d21cbf0", "bike_id": "761156d4beaaebdf95ad33cf2d21cbf0"}, {"is_disabled": 0, "is_reserved": 0, "type": "electric_scooter", "lon": -77.05192566666666, "fusion_lon": 0.0, "lat": 38.925514666666665, "rental_uris": {"android": "https://dc.lft.to/lastmile_qr_scan", "ios": "https://dc.lft.to/lastmile_qr_scan"}, "fusion_lat": 0.0, "name": "c6c445479927481c96b175687e7412f8", "bike_id": "c6c445479927481c96b175687e7412f8"}, {"is_disabled": 0, "is_reserved": 0, "type": "electric_scooter", "lon": -77.02902933333333, "fusion_lon": 0.0, "lat": 38.916861833333336, "rental_uris": {"android": "https://dc.lft.to/lastmile_qr_scan", "ios": "https://dc.lft.to/lastmile_qr_scan"}, "fusion_lat": 0.0, "name": "1af186071d975f1005b13095b7204e2b", "bike_id": "1af186071d975f1005b13095b7204e2b"}, {"is_disabled": 0, "is_reserved": 0, "type": "electric_scooter", "lon": -77.03327433333334, "fusion_lon": 0.0, "lat": 38.898316333333334, "rental_uris": {"android": "https://dc.lft.to/lastmile_qr_scan", "ios": "https://dc.lft.to/lastmile_qr_scan"}, "fusion_lat": 0.0, "name": "292f0e8b70824c47342d61fd330cfb1f", "bike_id": "292f0e8b70824c47342d61fd330cfb1f"}, {"is_disabled": 0, "is_reserved": 0, "type": "electric_scooter", "lon": -77.0059515, "fusion_lon": 0.0, "lat": 38.905600166666666, "rental_uris": {"android": "https://dc.lft.to/lastmile_qr_scan", "ios": "https://dc.lft.to/lastmile_qr_scan"}, "fusion_lat": 0.0, "name": "44b1310a37ad4790a1c1a516394e9908", "bike_id": "44b1310a37ad4790a1c1a516394e9908"}, {"is_disabled": 0, "is_reserved": 0, "type": "electric_scooter", "lon": -77.00066566666666, "fusion_lon": 0.0, "lat": 38.876636, "rental_uris": {"android": "https://dc.lft.to/lastmile_qr_scan", "ios": "https://dc.lft.to/lastmile_qr_scan"}, "fusion_lat": 0.0, "name": "e70b32f2cf1dc7f0458eaf5a4ed853d9", "bike_id": "e70b32f2cf1dc7f0458eaf5a4ed853d9"}, {"is_disabled": 0, "is_reserved": 0, "type": "electric_scooter", "lon": -76.994655, "fusion_lon": 0.0, "lat": 38.86030216666666, "rental_uris": {"android": "https://dc.lft.to/lastmile_qr_scan", "ios": "https://dc.lft.to/lastmile_qr_scan"}, "fusion_lat": 0.0, "name": "d5436a3d9187574a801acc4e6d900862", "bike_id": "d5436a3d9187574a801acc4e6d900862"}, {"is_disabled": 0, "is_reserved": 0, "type": "electric_bike", "lon": -76.990807, "fusion_lon": 0.0, "lat": 38.8972895, "rental_uris": {"android": "https://dc.lft.to/lastmile_qr_scan", "ios": "https://dc.lft.to/lastmile_qr_scan"}, "fusion_lat": 0.0, "name": "7fc4511bb00cffd4820911c2a3f782b6", "bike_id": "7fc4511bb00cffd4820911c2a3f782b6"}, {"is_disabled": 0, "is_reserved": 0, "type": "electric_scooter", "lon": -77.02412183333334, "fusion_lon": 0.0, "lat": 38.919151666666664, "rental_uris": {"android": "https://dc.lft.to/lastmile_qr_scan", "ios": "https://dc.lft.to/lastmile_qr_scan"}, "fusion_lat": 0.0, "name": "d8923aa7167fb02c4ea00bf636f6983b", "bike_id": "d8923aa7167fb02c4ea00bf636f6983b"}, {"is_disabled": 0, "is_reserved": 0, "type": "electric_scooter", "lon": -76.9981655, "fusion_lon": 0.0, "lat": 38.844347, "rental_uris": {"android": "https://dc.lft.to/lastmile_qr_scan", "ios": "https://dc.lft.to/lastmile_qr_scan"}, "fusion_lat": 0.0, "name": "cc2f7c0325c6eebd1e9da4b070d829b9", "bike_id": "cc2f7c0325c6eebd1e9da4b070d829b9"}, {"is_disabled": 0, "is_reserved": 0, "type": "electric_scooter", "lon": -77.02167733333333, "fusion_lon": 0.0, "lat": 38.89719183333333, "rental_uris": {"android": "https://dc.lft.to/lastmile_qr_scan", "ios": "https://dc.lft.to/lastmile_qr_scan"}, "fusion_lat": 0.0, "name": "b807a276a8e6d5410ade76773cb5208e", "bike_id": "b807a276a8e6d5410ade76773cb5208e"}, {"is_disabled": 0, "is_reserved": 0, "type": "electric_bike", "lon": -76.98090633333334, "fusion_lon": 0.0, "lat": 38.95355133333333, "rental_uris": {"android": "https://dc.lft.to/lastmile_qr_scan", "ios": "https://dc.lft.to/lastmile_qr_scan"}, "fusion_lat": 0.0, "name": "37b348b99d100b47004ee0dc7bfbe106", "bike_id": "37b348b99d100b47004ee0dc7bfbe106"}, {"is_disabled": 0, "is_reserved": 0, "type": "electric_scooter", "lon": -77.0346535, "fusion_lon": 0.0, "lat": 38.90982233333333, "rental_uris": {"android": "https://dc.lft.to/lastmile_qr_scan", "ios": "https://dc.lft.to/lastmile_qr_scan"}, "fusion_lat": 0.0, "name": "081c74dacc05aac5302c46e1613f2f74", "bike_id": "081c74dacc05aac5302c46e1613f2f74"}, {"is_disabled": 0, "is_reserved": 0, "type": "electric_bike", "lon": -77.0805205, "fusion_lon": 0.0, "lat": 38.8484325, "rental_uris": {"android": "https://dc.lft.to/lastmile_qr_scan", "ios": "https://dc.lft.to/lastmile_qr_scan"}, "fusion_lat": 0.0, "name": "ed14c55dd89c0edb8f50207b3fb51504", "bike_id": "ed14c55dd89c0edb8f50207b3fb51504"}, {"is_disabled": 0, "is_reserved": 0, "type": "electric_scooter", "lon": -77.04829766666667, "fusion_lon": 0.0, "lat": 38.9045435, "rental_uris": {"android": "https://dc.lft.to/lastmile_qr_scan", "ios": "https://dc.lft.to/lastmile_qr_scan"}, "fusion_lat": 0.0, "name": "d5ae0a934cadd553cf44f0589ff6270f", "bike_id": "d5ae0a934cadd553cf44f0589ff6270f"}, {"is_disabled": 0, "is_reserved": 0, "type": "electric_scooter", "lon": -76.94997316666667, "fusion_lon": 0.0, "lat": 38.89390683333333, "rental_uris": {"android": "https://dc.lft.to/lastmile_qr_scan", "ios": "https://dc.lft.to/lastmile_qr_scan"}, "fusion_lat": 0.0, "name": "951075076c3c15e2dd949cf5ff952c1a", "bike_id": "951075076c3c15e2dd949cf5ff952c1a"}, {"is_disabled": 0, "is_reserved": 0, "type": "electric_scooter", "lon": -77.03910683333334, "fusion_lon": 0.0, "lat": 38.90195033333333, "rental_uris": {"android": "https://dc.lft.to/lastmile_qr_scan", "ios": "https://dc.lft.to/lastmile_qr_scan"}, "fusion_lat": 0.0, "name": "8d58fe67716c460f2d9ff6a54202d579", "bike_id": "8d58fe67716c460f2d9ff6a54202d579"}, {"is_disabled": 0, "is_reserved": 0, "type": "electric_scooter", "lon": -77.05136083333333, "fusion_lon": 0.0, "lat": 38.906257, "rental_uris": {"android": "https://dc.lft.to/lastmile_qr_scan", "ios": "https://dc.lft.to/lastmile_qr_scan"}, "fusion_lat": 0.0, "name": "58789053a5e9ac019e65778b3088a2a8", "bike_id": "58789053a5e9ac019e65778b3088a2a8"}, {"is_disabled": 0, "is_reserved": 0, "type": "electric_scooter", "lon": -76.9383845, "fusion_lon": 0.0, "lat": 38.8901335, "rental_uris": {"android": "https://dc.lft.to/lastmile_qr_scan", "ios": "https://dc.lft.to/lastmile_qr_scan"}, "fusion_lat": 0.0, "name": "513d599d5ffcb9824d82c18c10ee4ded", "bike_id": "513d599d5ffcb9824d82c18c10ee4ded"}, {"is_disabled": 0, "is_reserved": 0, "type": "electric_scooter", "lon": -77.05913716666667, "fusion_lon": 0.0, "lat": 38.93650366666667, "rental_uris": {"android": "https://dc.lft.to/lastmile_qr_scan", "ios": "https://dc.lft.to/lastmile_qr_scan"}, "fusion_lat": 0.0, "name": "ab8560aeab0b784387bf7c6caca12c66", "bike_id": "ab8560aeab0b784387bf7c6caca12c66"}, {"is_disabled": 0, "is_reserved": 0, "type": "electric_scooter", "lon": -77.03211233333333, "fusion_lon": 0.0, "lat": 38.892263666666665, "rental_uris": {"android": "https://dc.lft.to/lastmile_qr_scan", "ios": "https://dc.lft.to/lastmile_qr_scan"}, "fusion_lat": 0.0, "name": "8540330e07afec2120fe5f20cf004393", "bike_id": "8540330e07afec2120fe5f20cf004393"}, {"is_disabled": 0, "is_reserved": 0, "type": "electric_scooter", "lon": -77.03854233333334, "fusion_lon": 0.0, "lat": 38.91750066666667, "rental_uris": {"android": "https://dc.lft.to/lastmile_qr_scan", "ios": "https://dc.lft.to/lastmile_qr_scan"}, "fusion_lat": 0.0, "name": "adc2d15afd475f2c5d355f0cb457526d", "bike_id": "adc2d15afd475f2c5d355f0cb457526d"}, {"is_disabled": 0, "is_reserved": 0, "type": "electric_scooter", "lon": -77.03223166666666, "fusion_lon": 0.0, "lat": 38.925517666666664, "rental_uris": {"android": "https://dc.lft.to/lastmile_qr_scan", "ios": "https://dc.lft.to/lastmile_qr_scan"}, "fusion_lat": 0.0, "name": "dfd28f682cec7ebb4e5b6d79fe0a6d5c", "bike_id": "dfd28f682cec7ebb4e5b6d79fe0a6d5c"}, {"is_disabled": 0, "is_reserved": 0, "type": "electric_scooter", "lon": -77.03212566666667, "fusion_lon": 0.0, "lat": 38.916061166666665, "rental_uris": {"android": "https://dc.lft.to/lastmile_qr_scan", "ios": "https://dc.lft.to/lastmile_qr_scan"}, "fusion_lat": 0.0, "name": "c0eeec9a3ff62d3df91a91004b121200", "bike_id": "c0eeec9a3ff62d3df91a91004b121200"}, {"is_disabled": 0, "is_reserved": 0, "type": "electric_scooter", "lon": -77.0222505, "fusion_lon": 0.0, "lat": 38.9127265, "rental_uris": {"android": "https://dc.lft.to/lastmile_qr_scan", "ios": "https://dc.lft.to/lastmile_qr_scan"}, "fusion_lat": 0.0, "name": "b65d0ddb3a82153a2d049a89ddc6f06e", "bike_id": "b65d0ddb3a82153a2d049a89ddc6f06e"}, {"is_disabled": 0, "is_reserved": 0, "type": "electric_bike", "lon": -77.12507366666667, "fusion_lon": 0.0, "lat": 39.0242785, "rental_uris": {"android": "https://dc.lft.to/lastmile_qr_scan", "ios": "https://dc.lft.to/lastmile_qr_scan"}, "fusion_lat": 0.0, "name": "ac2fbdb9b6a81c4f63abe13ab6305fd0", "bike_id": "ac2fbdb9b6a81c4f63abe13ab6305fd0"}, {"is_disabled": 0, "is_reserved": 0, "type": "electric_scooter", "lon": -77.02825283333334, "fusion_lon": 0.0, "lat": 38.948311333333336, "rental_uris": {"android": "https://dc.lft.to/lastmile_qr_scan", "ios": "https://dc.lft.to/lastmile_qr_scan"}, "fusion_lat": 0.0, "name": "ec6d785aece426f2c18bc8b58f9f4552", "bike_id": "ec6d785aece426f2c18bc8b58f9f4552"}, {"is_disabled": 0, "is_reserved": 0, "type": "electric_scooter", "lon": -77.03656983333333, "fusion_lon": 0.0, "lat": 38.91731033333333, "rental_uris": {"android": "https://dc.lft.to/lastmile_qr_scan", "ios": "https://dc.lft.to/lastmile_qr_scan"}, "fusion_lat": 0.0, "name": "bb7af3e39d3da765e48ee64802fd0c00", "bike_id": "bb7af3e39d3da765e48ee64802fd0c00"}, {"is_disabled": 0, "is_reserved": 0, "type": "electric_scooter", "lon": -77.0364115, "fusion_lon": 0.0, "lat": 38.918140333333334, "rental_uris": {"android": "https://dc.lft.to/lastmile_qr_scan", "ios": "https://dc.lft.to/lastmile_qr_scan"}, "fusion_lat": 0.0, "name": "2482a7c9a58406f4f64d77be18a420e4", "bike_id": "2482a7c9a58406f4f64d77be18a420e4"}, {"is_disabled": 0, "is_reserved": 0, "type": "electric_scooter", "lon": -77.035125, "fusion_lon": 0.0, "lat": 38.91709733333333, "rental_uris": {"android": "https://dc.lft.to/lastmile_qr_scan", "ios": "https://dc.lft.to/lastmile_qr_scan"}, "fusion_lat": 0.0, "name": "0e209284206fb73e20536ab6436ce7c9", "bike_id": "0e209284206fb73e20536ab6436ce7c9"}, {"is_disabled": 0, "is_reserved": 0, "type": "electric_scooter", "lon": -76.9652435, "fusion_lon": 0.0, "lat": 38.87631916666667, "rental_uris": {"android": "https://dc.lft.to/lastmile_qr_scan", "ios": "https://dc.lft.to/lastmile_qr_scan"}, "fusion_lat": 0.0, "name": "8066cea44bbfc6012390d1d2033f11c8", "bike_id": "8066cea44bbfc6012390d1d2033f11c8"}, {"is_disabled": 0, "is_reserved": 0, "type": "electric_scooter", "lon": -77.04477616666667, "fusion_lon": 0.0, "lat": 38.9004735, "rental_uris": {"android": "https://dc.lft.to/lastmile_qr_scan", "ios": "https://dc.lft.to/lastmile_qr_scan"},