{"data": {"bikes": [{"is_disabled": 0, "fusion_lon": 0.0, "fusion_lat": 0.0, "lat": 38.917043666666665, "type": "electric_scooter", "lon": -77.0243745, "bike_id": "efc05a2e9e8432753d8bcf2499e9dc7d", "rental_uris": {"android": "https://dc.lft.to/lastmile_qr_scan", "ios": "https://dc.lft.to/lastmile_qr_scan"}, "name": "efc05a2e9e8432753d8bcf2499e9dc7d", "is_reserved": 0}, {"is_disabled": 0, "fusion_lon": 0.0, "fusion_lat": 0.0, "lat": 38.886777, "type": "electric_scooter", "lon": -77.00195783333334, "bike_id": "12656effc3bd9b82241dc7c3d1c1e98b", "rental_uris": {"android": "https://dc.lft.to/lastmile_qr_scan", "ios": "https://dc.lft.to/lastmile_qr_scan"}, "name": "12656effc3bd9b82241dc7c3d1c1e98b", "is_reserved": 0}, {"is_disabled": 0, "fusion_lon": 0.0, "fusion_lat": 0.0, "lat": 38.91563166666667, "type": "electric_scooter", "lon": -77.03810666666666, "bike_id": "5874f2406025ba280bb67a7abffd4cff", "rental_uris": {"android": "https://dc.lft.to/lastmile_qr_scan", "ios": "https://dc.lft.to/lastmile_qr_scan"}, "name": "5874f2406025ba280bb67a7abffd4cff", "is_reserved": 0}, {"is_disabled": 0, "fusion_lon": 0.0, "fusion_lat": 0.0, "lat": 38.874787833333336, "type": "electric_scooter", "lon": -77.01069016666666, "bike_id": "45e061921fdf14741b04b0c6dec274df", "rental_uris": {"android": "https://dc.lft.to/lastmile_qr_scan", "ios": "https://dc.lft.to/lastmile_qr_scan"}, "name": "45e061921fdf14741b04b0c6dec274df", "is_reserved": 0}, {"is_disabled": 0, "fusion_lon": 0.0, "fusion_lat": 0.0, "lat": 38.951759333333335, "type": "electric_scooter", "lon": -77.05652133333334, "bike_id": "cffdf0ba1f6d6e9443e3c3929e8cc825", "rental_uris": {"android": "https://dc.lft.to/lastmile_qr_scan", "ios": "https://dc.lft.to/lastmile_qr_scan"}, "name": "cffdf0ba1f6d6e9443e3c3929e8cc825", "is_reserved": 0}, {"is_disabled": 0, "fusion_lon": 0.0, "fusion_lat": 0.0, "lat": 38.913363, "type": "electric_scooter", "lon": -77.04866516666667, "bike_id": "51a74a3c58e95955eec75ce1ab0161ed", "rental_uris": {"android": "https://dc.lft.to/lastmile_qr_scan", "ios": "https://dc.lft.to/lastmile_qr_scan"}, "name": "51a74a3c58e95955eec75ce1ab0161ed", "is_reserved": 0}, {"is_disabled": 0, "fusion_lon": 0.0, "fusion_lat": 0.0, "lat": 38.828741666666666, "type": "electric_bike", "lon": -77.11221016666667, "bike_id": "56d55278e5e4d0adb2003da1255e01f8", "rental_uris": {"android": "https://dc.lft.to/lastmile_qr_scan", "ios": "https://dc.lft.to/lastmile_qr_scan"}, "name": "56d55278e5e4d0adb2003da1255e01f8", "is_reserved": 0}, {"is_disabled": 0, "fusion_lon": 0.0, "fusion_lat": 0.0, "lat": 38.9555285, "type": "electric_bike", "lon": -76.93537233333333, "bike_id": "9be03001b93ddd9300018440a9de7099", "rental_uris": {"android": "https://dc.lft.to/lastmile_qr_scan", "ios": "https://dc.lft.to/lastmile_qr_scan"}, "name": "9be03001b93ddd9300018440a9de7099", "is_reserved": 0}, {"is_disabled": 0, "fusion_lon": 0.0, "fusion_lat": 0.0, "lat": 38.831928, "type": "electric_bike", "lon": -77.0768335, "bike_id": "b37fa8202153cfca3a1d05018a284fc4", "rental_uris": {"android": "https://dc.lft.to/lastmile_qr_scan", "ios": "https://dc.lft.to/lastmile_qr_scan"}, "name": "b37fa8202153cfca3a1d05018a284fc4", "is_reserved": 0}, {"is_disabled": 0, "fusion_lon": 0.0, "fusion_lat": 0.0, "lat": 38.8332085, "type": "electric_scooter", "lon": -77.0000485, "bike_id": "20ee2f9b5c9af9fa48e8a542eeb0f3f7", "rental_uris": {"android": "https://dc.lft.to/lastmile_qr_scan", "ios": "https://dc.lft.to/lastmile_qr_scan"}, "name": "20ee2f9b5c9af9fa48e8a542eeb0f3f7", "is_reserved": 0}, {"is_disabled": 0, "fusion_lon": 0.0, "fusion_lat": 0.0, "lat": 38.92587016666667, "type": "electric_scooter", "lon": -77.05528533333333, "bike_id": "1fa59abac95fadb39ed67b225ef8a864", "rental_uris": {"android": "https://dc.lft.to/lastmile_qr_scan", "ios": "https://dc.lft.to/lastmile_qr_scan"}, "name": "1fa59abac95fadb39ed67b225ef8a864", "is_reserved": 0}, {"is_disabled": 0, "fusion_lon": 0.0, "fusion_lat": 0.0, "lat": 38.9059825, "type": "electric_scooter", "lon": -77.06375133333333, "bike_id": "a00ae078456da83ece0c15f5fe2f2794", "rental_uris": {"android": "https://dc.lft.to/lastmile_qr_scan", "ios": "https://dc.lft.to/lastmile_qr_scan"}, "name": "a00ae078456da83ece0c15f5fe2f2794", "is_reserved": 0}, {"is_disabled": 0, "fusion_lon": 0.0, "fusion_lat": 0.0, "lat": 38.8837365, "type": "electric_scooter", "lon": -76.923739, "bike_id": "c10e39cfbc6d5d0fead59e1c2a4c4533", "rental_uris": {"android": "https://dc.lft.to/lastmile_qr_scan", "ios": "https://dc.lft.to/lastmile_qr_scan"}, "name": "c10e39cfbc6d5d0fead59e1c2a4c4533", "is_reserved": 0}, {"is_disabled": 0, "fusion_lon": 0.0, "fusion_lat": 0.0, "lat": 38.9181195, "type": "electric_scooter", "lon": -77.03436016666667, "bike_id": "3424b54b2e6af783d674897290398ed1", "rental_uris": {"android": "https://dc.lft.to/lastmile_qr_scan", "ios": "https://dc.lft.to/lastmile_qr_scan"}, "name": "3424b54b2e6af783d674897290398ed1", "is_reserved": 0}, {"is_disabled": 0, "fusion_lon": 0.0, "fusion_lat": 0.0, "lat": 38.89899883333333, "type": "electric_scooter", "lon": -77.03981316666666, "bike_id": "382c32b7b96e9f424187f5402ae9c60e", "rental_uris": {"android": "https://dc.lft.to/lastmile_qr_scan", "ios": "https://dc.lft.to/lastmile_qr_scan"}, "name": "382c32b7b96e9f424187f5402ae9c60e", "is_reserved": 0}, {"is_disabled": 0, "fusion_lon": 0.0, "fusion_lat": 0.0, "lat": 38.91268816666667, "type": "electric_scooter", "lon": -77.02208066666667, "bike_id": "3f357171f4272d0241096b4b105039a0", "rental_uris": {"android": "https://dc.lft.to/lastmile_qr_scan", "ios": "https://dc.lft.to/lastmile_qr_scan"}, "name": "3f357171f4272d0241096b4b105039a0", "is_reserved": 0}, {"is_disabled": 0, "fusion_lon": 0.0, "fusion_lat": 0.0, "lat": 38.90681416666666, "type": "electric_scooter", "lon": -77.03114266666667, "bike_id": "8ba081da10349dbb40a15910cbcdc14f", "rental_uris": {"android": "https://dc.lft.to/lastmile_qr_scan", "ios": "https://dc.lft.to/lastmile_qr_scan"}, "name": "8ba081da10349dbb40a15910cbcdc14f", "is_reserved": 0}, {"is_disabled": 0, "fusion_lon": 0.0, "fusion_lat": 0.0, "lat": 38.9030495, "type": "electric_scooter", "lon": -77.02249116666667, "bike_id": "6b2be2692562d27fc86eedc60f1a77ed", "rental_uris": {"android": "https://dc.lft.to/lastmile_qr_scan", "ios": "https://dc.lft.to/lastmile_qr_scan"}, "name": "6b2be2692562d27fc86eedc60f1a77ed", "is_reserved": 0}, {"is_disabled": 0, "fusion_lon": 0.0, "fusion_lat": 0.0, "lat": 38.945203, "type": "electric_scooter", "lon": -77.02983316666666, "bike_id": "83e6cf513c4518c79373e8be8b34379b", "rental_uris": {"android": "https://dc.lft.to/lastmile_qr_scan", "ios": "https://dc.lft.to/lastmile_qr_scan"}, "name": "83e6cf513c4518c79373e8be8b34379b", "is_reserved": 0}, {"is_disabled": 0, "fusion_lon": 0.0, "fusion_lat": 0.0, "lat": 38.88998383333333, "type": "electric_scooter", "lon": -77.04899116666667, "bike_id": "ed4db53c8783f8b202cc44568058d690", "rental_uris": {"android": "https://dc.lft.to/lastmile_qr_scan", "ios": "https://dc.lft.to/lastmile_qr_scan"}, "name": "ed4db53c8783f8b202cc44568058d690", "is_reserved": 0}, {"is_disabled": 0, "fusion_lon": 0.0, "fusion_lat": 0.0, "lat": 38.91697683333334, "type": "electric_scooter", "lon": -77.029942, "bike_id": "f821565b6be46e9a8d4dabe9d113021a", "rental_uris": {"android": "https://dc.lft.to/lastmile_qr_scan", "ios": "https://dc.lft.to/lastmile_qr_scan"}, "name": "f821565b6be46e9a8d4dabe9d113021a", "is_reserved": 0}, {"is_disabled": 0, "fusion_lon": 0.0, "fusion_lat": 0.0, "lat": 38.91869916666667, "type": "electric_scooter", "lon": -77.03529533333334, "bike_id": "06bfb6709e197d8bcb5199fbcf9bf321", "rental_uris": {"android": "https://dc.lft.to/lastmile_qr_scan", "ios": "https://dc.lft.to/lastmile_qr_scan"}, "name": "06bfb6709e197d8bcb5199fbcf9bf321", "is_reserved": 0}, {"is_disabled": 0, "fusion_lon": 0.0, "fusion_lat": 0.0, "lat": 38.9035355, "type": "electric_scooter", "lon": -77.00744983333334, "bike_id": "a955d11a0f6eea7d3eb85a5610b649cf", "rental_uris": {"android": "https://dc.lft.to/lastmile_qr_scan", "ios": "https://dc.lft.to/lastmile_qr_scan"}, "name": "a955d11a0f6eea7d3eb85a5610b649cf", "is_reserved": 0}, {"is_disabled": 0, "fusion_lon": 0.0, "fusion_lat": 0.0, "lat": 38.907072166666666, "type": "electric_scooter", "lon": -77.02397216666667, "bike_id": "77c36c9e21bf643d762b82f78e44991b", "rental_uris": {"android": "https://dc.lft.to/lastmile_qr_scan", "ios": "https://dc.lft.to/lastmile_qr_scan"}, "name": "77c36c9e21bf643d762b82f78e44991b", "is_reserved": 0}, {"is_disabled": 0, "fusion_lon": 0.0, "fusion_lat": 0.0, "lat": 38.909747333333335, "type": "electric_scooter", "lon": -77.037443, "bike_id": "b47e8a80a2830c395fe0600279289c56", "rental_uris": {"android": "https://dc.lft.to/lastmile_qr_scan", "ios": "https://dc.lft.to/lastmile_qr_scan"}, "name": "b47e8a80a2830c395fe0600279289c56", "is_reserved": 0}, {"is_disabled": 0, "fusion_lon": 0.0, "fusion_lat": 0.0, "lat": 38.88754816666667, "type": "electric_scooter", "lon": -77.03380816666666, "bike_id": "37756197e51110503cde742bb1f8603c", "rental_uris": {"android": "https://dc.lft.to/lastmile_qr_scan", "ios": "https://dc.lft.to/lastmile_qr_scan"}, "name": "37756197e51110503cde742bb1f8603c", "is_reserved": 0}, {"is_disabled": 0, "fusion_lon": 0.0, "fusion_lat": 0.0, "lat": 38.92967766666666, "type": "electric_scooter", "lon": -77.00533516666667, "bike_id": "37fa89687f9be4e71f2c53ee61b8b6f5", "rental_uris": {"android": "https://dc.lft.to/lastmile_qr_scan", "ios": "https://dc.lft.to/lastmile_qr_scan"}, "name": "37fa89687f9be4e71f2c53ee61b8b6f5", "is_reserved": 0}, {"is_disabled": 0, "fusion_lon": 0.0, "fusion_lat": 0.0, "lat": 38.9414905, "type": "electric_bike", "lon": -77.00193316666666, "bike_id": "4c0e6e1e044eee54baa51b43780d4e51", "rental_uris": {"android": "https://dc.lft.to/lastmile_qr_scan", "ios": "https://dc.lft.to/lastmile_qr_scan"}, "name": "4c0e6e1e044eee54baa51b43780d4e51", "is_reserved": 0}, {"is_disabled": 0, "fusion_lon": 0.0, "fusion_lat": 0.0, "lat": 38.90755716666666, "type": "electric_scooter", "lon": -77.03579783333333, "bike_id": "0209fa212a3e22383bfe96b9126a3386", "rental_uris": {"android": "https://dc.lft.to/lastmile_qr_scan", "ios": "https://dc.lft.to/lastmile_qr_scan"}, "name": "0209fa212a3e22383bfe96b9126a3386", "is_reserved": 0}, {"is_disabled": 0, "fusion_lon": 0.0, "fusion_lat": 0.0, "lat": 39.0581055, "type": "electric_bike", "lon": -77.12628733333334, "bike_id": "922570b2012fc8b910368dc1389603ed", "rental_uris": {"android": "https://dc.lft.to/lastmile_qr_scan", "ios": "https://dc.lft.to/lastmile_qr_scan"}, "name": "922570b2012fc8b910368dc1389603ed", "is_reserved": 0}, {"is_disabled": 0, "fusion_lon": 0.0, "fusion_lat": 0.0, "lat": 38.876776, "type": "electric_bike", "lon": -77.01437983333334, "bike_id": "af22c7846466054e45bff80cd6e0b197", "rental_uris": {"android": "https://dc.lft.to/lastmile_qr_scan", "ios": "https://dc.lft.to/lastmile_qr_scan"}, "name": "af22c7846466054e45bff80cd6e0b197", "is_reserved": 0}, {"is_disabled": 0, "fusion_lon": 0.0, "fusion_lat": 0.0, "lat": 38.92295166666667, "type": "electric_scooter", "lon": -77.0402535, "bike_id": "0927fd70e20c3ec8dc2cd56a1971d1bc", "rental_uris": {"android": "https://dc.lft.to/lastmile_qr_scan", "ios": "https://dc.lft.to/lastmile_qr_scan"}, "name": "0927fd70e20c3ec8dc2cd56a1971d1bc", "is_reserved": 0}, {"is_disabled": 0, "fusion_lon": 0.0, "fusion_lat": 0.0, "lat": 38.902559333333336, "type": "electric_scooter", "lon": -77.00013533333333, "bike_id": "714aff4bea032650d71ca4aa49b14019", "rental_uris": {"android": "https://dc.lft.to/lastmile_qr_scan", "ios": "https://dc.lft.to/lastmile_qr_scan"}, "name": "714aff4bea032650d71ca4aa49b14019", "is_reserved": 0}, {"is_disabled": 0, "fusion_lon": 0.0, "fusion_lat": 0.0, "lat": 38.907283166666666, "type": "electric_scooter", "lon": -77.02417466666667, "bike_id": "02a17f8977894ae2fd27727372fe029e", "rental_uris": {"android": "https://dc.lft.to/lastmile_qr_scan", "ios": "https://dc.lft.to/lastmile_qr_scan"}, "name": "02a17f8977894ae2fd27727372fe029e", "is_reserved": 0}, {"is_disabled": 0, "fusion_lon": 0.0, "fusion_lat": 0.0, "lat": 38.93070016666667, "type": "electric_scooter", "lon": -77.03806916666667, "bike_id": "649d44bb8fab7b2b2b3c822b855be39f", "rental_uris": {"android": "https://dc.lft.to/lastmile_qr_scan", "ios": "https://dc.lft.to/lastmile_qr_scan"}, "name": "649d44bb8fab7b2b2b3c822b855be39f", "is_reserved": 0}, {"is_disabled": 0, "fusion_lon": 0.0, "fusion_lat": 0.0, "lat": 38.864649166666666, "type": "electric_scooter", "lon": -76.99611316666666, "bike_id": "72090c5a6b64eb724f5eda535877af68", "rental_uris": {"android": "https://dc.lft.to/lastmile_qr_scan", "ios": "https://dc.lft.to/lastmile_qr_scan"}, "name": "72090c5a6b64eb724f5eda535877af68", "is_reserved": 0}, {"is_disabled": 0, "fusion_lon": 0.0, "fusion_lat": 0.0, "lat": 38.94079766666667, "type": "electric_scooter", "lon": -77.06137666666666, "bike_id": "0afed75f5d47573e6b2d9f3a168eee81", "rental_uris": {"android": "https://dc.lft.to/lastmile_qr_scan", "ios": "https://dc.lft.to/lastmile_qr_scan"}, "name": "0afed75f5d47573e6b2d9f3a168eee81", "is_reserved": 0}, {"is_disabled": 0, "fusion_lon": 0.0, "fusion_lat": 0.0, "lat": 38.9521585, "type": "electric_scooter", "lon": -77.03631583333333, "bike_id": "f246c08b198f2fbaedb4e36919c9dffd", "rental_uris": {"android": "https://dc.lft.to/lastmile_qr_scan", "ios": "https://dc.lft.to/lastmile_qr_scan"}, "name": "f246c08b198f2fbaedb4e36919c9dffd", "is_reserved": 0}, {"is_disabled": 0, "fusion_lon": 0.0, "fusion_lat": 0.0, "lat": 38.89681566666667, "type": "electric_scooter", "lon": -77.004947, "bike_id": "5178774f2baf6579495eb667c8a11c0f", "rental_uris": {"android": "https://dc.lft.to/lastmile_qr_scan", "ios": "https://dc.lft.to/lastmile_qr_scan"}, "name": "5178774f2baf6579495eb667c8a11c0f", "is_reserved": 0}, {"is_disabled": 0, "fusion_lon": 0.0, "fusion_lat": 0.0, "lat": 38.92054566666667, "type": "electric_scooter", "lon": -77.04190616666666, "bike_id": "6f22b58843c5a0fcc7b5e0ec2ae08876", "rental_uris": {"android": "https://dc.lft.to/lastmile_qr_scan", "ios": "https://dc.lft.to/lastmile_qr_scan"}, "name": "6f22b58843c5a0fcc7b5e0ec2ae08876", "is_reserved": 0}, {"is_disabled": 0, "fusion_lon": 0.0, "fusion_lat": 0.0, "lat": 38.90327283333333, "type": "electric_scooter", "lon": -77.05015533333334, "bike_id": "d52f14fd7202d715ec04d82a36f51432", "rental_uris": {"android": "https://dc.lft.to/lastmile_qr_scan", "ios": "https://dc.lft.to/lastmile_qr_scan"}, "name": "d52f14fd7202d715ec04d82a36f51432", "is_reserved": 0}, {"is_disabled": 0, "fusion_lon": 0.0, "fusion_lat": 0.0, "lat": 38.921555, "type": "electric_scooter", "lon": -77.03387816666667, "bike_id": "df1ceb2c09556807fc2779656a3c8f4d", "rental_uris": {"android": "https://dc.lft.to/lastmile_qr_scan", "ios": "https://dc.lft.to/lastmile_qr_scan"}, "name": "df1ceb2c09556807fc2779656a3c8f4d", "is_reserved": 0}, {"is_disabled": 0, "fusion_lon": 0.0, "fusion_lat": 0.0, "lat": 38.923199, "type": "electric_scooter", "lon": -77.04005916666667, "bike_id": "7e3a632dcba4ab365207e4cab0a30df0", "rental_uris": {"android": "https://dc.lft.to/lastmile_qr_scan", "ios": "https://dc.lft.to/lastmile_qr_scan"}, "name": "7e3a632dcba4ab365207e4cab0a30df0", "is_reserved": 0}, {"is_disabled": 0, "fusion_lon": 0.0, "fusion_lat": 0.0, "lat": 38.90045, "type": "electric_scooter", "lon": -77.04654833333333, "bike_id": "50a2a14a398aef949025c2c13fb905a5", "rental_uris": {"android": "https://dc.lft.to/lastmile_qr_scan", "ios": "https://dc.lft.to/lastmile_qr_scan"}, "name": "50a2a14a398aef949025c2c13fb905a5", "is_reserved": 0}, {"is_disabled": 0, "fusion_lon": 0.0, "fusion_lat": 0.0, "lat": 38.9095355, "type": "electric_scooter", "lon": -77.027418, "bike_id": "ce58d66c2824d88939fb0e9868f5224d", "rental_uris": {"android": "https://dc.lft.to/lastmile_qr_scan", "ios": "https://dc.lft.to/lastmile_qr_scan"}, "name": "ce58d66c2824d88939fb0e9868f5224d", "is_reserved": 0}, {"is_disabled": 0, "fusion_lon": 0.0, "fusion_lat": 0.0, "lat": 38.93079766666666, "type": "electric_scooter", "lon": -77.03627533333334, "bike_id": "271ce837853b6266f63dd7dc07833592", "rental_uris": {"android": "https://dc.lft.to/lastmile_qr_scan", "ios": "https://dc.lft.to/lastmile_qr_scan"}, "name": "271ce837853b6266f63dd7dc07833592", "is_reserved": 0}, {"is_disabled": 0, "fusion_lon": 0.0, "fusion_lat": 0.0, "lat": 38.89844083333333, "type": "electric_scooter", "lon": -77.03352033333333, "bike_id": "323cb31c6d9e514d4095c7f380c51b96", "rental_uris": {"android": "https://dc.lft.to/lastmile_qr_scan", "ios": "https://dc.lft.to/lastmile_qr_scan"}, "name": "323cb31c6d9e514d4095c7f380c51b96", "is_reserved": 0}, {"is_disabled": 0, "fusion_lon": 0.0, "fusion_lat": 0.0, "lat": 39.026845, "type": "electric_bike", "lon": -77.12596316666666, "bike_id": "832cba196b290f3ed4fafc4d509c1408", "rental_uris": {"android": "https://dc.lft.to/lastmile_qr_scan", "ios": "https://dc.lft.to/lastmile_qr_scan"}, "name": "832cba196b290f3ed4fafc4d509c1408", "is_reserved": 0}, {"is_disabled": 0, "fusion_lon": 0.0, "fusion_lat": 0.0, "lat": 38.909732166666664, "type": "electric_scooter", "lon": -77.0373055, "bike_id": "ffaa2545c3970ec3299cd1bcd702dfbe", "rental_uris": {"android": "https://dc.lft.to/lastmile_qr_scan", "ios": "https://dc.lft.to/lastmile_qr_scan"}, "name": "ffaa2545c3970ec3299cd1bcd702dfbe", "is_reserved": 0}, {"is_disabled": 0, "fusion_lon": 0.0, "fusion_lat": 0.0, "lat": 38.884686333333335, "type": "electric_scooter", "lon": -76.95226666666667, "bike_id": "bfdff0b3613e9e47a11d5f9c78b1754d", "rental_uris": {"android": "https://dc.lft.to/lastmile_qr_scan", "ios": "https://dc.lft.to/lastmile_qr_scan"}, "name": "bfdff0b3613e9e47a11d5f9c78b1754d", "is_reserved": 0}, {"is_disabled": 0, "fusion_lon": 0.0, "fusion_lat": 0.0, "lat": 38.901248, "type": "electric_scooter", "lon": -77.02006383333334, "bike_id": "a1f1f5990ed0c66055e735f7379bfd13", "rental_uris": {"android": "https://dc.lft.to/lastmile_qr_scan", "ios": "https://dc.lft.to/lastmile_qr_scan"}, "name": "a1f1f5990ed0c66055e735f7379bfd13", "is_reserved": 0}, {"is_disabled": 0, "fusion_lon": 0.0, "fusion_lat": 0.0, "lat": 38.926675, "type": "electric_scooter", "lon": -77.10309316666667, "bike_id": "b5671a13ad915289dc9dc63b992c3f09", "rental_uris": {"android": "https://dc.lft.to/lastmile_qr_scan", "ios": "https://dc.lft.to/lastmile_qr_scan"}, "name": "b5671a13ad915289dc9dc63b992c3f09", "is_reserved": 0}, {"is_disabled": 0, "fusion_lon": 0.0, "fusion_lat": 0.0, "lat": 38.91821183333333, "type": "electric_scooter", "lon": -77.0345865, "bike_id": "ce2e7fcd5232f8e587d299aa845b8fa8", "rental_uris": {"android": "https://dc.lft.to/lastmile_qr_scan", "ios": "https://dc.lft.to/lastmile_qr_scan"}, "name": "ce2e7fcd5232f8e587d299aa845b8fa8", "is_reserved": 0}, {"is_disabled": 0, "fusion_lon": 0.0, "fusion_lat": 0.0, "lat": 38.95613633333333, "type": "electric_scooter", "lon": -77.03577733333333, "bike_id": "6e62f4d59474a41f1ea8f14e53fe74ee", "rental_uris": {"android": "https://dc.lft.to/lastmile_qr_scan", "ios": "https://dc.lft.to/lastmile_qr_scan"}, "name": "6e62f4d59474a41f1ea8f14e53fe74ee", "is_reserved": 0}, {"is_disabled": 0, "fusion_lon": 0.0, "fusion_lat": 0.0, "lat": 38.919571, "type": "electric_scooter", "lon": -77.02709966666667, "bike_id": "86ea0ebb354ba0df39fff6e9aac3aa54", "rental_uris": {"android": "https://dc.lft.to/lastmile_qr_scan", "ios": "https://dc.lft.to/lastmile_qr_scan"}, "name": "86ea0ebb354ba0df39fff6e9aac3aa54", "is_reserved": 0}, {"is_disabled": 0, "fusion_lon": 0.0, "fusion_lat": 0.0, "lat": 38.910328166666666, "type": "electric_scooter", "lon": -76.993361, "bike_id": "a5dad78358b4ca3b201dc2585bf16679", "rental_uris": {"android": "https://dc.lft.to/lastmile_qr_scan", "ios": "https://dc.lft.to/lastmile_qr_scan"}, "name": "a5dad78358b4ca3b201dc2585bf16679", "is_reserved": 0}, {"is_disabled": 0, "fusion_lon": 0.0, "fusion_lat": 0.0, "lat": 38.91082266666667, "type": "electric_scooter", "lon": -77.01511183333334, "bike_id": "71d11eee025b7e58989f61b640b3ea63", "rental_uris": {"android": "https://dc.lft.to/lastmile_qr_scan", "ios": "https://dc.lft.to/lastmile_qr_scan"}, "name": "71d11eee025b7e58989f61b640b3ea63", "is_reserved": 0}, {"is_disabled": 0, "fusion_lon": 0.0, "fusion_lat": 0.0, "lat": 38.92232283333333, "type": "electric_scooter", "lon": -76.97529166666666, "bike_id": "fa0ff95a8cc1f465aabb01fa73f247bb", "rental_uris": {"android": "https://dc.lft.to/lastmile_qr_scan", "ios": "https://dc.lft.to/lastmile_qr_scan"}, "name": "fa0ff95a8cc1f465aabb01fa73f247bb", "is_reserved": 0}, {"is_disabled": 0, "fusion_lon": 0.0, "fusion_lat": 0.0, "lat": 38.91688633333333, "type": "electric_scooter", "lon": -77.03685283333333, "bike_id": "af56c9ff2ce249447367908523b5edd3", "rental_uris": {"android": "https://dc.lft.to/lastmile_qr_scan", "ios": "https://dc.lft.to/lastmile_qr_scan"}, "name": "af56c9ff2ce249447367908523b5edd3", "is_reserved": 0}, {"is_disabled": 0, "fusion_lon": 0.0, "fusion_lat": 0.0, "lat": 38.924852333333334, "type": "electric_scooter", "lon": -77.02698816666667, "bike_id": "9d51afab6b4750e4c6d928e8edb57a1d", "rental_uris": {"android": "https://dc.lft.to/lastmile_qr_scan", "ios": "https://dc.lft.to/lastmile_qr_scan"}, "name": "9d51afab6b4750e4c6d928e8edb57a1d", "is_reserved": 0}, {"is_disabled": 0, "fusion_lon": 0.0, "fusion_lat": 0.0, "lat": 38.8695715, "type": "electric_scooter", "lon": -76.9792455, "bike_id": "3772cd0c4b820cfed243d62e5ff4dc5c", "rental_uris": {"android": "https://dc.lft.to/lastmile_qr_scan", "ios": "https://dc.lft.to/lastmile_qr_scan"}, "name": "3772cd0c4b820cfed243d62e5ff4dc5c", "is_reserved": 0}, {"is_disabled": 0, "fusion_lon": 0.0, "fusion_lat": 0.0, "lat": 38.89770866666667, "type": "electric_scooter", "lon": -77.02190266666666, "bike_id": "d3465ae982bf8825a0d25199139da691", "rental_uris": {"android": "https://dc.lft.to/lastmile_qr_scan", "ios": "https://dc.lft.to/lastmile_qr_scan"}, "name": "d3465ae982bf8825a0d25199139da691", "is_reserved": 0}, {"is_disabled": 0, "fusion_lon": 0.0, "fusion_lat": 0.0, "lat": 38.928241166666666, "type": "electric_scooter", "lon": -77.02257066666667, "bike_id": "6d740d54b74ff13c0b95c86f6cf87550", "rental_uris": {"android": "https://dc.lft.to/lastmile_qr_scan", "ios": "https://dc.lft.to/lastmile_qr_scan"}, "name": "6d740d54b74ff13c0b95c86f6cf87550", "is_reserved": 0}, {"is_disabled": 0, "fusion_lon": 0.0, "fusion_lat": 0.0, "lat": 38.906614, "type": "electric_scooter", "lon": -77.02698383333333, "bike_id": "a96ca302df6e1c416cb4da3c84f1b7ee", "rental_uris": {"android": "https://dc.lft.to/lastmile_qr_scan", "ios": "https://dc.lft.to/lastmile_qr_scan"}, "name": "a96ca302df6e1c416cb4da3c84f1b7ee", "is_reserved": 0}, {"is_disabled": 0, "fusion_lon": 0.0, "fusion_lat": 0.0, "lat": 38.919152833333335, "type": "electric_scooter", "lon": -77.0302365, "bike_id": "425f3ac7a17edd02ac92a519fb2afe10", "rental_uris": {"android": "https://dc.lft.to/lastmile_qr_scan", "ios": "https://dc.lft.to/lastmile_qr_scan"}, "name": "425f3ac7a17edd02ac92a519fb2afe10", "is_reserved": 0}, {"is_disabled": 0, "fusion_lon": 0.0, "fusion_lat": 0.0, "lat": 38.910322, "type": "electric_scooter", "lon": -77.01374166666666, "bike_id": "b78952cf4ed51beddfa2e8a069dd8ee3", "rental_uris": {"android": "https://dc.lft.to/lastmile_qr_scan", "ios": "https://dc.lft.to/lastmile_qr_scan"}, "name": "b78952cf4ed51beddfa2e8a069dd8ee3", "is_reserved": 0}, {"is_disabled": 0, "fusion_lon": 0.0, "fusion_lat": 0.0, "lat": 38.922813833333336, "type": "electric_scooter", "lon": -77.023501, "bike_id": "8eef9ba759f4f9c42e92b600fa8b8369", "rental_uris": {"android": "https://dc.lft.to/lastmile_qr_scan", "ios": "https://dc.lft.to/lastmile_qr_scan"}, "name": "8eef9ba759f4f9c42e92b600fa8b8369", "is_reserved": 0}, {"is_disabled": 0, "fusion_lon": 0.0, "fusion_lat": 0.0, "lat": 38.909211166666665, "type": "electric_scooter", "lon": -77.032067, "bike_id": "0c7e08181a0d11ba1ae745067ceeb046", "rental_uris": {"android": "https://dc.lft.to/lastmile_qr_scan", "ios": "https://dc.lft.to/lastmile_qr_scan"}, "name": "0c7e08181a0d11ba1ae745067ceeb046", "is_reserved": 0}, {"is_disabled": 0, "fusion_lon": 0.0, "fusion_lat": 0.0, "lat": 38.9056945, "type": "electric_scooter", "lon": -77.0042675, "bike_id": "59b89977df968d98048317611e85288c", "rental_uris": {"android": "https://dc.lft.to/lastmile_qr_scan", "ios": "https://dc.lft.to/lastmile_qr_scan"}, "name": "59b89977df968d98048317611e85288c", "is_reserved": 0}, {"is_disabled": 0, "fusion_lon": 0.0, "fusion_lat": 0.0, "lat": 38.94979133333333, "type": "electric_scooter", "lon": -77.02703183333334, "bike_id": "f48118a800c70fe39284f499c21fd1b9", "rental_uris": {"android": "https://dc.lft.to/lastmile_qr_scan", "ios": "https://dc.lft.to/lastmile_qr_scan"}, "name": "f48118a800c70fe39284f499c21fd1b9", "is_reserved": 0}, {"is_disabled": 0, "fusion_lon": 0.0, "fusion_lat": 0.0, "lat": 38.90131433333333, "type": "electric_scooter", "lon": -77.01980016666667, "bike_id": "15df6b05a41d2fa525278bf65502487c", "rental_uris": {"android": "https://dc.lft.to/lastmile_qr_scan", "ios": "https://dc.lft.to/lastmile_qr_scan"}, "name": "15df6b05a41d2fa525278bf65502487c", "is_reserved": 0}, {"is_disabled": 0, "fusion_lon": 0.0, "fusion_lat": 0.0, "lat": 38.90516233333334, "type": "electric_scooter", "lon": -77.00210216666666, "bike_id": "a63ec9597d655637deced90096b4865b", "rental_uris": {"android": "https://dc.lft.to/lastmile_qr_scan", "ios": "https://dc.lft.to/lastmile_qr_scan"}, "name": "a63ec9597d655637deced90096b4865b", "is_reserved": 0}, {"is_disabled": 0, "fusion_lon": 0.0, "fusion_lat": 0.0, "lat": 38.918198333333336, "type": "electric_scooter", "lon": -77.03444566666667, "bike_id": "249a49d355a63da318b644b44d61b456", "rental_uris": {"android": "https://dc.lft.to/lastmile_qr_scan", "ios": "https://dc.lft.to/lastmile_qr_scan"}, "name": "249a49d355a63da318b644b44d61b456", "is_reserved": 0}, {"is_disabled": 0, "fusion_lon": 0.0, "fusion_lat": 0.0, "lat": 38.892152833333334, "type": "electric_scooter", "lon": -77.0225885, "bike_id": "76be19a5caf9529e61f8d926497a572e", "rental_uris": {"android": "https://dc.lft.to/lastmile_qr_scan", "ios": "https://dc.lft.to/lastmile_qr_scan"}, "name": "76be19a5caf9529e61f8d926497a572e", "is_reserved": 0}, {"is_disabled": 0, "fusion_lon": 0.0, "fusion_lat": 0.0, "lat": 38.889938666666666, "type": "electric_scooter", "lon": -77.01504233333333, "bike_id": "c14cb9f55ef2401c2297de34258001f7", "rental_uris": {"android": "https://dc.lft.to/lastmile_qr_scan", "ios": "https://dc.lft.to/lastmile_qr_scan"}, "name": "c14cb9f55ef2401c2297de34258001f7", "is_reserved": 0}, {"is_disabled": 0, "fusion_lon": 0.0, "fusion_lat": 0.0, "lat": 38.9236035, "type": "electric_scooter", "lon": -77.05026483333333, "bike_id": "2bdb5b6a49636979be07bc406aabc9e1", "rental_uris": {"android": "https://dc.lft.to/lastmile_qr_scan", "ios": "https://dc.lft.to/lastmile_qr_scan"}, "name": "2bdb5b6a49636979be07bc406aabc9e1", "is_reserved": 0}, {"is_disabled": 0, "fusion_lon": 0.0, "fusion_lat": 0.0, "lat": 38.923692833333334, "type": "electric_scooter", "lon": -77.02816366666667, "bike_id": "461bfa71cb5c20a68e6ed9a45aeb3e7d", "rental_uris": {"android": "https://dc.lft.to/lastmile_qr_scan", "ios": "https://dc.lft.to/lastmile_qr_scan"}, "name": "461bfa71cb5c20a68e6ed9a45aeb3e7d", "is_reserved": 0}, {"is_disabled": 0, "fusion_lon": 0.0, "fusion_lat": 0.0, "lat": 38.93491266666667, "type": "electric_scooter", "lon": -77.02601716666666, "bike_id": "12e7b89a2fd28635ed83222cf9b03f4c", "rental_uris": {"android": "https://dc.lft.to/lastmile_qr_scan", "ios": "https://dc.lft.to/lastmile_qr_scan"}, "name": "12e7b89a2fd28635ed83222cf9b03f4c", "is_reserved": 0}, {"is_disabled": 0, "fusion_lon": 0.0, "fusion_lat": 0.0, "lat": 38.928399166666665, "type": "electric_scooter", "lon": -77.01403766666667, "bike_id": "9d86d395a2a1330897bcc6c2154088f4", "rental_uris": {"android": "https://dc.lft.to/lastmile_qr_scan", "ios": "https://dc.lft.to/lastmile_qr_scan"}, "name": "9d86d395a2a1330897bcc6c2154088f4", "is_reserved": 0}, {"is_disabled": 0, "fusion_lon": 0.0, "fusion_lat": 0.0, "lat": 38.91912333333333, "type": "electric_scooter", "lon": -77.046068, "bike_id": "fd0b0af59138bc005944320625e69ff2", "rental_uris": {"android": "https://dc.lft.to/lastmile_qr_scan", "ios": "https://dc.lft.to/lastmile_qr_scan"}, "name": "fd0b0af59138bc005944320625e69ff2", "is_reserved": 0}, {"is_disabled": 0, "fusion_lon": 0.0, "fusion_lat": 0.0, "lat": 38.892444833333336, "type": "electric_scooter", "lon": -77.0200425, "bike_id": "be1e8197f3b843bb50db7855b31d9165", "rental_uris": {"android": "https://dc.lft.to/lastmile_qr_scan", "ios": "https://dc.lft.to/lastmile_qr_scan"}, "name": "be1e8197f3b843bb50db7855b31d9165", "is_reserved": 0}, {"is_disabled": 0, "fusion_lon": 0.0, "fusion_lat": 0.0, "lat": 38.985998, "type": "electric_bike", "lon": -77.03751733333333, "bike_id": "b47643aa80124c4073aee755f4edb661", "rental_uris": {"android": "https://dc.lft.to/lastmile_qr_scan", "ios": "https://dc.lft.to/lastmile_qr_scan"}, "name": "b47643aa80124c4073aee755f4edb661", "is_reserved": 0}, {"is_disabled": 0, "fusion_lon": 0.0, "fusion_lat": 0.0, "lat": 38.923123, "type": "electric_scooter", "lon": -77.04511916666667, "bike_id": "cc72307357616cf9eda0a93be4c77ac2", "rental_uris": {"android": "https://dc.lft.to/lastmile_qr_scan", "ios": "https://dc.lft.to/lastmile_qr_scan"}, "name": "cc72307357616cf9eda0a93be4c77ac2", "is_reserved": 0}, {"is_disabled": 0, "fusion_lon": 0.0, "fusion_lat": 0.0, "lat": 38.859191333333335, "type": "electric_scooter", "lon": -76.9878325, "bike_id": "c20daf8df92a0dca840203f9682b2ca0", "rental_uris": {"android": "https://dc.lft.to/lastmile_qr_scan", "ios": "https://dc.lft.to/lastmile_qr_scan"}, "name": "c20daf8df92a0dca840203f9682b2ca0", "is_reserved": 0}, {"is_disabled": 0, "fusion_lon": 0.0, "fusion_lat": 0.0, "lat": 38.93113066666667, "type": "electric_scooter", "lon": -77.0236105, "bike_id": "e8bc906f71cde9e2e142785130471edb", "rental_uris": {"android": "https://dc.lft.to/lastmile_qr_scan", "ios": "https://dc.lft.to/lastmile_qr_scan"}, "name": "e8bc906f71cde9e2e142785130471edb", "is_reserved": 0}, {"is_disabled": 0, "fusion_lon": 0.0, "fusion_lat": 0.0, "lat": 38.92721983333333, "type": "electric_scooter", "lon": -77.01602183333334, "bike_id": "1ec20d3d1a8ca2a429c7a70962b48f8c", "rental_uris": {"android": "https://dc.lft.to/lastmile_qr_scan", "ios": "https://dc.lft.to/lastmile_qr_scan"}, "name": "1ec20d3d1a8ca2a429c7a70962b48f8c", "is_reserved": 0}, {"is_disabled": 0, "fusion_lon": 0.0, "fusion_lat": 0.0, "lat": 38.92656066666667, "type": "electric_scooter", "lon": -77.02284583333334, "bike_id": "92d7f8b4a8fc7c2f5aca3d28344ff0e0", "rental_uris": {"android": "https://dc.lft.to/lastmile_qr_scan", "ios": "https://dc.lft.to/lastmile_qr_scan"}, "name": "92d7f8b4a8fc7c2f5aca3d28344ff0e0", "is_reserved": 0}, {"is_disabled": 0, "fusion_lon": 0.0, "fusion_lat": 0.0, "lat": 38.89988233333333, "type": "electric_scooter", "lon": -77.02105616666667, "bike_id": "06315cbcd9e3bfb3f2f88932f1782ae5", "rental_uris": {"android": "https://dc.lft.to/lastmile_qr_scan", "ios": "https://dc.lft.to/lastmile_qr_scan"}, "name": "06315cbcd9e3bfb3f2f88932f1782ae5", "is_reserved": 0}, {"is_disabled": 0, "fusion_lon": 0.0, "fusion_lat": 0.0, "lat": 38.875718166666665, "type": "electric_scooter", "lon": -77.0206945, "bike_id": "1ddd19776e0fd05c425d51791044c9c7", "rental_uris": {"android": "https://dc.lft.to/lastmile_qr_scan", "ios": "https://dc.lft.to/lastmile_qr_scan"}, "name": "1ddd19776e0fd05c425d51791044c9c7", "is_reserved": 0}, {"is_disabled": 0, "fusion_lon": 0.0, "fusion_lat": 0.0, "lat": 38.933528833333334, "type": "electric_scooter", "lon": -77.07382433333333, "bike_id": "86791ee34e70e0b60d8479a5ede0358b", "rental_uris": {"android": "https://dc.lft.to/lastmile_qr_scan", "ios": "https://dc.lft.to/lastmile_qr_scan"}, "name": "86791ee34e70e0b60d8479a5ede0358b", "is_reserved": 0}, {"is_disabled": 0, "fusion_lon": 0.0, "fusion_lat": 0.0, "lat": 38.875233333333334, "type": "electric_scooter", "lon": -77.01365833333334, "bike_id": "e1e5c3305fd21ffc6c061fd41781588f", "rental_uris": {"android": "https://dc.lft.to/lastmile_qr_scan", "ios": "https://dc.lft.to/lastmile_qr_scan"}, "name": "e1e5c3305fd21ffc6c061fd41781588f", "is_reserved": 0}, {"is_disabled": 0, "fusion_lon": 0.0, "fusion_lat": 0.0, "lat": 38.903627, "type": "electric_scooter", "lon": -77.011077, "bike_id": "a739fe954d7ca97d8a1bd193f9cdc93c", "rental_uris": {"android": "https://dc.lft.to/lastmile_qr_scan", "ios": "https://dc.lft.to/lastmile_qr_scan"}, "name": "a739fe954d7ca97d8a1bd193f9cdc93c", "is_reserved": 0}, {"is_disabled": 0, "fusion_lon": 0.0, "fusion_lat": 0.0, "lat": 38.99666083333334, "type": "electric_bike", "lon": -76.99137966666666, "bike_id": "fa2e800f3d9117082e9f0f268dd66303", "rental_uris": {"android": "https://dc.lft.to/lastmile_qr_scan", "ios": "https://dc.lft.to/lastmile_qr_scan"}, "name": "fa2e800f3d9117082e9f0f268dd66303", "is_reserved": 0}, {"is_disabled": 0, "fusion_lon": 0.0, "fusion_lat": 0.0, "lat": 38.896700833333334, "type": "electric_scooter", "lon": -77.04345366666666, "bike_id": "3d09750f60d80cb549c7199e2df353d9", "rental_uris": {"android": "https://dc.lft.to/lastmile_qr_scan", "ios": "https://dc.lft.to/lastmile_qr_scan"}, "name": "3d09750f60d80cb549c7199e2df353d9", "is_reserved": 0}, {"is_disabled": 0, "fusion_lon": 0.0, "fusion_lat": 0.0, "lat": 38.9446305, "type": "electric_scooter", "lon": -77.06030916666667, "bike_id": "cb55a2cc1d8b6b2d12112e7a8ab91e8b", "rental_uris": {"android": "https://dc.lft.to/lastmile_qr_scan", "ios": "https://dc.lft.to/lastmile_qr_scan"}, "name": "cb55a2cc1d8b6b2d12112e7a8ab91e8b", "is_reserved": 0}, {"is_disabled": 0, "fusion_lon": 0.0, "fusion_lat": 0.0, "lat": 38.9096945, "type": "electric_scooter", "lon": -77.03868583333333, "bike_id": "10043ad2c73edf00df8990f27f956eba", "rental_uris": {"android": "https://dc.lft.to/lastmile_qr_scan", "ios": "https://dc.lft.to/lastmile_qr_scan"}, "name": "10043ad2c73edf00df8990f27f956eba", "is_reserved": 0}, {"is_disabled": 0, "fusion_lon": 0.0, "fusion_lat": 0.0, "lat": 38.926226166666666, "type": "electric_scooter", "lon": -77.04190216666667, "bike_id": "33d10e5f550d244253fda393ffa9894a", "rental_uris": {"android": "https://dc.lft.to/lastmile_qr_scan", "ios": "https://dc.lft.to/lastmile_qr_scan"}, "name": "33d10e5f550d244253fda393ffa9894a", "is_reserved": 0}, {"is_disabled": 0, "fusion_lon": 0.0, "fusion_lat": 0.0, "lat": 38.903529166666665, "type": "electric_scooter", "lon": -77.0422085, "bike_id": "2ef5807701b474d9a31e6d58a5bec2f5", "rental_uris": {"android": "https://dc.lft.to/lastmile_qr_scan", "ios": "https://dc.lft.to/lastmile_qr_scan"}, "name": "2ef5807701b474d9a31e6d58a5bec2f5", "is_reserved": 0}, {"is_disabled": 0, "fusion_lon": 0.0, "fusion_lat": 0.0, "lat": 38.88413516666667, "type": "electric_scooter", "lon": -76.95409816666667, "bike_id": "0ff1bbd27cfb5fb65e99cea986a6e94f", "rental_uris": {"android": "https://dc.lft.to/lastmile_qr_scan", "ios": "https://dc.lft.to/lastmile_qr_scan"}, "name": "0ff1bbd27cfb5fb65e99cea986a6e94f", "is_reserved": 0}, {"is_disabled": 0, "fusion_lon": 0.0, "fusion_lat": 0.0, "lat": 38.91322183333333, "type": "electric_scooter", "lon": -77.03272216666667, "bike_id": "68651495517183573d1df25214cda40b", "rental_uris": {"android": "https://dc.lft.to/lastmile_qr_scan", "ios": "https://dc.lft.to/lastmile_qr_scan"}, "name": "68651495517183573d1df25214cda40b", "is_reserved": 0}, {"is_disabled": 0, "fusion_lon": 0.0, "fusion_lat": 0.0, "lat": 38.89204083333333, "type": "electric_scooter", "lon": -76.9880775, "bike_id": "e536a6a4ef6b8a260ea18ca15449d0c7", "rental_uris": {"android": "https://dc.lft.to/lastmile_qr_scan", "ios": "https://dc.lft.to/lastmile_qr_scan"}, "name": "e536a6a4ef6b8a260ea18ca15449d0c7", "is_reserved": 0}, {"is_disabled": 0, "fusion_lon": 0.0, "fusion_lat": 0.0, "lat": 38.923680166666664, "type": "electric_scooter", "lon": -77.02802266666667, "bike_id": "6c83075435cdba9188f4344962d384d0", "rental_uris": {"android": "https://dc.lft.to/lastmile_qr_scan", "ios": "https://dc.lft.to/lastmile_qr_scan"}, "name": "6c83075435cdba9188f4344962d384d0", "is_reserved": 0}, {"is_disabled": 0, "fusion_lon": 0.0, "fusion_lat": 0.0, "lat": 38.91477583333333, "type": "electric_scooter", "lon": -77.03469333333334, "bike_id": "e65e6238402ce886dd5dd71fdc5192e3", "rental_uris": {"android": "https://dc.lft.to/lastmile_qr_scan", "ios": "https://dc.lft.to/lastmile_qr_scan"}, "name": "e65e6238402ce886dd5dd71fdc5192e3", "is_reserved": 0}, {"is_disabled": 0, "fusion_lon": 0.0, "fusion_lat": 0.0, "lat": 38.91107183333333, "type": "electric_scooter", "lon": -77.066016, "bike_id": "5729184d061fc2bd50d500d5695201c6", "rental_uris": {"android": "https://dc.lft.to/lastmile_qr_scan", "ios": "https://dc.lft.to/lastmile_qr_scan"}, "name": "5729184d061fc2bd50d500d5695201c6", "is_reserved": 0}, {"is_disabled": 0, "fusion_lon": 0.0, "fusion_lat": 0.0, "lat": 38.911230833333335, "type": "electric_scooter", "lon": -77.041841, "bike_id": "7a8caa36cf90fffab0c624bbe9247778", "rental_uris": {"android": "https://dc.lft.to/lastmile_qr_scan", "ios": "https://dc.lft.to/lastmile_qr_scan"}, "name": "7a8caa36cf90fffab0c624bbe9247778", "is_reserved": 0}, {"is_disabled": 0, "fusion_lon": 0.0, "fusion_lat": 0.0, "lat": 39.08842333333333, "type": "electric_bike", "lon": -77.17803383333333, "bike_id": "98671b41808cf8cea03978094e87bdbf", "rental_uris": {"android": "https://dc.lft.to/lastmile_qr_scan", "ios": "https://dc.lft.to/lastmile_qr_scan"}, "name": "98671b41808cf8cea03978094e87bdbf", "is_reserved": 0}, {"is_disabled": 0, "fusion_lon": 0.0, "fusion_lat": 0.0, "lat": 38.912634, "type": "electric_scooter", "lon": -77.03361866666667, "bike_id": "ae7aae744aeb36300b03fe1b11f75089", "rental_uris": {"android": "https://dc.lft.to/lastmile_qr_scan", "ios": "https://dc.lft.to/lastmile_qr_scan"}, "name": "ae7aae744aeb36300b03fe1b11f75089", "is_reserved": 0}, {"is_disabled": 0, "fusion_lon": 0.0, "fusion_lat": 0.0, "lat": 38.8782315, "type": "electric_scooter", "lon": -76.96314583333333, "bike_id": "89d143394ac41c1b6eee68e02ff38606", "rental_uris": {"android": "https://dc.lft.to/lastmile_qr_scan", "ios": "https://dc.lft.to/lastmile_qr_scan"}, "name": "89d143394ac41c1b6eee68e02ff38606", "is_reserved": 0}, {"is_disabled": 0, "fusion_lon": 0.0, "fusion_lat": 0.0, "lat": 38.92055033333333, "type": "electric_scooter", "lon": -77.04190783333334, "bike_id": "68bd58c4ede15372a37dae8e32a182c0", "rental_uris": {"android": "https://dc.lft.to/lastmile_qr_scan", "ios": "https://dc.lft.to/lastmile_qr_scan"}, "name": "68bd58c4ede15372a37dae8e32a182c0", "is_reserved": 0}, {"is_disabled": 0, "fusion_lon": 0.0, "fusion_lat": 0.0, "lat": 38.87670216666667, "type": "electric_scooter", "lon": -76.93198083333333, "bike_id": "295ead6b8ac5152ab9c31785e53a8cb0", "rental_uris": {"android": "https://dc.lft.to/lastmile_qr_scan", "ios": "https://dc.lft.to/lastmile_qr_scan"}, "name": "295ead6b8ac5152ab9c31785e53a8cb0", "is_reserved": 0}, {"is_disabled": 0, "fusion_lon": 0.0, "fusion_lat": 0.0, "lat": 38.949963333333336, "type": "electric_bike", "lon": -77.35315233333333, "bike_id": "e8c4673901e2addbaf5e19148c2b2926", "rental_uris": {"android": "https://dc.lft.to/lastmile_qr_scan", "ios": "https://dc.lft.to/lastmile_qr_scan"}, "name": "e8c4673901e2addbaf5e19148c2b2926", "is_reserved": 0}, {"is_disabled": 0, "fusion_lon": 0.0, "fusion_lat": 0.0, "lat": 38.918157666666666, "type": "electric_scooter", "lon": -77.04173833333333, "bike_id": "a72156e3d664fb700e2afd92779644d5", "rental_uris": {"android": "https://dc.lft.to/lastmile_qr_scan", "ios": "https://dc.lft.to/lastmile_qr_scan"}, "name": "a72156e3d664fb700e2afd92779644d5", "is_reserved": 0}, {"is_disabled": 0, "fusion_lon": 0.0, "fusion_lat": 0.0, "lat": 38.89489483333333, "type": "electric_scooter", "lon": -77.02188483333333, "bike_id": "489a6e35972797e2bc8ec97d894b7a8e", "rental_uris": {"android": "https://dc.lft.to/lastmile_qr_scan", "ios": "https://dc.lft.to/lastmile_qr_scan"}, "name": "489a6e35972797e2bc8ec97d894b7a8e", "is_reserved": 0}, {"is_disabled": 0, "fusion_lon": 0.0, "fusion_lat": 0.0, "lat": 38.9208195, "type": "electric_scooter", "lon": -77.03488133333333, "bike_id": "f9cf1e418f9dd955750ce4fc18e05d85", "rental_uris": {"android": "https://dc.lft.to/lastmile_qr_scan", "ios": "https://dc.lft.to/lastmile_qr_scan"}, "name": "f9cf1e418f9dd955750ce4fc18e05d85", "is_reserved": 0}, {"is_disabled": 0, "fusion_lon": 0.0, "fusion_lat": 0.0, "lat": 38.91586783333333, "type": "electric_scooter", "lon": -77.02128366666666, "bike_id": "af501b8792a4b414f8f7bf88127f8ee4", "rental_uris": {"android": "https://dc.lft.to/lastmile_qr_scan", "ios": "https://dc.lft.to/lastmile_qr_scan"}, "name": "af501b8792a4b414f8f7bf88127f8ee4", "is_reserved": 0}, {"is_disabled": 0, "fusion_lon": 0.0, "fusion_lat": 0.0, "lat": 38.9051805, "type": "electric_scooter", "lon": -77.06330516666667, "bike_id": "df94f00e33e299fc80fe7d2986bf9b26", "rental_uris": {"android": "https://dc.lft.to/lastmile_qr_scan", "ios": "https://dc.lft.to/lastmile_qr_scan"}, "name": "df94f00e33e299fc80fe7d2986bf9b26", "is_reserved": 0}, {"is_disabled": 0, "fusion_lon": 0.0, "fusion_lat": 0.0, "lat": 38.900217833333336, "type": "electric_scooter", "lon": -77.039481, "bike_id": "4b51715ef68486b773193e99e7f65f19", "rental_uris": {"android": "https://dc.lft.to/lastmile_qr_scan", "ios": "https://dc.lft.to/lastmile_qr_scan"}, "name": "4b51715ef68486b773193e99e7f65f19", "is_reserved": 0}, {"is_disabled": 0, "fusion_lon": 0.0, "fusion_lat": 0.0, "lat": 38.924414166666665, "type": "electric_scooter", "lon": -77.0402865, "bike_id": "31076406b976f452d25614912da53113", "rental_uris": {"android": "https://dc.lft.to/lastmile_qr_scan", "ios": "https://dc.lft.to/lastmile_qr_scan"}, "name": "31076406b976f452d25614912da53113", "is_reserved": 0}, {"is_disabled": 0, "fusion_lon": 0.0, "fusion_lat": 0.0, "lat": 38.94474983333333, "type": "electric_bike", "lon": -77.0064695, "bike_id": "2ab2eecce42d6b88fc29fa3c3b7b5603", "rental_uris": {"android": "https://dc.lft.to/lastmile_qr_scan", "ios": "https://dc.lft.to/lastmile_qr_scan"}, "name": "2ab2eecce42d6b88fc29fa3c3b7b5603", "is_reserved": 0}, {"is_disabled": 0, "fusion_lon": 0.0, "fusion_lat": 0.0, "lat": 38.924667666666664, "type": "electric_scooter", "lon": -77.03809683333333, "bike_id": "ea9a1441999fb4914259d2156ac9354a", "rental_uris": {"android": "https://dc.lft.to/lastmile_qr_scan", "ios": "https://dc.lft.to/lastmile_qr_scan"}, "name": "ea9a1441999fb4914259d2156ac9354a", "is_reserved": 0}, {"is_disabled": 0, "fusion_lon": 0.0, "fusion_lat": 0.0, "lat": 38.94550383333333, "type": "electric_bike", "lon": -77.05123833333333, "bike_id": "093a56898ebd596aecd150f0a0981428", "rental_uris": {"android": "https://dc.lft.to/lastmile_qr_scan", "ios": "https://dc.lft.to/lastmile_qr_scan"}, "name": "093a56898ebd596aecd150f0a0981428", "is_reserved": 0}, {"is_disabled": 0, "fusion_lon": 0.0, "fusion_lat": 0.0, "lat": 38.886847833333334, "type": "electric_scooter", "lon": -76.9547585, "bike_id": "71f2b9fcd32c09db48c422bf047389df", "rental_uris": {"android": "https://dc.lft.to/lastmile_qr_scan", "ios": "https://dc.lft.to/lastmile_qr_scan"}, "name": "71f2b9fcd32c09db48c422bf047389df", "is_reserved": 0}, {"is_disabled": 0, "fusion_lon": 0.0, "fusion_lat": 0.0, "lat": 38.905370833333336, "type": "electric_scooter", "lon": -77.05019533333333, "bike_id": "8b46579a4e3f27d66febd2492e36b74e", "rental_uris": {"android": "https://dc.lft.to/lastmile_qr_scan", "ios": "https://dc.lft.to/lastmile_qr_scan"}, "name": "8b46579a4e3f27d66febd2492e36b74e", "is_reserved": 0}, {"is_disabled": 0, "fusion_lon": 0.0, "fusion_lat": 0.0, "lat": 38.911959333333336, "type": "electric_scooter", "lon": -77.03859266666667, "bike_id": "3bf932a1f76a14a7dbdb57bb937d533a", "rental_uris": {"android": "https://dc.lft.to/lastmile_qr_scan", "ios": "https://dc.lft.to/lastmile_qr_scan"}, "name": "3bf932a1f76a14a7dbdb57bb937d533a", "is_reserved": 0}, {"is_disabled": 0, "fusion_lon": 0.0, "fusion_lat": 0.0, "lat": 38.891877, "type": "electric_scooter", "lon": -76.98831733333333, "bike_id": "0f2e5634493e24c66756f3c23bb9a272", "rental_uris": {"android": "https://dc.lft.to/lastmile_qr_scan", "ios": "https://dc.lft.to/lastmile_qr_scan"}, "name": "0f2e5634493e24c66756f3c23bb9a272", "is_reserved": 0}, {"is_disabled": 0, "fusion_lon": 0.0, "fusion_lat": 0.0, "lat": 38.927445166666665, "type": "electric_bike", "lon": -77.03635333333334, "bike_id": "7ce57e5e5d80890cc67ded8d9b3008e7", "rental_uris": {"android": "https://dc.lft.to/lastmile_qr_scan", "ios": "https://dc.lft.to/lastmile_qr_scan"}, "name": "7ce57e5e5d80890cc67ded8d9b3008e7", "is_reserved": 0}, {"is_disabled": 0, "fusion_lon": 0.0, "fusion_lat": 0.0, "lat": 38.9019745, "type": "electric_scooter", "lon": -77.02370816666667, "bike_id": "bf51f7e1418627159201abc9d81b5c1d", "rental_uris": {"android": "https://dc.lft.to/lastmile_qr_scan", "ios": "https://dc.lft.to/lastmile_qr_scan"}, "name": "bf51f7e1418627159201abc9d81b5c1d", "is_reserved": 0}, {"is_disabled": 0, "fusion_lon": 0.0, "fusion_lat": 0.0, "lat": 38.905377333333334, "type": "electric_scooter", "lon": -77.0475385, "bike_id": "96f1780284ff77194268ce6321eb15ac", "rental_uris": {"android": "https://dc.lft.to/lastmile_qr_scan", "ios": "https://dc.lft.to/lastmile_qr_scan"}, "name": "96f1780284ff77194268ce6321eb15ac", "is_reserved": 0}, {"is_disabled": 0, "fusion_lon": 0.0, "fusion_lat": 0.0, "lat": 38.91336783333333, "type": "electric_scooter", "lon": -77.03254733333333, "bike_id": "25cb1fc67d5510a2d1dffd9d17492d4e", "rental_uris": {"android": "https://dc.lft.to/lastmile_qr_scan", "ios": "https://dc.lft.to/lastmile_qr_scan"}, "name": "25cb1fc67d5510a2d1dffd9d17492d4e", "is_reserved": 0}, {"is_disabled": 0, "fusion_lon": 0.0, "fusion_lat": 0.0, "lat": 38.934894166666666, "type": "electric_scooter", "lon": -77.02414516666667, "bike_id": "ca72de859aeedda69c3b39d6192f910d", "rental_uris": {"android": "https://dc.lft.to/lastmile_qr_scan", "ios": "https://dc.lft.to/lastmile_qr_scan"}, "name": "ca72de859aeedda69c3b39d6192f910d", "is_reserved": 0}, {"is_disabled": 0, "fusion_lon": 0.0, "fusion_lat": 0.0, "lat": 38.90950733333333, "type": "electric_scooter", "lon": -77.02183016666666, "bike_id": "744a325e6556385c629b63077451f318", "rental_uris": {"android": "https://dc.lft.to/lastmile_qr_scan", "ios": "https://dc.lft.to/lastmile_qr_scan"}, "name": "744a325e6556385c629b63077451f318", "is_reserved": 0}, {"is_disabled": 0, "fusion_lon": 0.0, "fusion_lat": 0.0, "lat": 38.900833, "type": "electric_scooter", "lon": -77.043516, "bike_id": "a630713ea190372f9427967248d7f6ee", "rental_uris": {"android": "https://dc.lft.to/lastmile_qr_scan", "ios": "https://dc.lft.to/lastmile_qr_scan"}, "name": "a630713ea190372f9427967248d7f6ee", "is_reserved": 0}, {"is_disabled": 0, "fusion_lon": 0.0, "fusion_lat": 0.0, "lat": 38.967323666666665, "type": "electric_scooter", "lon": -77.02760316666667, "bike_id": "1dd5c83ba584a8a0f801f44830e875fb", "rental_uris": {"android": "https://dc.lft.to/lastmile_qr_scan", "ios": "https://dc.lft.to/lastmile_qr_scan"}, "name": "1dd5c83ba584a8a0f801f44830e875fb", "is_reserved": 0}, {"is_disabled": 0, "fusion_lon": 0.0, "fusion_lat": 0.0, "lat": 38.8461935, "type": "electric_scooter", "lon": -76.99631516666666, "bike_id": "21679e64f9fcb07541bb0d5e3a5d6c3c", "rental_uris": {"android": "https://dc.lft.to/lastmile_qr_scan", "ios": "https://dc.lft.to/lastmile_qr_scan"}, "name": "21679e64f9fcb07541bb0d5e3a5d6c3c", "is_reserved": 0}, {"is_disabled": 0, "fusion_lon": 0.0, "fusion_lat": 0.0, "lat": 38.88377966666667, "type": "electric_scooter", "lon": -77.02522583333334, "bike_id": "8c746ff4c9ffb3e7541ec6b4ff23bce1", "rental_uris": {"android": "https://dc.lft.to/lastmile_qr_scan", "ios": "https://dc.lft.to/lastmile_qr_scan"}, "name": "8c746ff4c9ffb3e7541ec6b4ff23bce1", "is_reserved": 0}, {"is_disabled": 0, "fusion_lon": 0.0, "fusion_lat": 0.0, "lat": 38.92438766666667, "type": "electric_scooter", "lon": -77.0260595, "bike_id": "e534f1c6d9aab9add44f4db176d9603d", "rental_uris": {"android": "https://dc.lft.to/lastmile_qr_scan", "ios": "https://dc.lft.to/lastmile_qr_scan"}, "name": "e534f1c6d9aab9add44f4db176d9603d", "is_reserved": 0}, {"is_disabled": 0, "fusion_lon": 0.0, "fusion_lat": 0.0, "lat": 38.927710166666664, "type": "electric_scooter", "lon": -77.027811, "bike_id": "d71ed320be983170fc35fc2d1d6810cd", "rental_uris": {"android": "https://dc.lft.to/lastmile_qr_scan", "ios": "https://dc.lft.to/lastmile_qr_scan"}, "name": "d71ed320be983170fc35fc2d1d6810cd", "is_reserved": 0}, {"is_disabled": 0, "fusion_lon": 0.0, "fusion_lat": 0.0, "lat": 38.918155, "type": "electric_scooter", "lon": -77.03132616666667, "bike_id": "f56f9080e6aa5d1fc4de8705beb414a3", "rental_uris": {"android": "https://dc.lft.to/lastmile_qr_scan", "ios": "https://dc.lft.to/lastmile_qr_scan"}, "name": "f56f9080e6aa5d1fc4de8705beb414a3", "is_reserved": 0}, {"is_disabled": 0, "fusion_lon": 0.0, "fusion_lat": 0.0, "lat": 38.86241116666667, "type": "electric_scooter", "lon": -76.99486266666666, "bike_id": "78e908a20b0ac44d8cff8e6837fc4b3a", "rental_uris": {"android": "https://dc.lft.to/lastmile_qr_scan", "ios": "https://dc.lft.to/lastmile_qr_scan"}, "name": "78e908a20b0ac44d8cff8e6837fc4b3a", "is_reserved": 0}, {"is_disabled": 0, "fusion_lon": 0.0, "fusion_lat": 0.0, "lat": 38.92356266666667, "type": "electric_scooter", "lon": -77.05036883333334, "bike_id": "c633775410379421130fd4a5f645b49b", "rental_uris": {"android": "https://dc.lft.to/lastmile_qr_scan", "ios": "https://dc.lft.to/lastmile_qr_scan"}, "name": "c633775410379421130fd4a5f645b49b", "is_reserved": 0}, {"is_disabled": 0, "fusion_lon": 0.0, "fusion_lat": 0.0, "lat": 38.956042833333335, "type": "electric_scooter", "lon": -77.027792, "bike_id": "4882fe24e7cef2dde62840d6b2e0504d", "rental_uris": {"android": "https://dc.lft.to/lastmile_qr_scan", "ios": "https://dc.lft.to/lastmile_qr_scan"}, "name": "4882fe24e7cef2dde62840d6b2e0504d", "is_reserved": 0}, {"is_disabled": 0, "fusion_lon": 0.0, "fusion_lat": 0.0, "lat": 38.89266416666667, "type": "electric_scooter", "lon": -77.032068, "bike_id": "fdc20aa8b7f6ab1f4680d2fd33e6660a", "rental_uris": {"android": "https://dc.lft.to/lastmile_qr_scan", "ios": "https://dc.lft.to/lastmile_qr_scan"}, "name": "fdc20aa8b7f6ab1f4680d2fd33e6660a", "is_reserved": 0}, {"is_disabled": 0, "fusion_lon": 0.0, "fusion_lat": 0.0, "lat": 38.8857435, "type": "electric_scooter", "lon": -76.919085, "bike_id": "6f4ba6e0d5f0e021dc1353c13ca57613", "rental_uris": {"android": "https://dc.lft.to/lastmile_qr_scan", "ios": "https://dc.lft.to/lastmile_qr_scan"}, "name": "6f4ba6e0d5f0e021dc1353c13ca57613", "is_reserved": 0}, {"is_disabled": 0, "fusion_lon": 0.0, "fusion_lat": 0.0, "lat": 38.88249116666667, "type": "electric_bike", "lon": -77.000604, "bike_id": "fd5f6edafac9fbebabaeca3b5e50b110", "rental_uris": {"android": "https://dc.lft.to/lastmile_qr_scan", "ios": "https://dc.lft.to/lastmile_qr_scan"}, "name": "fd5f6edafac9fbebabaeca3b5e50b110", "is_reserved": 0}, {"is_disabled": 0, "fusion_lon": 0.0, "fusion_lat": 0.0, "lat": 38.904843166666666, "type": "electric_scooter", "lon": -77.02737433333333, "bike_id": "60a6f4b724d716dec48c007556959e95", "rental_uris": {"android": "https://dc.lft.to/lastmile_qr_scan", "ios": "https://dc.lft.to/lastmile_qr_scan"}, "name": "60a6f4b724d716dec48c007556959e95", "is_reserved": 0}, {"is_disabled": 0, "fusion_lon": 0.0, "fusion_lat": 0.0, "lat": 39.03880866666667, "type": "electric_bike", "lon": -77.1091155, "bike_id": "bf9aa6293d4ea8a25a98b9bdc58e8a5d", "rental_uris": {"android": "https://dc.lft.to/lastmile_qr_scan", "ios": "https://dc.lft.to/lastmile_qr_scan"}, "name": "bf9aa6293d4ea8a25a98b9bdc58e8a5d", "is_reserved": 0}, {"is_disabled": 0, "fusion_lon": 0.0, "fusion_lat": 0.0, "lat": 38.930619666666665, "type": "electric_scooter", "lon": -77.073498, "bike_id": "b7f9a2d90539bff49d591b68288dd5c8", "rental_uris": {"android": "https://dc.lft.to/lastmile_qr_scan", "ios": "https://dc.lft.to/lastmile_qr_scan"}, "name": "b7f9a2d90539bff49d591b68288dd5c8", "is_reserved": 0}, {"is_disabled": 0, "fusion_lon": 0.0, "fusion_lat": 0.0, "lat": 38.953233833333336, "type": "electric_scooter", "lon": -77.0685215, "bike_id": "70428b99f87ccde1059262a34096c87f", "rental_uris": {"android": "https://dc.lft.to/lastmile_qr_scan", "ios": "https://dc.lft.to/lastmile_qr_scan"}, "name": "70428b99f87ccde1059262a34096c87f", "is_reserved": 0}, {"is_disabled": 0, "fusion_lon": 0.0, "fusion_lat": 0.0, "lat": 38.92218666666667, "type": "electric_scooter", "lon": -77.04330716666666, "bike_id": "d596fca23f579eceb3cd88b1ff80fe1c", "rental_uris": {"android": "https://dc.lft.to/lastmile_qr_scan", "ios": "https://dc.lft.to/lastmile_qr_scan"}, "name": "d596fca23f579eceb3cd88b1ff80fe1c", "is_reserved": 0}, {"is_disabled": 0, "fusion_lon": 0.0, "fusion_lat": 0.0, "lat": 38.9164815, "type": "electric_scooter", "lon": -77.021812, "bike_id": "c9555135da918bdc72b9ce241238ebab", "rental_uris": {"android": "https://dc.lft.to/lastmile_qr_scan", "ios": "https://dc.lft.to/lastmile_qr_scan"}, "name": "c9555135da918bdc72b9ce241238ebab", "is_reserved": 0}, {"is_disabled": 0, "fusion_lon": 0.0, "fusion_lat": 0.0, "lat": 38.90967666666667, "type": "electric_scooter", "lon": -77.08076983333333, "bike_id": "87c3d046b9e4d1c29d0e0416dd585f9a", "rental_uris": {"android": "https://dc.lft.to/lastmile_qr_scan", "ios": "https://dc.lft.to/lastmile_qr_scan"}, "name": "87c3d046b9e4d1c29d0e0416dd585f9a", "is_reserved": 0}, {"is_disabled": 0, "fusion_lon": 0.0, "fusion_lat": 0.0, "lat": 38.931437333333335, "type": "electric_scooter", "lon": -77.03450466666666, "bike_id": "6816f5488323f06033c31c108b6038db", "rental_uris": {"android": "https://dc.lft.to/lastmile_qr_scan", "ios": "https://dc.lft.to/lastmile_qr_scan"}, "name": "6816f5488323f06033c31c108b6038db", "is_reserved": 0}, {"is_disabled": 0, "fusion_lon": 0.0, "fusion_lat": 0.0, "lat": 38.90407066666667, "type": "electric_scooter", "lon": -77.025675, "bike_id": "243409c4d072b70f04558c245a97d5e2", "rental_uris": {"android": "https://dc.lft.to/lastmile_qr_scan", "ios": "https://dc.lft.to/lastmile_qr_scan"}, "name": "243409c4d072b70f04558c245a97d5e2", "is_reserved": 0}, {"is_disabled": 0, "fusion_lon": 0.0, "fusion_lat": 0.0, "lat": 38.91709216666667, "type": "electric_scooter", "lon": -77.03214433333333, "bike_id": "63f58962c2494d59376c762e5f8c617a", "rental_uris": {"android": "https://dc.lft.to/lastmile_qr_scan", "ios": "https://dc.lft.to/lastmile_qr_scan"}, "name": "63f58962c2494d59376c762e5f8c617a", "is_reserved": 0}, {"is_disabled": 0, "fusion_lon": 0.0, "fusion_lat": 0.0, "lat": 38.9006465, "type": "electric_scooter", "lon": -77.01313283333333, "bike_id": "113d547bd4e9161adc3ebc1b2d0359ea", "rental_uris": {"android": "https://dc.lft.to/lastmile_qr_scan", "ios": "https://dc.lft.to/lastmile_qr_scan"}, "name": "113d547bd4e9161adc3ebc1b2d0359ea", "is_reserved": 0}, {"is_disabled": 0, "fusion_lon": 0.0, "fusion_lat": 0.0, "lat": 38.8982275, "type": "electric_scooter", "lon": -76.9465185, "bike_id": "928df65bbc83306c34ec13966da3e319", "rental_uris": {"android": "https://dc.lft.to/lastmile_qr_scan", "ios": "https://dc.lft.to/lastmile_qr_scan"}, "name": "928df65bbc83306c34ec13966da3e319", "is_reserved": 0}, {"is_disabled": 0, "fusion_lon": 0.0, "fusion_lat": 0.0, "lat": 38.882312666666664, "type": "electric_bike", "lon": -77.11278616666667, "bike_id": "db480bc34269530be2b37ce5d6919a46", "rental_uris": {"android": "https://dc.lft.to/lastmile_qr_scan", "ios": "https://dc.lft.to/lastmile_qr_scan"}, "name": "db480bc34269530be2b37ce5d6919a46", "is_reserved": 0}, {"is_disabled": 0, "fusion_lon": 0.0, "fusion_lat": 0.0, "lat": 38.910914, "type": "electric_scooter", "lon": -77.03855266666666, "bike_id": "dffa5ead20e6c80d83399e9164130a41", "rental_uris": {"android": "https://dc.lft.to/lastmile_qr_scan", "ios": "https://dc.lft.to/lastmile_qr_scan"}, "name": "dffa5ead20e6c80d83399e9164130a41", "is_reserved": 0}, {"is_disabled": 0, "fusion_lon": 0.0, "fusion_lat": 0.0, "lat": 38.8865185, "type": "electric_scooter", "lon": -77.02824333333334, "bike_id": "12791ebe6fa55ca7cedf9afb2f8db834", "rental_uris": {"android": "https://dc.lft.to/lastmile_qr_scan", "ios": "https://dc.lft.to/lastmile_qr_scan"}, "name": "12791ebe6fa55ca7cedf9afb2f8db834", "is_reserved": 0}, {"is_disabled": 0, "fusion_lon": 0.0, "fusion_lat": 0.0, "lat": 38.95308966666666, "type": "electric_scooter", "lon": -77.035989, "bike_id": "83f4f4dc65c4fac19400ae1e1f012ccb", "rental_uris": {"android": "https://dc.lft.to/lastmile_qr_scan", "ios": "https://dc.lft.to/lastmile_qr_scan"}, "name": "83f4f4dc65c4fac19400ae1e1f012ccb", "is_reserved": 0}, {"is_disabled": 0, "fusion_lon": 0.0, "fusion_lat": 0.0, "lat": 38.8765105, "type": "electric_scooter", "lon": -77.01570916666667, "bike_id": "d01e1466d5ad1b544fee689db4815533", "rental_uris": {"android": "https://dc.lft.to/lastmile_qr_scan", "ios": "https://dc.lft.to/lastmile_qr_scan"}, "name": "d01e1466d5ad1b544fee689db4815533", "is_reserved": 0}, {"is_disabled": 0, "fusion_lon": 0.0, "fusion_lat": 0.0, "lat": 38.908198, "type": "electric_scooter", "lon": -77.0416095, "bike_id": "886c4e2c62a523582da55252e063ab80", "rental_uris": {"android": "https://dc.lft.to/lastmile_qr_scan", "ios": "https://dc.lft.to/lastmile_qr_scan"}, "name": "886c4e2c62a523582da55252e063ab80", "is_reserved": 0}, {"is_disabled": 0, "fusion_lon": 0.0, "fusion_lat": 0.0, "lat": 38.92100533333333, "type": "electric_scooter", "lon": -77.030547, "bike_id": "8eb91c29edce0c51a96bae87fc8dface", "rental_uris": {"android": "https://dc.lft.to/lastmile_qr_scan", "ios": "https://dc.lft.to/lastmile_qr_scan"}, "name": "8eb91c29edce0c51a96bae87fc8dface", "is_reserved": 0}, {"is_disabled": 0, "fusion_lon": 0.0, "fusion_lat": 0.0, "lat": 38.92876033333334, "type": "electric_scooter", "lon": -77.04132516666667, "bike_id": "1271cb8b0846cfe5b858c21ecd4a6c74", "rental_uris": {"android": "https://dc.lft.to/lastmile_qr_scan", "ios": "https://dc.lft.to/lastmile_qr_scan"}, "name": "1271cb8b0846cfe5b858c21ecd4a6c74", "is_reserved": 0}, {"is_disabled": 0, "fusion_lon": 0.0, "fusion_lat": 0.0, "lat": 39.10564133333333, "type": "electric_bike", "lon": -77.15265483333333, "bike_id": "953eb728e60a14450d147e7be164dd7c", "rental_uris": {"android": "https://dc.lft.to/lastmile_qr_scan", "ios": "https://dc.lft.to/lastmile_qr_scan"}, "name": "953eb728e60a14450d147e7be164dd7c", "is_reserved": 0}, {"is_disabled": 0, "fusion_lon": 0.0, "fusion_lat": 0.0, "lat": 38.92119683333333, "type": "electric_bike", "lon": -77.01212916666667, "bike_id": "877bb890b804f2a431f7c850368fa2ba", "rental_uris": {"android": "https://dc.lft.to/lastmile_qr_scan", "ios": "https://dc.lft.to/lastmile_qr_scan"}, "name": "877bb890b804f2a431f7c850368fa2ba", "is_reserved": 0}, {"is_disabled": 0, "fusion_lon": 0.0, "fusion_lat": 0.0, "lat": 38.902703833333334, "type": "electric_scooter", "lon": -77.04245066666667, "bike_id": "63cadf76acb0f48bf2ada25d38962c91", "rental_uris": {"android": "https://dc.lft.to/lastmile_qr_scan", "ios": "https://dc.lft.to/lastmile_qr_scan"}, "name": "63cadf76acb0f48bf2ada25d38962c91", "is_reserved": 0}, {"is_disabled": 0, "fusion_lon": 0.0, "fusion_lat": 0.0, "lat": 38.93631716666667, "type": "electric_scooter", "lon": -77.03663616666667, "bike_id": "ffab023267fbdb56a8fe46ef0b49cfa2", "rental_uris": {"android": "https://dc.lft.to/lastmile_qr_scan", "ios": "https://dc.lft.to/lastmile_qr_scan"}, "name": "ffab023267fbdb56a8fe46ef0b49cfa2", "is_reserved": 0}, {"is_disabled": 0, "fusion_lon": 0.0, "fusion_lat": 0.0, "lat": 38.9210965, "type": "electric_scooter", "lon": -76.99429333333333, "bike_id": "3c2e42b3477ca929f78ed0c2a73a16bb", "rental_uris": {"android": "https://dc.lft.to/lastmile_qr_scan", "ios": "https://dc.lft.to/lastmile_qr_scan"}, "name": "3c2e42b3477ca929f78ed0c2a73a16bb", "is_reserved": 0}, {"is_disabled": 0, "fusion_lon": 0.0, "fusion_lat": 0.0, "lat": 38.9453675, "type": "electric_bike", "lon": -77.02704316666667, "bike_id": "76558561d63c4a654df667c7116b33d6", "rental_uris": {"android": "https://dc.lft.to/lastmile_qr_scan", "ios": "https://dc.lft.to/lastmile_qr_scan"}, "name": "76558561d63c4a654df667c7116b33d6", "is_reserved": 0}, {"is_disabled": 0, "fusion_lon": 0.0, "fusion_lat": 0.0, "lat": 38.91342183333333, "type": "electric_scooter", "lon": -77.03188, "bike_id": "dbc0013dd67ae438d9443adcc4570578", "rental_uris": {"android": "https://dc.lft.to/lastmile_qr_scan", "ios": "https://dc.lft.to/lastmile_qr_scan"}, "name": "dbc0013dd67ae438d9443adcc4570578", "is_reserved": 0}, {"is_disabled": 0, "fusion_lon": 0.0, "fusion_lat": 0.0, "lat": 38.91973566666667, "type": "electric_scooter", "lon": -77.00020433333333, "bike_id": "7134bd1196532e6c0318760d6a18cc48", "rental_uris": {"android": "https://dc.lft.to/lastmile_qr_scan", "ios": "https://dc.lft.to/lastmile_qr_scan"}, "name": "7134bd1196532e6c0318760d6a18cc48", "is_reserved": 0}, {"is_disabled": 0, "fusion_lon": 0.0, "fusion_lat": 0.0, "lat": 38.89367416666666, "type": "electric_scooter", "lon": -76.94994566666666, "bike_id": "69de30ca51e53e9df5b9653f384bfc0d", "rental_uris": {"android": "https://dc.lft.to/lastmile_qr_scan", "ios": "https://dc.lft.to/lastmile_qr_scan"}, "name": "69de30ca51e53e9df5b9653f384bfc0d", "is_reserved": 0}, {"is_disabled": 0, "fusion_lon": 0.0, "fusion_lat": 0.0, "lat": 38.92443683333333, "type": "electric_bike", "lon": -76.9683315, "bike_id": "69f343bc1d3d30387c60d4235614142a", "rental_uris": {"android": "https://dc.lft.to/lastmile_qr_scan", "ios": "https://dc.lft.to/lastmile_qr_scan"}, "name": "69f343bc1d3d30387c60d4235614142a", "is_reserved": 0}, {"is_disabled": 0, "fusion_lon": 0.0, "fusion_lat": 0.0, "lat": 38.89221916666666, "type": "electric_scooter", "lon": -77.04691966666667, "bike_id": "5fec971a8403b329e9d01ac6136429b5", "rental_uris": {"android": "https://dc.lft.to/lastmile_qr_scan", "ios": "https://dc.lft.to/lastmile_qr_scan"}, "name": "5fec971a8403b329e9d01ac6136429b5", "is_reserved": 0}, {"is_disabled": 0, "fusion_lon": 0.0, "fusion_lat": 0.0, "lat": 38.903449, "type": "electric_scooter", "lon": -77.0238525, "bike_id": "f0bbffb0822dea40e7e2dcb72582aec3", "rental_uris": {"android": "https://dc.lft.to/lastmile_qr_scan", "ios": "https://dc.lft.to/lastmile_qr_scan"}, "name": "f0bbffb0822dea40e7e2dcb72582aec3", "is_reserved": 0}, {"is_disabled": 0, "fusion_lon": 0.0, "fusion_lat": 0.0, "lat": 38.923309, "type": "electric_scooter", "lon": -77.04186283333334, "bike_id": "c23b47baffbe7eece1d7a825aee4326b", "rental_uris": {"android": "https://dc.lft.to/lastmile_qr_scan", "ios": "https://dc.lft.to/lastmile_qr_scan"}, "name": "c23b47baffbe7eece1d7a825aee4326b", "is_reserved": 0}, {"is_disabled": 0, "fusion_lon": 0.0, "fusion_lat": 0.0, "lat": 38.90058916666667, "type": "electric_scooter", "lon": -76.93379516666667, "bike_id": "90d9bf82b8255006a64cb4e0ec42c705", "rental_uris": {"android": "https://dc.lft.to/lastmile_qr_scan", "ios": "https://dc.lft.to/lastmile_qr_scan"}, "name": "90d9bf82b8255006a64cb4e0ec42c705", "is_reserved": 0}, {"is_disabled": 0, "fusion_lon": 0.0, "fusion_lat": 0.0, "lat": 38.93132633333333, "type": "electric_scooter", "lon": -77.05728233333333, "bike_id": "70887536b410fe5415783f499d23f748", "rental_uris": {"android": "https://dc.lft.to/lastmile_qr_scan", "ios": "https://dc.lft.to/lastmile_qr_scan"}, "name": "70887536b410fe5415783f499d23f748", "is_reserved": 0}, {"is_disabled": 0, "fusion_lon": 0.0, "fusion_lat": 0.0, "lat": 38.90365416666667, "type": "electric_scooter", "lon": -77.017517, "bike_id": "58f72dcb02f496fbb33656208ec79593", "rental_uris": {"android": "https://dc.lft.to/lastmile_qr_scan", "ios": "https://dc.lft.to/lastmile_qr_scan"}, "name": "58f72dcb02f496fbb33656208ec79593", "is_reserved": 0}, {"is_disabled": 0, "fusion_lon": 0.0, "fusion_lat": 0.0, "lat": 38.8789425, "type": "electric_scooter", "lon": -76.935222, "bike_id": "ec1e714f664c12ac9e7d9ec4ea17ca94", "rental_uris": {"android": "https://dc.lft.to/lastmile_qr_scan", "ios": "https://dc.lft.to/lastmile_qr_scan"}, "name": "ec1e714f664c12ac9e7d9ec4ea17ca94", "is_reserved": 0}, {"is_disabled": 0, "fusion_lon": 0.0, "fusion_lat": 0.0, "lat": 38.88592533333333, "type": "electric_scooter", "lon": -77.00582466666667, "bike_id": "3f02cf5ab6bd82fad70d6bbd6e4231e8", "rental_uris": {"android": "https://dc.lft.to/lastmile_qr_scan", "ios": "https://dc.lft.to/lastmile_qr_scan"}, "name": "3f02cf5ab6bd82fad70d6bbd6e4231e8", "is_reserved": 0}, {"is_disabled": 0, "fusion_lon": 0.0, "fusion_lat": 0.0, "lat": 38.92386666666667, "type": "electric_scooter", "lon": -77.04096633333333, "bike_id": "c93f0e5425ec8ff9d1e1b4dde88652e5", "rental_uris": {"android": "https://dc.lft.to/lastmile_qr_scan", "ios": "https://dc.lft.to/lastmile_qr_scan"}, "name": "c93f0e5425ec8ff9d1e1b4dde88652e5", "is_reserved": 0}, {"is_disabled": 0, "fusion_lon": 0.0, "fusion_lat": 0.0, "lat": 38.86886583333333, "type": "electric_scooter", "lon": -76.98310416666666, "bike_id": "450df4cf8de3b85c0172c62752ada766", "rental_uris": {"android": "https://dc.lft.to/lastmile_qr_scan", "ios": "https://dc.lft.to/lastmile_qr_scan"}, "name": "450df4cf8de3b85c0172c62752ada766", "is_reserved": 0}, {"is_disabled": 0, "fusion_lon": 0.0, "fusion_lat": 0.0, "lat": 38.85986366666667, "type": "electric_bike", "lon": -76.97050733333333, "bike_id": "80bb5bdb6a01dd253374deb3a23ec0b6", "rental_uris": {"android": "https://dc.lft.to/lastmile_qr_scan", "ios": "https://dc.lft.to/lastmile_qr_scan"}, "name": "80bb5bdb6a01dd253374deb3a23ec0b6", "is_reserved": 0}, {"is_disabled": 0, "fusion_lon": 0.0, "fusion_lat": 0.0, "lat": 38.91462933333333, "type": "electric_scooter", "lon": -77.0279795, "bike_id": "0fe56b9d100087764315aa848d217066", "rental_uris": {"android": "https://dc.lft.to/lastmile_qr_scan", "ios": "https://dc.lft.to/lastmile_qr_scan"}, "name": "0fe56b9d100087764315aa848d217066", "is_reserved": 0}, {"is_disabled": 0, "fusion_lon": 0.0, "fusion_lat": 0.0, "lat": 38.994538, "type": "electric_bike", "lon": -76.90815833333333, "bike_id": "fbe5e749c7c76146fb937b1f065a7917", "rental_uris": {"android": "https://dc.lft.to/lastmile_qr_scan", "ios": "https://dc.lft.to/lastmile_qr_scan"}, "name": "fbe5e749c7c76146fb937b1f065a7917", "is_reserved": 0}, {"is_disabled": 0, "fusion_lon": 0.0, "fusion_lat": 0.0, "lat": 38.880104833333334, "type": "electric_bike", "lon": -76.915939, "bike_id": "4b15135a9ee2a9dde0f1449c15dee59c", "rental_uris": {"android": "https://dc.lft.to/lastmile_qr_scan", "ios": "https://dc.lft.to/lastmile_qr_scan"}, "name": "4b15135a9ee2a9dde0f1449c15dee59c", "is_reserved": 0}, {"is_disabled": 0, "fusion_lon": 0.0, "fusion_lat": 0.0, "lat": 38.89233, "type": "electric_bike", "lon": -76.95223883333334, "bike_id": "f6b9d45623ce1d1338a2b2f115e0d5a4", "rental_uris": {"android": "https://dc.lft.to/lastmile_qr_scan", "ios": "https://dc.lft.to/lastmile_qr_scan"}, "name": "f6b9d45623ce1d1338a2b2f115e0d5a4", "is_reserved": 0}, {"is_disabled": 0, "fusion_lon": 0.0, "fusion_lat": 0.0, "lat": 38.97676516666667, "type": "electric_bike", "lon": -76.97167233333333, "bike_id": "71eea9f25d3fbc93035f304a268c8250", "rental_uris": {"android": "https://dc.lft.to/lastmile_qr_scan", "ios": "https://dc.lft.to/lastmile_qr_scan"}, "name": "71eea9f25d3fbc93035f304a268c8250", "is_reserved": 0}, {"is_disabled": 0, "fusion_lon": 0.0, "fusion_lat": 0.0, "lat": 38.9259215, "type": "electric_bike", "lon": -76.88903083333334, "bike_id": "c3b9e798de076bbacc38741044e59107", "rental_uris": {"android": "https://dc.lft.to/lastmile_qr_scan", "ios": "https://dc.lft.to/lastmile_qr_scan"}, "name": "c3b9e798de076bbacc38741044e59107", "is_reserved": 0}, {"is_disabled": 0, "fusion_lon": 0.0, "fusion_lat": 0.0, "lat": 38.91338316666667, "type": "electric_scooter", "lon": -77.0318125, "bike_id": "f48be3e874bd771c6f907140b0102443", "rental_uris": {"android": "https://dc.lft.to/lastmile_qr_scan", "ios": "https://dc.lft.to/lastmile_qr_scan"}, "name": "f48be3e874bd771c6f907140b0102443", "is_reserved": 0}, {"is_disabled": 0, "fusion_lon": 0.0, "fusion_lat": 0.0, "lat": 38.89610316666667, "type": "electric_scooter", "lon": -77.04757466666666, "bike_id": "cb625873e7cc137b82cd0ff6a9cd2aa2", "rental_uris": {"android": "https://dc.lft.to/lastmile_qr_scan", "ios": "https://dc.lft.to/lastmile_qr_scan"}, "name": "cb625873e7cc137b82cd0ff6a9cd2aa2", "is_reserved": 0}, {"is_disabled": 0, "fusion_lon": 0.0, "fusion_lat": 0.0, "lat": 38.9541235, "type": "electric_scooter", "lon": -77.028451, "bike_id": "8c1de3a46287aa8814204b19fa894185", "rental_uris": {"android": "https://dc.lft.to/lastmile_qr_scan", "ios": "https://dc.lft.to/lastmile_qr_scan"}, "name": "8c1de3a46287aa8814204b19fa894185", "is_reserved": 0}, {"is_disabled": 0, "fusion_lon": 0.0, "fusion_lat": 0.0, "lat": 38.9179735, "type": "electric_scooter", "lon": -77.04012033333333, "bike_id": "1d5618633001def2ec7cbdb3be2fc94b", "rental_uris": {"android": "https://dc.lft.to/lastmile_qr_scan", "ios": "https://dc.lft.to/lastmile_qr_scan"}, "name": "1d5618633001def2ec7cbdb3be2fc94b", "is_reserved": 0}, {"is_disabled": 0, "fusion_lon": 0.0, "fusion_lat": 0.0, "lat": 38.90666, "type": "electric_scooter", "lon": -77.0270165, "bike_id": "1437a69efdbec7136067efbd6eb2905a", "rental_uris": {"android": "https://dc.lft.to/lastmile_qr_scan", "ios": "https://dc.lft.to/lastmile_qr_scan"}, "name": "1437a69efdbec7136067efbd6eb2905a", "is_reserved": 0}, {"is_disabled": 0, "fusion_lon": 0.0, "fusion_lat": 0.0, "lat": 38.89500683333333, "type": "electric_scooter", "lon": -76.94879166666666, "bike_id": "75e6e95dda72566d8a5deb5f5e8b8d76", "rental_uris": {"android": "https://dc.lft.to/lastmile_qr_scan", "ios": "https://dc.lft.to/lastmile_qr_scan"}, "name": "75e6e95dda72566d8a5deb5f5e8b8d76", "is_reserved": 0}, {"is_disabled": 0, "fusion_lon": 0.0, "fusion_lat": 0.0, "lat": 38.84425316666667, "type": "electric_scooter", "lon": -76.99780783333334, "bike_id": "7f0c75f21fe327d64dc007a45dc538bd", "rental_uris": {"android": "https://dc.lft.to/lastmile_qr_scan", "ios": "https://dc.lft.to/lastmile_qr_scan"}, "name": "7f0c75f21fe327d64dc007a45dc538bd", "is_reserved": 0}, {"is_disabled": 0, "fusion_lon": 0.0, "fusion_lat": 0.0, "lat": 38.920731833333335, "type": "electric_scooter", "lon": -77.0419465, "bike_id": "00317aad1ae147240942d810563f8404", "rental_uris": {"android": "https://dc.lft.to/lastmile_qr_scan", "ios": "https://dc.lft.to/lastmile_qr_scan"}, "name": "00317aad1ae147240942d810563f8404", "is_reserved": 0}, {"is_disabled": 0, "fusion_lon": 0.0, "fusion_lat": 0.0, "lat": 38.94605083333333, "type": "electric_scooter", "lon": -77.03456416666667, "bike_id": "1445339de7d4dbe8d54232867ed2ecf9", "rental_uris": {"android": "https://dc.lft.to/lastmile_qr_scan", "ios": "https://dc.lft.to/lastmile_qr_scan"}, "name": "1445339de7d4dbe8d54232867ed2ecf9", "is_reserved": 0}, {"is_disabled": 0, "fusion_lon": 0.0, "fusion_lat": 0.0, "lat": 38.900283333333334, "type": "electric_scooter", "lon": -77.0118905, "bike_id": "4eae4f86b382eb28e87b135812d2fa3d", "rental_uris": {"android": "https://dc.lft.to/lastmile_qr_scan", "ios": "https://dc.lft.to/lastmile_qr_scan"}, "name": "4eae4f86b382eb28e87b135812d2fa3d", "is_reserved": 0}, {"is_disabled": 0, "fusion_lon": 0.0, "fusion_lat": 0.0, "lat": 38.91173583333333, "type": "electric_scooter", "lon": -77.0269205, "bike_id": "ff45a7327b4d77b0eabefc83784214aa", "rental_uris": {"android": "https://dc.lft.to/lastmile_qr_scan", "ios": "https://dc.lft.to/lastmile_qr_scan"}, "name": "ff45a7327b4d77b0eabefc83784214aa", "is_reserved": 0}, {"is_disabled": 0, "fusion_lon": 0.0, "fusion_lat": 0.0, "lat": 38.89355066666667, "type": "electric_scooter", "lon": -77.02181633333333, "bike_id": "03de8c5479cac65a8026367200f5eb5e", "rental_uris": {"android": "https://dc.lft.to/lastmile_qr_scan", "ios": "https://dc.lft.to/lastmile_qr_scan"}, "name": "03de8c5479cac65a8026367200f5eb5e", "is_reserved": 0}, {"is_disabled": 0, "fusion_lon": 0.0, "fusion_lat": 0.0, "lat": 38.91024633333333, "type": "electric_scooter", "lon": -77.03840966666667, "bike_id": "3bc7fcc1c0eb83c6291f16f45cb51311", "rental_uris": {"android": "https://dc.lft.to/lastmile_qr_scan", "ios": "https://dc.lft.to/lastmile_qr_scan"}, "name": "3bc7fcc1c0eb83c6291f16f45cb51311", "is_reserved": 0}, {"is_disabled": 0, "fusion_lon": 0.0, "fusion_lat": 0.0, "lat": 38.920545833333335, "type": "electric_scooter", "lon": -77.04188766666667, "bike_id": "c1310347ff597fb9ddbd4f03aff369fb", "rental_uris": {"android": "https://dc.lft.to/lastmile_qr_scan", "ios": "https://dc.lft.to/lastmile_qr_scan"}, "name": "c1310347ff597fb9ddbd4f03aff369fb", "is_reserved": 0}, {"is_disabled": 0, "fusion_lon": 0.0, "fusion_lat": 0.0, "lat": 38.897201333333335, "type": "electric_scooter", "lon": -77.03114166666667, "bike_id": "059cbc670e128132d192360b5baf39fe", "rental_uris": {"android": "https://dc.lft.to/lastmile_qr_scan", "ios": "https://dc.lft.to/lastmile_qr_scan"}, "name": "059cbc670e128132d192360b5baf39fe", "is_reserved": 0}, {"is_disabled": 0, "fusion_lon": 0.0, "fusion_lat": 0.0, "lat": 38.8393555, "type": "electric_bike", "lon": -77.07898633333333, "bike_id": "660d237f0fc8f64053d3d2f25b384881", "rental_uris": {"android": "https://dc.lft.to/lastmile_qr_scan", "ios": "https://dc.lft.to/lastmile_qr_scan"}, "name": "660d237f0fc8f64053d3d2f25b384881", "is_reserved": 0}, {"is_disabled": 0, "fusion_lon": 0.0, "fusion_lat": 0.0, "lat": 38.812698, "type": "electric_bike", "lon": -77.06170933333334, "bike_id": "5df7f75bbe596724f6048d7117ae9b0e", "rental_uris": {"android": "https://dc.lft.to/lastmile_qr_scan", "ios": "https://dc.lft.to/lastmile_qr_scan"}, "name": "5df7f75bbe596724f6048d7117ae9b0e", "is_reserved": 0}, {"is_disabled": 0, "fusion_lon": 0.0, "fusion_lat": 0.0, "lat": 38.905403666666665, "type": "electric_scooter", "lon": -77.045577, "bike_id": "6edce77255ecccaa069f3d943eea96bc", "rental_uris": {"android": "https://dc.lft.to/lastmile_qr_scan", "ios": "https://dc.lft.to/lastmile_qr_scan"}, "name": "6edce77255ecccaa069f3d943eea96bc", "is_reserved": 0}, {"is_disabled": 0, "fusion_lon": 0.0, "fusion_lat": 0.0, "lat": 38.917713, "type": "electric_scooter", "lon": -77.04754233333334, "bike_id": "a2a7887df86c4dd2cf01b506879b02d6", "rental_uris": {"android": "https://dc.lft.to/lastmile_qr_scan", "ios": "https://dc.lft.to/lastmile_qr_scan"}, "name": "a2a7887df86c4dd2cf01b506879b02d6", "is_reserved": 0}, {"is_disabled": 0, "fusion_lon": 0.0, "fusion_lat": 0.0, "lat": 38.89734116666666, "type": "electric_scooter", "lon": -77.0098935, "bike_id": "55a9e65ab9b92db5941b934065f8eaab", "rental_uris": {"android": "https://dc.lft.to/lastmile_qr_scan", "ios": "https://dc.lft.to/lastmile_qr_scan"}, "name": "55a9e65ab9b92db5941b934065f8eaab", "is_reserved": 0}, {"is_disabled": 0, "fusion_lon": 0.0, "fusion_lat": 0.0, "lat": 38.93276083333333, "type": "electric_scooter", "lon": -76.996925, "bike_id": "9f4752fdc5078f7cf085c883494ddff4", "rental_uris": {"android": "https://dc.lft.to/lastmile_qr_scan", "ios": "https://dc.lft.to/lastmile_qr_scan"}, "name": "9f4752fdc5078f7cf085c883494ddff4", "is_reserved": 0}, {"is_disabled": 0, "fusion_lon": 0.0, "fusion_lat": 0.0, "lat": 38.9346695, "type": "electric_scooter", "lon": -77.0687825, "bike_id": "8e6e35cee521219bd3534a9606dbc4fe", "rental_uris": {"android": "https://dc.lft.to/lastmile_qr_scan", "ios": "https://dc.lft.to/lastmile_qr_scan"}, "name": "8e6e35cee521219bd3534a9606dbc4fe", "is_reserved": 0}, {"is_disabled": 0, "fusion_lon": 0.0, "fusion_lat": 0.0, "lat": 38.916618666666665, "type": "electric_scooter", "lon": -77.029686, "bike_id": "aa13458ea46f1c726b53b27ddee6eb95", "rental_uris": {"android": "https://dc.lft.to/lastmile_qr_scan", "ios": "https://dc.lft.to/lastmile_qr_scan"}, "name": "aa13458ea46f1c726b53b27ddee6eb95", "is_reserved": 0}, {"is_disabled": 0, "fusion_lon": 0.0, "fusion_lat": 0.0, "lat": 38.972589666666664, "type": "electric_bike", "lon": -76.99166583333333, "bike_id": "d230242e502a9de28380c06ba19b6044", "rental_uris": {"android": "https://dc.lft.to/lastmile_qr_scan", "ios": "https://dc.lft.to/lastmile_qr_scan"}, "name": "d230242e502a9de28380c06ba19b6044", "is_reserved": 0}, {"is_disabled": 0, "fusion_lon": 0.0, "fusion_lat": 0.0, "lat": 38.92120366666666, "type": "electric_scooter", "lon": -77.0120745, "bike_id": "b89d10721a87033fd161ab63999c5388", "rental_uris": {"android": "https://dc.lft.to/lastmile_qr_scan", "ios": "https://dc.lft.to/lastmile_qr_scan"}, "name": "b89d10721a87033fd161ab63999c5388", "is_reserved": 0}, {"is_disabled": 0, "fusion_lon": 0.0, "fusion_lat": 0.0, "lat": 38.92746266666666, "type": "electric_scooter", "lon": -77.0759195, "bike_id": "15266ea8d979ae00338e27a7943577da", "rental_uris": {"android": "https://dc.lft.to/lastmile_qr_scan", "ios": "https://dc.lft.to/lastmile_qr_scan"}, "name": "15266ea8d979ae00338e27a7943577da", "is_reserved": 0}, {"is_disabled": 0, "fusion_lon": 0.0, "fusion_lat": 0.0, "lat": 38.88361233333333, "type": "electric_bike", "lon": -77.0305845, "bike_id": "00bb6e2a25af3ae8bab612f64a6856a0", "rental_uris": {"android": "https://dc.lft.to/lastmile_qr_scan", "ios": "https://dc.lft.to/lastmile_qr_scan"}, "name": "00bb6e2a25af3ae8bab612f64a6856a0", "is_reserved": 0}, {"is_disabled": 0, "fusion_lon": 0.0, "fusion_lat": 0.0, "lat": 38.84597, "type": "electric_bike", "lon": -76.96877, "bike_id": "6c94e8a26100deb61438de12bda5a8fc", "rental_uris": {"android": "https://dc.lft.to/lastmile_qr_scan", "ios": "https://dc.lft.to/lastmile_qr_scan"}, "name": "6c94e8a26100deb61438de12bda5a8fc", "is_reserved": 0}, {"is_disabled": 0, "fusion_lon": 0.0, "fusion_lat": 0.0, "lat": 38.935654, "type": "electric_scooter", "lon": -77.0820795, "bike_id": "b1946363fa5f72b019a362bd616a9108", "rental_uris": {"android": "https://dc.lft.to/lastmile_qr_scan", "ios": "https://dc.lft.to/lastmile_qr_scan"}, "name": "b1946363fa5f72b019a362bd616a9108", "is_reserved": 0}, {"is_disabled": 0, "fusion_lon": 0.0, "fusion_lat": 0.0, "lat": 38.959647, "type": "electric_scooter", "lon": -77.0211265, "bike_id": "922053309917100d1cf91762e513b8f9", "rental_uris": {"android": "https://dc.lft.to/lastmile_qr_scan", "ios": "https://dc.lft.to/lastmile_qr_scan"}, "name": "922053309917100d1cf91762e513b8f9", "is_reserved": 0}, {"is_disabled": 0, "fusion_lon": 0.0, "fusion_lat": 0.0, "lat": 38.956285666666666, "type": "electric_scooter", "lon": -77.02981966666667, "bike_id": "dd23e3f973b53b1c15aba672182feecd", "rental_uris": {"android": "https://dc.lft.to/lastmile_qr_scan", "ios": "https://dc.lft.to/lastmile_qr_scan"}, "name": "dd23e3f973b53b1c15aba672182feecd", "is_reserved": 0}, {"is_disabled": 0, "fusion_lon": 0.0, "fusion_lat": 0.0, "lat": 38.907653833333335, "type": "electric_scooter", "lon": -77.03584933333333, "bike_id": "5d84d486d0307c9182356c54f060cfdc", "rental_uris": {"android": "https://dc.lft.to/lastmile_qr_scan", "ios": "https://dc.lft.to/lastmile_qr_scan"}, "name": "5d84d486d0307c9182356c54f060cfdc", "is_reserved": 0}, {"is_disabled": 0, "fusion_lon": 0.0, "fusion_lat": 0.0, "lat": 38.91107866666667, "type": "electric_scooter", "lon": -77.0383245, "bike_id": "f7c5eb0ce201c8894fba2b5c0766db4a", "rental_uris": {"android": "https://dc.lft.to/lastmile_qr_scan", "ios": "https://dc.lft.to/lastmile_qr_scan"}, "name": "f7c5eb0ce201c8894fba2b5c0766db4a", "is_reserved": 0}, {"is_disabled": 0, "fusion_lon": 0.0, "fusion_lat": 0.0, "lat": 38.887383, "type": "electric_scooter", "lon": -77.01530366666667, "bike_id": "a134c5c4781f54c6dfefefc403911027", "rental_uris": {"android": "https://dc.lft.to/lastmile_qr_scan", "ios": "https://dc.lft.to/lastmile_qr_scan"}, "name": "a134c5c4781f54c6dfefefc403911027", "is_reserved": 0}, {"is_disabled": 0, "fusion_lon": 0.0, "fusion_lat": 0.0, "lat": 38.8990635, "type": "electric_scooter", "lon": -76.93394083333334, "bike_id": "19c271eb0424bd26be0eb1a1f6283859", "rental_uris": {"android": "https://dc.lft.to/lastmile_qr_scan", "ios": "https://dc.lft.to/lastmile_qr_scan"}, "name": "19c271eb0424bd26be0eb1a1f6283859", "is_reserved": 0}, {"is_disabled": 0, "fusion_lon": 0.0, "fusion_lat": 0.0, "lat": 38.895034833333334, "type": "electric_scooter", "lon": -77.0161085, "bike_id": "319296564ca4e34ed25fbb54e6bf8633", "rental_uris": {"android": "https://dc.lft.to/lastmile_qr_scan", "ios": "https://dc.lft.to/lastmile_qr_scan"}, "name": "319296564ca4e34ed25fbb54e6bf8633", "is_reserved": 0}, {"is_disabled": 0, "fusion_lon": 0.0, "fusion_lat": 0.0, "lat": 38.906664166666665, "type": "electric_scooter", "lon": -77.02709616666667, "bike_id": "4e97766eba277a3adb9c65f9bb15404f", "rental_uris": {"android": "https://dc.lft.to/lastmile_qr_scan", "ios": "https://dc.lft.to/lastmile_qr_scan"}, "name": "4e97766eba277a3adb9c65f9bb15404f", "is_reserved": 0}, {"is_disabled": 0, "fusion_lon": 0.0, "fusion_lat": 0.0, "lat": 38.91568133333333, "type": "electric_scooter", "lon": -77.04618733333334, "bike_id": "43bf4cfc53246eb7552741a367982d3b", "rental_uris": {"android": "https://dc.lft.to/lastmile_qr_scan", "ios": "https://dc.lft.to/lastmile_qr_scan"}, "name": "43bf4cfc53246eb7552741a367982d3b", "is_reserved": 0}, {"is_disabled": 0, "fusion_lon": 0.0, "fusion_lat": 0.0, "lat": 38.9130825, "type": "electric_scooter", "lon": -77.04161016666667, "bike_id": "8bc2a5dafe0ea1237dbedbc3e9268ff1", "rental_uris": {"android": "https://dc.lft.to/lastmile_qr_scan", "ios": "https://dc.lft.to/lastmile_qr_scan"}, "name": "8bc2a5dafe0ea1237dbedbc3e9268ff1", "is_reserved": 0}, {"is_disabled": 0, "fusion_lon": 0.0, "fusion_lat": 0.0, "lat": 38.90039483333334, "type": "electric_scooter", "lon": -77.00230783333333, "bike_id": "180976a0ca8324402329101c682f4833", "rental_uris": {"android": "https://dc.lft.to/lastmile_qr_scan", "ios": "https://dc.lft.to/lastmile_qr_scan"}, "name": "180976a0ca8324402329101c682f4833", "is_reserved": 0}, {"is_disabled": 0, "fusion_lon": 0.0, "fusion_lat": 0.0, "lat": 38.94196383333333, "type": "electric_scooter", "lon": -77.02410083333334, "bike_id": "e5ee1d294fd39167198ffc976ddd3ef9", "rental_uris": {"android": "https://dc.lft.to/lastmile_qr_scan", "ios": "https://dc.lft.to/lastmile_qr_scan"}, "name": "e5ee1d294fd39167198ffc976ddd3ef9", "is_reserved": 0}, {"is_disabled": 0, "fusion_lon": 0.0, "fusion_lat": 0.0, "lat": 38.87540283333333, "type": "electric_scooter", "lon": -77.00058783333333, "bike_id": "9092c34254b385ae0905bdfedaea2cdc", "rental_uris": {"android": "https://dc.lft.to/lastmile_qr_scan", "ios": "https://dc.lft.to/lastmile_qr_scan"}, "name": "9092c34254b385ae0905bdfedaea2cdc", "is_reserved": 0}, {"is_disabled": 0, "fusion_lon": 0.0, "fusion_lat": 0.0, "lat": 38.91025966666667, "type": "electric_scooter", "lon": -77.06471516666667, "bike_id": "827f326b0b58aef86f592df4ca8f847c", "rental_uris": {"android": "https://dc.lft.to/lastmile_qr_scan", "ios": "https://dc.lft.to/lastmile_qr_scan"}, "name": "827f326b0b58aef86f592df4ca8f847c", "is_reserved": 0}, {"is_disabled": 0, "fusion_lon": 0.0, "fusion_lat": 0.0, "lat": 38.935556, "type": "electric_scooter", "lon": -77.0345365, "bike_id": "7bcea8bcb0cce05041e3a9d798937517", "rental_uris": {"android": "https://dc.lft.to/lastmile_qr_scan", "ios": "https://dc.lft.to/lastmile_qr_scan"}, "name": "7bcea8bcb0cce05041e3a9d798937517", "is_reserved": 0}, {"is_disabled": 0, "fusion_lon": 0.0, "fusion_lat": 0.0, "lat": 38.91512383333333, "type": "electric_scooter", "lon": -77.01978516666667, "bike_id": "e11472c2be29435c1468821c03773bf1", "rental_uris": {"android": "https://dc.lft.to/lastmile_qr_scan", "ios": "https://dc.lft.to/lastmile_qr_scan"}, "name": "e11472c2be29435c1468821c03773bf1", "is_reserved": 0}, {"is_disabled": 0, "fusion_lon": 0.0, "fusion_lat": 0.0, "lat": 38.93119733333333, "type": "electric_scooter", "lon": -77.07839666666666, "bike_id": "a036776d2af3d6ce6ad95c84e5bc4de1", "rental_uris": {"android": "https://dc.lft.to/lastmile_qr_scan", "ios": "https://dc.lft.to/lastmile_qr_scan"}, "name": "a036776d2af3d6ce6ad95c84e5bc4de1", "is_reserved": 0}, {"is_disabled": 0, "fusion_lon": 0.0, "fusion_lat": 0.0, "lat": 38.94504666666667, "type": "electric_bike", "lon": -77.00667916666667, "bike_id": "9be7a5104ffef03672460ea1e3e3dc0f", "rental_uris": {"android": "https://dc.lft.to/lastmile_qr_scan", "ios": "https://dc.lft.to/lastmile_qr_scan"}, "name": "9be7a5104ffef03672460ea1e3e3dc0f", "is_reserved": 0}, {"is_disabled": 0, "fusion_lon": 0.0, "fusion_lat": 0.0, "lat": 38.90704916666667, "type": "electric_scooter", "lon": -77.023941, "bike_id": "574d699fba4647b6cc2b0cac91a66244", "rental_uris": {"android": "https://dc.lft.to/lastmile_qr_scan", "ios": "https://dc.lft.to/lastmile_qr_scan"}, "name": "574d699fba4647b6cc2b0cac91a66244", "is_reserved": 0}, {"is_disabled": 0, "fusion_lon": 0.0, "fusion_lat": 0.0, "lat": 38.930539333333336, "type": "electric_scooter", "lon": -77.04028833333334, "bike_id": "3532aabb09b14223eade776f8cbb01b7", "rental_uris": {"android": "https://dc.lft.to/lastmile_qr_scan", "ios": "https://dc.lft.to/lastmile_qr_scan"}, "name": "3532aabb09b14223eade776f8cbb01b7", "is_reserved": 0}, {"is_disabled": 0, "fusion_lon": 0.0, "fusion_lat": 0.0, "lat": 38.89994316666667, "type": "electric_scooter", "lon": -77.0331895, "bike_id": "14cfcc37e207ce0e972e68be31e5542e", "rental_uris": {"android": "https://dc.lft.to/lastmile_qr_scan", "ios": "https://dc.lft.to/lastmile_qr_scan"}, "name": "14cfcc37e207ce0e972e68be31e5542e", "is_reserved": 0}, {"is_disabled": 0, "fusion_lon": 0.0, "fusion_lat": 0.0, "lat": 38.91477666666667, "type": "electric_scooter", "lon": -77.03188683333333, "bike_id": "9a385907e821fe09836b02e0dad28647", "rental_uris": {"android": "https://dc.lft.to/lastmile_qr_scan", "ios": "https://dc.lft.to/lastmile_qr_scan"}, "name": "9a385907e821fe09836b02e0dad28647", "is_reserved": 0}, {"is_disabled": 0, "fusion_lon": 0.0, "fusion_lat": 0.0, "lat": 38.89749066666667, "type": "electric_scooter", "lon": -77.02191766666667, "bike_id": "efbd9360d7fcf4c31afb5d0bdb25964a", "rental_uris": {"android": "https://dc.lft.to/lastmile_qr_scan", "ios": "https://dc.lft.to/lastmile_qr_scan"}, "name": "efbd9360d7fcf4c31afb5d0bdb25964a", "is_reserved": 0}, {"is_disabled": 0, "fusion_lon": 0.0, "fusion_lat": 0.0, "lat": 38.90774783333333, "type": "electric_scooter", "lon": -77.03158033333334, "bike_id": "2b2c8718eac284ae1ace0ef327ff12e9", "rental_uris": {"android": "https://dc.lft.to/lastmile_qr_scan", "ios": "https://dc.lft.to/lastmile_qr_scan"}, "name": "2b2c8718eac284ae1ace0ef327ff12e9", "is_reserved": 0}, {"is_disabled": 0, "fusion_lon": 0.0, "fusion_lat": 0.0, "lat": 38.9031955, "type": "electric_scooter", "lon": -77.036539, "bike_id": "33b5486d3a81173209acdc163a9f9f49", "rental_uris": {"android": "https://dc.lft.to/lastmile_qr_scan", "ios": "https://dc.lft.to/lastmile_qr_scan"}, "name": "33b5486d3a81173209acdc163a9f9f49", "is_reserved": 0}, {"is_disabled": 0, "fusion_lon": 0.0, "fusion_lat": 0.0, "lat": 38.92653166666667, "type": "electric_scooter", "lon": -77.03724483333333, "bike_id": "d6ff52dc26f0b10fcd81b6ca639efc3c", "rental_uris": {"android": "https://dc.lft.to/lastmile_qr_scan", "ios": "https://dc.lft.to/lastmile_qr_scan"}, "name": "d6ff52dc26f0b10fcd81b6ca639efc3c", "is_reserved": 0}, {"is_disabled": 0, "fusion_lon": 0.0, "fusion_lat": 0.0, "lat": 38.906736333333335, "type": "electric_scooter", "lon": -77.02719766666667, "bike_id": "8f4adc039cdf0a3a8fadb02c7c362b64", "rental_uris": {"android": "https://dc.lft.to/lastmile_qr_scan", "ios": "https://dc.lft.to/lastmile_qr_scan"}, "name": "8f4adc039cdf0a3a8fadb02c7c362b64", "is_reserved": 0}, {"is_disabled": 0, "fusion_lon": 0.0, "fusion_lat": 0.0, "lat": 38.895890333333334, "type": "electric_scooter", "lon": -77.02327416666667, "bike_id": "11ff2a78eb3175ac54ef120a230c3ec7", "rental_uris": {"android": "https://dc.lft.to/lastmile_qr_scan", "ios": "https://dc.lft.to/lastmile_qr_scan"}, "name": "11ff2a78eb3175ac54ef120a230c3ec7", "is_reserved": 0}, {"is_disabled": 0, "fusion_lon": 0.0, "fusion_lat": 0.0, "lat": 38.9178835, "type": "electric_scooter", "lon": -77.02404316666667, "bike_id": "dbcc3db2189c5e3ae59ae7432bd25def", "rental_uris": {"android": "https://dc.lft.to/lastmile_qr_scan", "ios": "https://dc.lft.to/lastmile_qr_scan"}, "name": "dbcc3db2189c5e3ae59ae7432bd25def", "is_reserved": 0}, {"is_disabled": 0, "fusion_lon": 0.0, "fusion_lat": 0.0, "lat": 38.933019333333334, "type": "electric_scooter", "lon": -77.02142833333333, "bike_id": "85248dab3358791a021d80cb0527813d", "rental_uris": {"android": "https://dc.lft.to/lastmile_qr_scan", "ios": "https://dc.lft.to/lastmile_qr_scan"}, "name": "85248dab3358791a021d80cb0527813d", "is_reserved": 0}, {"is_disabled": 0, "fusion_lon": 0.0, "fusion_lat": 0.0, "lat": 38.907844, "type": "electric_scooter", "lon": -77.03200466666667, "bike_id": "f8d32a60d4f981a102c03f8ddd42e32a", "rental_uris": {"android": "https://dc.lft.to/lastmile_qr_scan", "ios": "https://dc.lft.to/lastmile_qr_scan"}, "name": "f8d32a60d4f981a102c03f8ddd42e32a", "is_reserved": 0}, {"is_disabled": 0, "fusion_lon": 0.0, "fusion_lat": 0.0, "lat": 38.8635445, "type": "electric_scooter", "lon": -76.99069383333334, "bike_id": "23c18e3f1c83e862f7f735cfce1888b5", "rental_uris": {"android": "https://dc.lft.to/lastmile_qr_scan", "ios": "https://dc.lft.to/lastmile_qr_scan"}, "name": "23c18e3f1c83e862f7f735cfce1888b5", "is_reserved": 0}, {"is_disabled": 0, "fusion_lon": 0.0, "fusion_lat": 0.0, "lat": 38.92857216666667, "type": "electric_scooter", "lon": -77.01391683333334, "bike_id": "a4b09d3fce11509851a65b53115f62ec", "rental_uris": {"android": "https://dc.lft.to/lastmile_qr_scan", "ios": "https://dc.lft.to/lastmile_qr_scan"}, "name": "a4b09d3fce11509851a65b53115f62ec", "is_reserved": 0}, {"is_disabled": 0, "fusion_lon": 0.0, "fusion_lat": 0.0, "lat": 38.99062516666667, "type": "electric_bike", "lon": -77.10029566666667, "bike_id": "10a434ed5a81f899c66f88ef3f4e3e4f", "rental_uris": {"android": "https://dc.lft.to/lastmile_qr_scan", "ios": "https://dc.lft.to/lastmile_qr_scan"}, "name": "10a434ed5a81f899c66f88ef3f4e3e4f", "is_reserved": 0}, {"is_disabled": 0, "fusion_lon": 0.0, "fusion_lat": 0.0, "lat": 38.96210716666667, "type": "electric_scooter", "lon": -77.02801216666667, "bike_id": "ee0b83da185be7679d538102e3cc4f3c", "rental_uris": {"android": "https://dc.lft.to/lastmile_qr_scan", "ios": "https://dc.lft.to/lastmile_qr_scan"}, "name": "ee0b83da185be7679d538102e3cc4f3c", "is_reserved": 0}, {"is_disabled": 0, "fusion_lon": 0.0, "fusion_lat": 0.0, "lat": 38.93777583333333, "type": "electric_scooter", "lon": -77.023103, "bike_id": "6518b5d648a860f0b7162d194ff4fdd2", "rental_uris": {"android": "https://dc.lft.to/lastmile_qr_scan", "ios": "https://dc.lft.to/lastmile_qr_scan"}, "name": "6518b5d648a860f0b7162d194ff4fdd2", "is_reserved": 0}, {"is_disabled": 0, "fusion_lon": 0.0, "fusion_lat": 0.0, "lat": 38.99088616666667, "type": "electric_bike", "lon": -76.8749495, "bike_id": "27d8dd24986aecc545197df7c30421fa", "rental_uris": {"android": "https://dc.lft.to/lastmile_qr_scan", "ios": "https://dc.lft.to/lastmile_qr_scan"}, "name": "27d8dd24986aecc545197df7c30421fa", "is_reserved": 0}, {"is_disabled": 0, "fusion_lon": 0.0, "fusion_lat": 0.0, "lat": 38.907227, "type": "electric_scooter", "lon": -77.040746, "bike_id": "6eb71c636da585b4b0d37d675e2ebfa9", "rental_uris": {"android": "https://dc.lft.to/lastmile_qr_scan", "ios": "https://dc.lft.to/lastmile_qr_scan"}, "name": "6eb71c636da585b4b0d37d675e2ebfa9", "is_reserved": 0}, {"is_disabled": 0, "fusion_lon": 0.0, "fusion_lat": 0.0, "lat": 38.874917333333336, "type": "electric_bike", "lon": -77.04899133333333, "bike_id": "bd03fd00225882639da4e93a439136df", "rental_uris": {"android": "https://dc.lft.to/lastmile_qr_scan", "ios": "https://dc.lft.to/lastmile_qr_scan"}, "name": "bd03fd00225882639da4e93a439136df", "is_reserved": 0}, {"is_disabled": 0, "fusion_lon": 0.0, "fusion_lat": 0.0, "lat": 38.926304333333334, "type": "electric_scooter", "lon": -77.03709333333333, "bike_id": "94cacd23473f63164ce5d75c1cf929c2", "rental_uris": {"android": "https://dc.lft.to/lastmile_qr_scan", "ios": "https://dc.lft.to/lastmile_qr_scan"}, "name": "94cacd23473f63164ce5d75c1cf929c2", "is_reserved": 0}, {"is_disabled": 0, "fusion_lon": 0.0, "fusion_lat": 0.0, "lat": 38.90551833333333, "type": "electric_scooter", "lon": -77.04171883333333, "bike_id": "4368fad583a68fa72f3903b5bdf75275", "rental_uris": {"android": "https://dc.lft.to/lastmile_qr_scan", "ios": "https://dc.lft.to/lastmile_qr_scan"}, "name": "4368fad583a68fa72f3903b5bdf75275", "is_reserved": 0}, {"is_disabled": 0, "fusion_lon": 0.0, "fusion_lat": 0.0, "lat": 38.90536, "type": "electric_scooter", "lon": -77.06514, "bike_id": "986ccd9a8a8c7274e4d2690d56d3bfc2", "rental_uris": {"android": "https://dc.lft.to/lastmile_qr_scan", "ios": "https://dc.lft.to/lastmile_qr_scan"}, "name": "986ccd9a8a8c7274e4d2690d56d3bfc2", "is_reserved": 0}, {"is_disabled": 0, "fusion_lon": 0.0, "fusion_lat": 0.0, "lat": 38.9350015, "type": "electric_bike", "lon": -76.9495535, "bike_id": "de87a042685023b848cad384c5d7ee44", "rental_uris": {"android": "https://dc.lft.to/lastmile_qr_scan", "ios": "https://dc.lft.to/lastmile_qr_scan"}, "name": "de87a042685023b848cad384c5d7ee44", "is_reserved": 0}, {"is_disabled": 0, "fusion_lon": 0.0, "fusion_lat": 0.0, "lat": 38.886277666666665, "type": "electric_scooter", "lon": -76.99851083333333, "bike_id": "649f23a2a244ce9c8a89f58ed904f29b", "rental_uris": {"android": "https://dc.lft.to/lastmile_qr_scan", "ios": "https://dc.lft.to/lastmile_qr_scan"}, "name": "649f23a2a244ce9c8a89f58ed904f29b", "is_reserved": 0}, {"is_disabled": 0, "fusion_lon": 0.0, "fusion_lat": 0.0, "lat": 38.838072833333335, "type": "electric_scooter", "lon": -77.00436083333334, "bike_id": "109b3e359b26acd03a0e1ac9d5901274", "rental_uris": {"android": "https://dc.lft.to/lastmile_qr_scan", "ios": "https://dc.lft.to/lastmile_qr_scan"}, "name": "109b3e359b26acd03a0e1ac9d5901274", "is_reserved": 0}, {"is_disabled": 0, "fusion_lon": 0.0, "fusion_lat": 0.0, "lat": 38.84289483333333, "type": "electric_scooter", "lon": -76.99950283333334, "bike_id": "7dfee1fb63db5c1e54b91ba3921c7549", "rental_uris": {"android": "https://dc.lft.to/lastmile_qr_scan", "ios": "https://dc.lft.to/lastmile_qr_scan"}, "name": "7dfee1fb63db5c1e54b91ba3921c7549", "is_reserved": 0}, {"is_disabled": 0, "fusion_lon": 0.0, "fusion_lat": 0.0, "lat": 38.921582, "type": "electric_scooter", "lon": -77.03382416666666, "bike_id": "17aa6b2d12a8a418324d4271b923b735", "rental_uris": {"android": "https://dc.lft.to/lastmile_qr_scan", "ios": "https://dc.lft.to/lastmile_qr_scan"}, "name": "17aa6b2d12a8a418324d4271b923b735", "is_reserved": 0}, {"is_disabled": 0, "fusion_lon": 0.0, "fusion_lat": 0.0, "lat": 38.90250966666667, "type": "electric_scooter", "lon": -77.05345766666667, "bike_id": "aef016d630dc87bc774bdf41e6b9e41f", "rental_uris": {"android": "https://dc.lft.to/lastmile_qr_scan", "ios": "https://dc.lft.to/lastmile_qr_scan"}, "name": "aef016d630dc87bc774bdf41e6b9e41f", "is_reserved": 0}, {"is_disabled": 0, "fusion_lon": 0.0, "fusion_lat": 0.0, "lat": 38.897482, "type": "electric_scooter", "lon": -77.02829483333333, "bike_id": "709787888a835bafaca4a26b9dd664b1", "rental_uris": {"android": "https://dc.lft.to/lastmile_qr_scan", "ios": "https://dc.lft.to/lastmile_qr_scan"}, "name": "709787888a835bafaca4a26b9dd664b1", "is_reserved": 0}, {"is_disabled": 0, "fusion_lon": 0.0, "fusion_lat": 0.0, "lat": 38.894596666666665, "type": "electric_scooter", "lon": -76.99490666666667, "bike_id": "7ef19bf4f58a6aa65ab2e28ec4494ee1", "rental_uris": {"android": "https://dc.lft.to/lastmile_qr_scan", "ios": "https://dc.lft.to/lastmile_qr_scan"}, "name": "7ef19bf4f58a6aa65ab2e28ec4494ee1", "is_reserved": 0}, {"is_disabled": 0, "fusion_lon": 0.0, "fusion_lat": 0.0, "lat": 38.90305566666667, "type": "electric_scooter", "lon": -77.022263, "bike_id": "65c8e16bfc6ee714182e77a8d5fe64a2", "rental_uris": {"android": "https://dc.lft.to/lastmile_qr_scan", "ios": "https://dc.lft.to/lastmile_qr_scan"}, "name": "65c8e16bfc6ee714182e77a8d5fe64a2", "is_reserved": 0}, {"is_disabled": 0, "fusion_lon": 0.0, "fusion_lat": 0.0, "lat": 39.099428333333336, "type": "electric_bike", "lon": -77.1878865, "bike_id": "a76211f2533f661ece385210dab3006d", "rental_uris": {"android": "https://dc.lft.to/lastmile_qr_scan", "ios": "https://dc.lft.to/lastmile_qr_scan"}, "name": "a76211f2533f661ece385210dab3006d", "is_reserved": 0}, {"is_disabled": 0, "fusion_lon": 0.0, "fusion_lat": 0.0, "lat": 38.9071345, "type": "electric_scooter", "lon": -77.02970783333333, "bike_id": "0c4759de045305f249fbbd57649d9cc9", "rental_uris": {"android": "https://dc.lft.to/lastmile_qr_scan", "ios": "https://dc.lft.to/lastmile_qr_scan"}, "name": "0c4759de045305f249fbbd57649d9cc9", "is_reserved": 0}, {"is_disabled": 0, "fusion_lon": 0.0, "fusion_lat": 0.0, "lat": 38.884873166666665, "type": "electric_scooter", "lon": -76.9296805, "bike_id": "62dddf7256eca36eea8bdbd3b4684069", "rental_uris": {"android": "https://dc.lft.to/lastmile_qr_scan", "ios": "https://dc.lft.to/lastmile_qr_scan"}, "name": "62dddf7256eca36eea8bdbd3b4684069", "is_reserved": 0}, {"is_disabled": 0, "fusion_lon": 0.0, "fusion_lat": 0.0, "lat": 38.9215675, "type": "electric_scooter", "lon": -77.034014, "bike_id": "a476cea5db8cef3513e8b5387a0cffec", "rental_uris": {"android": "https://dc.lft.to/lastmile_qr_scan", "ios": "https://dc.lft.to/lastmile_qr_scan"}, "name": "a476cea5db8cef3513e8b5387a0cffec", "is_reserved": 0}, {"is_disabled": 0, "fusion_lon": 0.0, "fusion_lat": 0.0, "lat": 38.907742166666665, "type": "electric_scooter", "lon": -77.03173416666667, "bike_id": "1a96779c18fc46aaf8d38acc41253938", "rental_uris": {"android": "https://dc.lft.to/lastmile_qr_scan", "ios": "https://dc.lft.to/lastmile_qr_scan"}, "name": "1a96779c18fc46aaf8d38acc41253938", "is_reserved": 0}, {"is_disabled": 0, "fusion_lon": 0.0, "fusion_lat": 0.0, "lat": 38.91815783333333, "type": "electric_scooter", "lon": -77.04175433333333, "bike_id": "3e5319806d988612f079be11043f0838", "rental_uris": {"android": "https://dc.lft.to/lastmile_qr_scan", "ios": "https://dc.lft.to/lastmile_qr_scan"}, "name": "3e5319806d988612f079be11043f0838", "is_reserved": 0}, {"is_disabled": 0, "fusion_lon": 0.0, "fusion_lat": 0.0, "lat": 38.90272783333333, "type": "electric_scooter", "lon": -77.0532875, "bike_id": "f6b97702b82212bd0e1072ff91825950", "rental_uris": {"android": "https://dc.lft.to/lastmile_qr_scan", "ios": "https://dc.lft.to/lastmile_qr_scan"}, "name": "f6b97702b82212bd0e1072ff91825950", "is_reserved": 0}, {"is_disabled": 0, "fusion_lon": 0.0, "fusion_lat": 0.0, "lat": 38.895597333333335, "type": "electric_scooter", "lon": -77.02169033333334, "bike_id": "4eb7f5c2e849aa02f0f83d05b4784ac2", "rental_uris": {"android": "https://dc.lft.to/lastmile_qr_scan", "ios": "https://dc.lft.to/lastmile_qr_scan"}, "name": "4eb7f5c2e849aa02f0f83d05b4784ac2", "is_reserved": 0}, {"is_disabled": 0, "fusion_lon": 0.0, "fusion_lat": 0.0, "lat": 38.91125983333333, "type": "electric_scooter", "lon": -77.05936333333334, "bike_id": "cb7e03b84d214e00397b60277be5edfb", "rental_uris": {"android": "https://dc.lft.to/lastmile_qr_scan", "ios": "https://dc.lft.to/lastmile_qr_scan"}, "name": "cb7e03b84d214e00397b60277be5edfb", "is_reserved": 0}, {"is_disabled": 0, "fusion_lon": 0.0, "fusion_lat": 0.0, "lat": 38.8926965, "type": "electric_scooter", "lon": -77.03208683333334, "bike_id": "7f4ab11903137dfc55f140adac2456de", "rental_uris": {"android": "https://dc.lft.to/lastmile_qr_scan", "ios": "https://dc.lft.to/lastmile_qr_scan"}, "name": "7f4ab11903137dfc55f140adac2456de", "is_reserved": 0}, {"is_disabled": 0, "fusion_lon": 0.0, "fusion_lat": 0.0, "lat": 38.89662916666666, "type": "electric_scooter", "lon": -77.01201133333333, "bike_id": "e08d0ea6b995d477f0f19dfe596d8116", "rental_uris": {"android": "https://dc.lft.to/lastmile_qr_scan", "ios": "https://dc.lft.to/lastmile_qr_scan"}, "name": "e08d0ea6b995d477f0f19dfe596d8116", "is_reserved": 0},