{"data": {"bikes": [{"is_disabled": 0, "is_reserved": 0, "type": "electric_scooter", "lon": -77.0724655, "fusion_lon": 0.0, "lat": 38.939498666666665, "rental_uris": {"android": "https://dc.lft.to/lastmile_qr_scan", "ios": "https://dc.lft.to/lastmile_qr_scan"}, "fusion_lat": 0.0, "name": "ce3ba2890d979ad5580655dde630eac1", "bike_id": "ce3ba2890d979ad5580655dde630eac1"}, {"is_disabled": 0, "is_reserved": 0, "type": "electric_bike", "lon": -77.07897916666667, "fusion_lon": 0.0, "lat": 38.839411166666665, "rental_uris": {"android": "https://dc.lft.to/lastmile_qr_scan", "ios": "https://dc.lft.to/lastmile_qr_scan"}, "fusion_lat": 0.0, "name": "af981746a91212bb40a7efee52e7c92a", "bike_id": "af981746a91212bb40a7efee52e7c92a"}, {"is_disabled": 0, "is_reserved": 0, "type": "electric_scooter", "lon": -77.029336, "fusion_lon": 0.0, "lat": 38.89803933333334, "rental_uris": {"android": "https://dc.lft.to/lastmile_qr_scan", "ios": "https://dc.lft.to/lastmile_qr_scan"}, "fusion_lat": 0.0, "name": "342bd1b1738841302b1439d44902183e", "bike_id": "342bd1b1738841302b1439d44902183e"}, {"is_disabled": 0, "is_reserved": 0, "type": "electric_scooter", "lon": -77.00712983333334, "fusion_lon": 0.0, "lat": 38.905548, "rental_uris": {"android": "https://dc.lft.to/lastmile_qr_scan", "ios": "https://dc.lft.to/lastmile_qr_scan"}, "fusion_lat": 0.0, "name": "3326052e5567e3de337ba6ab38e17a67", "bike_id": "3326052e5567e3de337ba6ab38e17a67"}, {"is_disabled": 0, "is_reserved": 0, "type": "electric_bike", "lon": -77.06172966666666, "fusion_lon": 0.0, "lat": 38.81272166666667, "rental_uris": {"android": "https://dc.lft.to/lastmile_qr_scan", "ios": "https://dc.lft.to/lastmile_qr_scan"}, "fusion_lat": 0.0, "name": "5a3fedc15fb77c557f46bce01eee8dec", "bike_id": "5a3fedc15fb77c557f46bce01eee8dec"}, {"is_disabled": 0, "is_reserved": 0, "type": "electric_scooter", "lon": -77.060981, "fusion_lon": 0.0, "lat": 38.91289583333333, "rental_uris": {"android": "https://dc.lft.to/lastmile_qr_scan", "ios": "https://dc.lft.to/lastmile_qr_scan"}, "fusion_lat": 0.0, "name": "77588634b300830df2f14da36f2e5dc4", "bike_id": "77588634b300830df2f14da36f2e5dc4"}, {"is_disabled": 0, "is_reserved": 0, "type": "electric_scooter", "lon": -77.02388933333333, "fusion_lon": 0.0, "lat": 38.91687, "rental_uris": {"android": "https://dc.lft.to/lastmile_qr_scan", "ios": "https://dc.lft.to/lastmile_qr_scan"}, "fusion_lat": 0.0, "name": "d5cd6258f6c3ee22c37ba42c2ebac16b", "bike_id": "d5cd6258f6c3ee22c37ba42c2ebac16b"}, {"is_disabled": 0, "is_reserved": 0, "type": "electric_scooter", "lon": -77.0339495, "fusion_lon": 0.0, "lat": 38.919689, "rental_uris": {"android": "https://dc.lft.to/lastmile_qr_scan", "ios": "https://dc.lft.to/lastmile_qr_scan"}, "fusion_lat": 0.0, "name": "3775dbc24809cf31ead8339cecef0c1c", "bike_id": "3775dbc24809cf31ead8339cecef0c1c"}, {"is_disabled": 0, "is_reserved": 0, "type": "electric_bike", "lon": -76.9447515, "fusion_lon": 0.0, "lat": 38.945618, "rental_uris": {"android": "https://dc.lft.to/lastmile_qr_scan", "ios": "https://dc.lft.to/lastmile_qr_scan"}, "fusion_lat": 0.0, "name": "fbb2e6693fd7ce0270071b33a9e2a831", "bike_id": "fbb2e6693fd7ce0270071b33a9e2a831"}, {"is_disabled": 0, "is_reserved": 0, "type": "electric_scooter", "lon": -77.01009466666666, "fusion_lon": 0.0, "lat": 38.87966183333333, "rental_uris": {"android": "https://dc.lft.to/lastmile_qr_scan", "ios": "https://dc.lft.to/lastmile_qr_scan"}, "fusion_lat": 0.0, "name": "82e96ba503d2b8a2ff6ca8d5d7bd1ad6", "bike_id": "82e96ba503d2b8a2ff6ca8d5d7bd1ad6"}, {"is_disabled": 0, "is_reserved": 0, "type": "electric_scooter", "lon": -77.05727533333334, "fusion_lon": 0.0, "lat": 38.933676, "rental_uris": {"android": "https://dc.lft.to/lastmile_qr_scan", "ios": "https://dc.lft.to/lastmile_qr_scan"}, "fusion_lat": 0.0, "name": "a4485f36533e0e2ed1115d16b024fcc1", "bike_id": "a4485f36533e0e2ed1115d16b024fcc1"}, {"is_disabled": 0, "is_reserved": 0, "type": "electric_bike", "lon": -77.03425833333333, "fusion_lon": 0.0, "lat": 38.9284905, "rental_uris": {"android": "https://dc.lft.to/lastmile_qr_scan", "ios": "https://dc.lft.to/lastmile_qr_scan"}, "fusion_lat": 0.0, "name": "0fca903c2762fb891447104dbc7dcf0c", "bike_id": "0fca903c2762fb891447104dbc7dcf0c"}, {"is_disabled": 0, "is_reserved": 0, "type": "electric_scooter", "lon": -77.03952016666666, "fusion_lon": 0.0, "lat": 38.924559333333335, "rental_uris": {"android": "https://dc.lft.to/lastmile_qr_scan", "ios": "https://dc.lft.to/lastmile_qr_scan"}, "fusion_lat": 0.0, "name": "81cd81f83d98faea1477e1cbc4b09765", "bike_id": "81cd81f83d98faea1477e1cbc4b09765"}, {"is_disabled": 0, "is_reserved": 0, "type": "electric_scooter", "lon": -77.04407333333333, "fusion_lon": 0.0, "lat": 38.90043166666667, "rental_uris": {"android": "https://dc.lft.to/lastmile_qr_scan", "ios": "https://dc.lft.to/lastmile_qr_scan"}, "fusion_lat": 0.0, "name": "8da1b5b8c6ed749a533ebe77d5ab306c", "bike_id": "8da1b5b8c6ed749a533ebe77d5ab306c"}, {"is_disabled": 0, "is_reserved": 0, "type": "electric_scooter", "lon": -77.0315285, "fusion_lon": 0.0, "lat": 38.887598833333335, "rental_uris": {"android": "https://dc.lft.to/lastmile_qr_scan", "ios": "https://dc.lft.to/lastmile_qr_scan"}, "fusion_lat": 0.0, "name": "c2e0486c6a5a8cc50eb1347aa8321231", "bike_id": "c2e0486c6a5a8cc50eb1347aa8321231"}, {"is_disabled": 0, "is_reserved": 0, "type": "electric_scooter", "lon": -77.0551585, "fusion_lon": 0.0, "lat": 38.9442065, "rental_uris": {"android": "https://dc.lft.to/lastmile_qr_scan", "ios": "https://dc.lft.to/lastmile_qr_scan"}, "fusion_lat": 0.0, "name": "ce2a9373b9279934bcdf0e6224907481", "bike_id": "ce2a9373b9279934bcdf0e6224907481"}, {"is_disabled": 0, "is_reserved": 0, "type": "electric_scooter", "lon": -77.04151, "fusion_lon": 0.0, "lat": 38.90858633333333, "rental_uris": {"android": "https://dc.lft.to/lastmile_qr_scan", "ios": "https://dc.lft.to/lastmile_qr_scan"}, "fusion_lat": 0.0, "name": "b1e6c09e8ea8eca192b5059433d9a03f", "bike_id": "b1e6c09e8ea8eca192b5059433d9a03f"}, {"is_disabled": 0, "is_reserved": 0, "type": "electric_scooter", "lon": -77.0467475, "fusion_lon": 0.0, "lat": 38.906685, "rental_uris": {"android": "https://dc.lft.to/lastmile_qr_scan", "ios": "https://dc.lft.to/lastmile_qr_scan"}, "fusion_lat": 0.0, "name": "6d517de614e9839e4ba29198c1dcc731", "bike_id": "6d517de614e9839e4ba29198c1dcc731"}, {"is_disabled": 0, "is_reserved": 0, "type": "electric_scooter", "lon": -77.025682, "fusion_lon": 0.0, "lat": 38.903576, "rental_uris": {"android": "https://dc.lft.to/lastmile_qr_scan", "ios": "https://dc.lft.to/lastmile_qr_scan"}, "fusion_lat": 0.0, "name": "995fedc4caa01cb9dba8834a3f01336e", "bike_id": "995fedc4caa01cb9dba8834a3f01336e"}, {"is_disabled": 0, "is_reserved": 0, "type": "electric_scooter", "lon": -77.03964666666667, "fusion_lon": 0.0, "lat": 38.90235633333333, "rental_uris": {"android": "https://dc.lft.to/lastmile_qr_scan", "ios": "https://dc.lft.to/lastmile_qr_scan"}, "fusion_lat": 0.0, "name": "58270dca21d26a139f3fb70c8fd2a181", "bike_id": "58270dca21d26a139f3fb70c8fd2a181"}, {"is_disabled": 0, "is_reserved": 0, "type": "electric_scooter", "lon": -76.93187566666667, "fusion_lon": 0.0, "lat": 38.89878216666666, "rental_uris": {"android": "https://dc.lft.to/lastmile_qr_scan", "ios": "https://dc.lft.to/lastmile_qr_scan"}, "fusion_lat": 0.0, "name": "617d91a801bdbb94beb44dbc8f11eed4", "bike_id": "617d91a801bdbb94beb44dbc8f11eed4"}, {"is_disabled": 0, "is_reserved": 0, "type": "electric_scooter", "lon": -77.03468966666667, "fusion_lon": 0.0, "lat": 38.908730166666665, "rental_uris": {"android": "https://dc.lft.to/lastmile_qr_scan", "ios": "https://dc.lft.to/lastmile_qr_scan"}, "fusion_lat": 0.0, "name": "602395e4e097d0b7b6a60b78af068ca6", "bike_id": "602395e4e097d0b7b6a60b78af068ca6"}, {"is_disabled": 0, "is_reserved": 0, "type": "electric_scooter", "lon": -76.98910566666666, "fusion_lon": 0.0, "lat": 38.90225016666667, "rental_uris": {"android": "https://dc.lft.to/lastmile_qr_scan", "ios": "https://dc.lft.to/lastmile_qr_scan"}, "fusion_lat": 0.0, "name": "c051139cca3d720d17fd6a271675d51e", "bike_id": "c051139cca3d720d17fd6a271675d51e"}, {"is_disabled": 0, "is_reserved": 0, "type": "electric_scooter", "lon": -77.04179216666667, "fusion_lon": 0.0, "lat": 38.90535766666667, "rental_uris": {"android": "https://dc.lft.to/lastmile_qr_scan", "ios": "https://dc.lft.to/lastmile_qr_scan"}, "fusion_lat": 0.0, "name": "16a1cbd2057fb8e3fdce550a1d60621f", "bike_id": "16a1cbd2057fb8e3fdce550a1d60621f"}, {"is_disabled": 0, "is_reserved": 0, "type": "electric_scooter", "lon": -77.04385083333334, "fusion_lon": 0.0, "lat": 38.91053566666667, "rental_uris": {"android": "https://dc.lft.to/lastmile_qr_scan", "ios": "https://dc.lft.to/lastmile_qr_scan"}, "fusion_lat": 0.0, "name": "966674db18bc2c87e4456b1feacd8461", "bike_id": "966674db18bc2c87e4456b1feacd8461"}, {"is_disabled": 0, "is_reserved": 0, "type": "electric_scooter", "lon": -77.03892166666667, "fusion_lon": 0.0, "lat": 38.93427966666667, "rental_uris": {"android": "https://dc.lft.to/lastmile_qr_scan", "ios": "https://dc.lft.to/lastmile_qr_scan"}, "fusion_lat": 0.0, "name": "2e4c71b4751e0d1e9cfc235a0118e8f3", "bike_id": "2e4c71b4751e0d1e9cfc235a0118e8f3"}, {"is_disabled": 0, "is_reserved": 0, "type": "electric_scooter", "lon": -76.99576816666666, "fusion_lon": 0.0, "lat": 38.92079533333333, "rental_uris": {"android": "https://dc.lft.to/lastmile_qr_scan", "ios": "https://dc.lft.to/lastmile_qr_scan"}, "fusion_lat": 0.0, "name": "3602da4f8ed1c833b91e6758a2602791", "bike_id": "3602da4f8ed1c833b91e6758a2602791"}, {"is_disabled": 0, "is_reserved": 0, "type": "electric_bike", "lon": -77.05099566666667, "fusion_lon": 0.0, "lat": 38.94564366666667, "rental_uris": {"android": "https://dc.lft.to/lastmile_qr_scan", "ios": "https://dc.lft.to/lastmile_qr_scan"}, "fusion_lat": 0.0, "name": "840cda6e110b8019bff4e1604a4d7d14", "bike_id": "840cda6e110b8019bff4e1604a4d7d14"}, {"is_disabled": 0, "is_reserved": 0, "type": "electric_scooter", "lon": -77.06364716666667, "fusion_lon": 0.0, "lat": 38.94414283333333, "rental_uris": {"android": "https://dc.lft.to/lastmile_qr_scan", "ios": "https://dc.lft.to/lastmile_qr_scan"}, "fusion_lat": 0.0, "name": "e0d4353bda08d6dbf0099c936c0c8ce4", "bike_id": "e0d4353bda08d6dbf0099c936c0c8ce4"}, {"is_disabled": 0, "is_reserved": 0, "type": "electric_bike", "lon": -77.10712766666667, "fusion_lon": 0.0, "lat": 38.855558333333335, "rental_uris": {"android": "https://dc.lft.to/lastmile_qr_scan", "ios": "https://dc.lft.to/lastmile_qr_scan"}, "fusion_lat": 0.0, "name": "8071b20c297999ee8f05a5af134a1806", "bike_id": "8071b20c297999ee8f05a5af134a1806"}, {"is_disabled": 0, "is_reserved": 0, "type": "electric_scooter", "lon": -77.00220083333333, "fusion_lon": 0.0, "lat": 38.900359333333334, "rental_uris": {"android": "https://dc.lft.to/lastmile_qr_scan", "ios": "https://dc.lft.to/lastmile_qr_scan"}, "fusion_lat": 0.0, "name": "08abbf9bacb91c95a2138a3f70c242a4", "bike_id": "08abbf9bacb91c95a2138a3f70c242a4"}, {"is_disabled": 0, "is_reserved": 0, "type": "electric_scooter", "lon": -77.002064, "fusion_lon": 0.0, "lat": 38.89493866666667, "rental_uris": {"android": "https://dc.lft.to/lastmile_qr_scan", "ios": "https://dc.lft.to/lastmile_qr_scan"}, "fusion_lat": 0.0, "name": "762f30bb93198c3a136f1760eda21e55", "bike_id": "762f30bb93198c3a136f1760eda21e55"}, {"is_disabled": 0, "is_reserved": 0, "type": "electric_scooter", "lon": -77.03175383333334, "fusion_lon": 0.0, "lat": 38.915519833333335, "rental_uris": {"android": "https://dc.lft.to/lastmile_qr_scan", "ios": "https://dc.lft.to/lastmile_qr_scan"}, "fusion_lat": 0.0, "name": "885701119e60245a7d0f866ac9f8729c", "bike_id": "885701119e60245a7d0f866ac9f8729c"}, {"is_disabled": 0, "is_reserved": 0, "type": "electric_scooter", "lon": -77.00251066666667, "fusion_lon": 0.0, "lat": 38.902645166666666, "rental_uris": {"android": "https://dc.lft.to/lastmile_qr_scan", "ios": "https://dc.lft.to/lastmile_qr_scan"}, "fusion_lat": 0.0, "name": "8f704a37f38f30785a23b0856e43cca9", "bike_id": "8f704a37f38f30785a23b0856e43cca9"}, {"is_disabled": 0, "is_reserved": 0, "type": "electric_scooter", "lon": -77.04027566666667, "fusion_lon": 0.0, "lat": 38.917831166666666, "rental_uris": {"android": "https://dc.lft.to/lastmile_qr_scan", "ios": "https://dc.lft.to/lastmile_qr_scan"}, "fusion_lat": 0.0, "name": "f2909fa3f9af774823430aa11020417d", "bike_id": "f2909fa3f9af774823430aa11020417d"}, {"is_disabled": 0, "is_reserved": 0, "type": "electric_scooter", "lon": -77.02781083333333, "fusion_lon": 0.0, "lat": 38.892173166666666, "rental_uris": {"android": "https://dc.lft.to/lastmile_qr_scan", "ios": "https://dc.lft.to/lastmile_qr_scan"}, "fusion_lat": 0.0, "name": "05aa55e1399c69af05cee608a6abf2f4", "bike_id": "05aa55e1399c69af05cee608a6abf2f4"}, {"is_disabled": 0, "is_reserved": 0, "type": "electric_scooter", "lon": -77.03163466666666, "fusion_lon": 0.0, "lat": 38.921201833333335, "rental_uris": {"android": "https://dc.lft.to/lastmile_qr_scan", "ios": "https://dc.lft.to/lastmile_qr_scan"}, "fusion_lat": 0.0, "name": "be72871da684a3f02c9c64028a5b1a2f", "bike_id": "be72871da684a3f02c9c64028a5b1a2f"}, {"is_disabled": 0, "is_reserved": 0, "type": "electric_scooter", "lon": -77.007758, "fusion_lon": 0.0, "lat": 38.90574816666667, "rental_uris": {"android": "https://dc.lft.to/lastmile_qr_scan", "ios": "https://dc.lft.to/lastmile_qr_scan"}, "fusion_lat": 0.0, "name": "9b94721fcc46731f9fe6a89312ece191", "bike_id": "9b94721fcc46731f9fe6a89312ece191"}, {"is_disabled": 0, "is_reserved": 0, "type": "electric_scooter", "lon": -77.00554233333334, "fusion_lon": 0.0, "lat": 38.87460883333333, "rental_uris": {"android": "https://dc.lft.to/lastmile_qr_scan", "ios": "https://dc.lft.to/lastmile_qr_scan"}, "fusion_lat": 0.0, "name": "ac6599b106cd04a9d8cee22c8a4b04f1", "bike_id": "ac6599b106cd04a9d8cee22c8a4b04f1"}, {"is_disabled": 0, "is_reserved": 0, "type": "electric_scooter", "lon": -77.04517266666667, "fusion_lon": 0.0, "lat": 38.905541166666666, "rental_uris": {"android": "https://dc.lft.to/lastmile_qr_scan", "ios": "https://dc.lft.to/lastmile_qr_scan"}, "fusion_lat": 0.0, "name": "8fb743f4045c4e0de64144887e92e403", "bike_id": "8fb743f4045c4e0de64144887e92e403"}, {"is_disabled": 0, "is_reserved": 0, "type": "electric_scooter", "lon": -77.02796083333334, "fusion_lon": 0.0, "lat": 38.907408833333335, "rental_uris": {"android": "https://dc.lft.to/lastmile_qr_scan", "ios": "https://dc.lft.to/lastmile_qr_scan"}, "fusion_lat": 0.0, "name": "859b8d6a2dfbc0d23eb2c88d3c7078ee", "bike_id": "859b8d6a2dfbc0d23eb2c88d3c7078ee"}, {"is_disabled": 0, "is_reserved": 0, "type": "electric_scooter", "lon": -77.04334966666667, "fusion_lon": 0.0, "lat": 38.921718166666665, "rental_uris": {"android": "https://dc.lft.to/lastmile_qr_scan", "ios": "https://dc.lft.to/lastmile_qr_scan"}, "fusion_lat": 0.0, "name": "df8af3e7a352b1306c9e2e4d98540ec4", "bike_id": "df8af3e7a352b1306c9e2e4d98540ec4"}, {"is_disabled": 0, "is_reserved": 0, "type": "electric_scooter", "lon": -77.00459883333333, "fusion_lon": 0.0, "lat": 38.913882, "rental_uris": {"android": "https://dc.lft.to/lastmile_qr_scan", "ios": "https://dc.lft.to/lastmile_qr_scan"}, "fusion_lat": 0.0, "name": "16d91fb85c86f0c2ee7d3cdaae60df0c", "bike_id": "16d91fb85c86f0c2ee7d3cdaae60df0c"}, {"is_disabled": 0, "is_reserved": 0, "type": "electric_bike", "lon": -76.95480616666667, "fusion_lon": 0.0, "lat": 38.87206883333333, "rental_uris": {"android": "https://dc.lft.to/lastmile_qr_scan", "ios": "https://dc.lft.to/lastmile_qr_scan"}, "fusion_lat": 0.0, "name": "a1339d519b144260b5de35c987421f7f", "bike_id": "a1339d519b144260b5de35c987421f7f"}, {"is_disabled": 0, "is_reserved": 0, "type": "electric_scooter", "lon": -77.02471183333333, "fusion_lon": 0.0, "lat": 38.8973145, "rental_uris": {"android": "https://dc.lft.to/lastmile_qr_scan", "ios": "https://dc.lft.to/lastmile_qr_scan"}, "fusion_lat": 0.0, "name": "b14e10be43308de42e9921b819657203", "bike_id": "b14e10be43308de42e9921b819657203"}, {"is_disabled": 0, "is_reserved": 0, "type": "electric_scooter", "lon": -77.03178866666667, "fusion_lon": 0.0, "lat": 38.89176116666667, "rental_uris": {"android": "https://dc.lft.to/lastmile_qr_scan", "ios": "https://dc.lft.to/lastmile_qr_scan"}, "fusion_lat": 0.0, "name": "8ec67ff13ffddf2ea6d92b540cae86e4", "bike_id": "8ec67ff13ffddf2ea6d92b540cae86e4"}, {"is_disabled": 0, "is_reserved": 0, "type": "electric_scooter", "lon": -77.04665533333333, "fusion_lon": 0.0, "lat": 38.8969605, "rental_uris": {"android": "https://dc.lft.to/lastmile_qr_scan", "ios": "https://dc.lft.to/lastmile_qr_scan"}, "fusion_lat": 0.0, "name": "cbf289e4e1580c014a90bf76204a52f4", "bike_id": "cbf289e4e1580c014a90bf76204a52f4"}, {"is_disabled": 0, "is_reserved": 0, "type": "electric_scooter", "lon": -77.01058383333333, "fusion_lon": 0.0, "lat": 38.8724375, "rental_uris": {"android": "https://dc.lft.to/lastmile_qr_scan", "ios": "https://dc.lft.to/lastmile_qr_scan"}, "fusion_lat": 0.0, "name": "0376c0a362c7a518d9b8712e85cbee9b", "bike_id": "0376c0a362c7a518d9b8712e85cbee9b"}, {"is_disabled": 0, "is_reserved": 0, "type": "electric_scooter", "lon": -77.027782, "fusion_lon": 0.0, "lat": 38.910201, "rental_uris": {"android": "https://dc.lft.to/lastmile_qr_scan", "ios": "https://dc.lft.to/lastmile_qr_scan"}, "fusion_lat": 0.0, "name": "09252d7f80d822b13ab19247f684d28e", "bike_id": "09252d7f80d822b13ab19247f684d28e"}, {"is_disabled": 0, "is_reserved": 0, "type": "electric_scooter", "lon": -77.0346765, "fusion_lon": 0.0, "lat": 38.92156766666667, "rental_uris": {"android": "https://dc.lft.to/lastmile_qr_scan", "ios": "https://dc.lft.to/lastmile_qr_scan"}, "fusion_lat": 0.0, "name": "ac3a6e5922788aad89c6e2da22719fee", "bike_id": "ac3a6e5922788aad89c6e2da22719fee"}, {"is_disabled": 0, "is_reserved": 0, "type": "electric_scooter", "lon": -77.02156733333334, "fusion_lon": 0.0, "lat": 38.926166333333335, "rental_uris": {"android": "https://dc.lft.to/lastmile_qr_scan", "ios": "https://dc.lft.to/lastmile_qr_scan"}, "fusion_lat": 0.0, "name": "83cf7812bc5a7c64d14c7803d2d376b8", "bike_id": "83cf7812bc5a7c64d14c7803d2d376b8"}, {"is_disabled": 0, "is_reserved": 0, "type": "electric_scooter", "lon": -77.03207766666667, "fusion_lon": 0.0, "lat": 38.91545766666667, "rental_uris": {"android": "https://dc.lft.to/lastmile_qr_scan", "ios": "https://dc.lft.to/lastmile_qr_scan"}, "fusion_lat": 0.0, "name": "a94ab03fe94fe2ec61238548fed3db4b", "bike_id": "a94ab03fe94fe2ec61238548fed3db4b"}, {"is_disabled": 0, "is_reserved": 0, "type": "electric_bike", "lon": -77.127399, "fusion_lon": 0.0, "lat": 38.88819066666667, "rental_uris": {"android": "https://dc.lft.to/lastmile_qr_scan", "ios": "https://dc.lft.to/lastmile_qr_scan"}, "fusion_lat": 0.0, "name": "4219ba0871a2ab93a8919c9965a0cf08", "bike_id": "4219ba0871a2ab93a8919c9965a0cf08"}, {"is_disabled": 0, "is_reserved": 0, "type": "electric_scooter", "lon": -77.03224933333334, "fusion_lon": 0.0, "lat": 38.901190666666665, "rental_uris": {"android": "https://dc.lft.to/lastmile_qr_scan", "ios": "https://dc.lft.to/lastmile_qr_scan"}, "fusion_lat": 0.0, "name": "1ec1051cc56e6bacdc9613193c999f27", "bike_id": "1ec1051cc56e6bacdc9613193c999f27"}, {"is_disabled": 0, "is_reserved": 0, "type": "electric_scooter", "lon": -77.02188816666667, "fusion_lon": 0.0, "lat": 38.895373166666666, "rental_uris": {"android": "https://dc.lft.to/lastmile_qr_scan", "ios": "https://dc.lft.to/lastmile_qr_scan"}, "fusion_lat": 0.0, "name": "6ed62e35352da56e63500fa400ec4eba", "bike_id": "6ed62e35352da56e63500fa400ec4eba"}, {"is_disabled": 0, "is_reserved": 0, "type": "electric_scooter", "lon": -77.04685, "fusion_lon": 0.0, "lat": 38.915785166666666, "rental_uris": {"android": "https://dc.lft.to/lastmile_qr_scan", "ios": "https://dc.lft.to/lastmile_qr_scan"}, "fusion_lat": 0.0, "name": "685eb13504b53f52020355379825e375", "bike_id": "685eb13504b53f52020355379825e375"}, {"is_disabled": 0, "is_reserved": 0, "type": "electric_scooter", "lon": -77.0234715, "fusion_lon": 0.0, "lat": 38.94297816666667, "rental_uris": {"android": "https://dc.lft.to/lastmile_qr_scan", "ios": "https://dc.lft.to/lastmile_qr_scan"}, "fusion_lat": 0.0, "name": "58789dd475891fb12a2a73d57a6e3d23", "bike_id": "58789dd475891fb12a2a73d57a6e3d23"}, {"is_disabled": 0, "is_reserved": 0, "type": "electric_bike", "lon": -77.1954595, "fusion_lon": 0.0, "lat": 39.115105666666665, "rental_uris": {"android": "https://dc.lft.to/lastmile_qr_scan", "ios": "https://dc.lft.to/lastmile_qr_scan"}, "fusion_lat": 0.0, "name": "a0afa804835067efbcd6263be4ddf8d6", "bike_id": "a0afa804835067efbcd6263be4ddf8d6"}, {"is_disabled": 0, "is_reserved": 0, "type": "electric_scooter", "lon": -77.05907933333333, "fusion_lon": 0.0, "lat": 38.905389166666666, "rental_uris": {"android": "https://dc.lft.to/lastmile_qr_scan", "ios": "https://dc.lft.to/lastmile_qr_scan"}, "fusion_lat": 0.0, "name": "2cea32250ea802837f015dbd25e6cd20", "bike_id": "2cea32250ea802837f015dbd25e6cd20"}, {"is_disabled": 0, "is_reserved": 0, "type": "electric_scooter", "lon": -77.0176275, "fusion_lon": 0.0, "lat": 38.88592466666667, "rental_uris": {"android": "https://dc.lft.to/lastmile_qr_scan", "ios": "https://dc.lft.to/lastmile_qr_scan"}, "fusion_lat": 0.0, "name": "c1a2a02bb41db34363ad2d38470a54eb", "bike_id": "c1a2a02bb41db34363ad2d38470a54eb"}, {"is_disabled": 0, "is_reserved": 0, "type": "electric_bike", "lon": -77.04976833333333, "fusion_lon": 0.0, "lat": 38.99246266666667, "rental_uris": {"android": "https://dc.lft.to/lastmile_qr_scan", "ios": "https://dc.lft.to/lastmile_qr_scan"}, "fusion_lat": 0.0, "name": "590244c236221489594e7b475c3bd903", "bike_id": "590244c236221489594e7b475c3bd903"}, {"is_disabled": 0, "is_reserved": 0, "type": "electric_bike", "lon": -76.97823700000001, "fusion_lon": 0.0, "lat": 38.871956, "rental_uris": {"android": "https://dc.lft.to/lastmile_qr_scan", "ios": "https://dc.lft.to/lastmile_qr_scan"}, "fusion_lat": 0.0, "name": "2de808a0449b151995339e69c0290bd9", "bike_id": "2de808a0449b151995339e69c0290bd9"}, {"is_disabled": 0, "is_reserved": 0, "type": "electric_scooter", "lon": -77.0256085, "fusion_lon": 0.0, "lat": 38.916331166666666, "rental_uris": {"android": "https://dc.lft.to/lastmile_qr_scan", "ios": "https://dc.lft.to/lastmile_qr_scan"}, "fusion_lat": 0.0, "name": "bd2e7df23af162051c338098aad1b1cb", "bike_id": "bd2e7df23af162051c338098aad1b1cb"}, {"is_disabled": 0, "is_reserved": 0, "type": "electric_scooter", "lon": -76.949407, "fusion_lon": 0.0, "lat": 38.8831715, "rental_uris": {"android": "https://dc.lft.to/lastmile_qr_scan", "ios": "https://dc.lft.to/lastmile_qr_scan"}, "fusion_lat": 0.0, "name": "ade7f3c7dd98fc1a59f9ec0682879dc9", "bike_id": "ade7f3c7dd98fc1a59f9ec0682879dc9"}, {"is_disabled": 0, "is_reserved": 0, "type": "electric_scooter", "lon": -77.03907566666666, "fusion_lon": 0.0, "lat": 38.922546, "rental_uris": {"android": "https://dc.lft.to/lastmile_qr_scan", "ios": "https://dc.lft.to/lastmile_qr_scan"}, "fusion_lat": 0.0, "name": "cc3569d73fdcfd0bba72c4cb39db821a", "bike_id": "cc3569d73fdcfd0bba72c4cb39db821a"}, {"is_disabled": 0, "is_reserved": 0, "type": "electric_scooter", "lon": -76.9967875, "fusion_lon": 0.0, "lat": 38.908135333333334, "rental_uris": {"android": "https://dc.lft.to/lastmile_qr_scan", "ios": "https://dc.lft.to/lastmile_qr_scan"}, "fusion_lat": 0.0, "name": "4103a4ee04a5638dafd6e9b48a0419ba", "bike_id": "4103a4ee04a5638dafd6e9b48a0419ba"}, {"is_disabled": 0, "is_reserved": 0, "type": "electric_scooter", "lon": -77.09441116666666, "fusion_lon": 0.0, "lat": 38.91783233333334, "rental_uris": {"android": "https://dc.lft.to/lastmile_qr_scan", "ios": "https://dc.lft.to/lastmile_qr_scan"}, "fusion_lat": 0.0, "name": "11a4693b712ab7be3c70a4c87d21b16a", "bike_id": "11a4693b712ab7be3c70a4c87d21b16a"}, {"is_disabled": 0, "is_reserved": 0, "type": "electric_scooter", "lon": -77.04037666666666, "fusion_lon": 0.0, "lat": 38.904723, "rental_uris": {"android": "https://dc.lft.to/lastmile_qr_scan", "ios": "https://dc.lft.to/lastmile_qr_scan"}, "fusion_lat": 0.0, "name": "4c176286ded95c4482f1de28ba89a2e0", "bike_id": "4c176286ded95c4482f1de28ba89a2e0"}, {"is_disabled": 0, "is_reserved": 0, "type": "electric_scooter", "lon": -77.041542, "fusion_lon": 0.0, "lat": 38.92333933333333, "rental_uris": {"android": "https://dc.lft.to/lastmile_qr_scan", "ios": "https://dc.lft.to/lastmile_qr_scan"}, "fusion_lat": 0.0, "name": "94dc8b1275b9741823b19b9e716776d3", "bike_id": "94dc8b1275b9741823b19b9e716776d3"}, {"is_disabled": 0, "is_reserved": 0, "type": "electric_scooter", "lon": -76.94768883333333, "fusion_lon": 0.0, "lat": 38.89627383333333, "rental_uris": {"android": "https://dc.lft.to/lastmile_qr_scan", "ios": "https://dc.lft.to/lastmile_qr_scan"}, "fusion_lat": 0.0, "name": "745f6507becf75edae68c3e35b4095dc", "bike_id": "745f6507becf75edae68c3e35b4095dc"}, {"is_disabled": 0, "is_reserved": 0, "type": "electric_scooter", "lon": -77.00445816666667, "fusion_lon": 0.0, "lat": 38.907211333333336, "rental_uris": {"android": "https://dc.lft.to/lastmile_qr_scan", "ios": "https://dc.lft.to/lastmile_qr_scan"}, "fusion_lat": 0.0, "name": "3f711a7be39d27dd61cc4ea8f4bce74a", "bike_id": "3f711a7be39d27dd61cc4ea8f4bce74a"}, {"is_disabled": 0, "is_reserved": 0, "type": "electric_bike", "lon": -77.032113, "fusion_lon": 0.0, "lat": 38.927916, "rental_uris": {"android": "https://dc.lft.to/lastmile_qr_scan", "ios": "https://dc.lft.to/lastmile_qr_scan"}, "fusion_lat": 0.0, "name": "a753cd412f593339a013a69ca7b27e07", "bike_id": "a753cd412f593339a013a69ca7b27e07"}, {"is_disabled": 0, "is_reserved": 0, "type": "electric_scooter", "lon": -77.03168766666667, "fusion_lon": 0.0, "lat": 38.9140465, "rental_uris": {"android": "https://dc.lft.to/lastmile_qr_scan", "ios": "https://dc.lft.to/lastmile_qr_scan"}, "fusion_lat": 0.0, "name": "61101499afec2f0b5aa164da0b80572a", "bike_id": "61101499afec2f0b5aa164da0b80572a"}, {"is_disabled": 0, "is_reserved": 0, "type": "electric_scooter", "lon": -77.03171116666667, "fusion_lon": 0.0, "lat": 38.915552, "rental_uris": {"android": "https://dc.lft.to/lastmile_qr_scan", "ios": "https://dc.lft.to/lastmile_qr_scan"}, "fusion_lat": 0.0, "name": "5921f542db811b5a84be56644a18327b", "bike_id": "5921f542db811b5a84be56644a18327b"}, {"is_disabled": 0, "is_reserved": 0, "type": "electric_scooter", "lon": -77.03496516666667, "fusion_lon": 0.0, "lat": 38.91707733333333, "rental_uris": {"android": "https://dc.lft.to/lastmile_qr_scan", "ios": "https://dc.lft.to/lastmile_qr_scan"}, "fusion_lat": 0.0, "name": "0b1acb9b29417a42ec8b5164c2deb0a3", "bike_id": "0b1acb9b29417a42ec8b5164c2deb0a3"}, {"is_disabled": 0, "is_reserved": 0, "type": "electric_scooter", "lon": -76.96525416666667, "fusion_lon": 0.0, "lat": 38.876273166666664, "rental_uris": {"android": "https://dc.lft.to/lastmile_qr_scan", "ios": "https://dc.lft.to/lastmile_qr_scan"}, "fusion_lat": 0.0, "name": "b668e8084caeffcabf1e5124c58c89c0", "bike_id": "b668e8084caeffcabf1e5124c58c89c0"}, {"is_disabled": 0, "is_reserved": 0, "type": "electric_scooter", "lon": -77.0448305, "fusion_lon": 0.0, "lat": 38.9004595, "rental_uris": {"android": "https://dc.lft.to/lastmile_qr_scan", "ios": "https://dc.lft.to/lastmile_qr_scan"}, "fusion_lat": 0.0, "name": "f571c52c1d740c9a919f495c793aae72", "bike_id": "f571c52c1d740c9a919f495c793aae72"}, {"is_disabled": 0, "is_reserved": 0, "type": "electric_scooter", "lon": -77.04487366666666, "fusion_lon": 0.0, "lat": 38.91577183333333, "rental_uris": {"android": "https://dc.lft.to/lastmile_qr_scan", "ios": "https://dc.lft.to/lastmile_qr_scan"}, "fusion_lat": 0.0, "name": "93e53ea6fd5f21964a85d45de2c7930d", "bike_id": "93e53ea6fd5f21964a85d45de2c7930d"}, {"is_disabled": 0, "is_reserved": 0, "type": "electric_scooter", "lon": -77.03364633333334, "fusion_lon": 0.0, "lat": 38.90011766666667, "rental_uris": {"android": "https://dc.lft.to/lastmile_qr_scan", "ios": "https://dc.lft.to/lastmile_qr_scan"}, "fusion_lat": 0.0, "name": "c5ce4dd11e5c2521081edcc2113e8982", "bike_id": "c5ce4dd11e5c2521081edcc2113e8982"}, {"is_disabled": 0, "is_reserved": 0, "type": "electric_scooter", "lon": -77.04094816666667, "fusion_lon": 0.0, "lat": 38.90802733333334, "rental_uris": {"android": "https://dc.lft.to/lastmile_qr_scan", "ios": "https://dc.lft.to/lastmile_qr_scan"}, "fusion_lat": 0.0, "name": "c6a76c941d25569d9a143f0236bdf93d", "bike_id": "c6a76c941d25569d9a143f0236bdf93d"}, {"is_disabled": 0, "is_reserved": 0, "type": "electric_bike", "lon": -76.96559066666667, "fusion_lon": 0.0, "lat": 38.95090016666666, "rental_uris": {"android": "https://dc.lft.to/lastmile_qr_scan", "ios": "https://dc.lft.to/lastmile_qr_scan"}, "fusion_lat": 0.0, "name": "2012924fe070e951b481c636ff6841b4", "bike_id": "2012924fe070e951b481c636ff6841b4"}, {"is_disabled": 0, "is_reserved": 0, "type": "electric_scooter", "lon": -77.03857, "fusion_lon": 0.0, "lat": 38.9027135, "rental_uris": {"android": "https://dc.lft.to/lastmile_qr_scan", "ios": "https://dc.lft.to/lastmile_qr_scan"}, "fusion_lat": 0.0, "name": "284250bac93169a9fe85e3607beb4c44", "bike_id": "284250bac93169a9fe85e3607beb4c44"}, {"is_disabled": 0, "is_reserved": 0, "type": "electric_bike", "lon": -77.00582, "fusion_lon": 0.0, "lat": 38.836971, "rental_uris": {"android": "https://dc.lft.to/lastmile_qr_scan", "ios": "https://dc.lft.to/lastmile_qr_scan"}, "fusion_lat": 0.0, "name": "954e87eb20ef0040128a04b537b1e4d8", "bike_id": "954e87eb20ef0040128a04b537b1e4d8"}, {"is_disabled": 0, "is_reserved": 0, "type": "electric_scooter", "lon": -77.026526, "fusion_lon": 0.0, "lat": 38.8922045, "rental_uris": {"android": "https://dc.lft.to/lastmile_qr_scan", "ios": "https://dc.lft.to/lastmile_qr_scan"}, "fusion_lat": 0.0, "name": "83cfeebcf24a6f98190ce6040dbf1590", "bike_id": "83cfeebcf24a6f98190ce6040dbf1590"}, {"is_disabled": 0, "is_reserved": 0, "type": "electric_scooter", "lon": -77.04166533333333, "fusion_lon": 0.0, "lat": 38.919367666666666, "rental_uris": {"android": "https://dc.lft.to/lastmile_qr_scan", "ios": "https://dc.lft.to/lastmile_qr_scan"}, "fusion_lat": 0.0, "name": "c9c629e35a7a1e9a4ea3e56d1fe18b2a", "bike_id": "c9c629e35a7a1e9a4ea3e56d1fe18b2a"}, {"is_disabled": 0, "is_reserved": 0, "type": "electric_bike", "lon": -77.04939016666667, "fusion_lon": 0.0, "lat": 38.85521716666667, "rental_uris": {"android": "https://dc.lft.to/lastmile_qr_scan", "ios": "https://dc.lft.to/lastmile_qr_scan"}, "fusion_lat": 0.0, "name": "58b5d7a87630de95fe89a4d6eedeed54", "bike_id": "58b5d7a87630de95fe89a4d6eedeed54"}, {"is_disabled": 0, "is_reserved": 0, "type": "electric_scooter", "lon": -77.03885616666666, "fusion_lon": 0.0, "lat": 38.9223265, "rental_uris": {"android": "https://dc.lft.to/lastmile_qr_scan", "ios": "https://dc.lft.to/lastmile_qr_scan"}, "fusion_lat": 0.0, "name": "4bff6966606c6343f0c38014ef7f9e59", "bike_id": "4bff6966606c6343f0c38014ef7f9e59"}, {"is_disabled": 0, "is_reserved": 0, "type": "electric_scooter", "lon": -77.02494116666666, "fusion_lon": 0.0, "lat": 38.90245566666667, "rental_uris": {"android": "https://dc.lft.to/lastmile_qr_scan", "ios": "https://dc.lft.to/lastmile_qr_scan"}, "fusion_lat": 0.0, "name": "9c4f74f9ad5eb381a3f7946a10de535b", "bike_id": "9c4f74f9ad5eb381a3f7946a10de535b"}, {"is_disabled": 0, "is_reserved": 0, "type": "electric_scooter", "lon": -77.00432983333333, "fusion_lon": 0.0, "lat": 38.87713266666667, "rental_uris": {"android": "https://dc.lft.to/lastmile_qr_scan", "ios": "https://dc.lft.to/lastmile_qr_scan"}, "fusion_lat": 0.0, "name": "ebc01d6efd49c25eac1d2783d6323df8", "bike_id": "ebc01d6efd49c25eac1d2783d6323df8"}, {"is_disabled": 0, "is_reserved": 0, "type": "electric_scooter", "lon": -77.03593833333333, "fusion_lon": 0.0, "lat": 38.907674, "rental_uris": {"android": "https://dc.lft.to/lastmile_qr_scan", "ios": "https://dc.lft.to/lastmile_qr_scan"}, "fusion_lat": 0.0, "name": "7bbac029359547a1b4c207859dff633d", "bike_id": "7bbac029359547a1b4c207859dff633d"}, {"is_disabled": 0, "is_reserved": 0, "type": "electric_scooter", "lon": -77.00218233333334, "fusion_lon": 0.0, "lat": 38.91105733333333, "rental_uris": {"android": "https://dc.lft.to/lastmile_qr_scan", "ios": "https://dc.lft.to/lastmile_qr_scan"}, "fusion_lat": 0.0, "name": "e72a8cba7ba03196f4b3716449c1334b", "bike_id": "e72a8cba7ba03196f4b3716449c1334b"}, {"is_disabled": 0, "is_reserved": 0, "type": "electric_scooter", "lon": -77.0256135, "fusion_lon": 0.0, "lat": 38.89222216666667, "rental_uris": {"android": "https://dc.lft.to/lastmile_qr_scan", "ios": "https://dc.lft.to/lastmile_qr_scan"}, "fusion_lat": 0.0, "name": "1d24b8a5958d4f1ad4a27913c8a192d6", "bike_id": "1d24b8a5958d4f1ad4a27913c8a192d6"}, {"is_disabled": 0, "is_reserved": 0, "type": "electric_scooter", "lon": -77.032071, "fusion_lon": 0.0, "lat": 38.911826, "rental_uris": {"android": "https://dc.lft.to/lastmile_qr_scan", "ios": "https://dc.lft.to/lastmile_qr_scan"}, "fusion_lat": 0.0, "name": "8b550f46a5c979fb47823bab39a46507", "bike_id": "8b550f46a5c979fb47823bab39a46507"}, {"is_disabled": 0, "is_reserved": 0, "type": "electric_scooter", "lon": -77.03967116666666, "fusion_lon": 0.0, "lat": 38.90709233333333, "rental_uris": {"android": "https://dc.lft.to/lastmile_qr_scan", "ios": "https://dc.lft.to/lastmile_qr_scan"}, "fusion_lat": 0.0, "name": "3421b616832bde831d573cb2f2bf446f", "bike_id": "3421b616832bde831d573cb2f2bf446f"}, {"is_disabled": 0, "is_reserved": 0, "type": "electric_scooter", "lon": -77.03257616666667, "fusion_lon": 0.0, "lat": 38.9011595, "rental_uris": {"android": "https://dc.lft.to/lastmile_qr_scan", "ios": "https://dc.lft.to/lastmile_qr_scan"}, "fusion_lat": 0.0, "name": "d6814a80fd15e06aea71f3af04be1ae4", "bike_id": "d6814a80fd15e06aea71f3af04be1ae4"}, {"is_disabled": 0, "is_reserved": 0, "type": "electric_scooter", "lon": -77.0259845, "fusion_lon": 0.0, "lat": 38.975897833333335, "rental_uris": {"android": "https://dc.lft.to/lastmile_qr_scan", "ios": "https://dc.lft.to/lastmile_qr_scan"}, "fusion_lat": 0.0, "name": "ddec237bacfe8358f77c4d7bbffb9c38", "bike_id": "ddec237bacfe8358f77c4d7bbffb9c38"}, {"is_disabled": 0, "is_reserved": 0, "type": "electric_scooter", "lon": -77.03354833333333, "fusion_lon": 0.0, "lat": 38.92447666666666, "rental_uris": {"android": "https://dc.lft.to/lastmile_qr_scan", "ios": "https://dc.lft.to/lastmile_qr_scan"}, "fusion_lat": 0.0, "name": "3a501fe93f67879ded37210ab2e1ca17", "bike_id": "3a501fe93f67879ded37210ab2e1ca17"}, {"is_disabled": 0, "is_reserved": 0, "type": "electric_scooter", "lon": -76.93389633333334, "fusion_lon": 0.0, "lat": 38.89910166666667, "rental_uris": {"android": "https://dc.lft.to/lastmile_qr_scan", "ios": "https://dc.lft.to/lastmile_qr_scan"}, "fusion_lat": 0.0, "name": "e6ebe112e890bf84f856886a89371545", "bike_id": "e6ebe112e890bf84f856886a89371545"}, {"is_disabled": 0, "is_reserved": 0, "type": "electric_scooter", "lon": -76.998707, "fusion_lon": 0.0, "lat": 38.90016766666667, "rental_uris": {"android": "https://dc.lft.to/lastmile_qr_scan", "ios": "https://dc.lft.to/lastmile_qr_scan"}, "fusion_lat": 0.0, "name": "f73997a916011688ffdf85d46f8bf536", "bike_id": "f73997a916011688ffdf85d46f8bf536"}, {"is_disabled": 0, "is_reserved": 0, "type": "electric_bike", "lon": -76.96178633333334, "fusion_lon": 0.0, "lat": 38.918639666666664, "rental_uris": {"android": "https://dc.lft.to/lastmile_qr_scan", "ios": "https://dc.lft.to/lastmile_qr_scan"}, "fusion_lat": 0.0, "name": "fcda7bd3881cbac79e7420596e463649", "bike_id": "fcda7bd3881cbac79e7420596e463649"}, {"is_disabled": 0, "is_reserved": 0, "type": "electric_bike", "lon": -76.92928866666666, "fusion_lon": 0.0, "lat": 38.9029435, "rental_uris": {"android": "https://dc.lft.to/lastmile_qr_scan", "ios": "https://dc.lft.to/lastmile_qr_scan"}, "fusion_lat": 0.0, "name": "d776be093eac661c7935185391b46e7d", "bike_id": "d776be093eac661c7935185391b46e7d"}, {"is_disabled": 0, "is_reserved": 0, "type": "electric_scooter", "lon": -77.01178283333333, "fusion_lon": 0.0, "lat": 38.870746833333335, "rental_uris": {"android": "https://dc.lft.to/lastmile_qr_scan", "ios": "https://dc.lft.to/lastmile_qr_scan"}, "fusion_lat": 0.0, "name": "498d324867d3947e7850adddba665c42", "bike_id": "498d324867d3947e7850adddba665c42"}, {"is_disabled": 0, "is_reserved": 0, "type": "electric_scooter", "lon": -77.07013416666666, "fusion_lon": 0.0, "lat": 38.905923, "rental_uris": {"android": "https://dc.lft.to/lastmile_qr_scan", "ios": "https://dc.lft.to/lastmile_qr_scan"}, "fusion_lat": 0.0, "name": "2f40fa46aef1c662476463ea674e16f6", "bike_id": "2f40fa46aef1c662476463ea674e16f6"}, {"is_disabled": 0, "is_reserved": 0, "type": "electric_scooter", "lon": -77.031457, "fusion_lon": 0.0, "lat": 38.9126725, "rental_uris": {"android": "https://dc.lft.to/lastmile_qr_scan", "ios": "https://dc.lft.to/lastmile_qr_scan"}, "fusion_lat": 0.0, "name": "d3a1378b22f1a559868d771b882a5654", "bike_id": "d3a1378b22f1a559868d771b882a5654"}, {"is_disabled": 0, "is_reserved": 0, "type": "electric_scooter", "lon": -76.98049633333333, "fusion_lon": 0.0, "lat": 38.920373166666664, "rental_uris": {"android": "https://dc.lft.to/lastmile_qr_scan", "ios": "https://dc.lft.to/lastmile_qr_scan"}, "fusion_lat": 0.0, "name": "bbc6404828ae49fd7fb9513772c5f348", "bike_id": "bbc6404828ae49fd7fb9513772c5f348"}, {"is_disabled": 0, "is_reserved": 0, "type": "electric_scooter", "lon": -77.03343, "fusion_lon": 0.0, "lat": 38.90963983333333, "rental_uris": {"android": "https://dc.lft.to/lastmile_qr_scan", "ios": "https://dc.lft.to/lastmile_qr_scan"}, "fusion_lat": 0.0, "name": "57f8c9e2b05054eeb49de124915cc4f5", "bike_id": "57f8c9e2b05054eeb49de124915cc4f5"}, {"is_disabled": 0, "is_reserved": 0, "type": "electric_scooter", "lon": -76.9488795, "fusion_lon": 0.0, "lat": 38.895125, "rental_uris": {"android": "https://dc.lft.to/lastmile_qr_scan", "ios": "https://dc.lft.to/lastmile_qr_scan"}, "fusion_lat": 0.0, "name": "6b47932a7a63f7be8dfb29bce0e8374e", "bike_id": "6b47932a7a63f7be8dfb29bce0e8374e"}, {"is_disabled": 0, "is_reserved": 0, "type": "electric_scooter", "lon": -77.05698916666667, "fusion_lon": 0.0, "lat": 38.904877166666665, "rental_uris": {"android": "https://dc.lft.to/lastmile_qr_scan", "ios": "https://dc.lft.to/lastmile_qr_scan"}, "fusion_lat": 0.0, "name": "ebc6dc0b7eaa43938d9fac1c9ee05128", "bike_id": "ebc6dc0b7eaa43938d9fac1c9ee05128"}, {"is_disabled": 0, "is_reserved": 0, "type": "electric_scooter", "lon": -76.98550983333334, "fusion_lon": 0.0, "lat": 38.90043716666667, "rental_uris": {"android": "https://dc.lft.to/lastmile_qr_scan", "ios": "https://dc.lft.to/lastmile_qr_scan"}, "fusion_lat": 0.0, "name": "5d88747bf717d5f22757aff1c47bb462", "bike_id": "5d88747bf717d5f22757aff1c47bb462"}, {"is_disabled": 0, "is_reserved": 0, "type": "electric_scooter", "lon": -77.0198935, "fusion_lon": 0.0, "lat": 38.89527833333333, "rental_uris": {"android": "https://dc.lft.to/lastmile_qr_scan", "ios": "https://dc.lft.to/lastmile_qr_scan"}, "fusion_lat": 0.0, "name": "552a52af3d006feae7282fece0fd31d5", "bike_id": "552a52af3d006feae7282fece0fd31d5"}, {"is_disabled": 0, "is_reserved": 0, "type": "electric_scooter", "lon": -77.02001333333334, "fusion_lon": 0.0, "lat": 38.9156675, "rental_uris": {"android": "https://dc.lft.to/lastmile_qr_scan", "ios": "https://dc.lft.to/lastmile_qr_scan"}, "fusion_lat": 0.0, "name": "ef4f786deca580338c793fc96d1c5622", "bike_id": "ef4f786deca580338c793fc96d1c5622"}, {"is_disabled": 0, "is_reserved": 0, "type": "electric_scooter", "lon": -77.03964266666667, "fusion_lon": 0.0, "lat": 38.907177833333336, "rental_uris": {"android": "https://dc.lft.to/lastmile_qr_scan", "ios": "https://dc.lft.to/lastmile_qr_scan"}, "fusion_lat": 0.0, "name": "126000dbb6385e60bf8c72350c195d89", "bike_id": "126000dbb6385e60bf8c72350c195d89"}, {"is_disabled": 0, "is_reserved": 0, "type": "electric_scooter", "lon": -77.01696583333333, "fusion_lon": 0.0, "lat": 38.902557333333334, "rental_uris": {"android": "https://dc.lft.to/lastmile_qr_scan", "ios": "https://dc.lft.to/lastmile_qr_scan"}, "fusion_lat": 0.0, "name": "6ef99792e789451f2adc4e1069bcb08d", "bike_id": "6ef99792e789451f2adc4e1069bcb08d"}, {"is_disabled": 0, "is_reserved": 0, "type": "electric_scooter", "lon": -77.04503666666666, "fusion_lon": 0.0, "lat": 38.921437833333336, "rental_uris": {"android": "https://dc.lft.to/lastmile_qr_scan", "ios": "https://dc.lft.to/lastmile_qr_scan"}, "fusion_lat": 0.0, "name": "9e049a79877e82abb3b19222f4fec172", "bike_id": "9e049a79877e82abb3b19222f4fec172"}, {"is_disabled": 0, "is_reserved": 0, "type": "electric_scooter", "lon": -77.02976216666667, "fusion_lon": 0.0, "lat": 38.92729816666667, "rental_uris": {"android": "https://dc.lft.to/lastmile_qr_scan", "ios": "https://dc.lft.to/lastmile_qr_scan"}, "fusion_lat": 0.0, "name": "3bc31940a96a809ab7264e1b661245bb", "bike_id": "3bc31940a96a809ab7264e1b661245bb"}, {"is_disabled": 0, "is_reserved": 0, "type": "electric_scooter", "lon": -77.04089366666666, "fusion_lon": 0.0, "lat": 38.911174, "rental_uris": {"android": "https://dc.lft.to/lastmile_qr_scan", "ios": "https://dc.lft.to/lastmile_qr_scan"}, "fusion_lat": 0.0, "name": "cd06627559e00c4e754f8c3fa5570b29", "bike_id": "cd06627559e00c4e754f8c3fa5570b29"}, {"is_disabled": 0, "is_reserved": 0, "type": "electric_scooter", "lon": -77.00604016666666, "fusion_lon": 0.0, "lat": 38.8748345, "rental_uris": {"android": "https://dc.lft.to/lastmile_qr_scan", "ios": "https://dc.lft.to/lastmile_qr_scan"}, "fusion_lat": 0.0, "name": "a632a64d8adf484f0319702581f59d16", "bike_id": "a632a64d8adf484f0319702581f59d16"}, {"is_disabled": 0, "is_reserved": 0, "type": "electric_scooter", "lon": -77.03329233333334, "fusion_lon": 0.0, "lat": 38.89815866666667, "rental_uris": {"android": "https://dc.lft.to/lastmile_qr_scan", "ios": "https://dc.lft.to/lastmile_qr_scan"}, "fusion_lat": 0.0, "name": "ce8b02816f27bba46d011471b81882e0", "bike_id": "ce8b02816f27bba46d011471b81882e0"}, {"is_disabled": 0, "is_reserved": 0, "type": "electric_scooter", "lon": -77.04287083333334, "fusion_lon": 0.0, "lat": 38.916559166666666, "rental_uris": {"android": "https://dc.lft.to/lastmile_qr_scan", "ios": "https://dc.lft.to/lastmile_qr_scan"}, "fusion_lat": 0.0, "name": "b4e0fe48bf2b7f90759f56bc6bc7ace6", "bike_id": "b4e0fe48bf2b7f90759f56bc6bc7ace6"}, {"is_disabled": 0, "is_reserved": 0, "type": "electric_scooter", "lon": -77.02165416666666, "fusion_lon": 0.0, "lat": 38.942948666666666, "rental_uris": {"android": "https://dc.lft.to/lastmile_qr_scan", "ios": "https://dc.lft.to/lastmile_qr_scan"}, "fusion_lat": 0.0, "name": "86bed87f70d0574e1e79e4491a24a580", "bike_id": "86bed87f70d0574e1e79e4491a24a580"}, {"is_disabled": 0, "is_reserved": 0, "type": "electric_scooter", "lon": -77.00435, "fusion_lon": 0.0, "lat": 38.87708766666667, "rental_uris": {"android": "https://dc.lft.to/lastmile_qr_scan", "ios": "https://dc.lft.to/lastmile_qr_scan"}, "fusion_lat": 0.0, "name": "e7b050ebcb44fe35b2826d3e2430589b", "bike_id": "e7b050ebcb44fe35b2826d3e2430589b"}, {"is_disabled": 0, "is_reserved": 0, "type": "electric_bike", "lon": -77.13230433333334, "fusion_lon": 0.0, "lat": 38.86974083333333, "rental_uris": {"android": "https://dc.lft.to/lastmile_qr_scan", "ios": "https://dc.lft.to/lastmile_qr_scan"}, "fusion_lat": 0.0, "name": "251703d3506a040e24e58687516954ba", "bike_id": "251703d3506a040e24e58687516954ba"}, {"is_disabled": 0, "is_reserved": 0, "type": "electric_scooter", "lon": -77.06605766666667, "fusion_lon": 0.0, "lat": 38.90738183333333, "rental_uris": {"android": "https://dc.lft.to/lastmile_qr_scan", "ios": "https://dc.lft.to/lastmile_qr_scan"}, "fusion_lat": 0.0, "name": "3be30a317d48cba08a7bcd2cf43fd22c", "bike_id": "3be30a317d48cba08a7bcd2cf43fd22c"}, {"is_disabled": 0, "is_reserved": 0, "type": "electric_scooter", "lon": -77.03598983333333, "fusion_lon": 0.0, "lat": 38.91693083333333, "rental_uris": {"android": "https://dc.lft.to/lastmile_qr_scan", "ios": "https://dc.lft.to/lastmile_qr_scan"}, "fusion_lat": 0.0, "name": "1ffe54e4b54989b4525781a0b469bf6c", "bike_id": "1ffe54e4b54989b4525781a0b469bf6c"}, {"is_disabled": 0, "is_reserved": 0, "type": "electric_scooter", "lon": -77.00583466666667, "fusion_lon": 0.0, "lat": 38.87522166666667, "rental_uris": {"android": "https://dc.lft.to/lastmile_qr_scan", "ios": "https://dc.lft.to/lastmile_qr_scan"}, "fusion_lat": 0.0, "name": "e1558cd93e5c864978a261873d124018", "bike_id": "e1558cd93e5c864978a261873d124018"}, {"is_disabled": 0, "is_reserved": 0, "type": "electric_scooter", "lon": -77.02538016666666, "fusion_lon": 0.0, "lat": 38.90068516666667, "rental_uris": {"android": "https://dc.lft.to/lastmile_qr_scan", "ios": "https://dc.lft.to/lastmile_qr_scan"}, "fusion_lat": 0.0, "name": "5010b8135a9559357ee0813b6adf9007", "bike_id": "5010b8135a9559357ee0813b6adf9007"}, {"is_disabled": 0, "is_reserved": 0, "type": "electric_scooter", "lon": -77.028063, "fusion_lon": 0.0, "lat": 38.907421, "rental_uris": {"android": "https://dc.lft.to/lastmile_qr_scan", "ios": "https://dc.lft.to/lastmile_qr_scan"}, "fusion_lat": 0.0, "name": "b08da3db975551f079a5d4c4cea60bf8", "bike_id": "b08da3db975551f079a5d4c4cea60bf8"}, {"is_disabled": 0, "is_reserved": 0, "type": "electric_scooter", "lon": -77.03122166666667, "fusion_lon": 0.0, "lat": 38.9201205, "rental_uris": {"android": "https://dc.lft.to/lastmile_qr_scan", "ios": "https://dc.lft.to/lastmile_qr_scan"}, "fusion_lat": 0.0, "name": "f55ffc39d5c293fd24fe2a877cbe0a56", "bike_id": "f55ffc39d5c293fd24fe2a877cbe0a56"}, {"is_disabled": 0, "is_reserved": 0, "type": "electric_scooter", "lon": -77.01536983333334, "fusion_lon": 0.0, "lat": 38.88626516666667, "rental_uris": {"android": "https://dc.lft.to/lastmile_qr_scan", "ios": "https://dc.lft.to/lastmile_qr_scan"}, "fusion_lat": 0.0, "name": "75f6a1869e8e867c7859c51eb82be040", "bike_id": "75f6a1869e8e867c7859c51eb82be040"}, {"is_disabled": 0, "is_reserved": 0, "type": "electric_scooter", "lon": -77.02768016666667, "fusion_lon": 0.0, "lat": 38.881638, "rental_uris": {"android": "https://dc.lft.to/lastmile_qr_scan", "ios": "https://dc.lft.to/lastmile_qr_scan"}, "fusion_lat": 0.0, "name": "d52d1a14f6edb1c994d7ae1c1503ecb4", "bike_id": "d52d1a14f6edb1c994d7ae1c1503ecb4"}, {"is_disabled": 0, "is_reserved": 0, "type": "electric_scooter", "lon": -77.00365266666667, "fusion_lon": 0.0, "lat": 38.877580333333334, "rental_uris": {"android": "https://dc.lft.to/lastmile_qr_scan", "ios": "https://dc.lft.to/lastmile_qr_scan"}, "fusion_lat": 0.0, "name": "30d419f1376680fac8bcb06bde6ae3d7", "bike_id": "30d419f1376680fac8bcb06bde6ae3d7"}, {"is_disabled": 0, "is_reserved": 0, "type": "electric_scooter", "lon": -77.06369, "fusion_lon": 0.0, "lat": 38.94460683333333, "rental_uris": {"android": "https://dc.lft.to/lastmile_qr_scan", "ios": "https://dc.lft.to/lastmile_qr_scan"}, "fusion_lat": 0.0, "name": "e334085a024c5a38947da1db76fe9b9a", "bike_id": "e334085a024c5a38947da1db76fe9b9a"}, {"is_disabled": 0, "is_reserved": 0, "type": "electric_scooter", "lon": -77.02471116666666, "fusion_lon": 0.0, "lat": 38.9377375, "rental_uris": {"android": "https://dc.lft.to/lastmile_qr_scan", "ios": "https://dc.lft.to/lastmile_qr_scan"}, "fusion_lat": 0.0, "name": "42522faea20c1752854a382dcdbbd0e3", "bike_id": "42522faea20c1752854a382dcdbbd0e3"}, {"is_disabled": 0, "is_reserved": 0, "type": "electric_scooter", "lon": -77.01001616666667, "fusion_lon": 0.0, "lat": 38.872097, "rental_uris": {"android": "https://dc.lft.to/lastmile_qr_scan", "ios": "https://dc.lft.to/lastmile_qr_scan"}, "fusion_lat": 0.0, "name": "e4d1b404d36f290fc4970b9822a459ef", "bike_id": "e4d1b404d36f290fc4970b9822a459ef"}, {"is_disabled": 0, "is_reserved": 0, "type": "electric_bike", "lon": -77.16229766666666, "fusion_lon": 0.0, "lat": 38.88669066666667, "rental_uris": {"android": "https://dc.lft.to/lastmile_qr_scan", "ios": "https://dc.lft.to/lastmile_qr_scan"}, "fusion_lat": 0.0, "name": "db7ba04d3aeb24239ca1e2dd1a7ee528", "bike_id": "db7ba04d3aeb24239ca1e2dd1a7ee528"}, {"is_disabled": 0, "is_reserved": 0, "type": "electric_scooter", "lon": -77.00765016666666, "fusion_lon": 0.0, "lat": 38.90062433333333, "rental_uris": {"android": "https://dc.lft.to/lastmile_qr_scan", "ios": "https://dc.lft.to/lastmile_qr_scan"}, "fusion_lat": 0.0, "name": "c35ef4e757adbb8b8783e338638e5791", "bike_id": "c35ef4e757adbb8b8783e338638e5791"}, {"is_disabled": 0, "is_reserved": 0, "type": "electric_scooter", "lon": -76.98681083333334, "fusion_lon": 0.0, "lat": 38.855656833333335, "rental_uris": {"android": "https://dc.lft.to/lastmile_qr_scan", "ios": "https://dc.lft.to/lastmile_qr_scan"}, "fusion_lat": 0.0, "name": "317b7537ce8745d08d3774ba25ca58cb", "bike_id": "317b7537ce8745d08d3774ba25ca58cb"}, {"is_disabled": 0, "is_reserved": 0, "type": "electric_scooter", "lon": -77.04611933333334, "fusion_lon": 0.0, "lat": 38.899615833333336, "rental_uris": {"android": "https://dc.lft.to/lastmile_qr_scan", "ios": "https://dc.lft.to/lastmile_qr_scan"}, "fusion_lat": 0.0, "name": "ebf74d8a8b9a1d9f933779b172e9867e", "bike_id": "ebf74d8a8b9a1d9f933779b172e9867e"}, {"is_disabled": 0, "is_reserved": 0, "type": "electric_scooter", "lon": -77.02227766666667, "fusion_lon": 0.0, "lat": 38.905668666666664, "rental_uris": {"android": "https://dc.lft.to/lastmile_qr_scan", "ios": "https://dc.lft.to/lastmile_qr_scan"}, "fusion_lat": 0.0, "name": "432acaaa49fc72a9a8d5ec9af80365a6", "bike_id": "432acaaa49fc72a9a8d5ec9af80365a6"}, {"is_disabled": 0, "is_reserved": 0, "type": "electric_scooter", "lon": -77.04195216666666, "fusion_lon": 0.0, "lat": 38.908025333333335, "rental_uris": {"android": "https://dc.lft.to/lastmile_qr_scan", "ios": "https://dc.lft.to/lastmile_qr_scan"}, "fusion_lat": 0.0, "name": "bcfcd2714a196c822dbaf946c002d265", "bike_id": "bcfcd2714a196c822dbaf946c002d265"}, {"is_disabled": 0, "is_reserved": 0, "type": "electric_scooter", "lon": -77.02720133333334, "fusion_lon": 0.0, "lat": 38.92481266666667, "rental_uris": {"android": "https://dc.lft.to/lastmile_qr_scan", "ios": "https://dc.lft.to/lastmile_qr_scan"}, "fusion_lat": 0.0, "name": "5dd07f0459497209c124dd5a410c8bb8", "bike_id": "5dd07f0459497209c124dd5a410c8bb8"}, {"is_disabled": 0, "is_reserved": 0, "type": "electric_scooter", "lon": -77.01253316666667, "fusion_lon": 0.0, "lat": 38.87489583333333, "rental_uris": {"android": "https://dc.lft.to/lastmile_qr_scan", "ios": "https://dc.lft.to/lastmile_qr_scan"}, "fusion_lat": 0.0, "name": "a66b05f80443771cddb8ab82afb26352", "bike_id": "a66b05f80443771cddb8ab82afb26352"}, {"is_disabled": 0, "is_reserved": 0, "type": "electric_scooter", "lon": -77.02701066666667, "fusion_lon": 0.0, "lat": 38.91967183333333, "rental_uris": {"android": "https://dc.lft.to/lastmile_qr_scan", "ios": "https://dc.lft.to/lastmile_qr_scan"}, "fusion_lat": 0.0, "name": "0f90da3125911e59892fa3be5ec5a60a", "bike_id": "0f90da3125911e59892fa3be5ec5a60a"}, {"is_disabled": 0, "is_reserved": 0, "type": "electric_scooter", "lon": -76.9411925, "fusion_lon": 0.0, "lat": 38.907941, "rental_uris": {"android": "https://dc.lft.to/lastmile_qr_scan", "ios": "https://dc.lft.to/lastmile_qr_scan"}, "fusion_lat": 0.0, "name": "f3abe3a4936f73e7e8a55136771e4943", "bike_id": "f3abe3a4936f73e7e8a55136771e4943"}, {"is_disabled": 0, "is_reserved": 0, "type": "electric_scooter", "lon": -77.00899066666666, "fusion_lon": 0.0, "lat": 38.91286566666667, "rental_uris": {"android": "https://dc.lft.to/lastmile_qr_scan", "ios": "https://dc.lft.to/lastmile_qr_scan"}, "fusion_lat": 0.0, "name": "220c2a5f5e20b6e5c31be6e6f787d23b", "bike_id": "220c2a5f5e20b6e5c31be6e6f787d23b"}, {"is_disabled": 0, "is_reserved": 0, "type": "electric_scooter", "lon": -76.993952, "fusion_lon": 0.0, "lat": 38.9211705, "rental_uris": {"android": "https://dc.lft.to/lastmile_qr_scan", "ios": "https://dc.lft.to/lastmile_qr_scan"}, "fusion_lat": 0.0, "name": "3f7570121d231542aa685a7046d98083", "bike_id": "3f7570121d231542aa685a7046d98083"}, {"is_disabled": 0, "is_reserved": 0, "type": "electric_scooter", "lon": -77.046592, "fusion_lon": 0.0, "lat": 38.89240316666667, "rental_uris": {"android": "https://dc.lft.to/lastmile_qr_scan", "ios": "https://dc.lft.to/lastmile_qr_scan"}, "fusion_lat": 0.0, "name": "03ca7cf13af393b7277f20d0fe9569bf", "bike_id": "03ca7cf13af393b7277f20d0fe9569bf"}, {"is_disabled": 0, "is_reserved": 0, "type": "electric_scooter", "lon": -77.02841033333333, "fusion_lon": 0.0, "lat": 38.93755816666667, "rental_uris": {"android": "https://dc.lft.to/lastmile_qr_scan", "ios": "https://dc.lft.to/lastmile_qr_scan"}, "fusion_lat": 0.0, "name": "18efeb5e7e4e755eb9c3cb4e0f60085e", "bike_id": "18efeb5e7e4e755eb9c3cb4e0f60085e"}, {"is_disabled": 0, "is_reserved": 0, "type": "electric_scooter", "lon": -77.02603433333333, "fusion_lon": 0.0, "lat": 38.916365, "rental_uris": {"android": "https://dc.lft.to/lastmile_qr_scan", "ios": "https://dc.lft.to/lastmile_qr_scan"}, "fusion_lat": 0.0, "name": "ec4c48e97d123fd3d3ff0b103157876c", "bike_id": "ec4c48e97d123fd3d3ff0b103157876c"}, {"is_disabled": 0, "is_reserved": 0, "type": "electric_bike", "lon": -76.93226383333334, "fusion_lon": 0.0, "lat": 38.865967166666664, "rental_uris": {"android": "https://dc.lft.to/lastmile_qr_scan", "ios": "https://dc.lft.to/lastmile_qr_scan"}, "fusion_lat": 0.0, "name": "1c82f60677335534c14117d38604f58a", "bike_id": "1c82f60677335534c14117d38604f58a"}, {"is_disabled": 0, "is_reserved": 0, "type": "electric_scooter", "lon": -77.03682633333334, "fusion_lon": 0.0, "lat": 38.90841616666667, "rental_uris": {"android": "https://dc.lft.to/lastmile_qr_scan", "ios": "https://dc.lft.to/lastmile_qr_scan"}, "fusion_lat": 0.0, "name": "7d6312e54f86ca073042100e4f7426cd", "bike_id": "7d6312e54f86ca073042100e4f7426cd"}, {"is_disabled": 0, "is_reserved": 0, "type": "electric_scooter", "lon": -77.0474035, "fusion_lon": 0.0, "lat": 38.906089333333334, "rental_uris": {"android": "https://dc.lft.to/lastmile_qr_scan", "ios": "https://dc.lft.to/lastmile_qr_scan"}, "fusion_lat": 0.0, "name": "8cc1cbd7d1c6a495949a2e0469ec69e5", "bike_id": "8cc1cbd7d1c6a495949a2e0469ec69e5"}, {"is_disabled": 0, "is_reserved": 0, "type": "electric_scooter", "lon": -77.01825983333333, "fusion_lon": 0.0, "lat": 38.922123, "rental_uris": {"android": "https://dc.lft.to/lastmile_qr_scan", "ios": "https://dc.lft.to/lastmile_qr_scan"}, "fusion_lat": 0.0, "name": "108db1da236038e2ed65a69f3e7fe18b", "bike_id": "108db1da236038e2ed65a69f3e7fe18b"}, {"is_disabled": 0, "is_reserved": 0, "type": "electric_scooter", "lon": -76.9877265, "fusion_lon": 0.0, "lat": 38.91173583333333, "rental_uris": {"android": "https://dc.lft.to/lastmile_qr_scan", "ios": "https://dc.lft.to/lastmile_qr_scan"}, "fusion_lat": 0.0, "name": "7edaa765c1a62d5c8f83c9a4a8a732c9", "bike_id": "7edaa765c1a62d5c8f83c9a4a8a732c9"}, {"is_disabled": 0, "is_reserved": 0, "type": "electric_bike", "lon": -77.12582116666667, "fusion_lon": 0.0, "lat": 38.85144316666667, "rental_uris": {"android": "https://dc.lft.to/lastmile_qr_scan", "ios": "https://dc.lft.to/lastmile_qr_scan"}, "fusion_lat": 0.0, "name": "bdeaf76b302d298ced5b4a70bf129ef6", "bike_id": "bdeaf76b302d298ced5b4a70bf129ef6"}, {"is_disabled": 0, "is_reserved": 0, "type": "electric_scooter", "lon": -77.02359633333333, "fusion_lon": 0.0, "lat": 38.91967983333333, "rental_uris": {"android": "https://dc.lft.to/lastmile_qr_scan", "ios": "https://dc.lft.to/lastmile_qr_scan"}, "fusion_lat": 0.0, "name": "e6e88ece79c8c687e450308035f0e0e3", "bike_id": "e6e88ece79c8c687e450308035f0e0e3"}, {"is_disabled": 0, "is_reserved": 0, "type": "electric_scooter", "lon": -77.03196933333334, "fusion_lon": 0.0, "lat": 38.91765816666667, "rental_uris": {"android": "https://dc.lft.to/lastmile_qr_scan", "ios": "https://dc.lft.to/lastmile_qr_scan"}, "fusion_lat": 0.0, "name": "d896ede4dfef774026562638aaf9db86", "bike_id": "d896ede4dfef774026562638aaf9db86"}, {"is_disabled": 0, "is_reserved": 0, "type": "electric_scooter", "lon": -76.9969905, "fusion_lon": 0.0, "lat": 38.838492, "rental_uris": {"android": "https://dc.lft.to/lastmile_qr_scan", "ios": "https://dc.lft.to/lastmile_qr_scan"}, "fusion_lat": 0.0, "name": "a94eb58c5723563b2633ed8cb7e6a81f", "bike_id": "a94eb58c5723563b2633ed8cb7e6a81f"}, {"is_disabled": 0, "is_reserved": 0, "type": "electric_scooter", "lon": -77.03752683333333, "fusion_lon": 0.0, "lat": 38.912707166666664, "rental_uris": {"android": "https://dc.lft.to/lastmile_qr_scan", "ios": "https://dc.lft.to/lastmile_qr_scan"}, "fusion_lat": 0.0, "name": "9a5798dae49756a99b8176f8deb9e8b4", "bike_id": "9a5798dae49756a99b8176f8deb9e8b4"}, {"is_disabled": 0, "is_reserved": 0, "type": "electric_scooter", "lon": -77.03421883333333, "fusion_lon": 0.0, "lat": 38.935426, "rental_uris": {"android": "https://dc.lft.to/lastmile_qr_scan", "ios": "https://dc.lft.to/lastmile_qr_scan"}, "fusion_lat": 0.0, "name": "2502f86d491f2e10f2d8240f807f5370", "bike_id": "2502f86d491f2e10f2d8240f807f5370"}, {"is_disabled": 0, "is_reserved": 0, "type": "electric_scooter", "lon": -76.940578, "fusion_lon": 0.0, "lat": 38.890170499999996, "rental_uris": {"android": "https://dc.lft.to/lastmile_qr_scan", "ios": "https://dc.lft.to/lastmile_qr_scan"}, "fusion_lat": 0.0, "name": "a22fa5dba732bf04bb115cd0ca4c25b8", "bike_id": "a22fa5dba732bf04bb115cd0ca4c25b8"}, {"is_disabled": 0, "is_reserved": 0, "type": "electric_scooter", "lon": -76.99677916666667, "fusion_lon": 0.0, "lat": 38.90815, "rental_uris": {"android": "https://dc.lft.to/lastmile_qr_scan", "ios": "https://dc.lft.to/lastmile_qr_scan"}, "fusion_lat": 0.0, "name": "78ba0b256c57eb89d609581687288f25", "bike_id": "78ba0b256c57eb89d609581687288f25"}, {"is_disabled": 0, "is_reserved": 0, "type": "electric_scooter", "lon": -77.0108375, "fusion_lon": 0.0, "lat": 38.9037155, "rental_uris": {"android": "https://dc.lft.to/lastmile_qr_scan", "ios": "https://dc.lft.to/lastmile_qr_scan"}, "fusion_lat": 0.0, "name": "90a98f9e8f58a4cfd1028e31ab6349ce", "bike_id": "90a98f9e8f58a4cfd1028e31ab6349ce"}, {"is_disabled": 0, "is_reserved": 0, "type": "electric_scooter", "lon": -77.0255765, "fusion_lon": 0.0, "lat": 38.89225, "rental_uris": {"android": "https://dc.lft.to/lastmile_qr_scan", "ios": "https://dc.lft.to/lastmile_qr_scan"}, "fusion_lat": 0.0, "name": "ed9fb1c51447a8f0993e1960131913fb", "bike_id": "ed9fb1c51447a8f0993e1960131913fb"}, {"is_disabled": 0, "is_reserved": 0, "type": "electric_scooter", "lon": -76.99953066666667, "fusion_lon": 0.0, "lat": 38.8428385, "rental_uris": {"android": "https://dc.lft.to/lastmile_qr_scan", "ios": "https://dc.lft.to/lastmile_qr_scan"}, "fusion_lat": 0.0, "name": "95189330864d688a6b16d5d59f9cad14", "bike_id": "95189330864d688a6b16d5d59f9cad14"}, {"is_disabled": 0, "is_reserved": 0, "type": "electric_scooter", "lon": -77.03154583333334, "fusion_lon": 0.0, "lat": 38.916055666666665, "rental_uris": {"android": "https://dc.lft.to/lastmile_qr_scan", "ios": "https://dc.lft.to/lastmile_qr_scan"}, "fusion_lat": 0.0, "name": "56681fe37c23ff7ab1222058f2f39c33", "bike_id": "56681fe37c23ff7ab1222058f2f39c33"}, {"is_disabled": 0, "is_reserved": 0, "type": "electric_bike", "lon": -76.94955016666667, "fusion_lon": 0.0, "lat": 38.935039833333335, "rental_uris": {"android": "https://dc.lft.to/lastmile_qr_scan", "ios": "https://dc.lft.to/lastmile_qr_scan"}, "fusion_lat": 0.0, "name": "1b4a118da64b95f29523effbfc10e0d9", "bike_id": "1b4a118da64b95f29523effbfc10e0d9"}, {"is_disabled": 0, "is_reserved": 0, "type": "electric_scooter", "lon": -76.989713, "fusion_lon": 0.0, "lat": 38.902452, "rental_uris": {"android": "https://dc.lft.to/lastmile_qr_scan", "ios": "https://dc.lft.to/lastmile_qr_scan"}, "fusion_lat": 0.0, "name": "0f88660c455581fd407512af59c943df", "bike_id": "0f88660c455581fd407512af59c943df"}, {"is_disabled": 0, "is_reserved": 0, "type": "electric_scooter", "lon": -77.00714866666667, "fusion_lon": 0.0, "lat": 38.884929, "rental_uris": {"android": "https://dc.lft.to/lastmile_qr_scan", "ios": "https://dc.lft.to/lastmile_qr_scan"}, "fusion_lat": 0.0, "name": "baae2b08522acab913673b1fb1b584eb", "bike_id": "baae2b08522acab913673b1fb1b584eb"}, {"is_disabled": 0, "is_reserved": 0, "type": "electric_scooter", "lon": -77.03661716666667, "fusion_lon": 0.0, "lat": 38.902942, "rental_uris": {"android": "https://dc.lft.to/lastmile_qr_scan", "ios": "https://dc.lft.to/lastmile_qr_scan"}, "fusion_lat": 0.0, "name": "518e1c768e9cff1188e3cd2103abd881", "bike_id": "518e1c768e9cff1188e3cd2103abd881"}, {"is_disabled": 0, "is_reserved": 0, "type": "electric_scooter", "lon": -77.05003133333334, "fusion_lon": 0.0, "lat": 38.89231916666667, "rental_uris": {"android": "https://dc.lft.to/lastmile_qr_scan", "ios": "https://dc.lft.to/lastmile_qr_scan"}, "fusion_lat": 0.0, "name": "358a51d69dfce1eeef7c852cb15d06ef", "bike_id": "358a51d69dfce1eeef7c852cb15d06ef"}, {"is_disabled": 0, "is_reserved": 0, "type": "electric_scooter", "lon": -77.02982383333334, "fusion_lon": 0.0, "lat": 38.907249666666665, "rental_uris": {"android": "https://dc.lft.to/lastmile_qr_scan", "ios": "https://dc.lft.to/lastmile_qr_scan"}, "fusion_lat": 0.0, "name": "0c460543c52ed0ec6111b7804284dcc4", "bike_id": "0c460543c52ed0ec6111b7804284dcc4"}, {"is_disabled": 0, "is_reserved": 0, "type": "electric_scooter", "lon": -77.01965516666667, "fusion_lon": 0.0, "lat": 38.930396333333334, "rental_uris": {"android": "https://dc.lft.to/lastmile_qr_scan", "ios": "https://dc.lft.to/lastmile_qr_scan"}, "fusion_lat": 0.0, "name": "351eff1728fa230a797975e1067060a1", "bike_id": "351eff1728fa230a797975e1067060a1"}, {"is_disabled": 0, "is_reserved": 0, "type": "electric_scooter", "lon": -77.04506616666667, "fusion_lon": 0.0, "lat": 38.912264, "rental_uris": {"android": "https://dc.lft.to/lastmile_qr_scan", "ios": "https://dc.lft.to/lastmile_qr_scan"}, "fusion_lat": 0.0, "name": "1af47494c0bad22f8391d4470ed9a080", "bike_id": "1af47494c0bad22f8391d4470ed9a080"}, {"is_disabled": 0, "is_reserved": 0, "type": "electric_scooter", "lon": -77.03153383333333, "fusion_lon": 0.0, "lat": 38.92033933333333, "rental_uris": {"android": "https://dc.lft.to/lastmile_qr_scan", "ios": "https://dc.lft.to/lastmile_qr_scan"}, "fusion_lat": 0.0, "name": "50dfd95f3709812672a87dcab8243c3e", "bike_id": "50dfd95f3709812672a87dcab8243c3e"}, {"is_disabled": 0, "is_reserved": 0, "type": "electric_scooter", "lon": -76.965318, "fusion_lon": 0.0, "lat": 38.876323, "rental_uris": {"android": "https://dc.lft.to/lastmile_qr_scan", "ios": "https://dc.lft.to/lastmile_qr_scan"}, "fusion_lat": 0.0, "name": "417215c88cedda58596c00764d54aefb", "bike_id": "417215c88cedda58596c00764d54aefb"}, {"is_disabled": 0, "is_reserved": 0, "type": "electric_scooter", "lon": -77.02713966666667, "fusion_lon": 0.0, "lat": 38.896382833333334, "rental_uris": {"android": "https://dc.lft.to/lastmile_qr_scan", "ios": "https://dc.lft.to/lastmile_qr_scan"}, "fusion_lat": 0.0, "name": "1af1f2383f2dd70f2c4587dae6667557", "bike_id": "1af1f2383f2dd70f2c4587dae6667557"}, {"is_disabled": 0, "is_reserved": 0, "type": "electric_scooter", "lon": -77.01758433333333, "fusion_lon": 0.0, "lat": 38.8768995, "rental_uris": {"android": "https://dc.lft.to/lastmile_qr_scan", "ios": "https://dc.lft.to/lastmile_qr_scan"}, "fusion_lat": 0.0, "name": "61e92d565b06cb3b758cd1552842b198", "bike_id": "61e92d565b06cb3b758cd1552842b198"}, {"is_disabled": 0, "is_reserved": 0, "type": "electric_scooter", "lon": -77.02249416666666, "fusion_lon": 0.0, "lat": 38.924726, "rental_uris": {"android": "https://dc.lft.to/lastmile_qr_scan", "ios": "https://dc.lft.to/lastmile_qr_scan"}, "fusion_lat": 0.0, "name": "ce8232d401163d35fbd658385dd7212d", "bike_id": "ce8232d401163d35fbd658385dd7212d"}, {"is_disabled": 0, "is_reserved": 0, "type": "electric_scooter", "lon": -77.03861133333334, "fusion_lon": 0.0, "lat": 38.90809216666667, "rental_uris": {"android": "https://dc.lft.to/lastmile_qr_scan", "ios": "https://dc.lft.to/lastmile_qr_scan"}, "fusion_lat": 0.0, "name": "698eaeb38ef669ccb9a2125c076170ab", "bike_id": "698eaeb38ef669ccb9a2125c076170ab"}, {"is_disabled": 0, "is_reserved": 0, "type": "electric_scooter", "lon": -77.01617716666667, "fusion_lon": 0.0, "lat": 38.878710833333336, "rental_uris": {"android": "https://dc.lft.to/lastmile_qr_scan", "ios": "https://dc.lft.to/lastmile_qr_scan"}, "fusion_lat": 0.0, "name": "9944dcceae425dcc6383d82be2db54fe", "bike_id": "9944dcceae425dcc6383d82be2db54fe"}, {"is_disabled": 0, "is_reserved": 0, "type": "electric_scooter", "lon": -77.05527633333334, "fusion_lon": 0.0, "lat": 38.93016016666667, "rental_uris": {"android": "https://dc.lft.to/lastmile_qr_scan", "ios": "https://dc.lft.to/lastmile_qr_scan"}, "fusion_lat": 0.0, "name": "b2ee0c8b4b23580f48fafd28df9c937f", "bike_id": "b2ee0c8b4b23580f48fafd28df9c937f"}, {"is_disabled": 0, "is_reserved": 0, "type": "electric_scooter", "lon": -77.037464, "fusion_lon": 0.0, "lat": 38.929101833333334, "rental_uris": {"android": "https://dc.lft.to/lastmile_qr_scan", "ios": "https://dc.lft.to/lastmile_qr_scan"}, "fusion_lat": 0.0, "name": "bad6b408094525b2e5bff49b80fab831", "bike_id": "bad6b408094525b2e5bff49b80fab831"}, {"is_disabled": 0, "is_reserved": 0, "type": "electric_bike", "lon": -76.97081583333333, "fusion_lon": 0.0, "lat": 38.892198, "rental_uris": {"android": "https://dc.lft.to/lastmile_qr_scan", "ios": "https://dc.lft.to/lastmile_qr_scan"}, "fusion_lat": 0.0, "name": "c7e5324220df3c124b6bef9afb82706c", "bike_id": "c7e5324220df3c124b6bef9afb82706c"}, {"is_disabled": 0, "is_reserved": 0, "type": "electric_scooter", "lon": -77.0344525, "fusion_lon": 0.0, "lat": 38.91725566666667, "rental_uris": {"android": "https://dc.lft.to/lastmile_qr_scan", "ios": "https://dc.lft.to/lastmile_qr_scan"}, "fusion_lat": 0.0, "name": "047104de0779d18850039eb03036e4a2", "bike_id": "047104de0779d18850039eb03036e4a2"}, {"is_disabled": 0, "is_reserved": 0, "type": "electric_scooter", "lon": -77.057936, "fusion_lon": 0.0, "lat": 38.934776166666666, "rental_uris": {"android": "https://dc.lft.to/lastmile_qr_scan", "ios": "https://dc.lft.to/lastmile_qr_scan"}, "fusion_lat": 0.0, "name": "d8ba90ea0890a30732cf75dcc2c72396", "bike_id": "d8ba90ea0890a30732cf75dcc2c72396"}, {"is_disabled": 0, "is_reserved": 0, "type": "electric_scooter", "lon": -77.00496216666667, "fusion_lon": 0.0, "lat": 38.895740833333335, "rental_uris": {"android": "https://dc.lft.to/lastmile_qr_scan", "ios": "https://dc.lft.to/lastmile_qr_scan"}, "fusion_lat": 0.0, "name": "a312085aadaa5388ffed06b016677c34", "bike_id": "a312085aadaa5388ffed06b016677c34"}, {"is_disabled": 0, "is_reserved": 0, "type": "electric_scooter", "lon": -77.03553583333333, "fusion_lon": 0.0, "lat": 38.92753066666667, "rental_uris": {"android": "https://dc.lft.to/lastmile_qr_scan", "ios": "https://dc.lft.to/lastmile_qr_scan"}, "fusion_lat": 0.0, "name": "d1c7c9235ba83210114e19e32196c332", "bike_id": "d1c7c9235ba83210114e19e32196c332"}, {"is_disabled": 0, "is_reserved": 0, "type": "electric_scooter", "lon": -76.98834633333334, "fusion_lon": 0.0, "lat": 38.90048816666667, "rental_uris": {"android": "https://dc.lft.to/lastmile_qr_scan", "ios": "https://dc.lft.to/lastmile_qr_scan"}, "fusion_lat": 0.0, "name": "210cde164ce1684c8a5ce92a8145e5c6", "bike_id": "210cde164ce1684c8a5ce92a8145e5c6"}, {"is_disabled": 0, "is_reserved": 0, "type": "electric_scooter", "lon": -77.0372935, "fusion_lon": 0.0, "lat": 38.917091666666664, "rental_uris": {"android": "https://dc.lft.to/lastmile_qr_scan", "ios": "https://dc.lft.to/lastmile_qr_scan"}, "fusion_lat": 0.0, "name": "ec42f93f5f208b07714a6aeda5023620", "bike_id": "ec42f93f5f208b07714a6aeda5023620"}, {"is_disabled": 0, "is_reserved": 0, "type": "electric_scooter", "lon": -77.02832083333334, "fusion_lon": 0.0, "lat": 38.887298, "rental_uris": {"android": "https://dc.lft.to/lastmile_qr_scan", "ios": "https://dc.lft.to/lastmile_qr_scan"}, "fusion_lat": 0.0, "name": "b4bc47f377f2979660aeca295c36cb69", "bike_id": "b4bc47f377f2979660aeca295c36cb69"}, {"is_disabled": 0, "is_reserved": 0, "type": "electric_scooter", "lon": -77.02140783333333, "fusion_lon": 0.0, "lat": 38.896049166666664, "rental_uris": {"android": "https://dc.lft.to/lastmile_qr_scan", "ios": "https://dc.lft.to/lastmile_qr_scan"}, "fusion_lat": 0.0, "name": "15f32482aaae0c6c05d075df5c36495e", "bike_id": "15f32482aaae0c6c05d075df5c36495e"}, {"is_disabled": 0, "is_reserved": 0, "type": "electric_scooter", "lon": -77.03480033333334, "fusion_lon": 0.0, "lat": 38.9214455, "rental_uris": {"android": "https://dc.lft.to/lastmile_qr_scan", "ios": "https://dc.lft.to/lastmile_qr_scan"}, "fusion_lat": 0.0, "name": "bcfd27eb54835b818da77befbaccff19", "bike_id": "bcfd27eb54835b818da77befbaccff19"}, {"is_disabled": 0, "is_reserved": 0, "type": "electric_scooter", "lon": -77.00422816666666, "fusion_lon": 0.0, "lat": 38.876948166666665, "rental_uris": {"android": "https://dc.lft.to/lastmile_qr_scan", "ios": "https://dc.lft.to/lastmile_qr_scan"}, "fusion_lat": 0.0, "name": "6c3d05ed008ccebd9b75fde975554bae", "bike_id": "6c3d05ed008ccebd9b75fde975554bae"}, {"is_disabled": 0, "is_reserved": 0, "type": "electric_scooter", "lon": -76.9978965, "fusion_lon": 0.0, "lat": 38.94830566666667, "rental_uris": {"android": "https://dc.lft.to/lastmile_qr_scan", "ios": "https://dc.lft.to/lastmile_qr_scan"}, "fusion_lat": 0.0, "name": "fab9c2524fc08ad58bdb445d02991f38", "bike_id": "fab9c2524fc08ad58bdb445d02991f38"}, {"is_disabled": 0, "is_reserved": 0, "type": "electric_scooter", "lon": -77.04665866666667, "fusion_lon": 0.0, "lat": 38.907400833333334, "rental_uris": {"android": "https://dc.lft.to/lastmile_qr_scan", "ios": "https://dc.lft.to/lastmile_qr_scan"}, "fusion_lat": 0.0, "name": "db12a1580f59178173be7d323886dac3", "bike_id": "db12a1580f59178173be7d323886dac3"}, {"is_disabled": 0, "is_reserved": 0, "type": "electric_scooter", "lon": -77.06135183333333, "fusion_lon": 0.0, "lat": 38.943665833333334, "rental_uris": {"android": "https://dc.lft.to/lastmile_qr_scan", "ios": "https://dc.lft.to/lastmile_qr_scan"}, "fusion_lat": 0.0, "name": "a15b22d95a88faf20f6e51685c376548", "bike_id": "a15b22d95a88faf20f6e51685c376548"}, {"is_disabled": 0, "is_reserved": 0, "type": "electric_scooter", "lon": -77.01790733333333, "fusion_lon": 0.0, "lat": 38.902797, "rental_uris": {"android": "https://dc.lft.to/lastmile_qr_scan", "ios": "https://dc.lft.to/lastmile_qr_scan"}, "fusion_lat": 0.0, "name": "47915e443618f698eb8e715cf5d4815a", "bike_id": "47915e443618f698eb8e715cf5d4815a"}, {"is_disabled": 0, "is_reserved": 0, "type": "electric_scooter", "lon": -77.03447333333334, "fusion_lon": 0.0, "lat": 38.934347333333335, "rental_uris": {"android": "https://dc.lft.to/lastmile_qr_scan", "ios": "https://dc.lft.to/lastmile_qr_scan"}, "fusion_lat": 0.0, "name": "be6c5fefa5890e1b99888df5dd095b46", "bike_id": "be6c5fefa5890e1b99888df5dd095b46"}, {"is_disabled": 0, "is_reserved": 0, "type": "electric_scooter", "lon": -77.061688, "fusion_lon": 0.0, "lat": 38.906972, "rental_uris": {"android": "https://dc.lft.to/lastmile_qr_scan", "ios": "https://dc.lft.to/lastmile_qr_scan"}, "fusion_lat": 0.0, "name": "a8de7391651f46bb95d7eecf85ccd4bf", "bike_id": "a8de7391651f46bb95d7eecf85ccd4bf"}, {"is_disabled": 0, "is_reserved": 0, "type": "electric_scooter", "lon": -76.996533, "fusion_lon": 0.0, "lat": 38.924444666666666, "rental_uris": {"android": "https://dc.lft.to/lastmile_qr_scan", "ios": "https://dc.lft.to/lastmile_qr_scan"}, "fusion_lat": 0.0, "name": "8ecf2f7bd5976ecafa7c04a93e013eba", "bike_id": "8ecf2f7bd5976ecafa7c04a93e013eba"}, {"is_disabled": 0, "is_reserved": 0, "type": "electric_scooter", "lon": -77.04895, "fusion_lon": 0.0, "lat": 38.89256483333333, "rental_uris": {"android": "https://dc.lft.to/lastmile_qr_scan", "ios": "https://dc.lft.to/lastmile_qr_scan"}, "fusion_lat": 0.0, "name": "e40f25a259c6d9fc960158774855a32b", "bike_id": "e40f25a259c6d9fc960158774855a32b"}, {"is_disabled": 0, "is_reserved": 0, "type": "electric_scooter", "lon": -77.0439125, "fusion_lon": 0.0, "lat": 38.9227745, "rental_uris": {"android": "https://dc.lft.to/lastmile_qr_scan", "ios": "https://dc.lft.to/lastmile_qr_scan"}, "fusion_lat": 0.0, "name": "c7ec862f2f002aa7232e7f2e25b3f7c9", "bike_id": "c7ec862f2f002aa7232e7f2e25b3f7c9"}, {"is_disabled": 0, "is_reserved": 0, "type": "electric_scooter", "lon": -77.01173133333333, "fusion_lon": 0.0, "lat": 38.9002435, "rental_uris": {"android": "https://dc.lft.to/lastmile_qr_scan", "ios": "https://dc.lft.to/lastmile_qr_scan"}, "fusion_lat": 0.0, "name": "fee4242350f170df94fbe5a67f7971a3", "bike_id": "fee4242350f170df94fbe5a67f7971a3"}, {"is_disabled": 0, "is_reserved": 0, "type": "electric_scooter", "lon": -77.00331866666667, "fusion_lon": 0.0, "lat": 38.893663, "rental_uris": {"android": "https://dc.lft.to/lastmile_qr_scan", "ios": "https://dc.lft.to/lastmile_qr_scan"}, "fusion_lat": 0.0, "name": "643a7e107e27589cf1e7a9bb8bc05959", "bike_id": "643a7e107e27589cf1e7a9bb8bc05959"}, {"is_disabled": 0, "is_reserved": 0, "type": "electric_bike", "lon": -76.9843015, "fusion_lon": 0.0, "lat": 38.855069666666665, "rental_uris": {"android": "https://dc.lft.to/lastmile_qr_scan", "ios": "https://dc.lft.to/lastmile_qr_scan"}, "fusion_lat": 0.0, "name": "25932c50cc5f1476c13520cdcc106a67", "bike_id": "25932c50cc5f1476c13520cdcc106a67"}, {"is_disabled": 0, "is_reserved": 0, "type": "electric_scooter", "lon": -76.98707766666666, "fusion_lon": 0.0, "lat": 38.8670225, "rental_uris": {"android": "https://dc.lft.to/lastmile_qr_scan", "ios": "https://dc.lft.to/lastmile_qr_scan"}, "fusion_lat": 0.0, "name": "928e5c6f74d1ac2989724b786bbcf4b0", "bike_id": "928e5c6f74d1ac2989724b786bbcf4b0"}, {"is_disabled": 0, "is_reserved": 0, "type": "electric_scooter", "lon": -77.005655, "fusion_lon": 0.0, "lat": 38.885969, "rental_uris": {"android": "https://dc.lft.to/lastmile_qr_scan", "ios": "https://dc.lft.to/lastmile_qr_scan"}, "fusion_lat": 0.0, "name": "b5319840c8a4169bedae5a37e03c852c", "bike_id": "b5319840c8a4169bedae5a37e03c852c"}, {"is_disabled": 0, "is_reserved": 0, "type": "electric_scooter", "lon": -77.04279166666667, "fusion_lon": 0.0, "lat": 38.916875833333336, "rental_uris": {"android": "https://dc.lft.to/lastmile_qr_scan", "ios": "https://dc.lft.to/lastmile_qr_scan"}, "fusion_lat": 0.0, "name": "ce752d5c2f94e73c5a124b2cdb01c231", "bike_id": "ce752d5c2f94e73c5a124b2cdb01c231"}, {"is_disabled": 0, "is_reserved": 0, "type": "electric_scooter", "lon": -77.027629, "fusion_lon": 0.0, "lat": 38.9430015, "rental_uris": {"android": "https://dc.lft.to/lastmile_qr_scan", "ios": "https://dc.lft.to/lastmile_qr_scan"}, "fusion_lat": 0.0, "name": "59202a2460582ac0ddad071ce4fa7146", "bike_id": "59202a2460582ac0ddad071ce4fa7146"}, {"is_disabled": 0, "is_reserved": 0, "type": "electric_scooter", "lon": -76.979003, "fusion_lon": 0.0, "lat": 38.9040235, "rental_uris": {"android": "https://dc.lft.to/lastmile_qr_scan", "ios": "https://dc.lft.to/lastmile_qr_scan"}, "fusion_lat": 0.0, "name": "91d897998e145d2f8e5c511cef0a687d", "bike_id": "91d897998e145d2f8e5c511cef0a687d"}, {"is_disabled": 0, "is_reserved": 0, "type": "electric_scooter", "lon": -77.04146216666666, "fusion_lon": 0.0, "lat": 38.92304566666667, "rental_uris": {"android": "https://dc.lft.to/lastmile_qr_scan", "ios": "https://dc.lft.to/lastmile_qr_scan"}, "fusion_lat": 0.0, "name": "5dfb71eef4db673d1a963a0d71bae3ef", "bike_id": "5dfb71eef4db673d1a963a0d71bae3ef"}, {"is_disabled": 0, "is_reserved": 0, "type": "electric_bike", "lon": -76.9750275, "fusion_lon": 0.0, "lat": 38.919344333333335, "rental_uris": {"android": "https://dc.lft.to/lastmile_qr_scan", "ios": "https://dc.lft.to/lastmile_qr_scan"}, "fusion_lat": 0.0, "name": "5d4fdf27489440cbb50591d4584b38e0", "bike_id": "5d4fdf27489440cbb50591d4584b38e0"}, {"is_disabled": 0, "is_reserved": 0, "type": "electric_scooter", "lon": -76.9494175, "fusion_lon": 0.0, "lat": 38.8936455, "rental_uris": {"android": "https://dc.lft.to/lastmile_qr_scan", "ios": "https://dc.lft.to/lastmile_qr_scan"}, "fusion_lat": 0.0, "name": "ae3499ef538729b1841ef8b1eebc5f97", "bike_id": "ae3499ef538729b1841ef8b1eebc5f97"}, {"is_disabled": 0, "is_reserved": 0, "type": "electric_scooter", "lon": -76.99031233333334, "fusion_lon": 0.0, "lat": 38.89876566666667, "rental_uris": {"android": "https://dc.lft.to/lastmile_qr_scan", "ios": "https://dc.lft.to/lastmile_qr_scan"}, "fusion_lat": 0.0, "name": "8f627b80224d20460e3bcc28e3bc604c", "bike_id": "8f627b80224d20460e3bcc28e3bc604c"}, {"is_disabled": 0, "is_reserved": 0, "type": "electric_scooter", "lon": -77.00944483333333, "fusion_lon": 0.0, "lat": 38.89497033333333, "rental_uris": {"android": "https://dc.lft.to/lastmile_qr_scan", "ios": "https://dc.lft.to/lastmile_qr_scan"}, "fusion_lat": 0.0, "name": "254271853f8e902290128d449246cab6", "bike_id": "254271853f8e902290128d449246cab6"}, {"is_disabled": 0, "is_reserved": 0, "type": "electric_scooter", "lon": -77.04053383333333, "fusion_lon": 0.0, "lat": 38.91768116666667, "rental_uris": {"android": "https://dc.lft.to/lastmile_qr_scan", "ios": "https://dc.lft.to/lastmile_qr_scan"}, "fusion_lat": 0.0, "name": "7fc44ec1698cbc43b1e47dd26f4b392e", "bike_id": "7fc44ec1698cbc43b1e47dd26f4b392e"}, {"is_disabled": 0, "is_reserved": 0, "type": "electric_scooter", "lon": -77.0022285, "fusion_lon": 0.0, "lat": 38.913441, "rental_uris": {"android": "https://dc.lft.to/lastmile_qr_scan", "ios": "https://dc.lft.to/lastmile_qr_scan"}, "fusion_lat": 0.0, "name": "4907ccf1ad869dd55db7bf5456fa9d80", "bike_id": "4907ccf1ad869dd55db7bf5456fa9d80"}, {"is_disabled": 0, "is_reserved": 0, "type": "electric_scooter", "lon": -77.02334883333333, "fusion_lon": 0.0, "lat": 38.922314166666666, "rental_uris": {"android": "https://dc.lft.to/lastmile_qr_scan", "ios": "https://dc.lft.to/lastmile_qr_scan"}, "fusion_lat": 0.0, "name": "4fa6a61ed2c167ed467c3aec5c996ffb", "bike_id": "4fa6a61ed2c167ed467c3aec5c996ffb"}, {"is_disabled": 0, "is_reserved": 0, "type": "electric_bike", "lon": -77.0843815, "fusion_lon": 0.0, "lat": 38.810239333333335, "rental_uris": {"android": "https://dc.lft.to/lastmile_qr_scan", "ios": "https://dc.lft.to/lastmile_qr_scan"}, "fusion_lat": 0.0, "name": "7a0c86f056a57c9b0cb2e49c67640a7a", "bike_id": "7a0c86f056a57c9b0cb2e49c67640a7a"}, {"is_disabled": 0, "is_reserved": 0, "type": "electric_scooter", "lon": -77.02977016666667, "fusion_lon": 0.0, "lat": 38.947405833333335, "rental_uris": {"android": "https://dc.lft.to/lastmile_qr_scan", "ios": "https://dc.lft.to/lastmile_qr_scan"}, "fusion_lat": 0.0, "name": "2bbc32f4445765c21b0dbcab7e976afc", "bike_id": "2bbc32f4445765c21b0dbcab7e976afc"}, {"is_disabled": 0, "is_reserved": 0, "type": "electric_scooter", "lon": -76.98655366666667, "fusion_lon": 0.0, "lat": 38.91314166666667, "rental_uris": {"android": "https://dc.lft.to/lastmile_qr_scan", "ios": "https://dc.lft.to/lastmile_qr_scan"}, "fusion_lat": 0.0, "name": "583984356ed6560d96e71f27308269dd", "bike_id": "583984356ed6560d96e71f27308269dd"}, {"is_disabled": 0, "is_reserved": 0, "type": "electric_scooter", "lon": -77.0091875, "fusion_lon": 0.0, "lat": 38.895529, "rental_uris": {"android": "https://dc.lft.to/lastmile_qr_scan", "ios": "https://dc.lft.to/lastmile_qr_scan"}, "fusion_lat": 0.0, "name": "ae12185a521d7342025cf47df21af6f3", "bike_id": "ae12185a521d7342025cf47df21af6f3"}, {"is_disabled": 0, "is_reserved": 0, "type": "electric_scooter", "lon": -76.995062, "fusion_lon": 0.0, "lat": 38.89972616666667, "rental_uris": {"android": "https://dc.lft.to/lastmile_qr_scan", "ios": "https://dc.lft.to/lastmile_qr_scan"}, "fusion_lat": 0.0, "name": "384a7dd61e39a59d0e7683ab1395202e", "bike_id": "384a7dd61e39a59d0e7683ab1395202e"}, {"is_disabled": 0, "is_reserved": 0, "type": "electric_scooter", "lon": -77.03099283333333, "fusion_lon": 0.0, "lat": 38.928599166666665, "rental_uris": {"android": "https://dc.lft.to/lastmile_qr_scan", "ios": "https://dc.lft.to/lastmile_qr_scan"}, "fusion_lat": 0.0, "name": "e7d2a4964bcc92760b5063b2d1bb1723", "bike_id": "e7d2a4964bcc92760b5063b2d1bb1723"}, {"is_disabled": 0, "is_reserved": 0, "type": "electric_scooter", "lon": -77.034321, "fusion_lon": 0.0, "lat": 38.9024935, "rental_uris": {"android": "https://dc.lft.to/lastmile_qr_scan", "ios": "https://dc.lft.to/lastmile_qr_scan"}, "fusion_lat": 0.0, "name": "6fe351ead17f015acc9956cfe0074885", "bike_id": "6fe351ead17f015acc9956cfe0074885"}, {"is_disabled": 0, "is_reserved": 0, "type": "electric_bike", "lon": -77.0076155, "fusion_lon": 0.0, "lat": 38.8745205, "rental_uris": {"android": "https://dc.lft.to/lastmile_qr_scan", "ios": "https://dc.lft.to/lastmile_qr_scan"}, "fusion_lat": 0.0, "name": "b30029b1d3c3418fa42c307f52f3658f", "bike_id": "b30029b1d3c3418fa42c307f52f3658f"}, {"is_disabled": 0, "is_reserved": 0, "type": "electric_scooter", "lon": -77.02646233333333, "fusion_lon": 0.0, "lat": 38.892180833333335, "rental_uris": {"android": "https://dc.lft.to/lastmile_qr_scan", "ios": "https://dc.lft.to/lastmile_qr_scan"}, "fusion_lat": 0.0, "name": "3446d284e749f81b0eb1413572311baf", "bike_id": "3446d284e749f81b0eb1413572311baf"}, {"is_disabled": 0, "is_reserved": 0, "type": "electric_scooter", "lon": -76.9990295, "fusion_lon": 0.0, "lat": 38.956530666666666, "rental_uris": {"android": "https://dc.lft.to/lastmile_qr_scan", "ios": "https://dc.lft.to/lastmile_qr_scan"}, "fusion_lat": 0.0, "name": "edd770aa7b1245c77ff17117e183ad5f", "bike_id": "edd770aa7b1245c77ff17117e183ad5f"}, {"is_disabled": 0, "is_reserved": 0, "type": "electric_scooter", "lon": -77.04008766666666, "fusion_lon": 0.0, "lat": 38.91034916666667, "rental_uris": {"android": "https://dc.lft.to/lastmile_qr_scan", "ios": "https://dc.lft.to/lastmile_qr_scan"}, "fusion_lat": 0.0, "name": "f7d9e77f6ba5dbd956f73727b51ff402", "bike_id": "f7d9e77f6ba5dbd956f73727b51ff402"}, {"is_disabled": 0, "is_reserved": 0, "type": "electric_bike", "lon": -76.9802895, "fusion_lon": 0.0, "lat": 38.88754383333333, "rental_uris": {"android": "https://dc.lft.to/lastmile_qr_scan", "ios": "https://dc.lft.to/lastmile_qr_scan"}, "fusion_lat": 0.0, "name": "7a3ca4360810e6b878ecd5adc0dffed8", "bike_id": "7a3ca4360810e6b878ecd5adc0dffed8"}, {"is_disabled": 0, "is_reserved": 0, "type": "electric_scooter", "lon": -77.00864816666666, "fusion_lon": 0.0, "lat": 38.87641383333333, "rental_uris": {"android": "https://dc.lft.to/lastmile_qr_scan", "ios": "https://dc.lft.to/lastmile_qr_scan"}, "fusion_lat": 0.0, "name": "3d031ee332bab4f16d63b55eb32b1ac3", "bike_id": "3d031ee332bab4f16d63b55eb32b1ac3"}, {"is_disabled": 0, "is_reserved": 0, "type": "electric_scooter", "lon": -77.03862116666667, "fusion_lon": 0.0, "lat": 38.917118333333335, "rental_uris": {"android": "https://dc.lft.to/lastmile_qr_scan", "ios": "https://dc.lft.to/lastmile_qr_scan"}, "fusion_lat": 0.0, "name": "f1cc22c9e866feba3965efd05fec2f29", "bike_id": "f1cc22c9e866feba3965efd05fec2f29"}, {"is_disabled": 0, "is_reserved": 0, "type": "electric_scooter", "lon": -77.007351, "fusion_lon": 0.0, "lat": 38.876521333333336, "rental_uris": {"android": "https://dc.lft.to/lastmile_qr_scan", "ios": "https://dc.lft.to/lastmile_qr_scan"}, "fusion_lat": 0.0, "name": "acac0c3b2f5066bccf924fa42c25abc4", "bike_id": "acac0c3b2f5066bccf924fa42c25abc4"}, {"is_disabled": 0, "is_reserved": 0, "type": "electric_scooter", "lon": -76.94888683333333, "fusion_lon": 0.0, "lat": 38.89532583333333, "rental_uris": {"android": "https://dc.lft.to/lastmile_qr_scan", "ios": "https://dc.lft.to/lastmile_qr_scan"}, "fusion_lat": 0.0, "name": "db510349de99779599159121ec53be3e", "bike_id": "db510349de99779599159121ec53be3e"}, {"is_disabled": 0, "is_reserved": 0, "type": "electric_scooter", "lon": -77.03468083333334, "fusion_lon": 0.0, "lat": 38.918081666666666, "rental_uris": {"android": "https://dc.lft.to/lastmile_qr_scan", "ios": "https://dc.lft.to/lastmile_qr_scan"}, "fusion_lat": 0.0, "name": "24100da270a37aabfc81a999007402df", "bike_id": "24100da270a37aabfc81a999007402df"}, {"is_disabled": 0, "is_reserved": 0, "type": "electric_scooter", "lon": -77.03175683333333, "fusion_lon": 0.0, "lat": 38.883360333333336, "rental_uris": {"android": "https://dc.lft.to/lastmile_qr_scan", "ios": "https://dc.lft.to/lastmile_qr_scan"}, "fusion_lat": 0.0, "name": "3ca49ddad3b75b83672d4bb95da7d0fc", "bike_id": "3ca49ddad3b75b83672d4bb95da7d0fc"}, {"is_disabled": 0, "is_reserved": 0, "type": "electric_scooter", "lon": -77.08613066666666, "fusion_lon": 0.0, "lat": 38.958742, "rental_uris": {"android": "https://dc.lft.to/lastmile_qr_scan", "ios": "https://dc.lft.to/lastmile_qr_scan"}, "fusion_lat": 0.0, "name": "5c410876603159c2fb2a6e4e38faa12d", "bike_id": "5c410876603159c2fb2a6e4e38faa12d"}, {"is_disabled": 0, "is_reserved": 0, "type": "electric_scooter", "lon": -77.04916966666667, "fusion_lon": 0.0, "lat": 38.8996885, "rental_uris": {"android": "https://dc.lft.to/lastmile_qr_scan", "ios": "https://dc.lft.to/lastmile_qr_scan"}, "fusion_lat": 0.0, "name": "f7248863eb27cffb2af79c7662a4cdf3", "bike_id": "f7248863eb27cffb2af79c7662a4cdf3"}, {"is_disabled": 0, "is_reserved": 0, "type": "electric_scooter", "lon": -77.03932783333333, "fusion_lon": 0.0, "lat": 38.9006955, "rental_uris": {"android": "https://dc.lft.to/lastmile_qr_scan", "ios": "https://dc.lft.to/lastmile_qr_scan"}, "fusion_lat": 0.0, "name": "b2bfee81b3a193f9fa40a1d98cab0f1c", "bike_id": "b2bfee81b3a193f9fa40a1d98cab0f1c"}, {"is_disabled": 0, "is_reserved": 0, "type": "electric_scooter", "lon": -77.043354, "fusion_lon": 0.0, "lat": 38.90351166666667, "rental_uris": {"android": "https://dc.lft.to/lastmile_qr_scan", "ios": "https://dc.lft.to/lastmile_qr_scan"}, "fusion_lat": 0.0, "name": "affdb2a22228630f37bd029a977ffd83", "bike_id": "affdb2a22228630f37bd029a977ffd83"}, {"is_disabled": 0, "is_reserved": 0, "type": "electric_scooter", "lon": -77.0319695, "fusion_lon": 0.0, "lat": 38.90777683333334, "rental_uris": {"android": "https://dc.lft.to/lastmile_qr_scan", "ios": "https://dc.lft.to/lastmile_qr_scan"}, "fusion_lat": 0.0, "name": "7c82e0559f636985e51aae7da95ebe11", "bike_id": "7c82e0559f636985e51aae7da95ebe11"}, {"is_disabled": 0, "is_reserved": 0, "type": "electric_scooter", "lon": -77.02853583333334, "fusion_lon": 0.0, "lat": 38.901391833333335, "rental_uris": {"android": "https://dc.lft.to/lastmile_qr_scan", "ios": "https://dc.lft.to/lastmile_qr_scan"}, "fusion_lat": 0.0, "name": "82b3e5e69462578f1a00bee819a3ea08", "bike_id": "82b3e5e69462578f1a00bee819a3ea08"}, {"is_disabled": 0, "is_reserved": 0, "type": "electric_scooter", "lon": -77.02620083333333, "fusion_lon": 0.0, "lat": 38.919129, "rental_uris": {"android": "https://dc.lft.to/lastmile_qr_scan", "ios": "https://dc.lft.to/lastmile_qr_scan"}, "fusion_lat": 0.0, "name": "7157594abb35fdfd6593f05457c18be5", "bike_id": "7157594abb35fdfd6593f05457c18be5"}, {"is_disabled": 0, "is_reserved": 0, "type": "electric_bike", "lon": -76.87497216666667, "fusion_lon": 0.0, "lat": 38.99092016666667, "rental_uris": {"android": "https://dc.lft.to/lastmile_qr_scan", "ios": "https://dc.lft.to/lastmile_qr_scan"}, "fusion_lat": 0.0, "name": "c36af92255549bf0ecad1305024232ad", "bike_id": "c36af92255549bf0ecad1305024232ad"}, {"is_disabled": 0, "is_reserved": 0, "type": "electric_scooter", "lon": -77.01629633333333, "fusion_lon": 0.0, "lat": 38.903785166666665, "rental_uris": {"android": "https://dc.lft.to/lastmile_qr_scan", "ios": "https://dc.lft.to/lastmile_qr_scan"}, "fusion_lat": 0.0, "name": "cd044d2be78a0161def44fdc99add89e", "bike_id": "cd044d2be78a0161def44fdc99add89e"}, {"is_disabled": 0, "is_reserved": 0, "type": "electric_scooter", "lon": -77.0451595, "fusion_lon": 0.0, "lat": 38.89605783333333, "rental_uris": {"android": "https://dc.lft.to/lastmile_qr_scan", "ios": "https://dc.lft.to/lastmile_qr_scan"}, "fusion_lat": 0.0, "name": "6630270f2525cb447bf3d1de9f45b815", "bike_id": "6630270f2525cb447bf3d1de9f45b815"}, {"is_disabled": 0, "is_reserved": 0, "type": "electric_bike", "lon": -77.11226233333333, "fusion_lon": 0.0, "lat": 38.8287155, "rental_uris": {"android": "https://dc.lft.to/lastmile_qr_scan", "ios": "https://dc.lft.to/lastmile_qr_scan"}, "fusion_lat": 0.0, "name": "6fc1263d55e3bf8427dbcd22d69a53f1", "bike_id": "6fc1263d55e3bf8427dbcd22d69a53f1"}, {"is_disabled": 0, "is_reserved": 0, "type": "electric_scooter", "lon": -77.016134, "fusion_lon": 0.0, "lat": 38.905925, "rental_uris": {"android": "https://dc.lft.to/lastmile_qr_scan", "ios": "https://dc.lft.to/lastmile_qr_scan"}, "fusion_lat": 0.0, "name": "26903cbd0080b039eddd4f460a7800bd", "bike_id": "26903cbd0080b039eddd4f460a7800bd"}, {"is_disabled": 0, "is_reserved": 0, "type": "electric_scooter", "lon": -76.98997816666666, "fusion_lon": 0.0, "lat": 38.88275016666667, "rental_uris": {"android": "https://dc.lft.to/lastmile_qr_scan", "ios": "https://dc.lft.to/lastmile_qr_scan"}, "fusion_lat": 0.0, "name": "f3707f7c31ffbc9231bfdf8176d2ea77", "bike_id": "f3707f7c31ffbc9231bfdf8176d2ea77"}, {"is_disabled": 0, "is_reserved": 0, "type": "electric_scooter", "lon": -76.988908, "fusion_lon": 0.0, "lat": 38.86676883333333, "rental_uris": {"android": "https://dc.lft.to/lastmile_qr_scan", "ios": "https://dc.lft.to/lastmile_qr_scan"}, "fusion_lat": 0.0, "name": "ca65c4c8c7b335aa0c4f7c95d8ff840e", "bike_id": "ca65c4c8c7b335aa0c4f7c95d8ff840e"}, {"is_disabled": 0, "is_reserved": 0, "type": "electric_scooter", "lon": -76.995817, "fusion_lon": 0.0, "lat": 38.90036533333333, "rental_uris": {"android": "https://dc.lft.to/lastmile_qr_scan", "ios": "https://dc.lft.to/lastmile_qr_scan"}, "fusion_lat": 0.0, "name": "97fde0dbff646c05cad4fb5e3a860bf3", "bike_id": "97fde0dbff646c05cad4fb5e3a860bf3"}, {"is_disabled": 0, "is_reserved": 0, "type": "electric_scooter", "lon": -77.04613266666667, "fusion_lon": 0.0, "lat": 38.91550133333333, "rental_uris": {"android": "https://dc.lft.to/lastmile_qr_scan", "ios": "https://dc.lft.to/lastmile_qr_scan"}, "fusion_lat": 0.0, "name": "50031282008d18e4119cda2af1cf434d", "bike_id": "50031282008d18e4119cda2af1cf434d"}, {"is_disabled": 0, "is_reserved": 0, "type": "electric_scooter", "lon": -76.994926, "fusion_lon": 0.0, "lat": 38.88586316666667, "rental_uris": {"android": "https://dc.lft.to/lastmile_qr_scan", "ios": "https://dc.lft.to/lastmile_qr_scan"}, "fusion_lat": 0.0, "name": "785521692ce2b04c4cc32a1d76cbcff2", "bike_id": "785521692ce2b04c4cc32a1d76cbcff2"}, {"is_disabled": 0, "is_reserved": 0, "type": "electric_bike", "lon": -77.0271545, "fusion_lon": 0.0, "lat": 38.98186, "rental_uris": {"android": "https://dc.lft.to/lastmile_qr_scan", "ios": "https://dc.lft.to/lastmile_qr_scan"}, "fusion_lat": 0.0, "name": "e9fdb63be23afda6503802d264abfd39", "bike_id": "e9fdb63be23afda6503802d264abfd39"}, {"is_disabled": 0, "is_reserved": 0, "type": "electric_scooter", "lon": -77.04485383333333, "fusion_lon": 0.0, "lat": 38.89887816666667, "rental_uris": {"android": "https://dc.lft.to/lastmile_qr_scan", "ios": "https://dc.lft.to/lastmile_qr_scan"}, "fusion_lat": 0.0, "name": "905d70a9c7f3e602d6f7d3e89c3c96a7", "bike_id": "905d70a9c7f3e602d6f7d3e89c3c96a7"}, {"is_disabled": 0, "is_reserved": 0, "type": "electric_scooter", "lon": -77.041724, "fusion_lon": 0.0, "lat": 38.901438666666664, "rental_uris": {"android": "https://dc.lft.to/lastmile_qr_scan", "ios": "https://dc.lft.to/lastmile_qr_scan"}, "fusion_lat": 0.0, "name": "d0218b3af0c17394a40a827adf200845", "bike_id": "d0218b3af0c17394a40a827adf200845"}, {"is_disabled": 0, "is_reserved": 0, "type": "electric_scooter", "lon": -77.03254966666667, "fusion_lon": 0.0, "lat": 38.913409, "rental_uris": {"android": "https://dc.lft.to/lastmile_qr_scan", "ios": "https://dc.lft.to/lastmile_qr_scan"}, "fusion_lat": 0.0, "name": "d1d60c1fbd7cb1594a76f48b7a15b4d0", "bike_id": "d1d60c1fbd7cb1594a76f48b7a15b4d0"}, {"is_disabled": 0, "is_reserved": 0, "type": "electric_scooter", "lon": -77.0559005, "fusion_lon": 0.0, "lat": 38.899963166666666, "rental_uris": {"android": "https://dc.lft.to/lastmile_qr_scan", "ios": "https://dc.lft.to/lastmile_qr_scan"}, "fusion_lat": 0.0, "name": "9f0d5c037e065d3f273f082d1e57f9f0", "bike_id": "9f0d5c037e065d3f273f082d1e57f9f0"}, {"is_disabled": 0, "is_reserved": 0, "type": "electric_scooter", "lon": -77.032947, "fusion_lon": 0.0, "lat": 38.920539833333336, "rental_uris": {"android": "https://dc.lft.to/lastmile_qr_scan", "ios": "https://dc.lft.to/lastmile_qr_scan"}, "fusion_lat": 0.0, "name": "4ea028c8469e9089e3e73229284c1494", "bike_id": "4ea028c8469e9089e3e73229284c1494"}, {"is_disabled": 0, "is_reserved": 0, "type": "electric_bike", "lon": -77.178057, "fusion_lon": 0.0, "lat": 39.08841183333333, "rental_uris": {"android": "https://dc.lft.to/lastmile_qr_scan", "ios": "https://dc.lft.to/lastmile_qr_scan"}, "fusion_lat": 0.0, "name": "679a5daab44b1b7bb3d996f1fa49a1b0", "bike_id": "679a5daab44b1b7bb3d996f1fa49a1b0"}, {"is_disabled": 0, "is_reserved": 0, "type": "electric_scooter", "lon": -76.97907466666666, "fusion_lon": 0.0, "lat": 38.863349, "rental_uris": {"android": "https://dc.lft.to/lastmile_qr_scan", "ios": "https://dc.lft.to/lastmile_qr_scan"}, "fusion_lat": 0.0, "name": "6ee91527f0f7475b336aff0770bc8700", "bike_id": "6ee91527f0f7475b336aff0770bc8700"}, {"is_disabled": 0, "is_reserved": 0, "type": "electric_scooter", "lon": -77.03232266666667, "fusion_lon": 0.0, "lat": 38.938671666666664, "rental_uris": {"android": "https://dc.lft.to/lastmile_qr_scan", "ios": "https://dc.lft.to/lastmile_qr_scan"}, "fusion_lat": 0.0, "name": "1e9e6a8186501b185d17063f81d466a7", "bike_id": "1e9e6a8186501b185d17063f81d466a7"}, {"is_disabled": 0, "is_reserved": 0, "type": "electric_bike", "lon": -76.97703616666666, "fusion_lon": 0.0, "lat": 38.888574, "rental_uris": {"android": "https://dc.lft.to/lastmile_qr_scan", "ios": "https://dc.lft.to/lastmile_qr_scan"}, "fusion_lat": 0.0, "name": "2676dc43692ebc7dd8136fb892daf63c", "bike_id": "2676dc43692ebc7dd8136fb892daf63c"}, {"is_disabled": 0, "is_reserved": 0, "type": "electric_scooter", "lon": -76.98884816666667, "fusion_lon": 0.0, "lat": 38.866553333333336, "rental_uris": {"android": "https://dc.lft.to/lastmile_qr_scan", "ios": "https://dc.lft.to/lastmile_qr_scan"}, "fusion_lat": 0.0, "name": "28fe32ff842b90aceba3654249014413", "bike_id": "28fe32ff842b90aceba3654249014413"}, {"is_disabled": 0, "is_reserved": 0, "type": "electric_scooter", "lon": -77.03200433333333, "fusion_lon": 0.0, "lat": 38.917468, "rental_uris": {"android": "https://dc.lft.to/lastmile_qr_scan", "ios": "https://dc.lft.to/lastmile_qr_scan"}, "fusion_lat": 0.0, "name": "3fbea8ab2ca349a4b11a8212cb41029a", "bike_id": "3fbea8ab2ca349a4b11a8212cb41029a"}, {"is_disabled": 0, "is_reserved": 0, "type": "electric_scooter", "lon": -77.04417516666666, "fusion_lon": 0.0, "lat": 38.89396583333333, "rental_uris": {"android": "https://dc.lft.to/lastmile_qr_scan", "ios": "https://dc.lft.to/lastmile_qr_scan"}, "fusion_lat": 0.0, "name": "d38a962ebbd4bc7dc35ed06d0a230af5", "bike_id": "d38a962ebbd4bc7dc35ed06d0a230af5"}, {"is_disabled": 0, "is_reserved": 0, "type": "electric_scooter", "lon": -77.02083066666667, "fusion_lon": 0.0, "lat": 38.8812995, "rental_uris": {"android": "https://dc.lft.to/lastmile_qr_scan", "ios": "https://dc.lft.to/lastmile_qr_scan"}, "fusion_lat": 0.0, "name": "377dfba4f1076075b89a2e30bae15e87", "bike_id": "377dfba4f1076075b89a2e30bae15e87"}, {"is_disabled": 0, "is_reserved": 0, "type": "electric_scooter", "lon": -77.056865, "fusion_lon": 0.0, "lat": 38.90516616666667, "rental_uris": {"android": "https://dc.lft.to/lastmile_qr_scan", "ios": "https://dc.lft.to/lastmile_qr_scan"}, "fusion_lat": 0.0, "name": "ffd30ed77290e03505f626d893c47edd", "bike_id": "ffd30ed77290e03505f626d893c47edd"}, {"is_disabled": 0, "is_reserved": 0, "type": "electric_scooter", "lon": -77.02578333333334, "fusion_lon": 0.0, "lat": 38.904946333333335, "rental_uris": {"android": "https://dc.lft.to/lastmile_qr_scan", "ios": "https://dc.lft.to/lastmile_qr_scan"}, "fusion_lat": 0.0, "name": "9143df3eba971c5623b9a8679c00c136", "bike_id": "9143df3eba971c5623b9a8679c00c136"}, {"is_disabled": 0, "is_reserved": 0, "type": "electric_scooter", "lon": -77.01762, "fusion_lon": 0.0, "lat": 38.876883, "rental_uris": {"android": "https://dc.lft.to/lastmile_qr_scan", "ios": "https://dc.lft.to/lastmile_qr_scan"}, "fusion_lat": 0.0, "name": "fe479484a24eb0998d466438af4a93f0", "bike_id": "fe479484a24eb0998d466438af4a93f0"}, {"is_disabled": 0, "is_reserved": 0, "type": "electric_scooter", "lon": -77.00560433333334, "fusion_lon": 0.0, "lat": 38.885032, "rental_uris": {"android": "https://dc.lft.to/lastmile_qr_scan", "ios": "https://dc.lft.to/lastmile_qr_scan"}, "fusion_lat": 0.0, "name": "17b3c5196b7a3b738400e1e0850693e9", "bike_id": "17b3c5196b7a3b738400e1e0850693e9"}, {"is_disabled": 0, "is_reserved": 0, "type": "electric_scooter", "lon": -77.0270395, "fusion_lon": 0.0, "lat": 38.896543666666666, "rental_uris": {"android": "https://dc.lft.to/lastmile_qr_scan", "ios": "https://dc.lft.to/lastmile_qr_scan"}, "fusion_lat": 0.0, "name": "6f8703664009a24d4e3d7e2340edb4cb", "bike_id": "6f8703664009a24d4e3d7e2340edb4cb"}, {"is_disabled": 0, "is_reserved": 0, "type": "electric_scooter", "lon": -77.0348455, "fusion_lon": 0.0, "lat": 38.9248245, "rental_uris": {"android": "https://dc.lft.to/lastmile_qr_scan", "ios": "https://dc.lft.to/lastmile_qr_scan"}, "fusion_lat": 0.0, "name": "7b9a646e5c667365933b69cd133c8774", "bike_id": "7b9a646e5c667365933b69cd133c8774"}, {"is_disabled": 0, "is_reserved": 0, "type": "electric_bike", "lon": -76.96058483333333, "fusion_lon": 0.0, "lat": 38.884048, "rental_uris": {"android": "https://dc.lft.to/lastmile_qr_scan", "ios": "https://dc.lft.to/lastmile_qr_scan"}, "fusion_lat": 0.0, "name": "7c974d6efe0fb6024f4ce35309ae6b8d", "bike_id": "7c974d6efe0fb6024f4ce35309ae6b8d"}, {"is_disabled": 0, "is_reserved": 0, "type": "electric_scooter", "lon": -77.03236933333334, "fusion_lon": 0.0, "lat": 38.9016605, "rental_uris": {"android": "https://dc.lft.to/lastmile_qr_scan", "ios": "https://dc.lft.to/lastmile_qr_scan"}, "fusion_lat": 0.0, "name": "14805f8300aada60255e933e3f8d623e", "bike_id": "14805f8300aada60255e933e3f8d623e"}, {"is_disabled": 0, "is_reserved": 0, "type": "electric_scooter", "lon": -77.04623966666666, "fusion_lon": 0.0, "lat": 38.9157295, "rental_uris": {"android": "https://dc.lft.to/lastmile_qr_scan", "ios": "https://dc.lft.to/lastmile_qr_scan"}, "fusion_lat": 0.0, "name": "059948a6414d2d64fa8d8dd723201a34", "bike_id": "059948a6414d2d64fa8d8dd723201a34"}, {"is_disabled": 0, "is_reserved": 0, "type": "electric_scooter", "lon": -77.02466316666667, "fusion_lon": 0.0, "lat": 38.93759283333333, "rental_uris": {"android": "https://dc.lft.to/lastmile_qr_scan", "ios": "https://dc.lft.to/lastmile_qr_scan"}, "fusion_lat": 0.0, "name": "76d2e59e8311d4c41d3dc9690c18334a", "bike_id": "76d2e59e8311d4c41d3dc9690c18334a"}, {"is_disabled": 0, "is_reserved": 0, "type": "electric_scooter", "lon": -77.0413045, "fusion_lon": 0.0, "lat": 38.92134816666667, "rental_uris": {"android": "https://dc.lft.to/lastmile_qr_scan", "ios": "https://dc.lft.to/lastmile_qr_scan"}, "fusion_lat": 0.0, "name": "cd59d52555bafc67ca673bac0de44997", "bike_id": "cd59d52555bafc67ca673bac0de44997"}, {"is_disabled": 0, "is_reserved": 0, "type": "electric_scooter", "lon": -77.02719116666667, "fusion_lon": 0.0, "lat": 38.9248055, "rental_uris": {"android": "https://dc.lft.to/lastmile_qr_scan", "ios": "https://dc.lft.to/lastmile_qr_scan"}, "fusion_lat": 0.0, "name": "d305c1ad916f99d2cd526acaa5b53b92", "bike_id": "d305c1ad916f99d2cd526acaa5b53b92"}, {"is_disabled": 0, "is_reserved": 0, "type": "electric_scooter", "lon": -77.02048, "fusion_lon": 0.0, "lat": 38.958732, "rental_uris": {"android": "https://dc.lft.to/lastmile_qr_scan", "ios": "https://dc.lft.to/lastmile_qr_scan"}, "fusion_lat": 0.0, "name": "66979f85f9184281dd77f77790904ec6", "bike_id": "66979f85f9184281dd77f77790904ec6"}, {"is_disabled": 0, "is_reserved": 0, "type": "electric_scooter", "lon": -77.04403516666666, "fusion_lon": 0.0, "lat": 38.92951733333334, "rental_uris": {"android": "https://dc.lft.to/lastmile_qr_scan", "ios": "https://dc.lft.to/lastmile_qr_scan"}, "fusion_lat": 0.0, "name": "0f25bcdcd7c2e1423fef3f4eefdb53aa", "bike_id": "0f25bcdcd7c2e1423fef3f4eefdb53aa"},