{"data": {"bikes": [{"is_reserved": 0, "type": "electric_scooter", "bike_id": "641bbc6913930494d1dfca1e0212d855", "lat": 38.91113683333333, "lon": -77.01824166666667, "rental_uris": {"android": "https://dc.lft.to/lastmile_qr_scan", "ios": "https://dc.lft.to/lastmile_qr_scan"}, "is_disabled": 0, "fusion_lat": 0.0, "name": "641bbc6913930494d1dfca1e0212d855", "fusion_lon": 0.0}, {"is_reserved": 0, "type": "electric_scooter", "bike_id": "0343bfce1e6488d046715d043fa830a8", "lat": 38.896246166666664, "lon": -77.027948, "rental_uris": {"android": "https://dc.lft.to/lastmile_qr_scan", "ios": "https://dc.lft.to/lastmile_qr_scan"}, "is_disabled": 0, "fusion_lat": 0.0, "name": "0343bfce1e6488d046715d043fa830a8", "fusion_lon": 0.0}, {"is_reserved": 0, "type": "electric_scooter", "bike_id": "4db08723017df521a624764d37b8b656", "lat": 38.90343133333333, "lon": -77.02573483333333, "rental_uris": {"android": "https://dc.lft.to/lastmile_qr_scan", "ios": "https://dc.lft.to/lastmile_qr_scan"}, "is_disabled": 0, "fusion_lat": 0.0, "name": "4db08723017df521a624764d37b8b656", "fusion_lon": 0.0}, {"is_reserved": 0, "type": "electric_scooter", "bike_id": "8512a1f1872bd52e4b106252c6224a25", "lat": 38.93064316666667, "lon": -77.0283845, "rental_uris": {"android": "https://dc.lft.to/lastmile_qr_scan", "ios": "https://dc.lft.to/lastmile_qr_scan"}, "is_disabled": 0, "fusion_lat": 0.0, "name": "8512a1f1872bd52e4b106252c6224a25", "fusion_lon": 0.0}, {"is_reserved": 0, "type": "electric_scooter", "bike_id": "16c63ac80074bd7634251a36bfcbc24b", "lat": 38.93897066666667, "lon": -77.03260333333333, "rental_uris": {"android": "https://dc.lft.to/lastmile_qr_scan", "ios": "https://dc.lft.to/lastmile_qr_scan"}, "is_disabled": 0, "fusion_lat": 0.0, "name": "16c63ac80074bd7634251a36bfcbc24b", "fusion_lon": 0.0}, {"is_reserved": 0, "type": "electric_bike", "bike_id": "fd54e1bf9814caae5c77e49532c4e18e", "lat": 38.974207, "lon": -77.01256216666667, "rental_uris": {"android": "https://dc.lft.to/lastmile_qr_scan", "ios": "https://dc.lft.to/lastmile_qr_scan"}, "is_disabled": 0, "fusion_lat": 0.0, "name": "fd54e1bf9814caae5c77e49532c4e18e", "fusion_lon": 0.0}, {"is_reserved": 0, "type": "electric_scooter", "bike_id": "780c3237e53c25331039c487ddc2a0db", "lat": 38.90438416666667, "lon": -77.0601465, "rental_uris": {"android": "https://dc.lft.to/lastmile_qr_scan", "ios": "https://dc.lft.to/lastmile_qr_scan"}, "is_disabled": 0, "fusion_lat": 0.0, "name": "780c3237e53c25331039c487ddc2a0db", "fusion_lon": 0.0}, {"is_reserved": 0, "type": "electric_scooter", "bike_id": "41a4294e392e94ff41d4433c67b0f884", "lat": 38.9217765, "lon": -77.01037416666667, "rental_uris": {"android": "https://dc.lft.to/lastmile_qr_scan", "ios": "https://dc.lft.to/lastmile_qr_scan"}, "is_disabled": 0, "fusion_lat": 0.0, "name": "41a4294e392e94ff41d4433c67b0f884", "fusion_lon": 0.0}, {"is_reserved": 0, "type": "electric_scooter", "bike_id": "a56aa967fefefb67ec38d73e37c00d0e", "lat": 38.922597333333336, "lon": -77.04198133333334, "rental_uris": {"android": "https://dc.lft.to/lastmile_qr_scan", "ios": "https://dc.lft.to/lastmile_qr_scan"}, "is_disabled": 0, "fusion_lat": 0.0, "name": "a56aa967fefefb67ec38d73e37c00d0e", "fusion_lon": 0.0}, {"is_reserved": 0, "type": "electric_scooter", "bike_id": "a1ec2565d1839448d30bc745a4f23a77", "lat": 38.88665483333333, "lon": -77.0020165, "rental_uris": {"android": "https://dc.lft.to/lastmile_qr_scan", "ios": "https://dc.lft.to/lastmile_qr_scan"}, "is_disabled": 0, "fusion_lat": 0.0, "name": "a1ec2565d1839448d30bc745a4f23a77", "fusion_lon": 0.0}, {"is_reserved": 0, "type": "electric_scooter", "bike_id": "dbf7d1400c4da8d1713e040c13839e1f", "lat": 38.92485283333333, "lon": -77.03195183333334, "rental_uris": {"android": "https://dc.lft.to/lastmile_qr_scan", "ios": "https://dc.lft.to/lastmile_qr_scan"}, "is_disabled": 0, "fusion_lat": 0.0, "name": "dbf7d1400c4da8d1713e040c13839e1f", "fusion_lon": 0.0}, {"is_reserved": 0, "type": "electric_scooter", "bike_id": "f65b2c20e3ad479df2606a88f0abc9bb", "lat": 38.90555716666667, "lon": -77.03250683333333, "rental_uris": {"android": "https://dc.lft.to/lastmile_qr_scan", "ios": "https://dc.lft.to/lastmile_qr_scan"}, "is_disabled": 0, "fusion_lat": 0.0, "name": "f65b2c20e3ad479df2606a88f0abc9bb", "fusion_lon": 0.0}, {"is_reserved": 0, "type": "electric_scooter", "bike_id": "a5d61e98b2a34e115ee1a5657e00b6e1", "lat": 38.92269783333333, "lon": -77.03670183333334, "rental_uris": {"android": "https://dc.lft.to/lastmile_qr_scan", "ios": "https://dc.lft.to/lastmile_qr_scan"}, "is_disabled": 0, "fusion_lat": 0.0, "name": "a5d61e98b2a34e115ee1a5657e00b6e1", "fusion_lon": 0.0}, {"is_reserved": 0, "type": "electric_scooter", "bike_id": "7c64227d4f492da971978a4f60de06a8", "lat": 38.911829, "lon": -77.019903, "rental_uris": {"android": "https://dc.lft.to/lastmile_qr_scan", "ios": "https://dc.lft.to/lastmile_qr_scan"}, "is_disabled": 0, "fusion_lat": 0.0, "name": "7c64227d4f492da971978a4f60de06a8", "fusion_lon": 0.0}, {"is_reserved": 0, "type": "electric_bike", "bike_id": "debf8d115f1ff20d6e430b91fafcbc99", "lat": 38.89254733333333, "lon": -76.97054933333334, "rental_uris": {"android": "https://dc.lft.to/lastmile_qr_scan", "ios": "https://dc.lft.to/lastmile_qr_scan"}, "is_disabled": 0, "fusion_lat": 0.0, "name": "debf8d115f1ff20d6e430b91fafcbc99", "fusion_lon": 0.0}, {"is_reserved": 0, "type": "electric_scooter", "bike_id": "9d60fcbec6ae033dbbf4aa5846b5bc66", "lat": 38.93144083333333, "lon": -77.02991616666667, "rental_uris": {"android": "https://dc.lft.to/lastmile_qr_scan", "ios": "https://dc.lft.to/lastmile_qr_scan"}, "is_disabled": 0, "fusion_lat": 0.0, "name": "9d60fcbec6ae033dbbf4aa5846b5bc66", "fusion_lon": 0.0}, {"is_reserved": 0, "type": "electric_scooter", "bike_id": "f8808646bfb1dd3ff4ec82b454161256", "lat": 38.899706333333334, "lon": -76.99034083333333, "rental_uris": {"android": "https://dc.lft.to/lastmile_qr_scan", "ios": "https://dc.lft.to/lastmile_qr_scan"}, "is_disabled": 0, "fusion_lat": 0.0, "name": "f8808646bfb1dd3ff4ec82b454161256", "fusion_lon": 0.0}, {"is_reserved": 0, "type": "electric_scooter", "bike_id": "aa8cd2af5be4907ed2cd519f928e9ce3", "lat": 38.94982733333333, "lon": -76.99332433333333, "rental_uris": {"android": "https://dc.lft.to/lastmile_qr_scan", "ios": "https://dc.lft.to/lastmile_qr_scan"}, "is_disabled": 0, "fusion_lat": 0.0, "name": "aa8cd2af5be4907ed2cd519f928e9ce3", "fusion_lon": 0.0}, {"is_reserved": 0, "type": "electric_scooter", "bike_id": "26ab738edbf7cb25fce28421e1305548", "lat": 38.89440116666667, "lon": -77.00197933333334, "rental_uris": {"android": "https://dc.lft.to/lastmile_qr_scan", "ios": "https://dc.lft.to/lastmile_qr_scan"}, "is_disabled": 0, "fusion_lat": 0.0, "name": "26ab738edbf7cb25fce28421e1305548", "fusion_lon": 0.0}, {"is_reserved": 0, "type": "electric_scooter", "bike_id": "b858faa63aba7c198d1911dae316e04c", "lat": 38.93263133333333, "lon": -77.03261683333334, "rental_uris": {"android": "https://dc.lft.to/lastmile_qr_scan", "ios": "https://dc.lft.to/lastmile_qr_scan"}, "is_disabled": 0, "fusion_lat": 0.0, "name": "b858faa63aba7c198d1911dae316e04c", "fusion_lon": 0.0}, {"is_reserved": 0, "type": "electric_scooter", "bike_id": "0ba4f0347939f911a3b28ffbc900f92f", "lat": 38.91796433333333, "lon": -77.02712683333333, "rental_uris": {"android": "https://dc.lft.to/lastmile_qr_scan", "ios": "https://dc.lft.to/lastmile_qr_scan"}, "is_disabled": 0, "fusion_lat": 0.0, "name": "0ba4f0347939f911a3b28ffbc900f92f", "fusion_lon": 0.0}, {"is_reserved": 0, "type": "electric_scooter", "bike_id": "b27ee6318083489bd41e909c89b7a86e", "lat": 38.924762, "lon": -77.022497, "rental_uris": {"android": "https://dc.lft.to/lastmile_qr_scan", "ios": "https://dc.lft.to/lastmile_qr_scan"}, "is_disabled": 0, "fusion_lat": 0.0, "name": "b27ee6318083489bd41e909c89b7a86e", "fusion_lon": 0.0}, {"is_reserved": 0, "type": "electric_scooter", "bike_id": "2bf7ed1e81f459229f49f0e54fa3a79d", "lat": 38.92869433333333, "lon": -77.056557, "rental_uris": {"android": "https://dc.lft.to/lastmile_qr_scan", "ios": "https://dc.lft.to/lastmile_qr_scan"}, "is_disabled": 0, "fusion_lat": 0.0, "name": "2bf7ed1e81f459229f49f0e54fa3a79d", "fusion_lon": 0.0}, {"is_reserved": 0, "type": "electric_scooter", "bike_id": "5d968edb833e89fe568e702f1456641e", "lat": 38.91482333333333, "lon": -77.0312455, "rental_uris": {"android": "https://dc.lft.to/lastmile_qr_scan", "ios": "https://dc.lft.to/lastmile_qr_scan"}, "is_disabled": 0, "fusion_lat": 0.0, "name": "5d968edb833e89fe568e702f1456641e", "fusion_lon": 0.0}, {"is_reserved": 0, "type": "electric_scooter", "bike_id": "e9e37b125d99a3305ee4b546b275bb49", "lat": 38.93457183333334, "lon": -77.07236833333333, "rental_uris": {"android": "https://dc.lft.to/lastmile_qr_scan", "ios": "https://dc.lft.to/lastmile_qr_scan"}, "is_disabled": 0, "fusion_lat": 0.0, "name": "e9e37b125d99a3305ee4b546b275bb49", "fusion_lon": 0.0}, {"is_reserved": 0, "type": "electric_scooter", "bike_id": "66f69c260697d7783fa136934bec13a8", "lat": 38.922448333333335, "lon": -77.04254966666667, "rental_uris": {"android": "https://dc.lft.to/lastmile_qr_scan", "ios": "https://dc.lft.to/lastmile_qr_scan"}, "is_disabled": 0, "fusion_lat": 0.0, "name": "66f69c260697d7783fa136934bec13a8", "fusion_lon": 0.0}, {"is_reserved": 0, "type": "electric_bike", "bike_id": "79d5fbf0a496d6f593613ea235fbea50", "lat": 38.906970333333334, "lon": -76.95254883333334, "rental_uris": {"android": "https://dc.lft.to/lastmile_qr_scan", "ios": "https://dc.lft.to/lastmile_qr_scan"}, "is_disabled": 0, "fusion_lat": 0.0, "name": "79d5fbf0a496d6f593613ea235fbea50", "fusion_lon": 0.0}, {"is_reserved": 0, "type": "electric_scooter", "bike_id": "05f725571920dff6abeaff26d786676a", "lat": 38.940351666666665, "lon": -77.025235, "rental_uris": {"android": "https://dc.lft.to/lastmile_qr_scan", "ios": "https://dc.lft.to/lastmile_qr_scan"}, "is_disabled": 0, "fusion_lat": 0.0, "name": "05f725571920dff6abeaff26d786676a", "fusion_lon": 0.0}, {"is_reserved": 0, "type": "electric_scooter", "bike_id": "2bf14a72b2506d7fbf57f721640d2048", "lat": 38.93976033333333, "lon": -77.05474433333333, "rental_uris": {"android": "https://dc.lft.to/lastmile_qr_scan", "ios": "https://dc.lft.to/lastmile_qr_scan"}, "is_disabled": 0, "fusion_lat": 0.0, "name": "2bf14a72b2506d7fbf57f721640d2048", "fusion_lon": 0.0}, {"is_reserved": 0, "type": "electric_scooter", "bike_id": "17dbd125b931003382e1f705f296d7cc", "lat": 38.91949816666666, "lon": -77.02889516666667, "rental_uris": {"android": "https://dc.lft.to/lastmile_qr_scan", "ios": "https://dc.lft.to/lastmile_qr_scan"}, "is_disabled": 0, "fusion_lat": 0.0, "name": "17dbd125b931003382e1f705f296d7cc", "fusion_lon": 0.0}, {"is_reserved": 0, "type": "electric_scooter", "bike_id": "d77e0467d075da42920fb7e88dc7a736", "lat": 38.919146166666664, "lon": -77.0481235, "rental_uris": {"android": "https://dc.lft.to/lastmile_qr_scan", "ios": "https://dc.lft.to/lastmile_qr_scan"}, "is_disabled": 0, "fusion_lat": 0.0, "name": "d77e0467d075da42920fb7e88dc7a736", "fusion_lon": 0.0}, {"is_reserved": 0, "type": "electric_bike", "bike_id": "f1f1dc5ae85e5ad81873b2cfa22ba017", "lat": 38.836328, "lon": -77.00280483333333, "rental_uris": {"android": "https://dc.lft.to/lastmile_qr_scan", "ios": "https://dc.lft.to/lastmile_qr_scan"}, "is_disabled": 0, "fusion_lat": 0.0, "name": "f1f1dc5ae85e5ad81873b2cfa22ba017", "fusion_lon": 0.0}, {"is_reserved": 0, "type": "electric_scooter", "bike_id": "c924505f5acbc5b238576137fcaf8f88", "lat": 38.909808, "lon": -77.06450866666667, "rental_uris": {"android": "https://dc.lft.to/lastmile_qr_scan", "ios": "https://dc.lft.to/lastmile_qr_scan"}, "is_disabled": 0, "fusion_lat": 0.0, "name": "c924505f5acbc5b238576137fcaf8f88", "fusion_lon": 0.0}, {"is_reserved": 0, "type": "electric_bike", "bike_id": "40d0a0d6c0e767b02d7b57fec0a91bce", "lat": 38.904789666666666, "lon": -77.03224033333333, "rental_uris": {"android": "https://dc.lft.to/lastmile_qr_scan", "ios": "https://dc.lft.to/lastmile_qr_scan"}, "is_disabled": 0, "fusion_lat": 0.0, "name": "40d0a0d6c0e767b02d7b57fec0a91bce", "fusion_lon": 0.0}, {"is_reserved": 0, "type": "electric_scooter", "bike_id": "c92434292f26e6d84a065aac7f2525bc", "lat": 38.881612, "lon": -77.02769266666667, "rental_uris": {"android": "https://dc.lft.to/lastmile_qr_scan", "ios": "https://dc.lft.to/lastmile_qr_scan"}, "is_disabled": 0, "fusion_lat": 0.0, "name": "c92434292f26e6d84a065aac7f2525bc", "fusion_lon": 0.0}, {"is_reserved": 0, "type": "electric_scooter", "bike_id": "a29ef646f5553e53a03b9d72726445ea", "lat": 38.923129333333335, "lon": -77.04136183333334, "rental_uris": {"android": "https://dc.lft.to/lastmile_qr_scan", "ios": "https://dc.lft.to/lastmile_qr_scan"}, "is_disabled": 0, "fusion_lat": 0.0, "name": "a29ef646f5553e53a03b9d72726445ea", "fusion_lon": 0.0}, {"is_reserved": 0, "type": "electric_scooter", "bike_id": "2bb12fc1c6f7b537cbfb4cbc4dc7d12e", "lat": 38.93129, "lon": -77.02310266666667, "rental_uris": {"android": "https://dc.lft.to/lastmile_qr_scan", "ios": "https://dc.lft.to/lastmile_qr_scan"}, "is_disabled": 0, "fusion_lat": 0.0, "name": "2bb12fc1c6f7b537cbfb4cbc4dc7d12e", "fusion_lon": 0.0}, {"is_reserved": 0, "type": "electric_scooter", "bike_id": "42f9b58ca43eca561693bcd6a1a8ee2b", "lat": 38.92318683333333, "lon": -77.04223266666666, "rental_uris": {"android": "https://dc.lft.to/lastmile_qr_scan", "ios": "https://dc.lft.to/lastmile_qr_scan"}, "is_disabled": 0, "fusion_lat": 0.0, "name": "42f9b58ca43eca561693bcd6a1a8ee2b", "fusion_lon": 0.0}, {"is_reserved": 0, "type": "electric_scooter", "bike_id": "f3aadaf587ff92c585c5970f2e08fc7e", "lat": 38.9603415, "lon": -77.071541, "rental_uris": {"android": "https://dc.lft.to/lastmile_qr_scan", "ios": "https://dc.lft.to/lastmile_qr_scan"}, "is_disabled": 0, "fusion_lat": 0.0, "name": "f3aadaf587ff92c585c5970f2e08fc7e", "fusion_lon": 0.0}, {"is_reserved": 0, "type": "electric_scooter", "bike_id": "58e1e9474d8cb5cee17e51163a5bc9d5", "lat": 38.933551, "lon": -77.034248, "rental_uris": {"android": "https://dc.lft.to/lastmile_qr_scan", "ios": "https://dc.lft.to/lastmile_qr_scan"}, "is_disabled": 0, "fusion_lat": 0.0, "name": "58e1e9474d8cb5cee17e51163a5bc9d5", "fusion_lon": 0.0}, {"is_reserved": 0, "type": "electric_scooter", "bike_id": "cdeb46579db052fd609a081424070b1f", "lat": 38.92226216666667, "lon": -77.04244666666666, "rental_uris": {"android": "https://dc.lft.to/lastmile_qr_scan", "ios": "https://dc.lft.to/lastmile_qr_scan"}, "is_disabled": 0, "fusion_lat": 0.0, "name": "cdeb46579db052fd609a081424070b1f", "fusion_lon": 0.0}, {"is_reserved": 0, "type": "electric_scooter", "bike_id": "1fee84d4d1a6839d1075615dbaab4d95", "lat": 38.90462, "lon": -77.003287, "rental_uris": {"android": "https://dc.lft.to/lastmile_qr_scan", "ios": "https://dc.lft.to/lastmile_qr_scan"}, "is_disabled": 0, "fusion_lat": 0.0, "name": "1fee84d4d1a6839d1075615dbaab4d95", "fusion_lon": 0.0}, {"is_reserved": 0, "type": "electric_bike", "bike_id": "13385ff692a060bd15daf5e0339ef39c", "lat": 38.955958833333334, "lon": -76.99537533333333, "rental_uris": {"android": "https://dc.lft.to/lastmile_qr_scan", "ios": "https://dc.lft.to/lastmile_qr_scan"}, "is_disabled": 0, "fusion_lat": 0.0, "name": "13385ff692a060bd15daf5e0339ef39c", "fusion_lon": 0.0}, {"is_reserved": 0, "type": "electric_scooter", "bike_id": "99cb66f2a31554e0c01e1d6fa3b361a3", "lat": 38.90092516666667, "lon": -77.01613916666666, "rental_uris": {"android": "https://dc.lft.to/lastmile_qr_scan", "ios": "https://dc.lft.to/lastmile_qr_scan"}, "is_disabled": 0, "fusion_lat": 0.0, "name": "99cb66f2a31554e0c01e1d6fa3b361a3", "fusion_lon": 0.0}, {"is_reserved": 0, "type": "electric_scooter", "bike_id": "ebf9b336e58228ee089baef51fe7dd67", "lat": 38.92152266666667, "lon": -77.03868283333334, "rental_uris": {"android": "https://dc.lft.to/lastmile_qr_scan", "ios": "https://dc.lft.to/lastmile_qr_scan"}, "is_disabled": 0, "fusion_lat": 0.0, "name": "ebf9b336e58228ee089baef51fe7dd67", "fusion_lon": 0.0}, {"is_reserved": 0, "type": "electric_scooter", "bike_id": "d6b127e0d6c17def74a53f800b30e3ab", "lat": 38.893011666666666, "lon": -77.02158866666667, "rental_uris": {"android": "https://dc.lft.to/lastmile_qr_scan", "ios": "https://dc.lft.to/lastmile_qr_scan"}, "is_disabled": 0, "fusion_lat": 0.0, "name": "d6b127e0d6c17def74a53f800b30e3ab", "fusion_lon": 0.0}, {"is_reserved": 0, "type": "electric_scooter", "bike_id": "18acec4e62561435b001cf8ad7931fd4", "lat": 38.93780683333333, "lon": -77.07452933333333, "rental_uris": {"android": "https://dc.lft.to/lastmile_qr_scan", "ios": "https://dc.lft.to/lastmile_qr_scan"}, "is_disabled": 0, "fusion_lat": 0.0, "name": "18acec4e62561435b001cf8ad7931fd4", "fusion_lon": 0.0}, {"is_reserved": 0, "type": "electric_scooter", "bike_id": "5777361c6a289f6a551f9d631d09e188", "lat": 38.907174166666664, "lon": -77.055877, "rental_uris": {"android": "https://dc.lft.to/lastmile_qr_scan", "ios": "https://dc.lft.to/lastmile_qr_scan"}, "is_disabled": 0, "fusion_lat": 0.0, "name": "5777361c6a289f6a551f9d631d09e188", "fusion_lon": 0.0}, {"is_reserved": 0, "type": "electric_scooter", "bike_id": "1936be4496de2ea88dca8f8cf27edfc0", "lat": 38.91239433333333, "lon": -77.03850983333334, "rental_uris": {"android": "https://dc.lft.to/lastmile_qr_scan", "ios": "https://dc.lft.to/lastmile_qr_scan"}, "is_disabled": 0, "fusion_lat": 0.0, "name": "1936be4496de2ea88dca8f8cf27edfc0", "fusion_lon": 0.0}, {"is_reserved": 0, "type": "electric_scooter", "bike_id": "875662529a5349cf8e9b5b626f68c7e2", "lat": 38.9064305, "lon": -77.014277, "rental_uris": {"android": "https://dc.lft.to/lastmile_qr_scan", "ios": "https://dc.lft.to/lastmile_qr_scan"}, "is_disabled": 0, "fusion_lat": 0.0, "name": "875662529a5349cf8e9b5b626f68c7e2", "fusion_lon": 0.0}, {"is_reserved": 0, "type": "electric_scooter", "bike_id": "cc5538004b8968bd6b85746effcec572", "lat": 38.905586, "lon": -76.99777583333334, "rental_uris": {"android": "https://dc.lft.to/lastmile_qr_scan", "ios": "https://dc.lft.to/lastmile_qr_scan"}, "is_disabled": 0, "fusion_lat": 0.0, "name": "cc5538004b8968bd6b85746effcec572", "fusion_lon": 0.0}, {"is_reserved": 0, "type": "electric_scooter", "bike_id": "9918f699f1fb9ca07f0fe294be8dcb76", "lat": 38.9207475, "lon": -77.07460916666666, "rental_uris": {"android": "https://dc.lft.to/lastmile_qr_scan", "ios": "https://dc.lft.to/lastmile_qr_scan"}, "is_disabled": 0, "fusion_lat": 0.0, "name": "9918f699f1fb9ca07f0fe294be8dcb76", "fusion_lon": 0.0}, {"is_reserved": 0, "type": "electric_scooter", "bike_id": "0c60927562bd938f0a7a40b1c96eff51", "lat": 38.895368833333336, "lon": -77.01101883333334, "rental_uris": {"android": "https://dc.lft.to/lastmile_qr_scan", "ios": "https://dc.lft.to/lastmile_qr_scan"}, "is_disabled": 0, "fusion_lat": 0.0, "name": "0c60927562bd938f0a7a40b1c96eff51", "fusion_lon": 0.0}, {"is_reserved": 0, "type": "electric_scooter", "bike_id": "db175efeaacc2f5d5f18c4479a19b250", "lat": 38.885177, "lon": -77.015865, "rental_uris": {"android": "https://dc.lft.to/lastmile_qr_scan", "ios": "https://dc.lft.to/lastmile_qr_scan"}, "is_disabled": 0, "fusion_lat": 0.0, "name": "db175efeaacc2f5d5f18c4479a19b250", "fusion_lon": 0.0}, {"is_reserved": 0, "type": "electric_scooter", "bike_id": "eb9a7976f49758d5c7d9fb725f58ecfe", "lat": 38.9252935, "lon": -77.05571033333334, "rental_uris": {"android": "https://dc.lft.to/lastmile_qr_scan", "ios": "https://dc.lft.to/lastmile_qr_scan"}, "is_disabled": 0, "fusion_lat": 0.0, "name": "eb9a7976f49758d5c7d9fb725f58ecfe", "fusion_lon": 0.0}, {"is_reserved": 0, "type": "electric_scooter", "bike_id": "abc4e86dc51e1d40e51aac811eba6fdb", "lat": 38.902674166666664, "lon": -77.05389916666667, "rental_uris": {"android": "https://dc.lft.to/lastmile_qr_scan", "ios": "https://dc.lft.to/lastmile_qr_scan"}, "is_disabled": 0, "fusion_lat": 0.0, "name": "abc4e86dc51e1d40e51aac811eba6fdb", "fusion_lon": 0.0}, {"is_reserved": 0, "type": "electric_scooter", "bike_id": "c2bbdbe5d53dadb40b739695b0a9f10a", "lat": 38.88409883333333, "lon": -76.98584683333333, "rental_uris": {"android": "https://dc.lft.to/lastmile_qr_scan", "ios": "https://dc.lft.to/lastmile_qr_scan"}, "is_disabled": 0, "fusion_lat": 0.0, "name": "c2bbdbe5d53dadb40b739695b0a9f10a", "fusion_lon": 0.0}, {"is_reserved": 0, "type": "electric_scooter", "bike_id": "69715b9df5e3c2a923971c926a9092b6", "lat": 38.9210445, "lon": -77.03008116666666, "rental_uris": {"android": "https://dc.lft.to/lastmile_qr_scan", "ios": "https://dc.lft.to/lastmile_qr_scan"}, "is_disabled": 0, "fusion_lat": 0.0, "name": "69715b9df5e3c2a923971c926a9092b6", "fusion_lon": 0.0}, {"is_reserved": 0, "type": "electric_scooter", "bike_id": "a55124e4832eb24d0d403a22067a5e8a", "lat": 38.900267166666666, "lon": -77.00208966666666, "rental_uris": {"android": "https://dc.lft.to/lastmile_qr_scan", "ios": "https://dc.lft.to/lastmile_qr_scan"}, "is_disabled": 0, "fusion_lat": 0.0, "name": "a55124e4832eb24d0d403a22067a5e8a", "fusion_lon": 0.0}, {"is_reserved": 0, "type": "electric_scooter", "bike_id": "ef7b4053f2aea37dc710aa7eed2dbe02", "lat": 38.8993415, "lon": -77.0269155, "rental_uris": {"android": "https://dc.lft.to/lastmile_qr_scan", "ios": "https://dc.lft.to/lastmile_qr_scan"}, "is_disabled": 0, "fusion_lat": 0.0, "name": "ef7b4053f2aea37dc710aa7eed2dbe02", "fusion_lon": 0.0}, {"is_reserved": 0, "type": "electric_scooter", "bike_id": "d128a20f1dafd50ff76d5e5d3885fb5e", "lat": 38.919352, "lon": -77.08137066666667, "rental_uris": {"android": "https://dc.lft.to/lastmile_qr_scan", "ios": "https://dc.lft.to/lastmile_qr_scan"}, "is_disabled": 0, "fusion_lat": 0.0, "name": "d128a20f1dafd50ff76d5e5d3885fb5e", "fusion_lon": 0.0}, {"is_reserved": 0, "type": "electric_scooter", "bike_id": "cf8c267fcb56558039b271f571539dd1", "lat": 38.91706816666667, "lon": -77.02855033333333, "rental_uris": {"android": "https://dc.lft.to/lastmile_qr_scan", "ios": "https://dc.lft.to/lastmile_qr_scan"}, "is_disabled": 0, "fusion_lat": 0.0, "name": "cf8c267fcb56558039b271f571539dd1", "fusion_lon": 0.0}, {"is_reserved": 0, "type": "electric_scooter", "bike_id": "addb224db9ea7c38160e89e43d370ce6", "lat": 38.894946166666664, "lon": -77.01763883333334, "rental_uris": {"android": "https://dc.lft.to/lastmile_qr_scan", "ios": "https://dc.lft.to/lastmile_qr_scan"}, "is_disabled": 0, "fusion_lat": 0.0, "name": "addb224db9ea7c38160e89e43d370ce6", "fusion_lon": 0.0}, {"is_reserved": 0, "type": "electric_scooter", "bike_id": "c9cf27552353892eeb4a3e53fdede4d2", "lat": 38.8951685, "lon": -77.0268305, "rental_uris": {"android": "https://dc.lft.to/lastmile_qr_scan", "ios": "https://dc.lft.to/lastmile_qr_scan"}, "is_disabled": 0, "fusion_lat": 0.0, "name": "c9cf27552353892eeb4a3e53fdede4d2", "fusion_lon": 0.0}, {"is_reserved": 0, "type": "electric_scooter", "bike_id": "086e9bf46186b00f2f34772142302fbf", "lat": 38.9343865, "lon": -77.07261216666667, "rental_uris": {"android": "https://dc.lft.to/lastmile_qr_scan", "ios": "https://dc.lft.to/lastmile_qr_scan"}, "is_disabled": 0, "fusion_lat": 0.0, "name": "086e9bf46186b00f2f34772142302fbf", "fusion_lon": 0.0}, {"is_reserved": 0, "type": "electric_scooter", "bike_id": "d25f02aca9526cb9c7d8ac6f906a0da9", "lat": 38.9203065, "lon": -77.01035616666667, "rental_uris": {"android": "https://dc.lft.to/lastmile_qr_scan", "ios": "https://dc.lft.to/lastmile_qr_scan"}, "is_disabled": 0, "fusion_lat": 0.0, "name": "d25f02aca9526cb9c7d8ac6f906a0da9", "fusion_lon": 0.0}, {"is_reserved": 0, "type": "electric_scooter", "bike_id": "533c7c5def52f710bbf97ca8003bab2a", "lat": 38.897284, "lon": -77.04888633333333, "rental_uris": {"android": "https://dc.lft.to/lastmile_qr_scan", "ios": "https://dc.lft.to/lastmile_qr_scan"}, "is_disabled": 0, "fusion_lat": 0.0, "name": "533c7c5def52f710bbf97ca8003bab2a", "fusion_lon": 0.0}, {"is_reserved": 0, "type": "electric_scooter", "bike_id": "d26dbdb01d2f5b5e0949770d7ff8e2db", "lat": 38.933211166666666, "lon": -77.044211, "rental_uris": {"android": "https://dc.lft.to/lastmile_qr_scan", "ios": "https://dc.lft.to/lastmile_qr_scan"}, "is_disabled": 0, "fusion_lat": 0.0, "name": "d26dbdb01d2f5b5e0949770d7ff8e2db", "fusion_lon": 0.0}, {"is_reserved": 0, "type": "electric_scooter", "bike_id": "7bba33b53fd0a3867b37f921c553e309", "lat": 38.8771975, "lon": -77.01707416666666, "rental_uris": {"android": "https://dc.lft.to/lastmile_qr_scan", "ios": "https://dc.lft.to/lastmile_qr_scan"}, "is_disabled": 0, "fusion_lat": 0.0, "name": "7bba33b53fd0a3867b37f921c553e309", "fusion_lon": 0.0}, {"is_reserved": 0, "type": "electric_scooter", "bike_id": "6cb698978ec5f50144f8fcf5362f5a12", "lat": 38.90843066666667, "lon": -77.05496866666667, "rental_uris": {"android": "https://dc.lft.to/lastmile_qr_scan", "ios": "https://dc.lft.to/lastmile_qr_scan"}, "is_disabled": 0, "fusion_lat": 0.0, "name": "6cb698978ec5f50144f8fcf5362f5a12", "fusion_lon": 0.0}, {"is_reserved": 0, "type": "electric_scooter", "bike_id": "4c28dc1e953577e0006df928ea717003", "lat": 38.91575616666667, "lon": -77.03643333333333, "rental_uris": {"android": "https://dc.lft.to/lastmile_qr_scan", "ios": "https://dc.lft.to/lastmile_qr_scan"}, "is_disabled": 0, "fusion_lat": 0.0, "name": "4c28dc1e953577e0006df928ea717003", "fusion_lon": 0.0}, {"is_reserved": 0, "type": "electric_bike", "bike_id": "9f40d259401dd23a4ad81c06cdfb2e5a", "lat": 38.85416433333333, "lon": -77.08367166666666, "rental_uris": {"android": "https://dc.lft.to/lastmile_qr_scan", "ios": "https://dc.lft.to/lastmile_qr_scan"}, "is_disabled": 0, "fusion_lat": 0.0, "name": "9f40d259401dd23a4ad81c06cdfb2e5a", "fusion_lon": 0.0}, {"is_reserved": 0, "type": "electric_bike", "bike_id": "b626cd15ad170e2fafacdbb7630b24c3", "lat": 38.9022715, "lon": -77.0590925, "rental_uris": {"android": "https://dc.lft.to/lastmile_qr_scan", "ios": "https://dc.lft.to/lastmile_qr_scan"}, "is_disabled": 0, "fusion_lat": 0.0, "name": "b626cd15ad170e2fafacdbb7630b24c3", "fusion_lon": 0.0}, {"is_reserved": 0, "type": "electric_scooter", "bike_id": "deddbf4084e5773f2f625cec127f80fd", "lat": 38.9365785, "lon": -77.03656066666667, "rental_uris": {"android": "https://dc.lft.to/lastmile_qr_scan", "ios": "https://dc.lft.to/lastmile_qr_scan"}, "is_disabled": 0, "fusion_lat": 0.0, "name": "deddbf4084e5773f2f625cec127f80fd", "fusion_lon": 0.0}, {"is_reserved": 0, "type": "electric_bike", "bike_id": "bfd62e4af8a5b5abe8f2cd1509a980b2", "lat": 38.870387666666666, "lon": -77.22902633333334, "rental_uris": {"android": "https://dc.lft.to/lastmile_qr_scan", "ios": "https://dc.lft.to/lastmile_qr_scan"}, "is_disabled": 0, "fusion_lat": 0.0, "name": "bfd62e4af8a5b5abe8f2cd1509a980b2", "fusion_lon": 0.0}, {"is_reserved": 0, "type": "electric_bike", "bike_id": "d06e5c7e972e1ea9a2789bbe16cb343c", "lat": 39.00445416666667, "lon": -76.90132916666667, "rental_uris": {"android": "https://dc.lft.to/lastmile_qr_scan", "ios": "https://dc.lft.to/lastmile_qr_scan"}, "is_disabled": 0, "fusion_lat": 0.0, "name": "d06e5c7e972e1ea9a2789bbe16cb343c", "fusion_lon": 0.0}, {"is_reserved": 0, "type": "electric_scooter", "bike_id": "3c5dca4ff89af89d949377f01fc1b9d1", "lat": 38.8973335, "lon": -77.049935, "rental_uris": {"android": "https://dc.lft.to/lastmile_qr_scan", "ios": "https://dc.lft.to/lastmile_qr_scan"}, "is_disabled": 0, "fusion_lat": 0.0, "name": "3c5dca4ff89af89d949377f01fc1b9d1", "fusion_lon": 0.0}, {"is_reserved": 0, "type": "electric_scooter", "bike_id": "5d11eba94c0b74f72ac7d7e3c206a9aa", "lat": 38.9244985, "lon": -77.0203635, "rental_uris": {"android": "https://dc.lft.to/lastmile_qr_scan", "ios": "https://dc.lft.to/lastmile_qr_scan"}, "is_disabled": 0, "fusion_lat": 0.0, "name": "5d11eba94c0b74f72ac7d7e3c206a9aa", "fusion_lon": 0.0}, {"is_reserved": 0, "type": "electric_scooter", "bike_id": "15174e341f94ea453e452a8342ab23be", "lat": 38.89384916666667, "lon": -76.92309883333333, "rental_uris": {"android": "https://dc.lft.to/lastmile_qr_scan", "ios": "https://dc.lft.to/lastmile_qr_scan"}, "is_disabled": 0, "fusion_lat": 0.0, "name": "15174e341f94ea453e452a8342ab23be", "fusion_lon": 0.0}, {"is_reserved": 0, "type": "electric_bike", "bike_id": "4d9832af9a2ff8261b56735caf0e20e4", "lat": 38.921360166666666, "lon": -77.0040245, "rental_uris": {"android": "https://dc.lft.to/lastmile_qr_scan", "ios": "https://dc.lft.to/lastmile_qr_scan"}, "is_disabled": 0, "fusion_lat": 0.0, "name": "4d9832af9a2ff8261b56735caf0e20e4", "fusion_lon": 0.0}, {"is_reserved": 0, "type": "electric_scooter", "bike_id": "ebe8b5bc57c9703d0b613efbb4f56bd9", "lat": 38.93403416666666, "lon": -77.032674, "rental_uris": {"android": "https://dc.lft.to/lastmile_qr_scan", "ios": "https://dc.lft.to/lastmile_qr_scan"}, "is_disabled": 0, "fusion_lat": 0.0, "name": "ebe8b5bc57c9703d0b613efbb4f56bd9", "fusion_lon": 0.0}, {"is_reserved": 0, "type": "electric_scooter", "bike_id": "8e521fa32a89302daa9046b73091dac5", "lat": 38.912035, "lon": -77.031761, "rental_uris": {"android": "https://dc.lft.to/lastmile_qr_scan", "ios": "https://dc.lft.to/lastmile_qr_scan"}, "is_disabled": 0, "fusion_lat": 0.0, "name": "8e521fa32a89302daa9046b73091dac5", "fusion_lon": 0.0}, {"is_reserved": 0, "type": "electric_scooter", "bike_id": "e777516500b581433ac01cbf28979d42", "lat": 38.91706766666667, "lon": -77.0241215, "rental_uris": {"android": "https://dc.lft.to/lastmile_qr_scan", "ios": "https://dc.lft.to/lastmile_qr_scan"}, "is_disabled": 0, "fusion_lat": 0.0, "name": "e777516500b581433ac01cbf28979d42", "fusion_lon": 0.0}, {"is_reserved": 0, "type": "electric_scooter", "bike_id": "2cc8b852a62050067885b509a0523b14", "lat": 38.935402333333336, "lon": -77.05823616666666, "rental_uris": {"android": "https://dc.lft.to/lastmile_qr_scan", "ios": "https://dc.lft.to/lastmile_qr_scan"}, "is_disabled": 0, "fusion_lat": 0.0, "name": "2cc8b852a62050067885b509a0523b14", "fusion_lon": 0.0}, {"is_reserved": 0, "type": "electric_scooter", "bike_id": "1b4cbd9bbf38f87987b34735b42c9f00", "lat": 38.902802, "lon": -77.03637533333334, "rental_uris": {"android": "https://dc.lft.to/lastmile_qr_scan", "ios": "https://dc.lft.to/lastmile_qr_scan"}, "is_disabled": 0, "fusion_lat": 0.0, "name": "1b4cbd9bbf38f87987b34735b42c9f00", "fusion_lon": 0.0}, {"is_reserved": 0, "type": "electric_scooter", "bike_id": "903b4cdb5137751e2af28a4005075953", "lat": 38.8987945, "lon": -77.05285233333333, "rental_uris": {"android": "https://dc.lft.to/lastmile_qr_scan", "ios": "https://dc.lft.to/lastmile_qr_scan"}, "is_disabled": 0, "fusion_lat": 0.0, "name": "903b4cdb5137751e2af28a4005075953", "fusion_lon": 0.0}, {"is_reserved": 0, "type": "electric_scooter", "bike_id": "b9761e87faeae27ac62463f171f3cd45", "lat": 38.90191166666666, "lon": -77.0200915, "rental_uris": {"android": "https://dc.lft.to/lastmile_qr_scan", "ios": "https://dc.lft.to/lastmile_qr_scan"}, "is_disabled": 0, "fusion_lat": 0.0, "name": "b9761e87faeae27ac62463f171f3cd45", "fusion_lon": 0.0}, {"is_reserved": 0, "type": "electric_scooter", "bike_id": "9555c42638df5a3e42442bd466fbb20b", "lat": 38.93224583333333, "lon": -77.03397283333334, "rental_uris": {"android": "https://dc.lft.to/lastmile_qr_scan", "ios": "https://dc.lft.to/lastmile_qr_scan"}, "is_disabled": 0, "fusion_lat": 0.0, "name": "9555c42638df5a3e42442bd466fbb20b", "fusion_lon": 0.0}, {"is_reserved": 0, "type": "electric_scooter", "bike_id": "60189c4dbf8298bb299163d6eb812bd9", "lat": 38.89558666666667, "lon": -77.01111383333334, "rental_uris": {"android": "https://dc.lft.to/lastmile_qr_scan", "ios": "https://dc.lft.to/lastmile_qr_scan"}, "is_disabled": 0, "fusion_lat": 0.0, "name": "60189c4dbf8298bb299163d6eb812bd9", "fusion_lon": 0.0}, {"is_reserved": 0, "type": "electric_scooter", "bike_id": "46ef4a11e1ad44e6c31f5cb78679274b", "lat": 38.92892466666667, "lon": -77.0332935, "rental_uris": {"android": "https://dc.lft.to/lastmile_qr_scan", "ios": "https://dc.lft.to/lastmile_qr_scan"}, "is_disabled": 0, "fusion_lat": 0.0, "name": "46ef4a11e1ad44e6c31f5cb78679274b", "fusion_lon": 0.0}, {"is_reserved": 0, "type": "electric_bike", "bike_id": "0e75bccdb6a72fb06b1bd2093de57015", "lat": 38.832347666666664, "lon": -76.946207, "rental_uris": {"android": "https://dc.lft.to/lastmile_qr_scan", "ios": "https://dc.lft.to/lastmile_qr_scan"}, "is_disabled": 0, "fusion_lat": 0.0, "name": "0e75bccdb6a72fb06b1bd2093de57015", "fusion_lon": 0.0}, {"is_reserved": 0, "type": "electric_scooter", "bike_id": "c3d7a69465234ec2df7947b39ba6e902", "lat": 38.9320725, "lon": -77.02733583333334, "rental_uris": {"android": "https://dc.lft.to/lastmile_qr_scan", "ios": "https://dc.lft.to/lastmile_qr_scan"}, "is_disabled": 0, "fusion_lat": 0.0, "name": "c3d7a69465234ec2df7947b39ba6e902", "fusion_lon": 0.0}, {"is_reserved": 0, "type": "electric_bike", "bike_id": "e3d26a2a39a62fa8530ad49c8b8c9731", "lat": 38.88387133333333, "lon": -76.95446816666667, "rental_uris": {"android": "https://dc.lft.to/lastmile_qr_scan", "ios": "https://dc.lft.to/lastmile_qr_scan"}, "is_disabled": 0, "fusion_lat": 0.0, "name": "e3d26a2a39a62fa8530ad49c8b8c9731", "fusion_lon": 0.0}, {"is_reserved": 0, "type": "electric_scooter", "bike_id": "4cfbc186b782c1db3d93879c0615675a", "lat": 38.91100466666666, "lon": -76.99724166666667, "rental_uris": {"android": "https://dc.lft.to/lastmile_qr_scan", "ios": "https://dc.lft.to/lastmile_qr_scan"}, "is_disabled": 0, "fusion_lat": 0.0, "name": "4cfbc186b782c1db3d93879c0615675a", "fusion_lon": 0.0}, {"is_reserved": 0, "type": "electric_scooter", "bike_id": "09d6ca91afa52cd5cc8009bec8c650bc", "lat": 38.91256716666667, "lon": -76.98354683333334, "rental_uris": {"android": "https://dc.lft.to/lastmile_qr_scan", "ios": "https://dc.lft.to/lastmile_qr_scan"}, "is_disabled": 0, "fusion_lat": 0.0, "name": "09d6ca91afa52cd5cc8009bec8c650bc", "fusion_lon": 0.0}, {"is_reserved": 0, "type": "electric_scooter", "bike_id": "fc683e7a59de4ea9ae51b2b69f65e9dd", "lat": 38.89857466666667, "lon": -76.97760016666666, "rental_uris": {"android": "https://dc.lft.to/lastmile_qr_scan", "ios": "https://dc.lft.to/lastmile_qr_scan"}, "is_disabled": 0, "fusion_lat": 0.0, "name": "fc683e7a59de4ea9ae51b2b69f65e9dd", "fusion_lon": 0.0}, {"is_reserved": 0, "type": "electric_scooter", "bike_id": "47468646b1783a32a8b57a5bc3d8aa85", "lat": 38.930558166666664, "lon": -77.023304, "rental_uris": {"android": "https://dc.lft.to/lastmile_qr_scan", "ios": "https://dc.lft.to/lastmile_qr_scan"}, "is_disabled": 0, "fusion_lat": 0.0, "name": "47468646b1783a32a8b57a5bc3d8aa85", "fusion_lon": 0.0}, {"is_reserved": 0, "type": "electric_bike", "bike_id": "ed37ec0cce480081ea4ecbbc87494eac", "lat": 38.943079166666664, "lon": -76.99014633333333, "rental_uris": {"android": "https://dc.lft.to/lastmile_qr_scan", "ios": "https://dc.lft.to/lastmile_qr_scan"}, "is_disabled": 0, "fusion_lat": 0.0, "name": "ed37ec0cce480081ea4ecbbc87494eac", "fusion_lon": 0.0}, {"is_reserved": 0, "type": "electric_scooter", "bike_id": "0b682838d85b84a2203a0a8291d22ba6", "lat": 38.903983, "lon": -76.98944716666666, "rental_uris": {"android": "https://dc.lft.to/lastmile_qr_scan", "ios": "https://dc.lft.to/lastmile_qr_scan"}, "is_disabled": 0, "fusion_lat": 0.0, "name": "0b682838d85b84a2203a0a8291d22ba6", "fusion_lon": 0.0}, {"is_reserved": 0, "type": "electric_scooter", "bike_id": "0fd5e7e8b950829edebc181d6623148f", "lat": 38.91813483333333, "lon": -77.040027, "rental_uris": {"android": "https://dc.lft.to/lastmile_qr_scan", "ios": "https://dc.lft.to/lastmile_qr_scan"}, "is_disabled": 0, "fusion_lat": 0.0, "name": "0fd5e7e8b950829edebc181d6623148f", "fusion_lon": 0.0}, {"is_reserved": 0, "type": "electric_bike", "bike_id": "b1694a67f0db903cf6db534c59781ec9", "lat": 38.861104833333336, "lon": -76.98371516666667, "rental_uris": {"android": "https://dc.lft.to/lastmile_qr_scan", "ios": "https://dc.lft.to/lastmile_qr_scan"}, "is_disabled": 0, "fusion_lat": 0.0, "name": "b1694a67f0db903cf6db534c59781ec9", "fusion_lon": 0.0}, {"is_reserved": 0, "type": "electric_bike", "bike_id": "16e3c23f61282c0ac9bee31a6ac24789", "lat": 38.872071, "lon": -77.11742966666667, "rental_uris": {"android": "https://dc.lft.to/lastmile_qr_scan", "ios": "https://dc.lft.to/lastmile_qr_scan"}, "is_disabled": 0, "fusion_lat": 0.0, "name": "16e3c23f61282c0ac9bee31a6ac24789", "fusion_lon": 0.0}, {"is_reserved": 0, "type": "electric_scooter", "bike_id": "171cb88e00cb1ec3765c00d22bfb5dac", "lat": 38.9469365, "lon": -77.02248566666667, "rental_uris": {"android": "https://dc.lft.to/lastmile_qr_scan", "ios": "https://dc.lft.to/lastmile_qr_scan"}, "is_disabled": 0, "fusion_lat": 0.0, "name": "171cb88e00cb1ec3765c00d22bfb5dac", "fusion_lon": 0.0}, {"is_reserved": 0, "type": "electric_scooter", "bike_id": "51a1395a42536bf8ee95997e4aa9322b", "lat": 38.923321, "lon": -77.0296705, "rental_uris": {"android": "https://dc.lft.to/lastmile_qr_scan", "ios": "https://dc.lft.to/lastmile_qr_scan"}, "is_disabled": 0, "fusion_lat": 0.0, "name": "51a1395a42536bf8ee95997e4aa9322b", "fusion_lon": 0.0}, {"is_reserved": 0, "type": "electric_bike", "bike_id": "99f3feebeb38f22f4576035babfedfad", "lat": 38.916866, "lon": -77.00068433333334, "rental_uris": {"android": "https://dc.lft.to/lastmile_qr_scan", "ios": "https://dc.lft.to/lastmile_qr_scan"}, "is_disabled": 0, "fusion_lat": 0.0, "name": "99f3feebeb38f22f4576035babfedfad", "fusion_lon": 0.0}, {"is_reserved": 0, "type": "electric_scooter", "bike_id": "6d1c6dda1f1eba960020206f86613708", "lat": 38.92733916666667, "lon": -77.052506, "rental_uris": {"android": "https://dc.lft.to/lastmile_qr_scan", "ios": "https://dc.lft.to/lastmile_qr_scan"}, "is_disabled": 0, "fusion_lat": 0.0, "name": "6d1c6dda1f1eba960020206f86613708", "fusion_lon": 0.0}, {"is_reserved": 0, "type": "electric_scooter", "bike_id": "c77bec695bd5c4b423c152d18c5f6c35", "lat": 38.919016166666665, "lon": -77.0338535, "rental_uris": {"android": "https://dc.lft.to/lastmile_qr_scan", "ios": "https://dc.lft.to/lastmile_qr_scan"}, "is_disabled": 0, "fusion_lat": 0.0, "name": "c77bec695bd5c4b423c152d18c5f6c35", "fusion_lon": 0.0}, {"is_reserved": 0, "type": "electric_scooter", "bike_id": "1d8773559dd35145e7f3b313ac7b38aa", "lat": 38.927744, "lon": -77.052565, "rental_uris": {"android": "https://dc.lft.to/lastmile_qr_scan", "ios": "https://dc.lft.to/lastmile_qr_scan"}, "is_disabled": 0, "fusion_lat": 0.0, "name": "1d8773559dd35145e7f3b313ac7b38aa", "fusion_lon": 0.0}, {"is_reserved": 0, "type": "electric_scooter", "bike_id": "bfd468b3b5791fec624eff98fa1300c7", "lat": 38.907845333333334, "lon": -76.99996983333334, "rental_uris": {"android": "https://dc.lft.to/lastmile_qr_scan", "ios": "https://dc.lft.to/lastmile_qr_scan"}, "is_disabled": 0, "fusion_lat": 0.0, "name": "bfd468b3b5791fec624eff98fa1300c7", "fusion_lon": 0.0}, {"is_reserved": 0, "type": "electric_scooter", "bike_id": "5dfa632845f4239b1f3ff3ae32115013", "lat": 38.93246383333334, "lon": -76.995003, "rental_uris": {"android": "https://dc.lft.to/lastmile_qr_scan", "ios": "https://dc.lft.to/lastmile_qr_scan"}, "is_disabled": 0, "fusion_lat": 0.0, "name": "5dfa632845f4239b1f3ff3ae32115013", "fusion_lon": 0.0}, {"is_reserved": 0, "type": "electric_scooter", "bike_id": "aa692a110226a2f6e71c829079554d36", "lat": 38.94981883333333, "lon": -77.020171, "rental_uris": {"android": "https://dc.lft.to/lastmile_qr_scan", "ios": "https://dc.lft.to/lastmile_qr_scan"}, "is_disabled": 0, "fusion_lat": 0.0, "name": "aa692a110226a2f6e71c829079554d36", "fusion_lon": 0.0}, {"is_reserved": 0, "type": "electric_bike", "bike_id": "42bb14dd8475790fcfdb6866f26fd31f", "lat": 38.93102016666667, "lon": -77.03838083333333, "rental_uris": {"android": "https://dc.lft.to/lastmile_qr_scan", "ios": "https://dc.lft.to/lastmile_qr_scan"}, "is_disabled": 0, "fusion_lat": 0.0, "name": "42bb14dd8475790fcfdb6866f26fd31f", "fusion_lon": 0.0}, {"is_reserved": 0, "type": "electric_bike", "bike_id": "144388f9f4d8fab450725a2ca23226f4", "lat": 38.945404333333336, "lon": -77.344506, "rental_uris": {"android": "https://dc.lft.to/lastmile_qr_scan", "ios": "https://dc.lft.to/lastmile_qr_scan"}, "is_disabled": 0, "fusion_lat": 0.0, "name": "144388f9f4d8fab450725a2ca23226f4", "fusion_lon": 0.0}, {"is_reserved": 0, "type": "electric_scooter", "bike_id": "2c26b66cb1c7b98b368016f9e065dc62", "lat": 38.911114, "lon": -77.0383805, "rental_uris": {"android": "https://dc.lft.to/lastmile_qr_scan", "ios": "https://dc.lft.to/lastmile_qr_scan"}, "is_disabled": 0, "fusion_lat": 0.0, "name": "2c26b66cb1c7b98b368016f9e065dc62", "fusion_lon": 0.0}, {"is_reserved": 0, "type": "electric_scooter", "bike_id": "998b5849738c701162a4e680a9ab49dc", "lat": 38.9002645, "lon": -76.9876755, "rental_uris": {"android": "https://dc.lft.to/lastmile_qr_scan", "ios": "https://dc.lft.to/lastmile_qr_scan"}, "is_disabled": 0, "fusion_lat": 0.0, "name": "998b5849738c701162a4e680a9ab49dc", "fusion_lon": 0.0}, {"is_reserved": 0, "type": "electric_scooter", "bike_id": "98b2472b4e8fd296ff7417c39f28c406", "lat": 38.934621666666665, "lon": -77.02100383333334, "rental_uris": {"android": "https://dc.lft.to/lastmile_qr_scan", "ios": "https://dc.lft.to/lastmile_qr_scan"}, "is_disabled": 0, "fusion_lat": 0.0, "name": "98b2472b4e8fd296ff7417c39f28c406", "fusion_lon": 0.0}, {"is_reserved": 0, "type": "electric_scooter", "bike_id": "b820839187ee86a5d40532a41e86b635", "lat": 38.88996616666667, "lon": -76.9930095, "rental_uris": {"android": "https://dc.lft.to/lastmile_qr_scan", "ios": "https://dc.lft.to/lastmile_qr_scan"}, "is_disabled": 0, "fusion_lat": 0.0, "name": "b820839187ee86a5d40532a41e86b635", "fusion_lon": 0.0}, {"is_reserved": 0, "type": "electric_scooter", "bike_id": "47a61e2f28f76ec9c35963c3a3d10222", "lat": 38.916927333333334, "lon": -77.03585633333333, "rental_uris": {"android": "https://dc.lft.to/lastmile_qr_scan", "ios": "https://dc.lft.to/lastmile_qr_scan"}, "is_disabled": 0, "fusion_lat": 0.0, "name": "47a61e2f28f76ec9c35963c3a3d10222", "fusion_lon": 0.0}, {"is_reserved": 0, "type": "electric_bike", "bike_id": "d2b41120016199231f1b226516f98061", "lat": 38.830496, "lon": -77.0125165, "rental_uris": {"android": "https://dc.lft.to/lastmile_qr_scan", "ios": "https://dc.lft.to/lastmile_qr_scan"}, "is_disabled": 0, "fusion_lat": 0.0, "name": "d2b41120016199231f1b226516f98061", "fusion_lon": 0.0}, {"is_reserved": 0, "type": "electric_scooter", "bike_id": "e9c3fb3efa3d1f948bbe53a4327c9f0c", "lat": 38.908386, "lon": -76.99178483333333, "rental_uris": {"android": "https://dc.lft.to/lastmile_qr_scan", "ios": "https://dc.lft.to/lastmile_qr_scan"}, "is_disabled": 0, "fusion_lat": 0.0, "name": "e9c3fb3efa3d1f948bbe53a4327c9f0c", "fusion_lon": 0.0}, {"is_reserved": 0, "type": "electric_scooter", "bike_id": "a8f0c368471dd657cc7195db0005b15d", "lat": 38.8827965, "lon": -76.99484966666667, "rental_uris": {"android": "https://dc.lft.to/lastmile_qr_scan", "ios": "https://dc.lft.to/lastmile_qr_scan"}, "is_disabled": 0, "fusion_lat": 0.0, "name": "a8f0c368471dd657cc7195db0005b15d", "fusion_lon": 0.0}, {"is_reserved": 0, "type": "electric_scooter", "bike_id": "10a0833ea3045089ecc6b97d5d79113f", "lat": 38.92104783333333, "lon": -77.03178416666667, "rental_uris": {"android": "https://dc.lft.to/lastmile_qr_scan", "ios": "https://dc.lft.to/lastmile_qr_scan"}, "is_disabled": 0, "fusion_lat": 0.0, "name": "10a0833ea3045089ecc6b97d5d79113f", "fusion_lon": 0.0}, {"is_reserved": 0, "type": "electric_bike", "bike_id": "9fbe4243a5134539594ecca1ee7ef0f2", "lat": 39.084331, "lon": -76.95148566666667, "rental_uris": {"android": "https://dc.lft.to/lastmile_qr_scan", "ios": "https://dc.lft.to/lastmile_qr_scan"}, "is_disabled": 0, "fusion_lat": 0.0, "name": "9fbe4243a5134539594ecca1ee7ef0f2", "fusion_lon": 0.0}, {"is_reserved": 0, "type": "electric_scooter", "bike_id": "17708187348355aedc0b351837720036", "lat": 38.90904116666667, "lon": -76.99618066666666, "rental_uris": {"android": "https://dc.lft.to/lastmile_qr_scan", "ios": "https://dc.lft.to/lastmile_qr_scan"}, "is_disabled": 0, "fusion_lat": 0.0, "name": "17708187348355aedc0b351837720036", "fusion_lon": 0.0}, {"is_reserved": 0, "type": "electric_scooter", "bike_id": "7976ced83f34a19aa7cfcf7b5d2521ae", "lat": 38.880623666666665, "lon": -77.024865, "rental_uris": {"android": "https://dc.lft.to/lastmile_qr_scan", "ios": "https://dc.lft.to/lastmile_qr_scan"}, "is_disabled": 0, "fusion_lat": 0.0, "name": "7976ced83f34a19aa7cfcf7b5d2521ae", "fusion_lon": 0.0}, {"is_reserved": 0, "type": "electric_scooter", "bike_id": "eee667ae3a0016be4efb2d8818e835e2", "lat": 38.926305166666666, "lon": -77.04249633333333, "rental_uris": {"android": "https://dc.lft.to/lastmile_qr_scan", "ios": "https://dc.lft.to/lastmile_qr_scan"}, "is_disabled": 0, "fusion_lat": 0.0, "name": "eee667ae3a0016be4efb2d8818e835e2", "fusion_lon": 0.0}, {"is_reserved": 0, "type": "electric_scooter", "bike_id": "4d3bd9bdec7a77f3c38a3f8ab85559f4", "lat": 38.943252333333334, "lon": -77.01257666666666, "rental_uris": {"android": "https://dc.lft.to/lastmile_qr_scan", "ios": "https://dc.lft.to/lastmile_qr_scan"}, "is_disabled": 0, "fusion_lat": 0.0, "name": "4d3bd9bdec7a77f3c38a3f8ab85559f4", "fusion_lon": 0.0}, {"is_reserved": 0, "type": "electric_scooter", "bike_id": "1a8a029d5d2d530db35a7b9b775f0532", "lat": 38.930386666666664, "lon": -77.0553915, "rental_uris": {"android": "https://dc.lft.to/lastmile_qr_scan", "ios": "https://dc.lft.to/lastmile_qr_scan"}, "is_disabled": 0, "fusion_lat": 0.0, "name": "1a8a029d5d2d530db35a7b9b775f0532", "fusion_lon": 0.0}, {"is_reserved": 0, "type": "electric_scooter", "bike_id": "004c019dcc9483eb953771426b7efb63", "lat": 38.92429716666667, "lon": -77.034115, "rental_uris": {"android": "https://dc.lft.to/lastmile_qr_scan", "ios": "https://dc.lft.to/lastmile_qr_scan"}, "is_disabled": 0, "fusion_lat": 0.0, "name": "004c019dcc9483eb953771426b7efb63", "fusion_lon": 0.0}, {"is_reserved": 0, "type": "electric_scooter", "bike_id": "f3b79138324a9cd605f6d737a8bb4bcd", "lat": 38.911984833333335, "lon": -77.03755833333334, "rental_uris": {"android": "https://dc.lft.to/lastmile_qr_scan", "ios": "https://dc.lft.to/lastmile_qr_scan"}, "is_disabled": 0, "fusion_lat": 0.0, "name": "f3b79138324a9cd605f6d737a8bb4bcd", "fusion_lon": 0.0}, {"is_reserved": 0, "type": "electric_scooter", "bike_id": "71e8f23afac78057b8fa6bfb81954984", "lat": 38.89515933333333, "lon": -76.97900066666666, "rental_uris": {"android": "https://dc.lft.to/lastmile_qr_scan", "ios": "https://dc.lft.to/lastmile_qr_scan"}, "is_disabled": 0, "fusion_lat": 0.0, "name": "71e8f23afac78057b8fa6bfb81954984", "fusion_lon": 0.0}, {"is_reserved": 0, "type": "electric_scooter", "bike_id": "9a9f6db413d33cd0bdf658ca14d20ab4", "lat": 38.90787983333333, "lon": -76.99973416666667, "rental_uris": {"android": "https://dc.lft.to/lastmile_qr_scan", "ios": "https://dc.lft.to/lastmile_qr_scan"}, "is_disabled": 0, "fusion_lat": 0.0, "name": "9a9f6db413d33cd0bdf658ca14d20ab4", "fusion_lon": 0.0}, {"is_reserved": 0, "type": "electric_scooter", "bike_id": "0b56e4754f8dafec2769fb282d0e83d1", "lat": 38.90537666666667, "lon": -77.04086216666667, "rental_uris": {"android": "https://dc.lft.to/lastmile_qr_scan", "ios": "https://dc.lft.to/lastmile_qr_scan"}, "is_disabled": 0, "fusion_lat": 0.0, "name": "0b56e4754f8dafec2769fb282d0e83d1", "fusion_lon": 0.0}, {"is_reserved": 0, "type": "electric_scooter", "bike_id": "184bddf57f65d6040762c3b93d82f132", "lat": 38.903855166666666, "lon": -77.027375, "rental_uris": {"android": "https://dc.lft.to/lastmile_qr_scan", "ios": "https://dc.lft.to/lastmile_qr_scan"}, "is_disabled": 0, "fusion_lat": 0.0, "name": "184bddf57f65d6040762c3b93d82f132", "fusion_lon": 0.0}, {"is_reserved": 0, "type": "electric_scooter", "bike_id": "7fce133729db3f9a122f985b73d99345", "lat": 38.927492, "lon": -77.02307483333334, "rental_uris": {"android": "https://dc.lft.to/lastmile_qr_scan", "ios": "https://dc.lft.to/lastmile_qr_scan"}, "is_disabled": 0, "fusion_lat": 0.0, "name": "7fce133729db3f9a122f985b73d99345", "fusion_lon": 0.0}, {"is_reserved": 0, "type": "electric_scooter", "bike_id": "6d0c6fed9cb60d3af6c24d039f045825", "lat": 38.92155616666667, "lon": -77.0338715, "rental_uris": {"android": "https://dc.lft.to/lastmile_qr_scan", "ios": "https://dc.lft.to/lastmile_qr_scan"}, "is_disabled": 0, "fusion_lat": 0.0, "name": "6d0c6fed9cb60d3af6c24d039f045825", "fusion_lon": 0.0}, {"is_reserved": 0, "type": "electric_bike", "bike_id": "7d9a73ec8fae8f0bccdbec8b8a5d78b8", "lat": 38.88934733333333, "lon": -76.913281, "rental_uris": {"android": "https://dc.lft.to/lastmile_qr_scan", "ios": "https://dc.lft.to/lastmile_qr_scan"}, "is_disabled": 0, "fusion_lat": 0.0, "name": "7d9a73ec8fae8f0bccdbec8b8a5d78b8", "fusion_lon": 0.0}, {"is_reserved": 0, "type": "electric_scooter", "bike_id": "2dcfe8be0fdab7784f3ebc2694044eeb", "lat": 38.91688966666667, "lon": -77.033465, "rental_uris": {"android": "https://dc.lft.to/lastmile_qr_scan", "ios": "https://dc.lft.to/lastmile_qr_scan"}, "is_disabled": 0, "fusion_lat": 0.0, "name": "2dcfe8be0fdab7784f3ebc2694044eeb", "fusion_lon": 0.0}, {"is_reserved": 0, "type": "electric_scooter", "bike_id": "a29e76e2f66b8ff18f2bc2df6f37867c", "lat": 38.918325833333334, "lon": -77.04177216666666, "rental_uris": {"android": "https://dc.lft.to/lastmile_qr_scan", "ios": "https://dc.lft.to/lastmile_qr_scan"}, "is_disabled": 0, "fusion_lat": 0.0, "name": "a29e76e2f66b8ff18f2bc2df6f37867c", "fusion_lon": 0.0}, {"is_reserved": 0, "type": "electric_scooter", "bike_id": "281f53ca4172be570a7a996f49120c08", "lat": 38.910276333333336, "lon": -77.03431283333333, "rental_uris": {"android": "https://dc.lft.to/lastmile_qr_scan", "ios": "https://dc.lft.to/lastmile_qr_scan"}, "is_disabled": 0, "fusion_lat": 0.0, "name": "281f53ca4172be570a7a996f49120c08", "fusion_lon": 0.0}, {"is_reserved": 0, "type": "electric_scooter", "bike_id": "4166d1140359439e34aa387c46d41ae7", "lat": 38.92443516666667, "lon": -77.0202955, "rental_uris": {"android": "https://dc.lft.to/lastmile_qr_scan", "ios": "https://dc.lft.to/lastmile_qr_scan"}, "is_disabled": 0, "fusion_lat": 0.0, "name": "4166d1140359439e34aa387c46d41ae7", "fusion_lon": 0.0}, {"is_reserved": 0, "type": "electric_scooter", "bike_id": "aaf8e0149f2ce2d717c02de1ff72aa9f", "lat": 38.89804933333333, "lon": -76.99504400000001, "rental_uris": {"android": "https://dc.lft.to/lastmile_qr_scan", "ios": "https://dc.lft.to/lastmile_qr_scan"}, "is_disabled": 0, "fusion_lat": 0.0, "name": "aaf8e0149f2ce2d717c02de1ff72aa9f", "fusion_lon": 0.0}, {"is_reserved": 0, "type": "electric_bike", "bike_id": "49703ad37024afe3d0e1bfd9d707748a", "lat": 38.9584345, "lon": -76.985995, "rental_uris": {"android": "https://dc.lft.to/lastmile_qr_scan", "ios": "https://dc.lft.to/lastmile_qr_scan"}, "is_disabled": 0, "fusion_lat": 0.0, "name": "49703ad37024afe3d0e1bfd9d707748a", "fusion_lon": 0.0}, {"is_reserved": 0, "type": "electric_scooter", "bike_id": "d506706de8b2eaa1e7d55948aa362877", "lat": 38.903552, "lon": -77.03503966666666, "rental_uris": {"android": "https://dc.lft.to/lastmile_qr_scan", "ios": "https://dc.lft.to/lastmile_qr_scan"}, "is_disabled": 0, "fusion_lat": 0.0, "name": "d506706de8b2eaa1e7d55948aa362877", "fusion_lon": 0.0}, {"is_reserved": 0, "type": "electric_scooter", "bike_id": "aa96213beb9ade322c2a0acf6eadf5c7", "lat": 38.91573483333333, "lon": -77.03642016666667, "rental_uris": {"android": "https://dc.lft.to/lastmile_qr_scan", "ios": "https://dc.lft.to/lastmile_qr_scan"}, "is_disabled": 0, "fusion_lat": 0.0, "name": "aa96213beb9ade322c2a0acf6eadf5c7", "fusion_lon": 0.0}, {"is_reserved": 0, "type": "electric_scooter", "bike_id": "dbba3d0e2bfa3bd4bc8d3273571a4e88", "lat": 38.865694, "lon": -76.99032716666666, "rental_uris": {"android": "https://dc.lft.to/lastmile_qr_scan", "ios": "https://dc.lft.to/lastmile_qr_scan"}, "is_disabled": 0, "fusion_lat": 0.0, "name": "dbba3d0e2bfa3bd4bc8d3273571a4e88", "fusion_lon": 0.0}, {"is_reserved": 0, "type": "electric_scooter", "bike_id": "92a97cf426c908ccdb9f8984e7201d87", "lat": 38.921768166666666, "lon": -76.99839883333334, "rental_uris": {"android": "https://dc.lft.to/lastmile_qr_scan", "ios": "https://dc.lft.to/lastmile_qr_scan"}, "is_disabled": 0, "fusion_lat": 0.0, "name": "92a97cf426c908ccdb9f8984e7201d87", "fusion_lon": 0.0}, {"is_reserved": 0, "type": "electric_scooter", "bike_id": "10d44544e838af9730d69e1014b13258", "lat": 38.91807083333333, "lon": -77.02496783333333, "rental_uris": {"android": "https://dc.lft.to/lastmile_qr_scan", "ios": "https://dc.lft.to/lastmile_qr_scan"}, "is_disabled": 0, "fusion_lat": 0.0, "name": "10d44544e838af9730d69e1014b13258", "fusion_lon": 0.0}, {"is_reserved": 0, "type": "electric_bike", "bike_id": "a76262f2274f7a4d1291c83d4bfc9b30", "lat": 38.91869633333334, "lon": -76.960901, "rental_uris": {"android": "https://dc.lft.to/lastmile_qr_scan", "ios": "https://dc.lft.to/lastmile_qr_scan"}, "is_disabled": 0, "fusion_lat": 0.0, "name": "a76262f2274f7a4d1291c83d4bfc9b30", "fusion_lon": 0.0}, {"is_reserved": 0, "type": "electric_scooter", "bike_id": "256745d46b6c17cbf4e11fcb0f179e37", "lat": 38.89600333333333, "lon": -76.92987066666667, "rental_uris": {"android": "https://dc.lft.to/lastmile_qr_scan", "ios": "https://dc.lft.to/lastmile_qr_scan"}, "is_disabled": 0, "fusion_lat": 0.0, "name": "256745d46b6c17cbf4e11fcb0f179e37", "fusion_lon": 0.0}, {"is_reserved": 0, "type": "electric_scooter", "bike_id": "903c1caa82b43ac0c9d459e08162660d", "lat": 38.90603183333333, "lon": -77.057025, "rental_uris": {"android": "https://dc.lft.to/lastmile_qr_scan", "ios": "https://dc.lft.to/lastmile_qr_scan"}, "is_disabled": 0, "fusion_lat": 0.0, "name": "903c1caa82b43ac0c9d459e08162660d", "fusion_lon": 0.0}, {"is_reserved": 0, "type": "electric_scooter", "bike_id": "bd8054de28a2bdd60cb853a2fb8ea55d", "lat": 38.9025515, "lon": -77.02057383333333, "rental_uris": {"android": "https://dc.lft.to/lastmile_qr_scan", "ios": "https://dc.lft.to/lastmile_qr_scan"}, "is_disabled": 0, "fusion_lat": 0.0, "name": "bd8054de28a2bdd60cb853a2fb8ea55d", "fusion_lon": 0.0}, {"is_reserved": 0, "type": "electric_scooter", "bike_id": "549a6401e91500118940624bfff076b2", "lat": 38.91505816666667, "lon": -77.00344533333333, "rental_uris": {"android": "https://dc.lft.to/lastmile_qr_scan", "ios": "https://dc.lft.to/lastmile_qr_scan"}, "is_disabled": 0, "fusion_lat": 0.0, "name": "549a6401e91500118940624bfff076b2", "fusion_lon": 0.0}, {"is_reserved": 0, "type": "electric_scooter", "bike_id": "d34023f8bc1c38bd1bde7c11f73fa246", "lat": 38.926964, "lon": -77.02288466666667, "rental_uris": {"android": "https://dc.lft.to/lastmile_qr_scan", "ios": "https://dc.lft.to/lastmile_qr_scan"}, "is_disabled": 0, "fusion_lat": 0.0, "name": "d34023f8bc1c38bd1bde7c11f73fa246", "fusion_lon": 0.0}, {"is_reserved": 0, "type": "electric_scooter", "bike_id": "ee8814279524b340d78f41bb2fa5af29", "lat": 38.920765333333335, "lon": -77.0221905, "rental_uris": {"android": "https://dc.lft.to/lastmile_qr_scan", "ios": "https://dc.lft.to/lastmile_qr_scan"}, "is_disabled": 0, "fusion_lat": 0.0, "name": "ee8814279524b340d78f41bb2fa5af29", "fusion_lon": 0.0}, {"is_reserved": 0, "type": "electric_bike", "bike_id": "b6ec56a3aa55a72988996e682d3ac051", "lat": 38.916947666666665, "lon": -77.04335866666666, "rental_uris": {"android": "https://dc.lft.to/lastmile_qr_scan", "ios": "https://dc.lft.to/lastmile_qr_scan"}, "is_disabled": 0, "fusion_lat": 0.0, "name": "b6ec56a3aa55a72988996e682d3ac051", "fusion_lon": 0.0}, {"is_reserved": 0, "type": "electric_scooter", "bike_id": "d13d0b72ff9741a7f2ea6b037dc24d6c", "lat": 38.89953083333333, "lon": -77.026387, "rental_uris": {"android": "https://dc.lft.to/lastmile_qr_scan", "ios": "https://dc.lft.to/lastmile_qr_scan"}, "is_disabled": 0, "fusion_lat": 0.0, "name": "d13d0b72ff9741a7f2ea6b037dc24d6c", "fusion_lon": 0.0}, {"is_reserved": 0, "type": "electric_scooter", "bike_id": "c9985de9283fd468e2d2535786bc3d26", "lat": 38.90847983333333, "lon": -77.02956483333334, "rental_uris": {"android": "https://dc.lft.to/lastmile_qr_scan", "ios": "https://dc.lft.to/lastmile_qr_scan"}, "is_disabled": 0, "fusion_lat": 0.0, "name": "c9985de9283fd468e2d2535786bc3d26", "fusion_lon": 0.0}, {"is_reserved": 0, "type": "electric_scooter", "bike_id": "95ee284b7665aa1d92144939daab4378", "lat": 38.90388266666667, "lon": -77.03136233333333, "rental_uris": {"android": "https://dc.lft.to/lastmile_qr_scan", "ios": "https://dc.lft.to/lastmile_qr_scan"}, "is_disabled": 0, "fusion_lat": 0.0, "name": "95ee284b7665aa1d92144939daab4378", "fusion_lon": 0.0}, {"is_reserved": 0, "type": "electric_scooter", "bike_id": "0435df4f00aed8edbd149b1cc5a3da43", "lat": 38.916405833333336, "lon": -77.04803116666666, "rental_uris": {"android": "https://dc.lft.to/lastmile_qr_scan", "ios": "https://dc.lft.to/lastmile_qr_scan"}, "is_disabled": 0, "fusion_lat": 0.0, "name": "0435df4f00aed8edbd149b1cc5a3da43", "fusion_lon": 0.0}, {"is_reserved": 0, "type": "electric_scooter", "bike_id": "ae5ab4e93ae7a087a752fc1e429059b5", "lat": 38.89729766666667, "lon": -77.02434616666666, "rental_uris": {"android": "https://dc.lft.to/lastmile_qr_scan", "ios": "https://dc.lft.to/lastmile_qr_scan"}, "is_disabled": 0, "fusion_lat": 0.0, "name": "ae5ab4e93ae7a087a752fc1e429059b5", "fusion_lon": 0.0}, {"is_reserved": 0, "type": "electric_scooter", "bike_id": "e30fb4bea4681fb10c0cf230e92ab9f7", "lat": 38.90780133333333, "lon": -77.00013466666667, "rental_uris": {"android": "https://dc.lft.to/lastmile_qr_scan", "ios": "https://dc.lft.to/lastmile_qr_scan"}, "is_disabled": 0, "fusion_lat": 0.0, "name": "e30fb4bea4681fb10c0cf230e92ab9f7", "fusion_lon": 0.0}, {"is_reserved": 0, "type": "electric_scooter", "bike_id": "4d8d536f0b7a6419206b2bfecfa0b6b0", "lat": 38.887391666666666, "lon": -77.01350516666666, "rental_uris": {"android": "https://dc.lft.to/lastmile_qr_scan", "ios": "https://dc.lft.to/lastmile_qr_scan"}, "is_disabled": 0, "fusion_lat": 0.0, "name": "4d8d536f0b7a6419206b2bfecfa0b6b0", "fusion_lon": 0.0}, {"is_reserved": 0, "type": "electric_scooter", "bike_id": "32ae4e07389f187849035f4a4ad84471", "lat": 38.9254875, "lon": -76.99954533333333, "rental_uris": {"android": "https://dc.lft.to/lastmile_qr_scan", "ios": "https://dc.lft.to/lastmile_qr_scan"}, "is_disabled": 0, "fusion_lat": 0.0, "name": "32ae4e07389f187849035f4a4ad84471", "fusion_lon": 0.0}, {"is_reserved": 0, "type": "electric_scooter", "bike_id": "1a45adde1a37cb3ff015d3e4490e2da7", "lat": 38.894859, "lon": -77.04997583333333, "rental_uris": {"android": "https://dc.lft.to/lastmile_qr_scan", "ios": "https://dc.lft.to/lastmile_qr_scan"}, "is_disabled": 0, "fusion_lat": 0.0, "name": "1a45adde1a37cb3ff015d3e4490e2da7", "fusion_lon": 0.0}, {"is_reserved": 0, "type": "electric_bike", "bike_id": "ba1ce6439825d1f60fa8b55bed73b23d", "lat": 38.83677866666667, "lon": -77.04994983333333, "rental_uris": {"android": "https://dc.lft.to/lastmile_qr_scan", "ios": "https://dc.lft.to/lastmile_qr_scan"}, "is_disabled": 0, "fusion_lat": 0.0, "name": "ba1ce6439825d1f60fa8b55bed73b23d", "fusion_lon": 0.0}, {"is_reserved": 0, "type": "electric_scooter", "bike_id": "db60e46e05539340d069e54de9489469", "lat": 38.885211, "lon": -77.0218505, "rental_uris": {"android": "https://dc.lft.to/lastmile_qr_scan", "ios": "https://dc.lft.to/lastmile_qr_scan"}, "is_disabled": 0, "fusion_lat": 0.0, "name": "db60e46e05539340d069e54de9489469", "fusion_lon": 0.0}, {"is_reserved": 0, "type": "electric_scooter", "bike_id": "7c585847f4ba2b445929ccf2eb5bebbd", "lat": 38.9258085, "lon": -77.02942016666667, "rental_uris": {"android": "https://dc.lft.to/lastmile_qr_scan", "ios": "https://dc.lft.to/lastmile_qr_scan"}, "is_disabled": 0, "fusion_lat": 0.0, "name": "7c585847f4ba2b445929ccf2eb5bebbd", "fusion_lon": 0.0}, {"is_reserved": 0, "type": "electric_scooter", "bike_id": "f7501ecbbe9ea0d6b01dbea1186579f2", "lat": 38.893908, "lon": -77.022519, "rental_uris": {"android": "https://dc.lft.to/lastmile_qr_scan", "ios": "https://dc.lft.to/lastmile_qr_scan"}, "is_disabled": 0, "fusion_lat": 0.0, "name": "f7501ecbbe9ea0d6b01dbea1186579f2", "fusion_lon": 0.0}, {"is_reserved": 0, "type": "electric_scooter", "bike_id": "cd13e113219dc51a916532e9fe0228b5", "lat": 38.9162595, "lon": -77.00761883333334, "rental_uris": {"android": "https://dc.lft.to/lastmile_qr_scan", "ios": "https://dc.lft.to/lastmile_qr_scan"}, "is_disabled": 0, "fusion_lat": 0.0, "name": "cd13e113219dc51a916532e9fe0228b5", "fusion_lon": 0.0}, {"is_reserved": 0, "type": "electric_scooter", "bike_id": "4ba606697401f180d1d4cbc41a18f441", "lat": 38.91661333333333, "lon": -77.03855116666666, "rental_uris": {"android": "https://dc.lft.to/lastmile_qr_scan", "ios": "https://dc.lft.to/lastmile_qr_scan"}, "is_disabled": 0, "fusion_lat": 0.0, "name": "4ba606697401f180d1d4cbc41a18f441", "fusion_lon": 0.0}, {"is_reserved": 0, "type": "electric_scooter", "bike_id": "f03f7c3758da9eeed89b1d9c4ca6bf4a", "lat": 38.922685666666666, "lon": -77.03671483333333, "rental_uris": {"android": "https://dc.lft.to/lastmile_qr_scan", "ios": "https://dc.lft.to/lastmile_qr_scan"}, "is_disabled": 0, "fusion_lat": 0.0, "name": "f03f7c3758da9eeed89b1d9c4ca6bf4a", "fusion_lon": 0.0}, {"is_reserved": 0, "type": "electric_scooter", "bike_id": "30016dcc192c5b34b9fbe84a590345a7", "lat": 38.9002735, "lon": -76.98858766666666, "rental_uris": {"android": "https://dc.lft.to/lastmile_qr_scan", "ios": "https://dc.lft.to/lastmile_qr_scan"}, "is_disabled": 0, "fusion_lat": 0.0, "name": "30016dcc192c5b34b9fbe84a590345a7", "fusion_lon": 0.0}, {"is_reserved": 0, "type": "electric_scooter", "bike_id": "7c5e12556df651a9c17c9a1f9538e2c0", "lat": 38.94115566666667, "lon": -77.07715133333333, "rental_uris": {"android": "https://dc.lft.to/lastmile_qr_scan", "ios": "https://dc.lft.to/lastmile_qr_scan"}, "is_disabled": 0, "fusion_lat": 0.0, "name": "7c5e12556df651a9c17c9a1f9538e2c0", "fusion_lon": 0.0}, {"is_reserved": 0, "type": "electric_scooter", "bike_id": "e43da08386115d439edd9b650fcfb561", "lat": 38.90956833333333, "lon": -77.0342565, "rental_uris": {"android": "https://dc.lft.to/lastmile_qr_scan", "ios": "https://dc.lft.to/lastmile_qr_scan"}, "is_disabled": 0, "fusion_lat": 0.0, "name": "e43da08386115d439edd9b650fcfb561", "fusion_lon": 0.0}, {"is_reserved": 0, "type": "electric_scooter", "bike_id": "66fe6f7001b6b4e12fc076e4818196f4", "lat": 38.923443666666664, "lon": -77.03353766666666, "rental_uris": {"android": "https://dc.lft.to/lastmile_qr_scan", "ios": "https://dc.lft.to/lastmile_qr_scan"}, "is_disabled": 0, "fusion_lat": 0.0, "name": "66fe6f7001b6b4e12fc076e4818196f4", "fusion_lon": 0.0}, {"is_reserved": 0, "type": "electric_scooter", "bike_id": "5b627e0ceeb45015fabff9e5b4de40dd", "lat": 38.89725266666667, "lon": -77.0485835, "rental_uris": {"android": "https://dc.lft.to/lastmile_qr_scan", "ios": "https://dc.lft.to/lastmile_qr_scan"}, "is_disabled": 0, "fusion_lat": 0.0, "name": "5b627e0ceeb45015fabff9e5b4de40dd", "fusion_lon": 0.0}, {"is_reserved": 0, "type": "electric_scooter", "bike_id": "3387508e1505214eb4ed06d981084961", "lat": 38.926612666666664, "lon": -77.02367516666666, "rental_uris": {"android": "https://dc.lft.to/lastmile_qr_scan", "ios": "https://dc.lft.to/lastmile_qr_scan"}, "is_disabled": 0, "fusion_lat": 0.0, "name": "3387508e1505214eb4ed06d981084961", "fusion_lon": 0.0}, {"is_reserved": 0, "type": "electric_scooter", "bike_id": "f71e67b7d1e23b01a6bb2450b9be3c5c", "lat": 38.92103983333333, "lon": -77.03183533333333, "rental_uris": {"android": "https://dc.lft.to/lastmile_qr_scan", "ios": "https://dc.lft.to/lastmile_qr_scan"}, "is_disabled": 0, "fusion_lat": 0.0, "name": "f71e67b7d1e23b01a6bb2450b9be3c5c", "fusion_lon": 0.0}, {"is_reserved": 0, "type": "electric_scooter", "bike_id": "515e8b0a1b4b9e4f5ed0da6ae08b5ca0", "lat": 38.903921833333335, "lon": -77.0313715, "rental_uris": {"android": "https://dc.lft.to/lastmile_qr_scan", "ios": "https://dc.lft.to/lastmile_qr_scan"}, "is_disabled": 0, "fusion_lat": 0.0, "name": "515e8b0a1b4b9e4f5ed0da6ae08b5ca0", "fusion_lon": 0.0}, {"is_reserved": 0, "type": "electric_bike", "bike_id": "013e9a5970ce83032943cd353a2686ec", "lat": 38.78401433333333, "lon": -77.12093783333333, "rental_uris": {"android": "https://dc.lft.to/lastmile_qr_scan", "ios": "https://dc.lft.to/lastmile_qr_scan"}, "is_disabled": 0, "fusion_lat": 0.0, "name": "013e9a5970ce83032943cd353a2686ec", "fusion_lon": 0.0}, {"is_reserved": 0, "type": "electric_scooter", "bike_id": "c9bc229b1c9b6e0a2fe4aa365a68f94c", "lat": 38.96095583333334, "lon": -77.03389433333334, "rental_uris": {"android": "https://dc.lft.to/lastmile_qr_scan", "ios": "https://dc.lft.to/lastmile_qr_scan"}, "is_disabled": 0, "fusion_lat": 0.0, "name": "c9bc229b1c9b6e0a2fe4aa365a68f94c", "fusion_lon": 0.0}, {"is_reserved": 0, "type": "electric_scooter", "bike_id": "abc469d586608a86d2bdc9af4eaca904", "lat": 38.90400116666667, "lon": -77.05385266666667, "rental_uris": {"android": "https://dc.lft.to/lastmile_qr_scan", "ios": "https://dc.lft.to/lastmile_qr_scan"}, "is_disabled": 0, "fusion_lat": 0.0, "name": "abc469d586608a86d2bdc9af4eaca904", "fusion_lon": 0.0}, {"is_reserved": 0, "type": "electric_scooter", "bike_id": "8d45de4625c1aaafc20d9eb2e3d69a6a", "lat": 38.89948566666666, "lon": -76.9818555, "rental_uris": {"android": "https://dc.lft.to/lastmile_qr_scan", "ios": "https://dc.lft.to/lastmile_qr_scan"}, "is_disabled": 0, "fusion_lat": 0.0, "name": "8d45de4625c1aaafc20d9eb2e3d69a6a", "fusion_lon": 0.0}, {"is_reserved": 0, "type": "electric_scooter", "bike_id": "88549d37ca3e356cf0472579dd135e50", "lat": 38.895369333333335, "lon": -77.01094766666667, "rental_uris": {"android": "https://dc.lft.to/lastmile_qr_scan", "ios": "https://dc.lft.to/lastmile_qr_scan"}, "is_disabled": 0, "fusion_lat": 0.0, "name": "88549d37ca3e356cf0472579dd135e50", "fusion_lon": 0.0}, {"is_reserved": 0, "type": "electric_scooter", "bike_id": "042dfa080ff53e55d47cfac6c306aca8", "lat": 38.9179725, "lon": -77.01221483333333, "rental_uris": {"android": "https://dc.lft.to/lastmile_qr_scan", "ios": "https://dc.lft.to/lastmile_qr_scan"}, "is_disabled": 0, "fusion_lat": 0.0, "name": "042dfa080ff53e55d47cfac6c306aca8", "fusion_lon": 0.0}, {"is_reserved": 0, "type": "electric_scooter", "bike_id": "a4128ed368454afccc5891e0a03a0619", "lat": 38.926955, "lon": -77.02296666666666, "rental_uris": {"android": "https://dc.lft.to/lastmile_qr_scan", "ios": "https://dc.lft.to/lastmile_qr_scan"}, "is_disabled": 0, "fusion_lat": 0.0, "name": "a4128ed368454afccc5891e0a03a0619", "fusion_lon": 0.0}, {"is_reserved": 0, "type": "electric_scooter", "bike_id": "6d34704246d96cfbe7a10369800a70ca", "lat": 38.88327683333333, "lon": -77.00950916666666, "rental_uris": {"android": "https://dc.lft.to/lastmile_qr_scan", "ios": "https://dc.lft.to/lastmile_qr_scan"}, "is_disabled": 0, "fusion_lat": 0.0, "name": "6d34704246d96cfbe7a10369800a70ca", "fusion_lon": 0.0}, {"is_reserved": 0, "type": "electric_scooter", "bike_id": "773ef797d1b18f507ac6305e5b4b51ec", "lat": 38.905925, "lon": -77.05568083333333, "rental_uris": {"android": "https://dc.lft.to/lastmile_qr_scan", "ios": "https://dc.lft.to/lastmile_qr_scan"}, "is_disabled": 0, "fusion_lat": 0.0, "name": "773ef797d1b18f507ac6305e5b4b51ec", "fusion_lon": 0.0}, {"is_reserved": 0, "type": "electric_bike", "bike_id": "36ad89b9d06479de7dbdedf58835011a", "lat": 38.884019, "lon": -76.960495, "rental_uris": {"android": "https://dc.lft.to/lastmile_qr_scan", "ios": "https://dc.lft.to/lastmile_qr_scan"}, "is_disabled": 0, "fusion_lat": 0.0, "name": "36ad89b9d06479de7dbdedf58835011a", "fusion_lon": 0.0}, {"is_reserved": 0, "type": "electric_scooter", "bike_id": "2f55b8ae5a6100ddb222559ba6f3b029", "lat": 38.94080066666667, "lon": -77.02903183333333, "rental_uris": {"android": "https://dc.lft.to/lastmile_qr_scan", "ios": "https://dc.lft.to/lastmile_qr_scan"}, "is_disabled": 0, "fusion_lat": 0.0, "name": "2f55b8ae5a6100ddb222559ba6f3b029", "fusion_lon": 0.0}, {"is_reserved": 0, "type": "electric_scooter", "bike_id": "77ec786bd88747f672edd2cdb0f650d0", "lat": 38.90544833333333, "lon": -76.9846825, "rental_uris": {"android": "https://dc.lft.to/lastmile_qr_scan", "ios": "https://dc.lft.to/lastmile_qr_scan"}, "is_disabled": 0, "fusion_lat": 0.0, "name": "77ec786bd88747f672edd2cdb0f650d0", "fusion_lon": 0.0}, {"is_reserved": 0, "type": "electric_scooter", "bike_id": "7bc4aacfe729fcbdad3b5c75aa039b18", "lat": 38.914823, "lon": -77.01828033333334, "rental_uris": {"android": "https://dc.lft.to/lastmile_qr_scan", "ios": "https://dc.lft.to/lastmile_qr_scan"}, "is_disabled": 0, "fusion_lat": 0.0, "name": "7bc4aacfe729fcbdad3b5c75aa039b18", "fusion_lon": 0.0}, {"is_reserved": 0, "type": "electric_scooter", "bike_id": "21dc2658a228bad912af7bc2acce42c3", "lat": 38.88294916666667, "lon": -77.03135083333333, "rental_uris": {"android": "https://dc.lft.to/lastmile_qr_scan", "ios": "https://dc.lft.to/lastmile_qr_scan"}, "is_disabled": 0, "fusion_lat": 0.0, "name": "21dc2658a228bad912af7bc2acce42c3", "fusion_lon": 0.0}, {"is_reserved": 0, "type": "electric_bike", "bike_id": "449ec888b8bd15fb17371f07e3d2f4ec", "lat": 38.84559933333333, "lon": -76.97060716666667, "rental_uris": {"android": "https://dc.lft.to/lastmile_qr_scan", "ios": "https://dc.lft.to/lastmile_qr_scan"}, "is_disabled": 0, "fusion_lat": 0.0, "name": "449ec888b8bd15fb17371f07e3d2f4ec", "fusion_lon": 0.0}, {"is_reserved": 0, "type": "electric_scooter", "bike_id": "01d2aa4a8227dc8da14875a66a9dc9e1", "lat": 38.88725266666667, "lon": -77.01380783333333, "rental_uris": {"android": "https://dc.lft.to/lastmile_qr_scan", "ios": "https://dc.lft.to/lastmile_qr_scan"}, "is_disabled": 0, "fusion_lat": 0.0, "name": "01d2aa4a8227dc8da14875a66a9dc9e1", "fusion_lon": 0.0}, {"is_reserved": 0, "type": "electric_scooter", "bike_id": "5135eee463dc0c8689562ee700590e28", "lat": 38.871743, "lon": -77.00626633333333, "rental_uris": {"android": "https://dc.lft.to/lastmile_qr_scan", "ios": "https://dc.lft.to/lastmile_qr_scan"}, "is_disabled": 0, "fusion_lat": 0.0, "name": "5135eee463dc0c8689562ee700590e28", "fusion_lon": 0.0}, {"is_reserved": 0, "type": "electric_scooter", "bike_id": "b6732469eeaa8202339ce67c89aab501", "lat": 38.87624116666667, "lon": -77.0125025, "rental_uris": {"android": "https://dc.lft.to/lastmile_qr_scan", "ios": "https://dc.lft.to/lastmile_qr_scan"}, "is_disabled": 0, "fusion_lat": 0.0, "name": "b6732469eeaa8202339ce67c89aab501", "fusion_lon": 0.0}, {"is_reserved": 0, "type": "electric_scooter", "bike_id": "a7dd567ffd20cb6a4c265c1e8aea75fa", "lat": 38.91351183333333, "lon": -77.032058, "rental_uris": {"android": "https://dc.lft.to/lastmile_qr_scan", "ios": "https://dc.lft.to/lastmile_qr_scan"}, "is_disabled": 0, "fusion_lat": 0.0, "name": "a7dd567ffd20cb6a4c265c1e8aea75fa", "fusion_lon": 0.0}, {"is_reserved": 0, "type": "electric_bike", "bike_id": "fd36e8c6a3ca076f5dbc0ee5cbf696d5", "lat": 38.92761866666667, "lon": -77.04516666666666, "rental_uris": {"android": "https://dc.lft.to/lastmile_qr_scan", "ios": "https://dc.lft.to/lastmile_qr_scan"}, "is_disabled": 0, "fusion_lat": 0.0, "name": "fd36e8c6a3ca076f5dbc0ee5cbf696d5", "fusion_lon": 0.0}, {"is_reserved": 0, "type": "electric_scooter", "bike_id": "901c5d9eaccf0d26af5181009227eb65", "lat": 38.9056915, "lon": -76.9814605, "rental_uris": {"android": "https://dc.lft.to/lastmile_qr_scan", "ios": "https://dc.lft.to/lastmile_qr_scan"}, "is_disabled": 0, "fusion_lat": 0.0, "name": "901c5d9eaccf0d26af5181009227eb65", "fusion_lon": 0.0}, {"is_reserved": 0, "type": "electric_scooter", "bike_id": "8b0b8841b920f4cf6f4cab9c488dd5da", "lat": 38.91848783333333, "lon": -77.04522266666666, "rental_uris": {"android": "https://dc.lft.to/lastmile_qr_scan", "ios": "https://dc.lft.to/lastmile_qr_scan"}, "is_disabled": 0, "fusion_lat": 0.0, "name": "8b0b8841b920f4cf6f4cab9c488dd5da", "fusion_lon": 0.0}, {"is_reserved": 0, "type": "electric_scooter", "bike_id": "0ab27a2f92121cd30c8a9c16173cca31", "lat": 38.924158, "lon": -77.02011483333334, "rental_uris": {"android": "https://dc.lft.to/lastmile_qr_scan", "ios": "https://dc.lft.to/lastmile_qr_scan"}, "is_disabled": 0, "fusion_lat": 0.0, "name": "0ab27a2f92121cd30c8a9c16173cca31", "fusion_lon": 0.0}, {"is_reserved": 0, "type": "electric_scooter", "bike_id": "cedb20e191fe8466fc60ba5de6c1fc23", "lat": 38.89727666666667, "lon": -77.048548, "rental_uris": {"android": "https://dc.lft.to/lastmile_qr_scan", "ios": "https://dc.lft.to/lastmile_qr_scan"}, "is_disabled": 0, "fusion_lat": 0.0, "name": "cedb20e191fe8466fc60ba5de6c1fc23", "fusion_lon": 0.0}, {"is_reserved": 0, "type": "electric_scooter", "bike_id": "55f966700b66649025cd32aedce2f536", "lat": 38.878449333333336, "lon": -77.0086975, "rental_uris": {"android": "https://dc.lft.to/lastmile_qr_scan", "ios": "https://dc.lft.to/lastmile_qr_scan"}, "is_disabled": 0, "fusion_lat": 0.0, "name": "55f966700b66649025cd32aedce2f536", "fusion_lon": 0.0}, {"is_reserved": 0, "type": "electric_scooter", "bike_id": "a0119257b7d090af4a87f89d110c3833", "lat": 38.92893133333333, "lon": -77.032705, "rental_uris": {"android": "https://dc.lft.to/lastmile_qr_scan", "ios": "https://dc.lft.to/lastmile_qr_scan"}, "is_disabled": 0, "fusion_lat": 0.0, "name": "a0119257b7d090af4a87f89d110c3833", "fusion_lon": 0.0}, {"is_reserved": 0, "type": "electric_scooter", "bike_id": "ec153f01bdde56061577987a0eb204db", "lat": 38.90031066666667, "lon": -76.98855883333333, "rental_uris": {"android": "https://dc.lft.to/lastmile_qr_scan", "ios": "https://dc.lft.to/lastmile_qr_scan"}, "is_disabled": 0, "fusion_lat": 0.0, "name": "ec153f01bdde56061577987a0eb204db", "fusion_lon": 0.0}, {"is_reserved": 0, "type": "electric_scooter", "bike_id": "4b14fbf704c860c4ad30d4c7c5e5c876", "lat": 38.892323, "lon": -77.04880566666667, "rental_uris": {"android": "https://dc.lft.to/lastmile_qr_scan", "ios": "https://dc.lft.to/lastmile_qr_scan"}, "is_disabled": 0, "fusion_lat": 0.0, "name": "4b14fbf704c860c4ad30d4c7c5e5c876", "fusion_lon": 0.0}, {"is_reserved": 0, "type": "electric_scooter", "bike_id": "4401a903029aa3114cae12e66e1dbac2", "lat": 38.8995785, "lon": -77.02611983333334, "rental_uris": {"android": "https://dc.lft.to/lastmile_qr_scan", "ios": "https://dc.lft.to/lastmile_qr_scan"}, "is_disabled": 0, "fusion_lat": 0.0, "name": "4401a903029aa3114cae12e66e1dbac2", "fusion_lon": 0.0}, {"is_reserved": 0, "type": "electric_scooter", "bike_id": "83d99469536084e520beeee587e73858", "lat": 38.921851, "lon": -76.99625416666666, "rental_uris": {"android": "https://dc.lft.to/lastmile_qr_scan", "ios": "https://dc.lft.to/lastmile_qr_scan"}, "is_disabled": 0, "fusion_lat": 0.0, "name": "83d99469536084e520beeee587e73858", "fusion_lon": 0.0}, {"is_reserved": 0, "type": "electric_bike", "bike_id": "a888c4ecec95d6e86b66044b2bfaddb3", "lat": 38.849405, "lon": -77.11749716666667, "rental_uris": {"android": "https://dc.lft.to/lastmile_qr_scan", "ios": "https://dc.lft.to/lastmile_qr_scan"}, "is_disabled": 0, "fusion_lat": 0.0, "name": "a888c4ecec95d6e86b66044b2bfaddb3", "fusion_lon": 0.0}, {"is_reserved": 0, "type": "electric_scooter", "bike_id": "d5aa9efa3aff1e9802cab3a10437856a", "lat": 38.903635666666666, "lon": -77.0425665, "rental_uris": {"android": "https://dc.lft.to/lastmile_qr_scan", "ios": "https://dc.lft.to/lastmile_qr_scan"}, "is_disabled": 0, "fusion_lat": 0.0, "name": "d5aa9efa3aff1e9802cab3a10437856a", "fusion_lon": 0.0}, {"is_reserved": 0, "type": "electric_scooter", "bike_id": "a1b358e866aafbbebfe94c62f7d9ee2b", "lat": 38.931834333333335, "lon": -77.02633583333333, "rental_uris": {"android": "https://dc.lft.to/lastmile_qr_scan", "ios": "https://dc.lft.to/lastmile_qr_scan"}, "is_disabled": 0, "fusion_lat": 0.0, "name": "a1b358e866aafbbebfe94c62f7d9ee2b", "fusion_lon": 0.0}, {"is_reserved": 0, "type": "electric_scooter", "bike_id": "1485a65b54624797b13a0b49c03f7b86", "lat": 38.9169515, "lon": -77.03238266666666, "rental_uris": {"android": "https://dc.lft.to/lastmile_qr_scan", "ios": "https://dc.lft.to/lastmile_qr_scan"}, "is_disabled": 0, "fusion_lat": 0.0, "name": "1485a65b54624797b13a0b49c03f7b86", "fusion_lon": 0.0}, {"is_reserved": 0, "type": "electric_scooter", "bike_id": "58540d40b7994b748af9fea32477ab0f", "lat": 38.903721, "lon": -77.0163915, "rental_uris": {"android": "https://dc.lft.to/lastmile_qr_scan", "ios": "https://dc.lft.to/lastmile_qr_scan"}, "is_disabled": 0, "fusion_lat": 0.0, "name": "58540d40b7994b748af9fea32477ab0f", "fusion_lon": 0.0}, {"is_reserved": 0, "type": "electric_scooter", "bike_id": "d979095db666f2434e0ae7f9a4da0865", "lat": 38.930492666666666, "lon": -77.02335966666666, "rental_uris": {"android": "https://dc.lft.to/lastmile_qr_scan", "ios": "https://dc.lft.to/lastmile_qr_scan"}, "is_disabled": 0, "fusion_lat": 0.0, "name": "d979095db666f2434e0ae7f9a4da0865", "fusion_lon": 0.0}, {"is_reserved": 0, "type": "electric_scooter", "bike_id": "e7866b0b4e1b0fce88f09d70f2708b48", "lat": 38.91706966666667, "lon": -77.03399433333334, "rental_uris": {"android": "https://dc.lft.to/lastmile_qr_scan", "ios": "https://dc.lft.to/lastmile_qr_scan"}, "is_disabled": 0, "fusion_lat": 0.0, "name": "e7866b0b4e1b0fce88f09d70f2708b48", "fusion_lon": 0.0}, {"is_reserved": 0, "type": "electric_scooter", "bike_id": "a9f2add65635f02042c98a90b5aeb8c0", "lat": 38.8868775, "lon": -76.9901615, "rental_uris": {"android": "https://dc.lft.to/lastmile_qr_scan", "ios": "https://dc.lft.to/lastmile_qr_scan"}, "is_disabled": 0, "fusion_lat": 0.0, "name": "a9f2add65635f02042c98a90b5aeb8c0", "fusion_lon": 0.0}, {"is_reserved": 0, "type": "electric_scooter", "bike_id": "2a214362bb17232c0ecf23749a773c7a", "lat": 38.92138416666667, "lon": -77.0122225, "rental_uris": {"android": "https://dc.lft.to/lastmile_qr_scan", "ios": "https://dc.lft.to/lastmile_qr_scan"}, "is_disabled": 0, "fusion_lat": 0.0, "name": "2a214362bb17232c0ecf23749a773c7a", "fusion_lon": 0.0}, {"is_reserved": 0, "type": "electric_scooter", "bike_id": "5b36348ceabe3a3b87b659e1d86292a5", "lat": 38.9306025, "lon": -77.03695066666667, "rental_uris": {"android": "https://dc.lft.to/lastmile_qr_scan", "ios": "https://dc.lft.to/lastmile_qr_scan"}, "is_disabled": 0, "fusion_lat": 0.0, "name": "5b36348ceabe3a3b87b659e1d86292a5", "fusion_lon": 0.0}, {"is_reserved": 0, "type": "electric_scooter", "bike_id": "869dd3b0efb48270a8a5d338e0682cd9", "lat": 38.907365166666665, "lon": -77.04472016666666, "rental_uris": {"android": "https://dc.lft.to/lastmile_qr_scan", "ios": "https://dc.lft.to/lastmile_qr_scan"}, "is_disabled": 0, "fusion_lat": 0.0, "name": "869dd3b0efb48270a8a5d338e0682cd9", "fusion_lon": 0.0}, {"is_reserved": 0, "type": "electric_scooter", "bike_id": "325f8f4127ea4f03251008cd34408724", "lat": 38.88771333333333, "lon": -76.93265083333333, "rental_uris": {"android": "https://dc.lft.to/lastmile_qr_scan", "ios": "https://dc.lft.to/lastmile_qr_scan"}, "is_disabled": 0, "fusion_lat": 0.0, "name": "325f8f4127ea4f03251008cd34408724", "fusion_lon": 0.0}, {"is_reserved": 0, "type": "electric_scooter", "bike_id": "2b5f45c640df42a3f2ceae0de5e28016", "lat": 38.9369835, "lon": -77.055978, "rental_uris": {"android": "https://dc.lft.to/lastmile_qr_scan", "ios": "https://dc.lft.to/lastmile_qr_scan"}, "is_disabled": 0, "fusion_lat": 0.0, "name": "2b5f45c640df42a3f2ceae0de5e28016", "fusion_lon": 0.0}, {"is_reserved": 0, "type": "electric_scooter", "bike_id": "329f95e4cdb7b7feae9199a013ab3321", "lat": 38.8951915, "lon": -76.99214066666667, "rental_uris": {"android": "https://dc.lft.to/lastmile_qr_scan", "ios": "https://dc.lft.to/lastmile_qr_scan"}, "is_disabled": 0, "fusion_lat": 0.0, "name": "329f95e4cdb7b7feae9199a013ab3321", "fusion_lon": 0.0}, {"is_reserved": 0, "type": "electric_scooter", "bike_id": "19909e82e9d064bfd042d762c633b34d", "lat": 38.91830266666667, "lon": -77.04174483333334, "rental_uris": {"android": "https://dc.lft.to/lastmile_qr_scan", "ios": "https://dc.lft.to/lastmile_qr_scan"}, "is_disabled": 0, "fusion_lat": 0.0, "name": "19909e82e9d064bfd042d762c633b34d", "fusion_lon": 0.0}, {"is_reserved": 0, "type": "electric_scooter", "bike_id": "3b726b9334bdb92994c458816b3415c0", "lat": 38.906715166666665, "lon": -77.02694983333333, "rental_uris": {"android": "https://dc.lft.to/lastmile_qr_scan", "ios": "https://dc.lft.to/lastmile_qr_scan"}, "is_disabled": 0, "fusion_lat": 0.0, "name": "3b726b9334bdb92994c458816b3415c0", "fusion_lon": 0.0}, {"is_reserved": 0, "type": "electric_bike", "bike_id": "9a7cba3b0c2b13e812f6570d51545052", "lat": 38.884026166666665, "lon": -76.96057933333333, "rental_uris": {"android": "https://dc.lft.to/lastmile_qr_scan", "ios": "https://dc.lft.to/lastmile_qr_scan"}, "is_disabled": 0, "fusion_lat": 0.0, "name": "9a7cba3b0c2b13e812f6570d51545052", "fusion_lon": 0.0}, {"is_reserved": 0, "type": "electric_scooter", "bike_id": "0e85fa4bfece92459816188dcfb18535", "lat": 38.932750166666665, "lon": -76.98533083333334, "rental_uris": {"android": "https://dc.lft.to/lastmile_qr_scan", "ios": "https://dc.lft.to/lastmile_qr_scan"}, "is_disabled": 0, "fusion_lat": 0.0, "name": "0e85fa4bfece92459816188dcfb18535", "fusion_lon": 0.0}, {"is_reserved": 0, "type": "electric_scooter", "bike_id": "4e9fe534ebc8440efcf057311afc64cd", "lat": 38.919906, "lon": -77.03472833333333, "rental_uris": {"android": "https://dc.lft.to/lastmile_qr_scan", "ios": "https://dc.lft.to/lastmile_qr_scan"}, "is_disabled": 0, "fusion_lat": 0.0, "name": "4e9fe534ebc8440efcf057311afc64cd", "fusion_lon": 0.0}, {"is_reserved": 0, "type": "electric_scooter", "bike_id": "95437f16f60a3951ac7b84c149d00c02", "lat": 38.916181, "lon": -77.04875816666667, "rental_uris": {"android": "https://dc.lft.to/lastmile_qr_scan", "ios": "https://dc.lft.to/lastmile_qr_scan"}, "is_disabled": 0, "fusion_lat": 0.0, "name": "95437f16f60a3951ac7b84c149d00c02", "fusion_lon": 0.0}, {"is_reserved": 0, "type": "electric_scooter", "bike_id": "ff5055119ce136cddbb36638112ee152", "lat": 38.92616816666666, "lon": -77.056461, "rental_uris": {"android": "https://dc.lft.to/lastmile_qr_scan", "ios": "https://dc.lft.to/lastmile_qr_scan"}, "is_disabled": 0, "fusion_lat": 0.0, "name": "ff5055119ce136cddbb36638112ee152", "fusion_lon": 0.0}, {"is_reserved": 0, "type": "electric_scooter", "bike_id": "6ac11b9822b1d6e40f51a32889d0ec41", "lat": 38.915485833333335, "lon": -77.0310115, "rental_uris": {"android": "https://dc.lft.to/lastmile_qr_scan", "ios": "https://dc.lft.to/lastmile_qr_scan"}, "is_disabled": 0, "fusion_lat": 0.0, "name": "6ac11b9822b1d6e40f51a32889d0ec41", "fusion_lon": 0.0}, {"is_reserved": 0, "type": "electric_scooter", "bike_id": "d209f3e4ef06d925ebc0e971befaffa2", "lat": 38.93401716666666, "lon": -77.03989133333333, "rental_uris": {"android": "https://dc.lft.to/lastmile_qr_scan", "ios": "https://dc.lft.to/lastmile_qr_scan"}, "is_disabled": 0, "fusion_lat": 0.0, "name": "d209f3e4ef06d925ebc0e971befaffa2", "fusion_lon": 0.0}, {"is_reserved": 0, "type": "electric_bike", "bike_id": "c6f8af9991ead9e86312345ef2f0dfb0", "lat": 38.8393295, "lon": -77.07901916666667, "rental_uris": {"android": "https://dc.lft.to/lastmile_qr_scan", "ios": "https://dc.lft.to/lastmile_qr_scan"}, "is_disabled": 0, "fusion_lat": 0.0, "name": "c6f8af9991ead9e86312345ef2f0dfb0", "fusion_lon": 0.0}, {"is_reserved": 0, "type": "electric_scooter", "bike_id": "b7ec31dd1eb55129de8c671bd5d12dda", "lat": 38.91678816666666, "lon": -77.028851, "rental_uris": {"android": "https://dc.lft.to/lastmile_qr_scan", "ios": "https://dc.lft.to/lastmile_qr_scan"}, "is_disabled": 0, "fusion_lat": 0.0, "name": "b7ec31dd1eb55129de8c671bd5d12dda", "fusion_lon": 0.0}, {"is_reserved": 0, "type": "electric_scooter", "bike_id": "82337b1dc5c2f824536d61f07dda1c63", "lat": 38.89231133333333, "lon": -77.04652266666666, "rental_uris": {"android": "https://dc.lft.to/lastmile_qr_scan", "ios": "https://dc.lft.to/lastmile_qr_scan"}, "is_disabled": 0, "fusion_lat": 0.0, "name": "82337b1dc5c2f824536d61f07dda1c63", "fusion_lon": 0.0}, {"is_reserved": 0, "type": "electric_scooter", "bike_id": "0e2378ae3e7ce775435e97c3b6978b11", "lat": 38.920613, "lon": -77.032049, "rental_uris": {"android": "https://dc.lft.to/lastmile_qr_scan", "ios": "https://dc.lft.to/lastmile_qr_scan"}, "is_disabled": 0, "fusion_lat": 0.0, "name": "0e2378ae3e7ce775435e97c3b6978b11", "fusion_lon": 0.0}, {"is_reserved": 0, "type": "electric_scooter", "bike_id": "f05d4348b4159f106920392544422ad3", "lat": 38.887253333333334, "lon": -76.98377333333333, "rental_uris": {"android": "https://dc.lft.to/lastmile_qr_scan", "ios": "https://dc.lft.to/lastmile_qr_scan"}, "is_disabled": 0, "fusion_lat": 0.0, "name": "f05d4348b4159f106920392544422ad3", "fusion_lon": 0.0}, {"is_reserved": 0, "type": "electric_scooter", "bike_id": "ebaddff18dfdeb940da0c5a4d5b7c74f", "lat": 38.913243333333334, "lon": -77.045496, "rental_uris": {"android": "https://dc.lft.to/lastmile_qr_scan", "ios": "https://dc.lft.to/lastmile_qr_scan"}, "is_disabled": 0, "fusion_lat": 0.0, "name": "ebaddff18dfdeb940da0c5a4d5b7c74f", "fusion_lon": 0.0}, {"is_reserved": 0, "type": "electric_scooter", "bike_id": "9776acb374a9adbc1e8dc540afb6bc06", "lat": 38.918063, "lon": -77.01075033333333, "rental_uris": {"android": "https://dc.lft.to/lastmile_qr_scan", "ios": "https://dc.lft.to/lastmile_qr_scan"}, "is_disabled": 0, "fusion_lat": 0.0, "name": "9776acb374a9adbc1e8dc540afb6bc06", "fusion_lon": 0.0}, {"is_reserved": 0, "type": "electric_bike", "bike_id": "e3781bd77d7ca33e3aaaecf758bbd115", "lat": 38.86084866666667, "lon": -77.05657016666666, "rental_uris": {"android": "https://dc.lft.to/lastmile_qr_scan", "ios": "https://dc.lft.to/lastmile_qr_scan"}, "is_disabled": 0, "fusion_lat": 0.0, "name": "e3781bd77d7ca33e3aaaecf758bbd115", "fusion_lon": 0.0}, {"is_reserved": 0, "type": "electric_scooter", "bike_id": "fdbba8b669ffc7a7c0de06177d09a032", "lat": 38.922385, "lon": -77.0351915, "rental_uris": {"android": "https://dc.lft.to/lastmile_qr_scan", "ios": "https://dc.lft.to/lastmile_qr_scan"}, "is_disabled": 0, "fusion_lat": 0.0, "name": "fdbba8b669ffc7a7c0de06177d09a032", "fusion_lon": 0.0}, {"is_reserved": 0, "type": "electric_scooter", "bike_id": "3cbe551cf76ddcf782c90e79746acf09", "lat": 38.899300833333335, "lon": -77.03212266666667, "rental_uris": {"android": "https://dc.lft.to/lastmile_qr_scan", "ios": "https://dc.lft.to/lastmile_qr_scan"}, "is_disabled": 0, "fusion_lat": 0.0, "name": "3cbe551cf76ddcf782c90e79746acf09", "fusion_lon": 0.0}, {"is_reserved": 0, "type": "electric_scooter", "bike_id": "2d5e4242a8c06153058837f3a0e8aef4", "lat": 38.900381333333335, "lon": -76.99161433333333, "rental_uris": {"android": "https://dc.lft.to/lastmile_qr_scan", "ios": "https://dc.lft.to/lastmile_qr_scan"}, "is_disabled": 0, "fusion_lat": 0.0, "name": "2d5e4242a8c06153058837f3a0e8aef4", "fusion_lon": 0.0}, {"is_reserved": 0, "type": "electric_scooter", "bike_id": "7f030e322a2c288ff5ac9260918a3684", "lat": 38.922776666666664, "lon": -76.9977015, "rental_uris": {"android": "https://dc.lft.to/lastmile_qr_scan", "ios": "https://dc.lft.to/lastmile_qr_scan"}, "is_disabled": 0, "fusion_lat": 0.0, "name": "7f030e322a2c288ff5ac9260918a3684", "fusion_lon": 0.0}, {"is_reserved": 0, "type": "electric_scooter", "bike_id": "86c57005bd3d21fe56a48c0b9703105d", "lat": 38.8936325, "lon": -76.9410475, "rental_uris": {"android": "https://dc.lft.to/lastmile_qr_scan", "ios": "https://dc.lft.to/lastmile_qr_scan"}, "is_disabled": 0, "fusion_lat": 0.0, "name": "86c57005bd3d21fe56a48c0b9703105d", "fusion_lon": 0.0}, {"is_reserved": 0, "type": "electric_scooter", "bike_id": "0c7cb41d1c8e0d86b49cb85dd271e462", "lat": 38.92710616666667, "lon": -77.05350983333334, "rental_uris": {"android": "https://dc.lft.to/lastmile_qr_scan", "ios": "https://dc.lft.to/lastmile_qr_scan"}, "is_disabled": 0, "fusion_lat": 0.0, "name": "0c7cb41d1c8e0d86b49cb85dd271e462", "fusion_lon": 0.0}, {"is_reserved": 0, "type": "electric_scooter", "bike_id": "465d3dd25a992f988f01b5e094a9829f", "lat": 38.92569, "lon": -76.97008866666667, "rental_uris": {"android": "https://dc.lft.to/lastmile_qr_scan", "ios": "https://dc.lft.to/lastmile_qr_scan"}, "is_disabled": 0, "fusion_lat": 0.0, "name": "465d3dd25a992f988f01b5e094a9829f", "fusion_lon": 0.0}, {"is_reserved": 0, "type": "electric_scooter", "bike_id": "cddc7ffe76e72aa8d2fdb820c8b5676c", "lat": 38.91771383333333, "lon": -77.03184166666666, "rental_uris": {"android": "https://dc.lft.to/lastmile_qr_scan", "ios": "https://dc.lft.to/lastmile_qr_scan"}, "is_disabled": 0, "fusion_lat": 0.0, "name": "cddc7ffe76e72aa8d2fdb820c8b5676c", "fusion_lon": 0.0}, {"is_reserved": 0, "type": "electric_scooter", "bike_id": "09053191978a326ff847f80292c0b75a", "lat": 38.94091616666667, "lon": -77.023198, "rental_uris": {"android": "https://dc.lft.to/lastmile_qr_scan", "ios": "https://dc.lft.to/lastmile_qr_scan"}, "is_disabled": 0, "fusion_lat": 0.0, "name": "09053191978a326ff847f80292c0b75a", "fusion_lon": 0.0}, {"is_reserved": 0, "type": "electric_scooter", "bike_id": "a276f790f4f4157b631ef188239914bf", "lat": 38.8934875, "lon": -77.01168016666666, "rental_uris": {"android": "https://dc.lft.to/lastmile_qr_scan", "ios": "https://dc.lft.to/lastmile_qr_scan"}, "is_disabled": 0, "fusion_lat": 0.0, "name": "a276f790f4f4157b631ef188239914bf", "fusion_lon": 0.0}, {"is_reserved": 0, "type": "electric_scooter", "bike_id": "59dc1b232ab4f458feaed0f59f251fee", "lat": 38.905538166666666, "lon": -77.02966433333333, "rental_uris": {"android": "https://dc.lft.to/lastmile_qr_scan", "ios": "https://dc.lft.to/lastmile_qr_scan"}, "is_disabled": 0, "fusion_lat": 0.0, "name": "59dc1b232ab4f458feaed0f59f251fee", "fusion_lon": 0.0}, {"is_reserved": 0, "type": "electric_scooter", "bike_id": "4a8c4706b34eb0c56af6cb60e54ac9a0", "lat": 38.892218, "lon": -77.02312333333333, "rental_uris": {"android": "https://dc.lft.to/lastmile_qr_scan", "ios": "https://dc.lft.to/lastmile_qr_scan"}, "is_disabled": 0, "fusion_lat": 0.0, "name": "4a8c4706b34eb0c56af6cb60e54ac9a0", "fusion_lon": 0.0}, {"is_reserved": 0, "type": "electric_scooter", "bike_id": "f1924dac6cc13d52f62616d1deb45cc7", "lat": 38.9082595, "lon": -77.0347385, "rental_uris": {"android": "https://dc.lft.to/lastmile_qr_scan", "ios": "https://dc.lft.to/lastmile_qr_scan"}, "is_disabled": 0, "fusion_lat": 0.0, "name": "f1924dac6cc13d52f62616d1deb45cc7", "fusion_lon": 0.0}, {"is_reserved": 0, "type": "electric_scooter", "bike_id": "5c0dbff46ba0bb3a4d264c9dd0be6b0e", "lat": 38.9473415, "lon": -77.02461566666666, "rental_uris": {"android": "https://dc.lft.to/lastmile_qr_scan", "ios": "https://dc.lft.to/lastmile_qr_scan"}, "is_disabled": 0, "fusion_lat": 0.0, "name": "5c0dbff46ba0bb3a4d264c9dd0be6b0e", "fusion_lon": 0.0}, {"is_reserved": 0, "type": "electric_scooter", "bike_id": "03a563dcf2fedb90718860135559f8de", "lat": 38.92060216666667, "lon": -77.02220733333333, "rental_uris": {"android": "https://dc.lft.to/lastmile_qr_scan", "ios": "https://dc.lft.to/lastmile_qr_scan"}, "is_disabled": 0, "fusion_lat": 0.0, "name": "03a563dcf2fedb90718860135559f8de", "fusion_lon": 0.0}, {"is_reserved": 0, "type": "electric_bike", "bike_id": "a6cc08bdfaa22d7118c1ca3de64c4597", "lat": 38.95134633333333, "lon": -76.96594666666667, "rental_uris": {"android": "https://dc.lft.to/lastmile_qr_scan", "ios": "https://dc.lft.to/lastmile_qr_scan"}, "is_disabled": 0, "fusion_lat": 0.0, "name": "a6cc08bdfaa22d7118c1ca3de64c4597", "fusion_lon": 0.0}, {"is_reserved": 0, "type": "electric_scooter", "bike_id": "08deee5c12440e45a890ed080aabdc48", "lat": 38.916117166666666, "lon": -77.04635083333334, "rental_uris": {"android": "https://dc.lft.to/lastmile_qr_scan", "ios": "https://dc.lft.to/lastmile_qr_scan"}, "is_disabled": 0, "fusion_lat": 0.0, "name": "08deee5c12440e45a890ed080aabdc48", "fusion_lon": 0.0}, {"is_reserved": 0, "type": "electric_scooter", "bike_id": "5eb4a1ed0b3cc630c0a3996f9471fc95", "lat": 38.9066565, "lon": -77.009238, "rental_uris": {"android": "https://dc.lft.to/lastmile_qr_scan", "ios": "https://dc.lft.to/lastmile_qr_scan"}, "is_disabled": 0, "fusion_lat": 0.0, "name": "5eb4a1ed0b3cc630c0a3996f9471fc95", "fusion_lon": 0.0}, {"is_reserved": 0, "type": "electric_scooter", "bike_id": "cff364f5aed2e007fa28ae5ff8201f41", "lat": 38.9284435, "lon": -77.0551015, "rental_uris": {"android": "https://dc.lft.to/lastmile_qr_scan", "ios": "https://dc.lft.to/lastmile_qr_scan"}, "is_disabled": 0, "fusion_lat": 0.0, "name": "cff364f5aed2e007fa28ae5ff8201f41", "fusion_lon": 0.0}, {"is_reserved": 0, "type": "electric_scooter", "bike_id": "527f7a2d492851f8675c635ea5341398", "lat": 38.92750183333333, "lon": -77.02450516666667, "rental_uris": {"android": "https://dc.lft.to/lastmile_qr_scan", "ios": "https://dc.lft.to/lastmile_qr_scan"}, "is_disabled": 0, "fusion_lat": 0.0, "name": "527f7a2d492851f8675c635ea5341398", "fusion_lon": 0.0}, {"is_reserved": 0, "type": "electric_scooter", "bike_id": "b840997d2234438210b1033b75f61417", "lat": 38.87726583333333, "lon": -77.00605066666667, "rental_uris": {"android": "https://dc.lft.to/lastmile_qr_scan", "ios": "https://dc.lft.to/lastmile_qr_scan"}, "is_disabled": 0, "fusion_lat": 0.0, "name": "b840997d2234438210b1033b75f61417", "fusion_lon": 0.0}, {"is_reserved": 0, "type": "electric_scooter", "bike_id": "775da8d0589076ac6a80b11d2eab891f", "lat": 38.942291, "lon": -77.0715455, "rental_uris": {"android": "https://dc.lft.to/lastmile_qr_scan", "ios": "https://dc.lft.to/lastmile_qr_scan"}, "is_disabled": 0, "fusion_lat": 0.0, "name": "775da8d0589076ac6a80b11d2eab891f", "fusion_lon": 0.0}, {"is_reserved": 0, "type": "electric_scooter", "bike_id": "4ebab0a65ccd993ed362d8783506e992", "lat": 38.89740883333333, "lon": -77.02166433333333, "rental_uris": {"android": "https://dc.lft.to/lastmile_qr_scan", "ios": "https://dc.lft.to/lastmile_qr_scan"}, "is_disabled": 0, "fusion_lat": 0.0, "name": "4ebab0a65ccd993ed362d8783506e992", "fusion_lon": 0.0}, {"is_reserved": 0, "type": "electric_scooter", "bike_id": "cfaf95c45a6fca24485036ec446f0aa9", "lat": 38.91946216666667, "lon": -77.01362633333333, "rental_uris": {"android": "https://dc.lft.to/lastmile_qr_scan", "ios": "https://dc.lft.to/lastmile_qr_scan"}, "is_disabled": 0, "fusion_lat": 0.0, "name": "cfaf95c45a6fca24485036ec446f0aa9", "fusion_lon": 0.0}, {"is_reserved": 0, "type": "electric_scooter", "bike_id": "be296174f4df0cf4877b2707123670bb", "lat": 38.89877366666666, "lon": -76.931823, "rental_uris": {"android": "https://dc.lft.to/lastmile_qr_scan", "ios": "https://dc.lft.to/lastmile_qr_scan"}, "is_disabled": 0, "fusion_lat": 0.0, "name": "be296174f4df0cf4877b2707123670bb", "fusion_lon": 0.0}, {"is_reserved": 0, "type": "electric_scooter", "bike_id": "dc94637c01138609a5d39cece4967817", "lat": 38.92220283333333, "lon": -77.04335133333333, "rental_uris": {"android": "https://dc.lft.to/lastmile_qr_scan", "ios": "https://dc.lft.to/lastmile_qr_scan"}, "is_disabled": 0, "fusion_lat": 0.0, "name": "dc94637c01138609a5d39cece4967817", "fusion_lon": 0.0}, {"is_reserved": 0, "type": "electric_scooter", "bike_id": "419313ab3e544537d48bf4546e80f8ec", "lat": 38.92361533333333, "lon": -77.05184583333333, "rental_uris": {"android": "https://dc.lft.to/lastmile_qr_scan", "ios": "https://dc.lft.to/lastmile_qr_scan"}, "is_disabled": 0, "fusion_lat": 0.0, "name": "419313ab3e544537d48bf4546e80f8ec", "fusion_lon": 0.0}, {"is_reserved": 0, "type": "electric_scooter", "bike_id": "182aa5cd63dc6c071af274adb5385bd3", "lat": 38.8996, "lon": -77.0165805, "rental_uris": {"android": "https://dc.lft.to/lastmile_qr_scan", "ios": "https://dc.lft.to/lastmile_qr_scan"}, "is_disabled": 0, "fusion_lat": 0.0, "name": "182aa5cd63dc6c071af274adb5385bd3", "fusion_lon": 0.0}, {"is_reserved": 0, "type": "electric_scooter", "bike_id": "8f6ab47498885b9feab86cbc608ff3ef", "lat": 38.9098015, "lon": -77.03335033333333, "rental_uris": {"android": "https://dc.lft.to/lastmile_qr_scan", "ios": "https://dc.lft.to/lastmile_qr_scan"}, "is_disabled": 0, "fusion_lat": 0.0, "name": "8f6ab47498885b9feab86cbc608ff3ef", "fusion_lon": 0.0}, {"is_reserved": 0, "type": "electric_scooter", "bike_id": "1e7d7c63eb02f3aec9267e54b4f6cc68", "lat": 38.926876666666665, "lon": -77.02831366666666, "rental_uris": {"android": "https://dc.lft.to/lastmile_qr_scan", "ios": "https://dc.lft.to/lastmile_qr_scan"}, "is_disabled": 0, "fusion_lat": 0.0, "name": "1e7d7c63eb02f3aec9267e54b4f6cc68", "fusion_lon": 0.0}, {"is_reserved": 0, "type": "electric_scooter", "bike_id": "066e16979d3cbd9e978874d7aeab61be", "lat": 38.8852605, "lon": -76.996164, "rental_uris": {"android": "https://dc.lft.to/lastmile_qr_scan", "ios": "https://dc.lft.to/lastmile_qr_scan"}, "is_disabled": 0, "fusion_lat": 0.0, "name": "066e16979d3cbd9e978874d7aeab61be", "fusion_lon": 0.0}, {"is_reserved": 0, "type": "electric_scooter", "bike_id": "ff4783fa9c40fa43f6e838c7ff1a234a", "lat": 38.91556116666667, "lon": -77.03329166666667, "rental_uris": {"android": "https://dc.lft.to/lastmile_qr_scan", "ios": "https://dc.lft.to/lastmile_qr_scan"}, "is_disabled": 0, "fusion_lat": 0.0, "name": "ff4783fa9c40fa43f6e838c7ff1a234a", "fusion_lon": 0.0}, {"is_reserved": 0, "type": "electric_scooter", "bike_id": "1f3d75f951d71f148f564e1e1764edd0", "lat": 38.9008275, "lon": -77.04871083333333, "rental_uris": {"android": "https://dc.lft.to/lastmile_qr_scan", "ios": "https://dc.lft.to/lastmile_qr_scan"}, "is_disabled": 0, "fusion_lat": 0.0, "name": "1f3d75f951d71f148f564e1e1764edd0", "fusion_lon": 0.0}, {"is_reserved": 0, "type": "electric_scooter", "bike_id": "f124d5a1fbeb54aececb92cfc13acf76", "lat": 38.90688816666667, "lon": -77.06253333333333, "rental_uris": {"android": "https://dc.lft.to/lastmile_qr_scan", "ios": "https://dc.lft.to/lastmile_qr_scan"}, "is_disabled": 0, "fusion_lat": 0.0, "name": "f124d5a1fbeb54aececb92cfc13acf76", "fusion_lon": 0.0}, {"is_reserved": 0, "type": "electric_scooter", "bike_id": "33a88cc0e8da93a5eb386a8320bf5a65", "lat": 38.91785683333333, "lon": -77.03224033333333, "rental_uris": {"android": "https://dc.lft.to/lastmile_qr_scan", "ios": "https://dc.lft.to/lastmile_qr_scan"}, "is_disabled": 0, "fusion_lat": 0.0, "name": "33a88cc0e8da93a5eb386a8320bf5a65", "fusion_lon": 0.0}, {"is_reserved": 0, "type": "electric_scooter", "bike_id": "c758c94edecc26049ae38d8a81af4359", "lat": 38.913486166666665, "lon": -77.042362, "rental_uris": {"android": "https://dc.lft.to/lastmile_qr_scan", "ios": "https://dc.lft.to/lastmile_qr_scan"}, "is_disabled": 0, "fusion_lat": 0.0, "name": "c758c94edecc26049ae38d8a81af4359", "fusion_lon": 0.0}, {"is_reserved": 0, "type": "electric_scooter", "bike_id": "705237cbe7fd4d6be22656764d13b561", "lat": 38.897287666666664, "lon": -76.99514533333334, "rental_uris": {"android": "https://dc.lft.to/lastmile_qr_scan", "ios": "https://dc.lft.to/lastmile_qr_scan"}, "is_disabled": 0, "fusion_lat": 0.0, "name": "705237cbe7fd4d6be22656764d13b561", "fusion_lon": 0.0}, {"is_reserved": 0, "type": "electric_scooter", "bike_id": "f1f302983203de8d25e4085ee3786d06", "lat": 38.921035833333335, "lon": -77.017704, "rental_uris": {"android": "https://dc.lft.to/lastmile_qr_scan", "ios": "https://dc.lft.to/lastmile_qr_scan"}, "is_disabled": 0, "fusion_lat": 0.0, "name": "f1f302983203de8d25e4085ee3786d06", "fusion_lon": 0.0}, {"is_reserved": 0, "type": "electric_bike", "bike_id": "a9be24b5360f3591ee898a852914d2d8", "lat": 38.82428633333333, "lon": -77.1203545, "rental_uris": {"android": "https://dc.lft.to/lastmile_qr_scan", "ios": "https://dc.lft.to/lastmile_qr_scan"}, "is_disabled": 0, "fusion_lat": 0.0, "name": "a9be24b5360f3591ee898a852914d2d8", "fusion_lon": 0.0}, {"is_reserved": 0, "type": "electric_scooter", "bike_id": "b5d64e00d5d791560d27563a53fb6d75", "lat": 38.874938666666665, "lon": -77.00929666666667, "rental_uris": {"android": "https://dc.lft.to/lastmile_qr_scan", "ios": "https://dc.lft.to/lastmile_qr_scan"}, "is_disabled": 0, "fusion_lat": 0.0, "name": "b5d64e00d5d791560d27563a53fb6d75", "fusion_lon": 0.0}, {"is_reserved": 0, "type": "electric_scooter", "bike_id": "4d1a97def996bb4b6aa2386709f57b3e", "lat": 38.9169995, "lon": -77.03776383333333, "rental_uris": {"android": "https://dc.lft.to/lastmile_qr_scan", "ios": "https://dc.lft.to/lastmile_qr_scan"}, "is_disabled": 0, "fusion_lat": 0.0, "name": "4d1a97def996bb4b6aa2386709f57b3e", "fusion_lon": 0.0},