{"data": {"bikes": [{"lon": -77.02631966666667, "is_disabled": 0, "lat": 38.92989983333333, "fusion_lat": 0.0, "is_reserved": 0, "rental_uris": {"ios": "https://dc.lft.to/lastmile_qr_scan", "android": "https://dc.lft.to/lastmile_qr_scan"}, "fusion_lon": 0.0, "type": "electric_scooter", "bike_id": "459c29b0a749e0bc7de54cb362c12450", "name": "459c29b0a749e0bc7de54cb362c12450"}, {"lon": -77.04481516666667, "is_disabled": 0, "lat": 38.904726333333336, "fusion_lat": 0.0, "is_reserved": 0, "rental_uris": {"ios": "https://dc.lft.to/lastmile_qr_scan", "android": "https://dc.lft.to/lastmile_qr_scan"}, "fusion_lon": 0.0, "type": "electric_scooter", "bike_id": "61b8d2cd62591c66233fd84c186621fb", "name": "61b8d2cd62591c66233fd84c186621fb"}, {"lon": -77.12980633333333, "is_disabled": 0, "lat": 38.79991016666666, "fusion_lat": 0.0, "is_reserved": 0, "rental_uris": {"ios": "https://dc.lft.to/lastmile_qr_scan", "android": "https://dc.lft.to/lastmile_qr_scan"}, "fusion_lon": 0.0, "type": "electric_bike", "bike_id": "8cb421dc966832fc279e28d166d37922", "name": "8cb421dc966832fc279e28d166d37922"}, {"lon": -77.0412555, "is_disabled": 0, "lat": 38.933629, "fusion_lat": 0.0, "is_reserved": 0, "rental_uris": {"ios": "https://dc.lft.to/lastmile_qr_scan", "android": "https://dc.lft.to/lastmile_qr_scan"}, "fusion_lon": 0.0, "type": "electric_scooter", "bike_id": "3772996ec12998e5dcd16cca4221ed12", "name": "3772996ec12998e5dcd16cca4221ed12"}, {"lon": -77.04098766666667, "is_disabled": 0, "lat": 38.901253, "fusion_lat": 0.0, "is_reserved": 0, "rental_uris": {"ios": "https://dc.lft.to/lastmile_qr_scan", "android": "https://dc.lft.to/lastmile_qr_scan"}, "fusion_lon": 0.0, "type": "electric_scooter", "bike_id": "cabda66698bcd67feafcffe6e3b7a371", "name": "cabda66698bcd67feafcffe6e3b7a371"}, {"lon": -77.02213916666666, "is_disabled": 0, "lat": 38.903943166666664, "fusion_lat": 0.0, "is_reserved": 0, "rental_uris": {"ios": "https://dc.lft.to/lastmile_qr_scan", "android": "https://dc.lft.to/lastmile_qr_scan"}, "fusion_lon": 0.0, "type": "electric_scooter", "bike_id": "af4752ed5a854defd871e7594338ff50", "name": "af4752ed5a854defd871e7594338ff50"}, {"lon": -77.0257895, "is_disabled": 0, "lat": 38.898403333333334, "fusion_lat": 0.0, "is_reserved": 0, "rental_uris": {"ios": "https://dc.lft.to/lastmile_qr_scan", "android": "https://dc.lft.to/lastmile_qr_scan"}, "fusion_lon": 0.0, "type": "electric_scooter", "bike_id": "2df364f52f640d3d370f65135bcefdd2", "name": "2df364f52f640d3d370f65135bcefdd2"}, {"lon": -77.01828733333333, "is_disabled": 0, "lat": 38.92230416666666, "fusion_lat": 0.0, "is_reserved": 0, "rental_uris": {"ios": "https://dc.lft.to/lastmile_qr_scan", "android": "https://dc.lft.to/lastmile_qr_scan"}, "fusion_lon": 0.0, "type": "electric_scooter", "bike_id": "4ca39f885f75e2be8cdbc5c329d86823", "name": "4ca39f885f75e2be8cdbc5c329d86823"}, {"lon": -77.03630583333333, "is_disabled": 0, "lat": 38.9317855, "fusion_lat": 0.0, "is_reserved": 0, "rental_uris": {"ios": "https://dc.lft.to/lastmile_qr_scan", "android": "https://dc.lft.to/lastmile_qr_scan"}, "fusion_lon": 0.0, "type": "electric_scooter", "bike_id": "66e4eefcb1ec23675d08c506869da979", "name": "66e4eefcb1ec23675d08c506869da979"}, {"lon": -76.98591516666667, "is_disabled": 0, "lat": 38.8587295, "fusion_lat": 0.0, "is_reserved": 0, "rental_uris": {"ios": "https://dc.lft.to/lastmile_qr_scan", "android": "https://dc.lft.to/lastmile_qr_scan"}, "fusion_lon": 0.0, "type": "electric_scooter", "bike_id": "8d0bb7f6a18d3a4b7fe4f7d2841949c6", "name": "8d0bb7f6a18d3a4b7fe4f7d2841949c6"}, {"lon": -77.03861516666667, "is_disabled": 0, "lat": 38.9081315, "fusion_lat": 0.0, "is_reserved": 0, "rental_uris": {"ios": "https://dc.lft.to/lastmile_qr_scan", "android": "https://dc.lft.to/lastmile_qr_scan"}, "fusion_lon": 0.0, "type": "electric_scooter", "bike_id": "5d1fc22177d5b96e318b3d3d7e210714", "name": "5d1fc22177d5b96e318b3d3d7e210714"}, {"lon": -77.0239495, "is_disabled": 0, "lat": 38.9167785, "fusion_lat": 0.0, "is_reserved": 0, "rental_uris": {"ios": "https://dc.lft.to/lastmile_qr_scan", "android": "https://dc.lft.to/lastmile_qr_scan"}, "fusion_lon": 0.0, "type": "electric_scooter", "bike_id": "3112cb2364db198b68b8f96d686c8f29", "name": "3112cb2364db198b68b8f96d686c8f29"}, {"lon": -77.02488416666667, "is_disabled": 0, "lat": 38.9578005, "fusion_lat": 0.0, "is_reserved": 0, "rental_uris": {"ios": "https://dc.lft.to/lastmile_qr_scan", "android": "https://dc.lft.to/lastmile_qr_scan"}, "fusion_lon": 0.0, "type": "electric_scooter", "bike_id": "7f016f03de6ba4bd8aced97e43ab32be", "name": "7f016f03de6ba4bd8aced97e43ab32be"}, {"lon": -76.946416, "is_disabled": 0, "lat": 38.89869233333334, "fusion_lat": 0.0, "is_reserved": 0, "rental_uris": {"ios": "https://dc.lft.to/lastmile_qr_scan", "android": "https://dc.lft.to/lastmile_qr_scan"}, "fusion_lon": 0.0, "type": "electric_scooter", "bike_id": "3c4a226f7df1f2683da5961b2d3fce6e", "name": "3c4a226f7df1f2683da5961b2d3fce6e"}, {"lon": -77.04162283333334, "is_disabled": 0, "lat": 38.900170833333334, "fusion_lat": 0.0, "is_reserved": 0, "rental_uris": {"ios": "https://dc.lft.to/lastmile_qr_scan", "android": "https://dc.lft.to/lastmile_qr_scan"}, "fusion_lon": 0.0, "type": "electric_scooter", "bike_id": "2972b48d84609975533a1f348aa6ea46", "name": "2972b48d84609975533a1f348aa6ea46"}, {"lon": -77.03579566666667, "is_disabled": 0, "lat": 38.9112495, "fusion_lat": 0.0, "is_reserved": 0, "rental_uris": {"ios": "https://dc.lft.to/lastmile_qr_scan", "android": "https://dc.lft.to/lastmile_qr_scan"}, "fusion_lon": 0.0, "type": "electric_scooter", "bike_id": "015646d78d4de4330d090281ec04c1cc", "name": "015646d78d4de4330d090281ec04c1cc"}, {"lon": -77.02569133333333, "is_disabled": 0, "lat": 38.8875, "fusion_lat": 0.0, "is_reserved": 0, "rental_uris": {"ios": "https://dc.lft.to/lastmile_qr_scan", "android": "https://dc.lft.to/lastmile_qr_scan"}, "fusion_lon": 0.0, "type": "electric_scooter", "bike_id": "c4d6f66dbccff2ad5d6f54fe34a8fe5c", "name": "c4d6f66dbccff2ad5d6f54fe34a8fe5c"}, {"lon": -77.03277583333333, "is_disabled": 0, "lat": 38.90974683333334, "fusion_lat": 0.0, "is_reserved": 0, "rental_uris": {"ios": "https://dc.lft.to/lastmile_qr_scan", "android": "https://dc.lft.to/lastmile_qr_scan"}, "fusion_lon": 0.0, "type": "electric_scooter", "bike_id": "544ad5b99f9708dfb1d76db775453f34", "name": "544ad5b99f9708dfb1d76db775453f34"}, {"lon": -77.0549575, "is_disabled": 0, "lat": 39.01482416666666, "fusion_lat": 0.0, "is_reserved": 0, "rental_uris": {"ios": "https://dc.lft.to/lastmile_qr_scan", "android": "https://dc.lft.to/lastmile_qr_scan"}, "fusion_lon": 0.0, "type": "electric_bike", "bike_id": "727779544424f8a6e2d51026c273bb8e", "name": "727779544424f8a6e2d51026c273bb8e"}, {"lon": -77.03105533333333, "is_disabled": 0, "lat": 38.90397016666667, "fusion_lat": 0.0, "is_reserved": 0, "rental_uris": {"ios": "https://dc.lft.to/lastmile_qr_scan", "android": "https://dc.lft.to/lastmile_qr_scan"}, "fusion_lon": 0.0, "type": "electric_scooter", "bike_id": "5e7f0e550361452905cf1476e458f8eb", "name": "5e7f0e550361452905cf1476e458f8eb"}, {"lon": -77.0373515, "is_disabled": 0, "lat": 38.926593, "fusion_lat": 0.0, "is_reserved": 0, "rental_uris": {"ios": "https://dc.lft.to/lastmile_qr_scan", "android": "https://dc.lft.to/lastmile_qr_scan"}, "fusion_lon": 0.0, "type": "electric_scooter", "bike_id": "da0b071c322ab5d1ccf4824b2fa2741f", "name": "da0b071c322ab5d1ccf4824b2fa2741f"}, {"lon": -77.02128, "is_disabled": 0, "lat": 38.92363683333333, "fusion_lat": 0.0, "is_reserved": 0, "rental_uris": {"ios": "https://dc.lft.to/lastmile_qr_scan", "android": "https://dc.lft.to/lastmile_qr_scan"}, "fusion_lon": 0.0, "type": "electric_scooter", "bike_id": "11219590a8aeb0f830331dfad341c4dc", "name": "11219590a8aeb0f830331dfad341c4dc"}, {"lon": -77.00905233333333, "is_disabled": 0, "lat": 38.875169, "fusion_lat": 0.0, "is_reserved": 0, "rental_uris": {"ios": "https://dc.lft.to/lastmile_qr_scan", "android": "https://dc.lft.to/lastmile_qr_scan"}, "fusion_lon": 0.0, "type": "electric_bike", "bike_id": "601b62121b917c51948e6983e0c131cc", "name": "601b62121b917c51948e6983e0c131cc"}, {"lon": -77.04552833333334, "is_disabled": 0, "lat": 38.914802, "fusion_lat": 0.0, "is_reserved": 0, "rental_uris": {"ios": "https://dc.lft.to/lastmile_qr_scan", "android": "https://dc.lft.to/lastmile_qr_scan"}, "fusion_lon": 0.0, "type": "electric_scooter", "bike_id": "177c79e47c91c17ab7b1dadd2bbf434f", "name": "177c79e47c91c17ab7b1dadd2bbf434f"}, {"lon": -77.04348766666666, "is_disabled": 0, "lat": 38.92193416666667, "fusion_lat": 0.0, "is_reserved": 0, "rental_uris": {"ios": "https://dc.lft.to/lastmile_qr_scan", "android": "https://dc.lft.to/lastmile_qr_scan"}, "fusion_lon": 0.0, "type": "electric_scooter", "bike_id": "e04a8e2ae0d9dc16ca4c5e68c1ba2787", "name": "e04a8e2ae0d9dc16ca4c5e68c1ba2787"}, {"lon": -76.93376766666667, "is_disabled": 0, "lat": 38.89918883333333, "fusion_lat": 0.0, "is_reserved": 0, "rental_uris": {"ios": "https://dc.lft.to/lastmile_qr_scan", "android": "https://dc.lft.to/lastmile_qr_scan"}, "fusion_lon": 0.0, "type": "electric_scooter", "bike_id": "30f2b319fac61d19b180954a816ab2ce", "name": "30f2b319fac61d19b180954a816ab2ce"}, {"lon": -77.0024535, "is_disabled": 0, "lat": 38.874925166666664, "fusion_lat": 0.0, "is_reserved": 0, "rental_uris": {"ios": "https://dc.lft.to/lastmile_qr_scan", "android": "https://dc.lft.to/lastmile_qr_scan"}, "fusion_lon": 0.0, "type": "electric_scooter", "bike_id": "8938fd774fc63483c7b1385c2e29be53", "name": "8938fd774fc63483c7b1385c2e29be53"}, {"lon": -76.9702865, "is_disabled": 0, "lat": 38.87360866666667, "fusion_lat": 0.0, "is_reserved": 0, "rental_uris": {"ios": "https://dc.lft.to/lastmile_qr_scan", "android": "https://dc.lft.to/lastmile_qr_scan"}, "fusion_lon": 0.0, "type": "electric_scooter", "bike_id": "ada6c4e542cdb232a2bcae7125b62be3", "name": "ada6c4e542cdb232a2bcae7125b62be3"}, {"lon": -77.0255775, "is_disabled": 0, "lat": 38.919087833333336, "fusion_lat": 0.0, "is_reserved": 0, "rental_uris": {"ios": "https://dc.lft.to/lastmile_qr_scan", "android": "https://dc.lft.to/lastmile_qr_scan"}, "fusion_lon": 0.0, "type": "electric_scooter", "bike_id": "3e2472c3c3cd5be8f8daf2d6bb9fb314", "name": "3e2472c3c3cd5be8f8daf2d6bb9fb314"}, {"lon": -77.13934166666667, "is_disabled": 0, "lat": 38.87307916666666, "fusion_lat": 0.0, "is_reserved": 0, "rental_uris": {"ios": "https://dc.lft.to/lastmile_qr_scan", "android": "https://dc.lft.to/lastmile_qr_scan"}, "fusion_lon": 0.0, "type": "electric_bike", "bike_id": "a6b3d19aa446e4510db705c776f10c5e", "name": "a6b3d19aa446e4510db705c776f10c5e"}, {"lon": -76.97950233333333, "is_disabled": 0, "lat": 38.90435133333333, "fusion_lat": 0.0, "is_reserved": 0, "rental_uris": {"ios": "https://dc.lft.to/lastmile_qr_scan", "android": "https://dc.lft.to/lastmile_qr_scan"}, "fusion_lon": 0.0, "type": "electric_scooter", "bike_id": "9c83edea5dc8601606054cfa74195633", "name": "9c83edea5dc8601606054cfa74195633"}, {"lon": -77.01535583333333, "is_disabled": 0, "lat": 38.88614066666667, "fusion_lat": 0.0, "is_reserved": 0, "rental_uris": {"ios": "https://dc.lft.to/lastmile_qr_scan", "android": "https://dc.lft.to/lastmile_qr_scan"}, "fusion_lon": 0.0, "type": "electric_scooter", "bike_id": "f7e6841ea19010519d4bd8ac2005b421", "name": "f7e6841ea19010519d4bd8ac2005b421"}, {"lon": -77.04372916666667, "is_disabled": 0, "lat": 38.904173666666665, "fusion_lat": 0.0, "is_reserved": 0, "rental_uris": {"ios": "https://dc.lft.to/lastmile_qr_scan", "android": "https://dc.lft.to/lastmile_qr_scan"}, "fusion_lon": 0.0, "type": "electric_scooter", "bike_id": "d172b00af819852165bf69f52998903b", "name": "d172b00af819852165bf69f52998903b"}, {"lon": -77.00176083333334, "is_disabled": 0, "lat": 38.8447595, "fusion_lat": 0.0, "is_reserved": 0, "rental_uris": {"ios": "https://dc.lft.to/lastmile_qr_scan", "android": "https://dc.lft.to/lastmile_qr_scan"}, "fusion_lon": 0.0, "type": "electric_bike", "bike_id": "1fdd8aa029c6a03727a509567385795c", "name": "1fdd8aa029c6a03727a509567385795c"}, {"lon": -77.02453416666667, "is_disabled": 0, "lat": 38.918405666666665, "fusion_lat": 0.0, "is_reserved": 0, "rental_uris": {"ios": "https://dc.lft.to/lastmile_qr_scan", "android": "https://dc.lft.to/lastmile_qr_scan"}, "fusion_lon": 0.0, "type": "electric_scooter", "bike_id": "348331e763bf4bf2a2d4247f7c0f3bba", "name": "348331e763bf4bf2a2d4247f7c0f3bba"}, {"lon": -76.9940845, "is_disabled": 0, "lat": 38.87783616666667, "fusion_lat": 0.0, "is_reserved": 0, "rental_uris": {"ios": "https://dc.lft.to/lastmile_qr_scan", "android": "https://dc.lft.to/lastmile_qr_scan"}, "fusion_lon": 0.0, "type": "electric_scooter", "bike_id": "3a745eb75f39aa7d5786dff28f1e4ba1", "name": "3a745eb75f39aa7d5786dff28f1e4ba1"}, {"lon": -76.96056883333333, "is_disabled": 0, "lat": 38.883292, "fusion_lat": 0.0, "is_reserved": 0, "rental_uris": {"ios": "https://dc.lft.to/lastmile_qr_scan", "android": "https://dc.lft.to/lastmile_qr_scan"}, "fusion_lon": 0.0, "type": "electric_bike", "bike_id": "52ff2b92c575a60db05355ed68edd480", "name": "52ff2b92c575a60db05355ed68edd480"}, {"lon": -77.02026216666667, "is_disabled": 0, "lat": 38.924307666666664, "fusion_lat": 0.0, "is_reserved": 0, "rental_uris": {"ios": "https://dc.lft.to/lastmile_qr_scan", "android": "https://dc.lft.to/lastmile_qr_scan"}, "fusion_lon": 0.0, "type": "electric_scooter", "bike_id": "15d9eddf70c794fe5716e45f4cec16c7", "name": "15d9eddf70c794fe5716e45f4cec16c7"}, {"lon": -77.0385115, "is_disabled": 0, "lat": 38.921823833333335, "fusion_lat": 0.0, "is_reserved": 0, "rental_uris": {"ios": "https://dc.lft.to/lastmile_qr_scan", "android": "https://dc.lft.to/lastmile_qr_scan"}, "fusion_lon": 0.0, "type": "electric_scooter", "bike_id": "8fdc8862635bd99c1edfe6ce4f5683f7", "name": "8fdc8862635bd99c1edfe6ce4f5683f7"}, {"lon": -77.02962333333333, "is_disabled": 0, "lat": 38.9275165, "fusion_lat": 0.0, "is_reserved": 0, "rental_uris": {"ios": "https://dc.lft.to/lastmile_qr_scan", "android": "https://dc.lft.to/lastmile_qr_scan"}, "fusion_lon": 0.0, "type": "electric_scooter", "bike_id": "1822370259ab1eff557a8ce5b5dbfcb9", "name": "1822370259ab1eff557a8ce5b5dbfcb9"}, {"lon": -77.0418195, "is_disabled": 0, "lat": 38.90591533333333, "fusion_lat": 0.0, "is_reserved": 0, "rental_uris": {"ios": "https://dc.lft.to/lastmile_qr_scan", "android": "https://dc.lft.to/lastmile_qr_scan"}, "fusion_lon": 0.0, "type": "electric_scooter", "bike_id": "bdbf948186b38e66d682b1825d7b9600", "name": "bdbf948186b38e66d682b1825d7b9600"}, {"lon": -77.044917, "is_disabled": 0, "lat": 38.93130083333333, "fusion_lat": 0.0, "is_reserved": 0, "rental_uris": {"ios": "https://dc.lft.to/lastmile_qr_scan", "android": "https://dc.lft.to/lastmile_qr_scan"}, "fusion_lon": 0.0, "type": "electric_scooter", "bike_id": "6ac77eb7bba68a1ff87d91df51689622", "name": "6ac77eb7bba68a1ff87d91df51689622"}, {"lon": -77.02315166666666, "is_disabled": 0, "lat": 38.927523666666666, "fusion_lat": 0.0, "is_reserved": 0, "rental_uris": {"ios": "https://dc.lft.to/lastmile_qr_scan", "android": "https://dc.lft.to/lastmile_qr_scan"}, "fusion_lon": 0.0, "type": "electric_scooter", "bike_id": "1649af3180e3b1852ee0a7ec33d372f0", "name": "1649af3180e3b1852ee0a7ec33d372f0"}, {"lon": -76.93027866666667, "is_disabled": 0, "lat": 38.8957105, "fusion_lat": 0.0, "is_reserved": 0, "rental_uris": {"ios": "https://dc.lft.to/lastmile_qr_scan", "android": "https://dc.lft.to/lastmile_qr_scan"}, "fusion_lon": 0.0, "type": "electric_scooter", "bike_id": "f6df8016118febbf858ca062cb421b79", "name": "f6df8016118febbf858ca062cb421b79"}, {"lon": -76.95662616666667, "is_disabled": 0, "lat": 38.88473966666667, "fusion_lat": 0.0, "is_reserved": 0, "rental_uris": {"ios": "https://dc.lft.to/lastmile_qr_scan", "android": "https://dc.lft.to/lastmile_qr_scan"}, "fusion_lon": 0.0, "type": "electric_bike", "bike_id": "9f3f07f9eebe7b3f01f8da0ade744e7f", "name": "9f3f07f9eebe7b3f01f8da0ade744e7f"}, {"lon": -77.000641, "is_disabled": 0, "lat": 38.8769655, "fusion_lat": 0.0, "is_reserved": 0, "rental_uris": {"ios": "https://dc.lft.to/lastmile_qr_scan", "android": "https://dc.lft.to/lastmile_qr_scan"}, "fusion_lon": 0.0, "type": "electric_scooter", "bike_id": "d460455e775103df156e10c4594e10f3", "name": "d460455e775103df156e10c4594e10f3"}, {"lon": -77.0315305, "is_disabled": 0, "lat": 38.91626016666667, "fusion_lat": 0.0, "is_reserved": 0, "rental_uris": {"ios": "https://dc.lft.to/lastmile_qr_scan", "android": "https://dc.lft.to/lastmile_qr_scan"}, "fusion_lon": 0.0, "type": "electric_scooter", "bike_id": "0255f621143e0efa4c85be2ab4812466", "name": "0255f621143e0efa4c85be2ab4812466"}, {"lon": -77.04303866666666, "is_disabled": 0, "lat": 39.03431533333333, "fusion_lat": 0.0, "is_reserved": 0, "rental_uris": {"ios": "https://dc.lft.to/lastmile_qr_scan", "android": "https://dc.lft.to/lastmile_qr_scan"}, "fusion_lon": 0.0, "type": "electric_bike", "bike_id": "ce0585eafc423f83c0f23625bfeaf90b", "name": "ce0585eafc423f83c0f23625bfeaf90b"}, {"lon": -77.04173116666666, "is_disabled": 0, "lat": 38.907431833333334, "fusion_lat": 0.0, "is_reserved": 0, "rental_uris": {"ios": "https://dc.lft.to/lastmile_qr_scan", "android": "https://dc.lft.to/lastmile_qr_scan"}, "fusion_lon": 0.0, "type": "electric_scooter", "bike_id": "f873d040d0af7eee39b57cf4f83b0a84", "name": "f873d040d0af7eee39b57cf4f83b0a84"}, {"lon": -77.04346983333333, "is_disabled": 0, "lat": 38.91048816666667, "fusion_lat": 0.0, "is_reserved": 0, "rental_uris": {"ios": "https://dc.lft.to/lastmile_qr_scan", "android": "https://dc.lft.to/lastmile_qr_scan"}, "fusion_lon": 0.0, "type": "electric_scooter", "bike_id": "c03c4f2793ddd2a5c335ef2f4a8b05b1", "name": "c03c4f2793ddd2a5c335ef2f4a8b05b1"}, {"lon": -76.9778555, "is_disabled": 0, "lat": 38.905728, "fusion_lat": 0.0, "is_reserved": 0, "rental_uris": {"ios": "https://dc.lft.to/lastmile_qr_scan", "android": "https://dc.lft.to/lastmile_qr_scan"}, "fusion_lon": 0.0, "type": "electric_scooter", "bike_id": "0c1e9e696be203d3bc5582cfc69f7d5f", "name": "0c1e9e696be203d3bc5582cfc69f7d5f"}, {"lon": -77.04599933333333, "is_disabled": 0, "lat": 38.902885, "fusion_lat": 0.0, "is_reserved": 0, "rental_uris": {"ios": "https://dc.lft.to/lastmile_qr_scan", "android": "https://dc.lft.to/lastmile_qr_scan"}, "fusion_lon": 0.0, "type": "electric_scooter", "bike_id": "75bb4be8acb56ca3e4fc2909648602ef", "name": "75bb4be8acb56ca3e4fc2909648602ef"}, {"lon": -77.05152116666666, "is_disabled": 0, "lat": 38.923807333333336, "fusion_lat": 0.0, "is_reserved": 0, "rental_uris": {"ios": "https://dc.lft.to/lastmile_qr_scan", "android": "https://dc.lft.to/lastmile_qr_scan"}, "fusion_lon": 0.0, "type": "electric_scooter", "bike_id": "45bda43bffa7bdee0f9238755c893543", "name": "45bda43bffa7bdee0f9238755c893543"}, {"lon": -77.01206733333333, "is_disabled": 0, "lat": 38.906179, "fusion_lat": 0.0, "is_reserved": 0, "rental_uris": {"ios": "https://dc.lft.to/lastmile_qr_scan", "android": "https://dc.lft.to/lastmile_qr_scan"}, "fusion_lon": 0.0, "type": "electric_scooter", "bike_id": "f64eb870d153027fc33ff9f1e13d64e1", "name": "f64eb870d153027fc33ff9f1e13d64e1"}, {"lon": -77.0151425, "is_disabled": 0, "lat": 38.9267615, "fusion_lat": 0.0, "is_reserved": 0, "rental_uris": {"ios": "https://dc.lft.to/lastmile_qr_scan", "android": "https://dc.lft.to/lastmile_qr_scan"}, "fusion_lon": 0.0, "type": "electric_scooter", "bike_id": "09fbeb59041b0570a73303b60629b894", "name": "09fbeb59041b0570a73303b60629b894"}, {"lon": -77.0438895, "is_disabled": 0, "lat": 38.916646, "fusion_lat": 0.0, "is_reserved": 0, "rental_uris": {"ios": "https://dc.lft.to/lastmile_qr_scan", "android": "https://dc.lft.to/lastmile_qr_scan"}, "fusion_lon": 0.0, "type": "electric_scooter", "bike_id": "40e9fc9db6c309547019184f5dffccb0", "name": "40e9fc9db6c309547019184f5dffccb0"}, {"lon": -76.98689333333333, "is_disabled": 0, "lat": 38.87762633333333, "fusion_lat": 0.0, "is_reserved": 0, "rental_uris": {"ios": "https://dc.lft.to/lastmile_qr_scan", "android": "https://dc.lft.to/lastmile_qr_scan"}, "fusion_lon": 0.0, "type": "electric_scooter", "bike_id": "524f628512b457f5d42a147801296d4a", "name": "524f628512b457f5d42a147801296d4a"}, {"lon": -77.03367383333334, "is_disabled": 0, "lat": 38.92154466666667, "fusion_lat": 0.0, "is_reserved": 0, "rental_uris": {"ios": "https://dc.lft.to/lastmile_qr_scan", "android": "https://dc.lft.to/lastmile_qr_scan"}, "fusion_lon": 0.0, "type": "electric_scooter", "bike_id": "70281586bf3f80e7ac13e1ad54f806c8", "name": "70281586bf3f80e7ac13e1ad54f806c8"}, {"lon": -76.99630666666667, "is_disabled": 0, "lat": 38.88449933333333, "fusion_lat": 0.0, "is_reserved": 0, "rental_uris": {"ios": "https://dc.lft.to/lastmile_qr_scan", "android": "https://dc.lft.to/lastmile_qr_scan"}, "fusion_lon": 0.0, "type": "electric_scooter", "bike_id": "abbb6394cfeb82cb529b74d1baef1944", "name": "abbb6394cfeb82cb529b74d1baef1944"}, {"lon": -77.0277255, "is_disabled": 0, "lat": 38.92872333333333, "fusion_lat": 0.0, "is_reserved": 0, "rental_uris": {"ios": "https://dc.lft.to/lastmile_qr_scan", "android": "https://dc.lft.to/lastmile_qr_scan"}, "fusion_lon": 0.0, "type": "electric_scooter", "bike_id": "f4debbc619efdbff937830ea941434dc", "name": "f4debbc619efdbff937830ea941434dc"}, {"lon": -77.0377385, "is_disabled": 0, "lat": 38.902277, "fusion_lat": 0.0, "is_reserved": 0, "rental_uris": {"ios": "https://dc.lft.to/lastmile_qr_scan", "android": "https://dc.lft.to/lastmile_qr_scan"}, "fusion_lon": 0.0, "type": "electric_scooter", "bike_id": "af9b34ae9b4998d0561343ccadfada5d", "name": "af9b34ae9b4998d0561343ccadfada5d"}, {"lon": -76.94633683333333, "is_disabled": 0, "lat": 38.832461333333335, "fusion_lat": 0.0, "is_reserved": 0, "rental_uris": {"ios": "https://dc.lft.to/lastmile_qr_scan", "android": "https://dc.lft.to/lastmile_qr_scan"}, "fusion_lon": 0.0, "type": "electric_bike", "bike_id": "553df8ea87d3a03f7836b2137459d6d0", "name": "553df8ea87d3a03f7836b2137459d6d0"}, {"lon": -77.02408816666667, "is_disabled": 0, "lat": 38.914214, "fusion_lat": 0.0, "is_reserved": 0, "rental_uris": {"ios": "https://dc.lft.to/lastmile_qr_scan", "android": "https://dc.lft.to/lastmile_qr_scan"}, "fusion_lon": 0.0, "type": "electric_scooter", "bike_id": "3682dc6ea280c8f5264027057701f66d", "name": "3682dc6ea280c8f5264027057701f66d"}, {"lon": -77.00195516666666, "is_disabled": 0, "lat": 38.89108566666667, "fusion_lat": 0.0, "is_reserved": 0, "rental_uris": {"ios": "https://dc.lft.to/lastmile_qr_scan", "android": "https://dc.lft.to/lastmile_qr_scan"}, "fusion_lon": 0.0, "type": "electric_scooter", "bike_id": "2cce82742a11ec373e29892556329bbd", "name": "2cce82742a11ec373e29892556329bbd"}, {"lon": -77.1175395, "is_disabled": 0, "lat": 39.051029666666665, "fusion_lat": 0.0, "is_reserved": 0, "rental_uris": {"ios": "https://dc.lft.to/lastmile_qr_scan", "android": "https://dc.lft.to/lastmile_qr_scan"}, "fusion_lon": 0.0, "type": "electric_bike", "bike_id": "80add8402251bcc14ef9783aeadc66d9", "name": "80add8402251bcc14ef9783aeadc66d9"}, {"lon": -77.04309466666666, "is_disabled": 0, "lat": 38.92790016666667, "fusion_lat": 0.0, "is_reserved": 0, "rental_uris": {"ios": "https://dc.lft.to/lastmile_qr_scan", "android": "https://dc.lft.to/lastmile_qr_scan"}, "fusion_lon": 0.0, "type": "electric_scooter", "bike_id": "f237f7dd2f7023dff1e3f2ec724bbcae", "name": "f237f7dd2f7023dff1e3f2ec724bbcae"}, {"lon": -77.03844033333333, "is_disabled": 0, "lat": 38.902872, "fusion_lat": 0.0, "is_reserved": 0, "rental_uris": {"ios": "https://dc.lft.to/lastmile_qr_scan", "android": "https://dc.lft.to/lastmile_qr_scan"}, "fusion_lon": 0.0, "type": "electric_scooter", "bike_id": "63053dda54f803c74029daadcbf6259f", "name": "63053dda54f803c74029daadcbf6259f"}, {"lon": -77.03198166666667, "is_disabled": 0, "lat": 38.90945883333333, "fusion_lat": 0.0, "is_reserved": 0, "rental_uris": {"ios": "https://dc.lft.to/lastmile_qr_scan", "android": "https://dc.lft.to/lastmile_qr_scan"}, "fusion_lon": 0.0, "type": "electric_scooter", "bike_id": "e5825c1cc3ef1d399b3cada4ee78a78f", "name": "e5825c1cc3ef1d399b3cada4ee78a78f"}, {"lon": -76.96054466666666, "is_disabled": 0, "lat": 38.88407266666667, "fusion_lat": 0.0, "is_reserved": 0, "rental_uris": {"ios": "https://dc.lft.to/lastmile_qr_scan", "android": "https://dc.lft.to/lastmile_qr_scan"}, "fusion_lon": 0.0, "type": "electric_bike", "bike_id": "a8c65c7d55fbfc46508527028e8440d8", "name": "a8c65c7d55fbfc46508527028e8440d8"}, {"lon": -77.03631666666666, "is_disabled": 0, "lat": 38.9563695, "fusion_lat": 0.0, "is_reserved": 0, "rental_uris": {"ios": "https://dc.lft.to/lastmile_qr_scan", "android": "https://dc.lft.to/lastmile_qr_scan"}, "fusion_lon": 0.0, "type": "electric_scooter", "bike_id": "3da50de8e496f6e629c056184beb2d3f", "name": "3da50de8e496f6e629c056184beb2d3f"}, {"lon": -77.04174133333333, "is_disabled": 0, "lat": 38.91843183333334, "fusion_lat": 0.0, "is_reserved": 0, "rental_uris": {"ios": "https://dc.lft.to/lastmile_qr_scan", "android": "https://dc.lft.to/lastmile_qr_scan"}, "fusion_lon": 0.0, "type": "electric_scooter", "bike_id": "7d6ae7c60b7d0994244494908a6d4e41", "name": "7d6ae7c60b7d0994244494908a6d4e41"}, {"lon": -77.02375666666667, "is_disabled": 0, "lat": 38.90734583333333, "fusion_lat": 0.0, "is_reserved": 0, "rental_uris": {"ios": "https://dc.lft.to/lastmile_qr_scan", "android": "https://dc.lft.to/lastmile_qr_scan"}, "fusion_lon": 0.0, "type": "electric_scooter", "bike_id": "eb6fd3d32f32d5b53e95f09c5736650c", "name": "eb6fd3d32f32d5b53e95f09c5736650c"}, {"lon": -77.05709633333333, "is_disabled": 0, "lat": 38.905901166666666, "fusion_lat": 0.0, "is_reserved": 0, "rental_uris": {"ios": "https://dc.lft.to/lastmile_qr_scan", "android": "https://dc.lft.to/lastmile_qr_scan"}, "fusion_lon": 0.0, "type": "electric_scooter", "bike_id": "7bbf0f2bd4f4bf0edaf8e49f63514ad0", "name": "7bbf0f2bd4f4bf0edaf8e49f63514ad0"}, {"lon": -77.02709383333334, "is_disabled": 0, "lat": 38.90668866666667, "fusion_lat": 0.0, "is_reserved": 0, "rental_uris": {"ios": "https://dc.lft.to/lastmile_qr_scan", "android": "https://dc.lft.to/lastmile_qr_scan"}, "fusion_lon": 0.0, "type": "electric_scooter", "bike_id": "ea86148b45442a6b197347e05df07dc0", "name": "ea86148b45442a6b197347e05df07dc0"}, {"lon": -76.99803116666666, "is_disabled": 0, "lat": 38.908604, "fusion_lat": 0.0, "is_reserved": 0, "rental_uris": {"ios": "https://dc.lft.to/lastmile_qr_scan", "android": "https://dc.lft.to/lastmile_qr_scan"}, "fusion_lon": 0.0, "type": "electric_scooter", "bike_id": "27223b0af126d5a086c082e9ebd369e9", "name": "27223b0af126d5a086c082e9ebd369e9"}, {"lon": -77.031843, "is_disabled": 0, "lat": 38.91579016666667, "fusion_lat": 0.0, "is_reserved": 0, "rental_uris": {"ios": "https://dc.lft.to/lastmile_qr_scan", "android": "https://dc.lft.to/lastmile_qr_scan"}, "fusion_lon": 0.0, "type": "electric_scooter", "bike_id": "41b7cdc89abf31e0986259fa0c79a460", "name": "41b7cdc89abf31e0986259fa0c79a460"}, {"lon": -76.99701883333333, "is_disabled": 0, "lat": 38.884297833333335, "fusion_lat": 0.0, "is_reserved": 0, "rental_uris": {"ios": "https://dc.lft.to/lastmile_qr_scan", "android": "https://dc.lft.to/lastmile_qr_scan"}, "fusion_lon": 0.0, "type": "electric_scooter", "bike_id": "8431a038d4b3da3d547aa45348a5b370", "name": "8431a038d4b3da3d547aa45348a5b370"}, {"lon": -77.0075905, "is_disabled": 0, "lat": 38.8711085, "fusion_lat": 0.0, "is_reserved": 0, "rental_uris": {"ios": "https://dc.lft.to/lastmile_qr_scan", "android": "https://dc.lft.to/lastmile_qr_scan"}, "fusion_lon": 0.0, "type": "electric_scooter", "bike_id": "53d6c4077a43e3aeb4448c71c8605f7c", "name": "53d6c4077a43e3aeb4448c71c8605f7c"}, {"lon": -77.02983616666667, "is_disabled": 0, "lat": 38.934454, "fusion_lat": 0.0, "is_reserved": 0, "rental_uris": {"ios": "https://dc.lft.to/lastmile_qr_scan", "android": "https://dc.lft.to/lastmile_qr_scan"}, "fusion_lon": 0.0, "type": "electric_scooter", "bike_id": "cdf019b296c4f1fdc4b6b42d01ef3d50", "name": "cdf019b296c4f1fdc4b6b42d01ef3d50"}, {"lon": -76.93339516666667, "is_disabled": 0, "lat": 38.90870016666667, "fusion_lat": 0.0, "is_reserved": 0, "rental_uris": {"ios": "https://dc.lft.to/lastmile_qr_scan", "android": "https://dc.lft.to/lastmile_qr_scan"}, "fusion_lon": 0.0, "type": "electric_scooter", "bike_id": "121a6700c2fdf62c89578b79d3007367", "name": "121a6700c2fdf62c89578b79d3007367"}, {"lon": -76.9966155, "is_disabled": 0, "lat": 38.86011716666667, "fusion_lat": 0.0, "is_reserved": 0, "rental_uris": {"ios": "https://dc.lft.to/lastmile_qr_scan", "android": "https://dc.lft.to/lastmile_qr_scan"}, "fusion_lon": 0.0, "type": "electric_scooter", "bike_id": "c51aea28fdccc445d075d1493c88d9ae", "name": "c51aea28fdccc445d075d1493c88d9ae"}, {"lon": -77.033962, "is_disabled": 0, "lat": 38.93874866666667, "fusion_lat": 0.0, "is_reserved": 0, "rental_uris": {"ios": "https://dc.lft.to/lastmile_qr_scan", "android": "https://dc.lft.to/lastmile_qr_scan"}, "fusion_lon": 0.0, "type": "electric_scooter", "bike_id": "14a99a70d4056f0cf44296ef9e577776", "name": "14a99a70d4056f0cf44296ef9e577776"}, {"lon": -76.9313215, "is_disabled": 0, "lat": 38.87655316666667, "fusion_lat": 0.0, "is_reserved": 0, "rental_uris": {"ios": "https://dc.lft.to/lastmile_qr_scan", "android": "https://dc.lft.to/lastmile_qr_scan"}, "fusion_lon": 0.0, "type": "electric_scooter", "bike_id": "a2af396485298aced5d51519d32a7aaf", "name": "a2af396485298aced5d51519d32a7aaf"}, {"lon": -77.0209525, "is_disabled": 0, "lat": 38.92412483333333, "fusion_lat": 0.0, "is_reserved": 0, "rental_uris": {"ios": "https://dc.lft.to/lastmile_qr_scan", "android": "https://dc.lft.to/lastmile_qr_scan"}, "fusion_lon": 0.0, "type": "electric_scooter", "bike_id": "f9737bc5a5ae88ff2f236426de69c6ea", "name": "f9737bc5a5ae88ff2f236426de69c6ea"}, {"lon": -77.00465666666666, "is_disabled": 0, "lat": 38.876643333333334, "fusion_lat": 0.0, "is_reserved": 0, "rental_uris": {"ios": "https://dc.lft.to/lastmile_qr_scan", "android": "https://dc.lft.to/lastmile_qr_scan"}, "fusion_lon": 0.0, "type": "electric_scooter", "bike_id": "9c798cd1ad5fc804544ee1f95346098e", "name": "9c798cd1ad5fc804544ee1f95346098e"}, {"lon": -77.022416, "is_disabled": 0, "lat": 38.896361, "fusion_lat": 0.0, "is_reserved": 0, "rental_uris": {"ios": "https://dc.lft.to/lastmile_qr_scan", "android": "https://dc.lft.to/lastmile_qr_scan"}, "fusion_lon": 0.0, "type": "electric_scooter", "bike_id": "2d490e73cceb07b4bb71a7e69d128f8c", "name": "2d490e73cceb07b4bb71a7e69d128f8c"}, {"lon": -77.022178, "is_disabled": 0, "lat": 38.92472766666667, "fusion_lat": 0.0, "is_reserved": 0, "rental_uris": {"ios": "https://dc.lft.to/lastmile_qr_scan", "android": "https://dc.lft.to/lastmile_qr_scan"}, "fusion_lon": 0.0, "type": "electric_scooter", "bike_id": "3a57c269877a6febcd085c58aa2e6694", "name": "3a57c269877a6febcd085c58aa2e6694"}, {"lon": -77.02375583333334, "is_disabled": 0, "lat": 38.907347333333334, "fusion_lat": 0.0, "is_reserved": 0, "rental_uris": {"ios": "https://dc.lft.to/lastmile_qr_scan", "android": "https://dc.lft.to/lastmile_qr_scan"}, "fusion_lon": 0.0, "type": "electric_scooter", "bike_id": "b087643a7a7d4959d15e7dba08db9bbe", "name": "b087643a7a7d4959d15e7dba08db9bbe"}, {"lon": -76.97028933333333, "is_disabled": 0, "lat": 38.873624666666664, "fusion_lat": 0.0, "is_reserved": 0, "rental_uris": {"ios": "https://dc.lft.to/lastmile_qr_scan", "android": "https://dc.lft.to/lastmile_qr_scan"}, "fusion_lon": 0.0, "type": "electric_scooter", "bike_id": "c6c2f2d1c5bbe03186d5abe2e5cd04dd", "name": "c6c2f2d1c5bbe03186d5abe2e5cd04dd"}, {"lon": -77.02228083333334, "is_disabled": 0, "lat": 38.8803065, "fusion_lat": 0.0, "is_reserved": 0, "rental_uris": {"ios": "https://dc.lft.to/lastmile_qr_scan", "android": "https://dc.lft.to/lastmile_qr_scan"}, "fusion_lon": 0.0, "type": "electric_scooter", "bike_id": "7a688e6ccfff5870f206b26d2431adcd", "name": "7a688e6ccfff5870f206b26d2431adcd"}, {"lon": -77.0125555, "is_disabled": 0, "lat": 38.908527166666666, "fusion_lat": 0.0, "is_reserved": 0, "rental_uris": {"ios": "https://dc.lft.to/lastmile_qr_scan", "android": "https://dc.lft.to/lastmile_qr_scan"}, "fusion_lon": 0.0, "type": "electric_scooter", "bike_id": "7c4bd729d4a69da9c43cf0458eef69b1", "name": "7c4bd729d4a69da9c43cf0458eef69b1"}, {"lon": -77.04380266666666, "is_disabled": 0, "lat": 38.921132666666665, "fusion_lat": 0.0, "is_reserved": 0, "rental_uris": {"ios": "https://dc.lft.to/lastmile_qr_scan", "android": "https://dc.lft.to/lastmile_qr_scan"}, "fusion_lon": 0.0, "type": "electric_scooter", "bike_id": "f7008899ced1cb774bb572931c993336", "name": "f7008899ced1cb774bb572931c993336"}, {"lon": -76.9762945, "is_disabled": 0, "lat": 38.901601166666666, "fusion_lat": 0.0, "is_reserved": 0, "rental_uris": {"ios": "https://dc.lft.to/lastmile_qr_scan", "android": "https://dc.lft.to/lastmile_qr_scan"}, "fusion_lon": 0.0, "type": "electric_scooter", "bike_id": "f8d165957f27e07bbb703d5519e35b35", "name": "f8d165957f27e07bbb703d5519e35b35"}, {"lon": -77.024811, "is_disabled": 0, "lat": 38.938811666666666, "fusion_lat": 0.0, "is_reserved": 0, "rental_uris": {"ios": "https://dc.lft.to/lastmile_qr_scan", "android": "https://dc.lft.to/lastmile_qr_scan"}, "fusion_lon": 0.0, "type": "electric_scooter", "bike_id": "1b9720ea415cad4c013ea94c6a98b889", "name": "1b9720ea415cad4c013ea94c6a98b889"}, {"lon": -77.01761483333334, "is_disabled": 0, "lat": 38.8772925, "fusion_lat": 0.0, "is_reserved": 0, "rental_uris": {"ios": "https://dc.lft.to/lastmile_qr_scan", "android": "https://dc.lft.to/lastmile_qr_scan"}, "fusion_lon": 0.0, "type": "electric_scooter", "bike_id": "84d6ae563764a41d5b6ae3a3d9b1885b", "name": "84d6ae563764a41d5b6ae3a3d9b1885b"}, {"lon": -77.03299516666667, "is_disabled": 0, "lat": 38.90965333333333, "fusion_lat": 0.0, "is_reserved": 0, "rental_uris": {"ios": "https://dc.lft.to/lastmile_qr_scan", "android": "https://dc.lft.to/lastmile_qr_scan"}, "fusion_lon": 0.0, "type": "electric_scooter", "bike_id": "9d5f75fa318bfb5ba360ba366fb9d1e7", "name": "9d5f75fa318bfb5ba360ba366fb9d1e7"}, {"lon": -77.055455, "is_disabled": 0, "lat": 38.89993166666667, "fusion_lat": 0.0, "is_reserved": 0, "rental_uris": {"ios": "https://dc.lft.to/lastmile_qr_scan", "android": "https://dc.lft.to/lastmile_qr_scan"}, "fusion_lon": 0.0, "type": "electric_scooter", "bike_id": "87cb791a400a224b19bb350975922d6c", "name": "87cb791a400a224b19bb350975922d6c"}, {"lon": -77.04102866666666, "is_disabled": 0, "lat": 38.908799333333334, "fusion_lat": 0.0, "is_reserved": 0, "rental_uris": {"ios": "https://dc.lft.to/lastmile_qr_scan", "android": "https://dc.lft.to/lastmile_qr_scan"}, "fusion_lon": 0.0, "type": "electric_scooter", "bike_id": "04f560d2aec95a3f40ae90ea824498b0", "name": "04f560d2aec95a3f40ae90ea824498b0"}, {"lon": -77.01952583333333, "is_disabled": 0, "lat": 38.92252633333333, "fusion_lat": 0.0, "is_reserved": 0, "rental_uris": {"ios": "https://dc.lft.to/lastmile_qr_scan", "android": "https://dc.lft.to/lastmile_qr_scan"}, "fusion_lon": 0.0, "type": "electric_scooter", "bike_id": "4a0d0625af17d91d6d7a4ea64cf1657e", "name": "4a0d0625af17d91d6d7a4ea64cf1657e"}, {"lon": -77.0072805, "is_disabled": 0, "lat": 38.884978, "fusion_lat": 0.0, "is_reserved": 0, "rental_uris": {"ios": "https://dc.lft.to/lastmile_qr_scan", "android": "https://dc.lft.to/lastmile_qr_scan"}, "fusion_lon": 0.0, "type": "electric_scooter", "bike_id": "df17e5233521098b4076771150848ce9", "name": "df17e5233521098b4076771150848ce9"}, {"lon": -77.04401666666666, "is_disabled": 0, "lat": 38.9112005, "fusion_lat": 0.0, "is_reserved": 0, "rental_uris": {"ios": "https://dc.lft.to/lastmile_qr_scan", "android": "https://dc.lft.to/lastmile_qr_scan"}, "fusion_lon": 0.0, "type": "electric_scooter", "bike_id": "dc65a0eb27574c87e6f09900a266559e", "name": "dc65a0eb27574c87e6f09900a266559e"}, {"lon": -77.04651616666666, "is_disabled": 0, "lat": 38.898294166666666, "fusion_lat": 0.0, "is_reserved": 0, "rental_uris": {"ios": "https://dc.lft.to/lastmile_qr_scan", "android": "https://dc.lft.to/lastmile_qr_scan"}, "fusion_lon": 0.0, "type": "electric_scooter", "bike_id": "1b1f219631afbb2694daae1f658d8169", "name": "1b1f219631afbb2694daae1f658d8169"}, {"lon": -77.022909, "is_disabled": 0, "lat": 38.89519966666667, "fusion_lat": 0.0, "is_reserved": 0, "rental_uris": {"ios": "https://dc.lft.to/lastmile_qr_scan", "android": "https://dc.lft.to/lastmile_qr_scan"}, "fusion_lon": 0.0, "type": "electric_scooter", "bike_id": "4ea8aacc561385ab876fdacfdfdefef5", "name": "4ea8aacc561385ab876fdacfdfdefef5"}, {"lon": -77.03163516666666, "is_disabled": 0, "lat": 38.887411, "fusion_lat": 0.0, "is_reserved": 0, "rental_uris": {"ios": "https://dc.lft.to/lastmile_qr_scan", "android": "https://dc.lft.to/lastmile_qr_scan"}, "fusion_lon": 0.0, "type": "electric_scooter", "bike_id": "49734fa948863537d9337113ce63534c", "name": "49734fa948863537d9337113ce63534c"}, {"lon": -77.044987, "is_disabled": 0, "lat": 38.89824866666667, "fusion_lat": 0.0, "is_reserved": 0, "rental_uris": {"ios": "https://dc.lft.to/lastmile_qr_scan", "android": "https://dc.lft.to/lastmile_qr_scan"}, "fusion_lon": 0.0, "type": "electric_scooter", "bike_id": "64e9853b056df648ffafe935d25d1c3c", "name": "64e9853b056df648ffafe935d25d1c3c"}, {"lon": -77.0616065, "is_disabled": 0, "lat": 38.90530116666667, "fusion_lat": 0.0, "is_reserved": 0, "rental_uris": {"ios": "https://dc.lft.to/lastmile_qr_scan", "android": "https://dc.lft.to/lastmile_qr_scan"}, "fusion_lon": 0.0, "type": "electric_scooter", "bike_id": "c8783b75138be2f0a04d4af3683788dc", "name": "c8783b75138be2f0a04d4af3683788dc"}, {"lon": -77.022015, "is_disabled": 0, "lat": 38.896336166666664, "fusion_lat": 0.0, "is_reserved": 0, "rental_uris": {"ios": "https://dc.lft.to/lastmile_qr_scan", "android": "https://dc.lft.to/lastmile_qr_scan"}, "fusion_lon": 0.0, "type": "electric_scooter", "bike_id": "20b8de357d44e327c40eb1da2745d79a", "name": "20b8de357d44e327c40eb1da2745d79a"}, {"lon": -77.03423266666667, "is_disabled": 0, "lat": 38.905721, "fusion_lat": 0.0, "is_reserved": 0, "rental_uris": {"ios": "https://dc.lft.to/lastmile_qr_scan", "android": "https://dc.lft.to/lastmile_qr_scan"}, "fusion_lon": 0.0, "type": "electric_scooter", "bike_id": "8fae2b2ab6723829e8fb9cb4a90fd301", "name": "8fae2b2ab6723829e8fb9cb4a90fd301"}, {"lon": -77.0417515, "is_disabled": 0, "lat": 38.91403583333334, "fusion_lat": 0.0, "is_reserved": 0, "rental_uris": {"ios": "https://dc.lft.to/lastmile_qr_scan", "android": "https://dc.lft.to/lastmile_qr_scan"}, "fusion_lon": 0.0, "type": "electric_scooter", "bike_id": "ad0cefe44bbe0a1017d361d86bc4e6ff", "name": "ad0cefe44bbe0a1017d361d86bc4e6ff"}, {"lon": -77.03362383333334, "is_disabled": 0, "lat": 38.925877, "fusion_lat": 0.0, "is_reserved": 0, "rental_uris": {"ios": "https://dc.lft.to/lastmile_qr_scan", "android": "https://dc.lft.to/lastmile_qr_scan"}, "fusion_lon": 0.0, "type": "electric_scooter", "bike_id": "b0db9d13f5c025f7a854648eb1948955", "name": "b0db9d13f5c025f7a854648eb1948955"}, {"lon": -76.95756683333333, "is_disabled": 0, "lat": 38.88435066666667, "fusion_lat": 0.0, "is_reserved": 0, "rental_uris": {"ios": "https://dc.lft.to/lastmile_qr_scan", "android": "https://dc.lft.to/lastmile_qr_scan"}, "fusion_lon": 0.0, "type": "electric_scooter", "bike_id": "7d027d9f1b6ffd25e9cc67101199354c", "name": "7d027d9f1b6ffd25e9cc67101199354c"}, {"lon": -77.03331183333333, "is_disabled": 0, "lat": 38.92051216666667, "fusion_lat": 0.0, "is_reserved": 0, "rental_uris": {"ios": "https://dc.lft.to/lastmile_qr_scan", "android": "https://dc.lft.to/lastmile_qr_scan"}, "fusion_lon": 0.0, "type": "electric_scooter", "bike_id": "d43bf3a5fb27fd71c078712c3b74c78e", "name": "d43bf3a5fb27fd71c078712c3b74c78e"}, {"lon": -77.03196383333334, "is_disabled": 0, "lat": 38.91331366666667, "fusion_lat": 0.0, "is_reserved": 0, "rental_uris": {"ios": "https://dc.lft.to/lastmile_qr_scan", "android": "https://dc.lft.to/lastmile_qr_scan"}, "fusion_lon": 0.0, "type": "electric_scooter", "bike_id": "5722a0ad3eca7613139382694f04c256", "name": "5722a0ad3eca7613139382694f04c256"}, {"lon": -77.05741666666667, "is_disabled": 0, "lat": 38.933952, "fusion_lat": 0.0, "is_reserved": 0, "rental_uris": {"ios": "https://dc.lft.to/lastmile_qr_scan", "android": "https://dc.lft.to/lastmile_qr_scan"}, "fusion_lon": 0.0, "type": "electric_scooter", "bike_id": "63d2e2241c7e260ce5480b37250d38d5", "name": "63d2e2241c7e260ce5480b37250d38d5"}, {"lon": -77.03234166666667, "is_disabled": 0, "lat": 38.9237755, "fusion_lat": 0.0, "is_reserved": 0, "rental_uris": {"ios": "https://dc.lft.to/lastmile_qr_scan", "android": "https://dc.lft.to/lastmile_qr_scan"}, "fusion_lon": 0.0, "type": "electric_scooter", "bike_id": "88c6f9f7cb370d2a630dc881d01bdc9e", "name": "88c6f9f7cb370d2a630dc881d01bdc9e"}, {"lon": -77.02463733333333, "is_disabled": 0, "lat": 38.8974825, "fusion_lat": 0.0, "is_reserved": 0, "rental_uris": {"ios": "https://dc.lft.to/lastmile_qr_scan", "android": "https://dc.lft.to/lastmile_qr_scan"}, "fusion_lon": 0.0, "type": "electric_scooter", "bike_id": "93282990ca123bd97131919c69dc6f1b", "name": "93282990ca123bd97131919c69dc6f1b"}, {"lon": -77.00457916666667, "is_disabled": 0, "lat": 38.87661833333333, "fusion_lat": 0.0, "is_reserved": 0, "rental_uris": {"ios": "https://dc.lft.to/lastmile_qr_scan", "android": "https://dc.lft.to/lastmile_qr_scan"}, "fusion_lon": 0.0, "type": "electric_scooter", "bike_id": "e90616c8976819f2cb5aee981867f7c1", "name": "e90616c8976819f2cb5aee981867f7c1"}, {"lon": -77.03941783333333, "is_disabled": 0, "lat": 38.898651666666666, "fusion_lat": 0.0, "is_reserved": 0, "rental_uris": {"ios": "https://dc.lft.to/lastmile_qr_scan", "android": "https://dc.lft.to/lastmile_qr_scan"}, "fusion_lon": 0.0, "type": "electric_scooter", "bike_id": "3c40882aaa973c00739d5af859ec3ae9", "name": "3c40882aaa973c00739d5af859ec3ae9"}, {"lon": -77.03915383333333, "is_disabled": 0, "lat": 38.90631033333333, "fusion_lat": 0.0, "is_reserved": 0, "rental_uris": {"ios": "https://dc.lft.to/lastmile_qr_scan", "android": "https://dc.lft.to/lastmile_qr_scan"}, "fusion_lon": 0.0, "type": "electric_scooter", "bike_id": "201580e3b5fc7cc85fbd353aab79c741", "name": "201580e3b5fc7cc85fbd353aab79c741"}, {"lon": -77.03210716666666, "is_disabled": 0, "lat": 38.892430166666664, "fusion_lat": 0.0, "is_reserved": 0, "rental_uris": {"ios": "https://dc.lft.to/lastmile_qr_scan", "android": "https://dc.lft.to/lastmile_qr_scan"}, "fusion_lon": 0.0, "type": "electric_scooter", "bike_id": "f469cca0aef670f03547b25107db302f", "name": "f469cca0aef670f03547b25107db302f"}, {"lon": -76.946399, "is_disabled": 0, "lat": 38.8986345, "fusion_lat": 0.0, "is_reserved": 0, "rental_uris": {"ios": "https://dc.lft.to/lastmile_qr_scan", "android": "https://dc.lft.to/lastmile_qr_scan"}, "fusion_lon": 0.0, "type": "electric_scooter", "bike_id": "e302544c28d2a92f5cfbdec012c7cd19", "name": "e302544c28d2a92f5cfbdec012c7cd19"}, {"lon": -77.023833, "is_disabled": 0, "lat": 38.917189, "fusion_lat": 0.0, "is_reserved": 0, "rental_uris": {"ios": "https://dc.lft.to/lastmile_qr_scan", "android": "https://dc.lft.to/lastmile_qr_scan"}, "fusion_lon": 0.0, "type": "electric_scooter", "bike_id": "ffb56f22dc529eb32a79ac112985fd0d", "name": "ffb56f22dc529eb32a79ac112985fd0d"}, {"lon": -77.01857933333334, "is_disabled": 0, "lat": 38.915014166666666, "fusion_lat": 0.0, "is_reserved": 0, "rental_uris": {"ios": "https://dc.lft.to/lastmile_qr_scan", "android": "https://dc.lft.to/lastmile_qr_scan"}, "fusion_lon": 0.0, "type": "electric_scooter", "bike_id": "d62ab91d88a6a5409109f930e794458b", "name": "d62ab91d88a6a5409109f930e794458b"}, {"lon": -76.98180133333334, "is_disabled": 0, "lat": 38.8958725, "fusion_lat": 0.0, "is_reserved": 0, "rental_uris": {"ios": "https://dc.lft.to/lastmile_qr_scan", "android": "https://dc.lft.to/lastmile_qr_scan"}, "fusion_lon": 0.0, "type": "electric_scooter", "bike_id": "31be581eaa312a2f8fd1eaa51780af5d", "name": "31be581eaa312a2f8fd1eaa51780af5d"}, {"lon": -77.04464316666666, "is_disabled": 0, "lat": 38.90969116666667, "fusion_lat": 0.0, "is_reserved": 0, "rental_uris": {"ios": "https://dc.lft.to/lastmile_qr_scan", "android": "https://dc.lft.to/lastmile_qr_scan"}, "fusion_lon": 0.0, "type": "electric_scooter", "bike_id": "240b7256485ab257ee467ca3490fc829", "name": "240b7256485ab257ee467ca3490fc829"}, {"lon": -76.98542266666666, "is_disabled": 0, "lat": 38.8669125, "fusion_lat": 0.0, "is_reserved": 0, "rental_uris": {"ios": "https://dc.lft.to/lastmile_qr_scan", "android": "https://dc.lft.to/lastmile_qr_scan"}, "fusion_lon": 0.0, "type": "electric_scooter", "bike_id": "887370cbea23783bf5e2dd026ab7b0e9", "name": "887370cbea23783bf5e2dd026ab7b0e9"}, {"lon": -77.12658366666666, "is_disabled": 0, "lat": 38.815156333333334, "fusion_lat": 0.0, "is_reserved": 0, "rental_uris": {"ios": "https://dc.lft.to/lastmile_qr_scan", "android": "https://dc.lft.to/lastmile_qr_scan"}, "fusion_lon": 0.0, "type": "electric_bike", "bike_id": "677c4f7170427991008879ffb5ff6a18", "name": "677c4f7170427991008879ffb5ff6a18"}, {"lon": -77.02205333333333, "is_disabled": 0, "lat": 38.90835283333333, "fusion_lat": 0.0, "is_reserved": 0, "rental_uris": {"ios": "https://dc.lft.to/lastmile_qr_scan", "android": "https://dc.lft.to/lastmile_qr_scan"}, "fusion_lon": 0.0, "type": "electric_scooter", "bike_id": "e9dc7de6f94a39306660ab3476131008", "name": "e9dc7de6f94a39306660ab3476131008"}, {"lon": -77.03176116666667, "is_disabled": 0, "lat": 38.902965, "fusion_lat": 0.0, "is_reserved": 0, "rental_uris": {"ios": "https://dc.lft.to/lastmile_qr_scan", "android": "https://dc.lft.to/lastmile_qr_scan"}, "fusion_lon": 0.0, "type": "electric_scooter", "bike_id": "7883f45a548bef3be2d7e93173eefabf", "name": "7883f45a548bef3be2d7e93173eefabf"}, {"lon": -77.001635, "is_disabled": 0, "lat": 38.873878, "fusion_lat": 0.0, "is_reserved": 0, "rental_uris": {"ios": "https://dc.lft.to/lastmile_qr_scan", "android": "https://dc.lft.to/lastmile_qr_scan"}, "fusion_lon": 0.0, "type": "electric_scooter", "bike_id": "e8043f2435aa9a91f37df8bb47082564", "name": "e8043f2435aa9a91f37df8bb47082564"}, {"lon": -76.99244833333333, "is_disabled": 0, "lat": 38.794756, "fusion_lat": 0.0, "is_reserved": 0, "rental_uris": {"ios": "https://dc.lft.to/lastmile_qr_scan", "android": "https://dc.lft.to/lastmile_qr_scan"}, "fusion_lon": 0.0, "type": "electric_bike", "bike_id": "6c1666e2885e6cba144ba53b721e3900", "name": "6c1666e2885e6cba144ba53b721e3900"}, {"lon": -77.03228566666667, "is_disabled": 0, "lat": 38.90878983333333, "fusion_lat": 0.0, "is_reserved": 0, "rental_uris": {"ios": "https://dc.lft.to/lastmile_qr_scan", "android": "https://dc.lft.to/lastmile_qr_scan"}, "fusion_lon": 0.0, "type": "electric_scooter", "bike_id": "d98f4336590aea8229a976116c459122", "name": "d98f4336590aea8229a976116c459122"}, {"lon": -77.0013275, "is_disabled": 0, "lat": 38.875055333333336, "fusion_lat": 0.0, "is_reserved": 0, "rental_uris": {"ios": "https://dc.lft.to/lastmile_qr_scan", "android": "https://dc.lft.to/lastmile_qr_scan"}, "fusion_lon": 0.0, "type": "electric_scooter", "bike_id": "7903fe1604476b347edb21e72765dc8c", "name": "7903fe1604476b347edb21e72765dc8c"}, {"lon": -77.0033965, "is_disabled": 0, "lat": 38.89531233333334, "fusion_lat": 0.0, "is_reserved": 0, "rental_uris": {"ios": "https://dc.lft.to/lastmile_qr_scan", "android": "https://dc.lft.to/lastmile_qr_scan"}, "fusion_lon": 0.0, "type": "electric_scooter", "bike_id": "e07df16573dc1e095dcec2066ce949f7", "name": "e07df16573dc1e095dcec2066ce949f7"}, {"lon": -77.02190433333334, "is_disabled": 0, "lat": 38.887221833333335, "fusion_lat": 0.0, "is_reserved": 0, "rental_uris": {"ios": "https://dc.lft.to/lastmile_qr_scan", "android": "https://dc.lft.to/lastmile_qr_scan"}, "fusion_lon": 0.0, "type": "electric_scooter", "bike_id": "ccde6139755fac7a2e5bffbc82e68e9e", "name": "ccde6139755fac7a2e5bffbc82e68e9e"}, {"lon": -77.05039466666666, "is_disabled": 0, "lat": 38.9039485, "fusion_lat": 0.0, "is_reserved": 0, "rental_uris": {"ios": "https://dc.lft.to/lastmile_qr_scan", "android": "https://dc.lft.to/lastmile_qr_scan"}, "fusion_lon": 0.0, "type": "electric_scooter", "bike_id": "a8f37c28acdeacfaf5166c1808c008cd", "name": "a8f37c28acdeacfaf5166c1808c008cd"}, {"lon": -77.032012, "is_disabled": 0, "lat": 38.90365716666667, "fusion_lat": 0.0, "is_reserved": 0, "rental_uris": {"ios": "https://dc.lft.to/lastmile_qr_scan", "android": "https://dc.lft.to/lastmile_qr_scan"}, "fusion_lon": 0.0, "type": "electric_scooter", "bike_id": "4570c513ed2285377c86b42d5f8ff594", "name": "4570c513ed2285377c86b42d5f8ff594"}, {"lon": -76.94945916666667, "is_disabled": 0, "lat": 38.89364483333333, "fusion_lat": 0.0, "is_reserved": 0, "rental_uris": {"ios": "https://dc.lft.to/lastmile_qr_scan", "android": "https://dc.lft.to/lastmile_qr_scan"}, "fusion_lon": 0.0, "type": "electric_scooter", "bike_id": "7f2073b1c1f8135f7df92172081cc1ff", "name": "7f2073b1c1f8135f7df92172081cc1ff"}, {"lon": -77.1293635, "is_disabled": 0, "lat": 38.8651765, "fusion_lat": 0.0, "is_reserved": 0, "rental_uris": {"ios": "https://dc.lft.to/lastmile_qr_scan", "android": "https://dc.lft.to/lastmile_qr_scan"}, "fusion_lon": 0.0, "type": "electric_bike", "bike_id": "6ebe9b67e1803b93a5366413665d1fcc", "name": "6ebe9b67e1803b93a5366413665d1fcc"}, {"lon": -77.0320405, "is_disabled": 0, "lat": 38.90993533333334, "fusion_lat": 0.0, "is_reserved": 0, "rental_uris": {"ios": "https://dc.lft.to/lastmile_qr_scan", "android": "https://dc.lft.to/lastmile_qr_scan"}, "fusion_lon": 0.0, "type": "electric_scooter", "bike_id": "4c1c169a408e474ada7db910d1a4d42e", "name": "4c1c169a408e474ada7db910d1a4d42e"}, {"lon": -77.02279333333334, "is_disabled": 0, "lat": 38.895225833333335, "fusion_lat": 0.0, "is_reserved": 0, "rental_uris": {"ios": "https://dc.lft.to/lastmile_qr_scan", "android": "https://dc.lft.to/lastmile_qr_scan"}, "fusion_lon": 0.0, "type": "electric_scooter", "bike_id": "bd8e8469eb0b0f00c7c51f4dcf65e0c9", "name": "bd8e8469eb0b0f00c7c51f4dcf65e0c9"}, {"lon": -77.02635616666667, "is_disabled": 0, "lat": 38.910699, "fusion_lat": 0.0, "is_reserved": 0, "rental_uris": {"ios": "https://dc.lft.to/lastmile_qr_scan", "android": "https://dc.lft.to/lastmile_qr_scan"}, "fusion_lon": 0.0, "type": "electric_scooter", "bike_id": "f3fbb227f850aed4ac5953058aae8dff", "name": "f3fbb227f850aed4ac5953058aae8dff"}, {"lon": -77.04536733333333, "is_disabled": 0, "lat": 38.93158866666667, "fusion_lat": 0.0, "is_reserved": 0, "rental_uris": {"ios": "https://dc.lft.to/lastmile_qr_scan", "android": "https://dc.lft.to/lastmile_qr_scan"}, "fusion_lon": 0.0, "type": "electric_scooter", "bike_id": "80103a3ccc28fc9eb995f407c4d413fd", "name": "80103a3ccc28fc9eb995f407c4d413fd"}, {"lon": -77.03660583333334, "is_disabled": 0, "lat": 38.923889833333334, "fusion_lat": 0.0, "is_reserved": 0, "rental_uris": {"ios": "https://dc.lft.to/lastmile_qr_scan", "android": "https://dc.lft.to/lastmile_qr_scan"}, "fusion_lon": 0.0, "type": "electric_scooter", "bike_id": "30681be85f4d7e5702f385e33d58b5e4", "name": "30681be85f4d7e5702f385e33d58b5e4"}, {"lon": -77.00795233333334, "is_disabled": 0, "lat": 38.949200833333336, "fusion_lat": 0.0, "is_reserved": 0, "rental_uris": {"ios": "https://dc.lft.to/lastmile_qr_scan", "android": "https://dc.lft.to/lastmile_qr_scan"}, "fusion_lon": 0.0, "type": "electric_scooter", "bike_id": "a9202f433d614e6d536d593cfebdecf5", "name": "a9202f433d614e6d536d593cfebdecf5"}, {"lon": -77.02400766666666, "is_disabled": 0, "lat": 38.93710566666667, "fusion_lat": 0.0, "is_reserved": 0, "rental_uris": {"ios": "https://dc.lft.to/lastmile_qr_scan", "android": "https://dc.lft.to/lastmile_qr_scan"}, "fusion_lon": 0.0, "type": "electric_scooter", "bike_id": "bfd046c668ad3132dfd2b227705d5471", "name": "bfd046c668ad3132dfd2b227705d5471"}, {"lon": -77.05568316666667, "is_disabled": 0, "lat": 38.80396616666667, "fusion_lat": 0.0, "is_reserved": 0, "rental_uris": {"ios": "https://dc.lft.to/lastmile_qr_scan", "android": "https://dc.lft.to/lastmile_qr_scan"}, "fusion_lon": 0.0, "type": "electric_bike", "bike_id": "8eef7f6cec43070dd3242e3801a0bb08", "name": "8eef7f6cec43070dd3242e3801a0bb08"}, {"lon": -77.07272166666667, "is_disabled": 0, "lat": 38.911613833333334, "fusion_lat": 0.0, "is_reserved": 0, "rental_uris": {"ios": "https://dc.lft.to/lastmile_qr_scan", "android": "https://dc.lft.to/lastmile_qr_scan"}, "fusion_lon": 0.0, "type": "electric_scooter", "bike_id": "c5dacffb2380ef5311881274eef43b31", "name": "c5dacffb2380ef5311881274eef43b31"}, {"lon": -77.0184265, "is_disabled": 0, "lat": 38.922039833333336, "fusion_lat": 0.0, "is_reserved": 0, "rental_uris": {"ios": "https://dc.lft.to/lastmile_qr_scan", "android": "https://dc.lft.to/lastmile_qr_scan"}, "fusion_lon": 0.0, "type": "electric_scooter", "bike_id": "d4410138964187d4fdc0eb8bdd227f24", "name": "d4410138964187d4fdc0eb8bdd227f24"}, {"lon": -77.03711333333334, "is_disabled": 0, "lat": 38.90248866666667, "fusion_lat": 0.0, "is_reserved": 0, "rental_uris": {"ios": "https://dc.lft.to/lastmile_qr_scan", "android": "https://dc.lft.to/lastmile_qr_scan"}, "fusion_lon": 0.0, "type": "electric_scooter", "bike_id": "dad0fb3e7d8f30a7afc359eabc5a9c28", "name": "dad0fb3e7d8f30a7afc359eabc5a9c28"}, {"lon": -77.0022455, "is_disabled": 0, "lat": 38.823691, "fusion_lat": 0.0, "is_reserved": 0, "rental_uris": {"ios": "https://dc.lft.to/lastmile_qr_scan", "android": "https://dc.lft.to/lastmile_qr_scan"}, "fusion_lon": 0.0, "type": "electric_bike", "bike_id": "e9a2ad2341f66d48ca0571e004062e7b", "name": "e9a2ad2341f66d48ca0571e004062e7b"}, {"lon": -77.02129116666667, "is_disabled": 0, "lat": 38.9021235, "fusion_lat": 0.0, "is_reserved": 0, "rental_uris": {"ios": "https://dc.lft.to/lastmile_qr_scan", "android": "https://dc.lft.to/lastmile_qr_scan"}, "fusion_lon": 0.0, "type": "electric_scooter", "bike_id": "c125b0a9aa37c9d42cb50fdd2c1fc054", "name": "c125b0a9aa37c9d42cb50fdd2c1fc054"}, {"lon": -77.009313, "is_disabled": 0, "lat": 38.919268, "fusion_lat": 0.0, "is_reserved": 0, "rental_uris": {"ios": "https://dc.lft.to/lastmile_qr_scan", "android": "https://dc.lft.to/lastmile_qr_scan"}, "fusion_lon": 0.0, "type": "electric_scooter", "bike_id": "2cd132102c27b7c65c42f41fa46bb134", "name": "2cd132102c27b7c65c42f41fa46bb134"}, {"lon": -76.99980033333334, "is_disabled": 0, "lat": 38.875038, "fusion_lat": 0.0, "is_reserved": 0, "rental_uris": {"ios": "https://dc.lft.to/lastmile_qr_scan", "android": "https://dc.lft.to/lastmile_qr_scan"}, "fusion_lon": 0.0, "type": "electric_scooter", "bike_id": "1fe88abf7851698b6160766abcc6b9b8", "name": "1fe88abf7851698b6160766abcc6b9b8"}, {"lon": -77.0335895, "is_disabled": 0, "lat": 38.924503666666666, "fusion_lat": 0.0, "is_reserved": 0, "rental_uris": {"ios": "https://dc.lft.to/lastmile_qr_scan", "android": "https://dc.lft.to/lastmile_qr_scan"}, "fusion_lon": 0.0, "type": "electric_scooter", "bike_id": "679bb63f910d24366fc335c01d51c5a0", "name": "679bb63f910d24366fc335c01d51c5a0"}, {"lon": -77.11829783333333, "is_disabled": 0, "lat": 38.859419, "fusion_lat": 0.0, "is_reserved": 0, "rental_uris": {"ios": "https://dc.lft.to/lastmile_qr_scan", "android": "https://dc.lft.to/lastmile_qr_scan"}, "fusion_lon": 0.0, "type": "electric_bike", "bike_id": "82d0757b78a7db260a6ddba6180d4e4f", "name": "82d0757b78a7db260a6ddba6180d4e4f"}, {"lon": -77.04189566666666, "is_disabled": 0, "lat": 38.9205685, "fusion_lat": 0.0, "is_reserved": 0, "rental_uris": {"ios": "https://dc.lft.to/lastmile_qr_scan", "android": "https://dc.lft.to/lastmile_qr_scan"}, "fusion_lon": 0.0, "type": "electric_scooter", "bike_id": "2e9deb77267f65b5a556224fc2ba2488", "name": "2e9deb77267f65b5a556224fc2ba2488"}, {"lon": -76.98602383333333, "is_disabled": 0, "lat": 38.9002205, "fusion_lat": 0.0, "is_reserved": 0, "rental_uris": {"ios": "https://dc.lft.to/lastmile_qr_scan", "android": "https://dc.lft.to/lastmile_qr_scan"}, "fusion_lon": 0.0, "type": "electric_scooter", "bike_id": "71ec080194b6b7a26b134c7aef108f02", "name": "71ec080194b6b7a26b134c7aef108f02"}, {"lon": -77.04872566666667, "is_disabled": 0, "lat": 38.90977983333333, "fusion_lat": 0.0, "is_reserved": 0, "rental_uris": {"ios": "https://dc.lft.to/lastmile_qr_scan", "android": "https://dc.lft.to/lastmile_qr_scan"}, "fusion_lon": 0.0, "type": "electric_scooter", "bike_id": "1bf49f984f4054cd98b409665e452cef", "name": "1bf49f984f4054cd98b409665e452cef"}, {"lon": -76.99490483333334, "is_disabled": 0, "lat": 38.88344333333333, "fusion_lat": 0.0, "is_reserved": 0, "rental_uris": {"ios": "https://dc.lft.to/lastmile_qr_scan", "android": "https://dc.lft.to/lastmile_qr_scan"}, "fusion_lon": 0.0, "type": "electric_scooter", "bike_id": "44ae7432fd96c6534e02776885a5ade2", "name": "44ae7432fd96c6534e02776885a5ade2"}, {"lon": -77.01581466666667, "is_disabled": 0, "lat": 38.876529, "fusion_lat": 0.0, "is_reserved": 0, "rental_uris": {"ios": "https://dc.lft.to/lastmile_qr_scan", "android": "https://dc.lft.to/lastmile_qr_scan"}, "fusion_lon": 0.0, "type": "electric_scooter", "bike_id": "bc95784aab7235cc51b09c4553332205", "name": "bc95784aab7235cc51b09c4553332205"}, {"lon": -76.96529133333334, "is_disabled": 0, "lat": 38.876308333333334, "fusion_lat": 0.0, "is_reserved": 0, "rental_uris": {"ios": "https://dc.lft.to/lastmile_qr_scan", "android": "https://dc.lft.to/lastmile_qr_scan"}, "fusion_lon": 0.0, "type": "electric_scooter", "bike_id": "cb99ac7384d550ddfc7baa3903f1df72", "name": "cb99ac7384d550ddfc7baa3903f1df72"}, {"lon": -77.0359285, "is_disabled": 0, "lat": 38.90376283333333, "fusion_lat": 0.0, "is_reserved": 0, "rental_uris": {"ios": "https://dc.lft.to/lastmile_qr_scan", "android": "https://dc.lft.to/lastmile_qr_scan"}, "fusion_lon": 0.0, "type": "electric_scooter", "bike_id": "c669804f5b20258c1bf6e944d54f9830", "name": "c669804f5b20258c1bf6e944d54f9830"}, {"lon": -77.0208775, "is_disabled": 0, "lat": 38.881912, "fusion_lat": 0.0, "is_reserved": 0, "rental_uris": {"ios": "https://dc.lft.to/lastmile_qr_scan", "android": "https://dc.lft.to/lastmile_qr_scan"}, "fusion_lon": 0.0, "type": "electric_scooter", "bike_id": "ae6445003db1657f230724e10d413430", "name": "ae6445003db1657f230724e10d413430"}, {"lon": -77.040126, "is_disabled": 0, "lat": 38.9100325, "fusion_lat": 0.0, "is_reserved": 0, "rental_uris": {"ios": "https://dc.lft.to/lastmile_qr_scan", "android": "https://dc.lft.to/lastmile_qr_scan"}, "fusion_lon": 0.0, "type": "electric_scooter", "bike_id": "20a36980d20a57ecec211f57e3f92be6", "name": "20a36980d20a57ecec211f57e3f92be6"}, {"lon": -77.00797983333334, "is_disabled": 0, "lat": 38.949208, "fusion_lat": 0.0, "is_reserved": 0, "rental_uris": {"ios": "https://dc.lft.to/lastmile_qr_scan", "android": "https://dc.lft.to/lastmile_qr_scan"}, "fusion_lon": 0.0, "type": "electric_bike", "bike_id": "09a2ebf64ac8efb1044afa5f05b9f0c1", "name": "09a2ebf64ac8efb1044afa5f05b9f0c1"}, {"lon": -76.98819783333333, "is_disabled": 0, "lat": 38.900743166666665, "fusion_lat": 0.0, "is_reserved": 0, "rental_uris": {"ios": "https://dc.lft.to/lastmile_qr_scan", "android": "https://dc.lft.to/lastmile_qr_scan"}, "fusion_lon": 0.0, "type": "electric_scooter", "bike_id": "8b01d50c685254eb8252348e73750d32", "name": "8b01d50c685254eb8252348e73750d32"}, {"lon": -77.04476216666667, "is_disabled": 0, "lat": 38.903993166666666, "fusion_lat": 0.0, "is_reserved": 0, "rental_uris": {"ios": "https://dc.lft.to/lastmile_qr_scan", "android": "https://dc.lft.to/lastmile_qr_scan"}, "fusion_lon": 0.0, "type": "electric_scooter", "bike_id": "50aa3d3bed2515292ba43cb8253a1b4f", "name": "50aa3d3bed2515292ba43cb8253a1b4f"}, {"lon": -76.9463655, "is_disabled": 0, "lat": 38.89862216666667, "fusion_lat": 0.0, "is_reserved": 0, "rental_uris": {"ios": "https://dc.lft.to/lastmile_qr_scan", "android": "https://dc.lft.to/lastmile_qr_scan"}, "fusion_lon": 0.0, "type": "electric_scooter", "bike_id": "4da3be6cea645c45924e85d8faba14fd", "name": "4da3be6cea645c45924e85d8faba14fd"}, {"lon": -77.04940633333334, "is_disabled": 0, "lat": 38.91825516666667, "fusion_lat": 0.0, "is_reserved": 0, "rental_uris": {"ios": "https://dc.lft.to/lastmile_qr_scan", "android": "https://dc.lft.to/lastmile_qr_scan"}, "fusion_lon": 0.0, "type": "electric_scooter", "bike_id": "a3ba0d2e12bd3ef2bdae4b2100595267", "name": "a3ba0d2e12bd3ef2bdae4b2100595267"}, {"lon": -76.96550116666667, "is_disabled": 0, "lat": 38.91855116666667, "fusion_lat": 0.0, "is_reserved": 0, "rental_uris": {"ios": "https://dc.lft.to/lastmile_qr_scan", "android": "https://dc.lft.to/lastmile_qr_scan"}, "fusion_lon": 0.0, "type": "electric_scooter", "bike_id": "e8f12f5e344890a4bda1c113ce08fb61", "name": "e8f12f5e344890a4bda1c113ce08fb61"}, {"lon": -77.04688383333334, "is_disabled": 0, "lat": 38.89742066666667, "fusion_lat": 0.0, "is_reserved": 0, "rental_uris": {"ios": "https://dc.lft.to/lastmile_qr_scan", "android": "https://dc.lft.to/lastmile_qr_scan"}, "fusion_lon": 0.0, "type": "electric_scooter", "bike_id": "4dee363a4044a5c3934f9adad04f8319", "name": "4dee363a4044a5c3934f9adad04f8319"}, {"lon": -76.97024983333333, "is_disabled": 0, "lat": 38.87359133333333, "fusion_lat": 0.0, "is_reserved": 0, "rental_uris": {"ios": "https://dc.lft.to/lastmile_qr_scan", "android": "https://dc.lft.to/lastmile_qr_scan"}, "fusion_lon": 0.0, "type": "electric_scooter", "bike_id": "9d4c6bb92cf7dd3aea1b351b759ed659", "name": "9d4c6bb92cf7dd3aea1b351b759ed659"}, {"lon": -77.02297316666667, "is_disabled": 0, "lat": 38.895129833333336, "fusion_lat": 0.0, "is_reserved": 0, "rental_uris": {"ios": "https://dc.lft.to/lastmile_qr_scan", "android": "https://dc.lft.to/lastmile_qr_scan"}, "fusion_lon": 0.0, "type": "electric_scooter", "bike_id": "206e6b199b885dfefc55af21a23b462e", "name": "206e6b199b885dfefc55af21a23b462e"}, {"lon": -77.0295615, "is_disabled": 0, "lat": 38.932516, "fusion_lat": 0.0, "is_reserved": 0, "rental_uris": {"ios": "https://dc.lft.to/lastmile_qr_scan", "android": "https://dc.lft.to/lastmile_qr_scan"}, "fusion_lon": 0.0, "type": "electric_scooter", "bike_id": "f2baba41c354b7cc458986a5c10086c8", "name": "f2baba41c354b7cc458986a5c10086c8"}, {"lon": -77.01533133333334, "is_disabled": 0, "lat": 38.88744766666667, "fusion_lat": 0.0, "is_reserved": 0, "rental_uris": {"ios": "https://dc.lft.to/lastmile_qr_scan", "android": "https://dc.lft.to/lastmile_qr_scan"}, "fusion_lon": 0.0, "type": "electric_scooter", "bike_id": "9ec2cfc4e8218be82c87b5c4fa50ef8e", "name": "9ec2cfc4e8218be82c87b5c4fa50ef8e"}, {"lon": -77.02405833333333, "is_disabled": 0, "lat": 38.91407266666667, "fusion_lat": 0.0, "is_reserved": 0, "rental_uris": {"ios": "https://dc.lft.to/lastmile_qr_scan", "android": "https://dc.lft.to/lastmile_qr_scan"}, "fusion_lon": 0.0, "type": "electric_scooter", "bike_id": "8c60ccc951efb9a64ea18a5e8f8cedd1", "name": "8c60ccc951efb9a64ea18a5e8f8cedd1"}, {"lon": -77.080666, "is_disabled": 0, "lat": 39.052567333333336, "fusion_lat": 0.0, "is_reserved": 0, "rental_uris": {"ios": "https://dc.lft.to/lastmile_qr_scan", "android": "https://dc.lft.to/lastmile_qr_scan"}, "fusion_lon": 0.0, "type": "electric_bike", "bike_id": "49f0cd3ea9201dcf428d714f19d4cff8", "name": "49f0cd3ea9201dcf428d714f19d4cff8"}, {"lon": -77.04488, "is_disabled": 0, "lat": 38.915024833333334, "fusion_lat": 0.0, "is_reserved": 0, "rental_uris": {"ios": "https://dc.lft.to/lastmile_qr_scan", "android": "https://dc.lft.to/lastmile_qr_scan"}, "fusion_lon": 0.0, "type": "electric_scooter", "bike_id": "d96adae1fba11c427945a4f64e40799d", "name": "d96adae1fba11c427945a4f64e40799d"}, {"lon": -77.02052, "is_disabled": 0, "lat": 38.93344666666667, "fusion_lat": 0.0, "is_reserved": 0, "rental_uris": {"ios": "https://dc.lft.to/lastmile_qr_scan", "android": "https://dc.lft.to/lastmile_qr_scan"}, "fusion_lon": 0.0, "type": "electric_scooter", "bike_id": "b736fb65ec9a523f56d56a622da43a2a", "name": "b736fb65ec9a523f56d56a622da43a2a"}, {"lon": -77.01763033333333, "is_disabled": 0, "lat": 38.90267216666667, "fusion_lat": 0.0, "is_reserved": 0, "rental_uris": {"ios": "https://dc.lft.to/lastmile_qr_scan", "android": "https://dc.lft.to/lastmile_qr_scan"}, "fusion_lon": 0.0, "type": "electric_scooter", "bike_id": "b032909a68eb994c98aae3fa36ea2afc", "name": "b032909a68eb994c98aae3fa36ea2afc"}, {"lon": -77.03832516666667, "is_disabled": 0, "lat": 38.907858833333336, "fusion_lat": 0.0, "is_reserved": 0, "rental_uris": {"ios": "https://dc.lft.to/lastmile_qr_scan", "android": "https://dc.lft.to/lastmile_qr_scan"}, "fusion_lon": 0.0, "type": "electric_scooter", "bike_id": "d0ebce5e4b68bb187153594a928ac779", "name": "d0ebce5e4b68bb187153594a928ac779"}, {"lon": -77.0343315, "is_disabled": 0, "lat": 38.90433183333333, "fusion_lat": 0.0, "is_reserved": 0, "rental_uris": {"ios": "https://dc.lft.to/lastmile_qr_scan", "android": "https://dc.lft.to/lastmile_qr_scan"}, "fusion_lon": 0.0, "type": "electric_scooter", "bike_id": "35d4d3e9813c2b54cefa4f2a3ec5866b", "name": "35d4d3e9813c2b54cefa4f2a3ec5866b"}, {"lon": -77.043464, "is_disabled": 0, "lat": 38.905311833333336, "fusion_lat": 0.0, "is_reserved": 0, "rental_uris": {"ios": "https://dc.lft.to/lastmile_qr_scan", "android": "https://dc.lft.to/lastmile_qr_scan"}, "fusion_lon": 0.0, "type": "electric_scooter", "bike_id": "0ca3ea862ab3f2ace4680b84484aa343", "name": "0ca3ea862ab3f2ace4680b84484aa343"}, {"lon": -76.9578145, "is_disabled": 0, "lat": 38.86886233333333, "fusion_lat": 0.0, "is_reserved": 0, "rental_uris": {"ios": "https://dc.lft.to/lastmile_qr_scan", "android": "https://dc.lft.to/lastmile_qr_scan"}, "fusion_lon": 0.0, "type": "electric_bike", "bike_id": "6c04bc8ce28b882fb004df50cb37d6af", "name": "6c04bc8ce28b882fb004df50cb37d6af"}, {"lon": -77.0049045, "is_disabled": 0, "lat": 38.87477466666667, "fusion_lat": 0.0, "is_reserved": 0, "rental_uris": {"ios": "https://dc.lft.to/lastmile_qr_scan", "android": "https://dc.lft.to/lastmile_qr_scan"}, "fusion_lon": 0.0, "type": "electric_scooter", "bike_id": "7986189eb16d6783dd63dbde9c11d801", "name": "7986189eb16d6783dd63dbde9c11d801"}, {"lon": -77.00595816666667, "is_disabled": 0, "lat": 38.87577066666667, "fusion_lat": 0.0, "is_reserved": 0, "rental_uris": {"ios": "https://dc.lft.to/lastmile_qr_scan", "android": "https://dc.lft.to/lastmile_qr_scan"}, "fusion_lon": 0.0, "type": "electric_scooter", "bike_id": "793de14790f31121de19f99a22811bc9", "name": "793de14790f31121de19f99a22811bc9"}, {"lon": -77.0583695, "is_disabled": 0, "lat": 38.930609833333335, "fusion_lat": 0.0, "is_reserved": 0, "rental_uris": {"ios": "https://dc.lft.to/lastmile_qr_scan", "android": "https://dc.lft.to/lastmile_qr_scan"}, "fusion_lon": 0.0, "type": "electric_scooter", "bike_id": "c08f1809eefd46b63d908ea1cf9d6f69", "name": "c08f1809eefd46b63d908ea1cf9d6f69"}, {"lon": -77.01768966666667, "is_disabled": 0, "lat": 38.87222666666667, "fusion_lat": 0.0, "is_reserved": 0, "rental_uris": {"ios": "https://dc.lft.to/lastmile_qr_scan", "android": "https://dc.lft.to/lastmile_qr_scan"}, "fusion_lon": 0.0, "type": "electric_scooter", "bike_id": "6aa1fe4f2e2319f1a1cc4c979ae6e6b9", "name": "6aa1fe4f2e2319f1a1cc4c979ae6e6b9"}, {"lon": -76.9494005, "is_disabled": 0, "lat": 38.8936075, "fusion_lat": 0.0, "is_reserved": 0, "rental_uris": {"ios": "https://dc.lft.to/lastmile_qr_scan", "android": "https://dc.lft.to/lastmile_qr_scan"}, "fusion_lon": 0.0, "type": "electric_scooter", "bike_id": "0f4fb088c9f2f59737649e3995668110", "name": "0f4fb088c9f2f59737649e3995668110"}, {"lon": -77.02672933333334, "is_disabled": 0, "lat": 38.8983505, "fusion_lat": 0.0, "is_reserved": 0, "rental_uris": {"ios": "https://dc.lft.to/lastmile_qr_scan", "android": "https://dc.lft.to/lastmile_qr_scan"}, "fusion_lon": 0.0, "type": "electric_scooter", "bike_id": "a2ea085e5a83e047809489de743703b5", "name": "a2ea085e5a83e047809489de743703b5"}, {"lon": -76.9894585, "is_disabled": 0, "lat": 38.90399033333333, "fusion_lat": 0.0, "is_reserved": 0, "rental_uris": {"ios": "https://dc.lft.to/lastmile_qr_scan", "android": "https://dc.lft.to/lastmile_qr_scan"}, "fusion_lon": 0.0, "type": "electric_scooter", "bike_id": "1e1e94082cd6313942b0c72aeb69d770", "name": "1e1e94082cd6313942b0c72aeb69d770"}, {"lon": -77.04463633333333, "is_disabled": 0, "lat": 38.89613516666667, "fusion_lat": 0.0, "is_reserved": 0, "rental_uris": {"ios": "https://dc.lft.to/lastmile_qr_scan", "android": "https://dc.lft.to/lastmile_qr_scan"}, "fusion_lon": 0.0, "type": "electric_scooter", "bike_id": "378e48dc9fb86f504a8076e9a4e96ccb", "name": "378e48dc9fb86f504a8076e9a4e96ccb"}, {"lon": -77.032268, "is_disabled": 0, "lat": 38.896323333333335, "fusion_lat": 0.0, "is_reserved": 0, "rental_uris": {"ios": "https://dc.lft.to/lastmile_qr_scan", "android": "https://dc.lft.to/lastmile_qr_scan"}, "fusion_lon": 0.0, "type": "electric_scooter", "bike_id": "5017334ecd9a8f27c191fdc22029a4bf", "name": "5017334ecd9a8f27c191fdc22029a4bf"}, {"lon": -77.0249065, "is_disabled": 0, "lat": 38.941840166666665, "fusion_lat": 0.0, "is_reserved": 0, "rental_uris": {"ios": "https://dc.lft.to/lastmile_qr_scan", "android": "https://dc.lft.to/lastmile_qr_scan"}, "fusion_lon": 0.0, "type": "electric_scooter", "bike_id": "9902a77eddb56064932ecf1d0762c6ec", "name": "9902a77eddb56064932ecf1d0762c6ec"}, {"lon": -77.00489566666667, "is_disabled": 0, "lat": 38.874741, "fusion_lat": 0.0, "is_reserved": 0, "rental_uris": {"ios": "https://dc.lft.to/lastmile_qr_scan", "android": "https://dc.lft.to/lastmile_qr_scan"}, "fusion_lon": 0.0, "type": "electric_scooter", "bike_id": "02d1baab9f5a59650840b1604352a795", "name": "02d1baab9f5a59650840b1604352a795"}, {"lon": -77.012238, "is_disabled": 0, "lat": 38.89779016666667, "fusion_lat": 0.0, "is_reserved": 0, "rental_uris": {"ios": "https://dc.lft.to/lastmile_qr_scan", "android": "https://dc.lft.to/lastmile_qr_scan"}, "fusion_lon": 0.0, "type": "electric_scooter", "bike_id": "f86ae60bc1563abef20cac467ce39f07", "name": "f86ae60bc1563abef20cac467ce39f07"}, {"lon": -77.03952533333333, "is_disabled": 0, "lat": 38.90292516666667, "fusion_lat": 0.0, "is_reserved": 0, "rental_uris": {"ios": "https://dc.lft.to/lastmile_qr_scan", "android": "https://dc.lft.to/lastmile_qr_scan"}, "fusion_lon": 0.0, "type": "electric_scooter", "bike_id": "0e7cc041f453f6c84e188eef2e136953", "name": "0e7cc041f453f6c84e188eef2e136953"}, {"lon": -77.04507516666666, "is_disabled": 0, "lat": 38.903786833333335, "fusion_lat": 0.0, "is_reserved": 0, "rental_uris": {"ios": "https://dc.lft.to/lastmile_qr_scan", "android": "https://dc.lft.to/lastmile_qr_scan"}, "fusion_lon": 0.0, "type": "electric_scooter", "bike_id": "91caefd9d819e4741a60f58fcb2915b6", "name": "91caefd9d819e4741a60f58fcb2915b6"}, {"lon": -77.01965216666666, "is_disabled": 0, "lat": 38.88593866666667, "fusion_lat": 0.0, "is_reserved": 0, "rental_uris": {"ios": "https://dc.lft.to/lastmile_qr_scan", "android": "https://dc.lft.to/lastmile_qr_scan"}, "fusion_lon": 0.0, "type": "electric_scooter", "bike_id": "bab7965a2d6f334d68cf244f2195bbe3", "name": "bab7965a2d6f334d68cf244f2195bbe3"}, {"lon": -77.00994766666666, "is_disabled": 0, "lat": 38.872911333333334, "fusion_lat": 0.0, "is_reserved": 0, "rental_uris": {"ios": "https://dc.lft.to/lastmile_qr_scan", "android": "https://dc.lft.to/lastmile_qr_scan"}, "fusion_lon": 0.0, "type": "electric_scooter", "bike_id": "bbe58befd8489bc42b45f1b66d89af2b", "name": "bbe58befd8489bc42b45f1b66d89af2b"}, {"lon": -77.00540666666667, "is_disabled": 0, "lat": 38.876439500000004, "fusion_lat": 0.0, "is_reserved": 0, "rental_uris": {"ios": "https://dc.lft.to/lastmile_qr_scan", "android": "https://dc.lft.to/lastmile_qr_scan"}, "fusion_lon": 0.0, "type": "electric_scooter", "bike_id": "7bbfb53936feda9ebb4f67d0696a61cd", "name": "7bbfb53936feda9ebb4f67d0696a61cd"}, {"lon": -77.06186066666666, "is_disabled": 0, "lat": 38.90341133333333, "fusion_lat": 0.0, "is_reserved": 0, "rental_uris": {"ios": "https://dc.lft.to/lastmile_qr_scan", "android": "https://dc.lft.to/lastmile_qr_scan"}, "fusion_lon": 0.0, "type": "electric_scooter", "bike_id": "94d3f80f34953612f9db7dc1eb3f8cdb", "name": "94d3f80f34953612f9db7dc1eb3f8cdb"}, {"lon": -77.02701883333333, "is_disabled": 0, "lat": 38.9095435, "fusion_lat": 0.0, "is_reserved": 0, "rental_uris": {"ios": "https://dc.lft.to/lastmile_qr_scan", "android": "https://dc.lft.to/lastmile_qr_scan"}, "fusion_lon": 0.0, "type": "electric_scooter", "bike_id": "38d00bc9af035047c23eb0c2ecd2b701", "name": "38d00bc9af035047c23eb0c2ecd2b701"}, {"lon": -77.0534895, "is_disabled": 0, "lat": 38.90504133333334, "fusion_lat": 0.0, "is_reserved": 0, "rental_uris": {"ios": "https://dc.lft.to/lastmile_qr_scan", "android": "https://dc.lft.to/lastmile_qr_scan"}, "fusion_lon": 0.0, "type": "electric_scooter", "bike_id": "ace620eecd10ddde952992b515d7aca7", "name": "ace620eecd10ddde952992b515d7aca7"}, {"lon": -77.03264166666666, "is_disabled": 0, "lat": 38.9096915, "fusion_lat": 0.0, "is_reserved": 0, "rental_uris": {"ios": "https://dc.lft.to/lastmile_qr_scan", "android": "https://dc.lft.to/lastmile_qr_scan"}, "fusion_lon": 0.0, "type": "electric_scooter", "bike_id": "25a2fe4faebead26562356d22ddd5892", "name": "25a2fe4faebead26562356d22ddd5892"}, {"lon": -77.000661, "is_disabled": 0, "lat": 38.876991, "fusion_lat": 0.0, "is_reserved": 0, "rental_uris": {"ios": "https://dc.lft.to/lastmile_qr_scan", "android": "https://dc.lft.to/lastmile_qr_scan"}, "fusion_lon": 0.0, "type": "electric_scooter", "bike_id": "4f957305b41485ee20bfb733bb648786", "name": "4f957305b41485ee20bfb733bb648786"}, {"lon": -77.03188116666666, "is_disabled": 0, "lat": 38.90981766666667, "fusion_lat": 0.0, "is_reserved": 0, "rental_uris": {"ios": "https://dc.lft.to/lastmile_qr_scan", "android": "https://dc.lft.to/lastmile_qr_scan"}, "fusion_lon": 0.0, "type": "electric_scooter", "bike_id": "1ded80ad1653e334b51d09401b1ee78f", "name": "1ded80ad1653e334b51d09401b1ee78f"}, {"lon": -77.02932933333334, "is_disabled": 0, "lat": 38.90159516666667, "fusion_lat": 0.0, "is_reserved": 0, "rental_uris": {"ios": "https://dc.lft.to/lastmile_qr_scan", "android": "https://dc.lft.to/lastmile_qr_scan"}, "fusion_lon": 0.0, "type": "electric_scooter", "bike_id": "8d87fda5feb8a77f0aff754017dfc2e5", "name": "8d87fda5feb8a77f0aff754017dfc2e5"}, {"lon": -76.95417833333333, "is_disabled": 0, "lat": 38.884152, "fusion_lat": 0.0, "is_reserved": 0, "rental_uris": {"ios": "https://dc.lft.to/lastmile_qr_scan", "android": "https://dc.lft.to/lastmile_qr_scan"}, "fusion_lon": 0.0, "type": "electric_bike", "bike_id": "dd5b3b517a6597efcb5fe6d847e3a919", "name": "dd5b3b517a6597efcb5fe6d847e3a919"}, {"lon": -77.003353, "is_disabled": 0, "lat": 38.887431166666666, "fusion_lat": 0.0, "is_reserved": 0, "rental_uris": {"ios": "https://dc.lft.to/lastmile_qr_scan", "android": "https://dc.lft.to/lastmile_qr_scan"}, "fusion_lon": 0.0, "type": "electric_scooter", "bike_id": "678ffaec519b90fad7a42e0bd90dc8cc", "name": "678ffaec519b90fad7a42e0bd90dc8cc"}, {"lon": -77.02151116666667, "is_disabled": 0, "lat": 38.87920283333333, "fusion_lat": 0.0, "is_reserved": 0, "rental_uris": {"ios": "https://dc.lft.to/lastmile_qr_scan", "android": "https://dc.lft.to/lastmile_qr_scan"}, "fusion_lon": 0.0, "type": "electric_scooter", "bike_id": "0d4dd0fb689503f4b38d5d0d009b2c0e", "name": "0d4dd0fb689503f4b38d5d0d009b2c0e"}, {"lon": -76.9978745, "is_disabled": 0, "lat": 38.908704666666665, "fusion_lat": 0.0, "is_reserved": 0, "rental_uris": {"ios": "https://dc.lft.to/lastmile_qr_scan", "android": "https://dc.lft.to/lastmile_qr_scan"}, "fusion_lon": 0.0, "type": "electric_scooter", "bike_id": "7c00f51ad6c37b83249390d88103cecc", "name": "7c00f51ad6c37b83249390d88103cecc"}, {"lon": -76.980681, "is_disabled": 0, "lat": 38.901222, "fusion_lat": 0.0, "is_reserved": 0, "rental_uris": {"ios": "https://dc.lft.to/lastmile_qr_scan", "android": "https://dc.lft.to/lastmile_qr_scan"}, "fusion_lon": 0.0, "type": "electric_bike", "bike_id": "2ce6c3a37b3646d208dc51ace64e59b0", "name": "2ce6c3a37b3646d208dc51ace64e59b0"}, {"lon": -77.05863133333334, "is_disabled": 0, "lat": 38.93048266666667, "fusion_lat": 0.0, "is_reserved": 0, "rental_uris": {"ios": "https://dc.lft.to/lastmile_qr_scan", "android": "https://dc.lft.to/lastmile_qr_scan"}, "fusion_lon": 0.0, "type": "electric_scooter", "bike_id": "011b5e8e3a44a739213340a09674542b", "name": "011b5e8e3a44a739213340a09674542b"}, {"lon": -77.02554033333334, "is_disabled": 0, "lat": 38.99717416666667, "fusion_lat": 0.0, "is_reserved": 0, "rental_uris": {"ios": "https://dc.lft.to/lastmile_qr_scan", "android": "https://dc.lft.to/lastmile_qr_scan"}, "fusion_lon": 0.0, "type": "electric_bike", "bike_id": "2d10d720cf808f904babca10da1c9ef1", "name": "2d10d720cf808f904babca10da1c9ef1"}, {"lon": -76.98714066666666, "is_disabled": 0, "lat": 38.86632566666667, "fusion_lat": 0.0, "is_reserved": 0, "rental_uris": {"ios": "https://dc.lft.to/lastmile_qr_scan", "android": "https://dc.lft.to/lastmile_qr_scan"}, "fusion_lon": 0.0, "type": "electric_scooter", "bike_id": "28dc63c208423251609ea4d35c66129b", "name": "28dc63c208423251609ea4d35c66129b"}, {"lon": -77.07111766666667, "is_disabled": 0, "lat": 38.8966245, "fusion_lat": 0.0, "is_reserved": 0, "rental_uris": {"ios": "https://dc.lft.to/lastmile_qr_scan", "android": "https://dc.lft.to/lastmile_qr_scan"}, "fusion_lon": 0.0, "type": "electric_scooter", "bike_id": "cb442e2485e842da0e89889ba611463d", "name": "cb442e2485e842da0e89889ba611463d"}, {"lon": -77.01135816666667, "is_disabled": 0, "lat": 38.91179483333333, "fusion_lat": 0.0, "is_reserved": 0, "rental_uris": {"ios": "https://dc.lft.to/lastmile_qr_scan", "android": "https://dc.lft.to/lastmile_qr_scan"}, "fusion_lon": 0.0, "type": "electric_scooter", "bike_id": "04cdb949fab618f106980f788e2e319f", "name": "04cdb949fab618f106980f788e2e319f"}, {"lon": -77.03288116666667, "is_disabled": 0, "lat": 38.91984716666666, "fusion_lat": 0.0, "is_reserved": 0, "rental_uris": {"ios": "https://dc.lft.to/lastmile_qr_scan", "android": "https://dc.lft.to/lastmile_qr_scan"}, "fusion_lon": 0.0, "type": "electric_scooter", "bike_id": "a2b6e5d5a663823d0739c2a8d89fd510", "name": "a2b6e5d5a663823d0739c2a8d89fd510"}, {"lon": -77.024721, "is_disabled": 0, "lat": 38.898525, "fusion_lat": 0.0, "is_reserved": 0, "rental_uris": {"ios": "https://dc.lft.to/lastmile_qr_scan", "android": "https://dc.lft.to/lastmile_qr_scan"}, "fusion_lon": 0.0, "type": "electric_scooter", "bike_id": "3ef0ce4fa7f482b3b121ee68a5cfba2c", "name": "3ef0ce4fa7f482b3b121ee68a5cfba2c"}, {"lon": -77.0058365, "is_disabled": 0, "lat": 38.875811166666665, "fusion_lat": 0.0, "is_reserved": 0, "rental_uris": {"ios": "https://dc.lft.to/lastmile_qr_scan", "android": "https://dc.lft.to/lastmile_qr_scan"}, "fusion_lon": 0.0, "type": "electric_scooter", "bike_id": "7f5bc406633952a18f338979f9c15ef2", "name": "7f5bc406633952a18f338979f9c15ef2"}, {"lon": -77.05211566666667, "is_disabled": 0, "lat": 38.92485883333333, "fusion_lat": 0.0, "is_reserved": 0, "rental_uris": {"ios": "https://dc.lft.to/lastmile_qr_scan", "android": "https://dc.lft.to/lastmile_qr_scan"}, "fusion_lon": 0.0, "type": "electric_scooter", "bike_id": "31979e1ac5878e31f600e37008caa606", "name": "31979e1ac5878e31f600e37008caa606"}, {"lon": -77.03831366666667, "is_disabled": 0, "lat": 38.90780216666667, "fusion_lat": 0.0, "is_reserved": 0, "rental_uris": {"ios": "https://dc.lft.to/lastmile_qr_scan", "android": "https://dc.lft.to/lastmile_qr_scan"}, "fusion_lon": 0.0, "type": "electric_scooter", "bike_id": "72664ae7483b2996237b300f9cbe449d", "name": "72664ae7483b2996237b300f9cbe449d"}, {"lon": -77.0271565, "is_disabled": 0, "lat": 38.8973315, "fusion_lat": 0.0, "is_reserved": 0, "rental_uris": {"ios": "https://dc.lft.to/lastmile_qr_scan", "android": "https://dc.lft.to/lastmile_qr_scan"}, "fusion_lon": 0.0, "type": "electric_scooter", "bike_id": "b4b6de73ee2663a2c7f9f1d5c0d7611c", "name": "b4b6de73ee2663a2c7f9f1d5c0d7611c"}, {"lon": -77.03657783333334, "is_disabled": 0, "lat": 38.906799166666666, "fusion_lat": 0.0, "is_reserved": 0, "rental_uris": {"ios": "https://dc.lft.to/lastmile_qr_scan", "android": "https://dc.lft.to/lastmile_qr_scan"}, "fusion_lon": 0.0, "type": "electric_scooter", "bike_id": "815d19459735ce304d979feeaa37732b", "name": "815d19459735ce304d979feeaa37732b"}, {"lon": -76.95591983333334, "is_disabled": 0, "lat": 38.88768966666667, "fusion_lat": 0.0, "is_reserved": 0, "rental_uris": {"ios": "https://dc.lft.to/lastmile_qr_scan", "android": "https://dc.lft.to/lastmile_qr_scan"}, "fusion_lon": 0.0, "type": "electric_scooter", "bike_id": "5f9a19ef6588693092041237f699c1b8", "name": "5f9a19ef6588693092041237f699c1b8"}, {"lon": -77.0892555, "is_disabled": 0, "lat": 38.88787683333334, "fusion_lat": 0.0, "is_reserved": 0, "rental_uris": {"ios": "https://dc.lft.to/lastmile_qr_scan", "android": "https://dc.lft.to/lastmile_qr_scan"}, "fusion_lon": 0.0, "type": "electric_bike", "bike_id": "1141c07111ca6150af1b6c0ae97c3b4f", "name": "1141c07111ca6150af1b6c0ae97c3b4f"}, {"lon": -77.003841, "is_disabled": 0, "lat": 38.905815, "fusion_lat": 0.0, "is_reserved": 0, "rental_uris": {"ios": "https://dc.lft.to/lastmile_qr_scan", "android": "https://dc.lft.to/lastmile_qr_scan"}, "fusion_lon": 0.0, "type": "electric_scooter", "bike_id": "649ea62935c54b0cb6606a595358cb98", "name": "649ea62935c54b0cb6606a595358cb98"}, {"lon": -76.97054366666667, "is_disabled": 0, "lat": 38.984736833333336, "fusion_lat": 0.0, "is_reserved": 0, "rental_uris": {"ios": "https://dc.lft.to/lastmile_qr_scan", "android": "https://dc.lft.to/lastmile_qr_scan"}, "fusion_lon": 0.0, "type": "electric_bike", "bike_id": "55851c5065060a5513a58f3f3bdc0a34", "name": "55851c5065060a5513a58f3f3bdc0a34"}, {"lon": -77.08530216666666, "is_disabled": 0, "lat": 38.916110833333335, "fusion_lat": 0.0, "is_reserved": 0, "rental_uris": {"ios": "https://dc.lft.to/lastmile_qr_scan", "android": "https://dc.lft.to/lastmile_qr_scan"}, "fusion_lon": 0.0, "type": "electric_scooter", "bike_id": "caa57db5b4ea4f176ed63989a9f13ab4", "name": "caa57db5b4ea4f176ed63989a9f13ab4"}, {"lon": -77.03879383333333, "is_disabled": 0, "lat": 38.9312245, "fusion_lat": 0.0, "is_reserved": 0, "rental_uris": {"ios": "https://dc.lft.to/lastmile_qr_scan", "android": "https://dc.lft.to/lastmile_qr_scan"}, "fusion_lon": 0.0, "type": "electric_scooter", "bike_id": "87156ad929c01d3f340fff8554fc6bd5", "name": "87156ad929c01d3f340fff8554fc6bd5"}, {"lon": -77.01966266666666, "is_disabled": 0, "lat": 38.952558333333336, "fusion_lat": 0.0, "is_reserved": 0, "rental_uris": {"ios": "https://dc.lft.to/lastmile_qr_scan", "android": "https://dc.lft.to/lastmile_qr_scan"}, "fusion_lon": 0.0, "type": "electric_scooter", "bike_id": "4b96ee272778a963a723a8e2b0b65949", "name": "4b96ee272778a963a723a8e2b0b65949"}, {"lon": -77.01998233333333, "is_disabled": 0, "lat": 38.89748816666667, "fusion_lat": 0.0, "is_reserved": 0, "rental_uris": {"ios": "https://dc.lft.to/lastmile_qr_scan", "android": "https://dc.lft.to/lastmile_qr_scan"}, "fusion_lon": 0.0, "type": "electric_scooter", "bike_id": "e3bc103057d7c422933dea5a3899b167", "name": "e3bc103057d7c422933dea5a3899b167"}, {"lon": -77.03664333333333, "is_disabled": 0, "lat": 38.910167666666666, "fusion_lat": 0.0, "is_reserved": 0, "rental_uris": {"ios": "https://dc.lft.to/lastmile_qr_scan", "android": "https://dc.lft.to/lastmile_qr_scan"}, "fusion_lon": 0.0, "type": "electric_scooter", "bike_id": "0248578d2b957818fd991bca9694f731", "name": "0248578d2b957818fd991bca9694f731"}, {"lon": -77.02020016666667, "is_disabled": 0, "lat": 38.9243185, "fusion_lat": 0.0, "is_reserved": 0, "rental_uris": {"ios": "https://dc.lft.to/lastmile_qr_scan", "android": "https://dc.lft.to/lastmile_qr_scan"}, "fusion_lon": 0.0, "type": "electric_scooter", "bike_id": "d61e54e5485407a522c03032f5096be2", "name": "d61e54e5485407a522c03032f5096be2"}, {"lon": -77.03513333333333, "is_disabled": 0, "lat": 38.93113816666666, "fusion_lat": 0.0, "is_reserved": 0, "rental_uris": {"ios": "https://dc.lft.to/lastmile_qr_scan", "android": "https://dc.lft.to/lastmile_qr_scan"}, "fusion_lon": 0.0, "type": "electric_scooter", "bike_id": "67291995c90cbfe7cc87cc42f4a5a3c9", "name": "67291995c90cbfe7cc87cc42f4a5a3c9"}, {"lon": -77.03796633333333, "is_disabled": 0, "lat": 38.902563666666666, "fusion_lat": 0.0, "is_reserved": 0, "rental_uris": {"ios": "https://dc.lft.to/lastmile_qr_scan", "android": "https://dc.lft.to/lastmile_qr_scan"}, "fusion_lon": 0.0, "type": "electric_scooter", "bike_id": "219ac58a17ef1ec249f1bd4b7394bb19", "name": "219ac58a17ef1ec249f1bd4b7394bb19"}, {"lon": -76.9788175, "is_disabled": 0, "lat": 38.90195166666667, "fusion_lat": 0.0, "is_reserved": 0, "rental_uris": {"ios": "https://dc.lft.to/lastmile_qr_scan", "android": "https://dc.lft.to/lastmile_qr_scan"}, "fusion_lon": 0.0, "type": "electric_scooter", "bike_id": "729ce50b06002f3b86e34612ae568983", "name": "729ce50b06002f3b86e34612ae568983"}, {"lon": -76.98374883333334, "is_disabled": 0, "lat": 38.87959333333333, "fusion_lat": 0.0, "is_reserved": 0, "rental_uris": {"ios": "https://dc.lft.to/lastmile_qr_scan", "android": "https://dc.lft.to/lastmile_qr_scan"}, "fusion_lon": 0.0, "type": "electric_scooter", "bike_id": "baa7241a5876f7311af90cef8af7678e", "name": "baa7241a5876f7311af90cef8af7678e"}, {"lon": -77.024954, "is_disabled": 0, "lat": 38.9181255, "fusion_lat": 0.0, "is_reserved": 0, "rental_uris": {"ios": "https://dc.lft.to/lastmile_qr_scan", "android": "https://dc.lft.to/lastmile_qr_scan"}, "fusion_lon": 0.0, "type": "electric_scooter", "bike_id": "c377f89ed6e512d40130e14e75a6560d", "name": "c377f89ed6e512d40130e14e75a6560d"}, {"lon": -77.06387416666666, "is_disabled": 0, "lat": 38.90533, "fusion_lat": 0.0, "is_reserved": 0, "rental_uris": {"ios": "https://dc.lft.to/lastmile_qr_scan", "android": "https://dc.lft.to/lastmile_qr_scan"}, "fusion_lon": 0.0, "type": "electric_scooter", "bike_id": "12dc78c3b210f8d37de279c1cd69d3b9", "name": "12dc78c3b210f8d37de279c1cd69d3b9"}, {"lon": -77.03472083333334, "is_disabled": 0, "lat": 38.884938166666664, "fusion_lat": 0.0, "is_reserved": 0, "rental_uris": {"ios": "https://dc.lft.to/lastmile_qr_scan", "android": "https://dc.lft.to/lastmile_qr_scan"}, "fusion_lon": 0.0, "type": "electric_scooter", "bike_id": "cc8974ce8b6d117f1dd4f1f34fa8cae5", "name": "cc8974ce8b6d117f1dd4f1f34fa8cae5"}, {"lon": -77.0056195, "is_disabled": 0, "lat": 38.876624666666665, "fusion_lat": 0.0, "is_reserved": 0, "rental_uris": {"ios": "https://dc.lft.to/lastmile_qr_scan", "android": "https://dc.lft.to/lastmile_qr_scan"}, "fusion_lon": 0.0, "type": "electric_scooter", "bike_id": "155b908112268b52cf57094107af1c54", "name": "155b908112268b52cf57094107af1c54"}, {"lon": -76.9785565, "is_disabled": 0, "lat": 38.844769666666664, "fusion_lat": 0.0, "is_reserved": 0, "rental_uris": {"ios": "https://dc.lft.to/lastmile_qr_scan", "android": "https://dc.lft.to/lastmile_qr_scan"}, "fusion_lon": 0.0, "type": "electric_bike", "bike_id": "d4ca2722b786b2dbcf219fed2dadb9a7", "name": "d4ca2722b786b2dbcf219fed2dadb9a7"}, {"lon": -77.01216333333333, "is_disabled": 0, "lat": 38.89850933333334, "fusion_lat": 0.0, "is_reserved": 0, "rental_uris": {"ios": "https://dc.lft.to/lastmile_qr_scan", "android": "https://dc.lft.to/lastmile_qr_scan"}, "fusion_lon": 0.0, "type": "electric_scooter", "bike_id": "b3cfcbc0caeb32a2a9ab4659f3fc1df0", "name": "b3cfcbc0caeb32a2a9ab4659f3fc1df0"}, {"lon": -76.967113, "is_disabled": 0, "lat": 38.860403833333336, "fusion_lat": 0.0, "is_reserved": 0, "rental_uris": {"ios": "https://dc.lft.to/lastmile_qr_scan", "android": "https://dc.lft.to/lastmile_qr_scan"}, "fusion_lon": 0.0, "type": "electric_scooter", "bike_id": "5cbe4462a11d3d34f20e1bd38b8ad7f6", "name": "5cbe4462a11d3d34f20e1bd38b8ad7f6"}, {"lon": -77.0334895, "is_disabled": 0, "lat": 38.902908, "fusion_lat": 0.0, "is_reserved": 0, "rental_uris": {"ios": "https://dc.lft.to/lastmile_qr_scan", "android": "https://dc.lft.to/lastmile_qr_scan"}, "fusion_lon": 0.0, "type": "electric_scooter", "bike_id": "9db0ae4b2124f7869376de5befc7705f", "name": "9db0ae4b2124f7869376de5befc7705f"}, {"lon": -77.05731333333334, "is_disabled": 0, "lat": 38.93369533333333, "fusion_lat": 0.0, "is_reserved": 0, "rental_uris": {"ios": "https://dc.lft.to/lastmile_qr_scan", "android": "https://dc.lft.to/lastmile_qr_scan"}, "fusion_lon": 0.0, "type": "electric_scooter", "bike_id": "5d0eb48832f37759ee65efb0e2784b7c", "name": "5d0eb48832f37759ee65efb0e2784b7c"}, {"lon": -77.025576, "is_disabled": 0, "lat": 38.909640333333336, "fusion_lat": 0.0, "is_reserved": 0, "rental_uris": {"ios": "https://dc.lft.to/lastmile_qr_scan", "android": "https://dc.lft.to/lastmile_qr_scan"}, "fusion_lon": 0.0, "type": "electric_scooter", "bike_id": "1df66a4eb0960dc2dd41aede5b3a9586", "name": "1df66a4eb0960dc2dd41aede5b3a9586"}, {"lon": -77.05657383333333, "is_disabled": 0, "lat": 38.9061475, "fusion_lat": 0.0, "is_reserved": 0, "rental_uris": {"ios": "https://dc.lft.to/lastmile_qr_scan", "android": "https://dc.lft.to/lastmile_qr_scan"}, "fusion_lon": 0.0, "type": "electric_scooter", "bike_id": "fc03120daf9331ff5f21c7798c1d93dd", "name": "fc03120daf9331ff5f21c7798c1d93dd"}, {"lon": -77.00849516666666, "is_disabled": 0, "lat": 38.9223945, "fusion_lat": 0.0, "is_reserved": 0, "rental_uris": {"ios": "https://dc.lft.to/lastmile_qr_scan", "android": "https://dc.lft.to/lastmile_qr_scan"}, "fusion_lon": 0.0, "type": "electric_scooter", "bike_id": "95d0314e4f04e111edb829748e6a52c0", "name": "95d0314e4f04e111edb829748e6a52c0"}, {"lon": -77.03325266666667, "is_disabled": 0, "lat": 38.9722145, "fusion_lat": 0.0, "is_reserved": 0, "rental_uris": {"ios": "https://dc.lft.to/lastmile_qr_scan", "android": "https://dc.lft.to/lastmile_qr_scan"}, "fusion_lon": 0.0, "type": "electric_bike", "bike_id": "1ec7f89c37e20c3280c0e4421c8dd505", "name": "1ec7f89c37e20c3280c0e4421c8dd505"}, {"lon": -76.95754366666667, "is_disabled": 0, "lat": 38.88433833333333, "fusion_lat": 0.0, "is_reserved": 0, "rental_uris": {"ios": "https://dc.lft.to/lastmile_qr_scan", "android": "https://dc.lft.to/lastmile_qr_scan"}, "fusion_lon": 0.0, "type": "electric_scooter", "bike_id": "1a9e8bb713e832c0791e3520df0b5c87", "name": "1a9e8bb713e832c0791e3520df0b5c87"}, {"lon": -77.00888033333334, "is_disabled": 0, "lat": 38.925156666666666, "fusion_lat": 0.0, "is_reserved": 0, "rental_uris": {"ios": "https://dc.lft.to/lastmile_qr_scan", "android": "https://dc.lft.to/lastmile_qr_scan"}, "fusion_lon": 0.0, "type": "electric_scooter", "bike_id": "3498ae6242a0823ff95b85a6830fc6bb", "name": "3498ae6242a0823ff95b85a6830fc6bb"}, {"lon": -77.02238616666666, "is_disabled": 0, "lat": 38.92244216666667, "fusion_lat": 0.0, "is_reserved": 0, "rental_uris": {"ios": "https://dc.lft.to/lastmile_qr_scan", "android": "https://dc.lft.to/lastmile_qr_scan"}, "fusion_lon": 0.0, "type": "electric_scooter", "bike_id": "0d0120d8bc8c236d4d6f6917e65f9e66", "name": "0d0120d8bc8c236d4d6f6917e65f9e66"}, {"lon": -77.0865685, "is_disabled": 0, "lat": 38.862504666666666, "fusion_lat": 0.0, "is_reserved": 0, "rental_uris": {"ios": "https://dc.lft.to/lastmile_qr_scan", "android": "https://dc.lft.to/lastmile_qr_scan"}, "fusion_lon": 0.0, "type": "electric_bike", "bike_id": "019a49c7f89822d1c9a7ad252b74c8c4", "name": "019a49c7f89822d1c9a7ad252b74c8c4"}, {"lon": -77.051388, "is_disabled": 0, "lat": 38.898236, "fusion_lat": 0.0, "is_reserved": 0, "rental_uris": {"ios": "https://dc.lft.to/lastmile_qr_scan", "android": "https://dc.lft.to/lastmile_qr_scan"}, "fusion_lon": 0.0, "type": "electric_scooter", "bike_id": "0b9dfd4465b593ab40922ee713b8d4ad", "name": "0b9dfd4465b593ab40922ee713b8d4ad"}, {"lon": -77.03054833333333, "is_disabled": 0, "lat": 38.923729333333334, "fusion_lat": 0.0, "is_reserved": 0, "rental_uris": {"ios": "https://dc.lft.to/lastmile_qr_scan", "android": "https://dc.lft.to/lastmile_qr_scan"}, "fusion_lon": 0.0, "type": "electric_scooter", "bike_id": "66622a3ca35dda4c80cfb07987716be9", "name": "66622a3ca35dda4c80cfb07987716be9"}, {"lon": -77.0430235, "is_disabled": 0, "lat": 38.92797783333333, "fusion_lat": 0.0, "is_reserved": 0, "rental_uris": {"ios": "https://dc.lft.to/lastmile_qr_scan", "android": "https://dc.lft.to/lastmile_qr_scan"}, "fusion_lon": 0.0, "type": "electric_scooter", "bike_id": "d3242b0544cbaf71dd9e2ebcbee94f44", "name": "d3242b0544cbaf71dd9e2ebcbee94f44"}, {"lon": -77.026396, "is_disabled": 0, "lat": 38.936581833333335, "fusion_lat": 0.0, "is_reserved": 0, "rental_uris": {"ios": "https://dc.lft.to/lastmile_qr_scan", "android": "https://dc.lft.to/lastmile_qr_scan"}, "fusion_lon": 0.0, "type": "electric_scooter", "bike_id": "3acb3f0f939e14dcbd2bab9026eea988", "name": "3acb3f0f939e14dcbd2bab9026eea988"}, {"lon": -77.00341133333333, "is_disabled": 0, "lat": 38.8951125, "fusion_lat": 0.0, "is_reserved": 0, "rental_uris": {"ios": "https://dc.lft.to/lastmile_qr_scan", "android": "https://dc.lft.to/lastmile_qr_scan"}, "fusion_lon": 0.0, "type": "electric_scooter", "bike_id": "dd5b104ad2474e8cb7f0c9ba8ae8d87c", "name": "dd5b104ad2474e8cb7f0c9ba8ae8d87c"}, {"lon": -76.99798166666666, "is_disabled": 0, "lat": 38.9509455, "fusion_lat": 0.0, "is_reserved": 0, "rental_uris": {"ios": "https://dc.lft.to/lastmile_qr_scan", "android": "https://dc.lft.to/lastmile_qr_scan"}, "fusion_lon": 0.0, "type": "electric_bike", "bike_id": "078a295f58a8ad6365aca81268ec6b51", "name": "078a295f58a8ad6365aca81268ec6b51"}, {"lon": -77.04884466666667, "is_disabled": 0, "lat": 38.90518983333333, "fusion_lat": 0.0, "is_reserved": 0, "rental_uris": {"ios": "https://dc.lft.to/lastmile_qr_scan", "android": "https://dc.lft.to/lastmile_qr_scan"}, "fusion_lon": 0.0, "type": "electric_scooter", "bike_id": "601be35037f990f563cc28924e3d8076", "name": "601be35037f990f563cc28924e3d8076"}, {"lon": -77.034726, "is_disabled": 0, "lat": 38.902502, "fusion_lat": 0.0, "is_reserved": 0, "rental_uris": {"ios": "https://dc.lft.to/lastmile_qr_scan", "android": "https://dc.lft.to/lastmile_qr_scan"}, "fusion_lon": 0.0, "type": "electric_scooter", "bike_id": "919b98adf2dddfb5e76cc84d16642b0a", "name": "919b98adf2dddfb5e76cc84d16642b0a"}, {"lon": -77.01975033333333, "is_disabled": 0, "lat": 38.935855, "fusion_lat": 0.0, "is_reserved": 0, "rental_uris": {"ios": "https://dc.lft.to/lastmile_qr_scan", "android": "https://dc.lft.to/lastmile_qr_scan"}, "fusion_lon": 0.0, "type": "electric_scooter", "bike_id": "1062a2c32aaa7ed7daa728bce75ba83e", "name": "1062a2c32aaa7ed7daa728bce75ba83e"}, {"lon": -77.0243015, "is_disabled": 0, "lat": 38.9001165, "fusion_lat": 0.0, "is_reserved": 0, "rental_uris": {"ios": "https://dc.lft.to/lastmile_qr_scan", "android": "https://dc.lft.to/lastmile_qr_scan"}, "fusion_lon": 0.0, "type": "electric_scooter", "bike_id": "456dff82790130c3b285b03bcf9f268b", "name": "456dff82790130c3b285b03bcf9f268b"}, {"lon": -77.02282716666667, "is_disabled": 0, "lat": 38.926967, "fusion_lat": 0.0, "is_reserved": 0, "rental_uris": {"ios": "https://dc.lft.to/lastmile_qr_scan", "android": "https://dc.lft.to/lastmile_qr_scan"}, "fusion_lon": 0.0, "type": "electric_scooter", "bike_id": "8e44924541674e95067145480789164e", "name": "8e44924541674e95067145480789164e"}, {"lon": -77.06060416666666, "is_disabled": 0, "lat": 38.9431105, "fusion_lat": 0.0, "is_reserved": 0, "rental_uris": {"ios": "https://dc.lft.to/lastmile_qr_scan", "android": "https://dc.lft.to/lastmile_qr_scan"}, "fusion_lon": 0.0, "type": "electric_scooter", "bike_id": "3ccca320c779a3c2835700f831a76c2f", "name": "3ccca320c779a3c2835700f831a76c2f"}, {"lon": -77.04020383333334, "is_disabled": 0, "lat": 38.903842, "fusion_lat": 0.0, "is_reserved": 0, "rental_uris": {"ios": "https://dc.lft.to/lastmile_qr_scan", "android": "https://dc.lft.to/lastmile_qr_scan"}, "fusion_lon": 0.0, "type": "electric_scooter", "bike_id": "a7bd86c3aa87ebf62d9d88b3c6a4586a", "name": "a7bd86c3aa87ebf62d9d88b3c6a4586a"}, {"lon": -76.990094, "is_disabled": 0, "lat": 38.865109, "fusion_lat": 0.0, "is_reserved": 0, "rental_uris": {"ios": "https://dc.lft.to/lastmile_qr_scan", "android": "https://dc.lft.to/lastmile_qr_scan"}, "fusion_lon": 0.0, "type": "electric_scooter", "bike_id": "0af7dc4d9879ba3c838bceb3688176f2", "name": "0af7dc4d9879ba3c838bceb3688176f2"}, {"lon": -76.994823, "is_disabled": 0, "lat": 38.86218683333333, "fusion_lat": 0.0, "is_reserved": 0, "rental_uris": {"ios": "https://dc.lft.to/lastmile_qr_scan", "android": "https://dc.lft.to/lastmile_qr_scan"}, "fusion_lon": 0.0, "type": "electric_scooter", "bike_id": "d700febddf75fdb7e3a5d1f34df5fdec", "name": "d700febddf75fdb7e3a5d1f34df5fdec"}, {"lon": -77.021922, "is_disabled": 0, "lat": 38.90983816666667, "fusion_lat": 0.0, "is_reserved": 0, "rental_uris": {"ios": "https://dc.lft.to/lastmile_qr_scan", "android": "https://dc.lft.to/lastmile_qr_scan"}, "fusion_lon": 0.0, "type": "electric_scooter", "bike_id": "cac86d5d1382f7d92f93ed00ed911186", "name": "cac86d5d1382f7d92f93ed00ed911186"}, {"lon": -77.034281, "is_disabled": 0, "lat": 38.90312516666667, "fusion_lat": 0.0, "is_reserved": 0, "rental_uris": {"ios": "https://dc.lft.to/lastmile_qr_scan", "android": "https://dc.lft.to/lastmile_qr_scan"}, "fusion_lon": 0.0, "type": "electric_scooter", "bike_id": "c3c16a83e4c3f2fbe39c03d2ee268cc0", "name": "c3c16a83e4c3f2fbe39c03d2ee268cc0"}, {"lon": -77.0036795, "is_disabled": 0, "lat": 38.87734583333334, "fusion_lat": 0.0, "is_reserved": 0, "rental_uris": {"ios": "https://dc.lft.to/lastmile_qr_scan", "android": "https://dc.lft.to/lastmile_qr_scan"}, "fusion_lon": 0.0, "type": "electric_scooter", "bike_id": "e0d801764ac35269a81d03475ed6b02c", "name": "e0d801764ac35269a81d03475ed6b02c"}, {"lon": -77.00071633333333, "is_disabled": 0, "lat": 38.90053533333333, "fusion_lat": 0.0, "is_reserved": 0, "rental_uris": {"ios": "https://dc.lft.to/lastmile_qr_scan", "android": "https://dc.lft.to/lastmile_qr_scan"}, "fusion_lon": 0.0, "type": "electric_scooter", "bike_id": "8f5d1bffeea7435128c5abe4f039d2d0", "name": "8f5d1bffeea7435128c5abe4f039d2d0"}, {"lon": -77.0387475, "is_disabled": 0, "lat": 38.9028885, "fusion_lat": 0.0, "is_reserved": 0, "rental_uris": {"ios": "https://dc.lft.to/lastmile_qr_scan", "android": "https://dc.lft.to/lastmile_qr_scan"}, "fusion_lon": 0.0, "type": "electric_scooter", "bike_id": "b414f3e2f048d7165854aa7e7164da63", "name": "b414f3e2f048d7165854aa7e7164da63"}, {"lon": -77.04513783333333, "is_disabled": 0, "lat": 38.90374533333333, "fusion_lat": 0.0, "is_reserved": 0, "rental_uris": {"ios": "https://dc.lft.to/lastmile_qr_scan", "android": "https://dc.lft.to/lastmile_qr_scan"}, "fusion_lon": 0.0, "type": "electric_scooter", "bike_id": "d81bed24191c264b1eb4b918c3a6f64b", "name": "d81bed24191c264b1eb4b918c3a6f64b"}, {"lon": -77.05261266666666, "is_disabled": 0, "lat": 38.92787233333333, "fusion_lat": 0.0, "is_reserved": 0, "rental_uris": {"ios": "https://dc.lft.to/lastmile_qr_scan", "android": "https://dc.lft.to/lastmile_qr_scan"}, "fusion_lon": 0.0, "type": "electric_scooter", "bike_id": "f886cee25ce421e68962faf2921c5f87", "name": "f886cee25ce421e68962faf2921c5f87"}, {"lon": -77.04343216666666, "is_disabled": 0, "lat": 38.90365533333333, "fusion_lat": 0.0, "is_reserved": 0, "rental_uris": {"ios": "https://dc.lft.to/lastmile_qr_scan", "android": "https://dc.lft.to/lastmile_qr_scan"}, "fusion_lon": 0.0, "type": "electric_scooter", "bike_id": "062e3e8672b4ca973682019edc0ab54a", "name": "062e3e8672b4ca973682019edc0ab54a"}, {"lon": -77.0169135, "is_disabled": 0, "lat": 38.920503833333335, "fusion_lat": 0.0, "is_reserved": 0, "rental_uris": {"ios": "https://dc.lft.to/lastmile_qr_scan", "android": "https://dc.lft.to/lastmile_qr_scan"}, "fusion_lon": 0.0, "type": "electric_scooter", "bike_id": "bcdbc4450a341323c85b9d705f894375", "name": "bcdbc4450a341323c85b9d705f894375"}, {"lon": -77.028865, "is_disabled": 0, "lat": 38.91275783333333, "fusion_lat": 0.0, "is_reserved": 0, "rental_uris": {"ios": "https://dc.lft.to/lastmile_qr_scan", "android": "https://dc.lft.to/lastmile_qr_scan"}, "fusion_lon": 0.0, "type": "electric_scooter", "bike_id": "6fdf6cae07da8fdb26ca9fbc18634b99", "name": "6fdf6cae07da8fdb26ca9fbc18634b99"}, {"lon": -77.01683, "is_disabled": 0, "lat": 38.9204735, "fusion_lat": 0.0, "is_reserved": 0, "rental_uris": {"ios": "https://dc.lft.to/lastmile_qr_scan", "android": "https://dc.lft.to/lastmile_qr_scan"},