{"data": {"bikes": [{"bike_id": "dd54f90304441e0d156c6b43f3338e3f", "type": "electric_scooter", "is_disabled": 0, "lat": 38.90217633333334, "rental_uris": {"ios": "https://dc.lft.to/lastmile_qr_scan", "android": "https://dc.lft.to/lastmile_qr_scan"}, "is_reserved": 0, "fusion_lon": 0.0, "fusion_lat": 0.0, "lon": -77.02212966666667, "name": "dd54f90304441e0d156c6b43f3338e3f"}, {"bike_id": "d50bc47133e9ecffc2174979a3fc4c2f", "type": "electric_scooter", "is_disabled": 0, "lat": 38.905029, "rental_uris": {"ios": "https://dc.lft.to/lastmile_qr_scan", "android": "https://dc.lft.to/lastmile_qr_scan"}, "is_reserved": 0, "fusion_lon": 0.0, "fusion_lat": 0.0, "lon": -77.03855166666666, "name": "d50bc47133e9ecffc2174979a3fc4c2f"}, {"bike_id": "7b3e8dbf464e516be2e0b197dd2f64c5", "type": "electric_scooter", "is_disabled": 0, "lat": 38.9107095, "rental_uris": {"ios": "https://dc.lft.to/lastmile_qr_scan", "android": "https://dc.lft.to/lastmile_qr_scan"}, "is_reserved": 0, "fusion_lon": 0.0, "fusion_lat": 0.0, "lon": -77.0372685, "name": "7b3e8dbf464e516be2e0b197dd2f64c5"}, {"bike_id": "ac8a8ea970030edaf4d5b6f19a43b00a", "type": "electric_scooter", "is_disabled": 0, "lat": 38.93635416666667, "rental_uris": {"ios": "https://dc.lft.to/lastmile_qr_scan", "android": "https://dc.lft.to/lastmile_qr_scan"}, "is_reserved": 0, "fusion_lon": 0.0, "fusion_lat": 0.0, "lon": -77.05882483333333, "name": "ac8a8ea970030edaf4d5b6f19a43b00a"}, {"bike_id": "2b812750e399420239b29037411bc409", "type": "electric_scooter", "is_disabled": 0, "lat": 38.900008166666666, "rental_uris": {"ios": "https://dc.lft.to/lastmile_qr_scan", "android": "https://dc.lft.to/lastmile_qr_scan"}, "is_reserved": 0, "fusion_lon": 0.0, "fusion_lat": 0.0, "lon": -77.05333033333334, "name": "2b812750e399420239b29037411bc409"}, {"bike_id": "92f5e6b4c75aa32e28cf5ff3b9d1dff9", "type": "electric_scooter", "is_disabled": 0, "lat": 38.916925, "rental_uris": {"ios": "https://dc.lft.to/lastmile_qr_scan", "android": "https://dc.lft.to/lastmile_qr_scan"}, "is_reserved": 0, "fusion_lon": 0.0, "fusion_lat": 0.0, "lon": -77.03131916666666, "name": "92f5e6b4c75aa32e28cf5ff3b9d1dff9"}, {"bike_id": "975278ab579e349ca7ef088a37d80338", "type": "electric_scooter", "is_disabled": 0, "lat": 38.942095, "rental_uris": {"ios": "https://dc.lft.to/lastmile_qr_scan", "android": "https://dc.lft.to/lastmile_qr_scan"}, "is_reserved": 0, "fusion_lon": 0.0, "fusion_lat": 0.0, "lon": -77.0258105, "name": "975278ab579e349ca7ef088a37d80338"}, {"bike_id": "67c26c86d5f018e3f3460e60e3264fbf", "type": "electric_scooter", "is_disabled": 0, "lat": 38.90637666666667, "rental_uris": {"ios": "https://dc.lft.to/lastmile_qr_scan", "android": "https://dc.lft.to/lastmile_qr_scan"}, "is_reserved": 0, "fusion_lon": 0.0, "fusion_lat": 0.0, "lon": -77.01428566666667, "name": "67c26c86d5f018e3f3460e60e3264fbf"}, {"bike_id": "bce8b5b8709628120f741f87f382ccef", "type": "electric_scooter", "is_disabled": 0, "lat": 38.91936116666667, "rental_uris": {"ios": "https://dc.lft.to/lastmile_qr_scan", "android": "https://dc.lft.to/lastmile_qr_scan"}, "is_reserved": 0, "fusion_lon": 0.0, "fusion_lat": 0.0, "lon": -77.0137475, "name": "bce8b5b8709628120f741f87f382ccef"}, {"bike_id": "585c13ed98a65496fffb823141023904", "type": "electric_scooter", "is_disabled": 0, "lat": 38.8922545, "rental_uris": {"ios": "https://dc.lft.to/lastmile_qr_scan", "android": "https://dc.lft.to/lastmile_qr_scan"}, "is_reserved": 0, "fusion_lon": 0.0, "fusion_lat": 0.0, "lon": -77.04859733333333, "name": "585c13ed98a65496fffb823141023904"}, {"bike_id": "d21fd2448438409d7826e1f734b87a95", "type": "electric_bike", "is_disabled": 0, "lat": 38.85789333333334, "rental_uris": {"ios": "https://dc.lft.to/lastmile_qr_scan", "android": "https://dc.lft.to/lastmile_qr_scan"}, "is_reserved": 0, "fusion_lon": 0.0, "fusion_lat": 0.0, "lon": -77.09959316666666, "name": "d21fd2448438409d7826e1f734b87a95"}, {"bike_id": "49be5028580eb8de70fc25919051782c", "type": "electric_bike", "is_disabled": 0, "lat": 38.873015333333335, "rental_uris": {"ios": "https://dc.lft.to/lastmile_qr_scan", "android": "https://dc.lft.to/lastmile_qr_scan"}, "is_reserved": 0, "fusion_lon": 0.0, "fusion_lat": 0.0, "lon": -77.13923083333333, "name": "49be5028580eb8de70fc25919051782c"}, {"bike_id": "1ef27c9eda01e864116287c0d34df754", "type": "electric_scooter", "is_disabled": 0, "lat": 38.932704666666666, "rental_uris": {"ios": "https://dc.lft.to/lastmile_qr_scan", "android": "https://dc.lft.to/lastmile_qr_scan"}, "is_reserved": 0, "fusion_lon": 0.0, "fusion_lat": 0.0, "lon": -77.04534183333334, "name": "1ef27c9eda01e864116287c0d34df754"}, {"bike_id": "45f7c707b6d62794d04a73ed40449760", "type": "electric_scooter", "is_disabled": 0, "lat": 38.91634166666667, "rental_uris": {"ios": "https://dc.lft.to/lastmile_qr_scan", "android": "https://dc.lft.to/lastmile_qr_scan"}, "is_reserved": 0, "fusion_lon": 0.0, "fusion_lat": 0.0, "lon": -77.0254865, "name": "45f7c707b6d62794d04a73ed40449760"}, {"bike_id": "6ba26a343ea45907cad6f1fd6d924829", "type": "electric_scooter", "is_disabled": 0, "lat": 38.877852833333336, "rental_uris": {"ios": "https://dc.lft.to/lastmile_qr_scan", "android": "https://dc.lft.to/lastmile_qr_scan"}, "is_reserved": 0, "fusion_lon": 0.0, "fusion_lat": 0.0, "lon": -77.0173855, "name": "6ba26a343ea45907cad6f1fd6d924829"}, {"bike_id": "e2fe304271c49013b8aed82048bd6feb", "type": "electric_scooter", "is_disabled": 0, "lat": 38.919905666666665, "rental_uris": {"ios": "https://dc.lft.to/lastmile_qr_scan", "android": "https://dc.lft.to/lastmile_qr_scan"}, "is_reserved": 0, "fusion_lon": 0.0, "fusion_lat": 0.0, "lon": -77.03263583333333, "name": "e2fe304271c49013b8aed82048bd6feb"}, {"bike_id": "5f178ae95c1c813da49c6857dc3df776", "type": "electric_scooter", "is_disabled": 0, "lat": 38.900776666666665, "rental_uris": {"ios": "https://dc.lft.to/lastmile_qr_scan", "android": "https://dc.lft.to/lastmile_qr_scan"}, "is_reserved": 0, "fusion_lon": 0.0, "fusion_lat": 0.0, "lon": -77.00916616666666, "name": "5f178ae95c1c813da49c6857dc3df776"}, {"bike_id": "0deec118cd4ce3a1c38d668741212106", "type": "electric_scooter", "is_disabled": 0, "lat": 38.91486316666666, "rental_uris": {"ios": "https://dc.lft.to/lastmile_qr_scan", "android": "https://dc.lft.to/lastmile_qr_scan"}, "is_reserved": 0, "fusion_lon": 0.0, "fusion_lat": 0.0, "lon": -76.983842, "name": "0deec118cd4ce3a1c38d668741212106"}, {"bike_id": "a692b938d5ea51524cc6e526796f87e8", "type": "electric_scooter", "is_disabled": 0, "lat": 38.92257633333333, "rental_uris": {"ios": "https://dc.lft.to/lastmile_qr_scan", "android": "https://dc.lft.to/lastmile_qr_scan"}, "is_reserved": 0, "fusion_lon": 0.0, "fusion_lat": 0.0, "lon": -77.03874666666667, "name": "a692b938d5ea51524cc6e526796f87e8"}, {"bike_id": "e751132dbcf438eb47c790e5f96164ca", "type": "electric_scooter", "is_disabled": 0, "lat": 38.9101915, "rental_uris": {"ios": "https://dc.lft.to/lastmile_qr_scan", "android": "https://dc.lft.to/lastmile_qr_scan"}, "is_reserved": 0, "fusion_lon": 0.0, "fusion_lat": 0.0, "lon": -77.03663533333334, "name": "e751132dbcf438eb47c790e5f96164ca"}, {"bike_id": "a42d6d34ab20e3f02d5c6cf530b4ed32", "type": "electric_scooter", "is_disabled": 0, "lat": 38.90386816666667, "rental_uris": {"ios": "https://dc.lft.to/lastmile_qr_scan", "android": "https://dc.lft.to/lastmile_qr_scan"}, "is_reserved": 0, "fusion_lon": 0.0, "fusion_lat": 0.0, "lon": -76.98196783333333, "name": "a42d6d34ab20e3f02d5c6cf530b4ed32"}, {"bike_id": "0fab247fe9e636d51d516a5c7ce2a91f", "type": "electric_scooter", "is_disabled": 0, "lat": 38.915496166666664, "rental_uris": {"ios": "https://dc.lft.to/lastmile_qr_scan", "android": "https://dc.lft.to/lastmile_qr_scan"}, "is_reserved": 0, "fusion_lon": 0.0, "fusion_lat": 0.0, "lon": -77.02276466666666, "name": "0fab247fe9e636d51d516a5c7ce2a91f"}, {"bike_id": "e821fc71292185ce5ac1da54642a9b11", "type": "electric_scooter", "is_disabled": 0, "lat": 38.90549383333333, "rental_uris": {"ios": "https://dc.lft.to/lastmile_qr_scan", "android": "https://dc.lft.to/lastmile_qr_scan"}, "is_reserved": 0, "fusion_lon": 0.0, "fusion_lat": 0.0, "lon": -77.00620883333333, "name": "e821fc71292185ce5ac1da54642a9b11"}, {"bike_id": "789e13d7d8acd6582668542a2630cde7", "type": "electric_scooter", "is_disabled": 0, "lat": 38.90978033333333, "rental_uris": {"ios": "https://dc.lft.to/lastmile_qr_scan", "android": "https://dc.lft.to/lastmile_qr_scan"}, "is_reserved": 0, "fusion_lon": 0.0, "fusion_lat": 0.0, "lon": -77.03938216666667, "name": "789e13d7d8acd6582668542a2630cde7"}, {"bike_id": "5eb3c9a5213134f9e98e54dc5ef7dcd5", "type": "electric_scooter", "is_disabled": 0, "lat": 38.932618833333336, "rental_uris": {"ios": "https://dc.lft.to/lastmile_qr_scan", "android": "https://dc.lft.to/lastmile_qr_scan"}, "is_reserved": 0, "fusion_lon": 0.0, "fusion_lat": 0.0, "lon": -77.0325925, "name": "5eb3c9a5213134f9e98e54dc5ef7dcd5"}, {"bike_id": "afba3e8329cc925d71ce96cc2d8c875b", "type": "electric_scooter", "is_disabled": 0, "lat": 38.895407666666664, "rental_uris": {"ios": "https://dc.lft.to/lastmile_qr_scan", "android": "https://dc.lft.to/lastmile_qr_scan"}, "is_reserved": 0, "fusion_lon": 0.0, "fusion_lat": 0.0, "lon": -76.94943583333334, "name": "afba3e8329cc925d71ce96cc2d8c875b"}, {"bike_id": "431a5a2be4cc06b7d31a360666f145a4", "type": "electric_scooter", "is_disabled": 0, "lat": 38.89982583333333, "rental_uris": {"ios": "https://dc.lft.to/lastmile_qr_scan", "android": "https://dc.lft.to/lastmile_qr_scan"}, "is_reserved": 0, "fusion_lon": 0.0, "fusion_lat": 0.0, "lon": -77.0066875, "name": "431a5a2be4cc06b7d31a360666f145a4"}, {"bike_id": "a055ed2139476dc9cfe34bb1babb3802", "type": "electric_scooter", "is_disabled": 0, "lat": 38.897968, "rental_uris": {"ios": "https://dc.lft.to/lastmile_qr_scan", "android": "https://dc.lft.to/lastmile_qr_scan"}, "is_reserved": 0, "fusion_lon": 0.0, "fusion_lat": 0.0, "lon": -77.01193433333333, "name": "a055ed2139476dc9cfe34bb1babb3802"}, {"bike_id": "65ad4a3409e8aad294abd8d09a39ffec", "type": "electric_scooter", "is_disabled": 0, "lat": 38.91594966666667, "rental_uris": {"ios": "https://dc.lft.to/lastmile_qr_scan", "android": "https://dc.lft.to/lastmile_qr_scan"}, "is_reserved": 0, "fusion_lon": 0.0, "fusion_lat": 0.0, "lon": -77.01221566666666, "name": "65ad4a3409e8aad294abd8d09a39ffec"}, {"bike_id": "b59159cc10b8866f84f4da3a73500d4a", "type": "electric_scooter", "is_disabled": 0, "lat": 38.919269666666665, "rental_uris": {"ios": "https://dc.lft.to/lastmile_qr_scan", "android": "https://dc.lft.to/lastmile_qr_scan"}, "is_reserved": 0, "fusion_lon": 0.0, "fusion_lat": 0.0, "lon": -77.04487216666666, "name": "b59159cc10b8866f84f4da3a73500d4a"}, {"bike_id": "3dec007c56f1dbb3e44cdd347ba33c06", "type": "electric_scooter", "is_disabled": 0, "lat": 38.92440833333333, "rental_uris": {"ios": "https://dc.lft.to/lastmile_qr_scan", "android": "https://dc.lft.to/lastmile_qr_scan"}, "is_reserved": 0, "fusion_lon": 0.0, "fusion_lat": 0.0, "lon": -77.0410115, "name": "3dec007c56f1dbb3e44cdd347ba33c06"}, {"bike_id": "b781f75a034b122ece7c192bad0fe90f", "type": "electric_scooter", "is_disabled": 0, "lat": 38.9053925, "rental_uris": {"ios": "https://dc.lft.to/lastmile_qr_scan", "android": "https://dc.lft.to/lastmile_qr_scan"}, "is_reserved": 0, "fusion_lon": 0.0, "fusion_lat": 0.0, "lon": -77.00613666666666, "name": "b781f75a034b122ece7c192bad0fe90f"}, {"bike_id": "ba8be1d15d4c248a05cc38b4b7f4bf99", "type": "electric_scooter", "is_disabled": 0, "lat": 38.92739233333333, "rental_uris": {"ios": "https://dc.lft.to/lastmile_qr_scan", "android": "https://dc.lft.to/lastmile_qr_scan"}, "is_reserved": 0, "fusion_lon": 0.0, "fusion_lat": 0.0, "lon": -77.03559316666667, "name": "ba8be1d15d4c248a05cc38b4b7f4bf99"}, {"bike_id": "14542bba3fd49f6b5e8674613f6a1b2d", "type": "electric_bike", "is_disabled": 0, "lat": 38.863303333333334, "rental_uris": {"ios": "https://dc.lft.to/lastmile_qr_scan", "android": "https://dc.lft.to/lastmile_qr_scan"}, "is_reserved": 0, "fusion_lon": 0.0, "fusion_lat": 0.0, "lon": -76.98719433333333, "name": "14542bba3fd49f6b5e8674613f6a1b2d"}, {"bike_id": "9c5913d0b24de5410b6dde5085e61e41", "type": "electric_scooter", "is_disabled": 0, "lat": 38.92937366666666, "rental_uris": {"ios": "https://dc.lft.to/lastmile_qr_scan", "android": "https://dc.lft.to/lastmile_qr_scan"}, "is_reserved": 0, "fusion_lon": 0.0, "fusion_lat": 0.0, "lon": -77.0198775, "name": "9c5913d0b24de5410b6dde5085e61e41"}, {"bike_id": "205b89e9c30d43b64a762103ad495f86", "type": "electric_scooter", "is_disabled": 0, "lat": 38.902896166666665, "rental_uris": {"ios": "https://dc.lft.to/lastmile_qr_scan", "android": "https://dc.lft.to/lastmile_qr_scan"}, "is_reserved": 0, "fusion_lon": 0.0, "fusion_lat": 0.0, "lon": -77.0032245, "name": "205b89e9c30d43b64a762103ad495f86"}, {"bike_id": "3142018939d04f58b4b311220904d704", "type": "electric_scooter", "is_disabled": 0, "lat": 38.85893216666667, "rental_uris": {"ios": "https://dc.lft.to/lastmile_qr_scan", "android": "https://dc.lft.to/lastmile_qr_scan"}, "is_reserved": 0, "fusion_lon": 0.0, "fusion_lat": 0.0, "lon": -76.997241, "name": "3142018939d04f58b4b311220904d704"}, {"bike_id": "532898b4d2b53bd57cd422d3e546b2cb", "type": "electric_scooter", "is_disabled": 0, "lat": 38.918494333333335, "rental_uris": {"ios": "https://dc.lft.to/lastmile_qr_scan", "android": "https://dc.lft.to/lastmile_qr_scan"}, "is_reserved": 0, "fusion_lon": 0.0, "fusion_lat": 0.0, "lon": -77.03881533333333, "name": "532898b4d2b53bd57cd422d3e546b2cb"}, {"bike_id": "af478e8c5c1eb5340f3b55e5349470c6", "type": "electric_scooter", "is_disabled": 0, "lat": 38.91639516666667, "rental_uris": {"ios": "https://dc.lft.to/lastmile_qr_scan", "android": "https://dc.lft.to/lastmile_qr_scan"}, "is_reserved": 0, "fusion_lon": 0.0, "fusion_lat": 0.0, "lon": -77.03965716666667, "name": "af478e8c5c1eb5340f3b55e5349470c6"}, {"bike_id": "2cc389ed5aa9aa8fb5c4317f10721234", "type": "electric_scooter", "is_disabled": 0, "lat": 38.88970483333333, "rental_uris": {"ios": "https://dc.lft.to/lastmile_qr_scan", "android": "https://dc.lft.to/lastmile_qr_scan"}, "is_reserved": 0, "fusion_lon": 0.0, "fusion_lat": 0.0, "lon": -76.98244716666666, "name": "2cc389ed5aa9aa8fb5c4317f10721234"}, {"bike_id": "14a7607f6cb8d213758603525f65b776", "type": "electric_scooter", "is_disabled": 0, "lat": 38.91191833333333, "rental_uris": {"ios": "https://dc.lft.to/lastmile_qr_scan", "android": "https://dc.lft.to/lastmile_qr_scan"}, "is_reserved": 0, "fusion_lon": 0.0, "fusion_lat": 0.0, "lon": -77.00386, "name": "14a7607f6cb8d213758603525f65b776"}, {"bike_id": "1939b0680676e43ac973004d75907541", "type": "electric_scooter", "is_disabled": 0, "lat": 38.9317295, "rental_uris": {"ios": "https://dc.lft.to/lastmile_qr_scan", "android": "https://dc.lft.to/lastmile_qr_scan"}, "is_reserved": 0, "fusion_lon": 0.0, "fusion_lat": 0.0, "lon": -77.02812066666667, "name": "1939b0680676e43ac973004d75907541"}, {"bike_id": "4600cc116aa0a42825e5545afc236203", "type": "electric_scooter", "is_disabled": 0, "lat": 38.8998515, "rental_uris": {"ios": "https://dc.lft.to/lastmile_qr_scan", "android": "https://dc.lft.to/lastmile_qr_scan"}, "is_reserved": 0, "fusion_lon": 0.0, "fusion_lat": 0.0, "lon": -76.94997533333333, "name": "4600cc116aa0a42825e5545afc236203"}, {"bike_id": "b8d4ebac4cd317ef17a723412342d85d", "type": "electric_scooter", "is_disabled": 0, "lat": 38.93880466666667, "rental_uris": {"ios": "https://dc.lft.to/lastmile_qr_scan", "android": "https://dc.lft.to/lastmile_qr_scan"}, "is_reserved": 0, "fusion_lon": 0.0, "fusion_lat": 0.0, "lon": -77.02482016666667, "name": "b8d4ebac4cd317ef17a723412342d85d"}, {"bike_id": "6c6cc025cd0b68f89eb629c0cee671cb", "type": "electric_scooter", "is_disabled": 0, "lat": 38.89344583333333, "rental_uris": {"ios": "https://dc.lft.to/lastmile_qr_scan", "android": "https://dc.lft.to/lastmile_qr_scan"}, "is_reserved": 0, "fusion_lon": 0.0, "fusion_lat": 0.0, "lon": -76.99381083333333, "name": "6c6cc025cd0b68f89eb629c0cee671cb"}, {"bike_id": "ffdea5919bb01f3b2d18494d8cd49d9b", "type": "electric_scooter", "is_disabled": 0, "lat": 38.92143316666667, "rental_uris": {"ios": "https://dc.lft.to/lastmile_qr_scan", "android": "https://dc.lft.to/lastmile_qr_scan"}, "is_reserved": 0, "fusion_lon": 0.0, "fusion_lat": 0.0, "lon": -77.03379916666667, "name": "ffdea5919bb01f3b2d18494d8cd49d9b"}, {"bike_id": "966e59b3302a4149d292d3887c096cd3", "type": "electric_scooter", "is_disabled": 0, "lat": 38.918230666666666, "rental_uris": {"ios": "https://dc.lft.to/lastmile_qr_scan", "android": "https://dc.lft.to/lastmile_qr_scan"}, "is_reserved": 0, "fusion_lon": 0.0, "fusion_lat": 0.0, "lon": -77.01204316666667, "name": "966e59b3302a4149d292d3887c096cd3"}, {"bike_id": "ee1d14ca7b46c330387b37c8ad1bcde5", "type": "electric_bike", "is_disabled": 0, "lat": 38.83672083333333, "rental_uris": {"ios": "https://dc.lft.to/lastmile_qr_scan", "android": "https://dc.lft.to/lastmile_qr_scan"}, "is_reserved": 0, "fusion_lon": 0.0, "fusion_lat": 0.0, "lon": -76.993608, "name": "ee1d14ca7b46c330387b37c8ad1bcde5"}, {"bike_id": "21d938459b96dfa394a18d4d4aad6d07", "type": "electric_scooter", "is_disabled": 0, "lat": 38.907307833333334, "rental_uris": {"ios": "https://dc.lft.to/lastmile_qr_scan", "android": "https://dc.lft.to/lastmile_qr_scan"}, "is_reserved": 0, "fusion_lon": 0.0, "fusion_lat": 0.0, "lon": -77.029713, "name": "21d938459b96dfa394a18d4d4aad6d07"}, {"bike_id": "4e64be0e4172f8aac04c1017c6f4c1f1", "type": "electric_scooter", "is_disabled": 0, "lat": 38.91874966666666, "rental_uris": {"ios": "https://dc.lft.to/lastmile_qr_scan", "android": "https://dc.lft.to/lastmile_qr_scan"}, "is_reserved": 0, "fusion_lon": 0.0, "fusion_lat": 0.0, "lon": -77.02950616666666, "name": "4e64be0e4172f8aac04c1017c6f4c1f1"}, {"bike_id": "44098b002b2f7a96c547f4fa0d38f408", "type": "electric_scooter", "is_disabled": 0, "lat": 38.92459066666667, "rental_uris": {"ios": "https://dc.lft.to/lastmile_qr_scan", "android": "https://dc.lft.to/lastmile_qr_scan"}, "is_reserved": 0, "fusion_lon": 0.0, "fusion_lat": 0.0, "lon": -77.0295925, "name": "44098b002b2f7a96c547f4fa0d38f408"}, {"bike_id": "799ef5ea1758b63c7220c56999efb8b9", "type": "electric_scooter", "is_disabled": 0, "lat": 38.935373166666665, "rental_uris": {"ios": "https://dc.lft.to/lastmile_qr_scan", "android": "https://dc.lft.to/lastmile_qr_scan"}, "is_reserved": 0, "fusion_lon": 0.0, "fusion_lat": 0.0, "lon": -77.0583155, "name": "799ef5ea1758b63c7220c56999efb8b9"}, {"bike_id": "032b79650eec99af6481c06159327cdd", "type": "electric_scooter", "is_disabled": 0, "lat": 38.906427666666666, "rental_uris": {"ios": "https://dc.lft.to/lastmile_qr_scan", "android": "https://dc.lft.to/lastmile_qr_scan"}, "is_reserved": 0, "fusion_lon": 0.0, "fusion_lat": 0.0, "lon": -77.01728583333333, "name": "032b79650eec99af6481c06159327cdd"}, {"bike_id": "f42952ba8e10e43e59d0952ac56d5169", "type": "electric_scooter", "is_disabled": 0, "lat": 38.93477883333333, "rental_uris": {"ios": "https://dc.lft.to/lastmile_qr_scan", "android": "https://dc.lft.to/lastmile_qr_scan"}, "is_reserved": 0, "fusion_lon": 0.0, "fusion_lat": 0.0, "lon": -77.02611333333333, "name": "f42952ba8e10e43e59d0952ac56d5169"}, {"bike_id": "f3b619123cb8eb2bbc23b5048f0558f4", "type": "electric_bike", "is_disabled": 0, "lat": 38.88171466666667, "rental_uris": {"ios": "https://dc.lft.to/lastmile_qr_scan", "android": "https://dc.lft.to/lastmile_qr_scan"}, "is_reserved": 0, "fusion_lon": 0.0, "fusion_lat": 0.0, "lon": -77.1146115, "name": "f3b619123cb8eb2bbc23b5048f0558f4"}, {"bike_id": "cc17ec6a84c985c6a47f3bcc49a4e12a", "type": "electric_scooter", "is_disabled": 0, "lat": 38.9008505, "rental_uris": {"ios": "https://dc.lft.to/lastmile_qr_scan", "android": "https://dc.lft.to/lastmile_qr_scan"}, "is_reserved": 0, "fusion_lon": 0.0, "fusion_lat": 0.0, "lon": -77.04766666666667, "name": "cc17ec6a84c985c6a47f3bcc49a4e12a"}, {"bike_id": "5b4c15d5db7d1d49b67a3ec06ef38bd7", "type": "electric_scooter", "is_disabled": 0, "lat": 38.91243516666667, "rental_uris": {"ios": "https://dc.lft.to/lastmile_qr_scan", "android": "https://dc.lft.to/lastmile_qr_scan"}, "is_reserved": 0, "fusion_lon": 0.0, "fusion_lat": 0.0, "lon": -77.03863166666666, "name": "5b4c15d5db7d1d49b67a3ec06ef38bd7"}, {"bike_id": "2cc6b6cfa405de250c1f5bb05ffe2529", "type": "electric_scooter", "is_disabled": 0, "lat": 38.90430966666667, "rental_uris": {"ios": "https://dc.lft.to/lastmile_qr_scan", "android": "https://dc.lft.to/lastmile_qr_scan"}, "is_reserved": 0, "fusion_lon": 0.0, "fusion_lat": 0.0, "lon": -77.03458783333333, "name": "2cc6b6cfa405de250c1f5bb05ffe2529"}, {"bike_id": "28b97f3600be1c8fe60c25dae8037045", "type": "electric_scooter", "is_disabled": 0, "lat": 38.9007355, "rental_uris": {"ios": "https://dc.lft.to/lastmile_qr_scan", "android": "https://dc.lft.to/lastmile_qr_scan"}, "is_reserved": 0, "fusion_lon": 0.0, "fusion_lat": 0.0, "lon": -77.0308, "name": "28b97f3600be1c8fe60c25dae8037045"}, {"bike_id": "72482af1210d30a672737b2191964026", "type": "electric_bike", "is_disabled": 0, "lat": 38.9244525, "rental_uris": {"ios": "https://dc.lft.to/lastmile_qr_scan", "android": "https://dc.lft.to/lastmile_qr_scan"}, "is_reserved": 0, "fusion_lon": 0.0, "fusion_lat": 0.0, "lon": -77.22563766666667, "name": "72482af1210d30a672737b2191964026"}, {"bike_id": "cd1c1aad92fd58dcb012061bb851f552", "type": "electric_scooter", "is_disabled": 0, "lat": 38.91401916666667, "rental_uris": {"ios": "https://dc.lft.to/lastmile_qr_scan", "android": "https://dc.lft.to/lastmile_qr_scan"}, "is_reserved": 0, "fusion_lon": 0.0, "fusion_lat": 0.0, "lon": -77.03154966666666, "name": "cd1c1aad92fd58dcb012061bb851f552"}, {"bike_id": "96a5bee91a11ef7b5c44cb060eb01878", "type": "electric_bike", "is_disabled": 0, "lat": 38.870805, "rental_uris": {"ios": "https://dc.lft.to/lastmile_qr_scan", "android": "https://dc.lft.to/lastmile_qr_scan"}, "is_reserved": 0, "fusion_lon": 0.0, "fusion_lat": 0.0, "lon": -77.01209183333333, "name": "96a5bee91a11ef7b5c44cb060eb01878"}, {"bike_id": "7549393f8ea895b4b2e30f97193399f6", "type": "electric_bike", "is_disabled": 0, "lat": 38.80755033333333, "rental_uris": {"ios": "https://dc.lft.to/lastmile_qr_scan", "android": "https://dc.lft.to/lastmile_qr_scan"}, "is_reserved": 0, "fusion_lon": 0.0, "fusion_lat": 0.0, "lon": -77.09450766666667, "name": "7549393f8ea895b4b2e30f97193399f6"}, {"bike_id": "b5d55bc569f86f17664ba22eb8119892", "type": "electric_scooter", "is_disabled": 0, "lat": 38.89527016666667, "rental_uris": {"ios": "https://dc.lft.to/lastmile_qr_scan", "android": "https://dc.lft.to/lastmile_qr_scan"}, "is_reserved": 0, "fusion_lon": 0.0, "fusion_lat": 0.0, "lon": -77.0108185, "name": "b5d55bc569f86f17664ba22eb8119892"}, {"bike_id": "f4b861be03bf6fc62abd11a632f83f5e", "type": "electric_scooter", "is_disabled": 0, "lat": 38.903659166666664, "rental_uris": {"ios": "https://dc.lft.to/lastmile_qr_scan", "android": "https://dc.lft.to/lastmile_qr_scan"}, "is_reserved": 0, "fusion_lon": 0.0, "fusion_lat": 0.0, "lon": -77.02941383333334, "name": "f4b861be03bf6fc62abd11a632f83f5e"}, {"bike_id": "ebbbd8c16173d77d31650b63425ceb0f", "type": "electric_bike", "is_disabled": 0, "lat": 38.95235066666667, "rental_uris": {"ios": "https://dc.lft.to/lastmile_qr_scan", "android": "https://dc.lft.to/lastmile_qr_scan"}, "is_reserved": 0, "fusion_lon": 0.0, "fusion_lat": 0.0, "lon": -77.007623, "name": "ebbbd8c16173d77d31650b63425ceb0f"}, {"bike_id": "180479027a3ff398f501206fa7b011dd", "type": "electric_scooter", "is_disabled": 0, "lat": 38.8893385, "rental_uris": {"ios": "https://dc.lft.to/lastmile_qr_scan", "android": "https://dc.lft.to/lastmile_qr_scan"}, "is_reserved": 0, "fusion_lon": 0.0, "fusion_lat": 0.0, "lon": -77.01502433333333, "name": "180479027a3ff398f501206fa7b011dd"}, {"bike_id": "f16c58795e1ccbd274bd8d0873950413", "type": "electric_scooter", "is_disabled": 0, "lat": 38.9049355, "rental_uris": {"ios": "https://dc.lft.to/lastmile_qr_scan", "android": "https://dc.lft.to/lastmile_qr_scan"}, "is_reserved": 0, "fusion_lon": 0.0, "fusion_lat": 0.0, "lon": -77.01998233333333, "name": "f16c58795e1ccbd274bd8d0873950413"}, {"bike_id": "6205ee81d9f3e13fbf78ea1eefe6a014", "type": "electric_scooter", "is_disabled": 0, "lat": 38.923397666666666, "rental_uris": {"ios": "https://dc.lft.to/lastmile_qr_scan", "android": "https://dc.lft.to/lastmile_qr_scan"}, "is_reserved": 0, "fusion_lon": 0.0, "fusion_lat": 0.0, "lon": -77.00189416666667, "name": "6205ee81d9f3e13fbf78ea1eefe6a014"}, {"bike_id": "400e7bb8eebb871ec8d98bf0514d4e50", "type": "electric_scooter", "is_disabled": 0, "lat": 38.93637016666667, "rental_uris": {"ios": "https://dc.lft.to/lastmile_qr_scan", "android": "https://dc.lft.to/lastmile_qr_scan"}, "is_reserved": 0, "fusion_lon": 0.0, "fusion_lat": 0.0, "lon": -77.05883683333333, "name": "400e7bb8eebb871ec8d98bf0514d4e50"}, {"bike_id": "638e4a8441b5ffcaef7880d03501b052", "type": "electric_scooter", "is_disabled": 0, "lat": 38.871070833333334, "rental_uris": {"ios": "https://dc.lft.to/lastmile_qr_scan", "android": "https://dc.lft.to/lastmile_qr_scan"}, "is_reserved": 0, "fusion_lon": 0.0, "fusion_lat": 0.0, "lon": -76.96577283333333, "name": "638e4a8441b5ffcaef7880d03501b052"}, {"bike_id": "25279323f2a1a69d6e2fad28ed5867aa", "type": "electric_scooter", "is_disabled": 0, "lat": 38.922867, "rental_uris": {"ios": "https://dc.lft.to/lastmile_qr_scan", "android": "https://dc.lft.to/lastmile_qr_scan"}, "is_reserved": 0, "fusion_lon": 0.0, "fusion_lat": 0.0, "lon": -76.99450816666666, "name": "25279323f2a1a69d6e2fad28ed5867aa"}, {"bike_id": "52f0d90c128690715f6fb3b2dce3e467", "type": "electric_bike", "is_disabled": 0, "lat": 38.9517085, "rental_uris": {"ios": "https://dc.lft.to/lastmile_qr_scan", "android": "https://dc.lft.to/lastmile_qr_scan"}, "is_reserved": 0, "fusion_lon": 0.0, "fusion_lat": 0.0, "lon": -76.96381216666667, "name": "52f0d90c128690715f6fb3b2dce3e467"}, {"bike_id": "f048e9b73de8931ef2d4fcc573e0ddde", "type": "electric_scooter", "is_disabled": 0, "lat": 38.916749333333335, "rental_uris": {"ios": "https://dc.lft.to/lastmile_qr_scan", "android": "https://dc.lft.to/lastmile_qr_scan"}, "is_reserved": 0, "fusion_lon": 0.0, "fusion_lat": 0.0, "lon": -77.0157665, "name": "f048e9b73de8931ef2d4fcc573e0ddde"}, {"bike_id": "cc7fd3628277db9ecec0311d7e48b27a", "type": "electric_scooter", "is_disabled": 0, "lat": 38.90549816666667, "rental_uris": {"ios": "https://dc.lft.to/lastmile_qr_scan", "android": "https://dc.lft.to/lastmile_qr_scan"}, "is_reserved": 0, "fusion_lon": 0.0, "fusion_lat": 0.0, "lon": -76.99615733333333, "name": "cc7fd3628277db9ecec0311d7e48b27a"}, {"bike_id": "713edfd9c32bb552cea3464bc1cdf7b6", "type": "electric_scooter", "is_disabled": 0, "lat": 38.92256, "rental_uris": {"ios": "https://dc.lft.to/lastmile_qr_scan", "android": "https://dc.lft.to/lastmile_qr_scan"}, "is_reserved": 0, "fusion_lon": 0.0, "fusion_lat": 0.0, "lon": -77.038811, "name": "713edfd9c32bb552cea3464bc1cdf7b6"}, {"bike_id": "4043eaabdf3be464fc5f750f94e43b9c", "type": "electric_bike", "is_disabled": 0, "lat": 38.80411566666667, "rental_uris": {"ios": "https://dc.lft.to/lastmile_qr_scan", "android": "https://dc.lft.to/lastmile_qr_scan"}, "is_reserved": 0, "fusion_lon": 0.0, "fusion_lat": 0.0, "lon": -77.0555475, "name": "4043eaabdf3be464fc5f750f94e43b9c"}, {"bike_id": "2083b9b80c97a821f84258aea7d10f51", "type": "electric_scooter", "is_disabled": 0, "lat": 38.90958933333334, "rental_uris": {"ios": "https://dc.lft.to/lastmile_qr_scan", "android": "https://dc.lft.to/lastmile_qr_scan"}, "is_reserved": 0, "fusion_lon": 0.0, "fusion_lat": 0.0, "lon": -77.04867383333334, "name": "2083b9b80c97a821f84258aea7d10f51"}, {"bike_id": "50480a73cabeb099feaab972125b1be4", "type": "electric_scooter", "is_disabled": 0, "lat": 38.88990366666667, "rental_uris": {"ios": "https://dc.lft.to/lastmile_qr_scan", "android": "https://dc.lft.to/lastmile_qr_scan"}, "is_reserved": 0, "fusion_lon": 0.0, "fusion_lat": 0.0, "lon": -77.00036016666667, "name": "50480a73cabeb099feaab972125b1be4"}, {"bike_id": "60e3a88fe1389aa92e57e80c661bc508", "type": "electric_scooter", "is_disabled": 0, "lat": 38.9082285, "rental_uris": {"ios": "https://dc.lft.to/lastmile_qr_scan", "android": "https://dc.lft.to/lastmile_qr_scan"}, "is_reserved": 0, "fusion_lon": 0.0, "fusion_lat": 0.0, "lon": -76.9344685, "name": "60e3a88fe1389aa92e57e80c661bc508"}, {"bike_id": "955d6d85407dcf45341e9137170ac8b5", "type": "electric_bike", "is_disabled": 0, "lat": 38.8535215, "rental_uris": {"ios": "https://dc.lft.to/lastmile_qr_scan", "android": "https://dc.lft.to/lastmile_qr_scan"}, "is_reserved": 0, "fusion_lon": 0.0, "fusion_lat": 0.0, "lon": -77.08683733333334, "name": "955d6d85407dcf45341e9137170ac8b5"}, {"bike_id": "9d4c48497fb3d03abd8fe6e2fb32b81f", "type": "electric_scooter", "is_disabled": 0, "lat": 38.9104905, "rental_uris": {"ios": "https://dc.lft.to/lastmile_qr_scan", "android": "https://dc.lft.to/lastmile_qr_scan"}, "is_reserved": 0, "fusion_lon": 0.0, "fusion_lat": 0.0, "lon": -77.02204866666666, "name": "9d4c48497fb3d03abd8fe6e2fb32b81f"}, {"bike_id": "d302ea0f0f2dabf1e07bc01eef46b4da", "type": "electric_scooter", "is_disabled": 0, "lat": 38.919173, "rental_uris": {"ios": "https://dc.lft.to/lastmile_qr_scan", "android": "https://dc.lft.to/lastmile_qr_scan"}, "is_reserved": 0, "fusion_lon": 0.0, "fusion_lat": 0.0, "lon": -77.03418683333334, "name": "d302ea0f0f2dabf1e07bc01eef46b4da"}, {"bike_id": "2ddea389df330f6f26db6d89852e96a2", "type": "electric_scooter", "is_disabled": 0, "lat": 38.905689833333334, "rental_uris": {"ios": "https://dc.lft.to/lastmile_qr_scan", "android": "https://dc.lft.to/lastmile_qr_scan"}, "is_reserved": 0, "fusion_lon": 0.0, "fusion_lat": 0.0, "lon": -77.04195633333333, "name": "2ddea389df330f6f26db6d89852e96a2"}, {"bike_id": "67a0074c65ffe995a565b095065e2235", "type": "electric_scooter", "is_disabled": 0, "lat": 38.86503883333334, "rental_uris": {"ios": "https://dc.lft.to/lastmile_qr_scan", "android": "https://dc.lft.to/lastmile_qr_scan"}, "is_reserved": 0, "fusion_lon": 0.0, "fusion_lat": 0.0, "lon": -76.99001733333333, "name": "67a0074c65ffe995a565b095065e2235"}, {"bike_id": "46b50e7f266bf54d7084a6f19af765a2", "type": "electric_bike", "is_disabled": 0, "lat": 38.965021, "rental_uris": {"ios": "https://dc.lft.to/lastmile_qr_scan", "android": "https://dc.lft.to/lastmile_qr_scan"}, "is_reserved": 0, "fusion_lon": 0.0, "fusion_lat": 0.0, "lon": -77.02829933333334, "name": "46b50e7f266bf54d7084a6f19af765a2"}, {"bike_id": "2472428470b5ad842bc19ec69b5aa181", "type": "electric_scooter", "is_disabled": 0, "lat": 38.90741883333333, "rental_uris": {"ios": "https://dc.lft.to/lastmile_qr_scan", "android": "https://dc.lft.to/lastmile_qr_scan"}, "is_reserved": 0, "fusion_lon": 0.0, "fusion_lat": 0.0, "lon": -77.03433666666666, "name": "2472428470b5ad842bc19ec69b5aa181"}, {"bike_id": "e3532dfe42cc19da4494853be342159c", "type": "electric_scooter", "is_disabled": 0, "lat": 38.90992216666667, "rental_uris": {"ios": "https://dc.lft.to/lastmile_qr_scan", "android": "https://dc.lft.to/lastmile_qr_scan"}, "is_reserved": 0, "fusion_lon": 0.0, "fusion_lat": 0.0, "lon": -77.04009216666667, "name": "e3532dfe42cc19da4494853be342159c"}, {"bike_id": "c82f9dc9e8b8641b2f8e4a8f5b11ad0b", "type": "electric_scooter", "is_disabled": 0, "lat": 38.905187166666664, "rental_uris": {"ios": "https://dc.lft.to/lastmile_qr_scan", "android": "https://dc.lft.to/lastmile_qr_scan"}, "is_reserved": 0, "fusion_lon": 0.0, "fusion_lat": 0.0, "lon": -77.00695166666667, "name": "c82f9dc9e8b8641b2f8e4a8f5b11ad0b"}, {"bike_id": "ffbf0224b9f6c28e80e7cecf7a76d55b", "type": "electric_scooter", "is_disabled": 0, "lat": 38.9562175, "rental_uris": {"ios": "https://dc.lft.to/lastmile_qr_scan", "android": "https://dc.lft.to/lastmile_qr_scan"}, "is_reserved": 0, "fusion_lon": 0.0, "fusion_lat": 0.0, "lon": -77.02783083333334, "name": "ffbf0224b9f6c28e80e7cecf7a76d55b"}, {"bike_id": "c5e5efd50ebf5930ffc9b06cc2fd12c2", "type": "electric_scooter", "is_disabled": 0, "lat": 38.86635166666667, "rental_uris": {"ios": "https://dc.lft.to/lastmile_qr_scan", "android": "https://dc.lft.to/lastmile_qr_scan"}, "is_reserved": 0, "fusion_lon": 0.0, "fusion_lat": 0.0, "lon": -76.98265066666667, "name": "c5e5efd50ebf5930ffc9b06cc2fd12c2"}, {"bike_id": "338ae9d1fdfbe18e9ad03017cbac499f", "type": "electric_bike", "is_disabled": 0, "lat": 38.88406966666667, "rental_uris": {"ios": "https://dc.lft.to/lastmile_qr_scan", "android": "https://dc.lft.to/lastmile_qr_scan"}, "is_reserved": 0, "fusion_lon": 0.0, "fusion_lat": 0.0, "lon": -76.960554, "name": "338ae9d1fdfbe18e9ad03017cbac499f"}, {"bike_id": "55a4b80bb15d058a44eac837973e66ec", "type": "electric_scooter", "is_disabled": 0, "lat": 38.9585305, "rental_uris": {"ios": "https://dc.lft.to/lastmile_qr_scan", "android": "https://dc.lft.to/lastmile_qr_scan"}, "is_reserved": 0, "fusion_lon": 0.0, "fusion_lat": 0.0, "lon": -77.02792916666667, "name": "55a4b80bb15d058a44eac837973e66ec"}, {"bike_id": "778ccce38e8e279a760ddd6edba1c93f", "type": "electric_scooter", "is_disabled": 0, "lat": 38.90673733333333, "rental_uris": {"ios": "https://dc.lft.to/lastmile_qr_scan", "android": "https://dc.lft.to/lastmile_qr_scan"}, "is_reserved": 0, "fusion_lon": 0.0, "fusion_lat": 0.0, "lon": -77.03812316666667, "name": "778ccce38e8e279a760ddd6edba1c93f"}, {"bike_id": "7dd75d58abd922db5ac582edefa93095", "type": "electric_scooter", "is_disabled": 0, "lat": 38.91605766666667, "rental_uris": {"ios": "https://dc.lft.to/lastmile_qr_scan", "android": "https://dc.lft.to/lastmile_qr_scan"}, "is_reserved": 0, "fusion_lon": 0.0, "fusion_lat": 0.0, "lon": -77.02953083333334, "name": "7dd75d58abd922db5ac582edefa93095"}, {"bike_id": "3bd7916355eccc26c70704d641df0b21", "type": "electric_scooter", "is_disabled": 0, "lat": 38.9343145, "rental_uris": {"ios": "https://dc.lft.to/lastmile_qr_scan", "android": "https://dc.lft.to/lastmile_qr_scan"}, "is_reserved": 0, "fusion_lon": 0.0, "fusion_lat": 0.0, "lon": -77.04537483333333, "name": "3bd7916355eccc26c70704d641df0b21"}, {"bike_id": "5071b9dc3e6e17ffc7f2b9d46c7aed26", "type": "electric_scooter", "is_disabled": 0, "lat": 38.97365883333333, "rental_uris": {"ios": "https://dc.lft.to/lastmile_qr_scan", "android": "https://dc.lft.to/lastmile_qr_scan"}, "is_reserved": 0, "fusion_lon": 0.0, "fusion_lat": 0.0, "lon": -77.01848983333333, "name": "5071b9dc3e6e17ffc7f2b9d46c7aed26"}, {"bike_id": "905787ce7d3f4d076ca65108fa61959b", "type": "electric_scooter", "is_disabled": 0, "lat": 38.925974, "rental_uris": {"ios": "https://dc.lft.to/lastmile_qr_scan", "android": "https://dc.lft.to/lastmile_qr_scan"}, "is_reserved": 0, "fusion_lon": 0.0, "fusion_lat": 0.0, "lon": -77.008319, "name": "905787ce7d3f4d076ca65108fa61959b"}, {"bike_id": "c8754b12ce1eeff2a95107115da1df68", "type": "electric_scooter", "is_disabled": 0, "lat": 38.931838, "rental_uris": {"ios": "https://dc.lft.to/lastmile_qr_scan", "android": "https://dc.lft.to/lastmile_qr_scan"}, "is_reserved": 0, "fusion_lon": 0.0, "fusion_lat": 0.0, "lon": -77.0429865, "name": "c8754b12ce1eeff2a95107115da1df68"}, {"bike_id": "82d7098d74a3e0ba7a1761379626e392", "type": "electric_scooter", "is_disabled": 0, "lat": 38.909459, "rental_uris": {"ios": "https://dc.lft.to/lastmile_qr_scan", "android": "https://dc.lft.to/lastmile_qr_scan"}, "is_reserved": 0, "fusion_lon": 0.0, "fusion_lat": 0.0, "lon": -77.04044466666667, "name": "82d7098d74a3e0ba7a1761379626e392"}, {"bike_id": "2c3355281623b2d3a3b04d0cfe0c88ca", "type": "electric_scooter", "is_disabled": 0, "lat": 38.92053133333334, "rental_uris": {"ios": "https://dc.lft.to/lastmile_qr_scan", "android": "https://dc.lft.to/lastmile_qr_scan"}, "is_reserved": 0, "fusion_lon": 0.0, "fusion_lat": 0.0, "lon": -77.034293, "name": "2c3355281623b2d3a3b04d0cfe0c88ca"}, {"bike_id": "e0093fb6360419f3d55761830eb16105", "type": "electric_scooter", "is_disabled": 0, "lat": 38.90247883333333, "rental_uris": {"ios": "https://dc.lft.to/lastmile_qr_scan", "android": "https://dc.lft.to/lastmile_qr_scan"}, "is_reserved": 0, "fusion_lon": 0.0, "fusion_lat": 0.0, "lon": -77.03844533333333, "name": "e0093fb6360419f3d55761830eb16105"}, {"bike_id": "91593e91188b18097fdab8c7101b5d03", "type": "electric_scooter", "is_disabled": 0, "lat": 38.902356166666664, "rental_uris": {"ios": "https://dc.lft.to/lastmile_qr_scan", "android": "https://dc.lft.to/lastmile_qr_scan"}, "is_reserved": 0, "fusion_lon": 0.0, "fusion_lat": 0.0, "lon": -76.97411983333333, "name": "91593e91188b18097fdab8c7101b5d03"}, {"bike_id": "d182ddd979e2ac473f62567c756a8ab8", "type": "electric_scooter", "is_disabled": 0, "lat": 38.902792, "rental_uris": {"ios": "https://dc.lft.to/lastmile_qr_scan", "android": "https://dc.lft.to/lastmile_qr_scan"}, "is_reserved": 0, "fusion_lon": 0.0, "fusion_lat": 0.0, "lon": -77.01893533333333, "name": "d182ddd979e2ac473f62567c756a8ab8"}, {"bike_id": "13703b927a4270d4ad8c0e489c6fe9c6", "type": "electric_scooter", "is_disabled": 0, "lat": 38.84435, "rental_uris": {"ios": "https://dc.lft.to/lastmile_qr_scan", "android": "https://dc.lft.to/lastmile_qr_scan"}, "is_reserved": 0, "fusion_lon": 0.0, "fusion_lat": 0.0, "lon": -76.99777466666667, "name": "13703b927a4270d4ad8c0e489c6fe9c6"}, {"bike_id": "a9bd6663c6005a4e612cf945647fe71c", "type": "electric_scooter", "is_disabled": 0, "lat": 38.91957, "rental_uris": {"ios": "https://dc.lft.to/lastmile_qr_scan", "android": "https://dc.lft.to/lastmile_qr_scan"}, "is_reserved": 0, "fusion_lon": 0.0, "fusion_lat": 0.0, "lon": -77.04243916666667, "name": "a9bd6663c6005a4e612cf945647fe71c"}, {"bike_id": "1e3cf72755641daf55eac5788e384199", "type": "electric_scooter", "is_disabled": 0, "lat": 38.91848666666667, "rental_uris": {"ios": "https://dc.lft.to/lastmile_qr_scan", "android": "https://dc.lft.to/lastmile_qr_scan"}, "is_reserved": 0, "fusion_lon": 0.0, "fusion_lat": 0.0, "lon": -77.03878316666666, "name": "1e3cf72755641daf55eac5788e384199"}, {"bike_id": "7b25b95af8f777d6420a6cf25f85168a", "type": "electric_scooter", "is_disabled": 0, "lat": 38.8871225, "rental_uris": {"ios": "https://dc.lft.to/lastmile_qr_scan", "android": "https://dc.lft.to/lastmile_qr_scan"}, "is_reserved": 0, "fusion_lon": 0.0, "fusion_lat": 0.0, "lon": -77.02202166666666, "name": "7b25b95af8f777d6420a6cf25f85168a"}, {"bike_id": "507cc6a1fd985e19aee5c5a3130536ff", "type": "electric_scooter", "is_disabled": 0, "lat": 38.91493533333333, "rental_uris": {"ios": "https://dc.lft.to/lastmile_qr_scan", "android": "https://dc.lft.to/lastmile_qr_scan"}, "is_reserved": 0, "fusion_lon": 0.0, "fusion_lat": 0.0, "lon": -76.9857885, "name": "507cc6a1fd985e19aee5c5a3130536ff"}, {"bike_id": "fb4fea012d1587de4106388af8d049df", "type": "electric_scooter", "is_disabled": 0, "lat": 38.90027933333333, "rental_uris": {"ios": "https://dc.lft.to/lastmile_qr_scan", "android": "https://dc.lft.to/lastmile_qr_scan"}, "is_reserved": 0, "fusion_lon": 0.0, "fusion_lat": 0.0, "lon": -76.98055783333334, "name": "fb4fea012d1587de4106388af8d049df"}, {"bike_id": "34514675a0d7e55f60ea0ac966e6732a", "type": "electric_scooter", "is_disabled": 0, "lat": 38.90740666666667, "rental_uris": {"ios": "https://dc.lft.to/lastmile_qr_scan", "android": "https://dc.lft.to/lastmile_qr_scan"}, "is_reserved": 0, "fusion_lon": 0.0, "fusion_lat": 0.0, "lon": -77.06321916666667, "name": "34514675a0d7e55f60ea0ac966e6732a"}, {"bike_id": "96743879eb202237ec9ebe2631dec2af", "type": "electric_scooter", "is_disabled": 0, "lat": 38.922289166666665, "rental_uris": {"ios": "https://dc.lft.to/lastmile_qr_scan", "android": "https://dc.lft.to/lastmile_qr_scan"}, "is_reserved": 0, "fusion_lon": 0.0, "fusion_lat": 0.0, "lon": -76.97528933333334, "name": "96743879eb202237ec9ebe2631dec2af"}, {"bike_id": "6b552c4a9c934b5e97726fe6e01c9236", "type": "electric_scooter", "is_disabled": 0, "lat": 38.93325, "rental_uris": {"ios": "https://dc.lft.to/lastmile_qr_scan", "android": "https://dc.lft.to/lastmile_qr_scan"}, "is_reserved": 0, "fusion_lon": 0.0, "fusion_lat": 0.0, "lon": -77.02755083333334, "name": "6b552c4a9c934b5e97726fe6e01c9236"}, {"bike_id": "94577b09eb7bd3e2f95c2568902b92fe", "type": "electric_scooter", "is_disabled": 0, "lat": 38.91550016666667, "rental_uris": {"ios": "https://dc.lft.to/lastmile_qr_scan", "android": "https://dc.lft.to/lastmile_qr_scan"}, "is_reserved": 0, "fusion_lon": 0.0, "fusion_lat": 0.0, "lon": -77.02154883333333, "name": "94577b09eb7bd3e2f95c2568902b92fe"}, {"bike_id": "67f6df6924570115cfdf874bad2e5eaf", "type": "electric_scooter", "is_disabled": 0, "lat": 38.89942883333333, "rental_uris": {"ios": "https://dc.lft.to/lastmile_qr_scan", "android": "https://dc.lft.to/lastmile_qr_scan"}, "is_reserved": 0, "fusion_lon": 0.0, "fusion_lat": 0.0, "lon": -77.0160295, "name": "67f6df6924570115cfdf874bad2e5eaf"}, {"bike_id": "8ff938aae747c68dd263b0d43505114b", "type": "electric_scooter", "is_disabled": 0, "lat": 38.87657683333333, "rental_uris": {"ios": "https://dc.lft.to/lastmile_qr_scan", "android": "https://dc.lft.to/lastmile_qr_scan"}, "is_reserved": 0, "fusion_lon": 0.0, "fusion_lat": 0.0, "lon": -76.99638216666666, "name": "8ff938aae747c68dd263b0d43505114b"}, {"bike_id": "96c8139f3bd7dcff16b1ae6e47f37193", "type": "electric_scooter", "is_disabled": 0, "lat": 38.909646333333335, "rental_uris": {"ios": "https://dc.lft.to/lastmile_qr_scan", "android": "https://dc.lft.to/lastmile_qr_scan"}, "is_reserved": 0, "fusion_lon": 0.0, "fusion_lat": 0.0, "lon": -77.03974016666666, "name": "96c8139f3bd7dcff16b1ae6e47f37193"}, {"bike_id": "830fb4240dc8f80327a91f7be66e7797", "type": "electric_bike", "is_disabled": 0, "lat": 38.93102066666667, "rental_uris": {"ios": "https://dc.lft.to/lastmile_qr_scan", "android": "https://dc.lft.to/lastmile_qr_scan"}, "is_reserved": 0, "fusion_lon": 0.0, "fusion_lat": 0.0, "lon": -77.01852166666667, "name": "830fb4240dc8f80327a91f7be66e7797"}, {"bike_id": "8fe25e65f088e01d080e9045c20bc55c", "type": "electric_scooter", "is_disabled": 0, "lat": 38.920864, "rental_uris": {"ios": "https://dc.lft.to/lastmile_qr_scan", "android": "https://dc.lft.to/lastmile_qr_scan"}, "is_reserved": 0, "fusion_lon": 0.0, "fusion_lat": 0.0, "lon": -77.01695133333334, "name": "8fe25e65f088e01d080e9045c20bc55c"}, {"bike_id": "0346107f51b703f4d50c962e0e35833f", "type": "electric_scooter", "is_disabled": 0, "lat": 38.906361833333335, "rental_uris": {"ios": "https://dc.lft.to/lastmile_qr_scan", "android": "https://dc.lft.to/lastmile_qr_scan"}, "is_reserved": 0, "fusion_lon": 0.0, "fusion_lat": 0.0, "lon": -77.03468883333333, "name": "0346107f51b703f4d50c962e0e35833f"}, {"bike_id": "84557a0f56e0035dd32b5013a79394c7", "type": "electric_scooter", "is_disabled": 0, "lat": 38.91952666666667, "rental_uris": {"ios": "https://dc.lft.to/lastmile_qr_scan", "android": "https://dc.lft.to/lastmile_qr_scan"}, "is_reserved": 0, "fusion_lon": 0.0, "fusion_lat": 0.0, "lon": -77.034766, "name": "84557a0f56e0035dd32b5013a79394c7"}, {"bike_id": "4fc3a3684410219899f011ca8407555a", "type": "electric_scooter", "is_disabled": 0, "lat": 38.914031666666666, "rental_uris": {"ios": "https://dc.lft.to/lastmile_qr_scan", "android": "https://dc.lft.to/lastmile_qr_scan"}, "is_reserved": 0, "fusion_lon": 0.0, "fusion_lat": 0.0, "lon": -77.03435216666666, "name": "4fc3a3684410219899f011ca8407555a"}, {"bike_id": "035a6adb7b96d3cf6187aceb34dccfe7", "type": "electric_scooter", "is_disabled": 0, "lat": 38.935780333333334, "rental_uris": {"ios": "https://dc.lft.to/lastmile_qr_scan", "android": "https://dc.lft.to/lastmile_qr_scan"}, "is_reserved": 0, "fusion_lon": 0.0, "fusion_lat": 0.0, "lon": -77.03358716666666, "name": "035a6adb7b96d3cf6187aceb34dccfe7"}, {"bike_id": "8b84b6c9e73bc7d6373539d4f68c3f4a", "type": "electric_scooter", "is_disabled": 0, "lat": 38.90328366666667, "rental_uris": {"ios": "https://dc.lft.to/lastmile_qr_scan", "android": "https://dc.lft.to/lastmile_qr_scan"}, "is_reserved": 0, "fusion_lon": 0.0, "fusion_lat": 0.0, "lon": -76.98281916666667, "name": "8b84b6c9e73bc7d6373539d4f68c3f4a"}, {"bike_id": "bd072778c7633873d01269d4ec7028f7", "type": "electric_scooter", "is_disabled": 0, "lat": 38.923135, "rental_uris": {"ios": "https://dc.lft.to/lastmile_qr_scan", "android": "https://dc.lft.to/lastmile_qr_scan"}, "is_reserved": 0, "fusion_lon": 0.0, "fusion_lat": 0.0, "lon": -77.0403695, "name": "bd072778c7633873d01269d4ec7028f7"}, {"bike_id": "a387ef5c01fed848e96504cb16bf9736", "type": "electric_scooter", "is_disabled": 0, "lat": 38.91609166666667, "rental_uris": {"ios": "https://dc.lft.to/lastmile_qr_scan", "android": "https://dc.lft.to/lastmile_qr_scan"}, "is_reserved": 0, "fusion_lon": 0.0, "fusion_lat": 0.0, "lon": -77.03384, "name": "a387ef5c01fed848e96504cb16bf9736"}, {"bike_id": "2089366fe345e4664ca03ca55628914f", "type": "electric_scooter", "is_disabled": 0, "lat": 38.87782466666667, "rental_uris": {"ios": "https://dc.lft.to/lastmile_qr_scan", "android": "https://dc.lft.to/lastmile_qr_scan"}, "is_reserved": 0, "fusion_lon": 0.0, "fusion_lat": 0.0, "lon": -77.01744483333333, "name": "2089366fe345e4664ca03ca55628914f"}, {"bike_id": "5c8c2360fb74a0ba53f50bd4a1e3b6cb", "type": "electric_scooter", "is_disabled": 0, "lat": 38.92051466666667, "rental_uris": {"ios": "https://dc.lft.to/lastmile_qr_scan", "android": "https://dc.lft.to/lastmile_qr_scan"}, "is_reserved": 0, "fusion_lon": 0.0, "fusion_lat": 0.0, "lon": -77.04407816666667, "name": "5c8c2360fb74a0ba53f50bd4a1e3b6cb"}, {"bike_id": "3611ea50ca64c0cacb69906aa6295547", "type": "electric_bike", "is_disabled": 0, "lat": 38.993459333333334, "rental_uris": {"ios": "https://dc.lft.to/lastmile_qr_scan", "android": "https://dc.lft.to/lastmile_qr_scan"}, "is_reserved": 0, "fusion_lon": 0.0, "fusion_lat": 0.0, "lon": -77.11567266666667, "name": "3611ea50ca64c0cacb69906aa6295547"}, {"bike_id": "1b62e8b30ae08ee249cb9df1f2fd73c5", "type": "electric_scooter", "is_disabled": 0, "lat": 38.92962583333333, "rental_uris": {"ios": "https://dc.lft.to/lastmile_qr_scan", "android": "https://dc.lft.to/lastmile_qr_scan"}, "is_reserved": 0, "fusion_lon": 0.0, "fusion_lat": 0.0, "lon": -77.03135566666667, "name": "1b62e8b30ae08ee249cb9df1f2fd73c5"}, {"bike_id": "a8b2a951a041083ff3ed00e723d5d487", "type": "electric_scooter", "is_disabled": 0, "lat": 38.865034, "rental_uris": {"ios": "https://dc.lft.to/lastmile_qr_scan", "android": "https://dc.lft.to/lastmile_qr_scan"}, "is_reserved": 0, "fusion_lon": 0.0, "fusion_lat": 0.0, "lon": -76.99003466666667, "name": "a8b2a951a041083ff3ed00e723d5d487"}, {"bike_id": "ff7273f5d3876ee0f95410aae6028949", "type": "electric_bike", "is_disabled": 0, "lat": 38.807567666666664, "rental_uris": {"ios": "https://dc.lft.to/lastmile_qr_scan", "android": "https://dc.lft.to/lastmile_qr_scan"}, "is_reserved": 0, "fusion_lon": 0.0, "fusion_lat": 0.0, "lon": -77.09461566666667, "name": "ff7273f5d3876ee0f95410aae6028949"}, {"bike_id": "1a5dfbe84a695d852bc1c6c330ad6e31", "type": "electric_bike", "is_disabled": 0, "lat": 38.8587285, "rental_uris": {"ios": "https://dc.lft.to/lastmile_qr_scan", "android": "https://dc.lft.to/lastmile_qr_scan"}, "is_reserved": 0, "fusion_lon": 0.0, "fusion_lat": 0.0, "lon": -77.09559783333333, "name": "1a5dfbe84a695d852bc1c6c330ad6e31"}, {"bike_id": "4a3ccf0a66e8d914226053ad4ef94f3a", "type": "electric_scooter", "is_disabled": 0, "lat": 38.912545333333334, "rental_uris": {"ios": "https://dc.lft.to/lastmile_qr_scan", "android": "https://dc.lft.to/lastmile_qr_scan"}, "is_reserved": 0, "fusion_lon": 0.0, "fusion_lat": 0.0, "lon": -77.0386385, "name": "4a3ccf0a66e8d914226053ad4ef94f3a"}, {"bike_id": "f696c760890252c1c1ee49ac6860808c", "type": "electric_scooter", "is_disabled": 0, "lat": 38.894951666666664, "rental_uris": {"ios": "https://dc.lft.to/lastmile_qr_scan", "android": "https://dc.lft.to/lastmile_qr_scan"}, "is_reserved": 0, "fusion_lon": 0.0, "fusion_lat": 0.0, "lon": -76.93473116666667, "name": "f696c760890252c1c1ee49ac6860808c"}, {"bike_id": "631812b58d66528feffd741e704cae8c", "type": "electric_scooter", "is_disabled": 0, "lat": 38.91502933333334, "rental_uris": {"ios": "https://dc.lft.to/lastmile_qr_scan", "android": "https://dc.lft.to/lastmile_qr_scan"}, "is_reserved": 0, "fusion_lon": 0.0, "fusion_lat": 0.0, "lon": -76.98370583333333, "name": "631812b58d66528feffd741e704cae8c"}, {"bike_id": "b15cf69eae764b13c9b6e0d657dcd54f", "type": "electric_bike", "is_disabled": 0, "lat": 38.923326, "rental_uris": {"ios": "https://dc.lft.to/lastmile_qr_scan", "android": "https://dc.lft.to/lastmile_qr_scan"}, "is_reserved": 0, "fusion_lon": 0.0, "fusion_lat": 0.0, "lon": -77.03612783333334, "name": "b15cf69eae764b13c9b6e0d657dcd54f"}, {"bike_id": "6d9f2cad39c25929aec9309af8dee596", "type": "electric_scooter", "is_disabled": 0, "lat": 38.915133166666664, "rental_uris": {"ios": "https://dc.lft.to/lastmile_qr_scan", "android": "https://dc.lft.to/lastmile_qr_scan"}, "is_reserved": 0, "fusion_lon": 0.0, "fusion_lat": 0.0, "lon": -77.022846, "name": "6d9f2cad39c25929aec9309af8dee596"}, {"bike_id": "e0d8219f301d80e2c7abc0d1fa8f0b6f", "type": "electric_bike", "is_disabled": 0, "lat": 38.995295, "rental_uris": {"ios": "https://dc.lft.to/lastmile_qr_scan", "android": "https://dc.lft.to/lastmile_qr_scan"}, "is_reserved": 0, "fusion_lon": 0.0, "fusion_lat": 0.0, "lon": -77.06946216666667, "name": "e0d8219f301d80e2c7abc0d1fa8f0b6f"}, {"bike_id": "dffd46596a7c22f3f19dce8e933bab00", "type": "electric_scooter", "is_disabled": 0, "lat": 38.911928, "rental_uris": {"ios": "https://dc.lft.to/lastmile_qr_scan", "android": "https://dc.lft.to/lastmile_qr_scan"}, "is_reserved": 0, "fusion_lon": 0.0, "fusion_lat": 0.0, "lon": -77.01892383333333, "name": "dffd46596a7c22f3f19dce8e933bab00"}, {"bike_id": "268978956067378dc1ce2b79f9d279c3", "type": "electric_scooter", "is_disabled": 0, "lat": 38.899766, "rental_uris": {"ios": "https://dc.lft.to/lastmile_qr_scan", "android": "https://dc.lft.to/lastmile_qr_scan"}, "is_reserved": 0, "fusion_lon": 0.0, "fusion_lat": 0.0, "lon": -77.0557635, "name": "268978956067378dc1ce2b79f9d279c3"}, {"bike_id": "0a1aa2de3a8fa91b3db2a5069670579e", "type": "electric_bike", "is_disabled": 0, "lat": 38.89207866666667, "rental_uris": {"ios": "https://dc.lft.to/lastmile_qr_scan", "android": "https://dc.lft.to/lastmile_qr_scan"}, "is_reserved": 0, "fusion_lon": 0.0, "fusion_lat": 0.0, "lon": -76.97683233333333, "name": "0a1aa2de3a8fa91b3db2a5069670579e"}, {"bike_id": "f92d3043408667d1d5d9bb043186108e", "type": "electric_scooter", "is_disabled": 0, "lat": 38.93527066666667, "rental_uris": {"ios": "https://dc.lft.to/lastmile_qr_scan", "android": "https://dc.lft.to/lastmile_qr_scan"}, "is_reserved": 0, "fusion_lon": 0.0, "fusion_lat": 0.0, "lon": -77.054366, "name": "f92d3043408667d1d5d9bb043186108e"}, {"bike_id": "f94213fa1da9b528f71814d452f657b0", "type": "electric_scooter", "is_disabled": 0, "lat": 38.951156833333336, "rental_uris": {"ios": "https://dc.lft.to/lastmile_qr_scan", "android": "https://dc.lft.to/lastmile_qr_scan"}, "is_reserved": 0, "fusion_lon": 0.0, "fusion_lat": 0.0, "lon": -77.014335, "name": "f94213fa1da9b528f71814d452f657b0"}, {"bike_id": "fb27462809bdabd176c8e6d878f05b11", "type": "electric_scooter", "is_disabled": 0, "lat": 38.86685166666667, "rental_uris": {"ios": "https://dc.lft.to/lastmile_qr_scan", "android": "https://dc.lft.to/lastmile_qr_scan"}, "is_reserved": 0, "fusion_lon": 0.0, "fusion_lat": 0.0, "lon": -76.98570066666667, "name": "fb27462809bdabd176c8e6d878f05b11"}, {"bike_id": "d075e7176c7fc4ceb1219f249b5922e1", "type": "electric_scooter", "is_disabled": 0, "lat": 38.926172, "rental_uris": {"ios": "https://dc.lft.to/lastmile_qr_scan", "android": "https://dc.lft.to/lastmile_qr_scan"}, "is_reserved": 0, "fusion_lon": 0.0, "fusion_lat": 0.0, "lon": -77.04325116666666, "name": "d075e7176c7fc4ceb1219f249b5922e1"}, {"bike_id": "3ce0457609aaf2d25085e11f7b15f169", "type": "electric_scooter", "is_disabled": 0, "lat": 38.916944, "rental_uris": {"ios": "https://dc.lft.to/lastmile_qr_scan", "android": "https://dc.lft.to/lastmile_qr_scan"}, "is_reserved": 0, "fusion_lon": 0.0, "fusion_lat": 0.0, "lon": -77.03215783333333, "name": "3ce0457609aaf2d25085e11f7b15f169"}, {"bike_id": "9d52064643f8b0d22d87f28bb2034b7b", "type": "electric_scooter", "is_disabled": 0, "lat": 38.94194183333333, "rental_uris": {"ios": "https://dc.lft.to/lastmile_qr_scan", "android": "https://dc.lft.to/lastmile_qr_scan"}, "is_reserved": 0, "fusion_lon": 0.0, "fusion_lat": 0.0, "lon": -77.0234525, "name": "9d52064643f8b0d22d87f28bb2034b7b"}, {"bike_id": "3f98fe3af660ea5ee4fd212c463e0a2b", "type": "electric_bike", "is_disabled": 0, "lat": 38.889126833333336, "rental_uris": {"ios": "https://dc.lft.to/lastmile_qr_scan", "android": "https://dc.lft.to/lastmile_qr_scan"}, "is_reserved": 0, "fusion_lon": 0.0, "fusion_lat": 0.0, "lon": -76.99066316666666, "name": "3f98fe3af660ea5ee4fd212c463e0a2b"}, {"bike_id": "d2ff2c642023a7bd490d35ad47ec24d9", "type": "electric_scooter", "is_disabled": 0, "lat": 38.936158166666665, "rental_uris": {"ios": "https://dc.lft.to/lastmile_qr_scan", "android": "https://dc.lft.to/lastmile_qr_scan"}, "is_reserved": 0, "fusion_lon": 0.0, "fusion_lat": 0.0, "lon": -77.067576, "name": "d2ff2c642023a7bd490d35ad47ec24d9"}, {"bike_id": "e7d9ec766b6e245a1d90add7bbed59ab", "type": "electric_scooter", "is_disabled": 0, "lat": 38.90548, "rental_uris": {"ios": "https://dc.lft.to/lastmile_qr_scan", "android": "https://dc.lft.to/lastmile_qr_scan"}, "is_reserved": 0, "fusion_lon": 0.0, "fusion_lat": 0.0, "lon": -77.00557616666667, "name": "e7d9ec766b6e245a1d90add7bbed59ab"}, {"bike_id": "9bf8adfed6ab2a2148b8d6685e94edf5", "type": "electric_bike", "is_disabled": 0, "lat": 38.8729965, "rental_uris": {"ios": "https://dc.lft.to/lastmile_qr_scan", "android": "https://dc.lft.to/lastmile_qr_scan"}, "is_reserved": 0, "fusion_lon": 0.0, "fusion_lat": 0.0, "lon": -77.139187, "name": "9bf8adfed6ab2a2148b8d6685e94edf5"}, {"bike_id": "5ae2f686303d90e6ebf413c20c702bc6", "type": "electric_scooter", "is_disabled": 0, "lat": 38.9361975, "rental_uris": {"ios": "https://dc.lft.to/lastmile_qr_scan", "android": "https://dc.lft.to/lastmile_qr_scan"}, "is_reserved": 0, "fusion_lon": 0.0, "fusion_lat": 0.0, "lon": -77.037906, "name": "5ae2f686303d90e6ebf413c20c702bc6"}, {"bike_id": "90e32c922d0c5bff2f8aca4a1217b86c", "type": "electric_scooter", "is_disabled": 0, "lat": 38.92592833333333, "rental_uris": {"ios": "https://dc.lft.to/lastmile_qr_scan", "android": "https://dc.lft.to/lastmile_qr_scan"}, "is_reserved": 0, "fusion_lon": 0.0, "fusion_lat": 0.0, "lon": -77.03918783333333, "name": "90e32c922d0c5bff2f8aca4a1217b86c"}, {"bike_id": "a7724a455f87b330dc08cf802770a14f", "type": "electric_scooter", "is_disabled": 0, "lat": 38.90310483333333, "rental_uris": {"ios": "https://dc.lft.to/lastmile_qr_scan", "android": "https://dc.lft.to/lastmile_qr_scan"}, "is_reserved": 0, "fusion_lon": 0.0, "fusion_lat": 0.0, "lon": -76.98359483333333, "name": "a7724a455f87b330dc08cf802770a14f"}, {"bike_id": "9716b70919d67fbc180b2db910c75354", "type": "electric_scooter", "is_disabled": 0, "lat": 38.90773466666667, "rental_uris": {"ios": "https://dc.lft.to/lastmile_qr_scan", "android": "https://dc.lft.to/lastmile_qr_scan"}, "is_reserved": 0, "fusion_lon": 0.0, "fusion_lat": 0.0, "lon": -77.01204266666667, "name": "9716b70919d67fbc180b2db910c75354"}, {"bike_id": "72c772df5ba7b3fd4d5e4ac0eacf6676", "type": "electric_scooter", "is_disabled": 0, "lat": 38.9157875, "rental_uris": {"ios": "https://dc.lft.to/lastmile_qr_scan", "android": "https://dc.lft.to/lastmile_qr_scan"}, "is_reserved": 0, "fusion_lon": 0.0, "fusion_lat": 0.0, "lon": -77.01138933333333, "name": "72c772df5ba7b3fd4d5e4ac0eacf6676"}, {"bike_id": "38caf148675928a5e46e7a6fda81b507", "type": "electric_scooter", "is_disabled": 0, "lat": 38.952006833333336, "rental_uris": {"ios": "https://dc.lft.to/lastmile_qr_scan", "android": "https://dc.lft.to/lastmile_qr_scan"}, "is_reserved": 0, "fusion_lon": 0.0, "fusion_lat": 0.0, "lon": -77.067935, "name": "38caf148675928a5e46e7a6fda81b507"}, {"bike_id": "370a464b2121d6ac921d436811bc5781", "type": "electric_bike", "is_disabled": 0, "lat": 38.80117966666667, "rental_uris": {"ios": "https://dc.lft.to/lastmile_qr_scan", "android": "https://dc.lft.to/lastmile_qr_scan"}, "is_reserved": 0, "fusion_lon": 0.0, "fusion_lat": 0.0, "lon": -77.07036833333333, "name": "370a464b2121d6ac921d436811bc5781"}, {"bike_id": "534e92cf8554f6ca9171de257eda852f", "type": "electric_scooter", "is_disabled": 0, "lat": 38.9176335, "rental_uris": {"ios": "https://dc.lft.to/lastmile_qr_scan", "android": "https://dc.lft.to/lastmile_qr_scan"}, "is_reserved": 0, "fusion_lon": 0.0, "fusion_lat": 0.0, "lon": -77.0344445, "name": "534e92cf8554f6ca9171de257eda852f"}, {"bike_id": "8d78ebf6fd6778e6531b841347f64aee", "type": "electric_scooter", "is_disabled": 0, "lat": 38.831402833333335, "rental_uris": {"ios": "https://dc.lft.to/lastmile_qr_scan", "android": "https://dc.lft.to/lastmile_qr_scan"}, "is_reserved": 0, "fusion_lon": 0.0, "fusion_lat": 0.0, "lon": -77.05127166666666, "name": "8d78ebf6fd6778e6531b841347f64aee"}, {"bike_id": "ada77f215d7374e7b61f0d06d79ab0d0", "type": "electric_scooter", "is_disabled": 0, "lat": 38.90735316666667, "rental_uris": {"ios": "https://dc.lft.to/lastmile_qr_scan", "android": "https://dc.lft.to/lastmile_qr_scan"}, "is_reserved": 0, "fusion_lon": 0.0, "fusion_lat": 0.0, "lon": -76.97969016666667, "name": "ada77f215d7374e7b61f0d06d79ab0d0"}, {"bike_id": "15767cad2642354a7f2e2215884b1abe", "type": "electric_scooter", "is_disabled": 0, "lat": 38.879358333333336, "rental_uris": {"ios": "https://dc.lft.to/lastmile_qr_scan", "android": "https://dc.lft.to/lastmile_qr_scan"}, "is_reserved": 0, "fusion_lon": 0.0, "fusion_lat": 0.0, "lon": -77.00062116666666, "name": "15767cad2642354a7f2e2215884b1abe"}, {"bike_id": "5a8bb7dde8ab2d1aa80d108c6ee6f274", "type": "electric_scooter", "is_disabled": 0, "lat": 38.867323166666665, "rental_uris": {"ios": "https://dc.lft.to/lastmile_qr_scan", "android": "https://dc.lft.to/lastmile_qr_scan"}, "is_reserved": 0, "fusion_lon": 0.0, "fusion_lat": 0.0, "lon": -76.97858783333334, "name": "5a8bb7dde8ab2d1aa80d108c6ee6f274"}, {"bike_id": "ba2d005f3bae3dc088be7cfecb6d6ab7", "type": "electric_scooter", "is_disabled": 0, "lat": 38.906985166666665, "rental_uris": {"ios": "https://dc.lft.to/lastmile_qr_scan", "android": "https://dc.lft.to/lastmile_qr_scan"}, "is_reserved": 0, "fusion_lon": 0.0, "fusion_lat": 0.0, "lon": -77.03449933333333, "name": "ba2d005f3bae3dc088be7cfecb6d6ab7"}, {"bike_id": "c5ab5eda888dce32a1e6cffc9037688a", "type": "electric_scooter", "is_disabled": 0, "lat": 38.92331466666667, "rental_uris": {"ios": "https://dc.lft.to/lastmile_qr_scan", "android": "https://dc.lft.to/lastmile_qr_scan"}, "is_reserved": 0, "fusion_lon": 0.0, "fusion_lat": 0.0, "lon": -77.03592283333333, "name": "c5ab5eda888dce32a1e6cffc9037688a"}, {"bike_id": "72b0e1378cb307264fb6081f134da586", "type": "electric_scooter", "is_disabled": 0, "lat": 38.925561333333334, "rental_uris": {"ios": "https://dc.lft.to/lastmile_qr_scan", "android": "https://dc.lft.to/lastmile_qr_scan"}, "is_reserved": 0, "fusion_lon": 0.0, "fusion_lat": 0.0, "lon": -77.04375783333333, "name": "72b0e1378cb307264fb6081f134da586"}, {"bike_id": "cbb392c7bf65b0f33c5f90ff2ac3e047", "type": "electric_scooter", "is_disabled": 0, "lat": 38.94460183333333, "rental_uris": {"ios": "https://dc.lft.to/lastmile_qr_scan", "android": "https://dc.lft.to/lastmile_qr_scan"}, "is_reserved": 0, "fusion_lon": 0.0, "fusion_lat": 0.0, "lon": -77.00654133333333, "name": "cbb392c7bf65b0f33c5f90ff2ac3e047"}, {"bike_id": "219e94aafe85ece7a2747917c36386b5", "type": "electric_scooter", "is_disabled": 0, "lat": 38.927945666666666, "rental_uris": {"ios": "https://dc.lft.to/lastmile_qr_scan", "android": "https://dc.lft.to/lastmile_qr_scan"}, "is_reserved": 0, "fusion_lon": 0.0, "fusion_lat": 0.0, "lon": -77.02599666666667, "name": "219e94aafe85ece7a2747917c36386b5"}, {"bike_id": "adc71fbd0da008997ef17f7881df1af2", "type": "electric_scooter", "is_disabled": 0, "lat": 38.93603383333333, "rental_uris": {"ios": "https://dc.lft.to/lastmile_qr_scan", "android": "https://dc.lft.to/lastmile_qr_scan"}, "is_reserved": 0, "fusion_lon": 0.0, "fusion_lat": 0.0, "lon": -77.05856, "name": "adc71fbd0da008997ef17f7881df1af2"}, {"bike_id": "707bb856c3d473eba26c361d4a7d1560", "type": "electric_scooter", "is_disabled": 0, "lat": 38.917116666666665, "rental_uris": {"ios": "https://dc.lft.to/lastmile_qr_scan", "android": "https://dc.lft.to/lastmile_qr_scan"}, "is_reserved": 0, "fusion_lon": 0.0, "fusion_lat": 0.0, "lon": -77.02472933333334, "name": "707bb856c3d473eba26c361d4a7d1560"}, {"bike_id": "9b00956dad008b866c1681ebb86dc8c9", "type": "electric_scooter", "is_disabled": 0, "lat": 38.924053666666666, "rental_uris": {"ios": "https://dc.lft.to/lastmile_qr_scan", "android": "https://dc.lft.to/lastmile_qr_scan"}, "is_reserved": 0, "fusion_lon": 0.0, "fusion_lat": 0.0, "lon": -77.0201855, "name": "9b00956dad008b866c1681ebb86dc8c9"}, {"bike_id": "7102eb30f3dae606a5069cf0e8fbc296", "type": "electric_scooter", "is_disabled": 0, "lat": 38.926056333333335, "rental_uris": {"ios": "https://dc.lft.to/lastmile_qr_scan", "android": "https://dc.lft.to/lastmile_qr_scan"}, "is_reserved": 0, "fusion_lon": 0.0, "fusion_lat": 0.0, "lon": -77.02410916666666, "name": "7102eb30f3dae606a5069cf0e8fbc296"}, {"bike_id": "3e1c3a5b323f8825012431e3a483a81c", "type": "electric_scooter", "is_disabled": 0, "lat": 38.892226, "rental_uris": {"ios": "https://dc.lft.to/lastmile_qr_scan", "android": "https://dc.lft.to/lastmile_qr_scan"}, "is_reserved": 0, "fusion_lon": 0.0, "fusion_lat": 0.0, "lon": -77.02579766666666, "name": "3e1c3a5b323f8825012431e3a483a81c"}, {"bike_id": "bb43757fbb6709ecc51ef6470ab1e502", "type": "electric_scooter", "is_disabled": 0, "lat": 38.91330216666667, "rental_uris": {"ios": "https://dc.lft.to/lastmile_qr_scan", "android": "https://dc.lft.to/lastmile_qr_scan"}, "is_reserved": 0, "fusion_lon": 0.0, "fusion_lat": 0.0, "lon": -77.0473, "name": "bb43757fbb6709ecc51ef6470ab1e502"}, {"bike_id": "5b48d8f7d8781fa0a12bf71efed51cb2", "type": "electric_scooter", "is_disabled": 0, "lat": 38.901844833333335, "rental_uris": {"ios": "https://dc.lft.to/lastmile_qr_scan", "android": "https://dc.lft.to/lastmile_qr_scan"}, "is_reserved": 0, "fusion_lon": 0.0, "fusion_lat": 0.0, "lon": -76.98206766666667, "name": "5b48d8f7d8781fa0a12bf71efed51cb2"}, {"bike_id": "b4589b01c8adc947362da5ed0a683e27", "type": "electric_scooter", "is_disabled": 0, "lat": 38.8809665, "rental_uris": {"ios": "https://dc.lft.to/lastmile_qr_scan", "android": "https://dc.lft.to/lastmile_qr_scan"}, "is_reserved": 0, "fusion_lon": 0.0, "fusion_lat": 0.0, "lon": -76.9985245, "name": "b4589b01c8adc947362da5ed0a683e27"}, {"bike_id": "a1688cb61aeacaf8cbc484c35f705c47", "type": "electric_scooter", "is_disabled": 0, "lat": 38.906507, "rental_uris": {"ios": "https://dc.lft.to/lastmile_qr_scan", "android": "https://dc.lft.to/lastmile_qr_scan"}, "is_reserved": 0, "fusion_lon": 0.0, "fusion_lat": 0.0, "lon": -77.05330316666667, "name": "a1688cb61aeacaf8cbc484c35f705c47"}, {"bike_id": "c77b5830bdabde5b117cc9ec5bdeb110", "type": "electric_scooter", "is_disabled": 0, "lat": 38.907668666666666, "rental_uris": {"ios": "https://dc.lft.to/lastmile_qr_scan", "android": "https://dc.lft.to/lastmile_qr_scan"}, "is_reserved": 0, "fusion_lon": 0.0, "fusion_lat": 0.0, "lon": -77.043378, "name": "c77b5830bdabde5b117cc9ec5bdeb110"}, {"bike_id": "bef9bbc7b0508a4fdff2515d99fd22e6", "type": "electric_scooter", "is_disabled": 0, "lat": 38.917203666666666, "rental_uris": {"ios": "https://dc.lft.to/lastmile_qr_scan", "android": "https://dc.lft.to/lastmile_qr_scan"}, "is_reserved": 0, "fusion_lon": 0.0, "fusion_lat": 0.0, "lon": -77.03029416666666, "name": "bef9bbc7b0508a4fdff2515d99fd22e6"}, {"bike_id": "465d6aa3e865b1165b24e0ae85b05ba6", "type": "electric_scooter", "is_disabled": 0, "lat": 38.931003833333335, "rental_uris": {"ios": "https://dc.lft.to/lastmile_qr_scan", "android": "https://dc.lft.to/lastmile_qr_scan"}, "is_reserved": 0, "fusion_lon": 0.0, "fusion_lat": 0.0, "lon": -77.02475383333334, "name": "465d6aa3e865b1165b24e0ae85b05ba6"}, {"bike_id": "8acf6c54e8e5799f19ee07ff27a939f2", "type": "electric_scooter", "is_disabled": 0, "lat": 38.916946333333335, "rental_uris": {"ios": "https://dc.lft.to/lastmile_qr_scan", "android": "https://dc.lft.to/lastmile_qr_scan"}, "is_reserved": 0, "fusion_lon": 0.0, "fusion_lat": 0.0, "lon": -77.03209333333334, "name": "8acf6c54e8e5799f19ee07ff27a939f2"}, {"bike_id": "a665cc67a8b2f32d3f6f10c2dfe3dbc9", "type": "electric_bike", "is_disabled": 0, "lat": 38.86935783333333, "rental_uris": {"ios": "https://dc.lft.to/lastmile_qr_scan", "android": "https://dc.lft.to/lastmile_qr_scan"}, "is_reserved": 0, "fusion_lon": 0.0, "fusion_lat": 0.0, "lon": -77.09467683333334, "name": "a665cc67a8b2f32d3f6f10c2dfe3dbc9"}, {"bike_id": "529086fba7b27f987573f9da81e99930", "type": "electric_scooter", "is_disabled": 0, "lat": 38.9375635, "rental_uris": {"ios": "https://dc.lft.to/lastmile_qr_scan", "android": "https://dc.lft.to/lastmile_qr_scan"}, "is_reserved": 0, "fusion_lon": 0.0, "fusion_lat": 0.0, "lon": -77.02484116666666, "name": "529086fba7b27f987573f9da81e99930"}, {"bike_id": "aa71606b67301288db4bb08f12b8eade", "type": "electric_scooter", "is_disabled": 0, "lat": 38.914439, "rental_uris": {"ios": "https://dc.lft.to/lastmile_qr_scan", "android": "https://dc.lft.to/lastmile_qr_scan"}, "is_reserved": 0, "fusion_lon": 0.0, "fusion_lat": 0.0, "lon": -77.022827, "name": "aa71606b67301288db4bb08f12b8eade"}, {"bike_id": "811312e014e8a81d0d6cb16712e88f9d", "type": "electric_scooter", "is_disabled": 0, "lat": 38.91695266666667, "rental_uris": {"ios": "https://dc.lft.to/lastmile_qr_scan", "android": "https://dc.lft.to/lastmile_qr_scan"}, "is_reserved": 0, "fusion_lon": 0.0, "fusion_lat": 0.0, "lon": -77.0320685, "name": "811312e014e8a81d0d6cb16712e88f9d"}, {"bike_id": "4a6963cbab4ecc007605127f258fdc9b", "type": "electric_scooter", "is_disabled": 0, "lat": 38.883733, "rental_uris": {"ios": "https://dc.lft.to/lastmile_qr_scan", "android": "https://dc.lft.to/lastmile_qr_scan"}, "is_reserved": 0, "fusion_lon": 0.0, "fusion_lat": 0.0, "lon": -76.99519483333333, "name": "4a6963cbab4ecc007605127f258fdc9b"}, {"bike_id": "59c561c7d698eded85e9e8bf0f5e5e99", "type": "electric_scooter", "is_disabled": 0, "lat": 38.89729633333334, "rental_uris": {"ios": "https://dc.lft.to/lastmile_qr_scan", "android": "https://dc.lft.to/lastmile_qr_scan"}, "is_reserved": 0, "fusion_lon": 0.0, "fusion_lat": 0.0, "lon": -77.04992316666667, "name": "59c561c7d698eded85e9e8bf0f5e5e99"}, {"bike_id": "d69bad60699d9d107f36d81446bd8c4c", "type": "electric_scooter", "is_disabled": 0, "lat": 38.88431583333333, "rental_uris": {"ios": "https://dc.lft.to/lastmile_qr_scan", "android": "https://dc.lft.to/lastmile_qr_scan"}, "is_reserved": 0, "fusion_lon": 0.0, "fusion_lat": 0.0, "lon": -76.95747383333334, "name": "d69bad60699d9d107f36d81446bd8c4c"}, {"bike_id": "109a49812a374c60ba54cabc0b0e1f97", "type": "electric_scooter", "is_disabled": 0, "lat": 38.908088666666664, "rental_uris": {"ios": "https://dc.lft.to/lastmile_qr_scan", "android": "https://dc.lft.to/lastmile_qr_scan"}, "is_reserved": 0, "fusion_lon": 0.0, "fusion_lat": 0.0, "lon": -77.034459, "name": "109a49812a374c60ba54cabc0b0e1f97"}, {"bike_id": "be0173e2fae40f5ec6ecef69e63f28b5", "type": "electric_scooter", "is_disabled": 0, "lat": 38.91971616666667, "rental_uris": {"ios": "https://dc.lft.to/lastmile_qr_scan", "android": "https://dc.lft.to/lastmile_qr_scan"}, "is_reserved": 0, "fusion_lon": 0.0, "fusion_lat": 0.0, "lon": -77.01908433333334, "name": "be0173e2fae40f5ec6ecef69e63f28b5"}, {"bike_id": "8e46daa94e9a8c0863d79f1c44ed7f99", "type": "electric_scooter", "is_disabled": 0, "lat": 38.91513916666667, "rental_uris": {"ios": "https://dc.lft.to/lastmile_qr_scan", "android": "https://dc.lft.to/lastmile_qr_scan"}, "is_reserved": 0, "fusion_lon": 0.0, "fusion_lat": 0.0, "lon": -77.06856266666666, "name": "8e46daa94e9a8c0863d79f1c44ed7f99"}, {"bike_id": "b3eaad695e664515a7d78b605ca1391c", "type": "electric_scooter", "is_disabled": 0, "lat": 38.9141225, "rental_uris": {"ios": "https://dc.lft.to/lastmile_qr_scan", "android": "https://dc.lft.to/lastmile_qr_scan"}, "is_reserved": 0, "fusion_lon": 0.0, "fusion_lat": 0.0, "lon": -77.04466683333334, "name": "b3eaad695e664515a7d78b605ca1391c"}, {"bike_id": "92f62d1f6f3da5721393cc5e00b2988d", "type": "electric_scooter", "is_disabled": 0, "lat": 38.936524, "rental_uris": {"ios": "https://dc.lft.to/lastmile_qr_scan", "android": "https://dc.lft.to/lastmile_qr_scan"}, "is_reserved": 0, "fusion_lon": 0.0, "fusion_lat": 0.0, "lon": -77.026386, "name": "92f62d1f6f3da5721393cc5e00b2988d"}, {"bike_id": "18464160900c465561c13cbc13a0dd86", "type": "electric_scooter", "is_disabled": 0, "lat": 38.88849166666667, "rental_uris": {"ios": "https://dc.lft.to/lastmile_qr_scan", "android": "https://dc.lft.to/lastmile_qr_scan"}, "is_reserved": 0, "fusion_lon": 0.0, "fusion_lat": 0.0, "lon": -76.92675933333334, "name": "18464160900c465561c13cbc13a0dd86"}, {"bike_id": "49ad3c61d4613f7d964bd03a5bdee71f", "type": "electric_scooter", "is_disabled": 0, "lat": 38.930615, "rental_uris": {"ios": "https://dc.lft.to/lastmile_qr_scan", "android": "https://dc.lft.to/lastmile_qr_scan"}, "is_reserved": 0, "fusion_lon": 0.0, "fusion_lat": 0.0, "lon": -77.029812, "name": "49ad3c61d4613f7d964bd03a5bdee71f"}, {"bike_id": "767020e2eb52882c5671a1e1278d217b", "type": "electric_scooter", "is_disabled": 0, "lat": 38.899721666666665, "rental_uris": {"ios": "https://dc.lft.to/lastmile_qr_scan", "android": "https://dc.lft.to/lastmile_qr_scan"}, "is_reserved": 0, "fusion_lon": 0.0, "fusion_lat": 0.0, "lon": -77.01599983333334, "name": "767020e2eb52882c5671a1e1278d217b"}, {"bike_id": "738c4cc8a9449c39a0c1ecf18e9c0814", "type": "electric_scooter", "is_disabled": 0, "lat": 38.91149883333333, "rental_uris": {"ios": "https://dc.lft.to/lastmile_qr_scan", "android": "https://dc.lft.to/lastmile_qr_scan"}, "is_reserved": 0, "fusion_lon": 0.0, "fusion_lat": 0.0, "lon": -77.022828, "name": "738c4cc8a9449c39a0c1ecf18e9c0814"}, {"bike_id": "bedc14b3b6cf1e7f741c99a3d1028050", "type": "electric_scooter", "is_disabled": 0, "lat": 38.90061516666667, "rental_uris": {"ios": "https://dc.lft.to/lastmile_qr_scan", "android": "https://dc.lft.to/lastmile_qr_scan"}, "is_reserved": 0, "fusion_lon": 0.0, "fusion_lat": 0.0, "lon": -76.92739383333333, "name": "bedc14b3b6cf1e7f741c99a3d1028050"}, {"bike_id": "ebf05da2cb55952e587fab7040caa530", "type": "electric_scooter", "is_disabled": 0, "lat": 38.964066333333335, "rental_uris": {"ios": "https://dc.lft.to/lastmile_qr_scan", "android": "https://dc.lft.to/lastmile_qr_scan"}, "is_reserved": 0, "fusion_lon": 0.0, "fusion_lat": 0.0, "lon": -77.02762366666667, "name": "ebf05da2cb55952e587fab7040caa530"}, {"bike_id": "bef1d29cc50f67b83763712ecd832a99", "type": "electric_bike", "is_disabled": 0, "lat": 38.96620566666667, "rental_uris": {"ios": "https://dc.lft.to/lastmile_qr_scan", "android": "https://dc.lft.to/lastmile_qr_scan"}, "is_reserved": 0, "fusion_lon": 0.0, "fusion_lat": 0.0, "lon": -77.03425483333334, "name": "bef1d29cc50f67b83763712ecd832a99"}, {"bike_id": "97d8b176ec1a358216bb2e4b3848e02f", "type": "electric_scooter", "is_disabled": 0, "lat": 38.9000225, "rental_uris": {"ios": "https://dc.lft.to/lastmile_qr_scan", "android": "https://dc.lft.to/lastmile_qr_scan"}, "is_reserved": 0, "fusion_lon": 0.0, "fusion_lat": 0.0, "lon": -76.9984215, "name": "97d8b176ec1a358216bb2e4b3848e02f"}, {"bike_id": "cc23a8ca2f64ea71fa10d44a336d6476", "type": "electric_scooter", "is_disabled": 0, "lat": 38.901911166666665, "rental_uris": {"ios": "https://dc.lft.to/lastmile_qr_scan", "android": "https://dc.lft.to/lastmile_qr_scan"}, "is_reserved": 0, "fusion_lon": 0.0, "fusion_lat": 0.0, "lon": -77.01308916666666, "name": "cc23a8ca2f64ea71fa10d44a336d6476"}, {"bike_id": "fa8aa10dbf4bf0cd26ee172995f85f65", "type": "electric_bike", "is_disabled": 0, "lat": 39.014796, "rental_uris": {"ios": "https://dc.lft.to/lastmile_qr_scan", "android": "https://dc.lft.to/lastmile_qr_scan"}, "is_reserved": 0, "fusion_lon": 0.0, "fusion_lat": 0.0, "lon": -77.054951, "name": "fa8aa10dbf4bf0cd26ee172995f85f65"}, {"bike_id": "ac99e824a192bcc0bf6c9659833517e3", "type": "electric_scooter", "is_disabled": 0, "lat": 38.90033916666667, "rental_uris": {"ios": "https://dc.lft.to/lastmile_qr_scan", "android": "https://dc.lft.to/lastmile_qr_scan"}, "is_reserved": 0, "fusion_lon": 0.0, "fusion_lat": 0.0, "lon": -77.01766283333333, "name": "ac99e824a192bcc0bf6c9659833517e3"}, {"bike_id": "9c57c4c4f3b4c1dd74dd98090054a3a4", "type": "electric_scooter", "is_disabled": 0, "lat": 38.928753666666665, "rental_uris": {"ios": "https://dc.lft.to/lastmile_qr_scan", "android": "https://dc.lft.to/lastmile_qr_scan"}, "is_reserved": 0, "fusion_lon": 0.0, "fusion_lat": 0.0, "lon": -77.0122965, "name": "9c57c4c4f3b4c1dd74dd98090054a3a4"}, {"bike_id": "2c942f55f74cc0cfa1fc493feaff8044", "type": "electric_scooter", "is_disabled": 0, "lat": 38.930801, "rental_uris": {"ios": "https://dc.lft.to/lastmile_qr_scan", "android": "https://dc.lft.to/lastmile_qr_scan"}, "is_reserved": 0, "fusion_lon": 0.0, "fusion_lat": 0.0, "lon": -77.027939, "name": "2c942f55f74cc0cfa1fc493feaff8044"}, {"bike_id": "a0ee37bf66f5fdbe42dadc507be5f782", "type": "electric_scooter", "is_disabled": 0, "lat": 38.91888316666667, "rental_uris": {"ios": "https://dc.lft.to/lastmile_qr_scan", "android": "https://dc.lft.to/lastmile_qr_scan"}, "is_reserved": 0, "fusion_lon": 0.0, "fusion_lat": 0.0, "lon": -77.0145995, "name": "a0ee37bf66f5fdbe42dadc507be5f782"}, {"bike_id": "0c3f4998002ad58c1c71b1552425c727", "type": "electric_scooter", "is_disabled": 0, "lat": 38.910813, "rental_uris": {"ios": "https://dc.lft.to/lastmile_qr_scan", "android": "https://dc.lft.to/lastmile_qr_scan"}, "is_reserved": 0, "fusion_lon": 0.0, "fusion_lat": 0.0, "lon": -77.01511, "name": "0c3f4998002ad58c1c71b1552425c727"}, {"bike_id": "7ef3cfcd24df3d72459d7bce8393b12f", "type": "electric_scooter", "is_disabled": 0, "lat": 38.903607666666666, "rental_uris": {"ios": "https://dc.lft.to/lastmile_qr_scan", "android": "https://dc.lft.to/lastmile_qr_scan"}, "is_reserved": 0, "fusion_lon": 0.0, "fusion_lat": 0.0, "lon": -77.05373633333333, "name": "7ef3cfcd24df3d72459d7bce8393b12f"}, {"bike_id": "c21acf8deace2386afdf3e2e23b11738", "type": "electric_scooter", "is_disabled": 0, "lat": 38.915621, "rental_uris": {"ios": "https://dc.lft.to/lastmile_qr_scan", "android": "https://dc.lft.to/lastmile_qr_scan"}, "is_reserved": 0, "fusion_lon": 0.0, "fusion_lat": 0.0, "lon": -77.038658, "name": "c21acf8deace2386afdf3e2e23b11738"}, {"bike_id": "645c4f476b036c96afc2a955ab59d1ab", "type": "electric_scooter", "is_disabled": 0, "lat": 38.912688, "rental_uris": {"ios": "https://dc.lft.to/lastmile_qr_scan", "android": "https://dc.lft.to/lastmile_qr_scan"}, "is_reserved": 0, "fusion_lon": 0.0, "fusion_lat": 0.0, "lon": -77.0224485, "name": "645c4f476b036c96afc2a955ab59d1ab"}, {"bike_id": "4726153b3397d873157b81e54e3bdf06", "type": "electric_scooter", "is_disabled": 0, "lat": 38.926089166666664, "rental_uris": {"ios": "https://dc.lft.to/lastmile_qr_scan", "android": "https://dc.lft.to/lastmile_qr_scan"}, "is_reserved": 0, "fusion_lon": 0.0, "fusion_lat": 0.0, "lon": -77.026587, "name": "4726153b3397d873157b81e54e3bdf06"}, {"bike_id": "e6d37b80da7f177b52e0a55a99d6d8c4", "type": "electric_scooter", "is_disabled": 0, "lat": 38.905128833333336, "rental_uris": {"ios": "https://dc.lft.to/lastmile_qr_scan", "android": "https://dc.lft.to/lastmile_qr_scan"}, "is_reserved": 0, "fusion_lon": 0.0, "fusion_lat": 0.0, "lon": -77.068696, "name": "e6d37b80da7f177b52e0a55a99d6d8c4"}, {"bike_id": "049960f448679e00686c98a02b9bf353", "type": "electric_scooter", "is_disabled": 0, "lat": 38.8766335, "rental_uris": {"ios": "https://dc.lft.to/lastmile_qr_scan", "android": "https://dc.lft.to/lastmile_qr_scan"}, "is_reserved": 0, "fusion_lon": 0.0, "fusion_lat": 0.0, "lon": -77.00407883333334, "name": "049960f448679e00686c98a02b9bf353"}, {"bike_id": "8211a0f9b8ddd8390bcfc6f507f8134a", "type": "electric_scooter", "is_disabled": 0, "lat": 38.921489333333334, "rental_uris": {"ios": "https://dc.lft.to/lastmile_qr_scan", "android": "https://dc.lft.to/lastmile_qr_scan"}, "is_reserved": 0, "fusion_lon": 0.0, "fusion_lat": 0.0, "lon": -77.03433633333333, "name": "8211a0f9b8ddd8390bcfc6f507f8134a"}, {"bike_id": "076041c338369d94c40eca70b8b8a7bf", "type": "electric_scooter", "is_disabled": 0, "lat": 38.8908225, "rental_uris": {"ios": "https://dc.lft.to/lastmile_qr_scan", "android": "https://dc.lft.to/lastmile_qr_scan"}, "is_reserved": 0, "fusion_lon": 0.0, "fusion_lat": 0.0, "lon": -77.0026075, "name": "076041c338369d94c40eca70b8b8a7bf"}, {"bike_id": "ddb3e9cd721c4cec842cfc6bfbdec01e", "type": "electric_scooter", "is_disabled": 0, "lat": 38.878428666666665, "rental_uris": {"ios": "https://dc.lft.to/lastmile_qr_scan", "android": "https://dc.lft.to/lastmile_qr_scan"}, "is_reserved": 0, "fusion_lon": 0.0, "fusion_lat": 0.0, "lon": -77.00592166666667, "name": "ddb3e9cd721c4cec842cfc6bfbdec01e"}, {"bike_id": "8736893c290398c38ab0cd05bc19452a", "type": "electric_scooter", "is_disabled": 0, "lat": 38.94209983333333, "rental_uris": {"ios": "https://dc.lft.to/lastmile_qr_scan", "android": "https://dc.lft.to/lastmile_qr_scan"}, "is_reserved": 0, "fusion_lon": 0.0, "fusion_lat": 0.0, "lon": -77.025862, "name": "8736893c290398c38ab0cd05bc19452a"}, {"bike_id": "fdb5348dc47a390bde437b0031125fd7", "type": "electric_scooter", "is_disabled": 0, "lat": 38.919291666666666, "rental_uris": {"ios": "https://dc.lft.to/lastmile_qr_scan", "android": "https://dc.lft.to/lastmile_qr_scan"}, "is_reserved": 0, "fusion_lon": 0.0, "fusion_lat": 0.0, "lon": -77.03099416666667, "name": "fdb5348dc47a390bde437b0031125fd7"}, {"bike_id": "dbd79e903d363f2ef6fd7fd9b59600cc", "type": "electric_scooter", "is_disabled": 0, "lat": 38.90642666666667, "rental_uris": {"ios": "https://dc.lft.to/lastmile_qr_scan", "android": "https://dc.lft.to/lastmile_qr_scan"}, "is_reserved": 0, "fusion_lon": 0.0, "fusion_lat": 0.0, "lon": -76.98585483333333, "name": "dbd79e903d363f2ef6fd7fd9b59600cc"}, {"bike_id": "980f91cbde0275a8176cbbde575ddcba", "type": "electric_bike", "is_disabled": 0, "lat": 39.039842666666665, "rental_uris": {"ios": "https://dc.lft.to/lastmile_qr_scan", "android": "https://dc.lft.to/lastmile_qr_scan"}, "is_reserved": 0, "fusion_lon": 0.0, "fusion_lat": 0.0, "lon": -76.999282, "name": "980f91cbde0275a8176cbbde575ddcba"}, {"bike_id": "c18922d36c8464584a27385d08659081", "type": "electric_scooter", "is_disabled": 0, "lat": 38.88525666666666, "rental_uris": {"ios": "https://dc.lft.to/lastmile_qr_scan", "android": "https://dc.lft.to/lastmile_qr_scan"}, "is_reserved": 0, "fusion_lon": 0.0, "fusion_lat": 0.0, "lon": -77.01136883333334, "name": "c18922d36c8464584a27385d08659081"}, {"bike_id": "0157320a19a6a9658a9e82b51d6f651e", "type": "electric_scooter", "is_disabled": 0, "lat": 38.92209116666667, "rental_uris": {"ios": "https://dc.lft.to/lastmile_qr_scan", "android": "https://dc.lft.to/lastmile_qr_scan"}, "is_reserved": 0, "fusion_lon": 0.0, "fusion_lat": 0.0, "lon": -77.034532, "name": "0157320a19a6a9658a9e82b51d6f651e"}, {"bike_id": "0a64703dda2b6adcc8a9cc24918c2e37", "type": "electric_scooter", "is_disabled": 0, "lat": 38.9614045, "rental_uris": {"ios": "https://dc.lft.to/lastmile_qr_scan", "android": "https://dc.lft.to/lastmile_qr_scan"}, "is_reserved": 0, "fusion_lon": 0.0, "fusion_lat": 0.0, "lon": -77.0299025, "name": "0a64703dda2b6adcc8a9cc24918c2e37"}, {"bike_id": "5490fa4f4d6edcd4d8422327cfb5308e", "type": "electric_scooter", "is_disabled": 0, "lat": 38.90450633333333, "rental_uris": {"ios": "https://dc.lft.to/lastmile_qr_scan", "android": "https://dc.lft.to/lastmile_qr_scan"}, "is_reserved": 0, "fusion_lon": 0.0, "fusion_lat": 0.0, "lon": -77.02692066666667, "name": "5490fa4f4d6edcd4d8422327cfb5308e"}, {"bike_id": "d55a17b150c67c8d4ff3edc238bf9705", "type": "electric_scooter", "is_disabled": 0, "lat": 38.94603866666667, "rental_uris": {"ios": "https://dc.lft.to/lastmile_qr_scan", "android": "https://dc.lft.to/lastmile_qr_scan"}, "is_reserved": 0, "fusion_lon": 0.0, "fusion_lat": 0.0, "lon": -77.07029983333334, "name": "d55a17b150c67c8d4ff3edc238bf9705"}, {"bike_id": "e2ffb1729ac1a8872e18b20465d51759", "type": "electric_scooter", "is_disabled": 0, "lat": 38.90394366666666, "rental_uris": {"ios": "https://dc.lft.to/lastmile_qr_scan", "android": "https://dc.lft.to/lastmile_qr_scan"}, "is_reserved": 0, "fusion_lon": 0.0, "fusion_lat": 0.0, "lon": -77.04827016666667, "name": "e2ffb1729ac1a8872e18b20465d51759"}, {"bike_id": "55fc3c16c97271c49a5d85d3676f952b", "type": "electric_scooter", "is_disabled": 0, "lat": 38.935353166666665, "rental_uris": {"ios": "https://dc.lft.to/lastmile_qr_scan", "android": "https://dc.lft.to/lastmile_qr_scan"}, "is_reserved": 0, "fusion_lon": 0.0, "fusion_lat": 0.0, "lon": -77.023466, "name": "55fc3c16c97271c49a5d85d3676f952b"}, {"bike_id": "f4bd0870d4ccc811030491d4d6cf5bc0", "type": "electric_bike", "is_disabled": 0, "lat": 38.92437066666667, "rental_uris": {"ios": "https://dc.lft.to/lastmile_qr_scan", "android": "https://dc.lft.to/lastmile_qr_scan"}, "is_reserved": 0, "fusion_lon": 0.0, "fusion_lat": 0.0, "lon": -76.99652933333333, "name": "f4bd0870d4ccc811030491d4d6cf5bc0"}, {"bike_id": "eebec14031cc17d40a8ca434471e2b8a", "type": "electric_scooter", "is_disabled": 0, "lat": 38.89729966666667, "rental_uris": {"ios": "https://dc.lft.to/lastmile_qr_scan", "android": "https://dc.lft.to/lastmile_qr_scan"}, "is_reserved": 0, "fusion_lon": 0.0, "fusion_lat": 0.0, "lon": -77.05473466666666, "name": "eebec14031cc17d40a8ca434471e2b8a"}, {"bike_id": "d42f75d366801642414d77871d861210", "type": "electric_scooter", "is_disabled": 0, "lat": 38.90258333333333, "rental_uris": {"ios": "https://dc.lft.to/lastmile_qr_scan", "android": "https://dc.lft.to/lastmile_qr_scan"}, "is_reserved": 0, "fusion_lon": 0.0, "fusion_lat": 0.0, "lon": -76.97547833333333, "name": "d42f75d366801642414d77871d861210"}, {"bike_id": "3be8a8321b529d549a32c76c840f24ae", "type": "electric_scooter", "is_disabled": 0, "lat": 38.906840833333334, "rental_uris": {"ios": "https://dc.lft.to/lastmile_qr_scan", "android": "https://dc.lft.to/lastmile_qr_scan"}, "is_reserved": 0, "fusion_lon": 0.0, "fusion_lat": 0.0, "lon": -77.05329666666667, "name": "3be8a8321b529d549a32c76c840f24ae"}, {"bike_id": "3829dc4caa7f2445ffb0624bedfd30ac", "type": "electric_scooter", "is_disabled": 0, "lat": 38.87652283333333, "rental_uris": {"ios": "https://dc.lft.to/lastmile_qr_scan", "android": "https://dc.lft.to/lastmile_qr_scan"}, "is_reserved": 0, "fusion_lon": 0.0, "fusion_lat": 0.0, "lon": -77.00302983333333, "name": "3829dc4caa7f2445ffb0624bedfd30ac"}, {"bike_id": "ed95e1707c0c4f3af307177c1e7115c8", "type": "electric_scooter", "is_disabled": 0, "lat": 38.93118116666667, "rental_uris": {"ios": "https://dc.lft.to/lastmile_qr_scan", "android": "https://dc.lft.to/lastmile_qr_scan"}, "is_reserved": 0, "fusion_lon": 0.0, "fusion_lat": 0.0, "lon": -77.0209975, "name": "ed95e1707c0c4f3af307177c1e7115c8"}, {"bike_id": "3e8a34508707631e018fd9dce024c4e8", "type": "electric_scooter", "is_disabled": 0, "lat": 38.89849133333333, "rental_uris": {"ios": "https://dc.lft.to/lastmile_qr_scan", "android": "https://dc.lft.to/lastmile_qr_scan"}, "is_reserved": 0, "fusion_lon": 0.0, "fusion_lat": 0.0, "lon": -76.9903345, "name": "3e8a34508707631e018fd9dce024c4e8"}, {"bike_id": "1d1d2886e2ba8039998c1510428e7549", "type": "electric_scooter", "is_disabled": 0, "lat": 38.88741616666667, "rental_uris": {"ios": "https://dc.lft.to/lastmile_qr_scan", "android": "https://dc.lft.to/lastmile_qr_scan"}, "is_reserved": 0, "fusion_lon": 0.0, "fusion_lat": 0.0, "lon": -76.9835885, "name": "1d1d2886e2ba8039998c1510428e7549"}, {"bike_id": "ffd8a3c63669200608c61d2af00dced2", "type": "electric_scooter", "is_disabled": 0, "lat": 38.907833, "rental_uris": {"ios": "https://dc.lft.to/lastmile_qr_scan", "android": "https://dc.lft.to/lastmile_qr_scan"}, "is_reserved": 0, "fusion_lon": 0.0, "fusion_lat": 0.0, "lon": -77.0185885, "name": "ffd8a3c63669200608c61d2af00dced2"}, {"bike_id": "19f4c5fa935662ac1f10dd3a360c8cbd", "type": "electric_scooter", "is_disabled": 0, "lat": 38.92254233333333, "rental_uris": {"ios": "https://dc.lft.to/lastmile_qr_scan", "android": "https://dc.lft.to/lastmile_qr_scan"}, "is_reserved": 0, "fusion_lon": 0.0, "fusion_lat": 0.0, "lon": -77.03519816666666, "name": "19f4c5fa935662ac1f10dd3a360c8cbd"}, {"bike_id": "4f22059e30de8a784c7cda17ba27cc66", "type": "electric_scooter", "is_disabled": 0, "lat": 38.900551166666666, "rental_uris": {"ios": "https://dc.lft.to/lastmile_qr_scan", "android": "https://dc.lft.to/lastmile_qr_scan"}, "is_reserved": 0, "fusion_lon": 0.0, "fusion_lat": 0.0, "lon": -77.04831116666666, "name": "4f22059e30de8a784c7cda17ba27cc66"}, {"bike_id": "96274d8a814f7ce823c639bb9332d84a", "type": "electric_scooter", "is_disabled": 0, "lat": 38.911161666666665, "rental_uris": {"ios": "https://dc.lft.to/lastmile_qr_scan", "android": "https://dc.lft.to/lastmile_qr_scan"}, "is_reserved": 0, "fusion_lon": 0.0, "fusion_lat": 0.0, "lon": -77.03831416666667, "name": "96274d8a814f7ce823c639bb9332d84a"}, {"bike_id": "f9c8c8c2d0a4ba912651d3ce15c4e804", "type": "electric_scooter", "is_disabled": 0, "lat": 38.91295083333333, "rental_uris": {"ios": "https://dc.lft.to/lastmile_qr_scan", "android": "https://dc.lft.to/lastmile_qr_scan"}, "is_reserved": 0, "fusion_lon": 0.0, "fusion_lat": 0.0, "lon": -77.019781, "name": "f9c8c8c2d0a4ba912651d3ce15c4e804"}, {"bike_id": "edeb826511f847e2d41a6de83f230aa7", "type": "electric_scooter", "is_disabled": 0, "lat": 38.907787, "rental_uris": {"ios": "https://dc.lft.to/lastmile_qr_scan", "android": "https://dc.lft.to/lastmile_qr_scan"}, "is_reserved": 0, "fusion_lon": 0.0, "fusion_lat": 0.0, "lon": -77.02051616666667, "name": "edeb826511f847e2d41a6de83f230aa7"}, {"bike_id": "4161b150ecbed9c938158892d76e3dff", "type": "electric_bike", "is_disabled": 0, "lat": 38.89563533333333, "rental_uris": {"ios": "https://dc.lft.to/lastmile_qr_scan", "android": "https://dc.lft.to/lastmile_qr_scan"}, "is_reserved": 0, "fusion_lon": 0.0, "fusion_lat": 0.0, "lon": -77.127406, "name": "4161b150ecbed9c938158892d76e3dff"}, {"bike_id": "54134e1eb387a63d0f42da94bdc6dc58", "type": "electric_scooter", "is_disabled": 0, "lat": 38.917219833333334, "rental_uris": {"ios": "https://dc.lft.to/lastmile_qr_scan", "android": "https://dc.lft.to/lastmile_qr_scan"}, "is_reserved": 0, "fusion_lon": 0.0, "fusion_lat": 0.0, "lon": -77.02503366666667, "name": "54134e1eb387a63d0f42da94bdc6dc58"}, {"bike_id": "f9ab49aa4be0560a2eff1791f7edba34", "type": "electric_scooter", "is_disabled": 0, "lat": 38.90780516666667, "rental_uris": {"ios": "https://dc.lft.to/lastmile_qr_scan", "android": "https://dc.lft.to/lastmile_qr_scan"}, "is_reserved": 0, "fusion_lon": 0.0, "fusion_lat": 0.0, "lon": -77.01104883333333, "name": "f9ab49aa4be0560a2eff1791f7edba34"}, {"bike_id": "e5cc8e1822c09f3f300cd84af5288d24", "type": "electric_bike", "is_disabled": 0, "lat": 38.868726333333335, "rental_uris": {"ios": "https://dc.lft.to/lastmile_qr_scan", "android": "https://dc.lft.to/lastmile_qr_scan"}, "is_reserved": 0, "fusion_lon": 0.0, "fusion_lat": 0.0, "lon": -76.95783683333333, "name": "e5cc8e1822c09f3f300cd84af5288d24"}, {"bike_id": "89074843d323f59b4d2578531947862f", "type": "electric_scooter", "is_disabled": 0, "lat": 38.863730333333336, "rental_uris": {"ios": "https://dc.lft.to/lastmile_qr_scan", "android": "https://dc.lft.to/lastmile_qr_scan"}, "is_reserved": 0, "fusion_lon": 0.0, "fusion_lat": 0.0, "lon": -76.99057133333334, "name": "89074843d323f59b4d2578531947862f"}, {"bike_id": "253e51be003e4421d72eec6fd05071f4", "type": "electric_scooter", "is_disabled": 0, "lat": 38.911423166666665, "rental_uris": {"ios": "https://dc.lft.to/lastmile_qr_scan", "android": "https://dc.lft.to/lastmile_qr_scan"}, "is_reserved": 0, "fusion_lon": 0.0, "fusion_lat": 0.0, "lon": -77.02693, "name": "253e51be003e4421d72eec6fd05071f4"}, {"bike_id": "55887e7779b8bdca812e1a964dc4032c", "type": "electric_scooter", "is_disabled": 0, "lat": 38.8624715, "rental_uris": {"ios": "https://dc.lft.to/lastmile_qr_scan", "android": "https://dc.lft.to/lastmile_qr_scan"}, "is_reserved": 0, "fusion_lon": 0.0, "fusion_lat": 0.0, "lon": -76.99261116666666, "name": "55887e7779b8bdca812e1a964dc4032c"}, {"bike_id": "ecee52b51dd60a753b7b9aaade4ad9f0", "type": "electric_bike", "is_disabled": 0, "lat": 38.9082775, "rental_uris": {"ios": "https://dc.lft.to/lastmile_qr_scan", "android": "https://dc.lft.to/lastmile_qr_scan"}, "is_reserved": 0, "fusion_lon": 0.0, "fusion_lat": 0.0, "lon": -76.94156733333334, "name": "ecee52b51dd60a753b7b9aaade4ad9f0"}, {"bike_id": "3f69e87c9d54db8f54b9fa0697ba417e", "type": "electric_scooter", "is_disabled": 0, "lat": 38.921205666666665, "rental_uris": {"ios": "https://dc.lft.to/lastmile_qr_scan", "android": "https://dc.lft.to/lastmile_qr_scan"}, "is_reserved": 0, "fusion_lon": 0.0, "fusion_lat": 0.0, "lon": -77.0437045, "name": "3f69e87c9d54db8f54b9fa0697ba417e"}, {"bike_id": "2005cecc4e464e25bf5f348a4c243a85", "type": "electric_scooter", "is_disabled": 0, "lat": 38.88931783333334, "rental_uris": {"ios": "https://dc.lft.to/lastmile_qr_scan", "android": "https://dc.lft.to/lastmile_qr_scan"}, "is_reserved": 0, "fusion_lon": 0.0, "fusion_lat": 0.0, "lon": -77.01503316666667, "name": "2005cecc4e464e25bf5f348a4c243a85"}, {"bike_id": "366370c799d092a17e4a01a2ede4762c", "type": "electric_bike", "is_disabled": 0, "lat": 38.876664166666664, "rental_uris": {"ios": "https://dc.lft.to/lastmile_qr_scan", "android": "https://dc.lft.to/lastmile_qr_scan"}, "is_reserved": 0, "fusion_lon": 0.0, "fusion_lat": 0.0, "lon": -77.014565, "name": "366370c799d092a17e4a01a2ede4762c"}, {"bike_id": "cfdd31d293d8cc7789d7c8a5293038da", "type": "electric_bike", "is_disabled": 0, "lat": 39.050484166666664, "rental_uris": {"ios": "https://dc.lft.to/lastmile_qr_scan", "android": "https://dc.lft.to/lastmile_qr_scan"}, "is_reserved": 0, "fusion_lon": 0.0, "fusion_lat": 0.0, "lon": -77.05144833333334, "name": "cfdd31d293d8cc7789d7c8a5293038da"}, {"bike_id": "48cf33319b7abfccb881d4ce23b79e74", "type": "electric_scooter", "is_disabled": 0, "lat": 38.91414366666667, "rental_uris": {"ios": "https://dc.lft.to/lastmile_qr_scan", "android": "https://dc.lft.to/lastmile_qr_scan"}, "is_reserved": 0, "fusion_lon": 0.0, "fusion_lat": 0.0, "lon": -77.02984833333333, "name": "48cf33319b7abfccb881d4ce23b79e74"}, {"bike_id": "ddbfffdbe0f1d60b42bda1004afbdfda", "type": "electric_scooter", "is_disabled": 0, "lat": 38.9041945, "rental_uris": {"ios": "https://dc.lft.to/lastmile_qr_scan", "android": "https://dc.lft.to/lastmile_qr_scan"}, "is_reserved": 0, "fusion_lon": 0.0, "fusion_lat": 0.0, "lon": -77.02770533333333, "name": "ddbfffdbe0f1d60b42bda1004afbdfda"}, {"bike_id": "bc815b3e94b979682c3c5dcd8c1e18cb", "type": "electric_scooter", "is_disabled": 0, "lat": 38.91735883333333, "rental_uris": {"ios": "https://dc.lft.to/lastmile_qr_scan", "android": "https://dc.lft.to/lastmile_qr_scan"}, "is_reserved": 0, "fusion_lon": 0.0, "fusion_lat": 0.0, "lon": -77.026963, "name": "bc815b3e94b979682c3c5dcd8c1e18cb"}, {"bike_id": "ad2fa67b7aa7497d75d2edfb9ef8b196", "type": "electric_scooter", "is_disabled": 0, "lat": 38.90015016666667, "rental_uris": {"ios": "https://dc.lft.to/lastmile_qr_scan", "android": "https://dc.lft.to/lastmile_qr_scan"}, "is_reserved": 0, "fusion_lon": 0.0, "fusion_lat": 0.0, "lon": -77.04464133333333, "name": "ad2fa67b7aa7497d75d2edfb9ef8b196"}, {"bike_id": "967fe464e1c658555311fef632d2ea2c", "type": "electric_scooter", "is_disabled": 0, "lat": 38.897932833333336, "rental_uris": {"ios": "https://dc.lft.to/lastmile_qr_scan", "android": "https://dc.lft.to/lastmile_qr_scan"}, "is_reserved": 0, "fusion_lon": 0.0, "fusion_lat": 0.0, "lon": -77.01194283333334, "name": "967fe464e1c658555311fef632d2ea2c"}, {"bike_id": "32bc115532fb05b2f64e1bb1dfdee8df", "type": "electric_scooter", "is_disabled": 0, "lat": 38.93249933333333, "rental_uris": {"ios": "https://dc.lft.to/lastmile_qr_scan", "android": "https://dc.lft.to/lastmile_qr_scan"}, "is_reserved": 0, "fusion_lon": 0.0, "fusion_lat": 0.0, "lon": -77.03852416666666, "name": "32bc115532fb05b2f64e1bb1dfdee8df"}, {"bike_id": "6bd34cb8ffa4fc89dbff00b84a5d42d5", "type": "electric_scooter", "is_disabled": 0, "lat": 38.89317533333333, "rental_uris": {"ios": "https://dc.lft.to/lastmile_qr_scan", "android": "https://dc.lft.to/lastmile_qr_scan"}, "is_reserved": 0, "fusion_lon": 0.0, "fusion_lat": 0.0, "lon": -77.02821316666666, "name": "6bd34cb8ffa4fc89dbff00b84a5d42d5"}, {"bike_id": "3a50933611f9d6550dae9dd4b39ad4ed", "type": "electric_scooter", "is_disabled": 0, "lat": 38.9095625, "rental_uris": {"ios": "https://dc.lft.to/lastmile_qr_scan", "android": "https://dc.lft.to/lastmile_qr_scan"}, "is_reserved": 0, "fusion_lon": 0.0, "fusion_lat": 0.0, "lon": -77.04866383333334, "name": "3a50933611f9d6550dae9dd4b39ad4ed"}, {"bike_id": "1a1a3f738f8e00659453f960952a33f4", "type": "electric_scooter", "is_disabled": 0, "lat": 38.880239833333334, "rental_uris": {"ios": "https://dc.lft.to/lastmile_qr_scan", "android": "https://dc.lft.to/lastmile_qr_scan"}, "is_reserved": 0, "fusion_lon": 0.0, "fusion_lat": 0.0, "lon": -77.02468583333334, "name": "1a1a3f738f8e00659453f960952a33f4"}, {"bike_id": "f81ebc73c8003c725f3b15a39bf578aa", "type": "electric_scooter", "is_disabled": 0, "lat": 38.92657583333333, "rental_uris": {"ios": "https://dc.lft.to/lastmile_qr_scan", "android": "https://dc.lft.to/lastmile_qr_scan"}, "is_reserved": 0, "fusion_lon": 0.0, "fusion_lat": 0.0, "lon": -77.03725383333334, "name": "f81ebc73c8003c725f3b15a39bf578aa"}, {"bike_id": "78df7dff111dace0c3bcd443b6b77c70", "type": "electric_scooter", "is_disabled": 0, "lat": 38.911074166666666, "rental_uris": {"ios": "https://dc.lft.to/lastmile_qr_scan", "android": "https://dc.lft.to/lastmile_qr_scan"}, "is_reserved": 0, "fusion_lon": 0.0, "fusion_lat": 0.0, "lon": -77.03466216666666, "name": "78df7dff111dace0c3bcd443b6b77c70"}, {"bike_id": "66daadc501afffd0a79526b59a6bad28", "type": "electric_bike", "is_disabled": 0, "lat": 38.83237866666666, "rental_uris": {"ios": "https://dc.lft.to/lastmile_qr_scan", "android": "https://dc.lft.to/lastmile_qr_scan"}, "is_reserved": 0, "fusion_lon": 0.0, "fusion_lat": 0.0, "lon": -76.94621783333334, "name": "66daadc501afffd0a79526b59a6bad28"}, {"bike_id": "bdbfcbf77ff596c41c4153bb20ac7592", "type": "electric_scooter", "is_disabled": 0, "lat": 38.90008266666667, "rental_uris": {"ios": "https://dc.lft.to/lastmile_qr_scan", "android": "https://dc.lft.to/lastmile_qr_scan"}, "is_reserved": 0, "fusion_lon": 0.0, "fusion_lat": 0.0, "lon": -77.04682683333333, "name": "bdbfcbf77ff596c41c4153bb20ac7592"}, {"bike_id": "c06d97468f415b210627eece6b3fc6f6", "type": "electric_scooter", "is_disabled": 0, "lat": 38.91632283333333, "rental_uris": {"ios": "https://dc.lft.to/lastmile_qr_scan", "android": "https://dc.lft.to/lastmile_qr_scan"}, "is_reserved": 0, "fusion_lon": 0.0, "fusion_lat": 0.0, "lon": -77.01079083333333, "name": "c06d97468f415b210627eece6b3fc6f6"}, {"bike_id": "ed115586197daa53fa607ab0c2dd8611", "type": "electric_scooter", "is_disabled": 0, "lat": 38.9008335, "rental_uris": {"ios": "https://dc.lft.to/lastmile_qr_scan", "android": "https://dc.lft.to/lastmile_qr_scan"}, "is_reserved": 0, "fusion_lon": 0.0, "fusion_lat": 0.0, "lon": -77.0475555, "name": "ed115586197daa53fa607ab0c2dd8611"}, {"bike_id": "371be721525ae6f6b518b469c7c047ad", "type": "electric_bike", "is_disabled": 0, "lat": 38.95642483333334, "rental_uris": {"ios": "https://dc.lft.to/lastmile_qr_scan", "android": "https://dc.lft.to/lastmile_qr_scan"}, "is_reserved": 0, "fusion_lon": 0.0, "fusion_lat": 0.0, "lon": -76.99791533333334, "name": "371be721525ae6f6b518b469c7c047ad"}, {"bike_id": "5ae9eb3b560ceb3876888e3f47ec5894", "type": "electric_scooter", "is_disabled": 0, "lat": 38.92097616666667, "rental_uris": {"ios": "https://dc.lft.to/lastmile_qr_scan", "android": "https://dc.lft.to/lastmile_qr_scan"}, "is_reserved": 0, "fusion_lon": 0.0, "fusion_lat": 0.0, "lon": -77.00437583333333, "name": "5ae9eb3b560ceb3876888e3f47ec5894"}, {"bike_id": "cce90a7729e131394e75e338bc944ed7", "type": "electric_scooter", "is_disabled": 0, "lat": 38.91919566666667, "rental_uris": {"ios": "https://dc.lft.to/lastmile_qr_scan", "android": "https://dc.lft.to/lastmile_qr_scan"}, "is_reserved": 0, "fusion_lon": 0.0, "fusion_lat": 0.0, "lon": -77.03392183333334, "name": "cce90a7729e131394e75e338bc944ed7"}, {"bike_id": "506b03e4e0e0f898df265db8068b1f16", "type": "electric_scooter", "is_disabled": 0, "lat": 38.908780666666665, "rental_uris": {"ios": "https://dc.lft.to/lastmile_qr_scan", "android": "https://dc.lft.to/lastmile_qr_scan"}, "is_reserved": 0, "fusion_lon": 0.0, "fusion_lat": 0.0, "lon": -77.02230483333334, "name": "506b03e4e0e0f898df265db8068b1f16"}, {"bike_id": "ddfad4720df06420082d94511e1aa7f8", "type": "electric_scooter", "is_disabled": 0, "lat": 38.919623, "rental_uris": {"ios": "https://dc.lft.to/lastmile_qr_scan", "android": "https://dc.lft.to/lastmile_qr_scan"}, "is_reserved": 0, "fusion_lon": 0.0, "fusion_lat": 0.0, "lon": -77.0385485, "name": "ddfad4720df06420082d94511e1aa7f8"}, {"bike_id": "c6ee9046e340c3b3c635b1ba454489c9", "type": "electric_scooter", "is_disabled": 0, "lat": 38.9204175, "rental_uris": {"ios": "https://dc.lft.to/lastmile_qr_scan", "android": "https://dc.lft.to/lastmile_qr_scan"}, "is_reserved": 0, "fusion_lon": 0.0, "fusion_lat": 0.0, "lon": -77.02427016666667, "name": "c6ee9046e340c3b3c635b1ba454489c9"}, {"bike_id": "9a51380e8fb4885ee24a5b725f599678", "type": "electric_scooter", "is_disabled": 0, "lat": 38.89625383333333, "rental_uris": {"ios": "https://dc.lft.to/lastmile_qr_scan", "android": "https://dc.lft.to/lastmile_qr_scan"}, "is_reserved": 0, "fusion_lon": 0.0, "fusion_lat": 0.0, "lon": -77.03292033333334, "name": "9a51380e8fb4885ee24a5b725f599678"}, {"bike_id": "27950e660d256bc3b3b1a77a15ce715b", "type": "electric_bike", "is_disabled": 0, "lat": 39.013721833333335, "rental_uris": {"ios": "https://dc.lft.to/lastmile_qr_scan", "android": "https://dc.lft.to/lastmile_qr_scan"}, "is_reserved": 0, "fusion_lon": 0.0, "fusion_lat": 0.0, "lon": -76.92135266666666, "name": "27950e660d256bc3b3b1a77a15ce715b"}, {"bike_id": "3200887a7146990cd2c303c6afa9c662", "type": "electric_scooter", "is_disabled": 0, "lat": 38.923555666666665, "rental_uris": {"ios": "https://dc.lft.to/lastmile_qr_scan", "android": "https://dc.lft.to/lastmile_qr_scan"}, "is_reserved": 0, "fusion_lon": 0.0, "fusion_lat": 0.0, "lon": -77.020136, "name": "3200887a7146990cd2c303c6afa9c662"}, {"bike_id": "fac320250307cf99de7db3331141f8ec", "type": "electric_scooter", "is_disabled": 0, "lat": 38.928251, "rental_uris": {"ios": "https://dc.lft.to/lastmile_qr_scan", "android": "https://dc.lft.to/lastmile_qr_scan"}, "is_reserved": 0, "fusion_lon": 0.0, "fusion_lat": 0.0, "lon": -77.02257016666667, "name": "fac320250307cf99de7db3331141f8ec"}, {"bike_id": "4fa079514c788d27f89da6af9b54e807", "type": "electric_scooter", "is_disabled": 0, "lat": 38.924422666666665, "rental_uris": {"ios": "https://dc.lft.to/lastmile_qr_scan", "android": "https://dc.lft.to/lastmile_qr_scan"}, "is_reserved": 0, "fusion_lon": 0.0, "fusion_lat": 0.0, "lon": -77.04406866666666, "name": "4fa079514c788d27f89da6af9b54e807"}, {"bike_id": "a30abe407696c5c0eb03191f6e12f1ca", "type": "electric_bike", "is_disabled": 0, "lat": 38.84526133333333, "rental_uris": {"ios": "https://dc.lft.to/lastmile_qr_scan", "android": "https://dc.lft.to/lastmile_qr_scan"}, "is_reserved": 0, "fusion_lon": 0.0, "fusion_lat": 0.0, "lon": -76.973951, "name": "a30abe407696c5c0eb03191f6e12f1ca"},