{"data": {"bikes": [{"rental_uris": {"ios": "https://dc.lft.to/lastmile_qr_scan", "android": "https://dc.lft.to/lastmile_qr_scan"}, "type": "electric_scooter", "name": "43bc72d51bd1cb23d6d33188f30a791b", "is_reserved": 0, "lon": -77.04336916666666, "is_disabled": 0, "fusion_lat": 0.0, "lat": 38.90745166666667, "bike_id": "43bc72d51bd1cb23d6d33188f30a791b", "fusion_lon": 0.0}, {"rental_uris": {"ios": "https://dc.lft.to/lastmile_qr_scan", "android": "https://dc.lft.to/lastmile_qr_scan"}, "type": "electric_scooter", "name": "653f9ed041e3296635ba63157f725676", "is_reserved": 0, "lon": -77.03874416666666, "is_disabled": 0, "fusion_lat": 0.0, "lat": 38.917149, "bike_id": "653f9ed041e3296635ba63157f725676", "fusion_lon": 0.0}, {"rental_uris": {"ios": "https://dc.lft.to/lastmile_qr_scan", "android": "https://dc.lft.to/lastmile_qr_scan"}, "type": "electric_scooter", "name": "26e7e046a8ffe6b6561b1d9c2015c55a", "is_reserved": 0, "lon": -77.02815716666667, "is_disabled": 0, "fusion_lat": 0.0, "lat": 38.892352, "bike_id": "26e7e046a8ffe6b6561b1d9c2015c55a", "fusion_lon": 0.0}, {"rental_uris": {"ios": "https://dc.lft.to/lastmile_qr_scan", "android": "https://dc.lft.to/lastmile_qr_scan"}, "type": "electric_bike", "name": "4626148409851199c9815fd2241916b7", "is_reserved": 0, "lon": -77.023838, "is_disabled": 0, "fusion_lat": 0.0, "lat": 38.915872666666665, "bike_id": "4626148409851199c9815fd2241916b7", "fusion_lon": 0.0}, {"rental_uris": {"ios": "https://dc.lft.to/lastmile_qr_scan", "android": "https://dc.lft.to/lastmile_qr_scan"}, "type": "electric_scooter", "name": "f062d96944c9bd42828e7f4ef4e05b6e", "is_reserved": 0, "lon": -77.04754766666667, "is_disabled": 0, "fusion_lat": 0.0, "lat": 38.90096116666667, "bike_id": "f062d96944c9bd42828e7f4ef4e05b6e", "fusion_lon": 0.0}, {"rental_uris": {"ios": "https://dc.lft.to/lastmile_qr_scan", "android": "https://dc.lft.to/lastmile_qr_scan"}, "type": "electric_scooter", "name": "a1065bffa167fee80fc1c866872def68", "is_reserved": 0, "lon": -77.0419125, "is_disabled": 0, "fusion_lat": 0.0, "lat": 38.9220265, "bike_id": "a1065bffa167fee80fc1c866872def68", "fusion_lon": 0.0}, {"rental_uris": {"ios": "https://dc.lft.to/lastmile_qr_scan", "android": "https://dc.lft.to/lastmile_qr_scan"}, "type": "electric_scooter", "name": "dcc9a40892e3c23582aaa2e4c5ed00b5", "is_reserved": 0, "lon": -76.98731716666667, "is_disabled": 0, "fusion_lat": 0.0, "lat": 38.8422095, "bike_id": "dcc9a40892e3c23582aaa2e4c5ed00b5", "fusion_lon": 0.0}, {"rental_uris": {"ios": "https://dc.lft.to/lastmile_qr_scan", "android": "https://dc.lft.to/lastmile_qr_scan"}, "type": "electric_scooter", "name": "dd3622f354b846ab918677c54cf09300", "is_reserved": 0, "lon": -76.92921483333333, "is_disabled": 0, "fusion_lat": 0.0, "lat": 38.88659333333333, "bike_id": "dd3622f354b846ab918677c54cf09300", "fusion_lon": 0.0}, {"rental_uris": {"ios": "https://dc.lft.to/lastmile_qr_scan", "android": "https://dc.lft.to/lastmile_qr_scan"}, "type": "electric_scooter", "name": "898d6cf0b3be678fdc3580caca3f6d4d", "is_reserved": 0, "lon": -77.05519383333333, "is_disabled": 0, "fusion_lat": 0.0, "lat": 38.907690833333334, "bike_id": "898d6cf0b3be678fdc3580caca3f6d4d", "fusion_lon": 0.0}, {"rental_uris": {"ios": "https://dc.lft.to/lastmile_qr_scan", "android": "https://dc.lft.to/lastmile_qr_scan"}, "type": "electric_scooter", "name": "31c0f4b5e267aa214bbce23c1e966429", "is_reserved": 0, "lon": -77.04411766666666, "is_disabled": 0, "fusion_lat": 0.0, "lat": 38.90890616666667, "bike_id": "31c0f4b5e267aa214bbce23c1e966429", "fusion_lon": 0.0}, {"rental_uris": {"ios": "https://dc.lft.to/lastmile_qr_scan", "android": "https://dc.lft.to/lastmile_qr_scan"}, "type": "electric_scooter", "name": "b2ce1edd8f87913468cb35194c7cd9ca", "is_reserved": 0, "lon": -77.03157966666667, "is_disabled": 0, "fusion_lat": 0.0, "lat": 38.91708366666667, "bike_id": "b2ce1edd8f87913468cb35194c7cd9ca", "fusion_lon": 0.0}, {"rental_uris": {"ios": "https://dc.lft.to/lastmile_qr_scan", "android": "https://dc.lft.to/lastmile_qr_scan"}, "type": "electric_scooter", "name": "f6a92ea79ff164a6e79b6bc1978297c7", "is_reserved": 0, "lon": -77.0365095, "is_disabled": 0, "fusion_lat": 0.0, "lat": 38.954616666666666, "bike_id": "f6a92ea79ff164a6e79b6bc1978297c7", "fusion_lon": 0.0}, {"rental_uris": {"ios": "https://dc.lft.to/lastmile_qr_scan", "android": "https://dc.lft.to/lastmile_qr_scan"}, "type": "electric_scooter", "name": "fcb5e4e465b030370f9048725298486f", "is_reserved": 0, "lon": -77.02204683333333, "is_disabled": 0, "fusion_lat": 0.0, "lat": 38.92470016666667, "bike_id": "fcb5e4e465b030370f9048725298486f", "fusion_lon": 0.0}, {"rental_uris": {"ios": "https://dc.lft.to/lastmile_qr_scan", "android": "https://dc.lft.to/lastmile_qr_scan"}, "type": "electric_scooter", "name": "ac39a1430a7e9d923225bae2f0473fc7", "is_reserved": 0, "lon": -77.02485633333333, "is_disabled": 0, "fusion_lat": 0.0, "lat": 38.91815166666667, "bike_id": "ac39a1430a7e9d923225bae2f0473fc7", "fusion_lon": 0.0}, {"rental_uris": {"ios": "https://dc.lft.to/lastmile_qr_scan", "android": "https://dc.lft.to/lastmile_qr_scan"}, "type": "electric_scooter", "name": "fbbcf03cb25099d7e8e2dda2182aa3e9", "is_reserved": 0, "lon": -76.97139883333334, "is_disabled": 0, "fusion_lat": 0.0, "lat": 38.8785815, "bike_id": "fbbcf03cb25099d7e8e2dda2182aa3e9", "fusion_lon": 0.0}, {"rental_uris": {"ios": "https://dc.lft.to/lastmile_qr_scan", "android": "https://dc.lft.to/lastmile_qr_scan"}, "type": "electric_scooter", "name": "0b87077afc2d5e1ae600b98d52b90bfe", "is_reserved": 0, "lon": -77.0587295, "is_disabled": 0, "fusion_lat": 0.0, "lat": 38.94239566666667, "bike_id": "0b87077afc2d5e1ae600b98d52b90bfe", "fusion_lon": 0.0}, {"rental_uris": {"ios": "https://dc.lft.to/lastmile_qr_scan", "android": "https://dc.lft.to/lastmile_qr_scan"}, "type": "electric_scooter", "name": "da03563ae6e09a5ddbef1ab060e890be", "is_reserved": 0, "lon": -77.01997633333333, "is_disabled": 0, "fusion_lat": 0.0, "lat": 38.876061, "bike_id": "da03563ae6e09a5ddbef1ab060e890be", "fusion_lon": 0.0}, {"rental_uris": {"ios": "https://dc.lft.to/lastmile_qr_scan", "android": "https://dc.lft.to/lastmile_qr_scan"}, "type": "electric_scooter", "name": "a569d8f7d53c6552fb3f74c2542d7319", "is_reserved": 0, "lon": -76.99552316666667, "is_disabled": 0, "fusion_lat": 0.0, "lat": 38.92674316666667, "bike_id": "a569d8f7d53c6552fb3f74c2542d7319", "fusion_lon": 0.0}, {"rental_uris": {"ios": "https://dc.lft.to/lastmile_qr_scan", "android": "https://dc.lft.to/lastmile_qr_scan"}, "type": "electric_scooter", "name": "d402d8b81bf0b5b0723d81ebc4776cd4", "is_reserved": 0, "lon": -77.04760283333333, "is_disabled": 0, "fusion_lat": 0.0, "lat": 38.94095983333333, "bike_id": "d402d8b81bf0b5b0723d81ebc4776cd4", "fusion_lon": 0.0}, {"rental_uris": {"ios": "https://dc.lft.to/lastmile_qr_scan", "android": "https://dc.lft.to/lastmile_qr_scan"}, "type": "electric_scooter", "name": "f7d0295153fef5f9a3a0a3d2307972ca", "is_reserved": 0, "lon": -77.05617766666667, "is_disabled": 0, "fusion_lat": 0.0, "lat": 38.906785, "bike_id": "f7d0295153fef5f9a3a0a3d2307972ca", "fusion_lon": 0.0}, {"rental_uris": {"ios": "https://dc.lft.to/lastmile_qr_scan", "android": "https://dc.lft.to/lastmile_qr_scan"}, "type": "electric_bike", "name": "080f37b4a5bbea48546a583c9441f0c9", "is_reserved": 0, "lon": -76.90735083333334, "is_disabled": 0, "fusion_lat": 0.0, "lat": 38.896129333333334, "bike_id": "080f37b4a5bbea48546a583c9441f0c9", "fusion_lon": 0.0}, {"rental_uris": {"ios": "https://dc.lft.to/lastmile_qr_scan", "android": "https://dc.lft.to/lastmile_qr_scan"}, "type": "electric_scooter", "name": "81cffc55529617b16704afd11b62b1b5", "is_reserved": 0, "lon": -77.00824283333333, "is_disabled": 0, "fusion_lat": 0.0, "lat": 38.91362016666667, "bike_id": "81cffc55529617b16704afd11b62b1b5", "fusion_lon": 0.0}, {"rental_uris": {"ios": "https://dc.lft.to/lastmile_qr_scan", "android": "https://dc.lft.to/lastmile_qr_scan"}, "type": "electric_scooter", "name": "5e2d86b54f2a94e2308ee5bc6a2b69e9", "is_reserved": 0, "lon": -77.04013883333333, "is_disabled": 0, "fusion_lat": 0.0, "lat": 38.90412116666667, "bike_id": "5e2d86b54f2a94e2308ee5bc6a2b69e9", "fusion_lon": 0.0}, {"rental_uris": {"ios": "https://dc.lft.to/lastmile_qr_scan", "android": "https://dc.lft.to/lastmile_qr_scan"}, "type": "electric_scooter", "name": "f1a6e6a19f1dc534a0467cf40a2186a5", "is_reserved": 0, "lon": -76.99231416666666, "is_disabled": 0, "fusion_lat": 0.0, "lat": 38.8874995, "bike_id": "f1a6e6a19f1dc534a0467cf40a2186a5", "fusion_lon": 0.0}, {"rental_uris": {"ios": "https://dc.lft.to/lastmile_qr_scan", "android": "https://dc.lft.to/lastmile_qr_scan"}, "type": "electric_scooter", "name": "5dfde0f25d0a6322ca53dca22328de92", "is_reserved": 0, "lon": -76.997397, "is_disabled": 0, "fusion_lat": 0.0, "lat": 38.904394333333336, "bike_id": "5dfde0f25d0a6322ca53dca22328de92", "fusion_lon": 0.0}, {"rental_uris": {"ios": "https://dc.lft.to/lastmile_qr_scan", "android": "https://dc.lft.to/lastmile_qr_scan"}, "type": "electric_scooter", "name": "b6da8df09018b15d2cb17ba813407b35", "is_reserved": 0, "lon": -77.03445033333334, "is_disabled": 0, "fusion_lat": 0.0, "lat": 38.90085466666667, "bike_id": "b6da8df09018b15d2cb17ba813407b35", "fusion_lon": 0.0}, {"rental_uris": {"ios": "https://dc.lft.to/lastmile_qr_scan", "android": "https://dc.lft.to/lastmile_qr_scan"}, "type": "electric_scooter", "name": "e38ff3e7666e06ffe030f750af6d0a04", "is_reserved": 0, "lon": -77.03808283333333, "is_disabled": 0, "fusion_lat": 0.0, "lat": 38.91419966666667, "bike_id": "e38ff3e7666e06ffe030f750af6d0a04", "fusion_lon": 0.0}, {"rental_uris": {"ios": "https://dc.lft.to/lastmile_qr_scan", "android": "https://dc.lft.to/lastmile_qr_scan"}, "type": "electric_scooter", "name": "431bf5a3dc1178cf2b7c449709fd4049", "is_reserved": 0, "lon": -76.97312033333333, "is_disabled": 0, "fusion_lat": 0.0, "lat": 38.91990416666667, "bike_id": "431bf5a3dc1178cf2b7c449709fd4049", "fusion_lon": 0.0}, {"rental_uris": {"ios": "https://dc.lft.to/lastmile_qr_scan", "android": "https://dc.lft.to/lastmile_qr_scan"}, "type": "electric_scooter", "name": "023df26440da79815884c905627759b9", "is_reserved": 0, "lon": -77.03083766666667, "is_disabled": 0, "fusion_lat": 0.0, "lat": 38.91075166666667, "bike_id": "023df26440da79815884c905627759b9", "fusion_lon": 0.0}, {"rental_uris": {"ios": "https://dc.lft.to/lastmile_qr_scan", "android": "https://dc.lft.to/lastmile_qr_scan"}, "type": "electric_scooter", "name": "123ff70e7bfb9dda60b513532569d326", "is_reserved": 0, "lon": -77.0643925, "is_disabled": 0, "fusion_lat": 0.0, "lat": 38.909135666666664, "bike_id": "123ff70e7bfb9dda60b513532569d326", "fusion_lon": 0.0}, {"rental_uris": {"ios": "https://dc.lft.to/lastmile_qr_scan", "android": "https://dc.lft.to/lastmile_qr_scan"}, "type": "electric_scooter", "name": "444af066757a5f24678a3dcc489b701b", "is_reserved": 0, "lon": -77.04059316666667, "is_disabled": 0, "fusion_lat": 0.0, "lat": 38.917071166666666, "bike_id": "444af066757a5f24678a3dcc489b701b", "fusion_lon": 0.0}, {"rental_uris": {"ios": "https://dc.lft.to/lastmile_qr_scan", "android": "https://dc.lft.to/lastmile_qr_scan"}, "type": "electric_scooter", "name": "6d1c9c82a4f3393185a0e3197e65abc7", "is_reserved": 0, "lon": -77.0122325, "is_disabled": 0, "fusion_lat": 0.0, "lat": 38.867187666666666, "bike_id": "6d1c9c82a4f3393185a0e3197e65abc7", "fusion_lon": 0.0}, {"rental_uris": {"ios": "https://dc.lft.to/lastmile_qr_scan", "android": "https://dc.lft.to/lastmile_qr_scan"}, "type": "electric_scooter", "name": "9767ec4d53012b7cc1a759e2c31e9a82", "is_reserved": 0, "lon": -77.0154625, "is_disabled": 0, "fusion_lat": 0.0, "lat": 38.902525, "bike_id": "9767ec4d53012b7cc1a759e2c31e9a82", "fusion_lon": 0.0}, {"rental_uris": {"ios": "https://dc.lft.to/lastmile_qr_scan", "android": "https://dc.lft.to/lastmile_qr_scan"}, "type": "electric_scooter", "name": "6c3ac599e9a2628daf9f5e4659965fee", "is_reserved": 0, "lon": -76.98888166666667, "is_disabled": 0, "fusion_lat": 0.0, "lat": 38.899584833333336, "bike_id": "6c3ac599e9a2628daf9f5e4659965fee", "fusion_lon": 0.0}, {"rental_uris": {"ios": "https://dc.lft.to/lastmile_qr_scan", "android": "https://dc.lft.to/lastmile_qr_scan"}, "type": "electric_scooter", "name": "86350874fffc072a31e005605f0ac048", "is_reserved": 0, "lon": -77.0312235, "is_disabled": 0, "fusion_lat": 0.0, "lat": 38.91844433333333, "bike_id": "86350874fffc072a31e005605f0ac048", "fusion_lon": 0.0}, {"rental_uris": {"ios": "https://dc.lft.to/lastmile_qr_scan", "android": "https://dc.lft.to/lastmile_qr_scan"}, "type": "electric_scooter", "name": "c676f16cf403cdbea8dc1970e798af31", "is_reserved": 0, "lon": -77.03182916666667, "is_disabled": 0, "fusion_lat": 0.0, "lat": 38.92490466666667, "bike_id": "c676f16cf403cdbea8dc1970e798af31", "fusion_lon": 0.0}, {"rental_uris": {"ios": "https://dc.lft.to/lastmile_qr_scan", "android": "https://dc.lft.to/lastmile_qr_scan"}, "type": "electric_scooter", "name": "fb43f49d5278148cd843f918032243e3", "is_reserved": 0, "lon": -77.0417565, "is_disabled": 0, "fusion_lat": 0.0, "lat": 38.901414333333335, "bike_id": "fb43f49d5278148cd843f918032243e3", "fusion_lon": 0.0}, {"rental_uris": {"ios": "https://dc.lft.to/lastmile_qr_scan", "android": "https://dc.lft.to/lastmile_qr_scan"}, "type": "electric_scooter", "name": "454c710be60cb6d3da6096e1366f53ea", "is_reserved": 0, "lon": -76.99103816666667, "is_disabled": 0, "fusion_lat": 0.0, "lat": 38.85720766666667, "bike_id": "454c710be60cb6d3da6096e1366f53ea", "fusion_lon": 0.0}, {"rental_uris": {"ios": "https://dc.lft.to/lastmile_qr_scan", "android": "https://dc.lft.to/lastmile_qr_scan"}, "type": "electric_scooter", "name": "cbf18f0d49f5fb40e2d2ba94a16b1da1", "is_reserved": 0, "lon": -77.04406816666666, "is_disabled": 0, "fusion_lat": 0.0, "lat": 38.910899666666666, "bike_id": "cbf18f0d49f5fb40e2d2ba94a16b1da1", "fusion_lon": 0.0}, {"rental_uris": {"ios": "https://dc.lft.to/lastmile_qr_scan", "android": "https://dc.lft.to/lastmile_qr_scan"}, "type": "electric_scooter", "name": "a04cf7fafd8df72ffdf4bd4968843cb4", "is_reserved": 0, "lon": -77.043305, "is_disabled": 0, "fusion_lat": 0.0, "lat": 38.903304, "bike_id": "a04cf7fafd8df72ffdf4bd4968843cb4", "fusion_lon": 0.0}, {"rental_uris": {"ios": "https://dc.lft.to/lastmile_qr_scan", "android": "https://dc.lft.to/lastmile_qr_scan"}, "type": "electric_scooter", "name": "159da3a93d9b3e472716fac8d3d1b03e", "is_reserved": 0, "lon": -77.0323505, "is_disabled": 0, "fusion_lat": 0.0, "lat": 38.9274575, "bike_id": "159da3a93d9b3e472716fac8d3d1b03e", "fusion_lon": 0.0}, {"rental_uris": {"ios": "https://dc.lft.to/lastmile_qr_scan", "android": "https://dc.lft.to/lastmile_qr_scan"}, "type": "electric_scooter", "name": "e190b714aa8b02ed6d17f6769359ee08", "is_reserved": 0, "lon": -77.00673866666666, "is_disabled": 0, "fusion_lat": 0.0, "lat": 38.8714, "bike_id": "e190b714aa8b02ed6d17f6769359ee08", "fusion_lon": 0.0}, {"rental_uris": {"ios": "https://dc.lft.to/lastmile_qr_scan", "android": "https://dc.lft.to/lastmile_qr_scan"}, "type": "electric_scooter", "name": "6c3f8ffd72df3e97ca7db1dd255d7c73", "is_reserved": 0, "lon": -77.04507183333334, "is_disabled": 0, "fusion_lat": 0.0, "lat": 38.8922795, "bike_id": "6c3f8ffd72df3e97ca7db1dd255d7c73", "fusion_lon": 0.0}, {"rental_uris": {"ios": "https://dc.lft.to/lastmile_qr_scan", "android": "https://dc.lft.to/lastmile_qr_scan"}, "type": "electric_scooter", "name": "24b1444df98b97c5f9a4d1f1bb9e05ea", "is_reserved": 0, "lon": -77.0322055, "is_disabled": 0, "fusion_lat": 0.0, "lat": 38.892219833333336, "bike_id": "24b1444df98b97c5f9a4d1f1bb9e05ea", "fusion_lon": 0.0}, {"rental_uris": {"ios": "https://dc.lft.to/lastmile_qr_scan", "android": "https://dc.lft.to/lastmile_qr_scan"}, "type": "electric_scooter", "name": "7a9919b3a3bc4d8bce5b6ee83137920b", "is_reserved": 0, "lon": -77.02223366666666, "is_disabled": 0, "fusion_lat": 0.0, "lat": 38.91415333333333, "bike_id": "7a9919b3a3bc4d8bce5b6ee83137920b", "fusion_lon": 0.0}, {"rental_uris": {"ios": "https://dc.lft.to/lastmile_qr_scan", "android": "https://dc.lft.to/lastmile_qr_scan"}, "type": "electric_bike", "name": "ea916d8860ef4d406b569997dbee35b1", "is_reserved": 0, "lon": -77.09451033333333, "is_disabled": 0, "fusion_lat": 0.0, "lat": 38.80752016666667, "bike_id": "ea916d8860ef4d406b569997dbee35b1", "fusion_lon": 0.0}, {"rental_uris": {"ios": "https://dc.lft.to/lastmile_qr_scan", "android": "https://dc.lft.to/lastmile_qr_scan"}, "type": "electric_scooter", "name": "4bf2f8a3cba182fbe1e8b3b32afbec07", "is_reserved": 0, "lon": -77.0262715, "is_disabled": 0, "fusion_lat": 0.0, "lat": 38.9027075, "bike_id": "4bf2f8a3cba182fbe1e8b3b32afbec07", "fusion_lon": 0.0}, {"rental_uris": {"ios": "https://dc.lft.to/lastmile_qr_scan", "android": "https://dc.lft.to/lastmile_qr_scan"}, "type": "electric_scooter", "name": "b606dce07168ed59c42ba583295ae611", "is_reserved": 0, "lon": -76.94875516666667, "is_disabled": 0, "fusion_lat": 0.0, "lat": 38.894833, "bike_id": "b606dce07168ed59c42ba583295ae611", "fusion_lon": 0.0}, {"rental_uris": {"ios": "https://dc.lft.to/lastmile_qr_scan", "android": "https://dc.lft.to/lastmile_qr_scan"}, "type": "electric_scooter", "name": "0215db83ecc8e4e027c9adb5658ecc6b", "is_reserved": 0, "lon": -77.078769, "is_disabled": 0, "fusion_lat": 0.0, "lat": 38.94609666666667, "bike_id": "0215db83ecc8e4e027c9adb5658ecc6b", "fusion_lon": 0.0}, {"rental_uris": {"ios": "https://dc.lft.to/lastmile_qr_scan", "android": "https://dc.lft.to/lastmile_qr_scan"}, "type": "electric_scooter", "name": "dad6585b4e8b7036f916452505ca5e05", "is_reserved": 0, "lon": -77.02203633333333, "is_disabled": 0, "fusion_lat": 0.0, "lat": 38.951526333333334, "bike_id": "dad6585b4e8b7036f916452505ca5e05", "fusion_lon": 0.0}, {"rental_uris": {"ios": "https://dc.lft.to/lastmile_qr_scan", "android": "https://dc.lft.to/lastmile_qr_scan"}, "type": "electric_scooter", "name": "3d576221f061bc823b352b599c968fa9", "is_reserved": 0, "lon": -77.0215705, "is_disabled": 0, "fusion_lat": 0.0, "lat": 38.9260425, "bike_id": "3d576221f061bc823b352b599c968fa9", "fusion_lon": 0.0}, {"rental_uris": {"ios": "https://dc.lft.to/lastmile_qr_scan", "android": "https://dc.lft.to/lastmile_qr_scan"}, "type": "electric_scooter", "name": "f4244742ac5a54e93b6b264f62e0472a", "is_reserved": 0, "lon": -77.03197083333333, "is_disabled": 0, "fusion_lat": 0.0, "lat": 38.9160665, "bike_id": "f4244742ac5a54e93b6b264f62e0472a", "fusion_lon": 0.0}, {"rental_uris": {"ios": "https://dc.lft.to/lastmile_qr_scan", "android": "https://dc.lft.to/lastmile_qr_scan"}, "type": "electric_scooter", "name": "68355df432fb06e329a3052b30aab149", "is_reserved": 0, "lon": -77.0174295, "is_disabled": 0, "fusion_lat": 0.0, "lat": 38.9024655, "bike_id": "68355df432fb06e329a3052b30aab149", "fusion_lon": 0.0}, {"rental_uris": {"ios": "https://dc.lft.to/lastmile_qr_scan", "android": "https://dc.lft.to/lastmile_qr_scan"}, "type": "electric_scooter", "name": "f86c2a4c4a4e4a95087397d5b2665879", "is_reserved": 0, "lon": -77.0214785, "is_disabled": 0, "fusion_lat": 0.0, "lat": 38.915491833333334, "bike_id": "f86c2a4c4a4e4a95087397d5b2665879", "fusion_lon": 0.0}, {"rental_uris": {"ios": "https://dc.lft.to/lastmile_qr_scan", "android": "https://dc.lft.to/lastmile_qr_scan"}, "type": "electric_scooter", "name": "4e6aaa3c02fd275c0542fedfa5bc359c", "is_reserved": 0, "lon": -77.02111983333333, "is_disabled": 0, "fusion_lat": 0.0, "lat": 38.909394, "bike_id": "4e6aaa3c02fd275c0542fedfa5bc359c", "fusion_lon": 0.0}, {"rental_uris": {"ios": "https://dc.lft.to/lastmile_qr_scan", "android": "https://dc.lft.to/lastmile_qr_scan"}, "type": "electric_scooter", "name": "b1887584e9b38ca7216a56d7bc8560e2", "is_reserved": 0, "lon": -77.038641, "is_disabled": 0, "fusion_lat": 0.0, "lat": 38.911156, "bike_id": "b1887584e9b38ca7216a56d7bc8560e2", "fusion_lon": 0.0}, {"rental_uris": {"ios": "https://dc.lft.to/lastmile_qr_scan", "android": "https://dc.lft.to/lastmile_qr_scan"}, "type": "electric_scooter", "name": "2d27f2ac91f253e8aae24b45bc741143", "is_reserved": 0, "lon": -77.02609266666667, "is_disabled": 0, "fusion_lat": 0.0, "lat": 38.89721316666667, "bike_id": "2d27f2ac91f253e8aae24b45bc741143", "fusion_lon": 0.0}, {"rental_uris": {"ios": "https://dc.lft.to/lastmile_qr_scan", "android": "https://dc.lft.to/lastmile_qr_scan"}, "type": "electric_scooter", "name": "81d579a2d6714d4497857c2118443d48", "is_reserved": 0, "lon": -77.02727933333334, "is_disabled": 0, "fusion_lat": 0.0, "lat": 38.91228316666667, "bike_id": "81d579a2d6714d4497857c2118443d48", "fusion_lon": 0.0}, {"rental_uris": {"ios": "https://dc.lft.to/lastmile_qr_scan", "android": "https://dc.lft.to/lastmile_qr_scan"}, "type": "electric_bike", "name": "35ea17b62712aebac64e2bd803abf0a3", "is_reserved": 0, "lon": -77.02068116666666, "is_disabled": 0, "fusion_lat": 0.0, "lat": 38.964389833333335, "bike_id": "35ea17b62712aebac64e2bd803abf0a3", "fusion_lon": 0.0}, {"rental_uris": {"ios": "https://dc.lft.to/lastmile_qr_scan", "android": "https://dc.lft.to/lastmile_qr_scan"}, "type": "electric_scooter", "name": "5a6b7c5fd6becc7da54c8bb5b7bef082", "is_reserved": 0, "lon": -76.985322, "is_disabled": 0, "fusion_lat": 0.0, "lat": 38.91443733333333, "bike_id": "5a6b7c5fd6becc7da54c8bb5b7bef082", "fusion_lon": 0.0}, {"rental_uris": {"ios": "https://dc.lft.to/lastmile_qr_scan", "android": "https://dc.lft.to/lastmile_qr_scan"}, "type": "electric_scooter", "name": "a704f8b38d383e8d658b5f054aabea71", "is_reserved": 0, "lon": -77.06028316666666, "is_disabled": 0, "fusion_lat": 0.0, "lat": 38.93879733333333, "bike_id": "a704f8b38d383e8d658b5f054aabea71", "fusion_lon": 0.0}, {"rental_uris": {"ios": "https://dc.lft.to/lastmile_qr_scan", "android": "https://dc.lft.to/lastmile_qr_scan"}, "type": "electric_bike", "name": "906d1a5160da0ecde9711a97959014db", "is_reserved": 0, "lon": -77.0765725, "is_disabled": 0, "fusion_lat": 0.0, "lat": 38.809764333333334, "bike_id": "906d1a5160da0ecde9711a97959014db", "fusion_lon": 0.0}, {"rental_uris": {"ios": "https://dc.lft.to/lastmile_qr_scan", "android": "https://dc.lft.to/lastmile_qr_scan"}, "type": "electric_scooter", "name": "9f6c140504edd0b4fa8d61df28722b8d", "is_reserved": 0, "lon": -76.9998035, "is_disabled": 0, "fusion_lat": 0.0, "lat": 38.908559333333336, "bike_id": "9f6c140504edd0b4fa8d61df28722b8d", "fusion_lon": 0.0}, {"rental_uris": {"ios": "https://dc.lft.to/lastmile_qr_scan", "android": "https://dc.lft.to/lastmile_qr_scan"}, "type": "electric_scooter", "name": "53df0cbeb094f4d26997f82a3ec0d728", "is_reserved": 0, "lon": -77.03620016666666, "is_disabled": 0, "fusion_lat": 0.0, "lat": 38.942929666666664, "bike_id": "53df0cbeb094f4d26997f82a3ec0d728", "fusion_lon": 0.0}, {"rental_uris": {"ios": "https://dc.lft.to/lastmile_qr_scan", "android": "https://dc.lft.to/lastmile_qr_scan"}, "type": "electric_scooter", "name": "86852a316e2c1753c6904b34cacbfbeb", "is_reserved": 0, "lon": -77.025334, "is_disabled": 0, "fusion_lat": 0.0, "lat": 38.918156333333336, "bike_id": "86852a316e2c1753c6904b34cacbfbeb", "fusion_lon": 0.0}, {"rental_uris": {"ios": "https://dc.lft.to/lastmile_qr_scan", "android": "https://dc.lft.to/lastmile_qr_scan"}, "type": "electric_scooter", "name": "2c2e371e1d45f53dce9ea50b84ccce6d", "is_reserved": 0, "lon": -77.02107216666667, "is_disabled": 0, "fusion_lat": 0.0, "lat": 38.96675116666667, "bike_id": "2c2e371e1d45f53dce9ea50b84ccce6d", "fusion_lon": 0.0}, {"rental_uris": {"ios": "https://dc.lft.to/lastmile_qr_scan", "android": "https://dc.lft.to/lastmile_qr_scan"}, "type": "electric_scooter", "name": "f0292aa0c43dd9d5f7275f9dfce0c894", "is_reserved": 0, "lon": -77.00601383333333, "is_disabled": 0, "fusion_lat": 0.0, "lat": 38.905696, "bike_id": "f0292aa0c43dd9d5f7275f9dfce0c894", "fusion_lon": 0.0}, {"rental_uris": {"ios": "https://dc.lft.to/lastmile_qr_scan", "android": "https://dc.lft.to/lastmile_qr_scan"}, "type": "electric_bike", "name": "09b671eac8bf060606de84e9412b09e4", "is_reserved": 0, "lon": -77.01928216666667, "is_disabled": 0, "fusion_lat": 0.0, "lat": 38.97665833333333, "bike_id": "09b671eac8bf060606de84e9412b09e4", "fusion_lon": 0.0}, {"rental_uris": {"ios": "https://dc.lft.to/lastmile_qr_scan", "android": "https://dc.lft.to/lastmile_qr_scan"}, "type": "electric_scooter", "name": "5d23c4106df8b63ae8d5c280b33f5435", "is_reserved": 0, "lon": -76.99034916666666, "is_disabled": 0, "fusion_lat": 0.0, "lat": 38.88877933333333, "bike_id": "5d23c4106df8b63ae8d5c280b33f5435", "fusion_lon": 0.0}, {"rental_uris": {"ios": "https://dc.lft.to/lastmile_qr_scan", "android": "https://dc.lft.to/lastmile_qr_scan"}, "type": "electric_scooter", "name": "d2928601e7f9f2d03bcb3bc1fe3faa17", "is_reserved": 0, "lon": -77.05054716666666, "is_disabled": 0, "fusion_lat": 0.0, "lat": 38.92586933333333, "bike_id": "d2928601e7f9f2d03bcb3bc1fe3faa17", "fusion_lon": 0.0}, {"rental_uris": {"ios": "https://dc.lft.to/lastmile_qr_scan", "android": "https://dc.lft.to/lastmile_qr_scan"}, "type": "electric_scooter", "name": "3a8c4c6c11885361ee635fe673d7ee4d", "is_reserved": 0, "lon": -77.02178983333333, "is_disabled": 0, "fusion_lat": 0.0, "lat": 38.910465333333335, "bike_id": "3a8c4c6c11885361ee635fe673d7ee4d", "fusion_lon": 0.0}, {"rental_uris": {"ios": "https://dc.lft.to/lastmile_qr_scan", "android": "https://dc.lft.to/lastmile_qr_scan"}, "type": "electric_scooter", "name": "85dc789163b30fefe2c3dc34b2a85259", "is_reserved": 0, "lon": -76.92984666666666, "is_disabled": 0, "fusion_lat": 0.0, "lat": 38.892938666666666, "bike_id": "85dc789163b30fefe2c3dc34b2a85259", "fusion_lon": 0.0}, {"rental_uris": {"ios": "https://dc.lft.to/lastmile_qr_scan", "android": "https://dc.lft.to/lastmile_qr_scan"}, "type": "electric_scooter", "name": "32a2fb6bc3faa43c5807359356eb3cb5", "is_reserved": 0, "lon": -77.00703483333334, "is_disabled": 0, "fusion_lat": 0.0, "lat": 38.90025216666667, "bike_id": "32a2fb6bc3faa43c5807359356eb3cb5", "fusion_lon": 0.0}, {"rental_uris": {"ios": "https://dc.lft.to/lastmile_qr_scan", "android": "https://dc.lft.to/lastmile_qr_scan"}, "type": "electric_scooter", "name": "ceab1a90f21a30b5fc64886f34604310", "is_reserved": 0, "lon": -77.02206166666667, "is_disabled": 0, "fusion_lat": 0.0, "lat": 38.894319833333334, "bike_id": "ceab1a90f21a30b5fc64886f34604310", "fusion_lon": 0.0}, {"rental_uris": {"ios": "https://dc.lft.to/lastmile_qr_scan", "android": "https://dc.lft.to/lastmile_qr_scan"}, "type": "electric_scooter", "name": "f74c398d88d6954a31466751c471e537", "is_reserved": 0, "lon": -77.03146933333333, "is_disabled": 0, "fusion_lat": 0.0, "lat": 38.9162135, "bike_id": "f74c398d88d6954a31466751c471e537", "fusion_lon": 0.0}, {"rental_uris": {"ios": "https://dc.lft.to/lastmile_qr_scan", "android": "https://dc.lft.to/lastmile_qr_scan"}, "type": "electric_scooter", "name": "1d7e91f36fb76058b9b54de3a3350f18", "is_reserved": 0, "lon": -77.0052785, "is_disabled": 0, "fusion_lat": 0.0, "lat": 38.88040633333333, "bike_id": "1d7e91f36fb76058b9b54de3a3350f18", "fusion_lon": 0.0}, {"rental_uris": {"ios": "https://dc.lft.to/lastmile_qr_scan", "android": "https://dc.lft.to/lastmile_qr_scan"}, "type": "electric_scooter", "name": "8d6880eb519847fa9f44013afda1e197", "is_reserved": 0, "lon": -77.02845833333333, "is_disabled": 0, "fusion_lat": 0.0, "lat": 38.92471716666667, "bike_id": "8d6880eb519847fa9f44013afda1e197", "fusion_lon": 0.0}, {"rental_uris": {"ios": "https://dc.lft.to/lastmile_qr_scan", "android": "https://dc.lft.to/lastmile_qr_scan"}, "type": "electric_scooter", "name": "55e631082c086493ada1d1b700f2c2ea", "is_reserved": 0, "lon": -77.02681566666666, "is_disabled": 0, "fusion_lat": 0.0, "lat": 38.900369166666664, "bike_id": "55e631082c086493ada1d1b700f2c2ea", "fusion_lon": 0.0}, {"rental_uris": {"ios": "https://dc.lft.to/lastmile_qr_scan", "android": "https://dc.lft.to/lastmile_qr_scan"}, "type": "electric_scooter", "name": "a32946e56bedbfcb4a75a607deaed7fa", "is_reserved": 0, "lon": -76.97410983333333, "is_disabled": 0, "fusion_lat": 0.0, "lat": 38.90141933333334, "bike_id": "a32946e56bedbfcb4a75a607deaed7fa", "fusion_lon": 0.0}, {"rental_uris": {"ios": "https://dc.lft.to/lastmile_qr_scan", "android": "https://dc.lft.to/lastmile_qr_scan"}, "type": "electric_scooter", "name": "69db3c218bc48292e457ee3dd0c58865", "is_reserved": 0, "lon": -77.02215583333333, "is_disabled": 0, "fusion_lat": 0.0, "lat": 38.9247395, "bike_id": "69db3c218bc48292e457ee3dd0c58865", "fusion_lon": 0.0}, {"rental_uris": {"ios": "https://dc.lft.to/lastmile_qr_scan", "android": "https://dc.lft.to/lastmile_qr_scan"}, "type": "electric_scooter", "name": "8caa1e90dd328f417faadf969681f9b3", "is_reserved": 0, "lon": -76.97147766666667, "is_disabled": 0, "fusion_lat": 0.0, "lat": 38.91619716666666, "bike_id": "8caa1e90dd328f417faadf969681f9b3", "fusion_lon": 0.0}, {"rental_uris": {"ios": "https://dc.lft.to/lastmile_qr_scan", "android": "https://dc.lft.to/lastmile_qr_scan"}, "type": "electric_scooter", "name": "bfb563fcb91910d34a26bd8ad26fab9b", "is_reserved": 0, "lon": -77.01270583333333, "is_disabled": 0, "fusion_lat": 0.0, "lat": 38.89720466666667, "bike_id": "bfb563fcb91910d34a26bd8ad26fab9b", "fusion_lon": 0.0}, {"rental_uris": {"ios": "https://dc.lft.to/lastmile_qr_scan", "android": "https://dc.lft.to/lastmile_qr_scan"}, "type": "electric_scooter", "name": "0f3463c5d72e10d8b851af8229a83ed3", "is_reserved": 0, "lon": -77.02249416666666, "is_disabled": 0, "fusion_lat": 0.0, "lat": 38.912733833333334, "bike_id": "0f3463c5d72e10d8b851af8229a83ed3", "fusion_lon": 0.0}, {"rental_uris": {"ios": "https://dc.lft.to/lastmile_qr_scan", "android": "https://dc.lft.to/lastmile_qr_scan"}, "type": "electric_scooter", "name": "0985ccfcc1f830cef41f52bb1599578f", "is_reserved": 0, "lon": -77.04256433333333, "is_disabled": 0, "fusion_lat": 0.0, "lat": 38.92231966666667, "bike_id": "0985ccfcc1f830cef41f52bb1599578f", "fusion_lon": 0.0}, {"rental_uris": {"ios": "https://dc.lft.to/lastmile_qr_scan", "android": "https://dc.lft.to/lastmile_qr_scan"}, "type": "electric_scooter", "name": "dee69984c041b91cc0a337a59b695cd2", "is_reserved": 0, "lon": -77.0384135, "is_disabled": 0, "fusion_lat": 0.0, "lat": 38.9067455, "bike_id": "dee69984c041b91cc0a337a59b695cd2", "fusion_lon": 0.0}, {"rental_uris": {"ios": "https://dc.lft.to/lastmile_qr_scan", "android": "https://dc.lft.to/lastmile_qr_scan"}, "type": "electric_scooter", "name": "deb761282972b6f02ed81b826edd5857", "is_reserved": 0, "lon": -77.02183116666667, "is_disabled": 0, "fusion_lat": 0.0, "lat": 38.88718566666667, "bike_id": "deb761282972b6f02ed81b826edd5857", "fusion_lon": 0.0}, {"rental_uris": {"ios": "https://dc.lft.to/lastmile_qr_scan", "android": "https://dc.lft.to/lastmile_qr_scan"}, "type": "electric_scooter", "name": "605b457983e2030d32afa1a499955be4", "is_reserved": 0, "lon": -77.04493166666667, "is_disabled": 0, "fusion_lat": 0.0, "lat": 38.897096833333336, "bike_id": "605b457983e2030d32afa1a499955be4", "fusion_lon": 0.0}, {"rental_uris": {"ios": "https://dc.lft.to/lastmile_qr_scan", "android": "https://dc.lft.to/lastmile_qr_scan"}, "type": "electric_scooter", "name": "0f9d417daa1740b1d4f6e4dca491b194", "is_reserved": 0, "lon": -76.99612166666667, "is_disabled": 0, "fusion_lat": 0.0, "lat": 38.909143, "bike_id": "0f9d417daa1740b1d4f6e4dca491b194", "fusion_lon": 0.0}, {"rental_uris": {"ios": "https://dc.lft.to/lastmile_qr_scan", "android": "https://dc.lft.to/lastmile_qr_scan"}, "type": "electric_scooter", "name": "f30125f7902cab135ccfd439037b3479", "is_reserved": 0, "lon": -77.04076516666667, "is_disabled": 0, "fusion_lat": 0.0, "lat": 38.904490333333335, "bike_id": "f30125f7902cab135ccfd439037b3479", "fusion_lon": 0.0}, {"rental_uris": {"ios": "https://dc.lft.to/lastmile_qr_scan", "android": "https://dc.lft.to/lastmile_qr_scan"}, "type": "electric_scooter", "name": "4a3ede3d67bc1e688749cebf1bc9b575", "is_reserved": 0, "lon": -77.0455385, "is_disabled": 0, "fusion_lat": 0.0, "lat": 38.919355333333336, "bike_id": "4a3ede3d67bc1e688749cebf1bc9b575", "fusion_lon": 0.0}, {"rental_uris": {"ios": "https://dc.lft.to/lastmile_qr_scan", "android": "https://dc.lft.to/lastmile_qr_scan"}, "type": "electric_scooter", "name": "63a775c59c345e9998dfbddee76dbc78", "is_reserved": 0, "lon": -76.99690783333334, "is_disabled": 0, "fusion_lat": 0.0, "lat": 38.9218415, "bike_id": "63a775c59c345e9998dfbddee76dbc78", "fusion_lon": 0.0}, {"rental_uris": {"ios": "https://dc.lft.to/lastmile_qr_scan", "android": "https://dc.lft.to/lastmile_qr_scan"}, "type": "electric_scooter", "name": "ffd435a9add31a96ae213c928124596d", "is_reserved": 0, "lon": -77.0259555, "is_disabled": 0, "fusion_lat": 0.0, "lat": 38.88480783333333, "bike_id": "ffd435a9add31a96ae213c928124596d", "fusion_lon": 0.0}, {"rental_uris": {"ios": "https://dc.lft.to/lastmile_qr_scan", "android": "https://dc.lft.to/lastmile_qr_scan"}, "type": "electric_scooter", "name": "74bdbfff3af901199ede9ef984016893", "is_reserved": 0, "lon": -77.032291, "is_disabled": 0, "fusion_lat": 0.0, "lat": 38.938703, "bike_id": "74bdbfff3af901199ede9ef984016893", "fusion_lon": 0.0}, {"rental_uris": {"ios": "https://dc.lft.to/lastmile_qr_scan", "android": "https://dc.lft.to/lastmile_qr_scan"}, "type": "electric_scooter", "name": "94fcbf56a9b668afcacd81e9c3deec55", "is_reserved": 0, "lon": -77.083378, "is_disabled": 0, "fusion_lat": 0.0, "lat": 38.89421383333333, "bike_id": "94fcbf56a9b668afcacd81e9c3deec55", "fusion_lon": 0.0}, {"rental_uris": {"ios": "https://dc.lft.to/lastmile_qr_scan", "android": "https://dc.lft.to/lastmile_qr_scan"}, "type": "electric_scooter", "name": "58106aa17d41400c7723c08179d6e75b", "is_reserved": 0, "lon": -76.98556666666667, "is_disabled": 0, "fusion_lat": 0.0, "lat": 38.88346533333333, "bike_id": "58106aa17d41400c7723c08179d6e75b", "fusion_lon": 0.0}, {"rental_uris": {"ios": "https://dc.lft.to/lastmile_qr_scan", "android": "https://dc.lft.to/lastmile_qr_scan"}, "type": "electric_scooter", "name": "1e59b3f0d672bf54849cbf43dcbffdba", "is_reserved": 0, "lon": -77.02369933333334, "is_disabled": 0, "fusion_lat": 0.0, "lat": 38.879660666666666, "bike_id": "1e59b3f0d672bf54849cbf43dcbffdba", "fusion_lon": 0.0}, {"rental_uris": {"ios": "https://dc.lft.to/lastmile_qr_scan", "android": "https://dc.lft.to/lastmile_qr_scan"}, "type": "electric_scooter", "name": "8a15e66e423fabc8192a0012db371975", "is_reserved": 0, "lon": -77.00118666666667, "is_disabled": 0, "fusion_lat": 0.0, "lat": 38.87795533333333, "bike_id": "8a15e66e423fabc8192a0012db371975", "fusion_lon": 0.0}, {"rental_uris": {"ios": "https://dc.lft.to/lastmile_qr_scan", "android": "https://dc.lft.to/lastmile_qr_scan"}, "type": "electric_scooter", "name": "1ceeaec0e4184f592da4485b583be843", "is_reserved": 0, "lon": -77.00370383333333, "is_disabled": 0, "fusion_lat": 0.0, "lat": 38.915628833333336, "bike_id": "1ceeaec0e4184f592da4485b583be843", "fusion_lon": 0.0}, {"rental_uris": {"ios": "https://dc.lft.to/lastmile_qr_scan", "android": "https://dc.lft.to/lastmile_qr_scan"}, "type": "electric_scooter", "name": "87ca031a7c0ef3c28b90e1c0b96550ee", "is_reserved": 0, "lon": -77.02829166666666, "is_disabled": 0, "fusion_lat": 0.0, "lat": 38.887262666666665, "bike_id": "87ca031a7c0ef3c28b90e1c0b96550ee", "fusion_lon": 0.0}, {"rental_uris": {"ios": "https://dc.lft.to/lastmile_qr_scan", "android": "https://dc.lft.to/lastmile_qr_scan"}, "type": "electric_scooter", "name": "c62cd8f707e305e57166571a97ab51d0", "is_reserved": 0, "lon": -77.01208083333333, "is_disabled": 0, "fusion_lat": 0.0, "lat": 38.90168116666667, "bike_id": "c62cd8f707e305e57166571a97ab51d0", "fusion_lon": 0.0}, {"rental_uris": {"ios": "https://dc.lft.to/lastmile_qr_scan", "android": "https://dc.lft.to/lastmile_qr_scan"}, "type": "electric_scooter", "name": "55b5798c19366a3bf5e0a08be2fecde2", "is_reserved": 0, "lon": -76.989125, "is_disabled": 0, "fusion_lat": 0.0, "lat": 38.900096, "bike_id": "55b5798c19366a3bf5e0a08be2fecde2", "fusion_lon": 0.0}, {"rental_uris": {"ios": "https://dc.lft.to/lastmile_qr_scan", "android": "https://dc.lft.to/lastmile_qr_scan"}, "type": "electric_scooter", "name": "d2fbe019ae7a7721879c7d55fa6b836c", "is_reserved": 0, "lon": -76.9870245, "is_disabled": 0, "fusion_lat": 0.0, "lat": 38.85965683333333, "bike_id": "d2fbe019ae7a7721879c7d55fa6b836c", "fusion_lon": 0.0}, {"rental_uris": {"ios": "https://dc.lft.to/lastmile_qr_scan", "android": "https://dc.lft.to/lastmile_qr_scan"}, "type": "electric_scooter", "name": "b94defb2b8bea487fad8a6b9f036b873", "is_reserved": 0, "lon": -77.02717333333334, "is_disabled": 0, "fusion_lat": 0.0, "lat": 38.9101445, "bike_id": "b94defb2b8bea487fad8a6b9f036b873", "fusion_lon": 0.0}, {"rental_uris": {"ios": "https://dc.lft.to/lastmile_qr_scan", "android": "https://dc.lft.to/lastmile_qr_scan"}, "type": "electric_scooter", "name": "f7803b9050c69e7d8ab75150a394564b", "is_reserved": 0, "lon": -77.014236, "is_disabled": 0, "fusion_lat": 0.0, "lat": 38.92026633333333, "bike_id": "f7803b9050c69e7d8ab75150a394564b", "fusion_lon": 0.0}, {"rental_uris": {"ios": "https://dc.lft.to/lastmile_qr_scan", "android": "https://dc.lft.to/lastmile_qr_scan"}, "type": "electric_scooter", "name": "f62957c605be601d362afe1d401fa4ef", "is_reserved": 0, "lon": -77.04462433333333, "is_disabled": 0, "fusion_lat": 0.0, "lat": 38.911171, "bike_id": "f62957c605be601d362afe1d401fa4ef", "fusion_lon": 0.0}, {"rental_uris": {"ios": "https://dc.lft.to/lastmile_qr_scan", "android": "https://dc.lft.to/lastmile_qr_scan"}, "type": "electric_scooter", "name": "e024dc0cccdc14fd65a6da3ea8c11157", "is_reserved": 0, "lon": -77.0222355, "is_disabled": 0, "fusion_lat": 0.0, "lat": 38.91416866666667, "bike_id": "e024dc0cccdc14fd65a6da3ea8c11157", "fusion_lon": 0.0}, {"rental_uris": {"ios": "https://dc.lft.to/lastmile_qr_scan", "android": "https://dc.lft.to/lastmile_qr_scan"}, "type": "electric_bike", "name": "6b12a8ec07019d2c2d7c4040a83a4ecd", "is_reserved": 0, "lon": -76.92892733333333, "is_disabled": 0, "fusion_lat": 0.0, "lat": 38.978303333333336, "bike_id": "6b12a8ec07019d2c2d7c4040a83a4ecd", "fusion_lon": 0.0}, {"rental_uris": {"ios": "https://dc.lft.to/lastmile_qr_scan", "android": "https://dc.lft.to/lastmile_qr_scan"}, "type": "electric_bike", "name": "ad8ae1195c867f9271c6a97b32eac923", "is_reserved": 0, "lon": -76.9834965, "is_disabled": 0, "fusion_lat": 0.0, "lat": 38.862583666666666, "bike_id": "ad8ae1195c867f9271c6a97b32eac923", "fusion_lon": 0.0}, {"rental_uris": {"ios": "https://dc.lft.to/lastmile_qr_scan", "android": "https://dc.lft.to/lastmile_qr_scan"}, "type": "electric_scooter", "name": "91d8117f2ad5b9c77c1477719de5aac3", "is_reserved": 0, "lon": -77.027756, "is_disabled": 0, "fusion_lat": 0.0, "lat": 38.91692916666667, "bike_id": "91d8117f2ad5b9c77c1477719de5aac3", "fusion_lon": 0.0}, {"rental_uris": {"ios": "https://dc.lft.to/lastmile_qr_scan", "android": "https://dc.lft.to/lastmile_qr_scan"}, "type": "electric_scooter", "name": "8ef54dae7cb58599a6b72c8cca4d3e26", "is_reserved": 0, "lon": -77.037082, "is_disabled": 0, "fusion_lat": 0.0, "lat": 38.918092666666666, "bike_id": "8ef54dae7cb58599a6b72c8cca4d3e26", "fusion_lon": 0.0}, {"rental_uris": {"ios": "https://dc.lft.to/lastmile_qr_scan", "android": "https://dc.lft.to/lastmile_qr_scan"}, "type": "electric_scooter", "name": "49e0a1c484316e4f41e576683a830be0", "is_reserved": 0, "lon": -77.0442795, "is_disabled": 0, "fusion_lat": 0.0, "lat": 38.921158, "bike_id": "49e0a1c484316e4f41e576683a830be0", "fusion_lon": 0.0}, {"rental_uris": {"ios": "https://dc.lft.to/lastmile_qr_scan", "android": "https://dc.lft.to/lastmile_qr_scan"}, "type": "electric_scooter", "name": "0557ef82a23971b22b8c342ec745522f", "is_reserved": 0, "lon": -77.012173, "is_disabled": 0, "fusion_lat": 0.0, "lat": 38.87172283333334, "bike_id": "0557ef82a23971b22b8c342ec745522f", "fusion_lon": 0.0}, {"rental_uris": {"ios": "https://dc.lft.to/lastmile_qr_scan", "android": "https://dc.lft.to/lastmile_qr_scan"}, "type": "electric_scooter", "name": "54ef4c10e91b6d32980407ce81f9ff87", "is_reserved": 0, "lon": -77.03600116666667, "is_disabled": 0, "fusion_lat": 0.0, "lat": 38.902530166666665, "bike_id": "54ef4c10e91b6d32980407ce81f9ff87", "fusion_lon": 0.0}, {"rental_uris": {"ios": "https://dc.lft.to/lastmile_qr_scan", "android": "https://dc.lft.to/lastmile_qr_scan"}, "type": "electric_bike", "name": "327017176118e5375596786069d66fad", "is_reserved": 0, "lon": -77.127284, "is_disabled": 0, "fusion_lat": 0.0, "lat": 38.8955845, "bike_id": "327017176118e5375596786069d66fad", "fusion_lon": 0.0}, {"rental_uris": {"ios": "https://dc.lft.to/lastmile_qr_scan", "android": "https://dc.lft.to/lastmile_qr_scan"}, "type": "electric_scooter", "name": "1b8eff74946d02633ee41b3214858b17", "is_reserved": 0, "lon": -77.03808183333334, "is_disabled": 0, "fusion_lat": 0.0, "lat": 38.9103535, "bike_id": "1b8eff74946d02633ee41b3214858b17", "fusion_lon": 0.0}, {"rental_uris": {"ios": "https://dc.lft.to/lastmile_qr_scan", "android": "https://dc.lft.to/lastmile_qr_scan"}, "type": "electric_scooter", "name": "6fb57529f43bbbaeedb21199b37fb390", "is_reserved": 0, "lon": -77.03795633333333, "is_disabled": 0, "fusion_lat": 0.0, "lat": 38.931023333333336, "bike_id": "6fb57529f43bbbaeedb21199b37fb390", "fusion_lon": 0.0}, {"rental_uris": {"ios": "https://dc.lft.to/lastmile_qr_scan", "android": "https://dc.lft.to/lastmile_qr_scan"}, "type": "electric_scooter", "name": "68b59d3cc3b833fe79dc852a4e08bf8e", "is_reserved": 0, "lon": -77.07906483333333, "is_disabled": 0, "fusion_lat": 0.0, "lat": 38.9477775, "bike_id": "68b59d3cc3b833fe79dc852a4e08bf8e", "fusion_lon": 0.0}, {"rental_uris": {"ios": "https://dc.lft.to/lastmile_qr_scan", "android": "https://dc.lft.to/lastmile_qr_scan"}, "type": "electric_scooter", "name": "99164aaadde43a666ef6ace87828d141", "is_reserved": 0, "lon": -77.04679983333334, "is_disabled": 0, "fusion_lat": 0.0, "lat": 38.90277866666667, "bike_id": "99164aaadde43a666ef6ace87828d141", "fusion_lon": 0.0}, {"rental_uris": {"ios": "https://dc.lft.to/lastmile_qr_scan", "android": "https://dc.lft.to/lastmile_qr_scan"}, "type": "electric_scooter", "name": "0ed876b57f943d3d148d0068bd230823", "is_reserved": 0, "lon": -76.937376, "is_disabled": 0, "fusion_lat": 0.0, "lat": 38.88875133333333, "bike_id": "0ed876b57f943d3d148d0068bd230823", "fusion_lon": 0.0}, {"rental_uris": {"ios": "https://dc.lft.to/lastmile_qr_scan", "android": "https://dc.lft.to/lastmile_qr_scan"}, "type": "electric_bike", "name": "d3eeea3cb5e9c1efa954b11b1bd11226", "is_reserved": 0, "lon": -77.07525366666667, "is_disabled": 0, "fusion_lat": 0.0, "lat": 38.842855, "bike_id": "d3eeea3cb5e9c1efa954b11b1bd11226", "fusion_lon": 0.0}, {"rental_uris": {"ios": "https://dc.lft.to/lastmile_qr_scan", "android": "https://dc.lft.to/lastmile_qr_scan"}, "type": "electric_scooter", "name": "b251292513b3aac9e07ecfdfc645e59a", "is_reserved": 0, "lon": -77.03474, "is_disabled": 0, "fusion_lat": 0.0, "lat": 38.9030765, "bike_id": "b251292513b3aac9e07ecfdfc645e59a", "fusion_lon": 0.0}, {"rental_uris": {"ios": "https://dc.lft.to/lastmile_qr_scan", "android": "https://dc.lft.to/lastmile_qr_scan"}, "type": "electric_scooter", "name": "c8cdfbf004617f4a4151516fb781bdf4", "is_reserved": 0, "lon": -77.06104283333333, "is_disabled": 0, "fusion_lat": 0.0, "lat": 38.91280883333334, "bike_id": "c8cdfbf004617f4a4151516fb781bdf4", "fusion_lon": 0.0}, {"rental_uris": {"ios": "https://dc.lft.to/lastmile_qr_scan", "android": "https://dc.lft.to/lastmile_qr_scan"}, "type": "electric_scooter", "name": "d8171a76330d81d34188333001600978", "is_reserved": 0, "lon": -77.02143983333333, "is_disabled": 0, "fusion_lat": 0.0, "lat": 38.88730433333333, "bike_id": "d8171a76330d81d34188333001600978", "fusion_lon": 0.0}, {"rental_uris": {"ios": "https://dc.lft.to/lastmile_qr_scan", "android": "https://dc.lft.to/lastmile_qr_scan"}, "type": "electric_scooter", "name": "4b98cfc8d802d747f8a8a101d76686a4", "is_reserved": 0, "lon": -77.03992133333334, "is_disabled": 0, "fusion_lat": 0.0, "lat": 38.914142166666664, "bike_id": "4b98cfc8d802d747f8a8a101d76686a4", "fusion_lon": 0.0}, {"rental_uris": {"ios": "https://dc.lft.to/lastmile_qr_scan", "android": "https://dc.lft.to/lastmile_qr_scan"}, "type": "electric_scooter", "name": "9d4ba69bbb792497f49da72847031b82", "is_reserved": 0, "lon": -77.00262383333333, "is_disabled": 0, "fusion_lat": 0.0, "lat": 38.902644333333335, "bike_id": "9d4ba69bbb792497f49da72847031b82", "fusion_lon": 0.0}, {"rental_uris": {"ios": "https://dc.lft.to/lastmile_qr_scan", "android": "https://dc.lft.to/lastmile_qr_scan"}, "type": "electric_scooter", "name": "2feaf6edbbddaa75f644dae01e3762ca", "is_reserved": 0, "lon": -77.0123375, "is_disabled": 0, "fusion_lat": 0.0, "lat": 38.88103483333333, "bike_id": "2feaf6edbbddaa75f644dae01e3762ca", "fusion_lon": 0.0}, {"rental_uris": {"ios": "https://dc.lft.to/lastmile_qr_scan", "android": "https://dc.lft.to/lastmile_qr_scan"}, "type": "electric_scooter", "name": "d137aedae401b87d43006cfaa2df9f62", "is_reserved": 0, "lon": -77.03425766666666, "is_disabled": 0, "fusion_lat": 0.0, "lat": 38.90634683333333, "bike_id": "d137aedae401b87d43006cfaa2df9f62", "fusion_lon": 0.0}, {"rental_uris": {"ios": "https://dc.lft.to/lastmile_qr_scan", "android": "https://dc.lft.to/lastmile_qr_scan"}, "type": "electric_scooter", "name": "5263dbaa7d9308f511990e92df22f1f0", "is_reserved": 0, "lon": -77.03191816666667, "is_disabled": 0, "fusion_lat": 0.0, "lat": 38.92264183333333, "bike_id": "5263dbaa7d9308f511990e92df22f1f0", "fusion_lon": 0.0}, {"rental_uris": {"ios": "https://dc.lft.to/lastmile_qr_scan", "android": "https://dc.lft.to/lastmile_qr_scan"}, "type": "electric_scooter", "name": "4222d0a627192c28432f734bef92cf73", "is_reserved": 0, "lon": -77.06392966666667, "is_disabled": 0, "fusion_lat": 0.0, "lat": 38.90861966666667, "bike_id": "4222d0a627192c28432f734bef92cf73", "fusion_lon": 0.0}, {"rental_uris": {"ios": "https://dc.lft.to/lastmile_qr_scan", "android": "https://dc.lft.to/lastmile_qr_scan"}, "type": "electric_scooter", "name": "87b43711cb4829296e0b172c886b6e8c", "is_reserved": 0, "lon": -76.99509283333333, "is_disabled": 0, "fusion_lat": 0.0, "lat": 38.8832325, "bike_id": "87b43711cb4829296e0b172c886b6e8c", "fusion_lon": 0.0}, {"rental_uris": {"ios": "https://dc.lft.to/lastmile_qr_scan", "android": "https://dc.lft.to/lastmile_qr_scan"}, "type": "electric_scooter", "name": "0cada981a3e5588fc6c221817345e480", "is_reserved": 0, "lon": -76.99144183333334, "is_disabled": 0, "fusion_lat": 0.0, "lat": 38.873385666666664, "bike_id": "0cada981a3e5588fc6c221817345e480", "fusion_lon": 0.0}, {"rental_uris": {"ios": "https://dc.lft.to/lastmile_qr_scan", "android": "https://dc.lft.to/lastmile_qr_scan"}, "type": "electric_bike", "name": "3320cfe8fe4583c03c9627e6a6c6ee9c", "is_reserved": 0, "lon": -76.96888883333334, "is_disabled": 0, "fusion_lat": 0.0, "lat": 38.869824666666666, "bike_id": "3320cfe8fe4583c03c9627e6a6c6ee9c", "fusion_lon": 0.0}, {"rental_uris": {"ios": "https://dc.lft.to/lastmile_qr_scan", "android": "https://dc.lft.to/lastmile_qr_scan"}, "type": "electric_scooter", "name": "762936cc7430040910fb946e52d44e0e", "is_reserved": 0, "lon": -77.07149516666666, "is_disabled": 0, "fusion_lat": 0.0, "lat": 38.90777416666667, "bike_id": "762936cc7430040910fb946e52d44e0e", "fusion_lon": 0.0}, {"rental_uris": {"ios": "https://dc.lft.to/lastmile_qr_scan", "android": "https://dc.lft.to/lastmile_qr_scan"}, "type": "electric_scooter", "name": "8b0dbc0c03b9c63dda9e18cba29d8b81", "is_reserved": 0, "lon": -77.04481466666667, "is_disabled": 0, "fusion_lat": 0.0, "lat": 38.9108565, "bike_id": "8b0dbc0c03b9c63dda9e18cba29d8b81", "fusion_lon": 0.0}, {"rental_uris": {"ios": "https://dc.lft.to/lastmile_qr_scan", "android": "https://dc.lft.to/lastmile_qr_scan"}, "type": "electric_scooter", "name": "2195a58c315aa3674e6d77f2d22c1106", "is_reserved": 0, "lon": -77.0241545, "is_disabled": 0, "fusion_lat": 0.0, "lat": 38.90959133333333, "bike_id": "2195a58c315aa3674e6d77f2d22c1106", "fusion_lon": 0.0}, {"rental_uris": {"ios": "https://dc.lft.to/lastmile_qr_scan", "android": "https://dc.lft.to/lastmile_qr_scan"}, "type": "electric_scooter", "name": "10713becf1f2eab3c760df6adf1f6888", "is_reserved": 0, "lon": -77.05316666666667, "is_disabled": 0, "fusion_lat": 0.0, "lat": 38.94096616666667, "bike_id": "10713becf1f2eab3c760df6adf1f6888", "fusion_lon": 0.0}, {"rental_uris": {"ios": "https://dc.lft.to/lastmile_qr_scan", "android": "https://dc.lft.to/lastmile_qr_scan"}, "type": "electric_scooter", "name": "ea99c2c6aebdf348f940f0841709abaf", "is_reserved": 0, "lon": -77.038616, "is_disabled": 0, "fusion_lat": 0.0, "lat": 38.90799233333333, "bike_id": "ea99c2c6aebdf348f940f0841709abaf", "fusion_lon": 0.0}, {"rental_uris": {"ios": "https://dc.lft.to/lastmile_qr_scan", "android": "https://dc.lft.to/lastmile_qr_scan"}, "type": "electric_scooter", "name": "c198b3cc71c3c564c05527e88a3c54dc", "is_reserved": 0, "lon": -77.042387, "is_disabled": 0, "fusion_lat": 0.0, "lat": 38.92272333333333, "bike_id": "c198b3cc71c3c564c05527e88a3c54dc", "fusion_lon": 0.0}, {"rental_uris": {"ios": "https://dc.lft.to/lastmile_qr_scan", "android": "https://dc.lft.to/lastmile_qr_scan"}, "type": "electric_scooter", "name": "551119e54f3981a36a8e997c5e35ae09", "is_reserved": 0, "lon": -77.04002366666667, "is_disabled": 0, "fusion_lat": 0.0, "lat": 38.93426016666667, "bike_id": "551119e54f3981a36a8e997c5e35ae09", "fusion_lon": 0.0}, {"rental_uris": {"ios": "https://dc.lft.to/lastmile_qr_scan", "android": "https://dc.lft.to/lastmile_qr_scan"}, "type": "electric_bike", "name": "8760355821a1c44e821fd61e1f89ed4c", "is_reserved": 0, "lon": -77.1289955, "is_disabled": 0, "fusion_lat": 0.0, "lat": 38.906083833333334, "bike_id": "8760355821a1c44e821fd61e1f89ed4c", "fusion_lon": 0.0}, {"rental_uris": {"ios": "https://dc.lft.to/lastmile_qr_scan", "android": "https://dc.lft.to/lastmile_qr_scan"}, "type": "electric_scooter", "name": "4e0a37517b0fa54a70e5c4e3916cd31d", "is_reserved": 0, "lon": -77.04475483333333, "is_disabled": 0, "fusion_lat": 0.0, "lat": 38.91433766666667, "bike_id": "4e0a37517b0fa54a70e5c4e3916cd31d", "fusion_lon": 0.0}, {"rental_uris": {"ios": "https://dc.lft.to/lastmile_qr_scan", "android": "https://dc.lft.to/lastmile_qr_scan"}, "type": "electric_scooter", "name": "8e9e3a85e2d8d50e1cdb16c580429ff2", "is_reserved": 0, "lon": -77.03176933333333, "is_disabled": 0, "fusion_lat": 0.0, "lat": 38.919215666666666, "bike_id": "8e9e3a85e2d8d50e1cdb16c580429ff2", "fusion_lon": 0.0}, {"rental_uris": {"ios": "https://dc.lft.to/lastmile_qr_scan", "android": "https://dc.lft.to/lastmile_qr_scan"}, "type": "electric_scooter", "name": "ca24f19347ac13e2fc552788eaed6bf1", "is_reserved": 0, "lon": -77.03424683333333, "is_disabled": 0, "fusion_lat": 0.0, "lat": 38.90134916666667, "bike_id": "ca24f19347ac13e2fc552788eaed6bf1", "fusion_lon": 0.0}, {"rental_uris": {"ios": "https://dc.lft.to/lastmile_qr_scan", "android": "https://dc.lft.to/lastmile_qr_scan"}, "type": "electric_scooter", "name": "efb7e9bb33d99c5cf22fb82720cac5b7", "is_reserved": 0, "lon": -77.04234366666667, "is_disabled": 0, "fusion_lat": 0.0, "lat": 38.91631733333333, "bike_id": "efb7e9bb33d99c5cf22fb82720cac5b7", "fusion_lon": 0.0}, {"rental_uris": {"ios": "https://dc.lft.to/lastmile_qr_scan", "android": "https://dc.lft.to/lastmile_qr_scan"}, "type": "electric_bike", "name": "e328380e5b1a405eefef1803a8cac8c3", "is_reserved": 0, "lon": -77.05267533333334, "is_disabled": 0, "fusion_lat": 0.0, "lat": 38.94087283333333, "bike_id": "e328380e5b1a405eefef1803a8cac8c3", "fusion_lon": 0.0}, {"rental_uris": {"ios": "https://dc.lft.to/lastmile_qr_scan", "android": "https://dc.lft.to/lastmile_qr_scan"}, "type": "electric_scooter", "name": "d497ed9216e8f794632b10065b0d8bef", "is_reserved": 0, "lon": -77.04458, "is_disabled": 0, "fusion_lat": 0.0, "lat": 38.90820866666667, "bike_id": "d497ed9216e8f794632b10065b0d8bef", "fusion_lon": 0.0}, {"rental_uris": {"ios": "https://dc.lft.to/lastmile_qr_scan", "android": "https://dc.lft.to/lastmile_qr_scan"}, "type": "electric_scooter", "name": "0d62ecc8123de36244a88147be6e8470", "is_reserved": 0, "lon": -77.04470016666667, "is_disabled": 0, "fusion_lat": 0.0, "lat": 38.90078366666667, "bike_id": "0d62ecc8123de36244a88147be6e8470", "fusion_lon": 0.0}, {"rental_uris": {"ios": "https://dc.lft.to/lastmile_qr_scan", "android": "https://dc.lft.to/lastmile_qr_scan"}, "type": "electric_bike", "name": "1f9ef964a0b03a41fd4e015df9b51f00", "is_reserved": 0, "lon": -77.016855, "is_disabled": 0, "fusion_lat": 0.0, "lat": 38.9751715, "bike_id": "1f9ef964a0b03a41fd4e015df9b51f00", "fusion_lon": 0.0}, {"rental_uris": {"ios": "https://dc.lft.to/lastmile_qr_scan", "android": "https://dc.lft.to/lastmile_qr_scan"}, "type": "electric_scooter", "name": "ff0ba94be1ba5118e7004c6c2c420bc4", "is_reserved": 0, "lon": -77.028388, "is_disabled": 0, "fusion_lat": 0.0, "lat": 38.887300333333336, "bike_id": "ff0ba94be1ba5118e7004c6c2c420bc4", "fusion_lon": 0.0}, {"rental_uris": {"ios": "https://dc.lft.to/lastmile_qr_scan", "android": "https://dc.lft.to/lastmile_qr_scan"}, "type": "electric_scooter", "name": "119c7840a034683d03feaab5ca34718e", "is_reserved": 0, "lon": -77.0325085, "is_disabled": 0, "fusion_lat": 0.0, "lat": 38.937095666666664, "bike_id": "119c7840a034683d03feaab5ca34718e", "fusion_lon": 0.0}, {"rental_uris": {"ios": "https://dc.lft.to/lastmile_qr_scan", "android": "https://dc.lft.to/lastmile_qr_scan"}, "type": "electric_scooter", "name": "d88724a63e6c0565a537113719a60ad2", "is_reserved": 0, "lon": -77.02958166666667, "is_disabled": 0, "fusion_lat": 0.0, "lat": 38.907956, "bike_id": "d88724a63e6c0565a537113719a60ad2", "fusion_lon": 0.0}, {"rental_uris": {"ios": "https://dc.lft.to/lastmile_qr_scan", "android": "https://dc.lft.to/lastmile_qr_scan"}, "type": "electric_scooter", "name": "e342da974cde4e126d6854456e5d3644", "is_reserved": 0, "lon": -77.03372783333333, "is_disabled": 0, "fusion_lat": 0.0, "lat": 38.938658, "bike_id": "e342da974cde4e126d6854456e5d3644", "fusion_lon": 0.0}, {"rental_uris": {"ios": "https://dc.lft.to/lastmile_qr_scan", "android": "https://dc.lft.to/lastmile_qr_scan"}, "type": "electric_scooter", "name": "2dda767f1e29016a78589f9c5a729c4e", "is_reserved": 0, "lon": -77.02713116666666, "is_disabled": 0, "fusion_lat": 0.0, "lat": 38.91685916666667, "bike_id": "2dda767f1e29016a78589f9c5a729c4e", "fusion_lon": 0.0}, {"rental_uris": {"ios": "https://dc.lft.to/lastmile_qr_scan", "android": "https://dc.lft.to/lastmile_qr_scan"}, "type": "electric_bike", "name": "8ceaf1912ff4814ea8ba6b5fda6cf4b8", "is_reserved": 0, "lon": -77.03825483333334, "is_disabled": 0, "fusion_lat": 0.0, "lat": 38.92973, "bike_id": "8ceaf1912ff4814ea8ba6b5fda6cf4b8", "fusion_lon": 0.0}, {"rental_uris": {"ios": "https://dc.lft.to/lastmile_qr_scan", "android": "https://dc.lft.to/lastmile_qr_scan"}, "type": "electric_scooter", "name": "9f182d737f16c977622e2a22336991b5", "is_reserved": 0, "lon": -77.023993, "is_disabled": 0, "fusion_lat": 0.0, "lat": 38.90077266666667, "bike_id": "9f182d737f16c977622e2a22336991b5", "fusion_lon": 0.0}, {"rental_uris": {"ios": "https://dc.lft.to/lastmile_qr_scan", "android": "https://dc.lft.to/lastmile_qr_scan"}, "type": "electric_bike", "name": "628df83b468bed7a74c50626be8c7b06", "is_reserved": 0, "lon": -76.97320933333333, "is_disabled": 0, "fusion_lat": 0.0, "lat": 38.86498983333333, "bike_id": "628df83b468bed7a74c50626be8c7b06", "fusion_lon": 0.0}, {"rental_uris": {"ios": "https://dc.lft.to/lastmile_qr_scan", "android": "https://dc.lft.to/lastmile_qr_scan"}, "type": "electric_scooter", "name": "c2f55d5980d36ee477af33fb07a29193", "is_reserved": 0, "lon": -77.0021735, "is_disabled": 0, "fusion_lat": 0.0, "lat": 38.89451016666667, "bike_id": "c2f55d5980d36ee477af33fb07a29193", "fusion_lon": 0.0}, {"rental_uris": {"ios": "https://dc.lft.to/lastmile_qr_scan", "android": "https://dc.lft.to/lastmile_qr_scan"}, "type": "electric_scooter", "name": "2297b86f201de44c12bf59d5b6c87171", "is_reserved": 0, "lon": -77.04349966666666, "is_disabled": 0, "fusion_lat": 0.0, "lat": 38.907886500000004, "bike_id": "2297b86f201de44c12bf59d5b6c87171", "fusion_lon": 0.0}, {"rental_uris": {"ios": "https://dc.lft.to/lastmile_qr_scan", "android": "https://dc.lft.to/lastmile_qr_scan"}, "type": "electric_scooter", "name": "974bd4b45eb8a3dac7f3af5ee48beb6b", "is_reserved": 0, "lon": -77.00744066666667, "is_disabled": 0, "fusion_lat": 0.0, "lat": 38.89846266666667, "bike_id": "974bd4b45eb8a3dac7f3af5ee48beb6b", "fusion_lon": 0.0}, {"rental_uris": {"ios": "https://dc.lft.to/lastmile_qr_scan", "android": "https://dc.lft.to/lastmile_qr_scan"}, "type": "electric_scooter", "name": "39e07aa5d92d7a9802f487e3e851ce2e", "is_reserved": 0, "lon": -77.032562, "is_disabled": 0, "fusion_lat": 0.0, "lat": 38.928835666666664, "bike_id": "39e07aa5d92d7a9802f487e3e851ce2e", "fusion_lon": 0.0}, {"rental_uris": {"ios": "https://dc.lft.to/lastmile_qr_scan", "android": "https://dc.lft.to/lastmile_qr_scan"}, "type": "electric_scooter", "name": "f4e58f414ed71e8a9e2e26ebf3d77f1e", "is_reserved": 0, "lon": -77.04197583333334, "is_disabled": 0, "fusion_lat": 0.0, "lat": 38.90560716666667, "bike_id": "f4e58f414ed71e8a9e2e26ebf3d77f1e", "fusion_lon": 0.0}, {"rental_uris": {"ios": "https://dc.lft.to/lastmile_qr_scan", "android": "https://dc.lft.to/lastmile_qr_scan"}, "type": "electric_scooter", "name": "05cc383109e6ee649fe53feaf367a11e", "is_reserved": 0, "lon": -77.03864233333333, "is_disabled": 0, "fusion_lat": 0.0, "lat": 38.90807383333333, "bike_id": "05cc383109e6ee649fe53feaf367a11e", "fusion_lon": 0.0}, {"rental_uris": {"ios": "https://dc.lft.to/lastmile_qr_scan", "android": "https://dc.lft.to/lastmile_qr_scan"}, "type": "electric_scooter", "name": "d82e976d8f307053f58da4b356768f9e", "is_reserved": 0, "lon": -77.03075666666666, "is_disabled": 0, "fusion_lat": 0.0, "lat": 38.92244916666667, "bike_id": "d82e976d8f307053f58da4b356768f9e", "fusion_lon": 0.0}, {"rental_uris": {"ios": "https://dc.lft.to/lastmile_qr_scan", "android": "https://dc.lft.to/lastmile_qr_scan"}, "type": "electric_scooter", "name": "0cab7bca7b6691d1eec502cc79fe4916", "is_reserved": 0, "lon": -77.03440216666667, "is_disabled": 0, "fusion_lat": 0.0, "lat": 38.909696, "bike_id": "0cab7bca7b6691d1eec502cc79fe4916", "fusion_lon": 0.0}, {"rental_uris": {"ios": "https://dc.lft.to/lastmile_qr_scan", "android": "https://dc.lft.to/lastmile_qr_scan"}, "type": "electric_scooter", "name": "4105b52f0abd1db862b2631a41dce622", "is_reserved": 0, "lon": -76.99703866666667, "is_disabled": 0, "fusion_lat": 0.0, "lat": 38.88760116666667, "bike_id": "4105b52f0abd1db862b2631a41dce622", "fusion_lon": 0.0}, {"rental_uris": {"ios": "https://dc.lft.to/lastmile_qr_scan", "android": "https://dc.lft.to/lastmile_qr_scan"}, "type": "electric_scooter", "name": "163b32a17cd0c26a8f784ad054d5a4d9", "is_reserved": 0, "lon": -77.0335035, "is_disabled": 0, "fusion_lat": 0.0, "lat": 38.9547085, "bike_id": "163b32a17cd0c26a8f784ad054d5a4d9", "fusion_lon": 0.0}, {"rental_uris": {"ios": "https://dc.lft.to/lastmile_qr_scan", "android": "https://dc.lft.to/lastmile_qr_scan"}, "type": "electric_scooter", "name": "3538c3085e910b6ee38f0c9fcbb99629", "is_reserved": 0, "lon": -77.07454516666667, "is_disabled": 0, "fusion_lat": 0.0, "lat": 38.937781, "bike_id": "3538c3085e910b6ee38f0c9fcbb99629", "fusion_lon": 0.0}, {"rental_uris": {"ios": "https://dc.lft.to/lastmile_qr_scan", "android": "https://dc.lft.to/lastmile_qr_scan"}, "type": "electric_scooter", "name": "a7188e6bdb82393113d821e5609a953e", "is_reserved": 0, "lon": -77.02683366666666, "is_disabled": 0, "fusion_lat": 0.0, "lat": 38.8975565, "bike_id": "a7188e6bdb82393113d821e5609a953e", "fusion_lon": 0.0}, {"rental_uris": {"ios": "https://dc.lft.to/lastmile_qr_scan", "android": "https://dc.lft.to/lastmile_qr_scan"}, "type": "electric_scooter", "name": "064638697fb521d3740cbb0f8dedfc76", "is_reserved": 0, "lon": -77.02162733333333, "is_disabled": 0, "fusion_lat": 0.0, "lat": 38.8946865, "bike_id": "064638697fb521d3740cbb0f8dedfc76", "fusion_lon": 0.0}, {"rental_uris": {"ios": "https://dc.lft.to/lastmile_qr_scan", "android": "https://dc.lft.to/lastmile_qr_scan"}, "type": "electric_scooter", "name": "ffbad42fc1674c83ca18712edd261a14", "is_reserved": 0, "lon": -77.03174366666667, "is_disabled": 0, "fusion_lat": 0.0, "lat": 38.915804666666666, "bike_id": "ffbad42fc1674c83ca18712edd261a14", "fusion_lon": 0.0}, {"rental_uris": {"ios": "https://dc.lft.to/lastmile_qr_scan", "android": "https://dc.lft.to/lastmile_qr_scan"}, "type": "electric_bike", "name": "68a07d452bee5e3d861fe9ee9a5eafa8", "is_reserved": 0, "lon": -77.085335, "is_disabled": 0, "fusion_lat": 0.0, "lat": 38.85645816666667, "bike_id": "68a07d452bee5e3d861fe9ee9a5eafa8", "fusion_lon": 0.0}, {"rental_uris": {"ios": "https://dc.lft.to/lastmile_qr_scan", "android": "https://dc.lft.to/lastmile_qr_scan"}, "type": "electric_scooter", "name": "bfa8396044fa1bb22a5c665fe56b2691", "is_reserved": 0, "lon": -77.0341455, "is_disabled": 0, "fusion_lat": 0.0, "lat": 38.922059, "bike_id": "bfa8396044fa1bb22a5c665fe56b2691", "fusion_lon": 0.0}, {"rental_uris": {"ios": "https://dc.lft.to/lastmile_qr_scan", "android": "https://dc.lft.to/lastmile_qr_scan"}, "type": "electric_scooter", "name": "783677aca5fe949c01e79eef801ac668", "is_reserved": 0, "lon": -77.02792033333333, "is_disabled": 0, "fusion_lat": 0.0, "lat": 38.93078583333333, "bike_id": "783677aca5fe949c01e79eef801ac668", "fusion_lon": 0.0}, {"rental_uris": {"ios": "https://dc.lft.to/lastmile_qr_scan", "android": "https://dc.lft.to/lastmile_qr_scan"}, "type": "electric_scooter", "name": "c11de2b305d53fb9359955b580216aaf", "is_reserved": 0, "lon": -77.05917833333334, "is_disabled": 0, "fusion_lat": 0.0, "lat": 38.902787833333335, "bike_id": "c11de2b305d53fb9359955b580216aaf", "fusion_lon": 0.0}, {"rental_uris": {"ios": "https://dc.lft.to/lastmile_qr_scan", "android": "https://dc.lft.to/lastmile_qr_scan"}, "type": "electric_scooter", "name": "dce49b0f36580309affe2061c6dba4c7", "is_reserved": 0, "lon": -77.00591616666667, "is_disabled": 0, "fusion_lat": 0.0, "lat": 38.875661666666666, "bike_id": "dce49b0f36580309affe2061c6dba4c7", "fusion_lon": 0.0}, {"rental_uris": {"ios": "https://dc.lft.to/lastmile_qr_scan", "android": "https://dc.lft.to/lastmile_qr_scan"}, "type": "electric_scooter", "name": "731c95f175718194f59adcb8741e37ca", "is_reserved": 0, "lon": -76.985061, "is_disabled": 0, "fusion_lat": 0.0, "lat": 38.87998266666666, "bike_id": "731c95f175718194f59adcb8741e37ca", "fusion_lon": 0.0}, {"rental_uris": {"ios": "https://dc.lft.to/lastmile_qr_scan", "android": "https://dc.lft.to/lastmile_qr_scan"}, "type": "electric_scooter", "name": "42c035936467145923ab85b417ad9571", "is_reserved": 0, "lon": -77.0474475, "is_disabled": 0, "fusion_lat": 0.0, "lat": 38.900967333333334, "bike_id": "42c035936467145923ab85b417ad9571", "fusion_lon": 0.0}, {"rental_uris": {"ios": "https://dc.lft.to/lastmile_qr_scan", "android": "https://dc.lft.to/lastmile_qr_scan"}, "type": "electric_scooter", "name": "d49a0a9989d966e867ce157f8f128138", "is_reserved": 0, "lon": -77.04154416666667, "is_disabled": 0, "fusion_lat": 0.0, "lat": 38.92550033333333, "bike_id": "d49a0a9989d966e867ce157f8f128138", "fusion_lon": 0.0}, {"rental_uris": {"ios": "https://dc.lft.to/lastmile_qr_scan", "android": "https://dc.lft.to/lastmile_qr_scan"}, "type": "electric_scooter", "name": "55147d20bc443185a3663dbac896a058", "is_reserved": 0, "lon": -77.04035, "is_disabled": 0, "fusion_lat": 0.0, "lat": 38.904034, "bike_id": "55147d20bc443185a3663dbac896a058", "fusion_lon": 0.0}, {"rental_uris": {"ios": "https://dc.lft.to/lastmile_qr_scan", "android": "https://dc.lft.to/lastmile_qr_scan"}, "type": "electric_scooter", "name": "9ae13b4d47bde6956e8425224cd96dc4", "is_reserved": 0, "lon": -77.02439266666667, "is_disabled": 0, "fusion_lat": 0.0, "lat": 38.90292266666667, "bike_id": "9ae13b4d47bde6956e8425224cd96dc4", "fusion_lon": 0.0}, {"rental_uris": {"ios": "https://dc.lft.to/lastmile_qr_scan", "android": "https://dc.lft.to/lastmile_qr_scan"}, "type": "electric_bike", "name": "e5c00ef7d01a2d523354d8c1cb013205", "is_reserved": 0, "lon": -77.1265395, "is_disabled": 0, "fusion_lat": 0.0, "lat": 38.81907783333333, "bike_id": "e5c00ef7d01a2d523354d8c1cb013205", "fusion_lon": 0.0}, {"rental_uris": {"ios": "https://dc.lft.to/lastmile_qr_scan", "android": "https://dc.lft.to/lastmile_qr_scan"}, "type": "electric_scooter", "name": "0ff13047f8c6b481429c709119ebe5f5", "is_reserved": 0, "lon": -77.03146166666667, "is_disabled": 0, "fusion_lat": 0.0, "lat": 38.906249833333334, "bike_id": "0ff13047f8c6b481429c709119ebe5f5", "fusion_lon": 0.0}, {"rental_uris": {"ios": "https://dc.lft.to/lastmile_qr_scan", "android": "https://dc.lft.to/lastmile_qr_scan"}, "type": "electric_scooter", "name": "0e9616253fb83f936e7bad609c6ddada", "is_reserved": 0, "lon": -77.01868933333333, "is_disabled": 0, "fusion_lat": 0.0, "lat": 38.93061516666667, "bike_id": "0e9616253fb83f936e7bad609c6ddada", "fusion_lon": 0.0}, {"rental_uris": {"ios": "https://dc.lft.to/lastmile_qr_scan", "android": "https://dc.lft.to/lastmile_qr_scan"}, "type": "electric_scooter", "name": "432119c6347ed74794c7ce96883e25af", "is_reserved": 0, "lon": -77.03843683333334, "is_disabled": 0, "fusion_lat": 0.0, "lat": 38.903833166666665, "bike_id": "432119c6347ed74794c7ce96883e25af", "fusion_lon": 0.0}, {"rental_uris": {"ios": "https://dc.lft.to/lastmile_qr_scan", "android": "https://dc.lft.to/lastmile_qr_scan"}, "type": "electric_scooter", "name": "b661da3f568f4685fd5b96afe9b304ca", "is_reserved": 0, "lon": -76.97042716666667, "is_disabled": 0, "fusion_lat": 0.0, "lat": 38.87320483333333, "bike_id": "b661da3f568f4685fd5b96afe9b304ca", "fusion_lon": 0.0}, {"rental_uris": {"ios": "https://dc.lft.to/lastmile_qr_scan", "android": "https://dc.lft.to/lastmile_qr_scan"}, "type": "electric_scooter", "name": "7202d78ffd19d70ff134b5346cb05e0b", "is_reserved": 0, "lon": -77.0395705, "is_disabled": 0, "fusion_lat": 0.0, "lat": 38.8924565, "bike_id": "7202d78ffd19d70ff134b5346cb05e0b", "fusion_lon": 0.0}, {"rental_uris": {"ios": "https://dc.lft.to/lastmile_qr_scan", "android": "https://dc.lft.to/lastmile_qr_scan"}, "type": "electric_scooter", "name": "483a8444094b68589290b743e86eecb3", "is_reserved": 0, "lon": -77.0271895, "is_disabled": 0, "fusion_lat": 0.0, "lat": 38.91009116666667, "bike_id": "483a8444094b68589290b743e86eecb3", "fusion_lon": 0.0}, {"rental_uris": {"ios": "https://dc.lft.to/lastmile_qr_scan", "android": "https://dc.lft.to/lastmile_qr_scan"}, "type": "electric_scooter", "name": "15e421a4c3300ba4dd8a1ecc13927044", "is_reserved": 0, "lon": -77.02255983333333, "is_disabled": 0, "fusion_lat": 0.0, "lat": 38.924068166666665, "bike_id": "15e421a4c3300ba4dd8a1ecc13927044", "fusion_lon": 0.0}, {"rental_uris": {"ios": "https://dc.lft.to/lastmile_qr_scan", "android": "https://dc.lft.to/lastmile_qr_scan"}, "type": "electric_bike", "name": "17ebb8a85e96b29aa54fd859f0d0e0b7", "is_reserved": 0, "lon": -77.066945, "is_disabled": 0, "fusion_lat": 0.0, "lat": 38.831732, "bike_id": "17ebb8a85e96b29aa54fd859f0d0e0b7", "fusion_lon": 0.0}, {"rental_uris": {"ios": "https://dc.lft.to/lastmile_qr_scan", "android": "https://dc.lft.to/lastmile_qr_scan"}, "type": "electric_scooter", "name": "d33492588110446c95c998e5c0349d08", "is_reserved": 0, "lon": -77.00810416666667, "is_disabled": 0, "fusion_lat": 0.0, "lat": 38.87863983333333, "bike_id": "d33492588110446c95c998e5c0349d08", "fusion_lon": 0.0}, {"rental_uris": {"ios": "https://dc.lft.to/lastmile_qr_scan", "android": "https://dc.lft.to/lastmile_qr_scan"}, "type": "electric_scooter", "name": "d088c7259660abc4e4b026904742bdda", "is_reserved": 0, "lon": -77.0279095, "is_disabled": 0, "fusion_lat": 0.0, "lat": 38.956108666666665, "bike_id": "d088c7259660abc4e4b026904742bdda", "fusion_lon": 0.0}, {"rental_uris": {"ios": "https://dc.lft.to/lastmile_qr_scan", "android": "https://dc.lft.to/lastmile_qr_scan"}, "type": "electric_scooter", "name": "51e5380fe5d071b91eb59fdba2d33273", "is_reserved": 0, "lon": -77.00117816666666, "is_disabled": 0, "fusion_lat": 0.0, "lat": 38.874776, "bike_id": "51e5380fe5d071b91eb59fdba2d33273", "fusion_lon": 0.0}, {"rental_uris": {"ios": "https://dc.lft.to/lastmile_qr_scan", "android": "https://dc.lft.to/lastmile_qr_scan"}, "type": "electric_scooter", "name": "985215ad473e6c992f46ea8665cbec0e", "is_reserved": 0, "lon": -77.02901966666667, "is_disabled": 0, "fusion_lat": 0.0, "lat": 38.940364333333335, "bike_id": "985215ad473e6c992f46ea8665cbec0e", "fusion_lon": 0.0}, {"rental_uris": {"ios": "https://dc.lft.to/lastmile_qr_scan", "android": "https://dc.lft.to/lastmile_qr_scan"}, "type": "electric_bike", "name": "6258e35dd780a81e8b6dd31c4a6cb630", "is_reserved": 0, "lon": -77.04316266666666, "is_disabled": 0, "fusion_lat": 0.0, "lat": 39.03425383333333, "bike_id": "6258e35dd780a81e8b6dd31c4a6cb630", "fusion_lon": 0.0}, {"rental_uris": {"ios": "https://dc.lft.to/lastmile_qr_scan", "android": "https://dc.lft.to/lastmile_qr_scan"}, "type": "electric_bike", "name": "3456bfe3232584b2b6709315a90cd5f1", "is_reserved": 0, "lon": -77.113532, "is_disabled": 0, "fusion_lat": 0.0, "lat": 38.841937333333334, "bike_id": "3456bfe3232584b2b6709315a90cd5f1", "fusion_lon": 0.0}, {"rental_uris": {"ios": "https://dc.lft.to/lastmile_qr_scan", "android": "https://dc.lft.to/lastmile_qr_scan"}, "type": "electric_scooter", "name": "c6484cf4ef2d30e90be38f2a55f1dab4", "is_reserved": 0, "lon": -76.99914216666667, "is_disabled": 0, "fusion_lat": 0.0, "lat": 38.921658666666666, "bike_id": "c6484cf4ef2d30e90be38f2a55f1dab4", "fusion_lon": 0.0}, {"rental_uris": {"ios": "https://dc.lft.to/lastmile_qr_scan", "android": "https://dc.lft.to/lastmile_qr_scan"}, "type": "electric_scooter", "name": "fb64873108048c884f745c42d3c160c9", "is_reserved": 0, "lon": -77.005579, "is_disabled": 0, "fusion_lat": 0.0, "lat": 38.8746565, "bike_id": "fb64873108048c884f745c42d3c160c9", "fusion_lon": 0.0}, {"rental_uris": {"ios": "https://dc.lft.to/lastmile_qr_scan", "android": "https://dc.lft.to/lastmile_qr_scan"}, "type": "electric_scooter", "name": "91a9557efa913e593fb19535decf61be", "is_reserved": 0, "lon": -76.9336515, "is_disabled": 0, "fusion_lat": 0.0, "lat": 38.89910283333333, "bike_id": "91a9557efa913e593fb19535decf61be", "fusion_lon": 0.0}, {"rental_uris": {"ios": "https://dc.lft.to/lastmile_qr_scan", "android": "https://dc.lft.to/lastmile_qr_scan"}, "type": "electric_scooter", "name": "2c58ffc4e4a916473d7510de72c11a21", "is_reserved": 0, "lon": -77.01774033333334, "is_disabled": 0, "fusion_lat": 0.0, "lat": 38.900459166666664, "bike_id": "2c58ffc4e4a916473d7510de72c11a21", "fusion_lon": 0.0}, {"rental_uris": {"ios": "https://dc.lft.to/lastmile_qr_scan", "android": "https://dc.lft.to/lastmile_qr_scan"}, "type": "electric_scooter", "name": "1627a3f594cfc03c14fe00dc02645196", "is_reserved": 0, "lon": -76.993469, "is_disabled": 0, "fusion_lat": 0.0, "lat": 38.87689916666667, "bike_id": "1627a3f594cfc03c14fe00dc02645196", "fusion_lon": 0.0}, {"rental_uris": {"ios": "https://dc.lft.to/lastmile_qr_scan", "android": "https://dc.lft.to/lastmile_qr_scan"}, "type": "electric_scooter", "name": "a6ab9c82ea4aff882496ea197e9a0d3f", "is_reserved": 0, "lon": -77.031265, "is_disabled": 0, "fusion_lat": 0.0, "lat": 38.915510833333336, "bike_id": "a6ab9c82ea4aff882496ea197e9a0d3f", "fusion_lon": 0.0}, {"rental_uris": {"ios": "https://dc.lft.to/lastmile_qr_scan", "android": "https://dc.lft.to/lastmile_qr_scan"}, "type": "electric_scooter", "name": "eeb62cfa849dc84a137e1f2df86f57b7", "is_reserved": 0, "lon": -76.98932133333334, "is_disabled": 0, "fusion_lat": 0.0, "lat": 38.8786295, "bike_id": "eeb62cfa849dc84a137e1f2df86f57b7", "fusion_lon": 0.0}, {"rental_uris": {"ios": "https://dc.lft.to/lastmile_qr_scan", "android": "https://dc.lft.to/lastmile_qr_scan"}, "type": "electric_scooter", "name": "9613158d49e9664e44a69cff2b6abfea", "is_reserved": 0, "lon": -77.0207995, "is_disabled": 0, "fusion_lat": 0.0, "lat": 38.90869283333333, "bike_id": "9613158d49e9664e44a69cff2b6abfea", "fusion_lon": 0.0}, {"rental_uris": {"ios": "https://dc.lft.to/lastmile_qr_scan", "android": "https://dc.lft.to/lastmile_qr_scan"}, "type": "electric_scooter", "name": "90ef17d9492d1271f9b02756b0010316", "is_reserved": 0, "lon": -77.0745745, "is_disabled": 0, "fusion_lat": 0.0, "lat": 38.93783216666667, "bike_id": "90ef17d9492d1271f9b02756b0010316", "fusion_lon": 0.0}, {"rental_uris": {"ios": "https://dc.lft.to/lastmile_qr_scan", "android": "https://dc.lft.to/lastmile_qr_scan"}, "type": "electric_scooter", "name": "f45417e67a512351cbb6cfc5b560c323", "is_reserved": 0, "lon": -77.05128433333333, "is_disabled": 0, "fusion_lat": 0.0, "lat": 38.92360266666667, "bike_id": "f45417e67a512351cbb6cfc5b560c323", "fusion_lon": 0.0}, {"rental_uris": {"ios": "https://dc.lft.to/lastmile_qr_scan", "android": "https://dc.lft.to/lastmile_qr_scan"}, "type": "electric_scooter", "name": "e16a74742755316e864bae29eaf3574b", "is_reserved": 0, "lon": -77.02178666666667, "is_disabled": 0, "fusion_lat": 0.0, "lat": 38.909609333333336, "bike_id": "e16a74742755316e864bae29eaf3574b", "fusion_lon": 0.0}, {"rental_uris": {"ios": "https://dc.lft.to/lastmile_qr_scan", "android": "https://dc.lft.to/lastmile_qr_scan"}, "type": "electric_scooter", "name": "ae40d80b393056b645448cf47ffae277", "is_reserved": 0, "lon": -77.0412725, "is_disabled": 0, "fusion_lat": 0.0, "lat": 38.932686833333335, "bike_id": "ae40d80b393056b645448cf47ffae277", "fusion_lon": 0.0}, {"rental_uris": {"ios": "https://dc.lft.to/lastmile_qr_scan", "android": "https://dc.lft.to/lastmile_qr_scan"}, "type": "electric_scooter", "name": "089e707587d345262883b9b58d5eadce", "is_reserved": 0, "lon": -76.99537, "is_disabled": 0, "fusion_lat": 0.0, "lat": 38.877487333333335, "bike_id": "089e707587d345262883b9b58d5eadce", "fusion_lon": 0.0}, {"rental_uris": {"ios": "https://dc.lft.to/lastmile_qr_scan", "android": "https://dc.lft.to/lastmile_qr_scan"}, "type": "electric_scooter", "name": "4ffb067044dd2a99eca97dad7aedb1b9", "is_reserved": 0, "lon": -77.03167116666667, "is_disabled": 0, "fusion_lat": 0.0, "lat": 38.91412316666667, "bike_id": "4ffb067044dd2a99eca97dad7aedb1b9", "fusion_lon": 0.0}, {"rental_uris": {"ios": "https://dc.lft.to/lastmile_qr_scan", "android": "https://dc.lft.to/lastmile_qr_scan"}, "type": "electric_scooter", "name": "631cf9a48fc59bfd45d2eb8c2a028665", "is_reserved": 0, "lon": -77.03143716666666, "is_disabled": 0, "fusion_lat": 0.0, "lat": 38.9396485, "bike_id": "631cf9a48fc59bfd45d2eb8c2a028665", "fusion_lon": 0.0}, {"rental_uris": {"ios": "https://dc.lft.to/lastmile_qr_scan", "android": "https://dc.lft.to/lastmile_qr_scan"}, "type": "electric_scooter", "name": "2e98ae85b4f3236d4352c13a2e4c4475", "is_reserved": 0, "lon": -77.03859216666666, "is_disabled": 0, "fusion_lat": 0.0, "lat": 38.9110285, "bike_id": "2e98ae85b4f3236d4352c13a2e4c4475", "fusion_lon": 0.0}, {"rental_uris": {"ios": "https://dc.lft.to/lastmile_qr_scan", "android": "https://dc.lft.to/lastmile_qr_scan"}, "type": "electric_scooter", "name": "3128f0a173c67ec8ccc9884701fa44e1", "is_reserved": 0, "lon": -76.9810685, "is_disabled": 0, "fusion_lat": 0.0, "lat": 38.90243983333333, "bike_id": "3128f0a173c67ec8ccc9884701fa44e1", "fusion_lon": 0.0}, {"rental_uris": {"ios": "https://dc.lft.to/lastmile_qr_scan", "android": "https://dc.lft.to/lastmile_qr_scan"}, "type": "electric_scooter", "name": "900610ec29803aa952fa13c3af057d80", "is_reserved": 0, "lon": -76.979378, "is_disabled": 0, "fusion_lat": 0.0, "lat": 38.906592, "bike_id": "900610ec29803aa952fa13c3af057d80", "fusion_lon": 0.0}, {"rental_uris": {"ios": "https://dc.lft.to/lastmile_qr_scan", "android": "https://dc.lft.to/lastmile_qr_scan"}, "type": "electric_scooter", "name": "89ba31991c7e1688dac73edf116cc04b", "is_reserved": 0, "lon": -76.94654533333333, "is_disabled": 0, "fusion_lat": 0.0, "lat": 38.89825, "bike_id": "89ba31991c7e1688dac73edf116cc04b", "fusion_lon": 0.0}, {"rental_uris": {"ios": "https://dc.lft.to/lastmile_qr_scan", "android": "https://dc.lft.to/lastmile_qr_scan"}, "type": "electric_bike", "name": "e3653f531c0709a5d63909bb657e4a00", "is_reserved": 0, "lon": -76.96913883333333, "is_disabled": 0, "fusion_lat": 0.0, "lat": 38.84616366666667, "bike_id": "e3653f531c0709a5d63909bb657e4a00", "fusion_lon": 0.0}, {"rental_uris": {"ios": "https://dc.lft.to/lastmile_qr_scan", "android": "https://dc.lft.to/lastmile_qr_scan"}, "type": "electric_scooter", "name": "8bd2ccd112ea4d1a3f391454febe6a5b", "is_reserved": 0, "lon": -77.02607033333334, "is_disabled": 0, "fusion_lat": 0.0, "lat": 38.91437233333333, "bike_id": "8bd2ccd112ea4d1a3f391454febe6a5b", "fusion_lon": 0.0}, {"rental_uris": {"ios": "https://dc.lft.to/lastmile_qr_scan", "android": "https://dc.lft.to/lastmile_qr_scan"}, "type": "electric_scooter", "name": "243b8835282429e68b46d9db86581b09", "is_reserved": 0, "lon": -77.03515216666666, "is_disabled": 0, "fusion_lat": 0.0, "lat": 38.909592333333336, "bike_id": "243b8835282429e68b46d9db86581b09", "fusion_lon": 0.0}, {"rental_uris": {"ios": "https://dc.lft.to/lastmile_qr_scan", "android": "https://dc.lft.to/lastmile_qr_scan"}, "type": "electric_scooter", "name": "0ab74e28d83e773a11d3f41fcdab526f", "is_reserved": 0, "lon": -77.00912033333333, "is_disabled": 0, "fusion_lat": 0.0, "lat": 38.89877233333333, "bike_id": "0ab74e28d83e773a11d3f41fcdab526f", "fusion_lon": 0.0}, {"rental_uris": {"ios": "https://dc.lft.to/lastmile_qr_scan", "android": "https://dc.lft.to/lastmile_qr_scan"}, "type": "electric_scooter", "name": "e0f3069da226fd047c7fe8715440862a", "is_reserved": 0, "lon": -76.99636266666667, "is_disabled": 0, "fusion_lat": 0.0, "lat": 38.887678, "bike_id": "e0f3069da226fd047c7fe8715440862a", "fusion_lon": 0.0}, {"rental_uris": {"ios": "https://dc.lft.to/lastmile_qr_scan", "android": "https://dc.lft.to/lastmile_qr_scan"}, "type": "electric_scooter", "name": "719fba569f858f12b27ddd48153ba848", "is_reserved": 0, "lon": -77.0215515, "is_disabled": 0, "fusion_lat": 0.0, "lat": 38.88747033333333, "bike_id": "719fba569f858f12b27ddd48153ba848", "fusion_lon": 0.0}, {"rental_uris": {"ios": "https://dc.lft.to/lastmile_qr_scan", "android": "https://dc.lft.to/lastmile_qr_scan"}, "type": "electric_scooter", "name": "11a735bff94671e005e7e33597ade1ef", "is_reserved": 0, "lon": -77.01656933333334, "is_disabled": 0, "fusion_lat": 0.0, "lat": 38.93905316666667, "bike_id": "11a735bff94671e005e7e33597ade1ef", "fusion_lon": 0.0}, {"rental_uris": {"ios": "https://dc.lft.to/lastmile_qr_scan", "android": "https://dc.lft.to/lastmile_qr_scan"}, "type": "electric_scooter", "name": "b0114dd8ce1b2f054f4ff6a3ee0eb0f6", "is_reserved": 0, "lon": -77.0243805, "is_disabled": 0, "fusion_lat": 0.0, "lat": 38.902054, "bike_id": "b0114dd8ce1b2f054f4ff6a3ee0eb0f6", "fusion_lon": 0.0}, {"rental_uris": {"ios": "https://dc.lft.to/lastmile_qr_scan", "android": "https://dc.lft.to/lastmile_qr_scan"}, "type": "electric_scooter", "name": "a638ca15cd8748ef6d987a99f876afbf", "is_reserved": 0, "lon": -77.05790683333333, "is_disabled": 0, "fusion_lat": 0.0, "lat": 38.9051245, "bike_id": "a638ca15cd8748ef6d987a99f876afbf", "fusion_lon": 0.0}, {"rental_uris": {"ios": "https://dc.lft.to/lastmile_qr_scan", "android": "https://dc.lft.to/lastmile_qr_scan"}, "type": "electric_scooter", "name": "3d52cfa5477855566ad21c77491c1924", "is_reserved": 0, "lon": -76.99622933333333, "is_disabled": 0, "fusion_lat": 0.0, "lat": 38.90448466666667, "bike_id": "3d52cfa5477855566ad21c77491c1924", "fusion_lon": 0.0}, {"rental_uris": {"ios": "https://dc.lft.to/lastmile_qr_scan", "android": "https://dc.lft.to/lastmile_qr_scan"}, "type": "electric_scooter", "name": "26c896486d4a6502ac2a4485b24b5697", "is_reserved": 0, "lon": -77.02344716666667, "is_disabled": 0, "fusion_lat": 0.0, "lat": 38.9299245, "bike_id": "26c896486d4a6502ac2a4485b24b5697", "fusion_lon": 0.0}, {"rental_uris": {"ios": "https://dc.lft.to/lastmile_qr_scan", "android": "https://dc.lft.to/lastmile_qr_scan"}, "type": "electric_scooter", "name": "7bc04c9f9a431001ab96ce69fdcd729a", "is_reserved": 0, "lon": -77.0779915, "is_disabled": 0, "fusion_lat": 0.0, "lat": 38.943073166666665, "bike_id": "7bc04c9f9a431001ab96ce69fdcd729a", "fusion_lon": 0.0}, {"rental_uris": {"ios": "https://dc.lft.to/lastmile_qr_scan", "android": "https://dc.lft.to/lastmile_qr_scan"}, "type": "electric_scooter", "name": "c62ccb9f7ea1c6396162a6c3bc4fc1b5", "is_reserved": 0, "lon": -77.028297, "is_disabled": 0, "fusion_lat": 0.0, "lat": 38.93882766666667, "bike_id": "c62ccb9f7ea1c6396162a6c3bc4fc1b5", "fusion_lon": 0.0}, {"rental_uris": {"ios": "https://dc.lft.to/lastmile_qr_scan", "android": "https://dc.lft.to/lastmile_qr_scan"}, "type": "electric_scooter", "name": "940c0c0406f23cb4d34b1c0f5d7f14ee", "is_reserved": 0, "lon": -77.0280185, "is_disabled": 0, "fusion_lat": 0.0, "lat": 38.9073575, "bike_id": "940c0c0406f23cb4d34b1c0f5d7f14ee", "fusion_lon": 0.0}, {"rental_uris": {"ios": "https://dc.lft.to/lastmile_qr_scan", "android": "https://dc.lft.to/lastmile_qr_scan"}, "type": "electric_scooter", "name": "52a5d8ed75498f7bce6eced074213443", "is_reserved": 0, "lon": -77.0500235, "is_disabled": 0, "fusion_lat": 0.0, "lat": 38.89232116666667, "bike_id": "52a5d8ed75498f7bce6eced074213443", "fusion_lon": 0.0}, {"rental_uris": {"ios": "https://dc.lft.to/lastmile_qr_scan", "android": "https://dc.lft.to/lastmile_qr_scan"}, "type": "electric_scooter", "name": "7f72fbda2eb85b932c3867af5fb3f5e8", "is_reserved": 0, "lon": -76.99384616666667, "is_disabled": 0, "fusion_lat": 0.0, "lat": 38.91011666666667, "bike_id": "7f72fbda2eb85b932c3867af5fb3f5e8", "fusion_lon": 0.0}, {"rental_uris": {"ios": "https://dc.lft.to/lastmile_qr_scan", "android": "https://dc.lft.to/lastmile_qr_scan"}, "type": "electric_scooter", "name": "99e5b49409a425870dc4ebcb2f45f0ad", "is_reserved": 0, "lon": -77.007819, "is_disabled": 0, "fusion_lat": 0.0, "lat": 38.8972355, "bike_id": "99e5b49409a425870dc4ebcb2f45f0ad", "fusion_lon": 0.0}, {"rental_uris": {"ios": "https://dc.lft.to/lastmile_qr_scan", "android": "https://dc.lft.to/lastmile_qr_scan"}, "type": "electric_scooter", "name": "e1c8addc9d4f9a6a51948a9f8e53f6e0", "is_reserved": 0, "lon": -77.03082383333333, "is_disabled": 0, "fusion_lat": 0.0, "lat": 38.93875583333333, "bike_id": "e1c8addc9d4f9a6a51948a9f8e53f6e0", "fusion_lon": 0.0}, {"rental_uris": {"ios": "https://dc.lft.to/lastmile_qr_scan", "android": "https://dc.lft.to/lastmile_qr_scan"}, "type": "electric_bike", "name": "a9d7d7361dd1b2559af6b81e30e3d03e", "is_reserved": 0, "lon": -77.11317483333333, "is_disabled": 0, "fusion_lat": 0.0, "lat": 38.85586966666666, "bike_id": "a9d7d7361dd1b2559af6b81e30e3d03e", "fusion_lon": 0.0}, {"rental_uris": {"ios": "https://dc.lft.to/lastmile_qr_scan", "android": "https://dc.lft.to/lastmile_qr_scan"}, "type": "electric_scooter", "name": "fd90e53f1a597e04682b2511ad1b2f99", "is_reserved": 0, "lon": -77.04333533333333, "is_disabled": 0, "fusion_lat": 0.0, "lat": 38.89971716666667, "bike_id": "fd90e53f1a597e04682b2511ad1b2f99", "fusion_lon": 0.0}, {"rental_uris": {"ios": "https://dc.lft.to/lastmile_qr_scan", "android": "https://dc.lft.to/lastmile_qr_scan"}, "type": "electric_scooter", "name": "d2b8ddd67851927a005cb7bb15b99ae8", "is_reserved": 0, "lon": -77.032627, "is_disabled": 0, "fusion_lat": 0.0, "lat": 38.938833333333335, "bike_id": "d2b8ddd67851927a005cb7bb15b99ae8", "fusion_lon": 0.0}, {"rental_uris": {"ios": "https://dc.lft.to/lastmile_qr_scan", "android": "https://dc.lft.to/lastmile_qr_scan"}, "type": "electric_scooter", "name": "b13efc0cbed8b7d0a41614cc481858f4", "is_reserved": 0, "lon": -77.02416583333333, "is_disabled": 0, "fusion_lat": 0.0, "lat": 38.911043666666664, "bike_id": "b13efc0cbed8b7d0a41614cc481858f4", "fusion_lon": 0.0}, {"rental_uris": {"ios": "https://dc.lft.to/lastmile_qr_scan", "android": "https://dc.lft.to/lastmile_qr_scan"}, "type": "electric_scooter", "name": "327b4ce7dc7ad60df8a52db5dad88901", "is_reserved": 0, "lon": -77.0227885, "is_disabled": 0, "fusion_lat": 0.0, "lat": 38.92724833333333, "bike_id": "327b4ce7dc7ad60df8a52db5dad88901", "fusion_lon": 0.0}, {"rental_uris": {"ios": "https://dc.lft.to/lastmile_qr_scan", "android": "https://dc.lft.to/lastmile_qr_scan"}, "type": "electric_scooter", "name": "e52cc57ce2dca83168e8b6bc29a2de3c", "is_reserved": 0, "lon": -77.04353316666666, "is_disabled": 0, "fusion_lat": 0.0, "lat": 38.91003516666667, "bike_id": "e52cc57ce2dca83168e8b6bc29a2de3c", "fusion_lon": 0.0}, {"rental_uris": {"ios": "https://dc.lft.to/lastmile_qr_scan", "android": "https://dc.lft.to/lastmile_qr_scan"}, "type": "electric_scooter", "name": "3864453b430d3d982b18bacb459fed53", "is_reserved": 0, "lon": -77.04388633333333, "is_disabled": 0, "fusion_lat": 0.0, "lat": 38.9089695, "bike_id": "3864453b430d3d982b18bacb459fed53", "fusion_lon": 0.0}, {"rental_uris": {"ios": "https://dc.lft.to/lastmile_qr_scan", "android": "https://dc.lft.to/lastmile_qr_scan"}, "type": "electric_scooter", "name": "339c7e5a14a61ae5eb2662e992246b3c", "is_reserved": 0, "lon": -77.032043, "is_disabled": 0, "fusion_lat": 0.0, "lat": 38.90692933333333, "bike_id": "339c7e5a14a61ae5eb2662e992246b3c", "fusion_lon": 0.0}, {"rental_uris": {"ios": "https://dc.lft.to/lastmile_qr_scan", "android": "https://dc.lft.to/lastmile_qr_scan"}, "type": "electric_scooter", "name": "949efa29d15b3760fc30bfb16f48b109", "is_reserved": 0, "lon": -77.04107233333333, "is_disabled": 0, "fusion_lat": 0.0, "lat": 38.905410333333336, "bike_id": "949efa29d15b3760fc30bfb16f48b109", "fusion_lon": 0.0}, {"rental_uris": {"ios": "https://dc.lft.to/lastmile_qr_scan", "android": "https://dc.lft.to/lastmile_qr_scan"}, "type": "electric_scooter", "name": "992b3e1850cec0ed20300801b2099056", "is_reserved": 0, "lon": -77.02664416666667, "is_disabled": 0, "fusion_lat": 0.0, "lat": 38.884859166666665, "bike_id": "992b3e1850cec0ed20300801b2099056", "fusion_lon": 0.0}, {"rental_uris": {"ios": "https://dc.lft.to/lastmile_qr_scan", "android": "https://dc.lft.to/lastmile_qr_scan"}, "type": "electric_bike", "name": "dcd30417afc6a2f12e2b8b2504434468", "is_reserved": 0, "lon": -76.9574475, "is_disabled": 0, "fusion_lat": 0.0, "lat": 38.88853183333333, "bike_id": "dcd30417afc6a2f12e2b8b2504434468", "fusion_lon": 0.0}, {"rental_uris": {"ios": "https://dc.lft.to/lastmile_qr_scan", "android": "https://dc.lft.to/lastmile_qr_scan"}, "type": "electric_scooter", "name": "ef267787dccaafad219bcacd3cb91f02", "is_reserved": 0, "lon": -76.94718633333333, "is_disabled": 0, "fusion_lat": 0.0, "lat": 38.890834166666664, "bike_id": "ef267787dccaafad219bcacd3cb91f02", "fusion_lon": 0.0}, {"rental_uris": {"ios": "https://dc.lft.to/lastmile_qr_scan", "android": "https://dc.lft.to/lastmile_qr_scan"}, "type": "electric_scooter", "name": "0aa25eb3c11757328adefb7506d9ffbc", "is_reserved": 0, "lon": -77.0214325, "is_disabled": 0, "fusion_lat": 0.0, "lat": 38.915516, "bike_id": "0aa25eb3c11757328adefb7506d9ffbc", "fusion_lon": 0.0}, {"rental_uris": {"ios": "https://dc.lft.to/lastmile_qr_scan", "android": "https://dc.lft.to/lastmile_qr_scan"}, "type": "electric_scooter", "name": "b270dac47be16705a8307cccc3378024", "is_reserved": 0, "lon": -77.002107, "is_disabled": 0, "fusion_lat": 0.0, "lat": 38.900211666666664, "bike_id": "b270dac47be16705a8307cccc3378024", "fusion_lon": 0.0}, {"rental_uris": {"ios": "https://dc.lft.to/lastmile_qr_scan", "android": "https://dc.lft.to/lastmile_qr_scan"}, "type": "electric_scooter", "name": "d170d5374dd580b7c11a7ae6d3dac852", "is_reserved": 0, "lon": -77.04246516666667, "is_disabled": 0, "fusion_lat": 0.0, "lat": 38.92294716666667, "bike_id": "d170d5374dd580b7c11a7ae6d3dac852", "fusion_lon": 0.0}, {"rental_uris": {"ios": "https://dc.lft.to/lastmile_qr_scan", "android": "https://dc.lft.to/lastmile_qr_scan"}, "type": "electric_scooter", "name": "6c77a8886bf1840d8b3f901056d2488f", "is_reserved": 0, "lon": -77.03207616666667, "is_disabled": 0, "fusion_lat": 0.0, "lat": 38.90828583333333, "bike_id": "6c77a8886bf1840d8b3f901056d2488f", "fusion_lon": 0.0}, {"rental_uris": {"ios": "https://dc.lft.to/lastmile_qr_scan", "android": "https://dc.lft.to/lastmile_qr_scan"}, "type": "electric_bike", "name": "30ad367b53679f7ebc365e18424ec529", "is_reserved": 0, "lon": -77.12696033333333, "is_disabled": 0, "fusion_lat": 0.0, "lat": 38.895622833333334, "bike_id": "30ad367b53679f7ebc365e18424ec529", "fusion_lon": 0.0}, {"rental_uris": {"ios": "https://dc.lft.to/lastmile_qr_scan", "android": "https://dc.lft.to/lastmile_qr_scan"}, "type": "electric_scooter", "name": "7c32e6058f1b768ed5a7f28e933f45aa", "is_reserved": 0, "lon": -77.0280255, "is_disabled": 0, "fusion_lat": 0.0, "lat": 38.90741283333333, "bike_id": "7c32e6058f1b768ed5a7f28e933f45aa", "fusion_lon": 0.0}, {"rental_uris": {"ios": "https://dc.lft.to/lastmile_qr_scan", "android": "https://dc.lft.to/lastmile_qr_scan"}, "type": "electric_scooter", "name": "f8028b9518457a357b6532162f93c199", "is_reserved": 0, "lon": -77.02424183333333, "is_disabled": 0, "fusion_lat": 0.0, "lat": 38.90306616666667, "bike_id": "f8028b9518457a357b6532162f93c199", "fusion_lon": 0.0}, {"rental_uris": {"ios": "https://dc.lft.to/lastmile_qr_scan", "android": "https://dc.lft.to/lastmile_qr_scan"}, "type": "electric_scooter", "name": "3501cc90b411deba83ec3516f623111f", "is_reserved": 0, "lon": -76.98583316666667, "is_disabled": 0, "fusion_lat": 0.0, "lat": 38.861830499999996, "bike_id": "3501cc90b411deba83ec3516f623111f", "fusion_lon": 0.0}, {"rental_uris": {"ios": "https://dc.lft.to/lastmile_qr_scan", "android": "https://dc.lft.to/lastmile_qr_scan"}, "type": "electric_bike", "name": "9c5277683aac279588fbf15eae8222b1", "is_reserved": 0, "lon": -76.95702916666667, "is_disabled": 0, "fusion_lat": 0.0, "lat": 38.85082883333333, "bike_id": "9c5277683aac279588fbf15eae8222b1", "fusion_lon": 0.0}, {"rental_uris": {"ios": "https://dc.lft.to/lastmile_qr_scan", "android": "https://dc.lft.to/lastmile_qr_scan"}, "type": "electric_bike", "name": "8a1f3b7cff5faea8da481766bd322991", "is_reserved": 0, "lon": -77.090115, "is_disabled": 0, "fusion_lat": 0.0, "lat": 38.92638933333333, "bike_id": "8a1f3b7cff5faea8da481766bd322991", "fusion_lon": 0.0}, {"rental_uris": {"ios": "https://dc.lft.to/lastmile_qr_scan", "android": "https://dc.lft.to/lastmile_qr_scan"}, "type": "electric_scooter", "name": "04ce06f84735ec4cd9a09535fb431f91", "is_reserved": 0, "lon": -77.026616, "is_disabled": 0, "fusion_lat": 0.0, "lat": 38.884834833333336, "bike_id": "04ce06f84735ec4cd9a09535fb431f91", "fusion_lon": 0.0}, {"rental_uris": {"ios": "https://dc.lft.to/lastmile_qr_scan", "android": "https://dc.lft.to/lastmile_qr_scan"}, "type": "electric_scooter", "name": "9c3caf7c1128e2a5918473cd4f9188ad", "is_reserved": 0, "lon": -77.00761383333334, "is_disabled": 0, "fusion_lat": 0.0, "lat": 38.92523033333333, "bike_id": "9c3caf7c1128e2a5918473cd4f9188ad", "fusion_lon": 0.0}, {"rental_uris": {"ios": "https://dc.lft.to/lastmile_qr_scan", "android": "https://dc.lft.to/lastmile_qr_scan"}, "type": "electric_scooter", "name": "04ec6b12390522805afef1d52aaaba05", "is_reserved": 0, "lon": -77.0386415, "is_disabled": 0, "fusion_lat": 0.0, "lat": 38.910363833333335, "bike_id": "04ec6b12390522805afef1d52aaaba05", "fusion_lon": 0.0}, {"rental_uris": {"ios": "https://dc.lft.to/lastmile_qr_scan", "android": "https://dc.lft.to/lastmile_qr_scan"}, "type": "electric_scooter", "name": "7875e9b887ba74430ff9998d0a6d1dff", "is_reserved": 0, "lon": -76.95883883333333, "is_disabled": 0, "fusion_lat": 0.0, "lat": 38.858416166666665, "bike_id": "7875e9b887ba74430ff9998d0a6d1dff", "fusion_lon": 0.0}, {"rental_uris": {"ios": "https://dc.lft.to/lastmile_qr_scan", "android": "https://dc.lft.to/lastmile_qr_scan"}, "type": "electric_scooter", "name": "a5479da72b2650ed99e1f0c04035f221", "is_reserved": 0, "lon": -77.02560866666667, "is_disabled": 0, "fusion_lat": 0.0, "lat": 38.938505, "bike_id": "a5479da72b2650ed99e1f0c04035f221", "fusion_lon": 0.0}, {"rental_uris": {"ios": "https://dc.lft.to/lastmile_qr_scan", "android": "https://dc.lft.to/lastmile_qr_scan"}, "type": "electric_scooter", "name": "d2c5c856c0df4f671798149777016a29", "is_reserved": 0, "lon": -76.98358516666667, "is_disabled": 0, "fusion_lat": 0.0, "lat": 38.887409166666664, "bike_id": "d2c5c856c0df4f671798149777016a29", "fusion_lon": 0.0}, {"rental_uris": {"ios": "https://dc.lft.to/lastmile_qr_scan", "android": "https://dc.lft.to/lastmile_qr_scan"}, "type": "electric_scooter", "name": "022c1308ddd3da42002069aa85a78c97", "is_reserved": 0, "lon": -76.98617183333333, "is_disabled": 0, "fusion_lat": 0.0, "lat": 38.90347666666667, "bike_id": "022c1308ddd3da42002069aa85a78c97", "fusion_lon": 0.0}, {"rental_uris": {"ios": "https://dc.lft.to/lastmile_qr_scan", "android": "https://dc.lft.to/lastmile_qr_scan"}, "type": "electric_scooter", "name": "d747816266a7461abeaad85aeba23b7c", "is_reserved": 0, "lon": -77.030577, "is_disabled": 0, "fusion_lat": 0.0, "lat": 38.90547083333333, "bike_id": "d747816266a7461abeaad85aeba23b7c", "fusion_lon": 0.0}, {"rental_uris": {"ios": "https://dc.lft.to/lastmile_qr_scan", "android": "https://dc.lft.to/lastmile_qr_scan"}, "type": "electric_scooter", "name": "8e57ca67e09bdf08a9b52e45e0537c7f", "is_reserved": 0, "lon": -77.00918766666666, "is_disabled": 0, "fusion_lat": 0.0, "lat": 38.88183633333333, "bike_id": "8e57ca67e09bdf08a9b52e45e0537c7f", "fusion_lon": 0.0}, {"rental_uris": {"ios": "https://dc.lft.to/lastmile_qr_scan", "android": "https://dc.lft.to/lastmile_qr_scan"}, "type": "electric_scooter", "name": "5e55e6e7c3d0100d81f784edf7fe6c91", "is_reserved": 0, "lon": -77.00566966666666, "is_disabled": 0, "fusion_lat": 0.0, "lat": 38.905444833333334, "bike_id": "5e55e6e7c3d0100d81f784edf7fe6c91", "fusion_lon": 0.0}, {"rental_uris": {"ios": "https://dc.lft.to/lastmile_qr_scan", "android": "https://dc.lft.to/lastmile_qr_scan"}, "type": "electric_scooter", "name": "43af229dd126c57c437ed6102237df8b", "is_reserved": 0, "lon": -77.04342, "is_disabled": 0, "fusion_lat": 0.0, "lat": 38.9103595, "bike_id": "43af229dd126c57c437ed6102237df8b", "fusion_lon": 0.0}, {"rental_uris": {"ios": "https://dc.lft.to/lastmile_qr_scan", "android": "https://dc.lft.to/lastmile_qr_scan"}, "type": "electric_scooter", "name": "f5aac86a713399982bf765fb3b6eb69c", "is_reserved": 0, "lon": -77.04028966666667, "is_disabled": 0, "fusion_lat": 0.0, "lat": 38.90409833333333, "bike_id": "f5aac86a713399982bf765fb3b6eb69c", "fusion_lon": 0.0}, {"rental_uris": {"ios": "https://dc.lft.to/lastmile_qr_scan", "android": "https://dc.lft.to/lastmile_qr_scan"}, "type": "electric_scooter", "name": "2e400d57c8d416fcb4537bff7057bd2b", "is_reserved": 0, "lon": -77.0121845, "is_disabled": 0, "fusion_lat": 0.0, "lat": 38.920335666666666, "bike_id": "2e400d57c8d416fcb4537bff7057bd2b", "fusion_lon": 0.0}, {"rental_uris": {"ios": "https://dc.lft.to/lastmile_qr_scan", "android": "https://dc.lft.to/lastmile_qr_scan"}, "type": "electric_scooter", "name": "f5810d51f8da981a4fc90324aec728dd", "is_reserved": 0, "lon": -77.042127, "is_disabled": 0, "fusion_lat": 0.0, "lat": 38.92128316666667, "bike_id": "f5810d51f8da981a4fc90324aec728dd", "fusion_lon": 0.0}, {"rental_uris": {"ios": "https://dc.lft.to/lastmile_qr_scan", "android": "https://dc.lft.to/lastmile_qr_scan"}, "type": "electric_scooter", "name": "e5f77e317900d6a05d794cd40e490f13", "is_reserved": 0, "lon": -77.0194935, "is_disabled": 0, "fusion_lat": 0.0, "lat": 38.92424233333333, "bike_id": "e5f77e317900d6a05d794cd40e490f13", "fusion_lon": 0.0}, {"rental_uris": {"ios": "https://dc.lft.to/lastmile_qr_scan", "android": "https://dc.lft.to/lastmile_qr_scan"}, "type": "electric_scooter", "name": "b3587589e999620cd01c8f4912597374", "is_reserved": 0, "lon": -77.02084616666667, "is_disabled": 0, "fusion_lat": 0.0, "lat": 38.8818415, "bike_id": "b3587589e999620cd01c8f4912597374", "fusion_lon": 0.0}, {"rental_uris": {"ios": "https://dc.lft.to/lastmile_qr_scan", "android": "https://dc.lft.to/lastmile_qr_scan"}, "type": "electric_bike", "name": "f4d7431a7dd3d43bd034b4a1c00dca39", "is_reserved": 0, "lon": -76.95792666666667, "is_disabled": 0, "fusion_lat": 0.0, "lat": 38.98042133333333, "bike_id": "f4d7431a7dd3d43bd034b4a1c00dca39", "fusion_lon": 0.0}, {"rental_uris": {"ios": "https://dc.lft.to/lastmile_qr_scan", "android": "https://dc.lft.to/lastmile_qr_scan"}, "type": "electric_scooter", "name": "f27d308debe6301c50bbde78f106252d", "is_reserved": 0, "lon": -76.975697, "is_disabled": 0, "fusion_lat": 0.0, "lat": 38.94424, "bike_id": "f27d308debe6301c50bbde78f106252d", "fusion_lon": 0.0}, {"rental_uris": {"ios": "https://dc.lft.to/lastmile_qr_scan", "android": "https://dc.lft.to/lastmile_qr_scan"}, "type": "electric_scooter", "name": "66a2239ca68b8f67a50ce74cd761bbde", "is_reserved": 0, "lon": -77.05504133333334, "is_disabled": 0, "fusion_lat": 0.0, "lat": 38.928258, "bike_id": "66a2239ca68b8f67a50ce74cd761bbde", "fusion_lon": 0.0}, {"rental_uris": {"ios": "https://dc.lft.to/lastmile_qr_scan", "android": "https://dc.lft.to/lastmile_qr_scan"}, "type": "electric_bike", "name": "8efcb5dffba36d69cf20a7a4e6d50651", "is_reserved": 0, "lon": -77.00130383333334, "is_disabled": 0, "fusion_lat": 0.0, "lat": 38.99498066666666, "bike_id": "8efcb5dffba36d69cf20a7a4e6d50651", "fusion_lon": 0.0}, {"rental_uris": {"ios": "https://dc.lft.to/lastmile_qr_scan", "android": "https://dc.lft.to/lastmile_qr_scan"}, "type": "electric_bike", "name": "d6ad2efe3f67b367df87042d874b4ee2", "is_reserved": 0, "lon": -77.04059933333333, "is_disabled": 0, "fusion_lat": 0.0, "lat": 38.9013575, "bike_id": "d6ad2efe3f67b367df87042d874b4ee2", "fusion_lon": 0.0}, {"rental_uris": {"ios": "https://dc.lft.to/lastmile_qr_scan", "android": "https://dc.lft.to/lastmile_qr_scan"}, "type": "electric_scooter", "name": "4d0e0bc8f46bb16b82f396b5d6d535ab", "is_reserved": 0, "lon": -76.997923, "is_disabled": 0, "fusion_lat": 0.0, "lat": 38.87631316666667, "bike_id": "4d0e0bc8f46bb16b82f396b5d6d535ab", "fusion_lon": 0.0}, {"rental_uris": {"ios": "https://dc.lft.to/lastmile_qr_scan", "android": "https://dc.lft.to/lastmile_qr_scan"}, "type": "electric_bike", "name": "eb5ac263d8b4cf6b7df89bd4bbc85e5d", "is_reserved": 0, "lon": -77.02625616666667, "is_disabled": 0, "fusion_lat": 0.0, "lat": 38.96221216666667, "bike_id": "eb5ac263d8b4cf6b7df89bd4bbc85e5d", "fusion_lon": 0.0}, {"rental_uris": {"ios": "https://dc.lft.to/lastmile_qr_scan", "android": "https://dc.lft.to/lastmile_qr_scan"}, "type": "electric_scooter", "name": "1af678767c9a8448aa3ceced3cc9ae3d", "is_reserved": 0, "lon": -77.0419325, "is_disabled": 0, "fusion_lat": 0.0, "lat": 38.9206985, "bike_id": "1af678767c9a8448aa3ceced3cc9ae3d", "fusion_lon": 0.0}, {"rental_uris": {"ios": "https://dc.lft.to/lastmile_qr_scan", "android": "https://dc.lft.to/lastmile_qr_scan"}, "type": "electric_scooter", "name": "af7f3cc3f29b287fe0ab84ac4dde354d", "is_reserved": 0, "lon": -77.02355033333333, "is_disabled": 0, "fusion_lat": 0.0, "lat": 38.930874333333335, "bike_id": "af7f3cc3f29b287fe0ab84ac4dde354d", "fusion_lon": 0.0}, {"rental_uris": {"ios": "https://dc.lft.to/lastmile_qr_scan", "android": "https://dc.lft.to/lastmile_qr_scan"}, "type": "electric_scooter", "name": "8b58e02d1b81a06ed7dd9726267816a8", "is_reserved": 0, "lon": -77.02205583333334, "is_disabled": 0, "fusion_lat": 0.0, "lat": 38.8873285, "bike_id": "8b58e02d1b81a06ed7dd9726267816a8", "fusion_lon": 0.0}, {"rental_uris": {"ios": "https://dc.lft.to/lastmile_qr_scan", "android": "https://dc.lft.to/lastmile_qr_scan"}, "type": "electric_bike", "name": "fdd67646e6b7351032b0d1b0e549e16b", "is_reserved": 0, "lon": -77.07950583333333, "is_disabled": 0, "fusion_lat": 0.0, "lat": 38.848889666666665, "bike_id": "fdd67646e6b7351032b0d1b0e549e16b", "fusion_lon": 0.0}, {"rental_uris": {"ios": "https://dc.lft.to/lastmile_qr_scan", "android": "https://dc.lft.to/lastmile_qr_scan"}, "type": "electric_scooter", "name": "cb8b14b66b3baefe325aab67baff1b18", "is_reserved": 0, "lon": -77.03257, "is_disabled": 0, "fusion_lat": 0.0, "lat": 38.9119355, "bike_id": "cb8b14b66b3baefe325aab67baff1b18", "fusion_lon": 0.0},