{"data": {"bikes": [{"rental_uris": {"android": "https://dc.lft.to/lastmile_qr_scan", "ios": "https://dc.lft.to/lastmile_qr_scan"}, "is_reserved": 0, "is_disabled": 0, "bike_id": "77c278f1e0de3d55da6f8119b8eded51", "lat": 38.9055345, "name": "77c278f1e0de3d55da6f8119b8eded51", "fusion_lon": 0.0, "fusion_lat": 0.0, "type": "electric_scooter", "lon": -77.03390433333334}, {"rental_uris": {"android": "https://dc.lft.to/lastmile_qr_scan", "ios": "https://dc.lft.to/lastmile_qr_scan"}, "is_reserved": 0, "is_disabled": 0, "bike_id": "bb484227021219414335af9106a975fe", "lat": 38.902567833333336, "name": "bb484227021219414335af9106a975fe", "fusion_lon": 0.0, "fusion_lat": 0.0, "type": "electric_scooter", "lon": -77.03471216666667}, {"rental_uris": {"android": "https://dc.lft.to/lastmile_qr_scan", "ios": "https://dc.lft.to/lastmile_qr_scan"}, "is_reserved": 0, "is_disabled": 0, "bike_id": "924138ee640dfa3e6c84fd91182893d3", "lat": 38.892271666666666, "name": "924138ee640dfa3e6c84fd91182893d3", "fusion_lon": 0.0, "fusion_lat": 0.0, "type": "electric_scooter", "lon": -77.02352}, {"rental_uris": {"android": "https://dc.lft.to/lastmile_qr_scan", "ios": "https://dc.lft.to/lastmile_qr_scan"}, "is_reserved": 0, "is_disabled": 0, "bike_id": "77d5b47cab6494322a171882e6a7751d", "lat": 38.92042383333333, "name": "77d5b47cab6494322a171882e6a7751d", "fusion_lon": 0.0, "fusion_lat": 0.0, "type": "electric_scooter", "lon": -77.01675383333334}, {"rental_uris": {"android": "https://dc.lft.to/lastmile_qr_scan", "ios": "https://dc.lft.to/lastmile_qr_scan"}, "is_reserved": 0, "is_disabled": 0, "bike_id": "2f6b234d9251e7f489687d6d2025232e", "lat": 38.911802333333334, "name": "2f6b234d9251e7f489687d6d2025232e", "fusion_lon": 0.0, "fusion_lat": 0.0, "type": "electric_scooter", "lon": -77.0416525}, {"rental_uris": {"android": "https://dc.lft.to/lastmile_qr_scan", "ios": "https://dc.lft.to/lastmile_qr_scan"}, "is_reserved": 0, "is_disabled": 0, "bike_id": "8c446cbc4aca0da9db6b3b203ca7cfa5", "lat": 38.900432, "name": "8c446cbc4aca0da9db6b3b203ca7cfa5", "fusion_lon": 0.0, "fusion_lat": 0.0, "type": "electric_scooter", "lon": -76.98826666666666}, {"rental_uris": {"android": "https://dc.lft.to/lastmile_qr_scan", "ios": "https://dc.lft.to/lastmile_qr_scan"}, "is_reserved": 0, "is_disabled": 0, "bike_id": "6b45a3b25a896eaf198ed63d7a71109b", "lat": 38.89236016666667, "name": "6b45a3b25a896eaf198ed63d7a71109b", "fusion_lon": 0.0, "fusion_lat": 0.0, "type": "electric_scooter", "lon": -77.01339816666666}, {"rental_uris": {"android": "https://dc.lft.to/lastmile_qr_scan", "ios": "https://dc.lft.to/lastmile_qr_scan"}, "is_reserved": 0, "is_disabled": 0, "bike_id": "257e000c6499bd555411078040a3a081", "lat": 38.9678235, "name": "257e000c6499bd555411078040a3a081", "fusion_lon": 0.0, "fusion_lat": 0.0, "type": "electric_scooter", "lon": -77.015099}, {"rental_uris": {"android": "https://dc.lft.to/lastmile_qr_scan", "ios": "https://dc.lft.to/lastmile_qr_scan"}, "is_reserved": 0, "is_disabled": 0, "bike_id": "37e12563c71acc7d99c02e01027fb97b", "lat": 38.91911916666667, "name": "37e12563c71acc7d99c02e01027fb97b", "fusion_lon": 0.0, "fusion_lat": 0.0, "type": "electric_scooter", "lon": -77.03438316666667}, {"rental_uris": {"android": "https://dc.lft.to/lastmile_qr_scan", "ios": "https://dc.lft.to/lastmile_qr_scan"}, "is_reserved": 0, "is_disabled": 0, "bike_id": "ec722907f953ef342d641e856a96a2a5", "lat": 38.952694, "name": "ec722907f953ef342d641e856a96a2a5", "fusion_lon": 0.0, "fusion_lat": 0.0, "type": "electric_bike", "lon": -77.0019835}, {"rental_uris": {"android": "https://dc.lft.to/lastmile_qr_scan", "ios": "https://dc.lft.to/lastmile_qr_scan"}, "is_reserved": 0, "is_disabled": 0, "bike_id": "94536db0ca2a4e362c9734d0bfe3c485", "lat": 38.9038535, "name": "94536db0ca2a4e362c9734d0bfe3c485", "fusion_lon": 0.0, "fusion_lat": 0.0, "type": "electric_scooter", "lon": -77.04455966666667}, {"rental_uris": {"android": "https://dc.lft.to/lastmile_qr_scan", "ios": "https://dc.lft.to/lastmile_qr_scan"}, "is_reserved": 0, "is_disabled": 0, "bike_id": "d65e7b2bf089db959c238172ae968c2f", "lat": 38.913360833333336, "name": "d65e7b2bf089db959c238172ae968c2f", "fusion_lon": 0.0, "fusion_lat": 0.0, "type": "electric_scooter", "lon": -77.04565033333333}, {"rental_uris": {"android": "https://dc.lft.to/lastmile_qr_scan", "ios": "https://dc.lft.to/lastmile_qr_scan"}, "is_reserved": 0, "is_disabled": 0, "bike_id": "e16e6e8c51a093ab020404b662f4f7a7", "lat": 38.8935795, "name": "e16e6e8c51a093ab020404b662f4f7a7", "fusion_lon": 0.0, "fusion_lat": 0.0, "type": "electric_scooter", "lon": -77.00335866666667}, {"rental_uris": {"android": "https://dc.lft.to/lastmile_qr_scan", "ios": "https://dc.lft.to/lastmile_qr_scan"}, "is_reserved": 0, "is_disabled": 0, "bike_id": "6d012f6c887fe16ed9810bdfa855aa64", "lat": 38.90259183333333, "name": "6d012f6c887fe16ed9810bdfa855aa64", "fusion_lon": 0.0, "fusion_lat": 0.0, "type": "electric_scooter", "lon": -76.98051783333334}, {"rental_uris": {"android": "https://dc.lft.to/lastmile_qr_scan", "ios": "https://dc.lft.to/lastmile_qr_scan"}, "is_reserved": 0, "is_disabled": 0, "bike_id": "298785a7930c235df2ffad4943ea8d17", "lat": 38.9305355, "name": "298785a7930c235df2ffad4943ea8d17", "fusion_lon": 0.0, "fusion_lat": 0.0, "type": "electric_scooter", "lon": -77.03291833333333}, {"rental_uris": {"android": "https://dc.lft.to/lastmile_qr_scan", "ios": "https://dc.lft.to/lastmile_qr_scan"}, "is_reserved": 0, "is_disabled": 0, "bike_id": "418aea710e54dea7b1f11e2cd096bba0", "lat": 38.87184233333333, "name": "418aea710e54dea7b1f11e2cd096bba0", "fusion_lon": 0.0, "fusion_lat": 0.0, "type": "electric_scooter", "lon": -77.00596366666667}, {"rental_uris": {"android": "https://dc.lft.to/lastmile_qr_scan", "ios": "https://dc.lft.to/lastmile_qr_scan"}, "is_reserved": 0, "is_disabled": 0, "bike_id": "024f35f119eaccd2d5cfece9077afc6d", "lat": 38.91034916666667, "name": "024f35f119eaccd2d5cfece9077afc6d", "fusion_lon": 0.0, "fusion_lat": 0.0, "type": "electric_scooter", "lon": -77.026926}, {"rental_uris": {"android": "https://dc.lft.to/lastmile_qr_scan", "ios": "https://dc.lft.to/lastmile_qr_scan"}, "is_reserved": 0, "is_disabled": 0, "bike_id": "8bd18b9816ef18ecddc4fba75a97b31d", "lat": 38.940415, "name": "8bd18b9816ef18ecddc4fba75a97b31d", "fusion_lon": 0.0, "fusion_lat": 0.0, "type": "electric_scooter", "lon": -77.0290895}, {"rental_uris": {"android": "https://dc.lft.to/lastmile_qr_scan", "ios": "https://dc.lft.to/lastmile_qr_scan"}, "is_reserved": 0, "is_disabled": 0, "bike_id": "4205a7a88eec2811e0efc3b3d09b40ef", "lat": 38.91681166666667, "name": "4205a7a88eec2811e0efc3b3d09b40ef", "fusion_lon": 0.0, "fusion_lat": 0.0, "type": "electric_scooter", "lon": -77.03687333333333}, {"rental_uris": {"android": "https://dc.lft.to/lastmile_qr_scan", "ios": "https://dc.lft.to/lastmile_qr_scan"}, "is_reserved": 0, "is_disabled": 0, "bike_id": "30f34db363e479865c9dba2b861d6bd4", "lat": 38.94182433333334, "name": "30f34db363e479865c9dba2b861d6bd4", "fusion_lon": 0.0, "fusion_lat": 0.0, "type": "electric_scooter", "lon": -77.027485}, {"rental_uris": {"android": "https://dc.lft.to/lastmile_qr_scan", "ios": "https://dc.lft.to/lastmile_qr_scan"}, "is_reserved": 0, "is_disabled": 0, "bike_id": "b574349684f6cc3f73733f85a6e9bb3e", "lat": 38.9043, "name": "b574349684f6cc3f73733f85a6e9bb3e", "fusion_lon": 0.0, "fusion_lat": 0.0, "type": "electric_scooter", "lon": -77.05314883333334}, {"rental_uris": {"android": "https://dc.lft.to/lastmile_qr_scan", "ios": "https://dc.lft.to/lastmile_qr_scan"}, "is_reserved": 0, "is_disabled": 0, "bike_id": "9cb5159c7eec08af7ef64b296d560700", "lat": 38.90029583333333, "name": "9cb5159c7eec08af7ef64b296d560700", "fusion_lon": 0.0, "fusion_lat": 0.0, "type": "electric_scooter", "lon": -77.0333355}, {"rental_uris": {"android": "https://dc.lft.to/lastmile_qr_scan", "ios": "https://dc.lft.to/lastmile_qr_scan"}, "is_reserved": 0, "is_disabled": 0, "bike_id": "a2af923f89a1bf2b1d7b99a4a961418f", "lat": 38.912571, "name": "a2af923f89a1bf2b1d7b99a4a961418f", "fusion_lon": 0.0, "fusion_lat": 0.0, "type": "electric_scooter", "lon": -77.02223266666667}, {"rental_uris": {"android": "https://dc.lft.to/lastmile_qr_scan", "ios": "https://dc.lft.to/lastmile_qr_scan"}, "is_reserved": 0, "is_disabled": 0, "bike_id": "a75eec3bc544255838191a2be5386c57", "lat": 38.85185333333333, "name": "a75eec3bc544255838191a2be5386c57", "fusion_lon": 0.0, "fusion_lat": 0.0, "type": "electric_bike", "lon": -76.99564583333333}, {"rental_uris": {"android": "https://dc.lft.to/lastmile_qr_scan", "ios": "https://dc.lft.to/lastmile_qr_scan"}, "is_reserved": 0, "is_disabled": 0, "bike_id": "d8e10bfc2d6d0a4da7710ccd40487bc7", "lat": 38.89366233333333, "name": "d8e10bfc2d6d0a4da7710ccd40487bc7", "fusion_lon": 0.0, "fusion_lat": 0.0, "type": "electric_scooter", "lon": -77.0549135}, {"rental_uris": {"android": "https://dc.lft.to/lastmile_qr_scan", "ios": "https://dc.lft.to/lastmile_qr_scan"}, "is_reserved": 0, "is_disabled": 0, "bike_id": "6ebe462450d1d286573a82c47641d698", "lat": 38.9004905, "name": "6ebe462450d1d286573a82c47641d698", "fusion_lon": 0.0, "fusion_lat": 0.0, "type": "electric_scooter", "lon": -77.04335816666666}, {"rental_uris": {"android": "https://dc.lft.to/lastmile_qr_scan", "ios": "https://dc.lft.to/lastmile_qr_scan"}, "is_reserved": 0, "is_disabled": 0, "bike_id": "6bd972d7df15889bf48f22ecb92c0962", "lat": 38.9077525, "name": "6bd972d7df15889bf48f22ecb92c0962", "fusion_lon": 0.0, "fusion_lat": 0.0, "type": "electric_scooter", "lon": -77.04003}, {"rental_uris": {"android": "https://dc.lft.to/lastmile_qr_scan", "ios": "https://dc.lft.to/lastmile_qr_scan"}, "is_reserved": 0, "is_disabled": 0, "bike_id": "64d9be96d9c64ba63abf23aaf414e770", "lat": 38.88494333333333, "name": "64d9be96d9c64ba63abf23aaf414e770", "fusion_lon": 0.0, "fusion_lat": 0.0, "type": "electric_scooter", "lon": -77.00725066666666}, {"rental_uris": {"android": "https://dc.lft.to/lastmile_qr_scan", "ios": "https://dc.lft.to/lastmile_qr_scan"}, "is_reserved": 0, "is_disabled": 0, "bike_id": "919b29ae6db256c35ce8bc0e14a59654", "lat": 38.913290333333336, "name": "919b29ae6db256c35ce8bc0e14a59654", "fusion_lon": 0.0, "fusion_lat": 0.0, "type": "electric_scooter", "lon": -77.031801}, {"rental_uris": {"android": "https://dc.lft.to/lastmile_qr_scan", "ios": "https://dc.lft.to/lastmile_qr_scan"}, "is_reserved": 0, "is_disabled": 0, "bike_id": "07c111ed4f6e72001418a4015153a659", "lat": 38.9209415, "name": "07c111ed4f6e72001418a4015153a659", "fusion_lon": 0.0, "fusion_lat": 0.0, "type": "electric_scooter", "lon": -77.03178666666666}, {"rental_uris": {"android": "https://dc.lft.to/lastmile_qr_scan", "ios": "https://dc.lft.to/lastmile_qr_scan"}, "is_reserved": 0, "is_disabled": 0, "bike_id": "3e706168f62a92a60258d37afc85b8fc", "lat": 38.897757, "name": "3e706168f62a92a60258d37afc85b8fc", "fusion_lon": 0.0, "fusion_lat": 0.0, "type": "electric_scooter", "lon": -77.01228766666667}, {"rental_uris": {"android": "https://dc.lft.to/lastmile_qr_scan", "ios": "https://dc.lft.to/lastmile_qr_scan"}, "is_reserved": 0, "is_disabled": 0, "bike_id": "afc17f25e9de1716c1e12c32dfaaeede", "lat": 38.88434316666667, "name": "afc17f25e9de1716c1e12c32dfaaeede", "fusion_lon": 0.0, "fusion_lat": 0.0, "type": "electric_scooter", "lon": -76.957537}, {"rental_uris": {"android": "https://dc.lft.to/lastmile_qr_scan", "ios": "https://dc.lft.to/lastmile_qr_scan"}, "is_reserved": 0, "is_disabled": 0, "bike_id": "3d402f587e09c2554ada1e248aea7c2c", "lat": 38.90379633333333, "name": "3d402f587e09c2554ada1e248aea7c2c", "fusion_lon": 0.0, "fusion_lat": 0.0, "type": "electric_scooter", "lon": -77.04444566666666}, {"rental_uris": {"android": "https://dc.lft.to/lastmile_qr_scan", "ios": "https://dc.lft.to/lastmile_qr_scan"}, "is_reserved": 0, "is_disabled": 0, "bike_id": "0dbda53318edf1387f23c60d57c49361", "lat": 38.8942355, "name": "0dbda53318edf1387f23c60d57c49361", "fusion_lon": 0.0, "fusion_lat": 0.0, "type": "electric_scooter", "lon": -76.94882783333334}, {"rental_uris": {"android": "https://dc.lft.to/lastmile_qr_scan", "ios": "https://dc.lft.to/lastmile_qr_scan"}, "is_reserved": 0, "is_disabled": 0, "bike_id": "d44a9f6d222e5243628d70cc971d7bac", "lat": 38.901368166666664, "name": "d44a9f6d222e5243628d70cc971d7bac", "fusion_lon": 0.0, "fusion_lat": 0.0, "type": "electric_scooter", "lon": -77.04331916666666}, {"rental_uris": {"android": "https://dc.lft.to/lastmile_qr_scan", "ios": "https://dc.lft.to/lastmile_qr_scan"}, "is_reserved": 0, "is_disabled": 0, "bike_id": "0b8c1fb4c78ada0624bf1a8d90c715d3", "lat": 38.9170155, "name": "0b8c1fb4c78ada0624bf1a8d90c715d3", "fusion_lon": 0.0, "fusion_lat": 0.0, "type": "electric_scooter", "lon": -77.03478433333333}, {"rental_uris": {"android": "https://dc.lft.to/lastmile_qr_scan", "ios": "https://dc.lft.to/lastmile_qr_scan"}, "is_reserved": 0, "is_disabled": 0, "bike_id": "f7e91f33c9b93c7bb59455a287c967a2", "lat": 38.91873116666667, "name": "f7e91f33c9b93c7bb59455a287c967a2", "fusion_lon": 0.0, "fusion_lat": 0.0, "type": "electric_scooter", "lon": -77.044855}, {"rental_uris": {"android": "https://dc.lft.to/lastmile_qr_scan", "ios": "https://dc.lft.to/lastmile_qr_scan"}, "is_reserved": 0, "is_disabled": 0, "bike_id": "2b895c16a9ae0917c05d98f6fc2fdfbf", "lat": 38.95264316666667, "name": "2b895c16a9ae0917c05d98f6fc2fdfbf", "fusion_lon": 0.0, "fusion_lat": 0.0, "type": "electric_scooter", "lon": -77.02561433333334}, {"rental_uris": {"android": "https://dc.lft.to/lastmile_qr_scan", "ios": "https://dc.lft.to/lastmile_qr_scan"}, "is_reserved": 0, "is_disabled": 0, "bike_id": "3ef381d270571041a798c2724d4857a7", "lat": 38.914109333333336, "name": "3ef381d270571041a798c2724d4857a7", "fusion_lon": 0.0, "fusion_lat": 0.0, "type": "electric_scooter", "lon": -77.021128}, {"rental_uris": {"android": "https://dc.lft.to/lastmile_qr_scan", "ios": "https://dc.lft.to/lastmile_qr_scan"}, "is_reserved": 0, "is_disabled": 0, "bike_id": "2f8d4eb2c002f91b89b140a578324a29", "lat": 38.9010595, "name": "2f8d4eb2c002f91b89b140a578324a29", "fusion_lon": 0.0, "fusion_lat": 0.0, "type": "electric_scooter", "lon": -77.0316385}, {"rental_uris": {"android": "https://dc.lft.to/lastmile_qr_scan", "ios": "https://dc.lft.to/lastmile_qr_scan"}, "is_reserved": 0, "is_disabled": 0, "bike_id": "db8da40e69015e424b386c88da0b6382", "lat": 38.920534333333336, "name": "db8da40e69015e424b386c88da0b6382", "fusion_lon": 0.0, "fusion_lat": 0.0, "type": "electric_scooter", "lon": -77.03258266666667}, {"rental_uris": {"android": "https://dc.lft.to/lastmile_qr_scan", "ios": "https://dc.lft.to/lastmile_qr_scan"}, "is_reserved": 0, "is_disabled": 0, "bike_id": "0302663b1ff3b0d91d8494e901d882f9", "lat": 39.0431095, "name": "0302663b1ff3b0d91d8494e901d882f9", "fusion_lon": 0.0, "fusion_lat": 0.0, "type": "electric_bike", "lon": -77.05157283333334}, {"rental_uris": {"android": "https://dc.lft.to/lastmile_qr_scan", "ios": "https://dc.lft.to/lastmile_qr_scan"}, "is_reserved": 0, "is_disabled": 0, "bike_id": "938fa6c852d11bbf53aa9333c2e11550", "lat": 38.90278566666667, "name": "938fa6c852d11bbf53aa9333c2e11550", "fusion_lon": 0.0, "fusion_lat": 0.0, "type": "electric_scooter", "lon": -77.03826583333333}, {"rental_uris": {"android": "https://dc.lft.to/lastmile_qr_scan", "ios": "https://dc.lft.to/lastmile_qr_scan"}, "is_reserved": 0, "is_disabled": 0, "bike_id": "cb25d9c71665b37daa5eda45b6025b06", "lat": 38.915622666666664, "name": "cb25d9c71665b37daa5eda45b6025b06", "fusion_lon": 0.0, "fusion_lat": 0.0, "type": "electric_scooter", "lon": -77.02392633333334}, {"rental_uris": {"android": "https://dc.lft.to/lastmile_qr_scan", "ios": "https://dc.lft.to/lastmile_qr_scan"}, "is_reserved": 0, "is_disabled": 0, "bike_id": "51d01876816204dfdca4530e05f9a58c", "lat": 38.89175383333333, "name": "51d01876816204dfdca4530e05f9a58c", "fusion_lon": 0.0, "fusion_lat": 0.0, "type": "electric_scooter", "lon": -77.01534116666667}, {"rental_uris": {"android": "https://dc.lft.to/lastmile_qr_scan", "ios": "https://dc.lft.to/lastmile_qr_scan"}, "is_reserved": 0, "is_disabled": 0, "bike_id": "2610ff3270e26c7184d103a6252fedeb", "lat": 38.954014, "name": "2610ff3270e26c7184d103a6252fedeb", "fusion_lon": 0.0, "fusion_lat": 0.0, "type": "electric_scooter", "lon": -77.02779483333333}, {"rental_uris": {"android": "https://dc.lft.to/lastmile_qr_scan", "ios": "https://dc.lft.to/lastmile_qr_scan"}, "is_reserved": 0, "is_disabled": 0, "bike_id": "f5faf22ed5804f800dde9044ebc95201", "lat": 38.901283666666664, "name": "f5faf22ed5804f800dde9044ebc95201", "fusion_lon": 0.0, "fusion_lat": 0.0, "type": "electric_scooter", "lon": -77.0396945}, {"rental_uris": {"android": "https://dc.lft.to/lastmile_qr_scan", "ios": "https://dc.lft.to/lastmile_qr_scan"}, "is_reserved": 0, "is_disabled": 0, "bike_id": "3d55b12da4b42a0023b30198dc844a83", "lat": 38.937002, "name": "3d55b12da4b42a0023b30198dc844a83", "fusion_lon": 0.0, "fusion_lat": 0.0, "type": "electric_scooter", "lon": -77.05600366666667}, {"rental_uris": {"android": "https://dc.lft.to/lastmile_qr_scan", "ios": "https://dc.lft.to/lastmile_qr_scan"}, "is_reserved": 0, "is_disabled": 0, "bike_id": "12a3a08db75352129a33329582e5986b", "lat": 38.96125716666667, "name": "12a3a08db75352129a33329582e5986b", "fusion_lon": 0.0, "fusion_lat": 0.0, "type": "electric_bike", "lon": -77.08528633333333}, {"rental_uris": {"android": "https://dc.lft.to/lastmile_qr_scan", "ios": "https://dc.lft.to/lastmile_qr_scan"}, "is_reserved": 0, "is_disabled": 0, "bike_id": "146a15f455ea7f1b2c04f8af5e083a2a", "lat": 38.899932, "name": "146a15f455ea7f1b2c04f8af5e083a2a", "fusion_lon": 0.0, "fusion_lat": 0.0, "type": "electric_scooter", "lon": -77.02896666666666}, {"rental_uris": {"android": "https://dc.lft.to/lastmile_qr_scan", "ios": "https://dc.lft.to/lastmile_qr_scan"}, "is_reserved": 0, "is_disabled": 0, "bike_id": "975561505ace6cb7bda389a5603d1d73", "lat": 38.904594833333334, "name": "975561505ace6cb7bda389a5603d1d73", "fusion_lon": 0.0, "fusion_lat": 0.0, "type": "electric_scooter", "lon": -76.98896216666667}, {"rental_uris": {"android": "https://dc.lft.to/lastmile_qr_scan", "ios": "https://dc.lft.to/lastmile_qr_scan"}, "is_reserved": 0, "is_disabled": 0, "bike_id": "7808aa9482ccb4d7ab2bf090c5350809", "lat": 38.926616333333335, "name": "7808aa9482ccb4d7ab2bf090c5350809", "fusion_lon": 0.0, "fusion_lat": 0.0, "type": "electric_scooter", "lon": -77.03707716666666}, {"rental_uris": {"android": "https://dc.lft.to/lastmile_qr_scan", "ios": "https://dc.lft.to/lastmile_qr_scan"}, "is_reserved": 0, "is_disabled": 0, "bike_id": "ba931087cce4a1e36b73734cc25093c8", "lat": 38.89248083333333, "name": "ba931087cce4a1e36b73734cc25093c8", "fusion_lon": 0.0, "fusion_lat": 0.0, "type": "electric_scooter", "lon": -77.02205183333334}, {"rental_uris": {"android": "https://dc.lft.to/lastmile_qr_scan", "ios": "https://dc.lft.to/lastmile_qr_scan"}, "is_reserved": 0, "is_disabled": 0, "bike_id": "d67bf2de841683ebb10830e2051939d5", "lat": 38.92241766666667, "name": "d67bf2de841683ebb10830e2051939d5", "fusion_lon": 0.0, "fusion_lat": 0.0, "type": "electric_scooter", "lon": -77.02125866666667}, {"rental_uris": {"android": "https://dc.lft.to/lastmile_qr_scan", "ios": "https://dc.lft.to/lastmile_qr_scan"}, "is_reserved": 0, "is_disabled": 0, "bike_id": "a40b05b7c018c1a88de6f2f510bd01d1", "lat": 38.93140433333333, "name": "a40b05b7c018c1a88de6f2f510bd01d1", "fusion_lon": 0.0, "fusion_lat": 0.0, "type": "electric_scooter", "lon": -77.032525}, {"rental_uris": {"android": "https://dc.lft.to/lastmile_qr_scan", "ios": "https://dc.lft.to/lastmile_qr_scan"}, "is_reserved": 0, "is_disabled": 0, "bike_id": "5cbf0a153a40352fbd4c2ff67aca5f09", "lat": 38.8922395, "name": "5cbf0a153a40352fbd4c2ff67aca5f09", "fusion_lon": 0.0, "fusion_lat": 0.0, "type": "electric_scooter", "lon": -77.0235445}, {"rental_uris": {"android": "https://dc.lft.to/lastmile_qr_scan", "ios": "https://dc.lft.to/lastmile_qr_scan"}, "is_reserved": 0, "is_disabled": 0, "bike_id": "3084b3f8961e1f6ee3ae8cd961c548e3", "lat": 38.90800816666667, "name": "3084b3f8961e1f6ee3ae8cd961c548e3", "fusion_lon": 0.0, "fusion_lat": 0.0, "type": "electric_bike", "lon": -77.07164083333333}, {"rental_uris": {"android": "https://dc.lft.to/lastmile_qr_scan", "ios": "https://dc.lft.to/lastmile_qr_scan"}, "is_reserved": 0, "is_disabled": 0, "bike_id": "efb05f903fbaaff488b7a2c77eac622b", "lat": 38.9144295, "name": "efb05f903fbaaff488b7a2c77eac622b", "fusion_lon": 0.0, "fusion_lat": 0.0, "type": "electric_scooter", "lon": -77.02199133333333}, {"rental_uris": {"android": "https://dc.lft.to/lastmile_qr_scan", "ios": "https://dc.lft.to/lastmile_qr_scan"}, "is_reserved": 0, "is_disabled": 0, "bike_id": "7a7a93969407a65ff8d7ef356f6aa8b9", "lat": 38.915745666666666, "name": "7a7a93969407a65ff8d7ef356f6aa8b9", "fusion_lon": 0.0, "fusion_lat": 0.0, "type": "electric_scooter", "lon": -77.04635583333334}, {"rental_uris": {"android": "https://dc.lft.to/lastmile_qr_scan", "ios": "https://dc.lft.to/lastmile_qr_scan"}, "is_reserved": 0, "is_disabled": 0, "bike_id": "697ef20ff61c349e432d453b4d16b321", "lat": 38.93108333333333, "name": "697ef20ff61c349e432d453b4d16b321", "fusion_lon": 0.0, "fusion_lat": 0.0, "type": "electric_scooter", "lon": -77.03796216666667}, {"rental_uris": {"android": "https://dc.lft.to/lastmile_qr_scan", "ios": "https://dc.lft.to/lastmile_qr_scan"}, "is_reserved": 0, "is_disabled": 0, "bike_id": "3a67753dede6a6bd5597c0389c6bb4af", "lat": 38.89034616666667, "name": "3a67753dede6a6bd5597c0389c6bb4af", "fusion_lon": 0.0, "fusion_lat": 0.0, "type": "electric_scooter", "lon": -76.9375255}, {"rental_uris": {"android": "https://dc.lft.to/lastmile_qr_scan", "ios": "https://dc.lft.to/lastmile_qr_scan"}, "is_reserved": 0, "is_disabled": 0, "bike_id": "076289473dafbf57866150ecc87adad3", "lat": 38.92370283333333, "name": "076289473dafbf57866150ecc87adad3", "fusion_lon": 0.0, "fusion_lat": 0.0, "type": "electric_scooter", "lon": -77.0190775}, {"rental_uris": {"android": "https://dc.lft.to/lastmile_qr_scan", "ios": "https://dc.lft.to/lastmile_qr_scan"}, "is_reserved": 0, "is_disabled": 0, "bike_id": "11593b1839fdae651d8b6fffc875ad4d", "lat": 38.891969833333334, "name": "11593b1839fdae651d8b6fffc875ad4d", "fusion_lon": 0.0, "fusion_lat": 0.0, "type": "electric_scooter", "lon": -76.93299183333333}, {"rental_uris": {"android": "https://dc.lft.to/lastmile_qr_scan", "ios": "https://dc.lft.to/lastmile_qr_scan"}, "is_reserved": 0, "is_disabled": 0, "bike_id": "eeb32d6f5f9fea1b7a9eb7e1a7a8a1cc", "lat": 38.91127083333333, "name": "eeb32d6f5f9fea1b7a9eb7e1a7a8a1cc", "fusion_lon": 0.0, "fusion_lat": 0.0, "type": "electric_scooter", "lon": -77.0317885}, {"rental_uris": {"android": "https://dc.lft.to/lastmile_qr_scan", "ios": "https://dc.lft.to/lastmile_qr_scan"}, "is_reserved": 0, "is_disabled": 0, "bike_id": "674ad2e715be6b8f9fb658f1e321b119", "lat": 38.902319, "name": "674ad2e715be6b8f9fb658f1e321b119", "fusion_lon": 0.0, "fusion_lat": 0.0, "type": "electric_scooter", "lon": -77.01929266666667}, {"rental_uris": {"android": "https://dc.lft.to/lastmile_qr_scan", "ios": "https://dc.lft.to/lastmile_qr_scan"}, "is_reserved": 0, "is_disabled": 0, "bike_id": "e8c5160f91ef4139691c01e94a5ebae5", "lat": 38.93028533333333, "name": "e8c5160f91ef4139691c01e94a5ebae5", "fusion_lon": 0.0, "fusion_lat": 0.0, "type": "electric_scooter", "lon": -77.01303316666667}, {"rental_uris": {"android": "https://dc.lft.to/lastmile_qr_scan", "ios": "https://dc.lft.to/lastmile_qr_scan"}, "is_reserved": 0, "is_disabled": 0, "bike_id": "fe55ad5b2b7645bc2519d80e4fd529d1", "lat": 38.8922765, "name": "fe55ad5b2b7645bc2519d80e4fd529d1", "fusion_lon": 0.0, "fusion_lat": 0.0, "type": "electric_scooter", "lon": -77.04376216666667}, {"rental_uris": {"android": "https://dc.lft.to/lastmile_qr_scan", "ios": "https://dc.lft.to/lastmile_qr_scan"}, "is_reserved": 0, "is_disabled": 0, "bike_id": "1145eca8a497229f70377070cec3520f", "lat": 38.914582333333335, "name": "1145eca8a497229f70377070cec3520f", "fusion_lon": 0.0, "fusion_lat": 0.0, "type": "electric_scooter", "lon": -77.0219615}, {"rental_uris": {"android": "https://dc.lft.to/lastmile_qr_scan", "ios": "https://dc.lft.to/lastmile_qr_scan"}, "is_reserved": 0, "is_disabled": 0, "bike_id": "91a854a208b71c445e414ca6ebbcf83a", "lat": 38.918071166666664, "name": "91a854a208b71c445e414ca6ebbcf83a", "fusion_lon": 0.0, "fusion_lat": 0.0, "type": "electric_scooter", "lon": -77.0343765}, {"rental_uris": {"android": "https://dc.lft.to/lastmile_qr_scan", "ios": "https://dc.lft.to/lastmile_qr_scan"}, "is_reserved": 0, "is_disabled": 0, "bike_id": "dae6ea5e5f38c8a1e3f6ce69b8bf6ffc", "lat": 38.892237333333334, "name": "dae6ea5e5f38c8a1e3f6ce69b8bf6ffc", "fusion_lon": 0.0, "fusion_lat": 0.0, "type": "electric_scooter", "lon": -77.04370983333334}, {"rental_uris": {"android": "https://dc.lft.to/lastmile_qr_scan", "ios": "https://dc.lft.to/lastmile_qr_scan"}, "is_reserved": 0, "is_disabled": 0, "bike_id": "1da492cfb40f1c55d2bfd8c62a5ed377", "lat": 38.907865, "name": "1da492cfb40f1c55d2bfd8c62a5ed377", "fusion_lon": 0.0, "fusion_lat": 0.0, "type": "electric_scooter", "lon": -77.03185433333333}, {"rental_uris": {"android": "https://dc.lft.to/lastmile_qr_scan", "ios": "https://dc.lft.to/lastmile_qr_scan"}, "is_reserved": 0, "is_disabled": 0, "bike_id": "09093cb729c86a6049ba8c41d6e7e7ac", "lat": 38.895556666666664, "name": "09093cb729c86a6049ba8c41d6e7e7ac", "fusion_lon": 0.0, "fusion_lat": 0.0, "type": "electric_scooter", "lon": -77.0467445}, {"rental_uris": {"android": "https://dc.lft.to/lastmile_qr_scan", "ios": "https://dc.lft.to/lastmile_qr_scan"}, "is_reserved": 0, "is_disabled": 0, "bike_id": "aea8c34e245b781ded1d3d79221c7b5d", "lat": 38.927431, "name": "aea8c34e245b781ded1d3d79221c7b5d", "fusion_lon": 0.0, "fusion_lat": 0.0, "type": "electric_scooter", "lon": -77.024899}, {"rental_uris": {"android": "https://dc.lft.to/lastmile_qr_scan", "ios": "https://dc.lft.to/lastmile_qr_scan"}, "is_reserved": 0, "is_disabled": 0, "bike_id": "4d5a4c462200609531e8ca3e6be64c4e", "lat": 38.96027616666667, "name": "4d5a4c462200609531e8ca3e6be64c4e", "fusion_lon": 0.0, "fusion_lat": 0.0, "type": "electric_scooter", "lon": -77.019819}, {"rental_uris": {"android": "https://dc.lft.to/lastmile_qr_scan", "ios": "https://dc.lft.to/lastmile_qr_scan"}, "is_reserved": 0, "is_disabled": 0, "bike_id": "1583d908d119ca290bceac4003228c45", "lat": 38.89369966666667, "name": "1583d908d119ca290bceac4003228c45", "fusion_lon": 0.0, "fusion_lat": 0.0, "type": "electric_scooter", "lon": -76.94995466666667}, {"rental_uris": {"android": "https://dc.lft.to/lastmile_qr_scan", "ios": "https://dc.lft.to/lastmile_qr_scan"}, "is_reserved": 0, "is_disabled": 0, "bike_id": "88db168979e2b5627f327d0db12be154", "lat": 38.894943, "name": "88db168979e2b5627f327d0db12be154", "fusion_lon": 0.0, "fusion_lat": 0.0, "type": "electric_scooter", "lon": -77.02154033333333}, {"rental_uris": {"android": "https://dc.lft.to/lastmile_qr_scan", "ios": "https://dc.lft.to/lastmile_qr_scan"}, "is_reserved": 0, "is_disabled": 0, "bike_id": "2a82c564d37a18b60b55cf6efeeb669a", "lat": 38.935527666666665, "name": "2a82c564d37a18b60b55cf6efeeb669a", "fusion_lon": 0.0, "fusion_lat": 0.0, "type": "electric_scooter", "lon": -77.022241}, {"rental_uris": {"android": "https://dc.lft.to/lastmile_qr_scan", "ios": "https://dc.lft.to/lastmile_qr_scan"}, "is_reserved": 0, "is_disabled": 0, "bike_id": "4fcc3ca58f2237b2cb8a860f6620de02", "lat": 38.867027, "name": "4fcc3ca58f2237b2cb8a860f6620de02", "fusion_lon": 0.0, "fusion_lat": 0.0, "type": "electric_scooter", "lon": -76.987085}, {"rental_uris": {"android": "https://dc.lft.to/lastmile_qr_scan", "ios": "https://dc.lft.to/lastmile_qr_scan"}, "is_reserved": 0, "is_disabled": 0, "bike_id": "3d5faf690a9917c8c15720ca18ab567d", "lat": 38.90723766666667, "name": "3d5faf690a9917c8c15720ca18ab567d", "fusion_lon": 0.0, "fusion_lat": 0.0, "type": "electric_scooter", "lon": -77.04877}, {"rental_uris": {"android": "https://dc.lft.to/lastmile_qr_scan", "ios": "https://dc.lft.to/lastmile_qr_scan"}, "is_reserved": 0, "is_disabled": 0, "bike_id": "9f73c5067076b9516115c28c6d225908", "lat": 38.90266716666667, "name": "9f73c5067076b9516115c28c6d225908", "fusion_lon": 0.0, "fusion_lat": 0.0, "type": "electric_scooter", "lon": -77.062701}, {"rental_uris": {"android": "https://dc.lft.to/lastmile_qr_scan", "ios": "https://dc.lft.to/lastmile_qr_scan"}, "is_reserved": 0, "is_disabled": 0, "bike_id": "6e13c02723898b4aa767d3be3737c0f9", "lat": 38.868986, "name": "6e13c02723898b4aa767d3be3737c0f9", "fusion_lon": 0.0, "fusion_lat": 0.0, "type": "electric_scooter", "lon": -76.98226233333334}, {"rental_uris": {"android": "https://dc.lft.to/lastmile_qr_scan", "ios": "https://dc.lft.to/lastmile_qr_scan"}, "is_reserved": 0, "is_disabled": 0, "bike_id": "f7742661c09f0038745a8b9f3ef27dcb", "lat": 38.911924166666665, "name": "f7742661c09f0038745a8b9f3ef27dcb", "fusion_lon": 0.0, "fusion_lat": 0.0, "type": "electric_scooter", "lon": -77.03014633333333}, {"rental_uris": {"android": "https://dc.lft.to/lastmile_qr_scan", "ios": "https://dc.lft.to/lastmile_qr_scan"}, "is_reserved": 0, "is_disabled": 0, "bike_id": "329c70e8708f654ae36a81913a4fea9d", "lat": 38.908430333333335, "name": "329c70e8708f654ae36a81913a4fea9d", "fusion_lon": 0.0, "fusion_lat": 0.0, "type": "electric_scooter", "lon": -77.0269195}, {"rental_uris": {"android": "https://dc.lft.to/lastmile_qr_scan", "ios": "https://dc.lft.to/lastmile_qr_scan"}, "is_reserved": 0, "is_disabled": 0, "bike_id": "47064d0e85f93e4c1181647483b1d06e", "lat": 38.92364716666667, "name": "47064d0e85f93e4c1181647483b1d06e", "fusion_lon": 0.0, "fusion_lat": 0.0, "type": "electric_scooter", "lon": -77.05126566666667}, {"rental_uris": {"android": "https://dc.lft.to/lastmile_qr_scan", "ios": "https://dc.lft.to/lastmile_qr_scan"}, "is_reserved": 0, "is_disabled": 0, "bike_id": "2ce3c4826f82fe2b59f2676d0bb5c804", "lat": 38.928412333333334, "name": "2ce3c4826f82fe2b59f2676d0bb5c804", "fusion_lon": 0.0, "fusion_lat": 0.0, "type": "electric_scooter", "lon": -77.0140825}, {"rental_uris": {"android": "https://dc.lft.to/lastmile_qr_scan", "ios": "https://dc.lft.to/lastmile_qr_scan"}, "is_reserved": 0, "is_disabled": 0, "bike_id": "b95a7c31bf57cf7c7994b881c0bf81ec", "lat": 39.042383666666666, "name": "b95a7c31bf57cf7c7994b881c0bf81ec", "fusion_lon": 0.0, "fusion_lat": 0.0, "type": "electric_bike", "lon": -77.03071166666666}, {"rental_uris": {"android": "https://dc.lft.to/lastmile_qr_scan", "ios": "https://dc.lft.to/lastmile_qr_scan"}, "is_reserved": 0, "is_disabled": 0, "bike_id": "b5c926cc6253783bdca36572992bc43f", "lat": 38.892251333333334, "name": "b5c926cc6253783bdca36572992bc43f", "fusion_lon": 0.0, "fusion_lat": 0.0, "type": "electric_scooter", "lon": -77.03213466666666}, {"rental_uris": {"android": "https://dc.lft.to/lastmile_qr_scan", "ios": "https://dc.lft.to/lastmile_qr_scan"}, "is_reserved": 0, "is_disabled": 0, "bike_id": "16ff840bca92b87240e85e8da28fbb83", "lat": 38.89227183333333, "name": "16ff840bca92b87240e85e8da28fbb83", "fusion_lon": 0.0, "fusion_lat": 0.0, "type": "electric_scooter", "lon": -77.04306683333333}, {"rental_uris": {"android": "https://dc.lft.to/lastmile_qr_scan", "ios": "https://dc.lft.to/lastmile_qr_scan"}, "is_reserved": 0, "is_disabled": 0, "bike_id": "574a75cd777bd05e9e9828937dc53b62", "lat": 38.901546, "name": "574a75cd777bd05e9e9828937dc53b62", "fusion_lon": 0.0, "fusion_lat": 0.0, "type": "electric_scooter", "lon": -77.02878133333333}, {"rental_uris": {"android": "https://dc.lft.to/lastmile_qr_scan", "ios": "https://dc.lft.to/lastmile_qr_scan"}, "is_reserved": 0, "is_disabled": 0, "bike_id": "4e0cb5305ced87714ecdacb4772234f4", "lat": 38.89973166666667, "name": "4e0cb5305ced87714ecdacb4772234f4", "fusion_lon": 0.0, "fusion_lat": 0.0, "type": "electric_bike", "lon": -77.04379983333334}, {"rental_uris": {"android": "https://dc.lft.to/lastmile_qr_scan", "ios": "https://dc.lft.to/lastmile_qr_scan"}, "is_reserved": 0, "is_disabled": 0, "bike_id": "920b840e8fb80662405ca96f26c9dab8", "lat": 38.93059316666667, "name": "920b840e8fb80662405ca96f26c9dab8", "fusion_lon": 0.0, "fusion_lat": 0.0, "type": "electric_scooter", "lon": -77.02319933333334}, {"rental_uris": {"android": "https://dc.lft.to/lastmile_qr_scan", "ios": "https://dc.lft.to/lastmile_qr_scan"}, "is_reserved": 0, "is_disabled": 0, "bike_id": "57f5e563db6983b5cc46cde58a05ca97", "lat": 38.91568316666667, "name": "57f5e563db6983b5cc46cde58a05ca97", "fusion_lon": 0.0, "fusion_lat": 0.0, "type": "electric_scooter", "lon": -77.011997}, {"rental_uris": {"android": "https://dc.lft.to/lastmile_qr_scan", "ios": "https://dc.lft.to/lastmile_qr_scan"}, "is_reserved": 0, "is_disabled": 0, "bike_id": "d7534fff0db9b2dcba3ef082412c4635", "lat": 38.90034816666667, "name": "d7534fff0db9b2dcba3ef082412c4635", "fusion_lon": 0.0, "fusion_lat": 0.0, "type": "electric_bike", "lon": -76.97222483333333}, {"rental_uris": {"android": "https://dc.lft.to/lastmile_qr_scan", "ios": "https://dc.lft.to/lastmile_qr_scan"}, "is_reserved": 0, "is_disabled": 0, "bike_id": "414e55687d9145ca7f805c72ca33738a", "lat": 38.920603, "name": "414e55687d9145ca7f805c72ca33738a", "fusion_lon": 0.0, "fusion_lat": 0.0, "type": "electric_scooter", "lon": -77.02176133333333}, {"rental_uris": {"android": "https://dc.lft.to/lastmile_qr_scan", "ios": "https://dc.lft.to/lastmile_qr_scan"}, "is_reserved": 0, "is_disabled": 0, "bike_id": "dd13c92ba4f7256fbd11a73a78b5e9f2", "lat": 38.876470833333336, "name": "dd13c92ba4f7256fbd11a73a78b5e9f2", "fusion_lon": 0.0, "fusion_lat": 0.0, "type": "electric_scooter", "lon": -76.96502616666666}, {"rental_uris": {"android": "https://dc.lft.to/lastmile_qr_scan", "ios": "https://dc.lft.to/lastmile_qr_scan"}, "is_reserved": 0, "is_disabled": 0, "bike_id": "24a8cda6b965e3669845ca1f58e0df04", "lat": 38.896330666666664, "name": "24a8cda6b965e3669845ca1f58e0df04", "fusion_lon": 0.0, "fusion_lat": 0.0, "type": "electric_scooter", "lon": -77.03338283333333}, {"rental_uris": {"android": "https://dc.lft.to/lastmile_qr_scan", "ios": "https://dc.lft.to/lastmile_qr_scan"}, "is_reserved": 0, "is_disabled": 0, "bike_id": "37b5a61a49c04d77bd4585317bdde047", "lat": 38.92148983333333, "name": "37b5a61a49c04d77bd4585317bdde047", "fusion_lon": 0.0, "fusion_lat": 0.0, "type": "electric_scooter", "lon": -77.01791933333334}, {"rental_uris": {"android": "https://dc.lft.to/lastmile_qr_scan", "ios": "https://dc.lft.to/lastmile_qr_scan"}, "is_reserved": 0, "is_disabled": 0, "bike_id": "d5705ad261b12299378425ad9881a018", "lat": 38.8766315, "name": "d5705ad261b12299378425ad9881a018", "fusion_lon": 0.0, "fusion_lat": 0.0, "type": "electric_scooter", "lon": -77.0080825}, {"rental_uris": {"android": "https://dc.lft.to/lastmile_qr_scan", "ios": "https://dc.lft.to/lastmile_qr_scan"}, "is_reserved": 0, "is_disabled": 0, "bike_id": "4518bcdf5fc274c3b9a2629714b339f3", "lat": 38.9118945, "name": "4518bcdf5fc274c3b9a2629714b339f3", "fusion_lon": 0.0, "fusion_lat": 0.0, "type": "electric_scooter", "lon": -77.04119566666667}, {"rental_uris": {"android": "https://dc.lft.to/lastmile_qr_scan", "ios": "https://dc.lft.to/lastmile_qr_scan"}, "is_reserved": 0, "is_disabled": 0, "bike_id": "7092716d1b210eab9c24b768cce40e57", "lat": 38.919169333333336, "name": "7092716d1b210eab9c24b768cce40e57", "fusion_lon": 0.0, "fusion_lat": 0.0, "type": "electric_scooter", "lon": -77.02607416666666}, {"rental_uris": {"android": "https://dc.lft.to/lastmile_qr_scan", "ios": "https://dc.lft.to/lastmile_qr_scan"}, "is_reserved": 0, "is_disabled": 0, "bike_id": "6175c15958a71daf7423a3b7a2e2097a", "lat": 38.905387833333336, "name": "6175c15958a71daf7423a3b7a2e2097a", "fusion_lon": 0.0, "fusion_lat": 0.0, "type": "electric_scooter", "lon": -77.0494255}, {"rental_uris": {"android": "https://dc.lft.to/lastmile_qr_scan", "ios": "https://dc.lft.to/lastmile_qr_scan"}, "is_reserved": 0, "is_disabled": 0, "bike_id": "7f3104ded544ff8df20a237fdf7b5116", "lat": 38.9540035, "name": "7f3104ded544ff8df20a237fdf7b5116", "fusion_lon": 0.0, "fusion_lat": 0.0, "type": "electric_scooter", "lon": -77.02776566666667}, {"rental_uris": {"android": "https://dc.lft.to/lastmile_qr_scan", "ios": "https://dc.lft.to/lastmile_qr_scan"}, "is_reserved": 0, "is_disabled": 0, "bike_id": "d38dfc6914037bffed5e3b0b5ade1db3", "lat": 38.920647833333334, "name": "d38dfc6914037bffed5e3b0b5ade1db3", "fusion_lon": 0.0, "fusion_lat": 0.0, "type": "electric_scooter", "lon": -77.0419605}, {"rental_uris": {"android": "https://dc.lft.to/lastmile_qr_scan", "ios": "https://dc.lft.to/lastmile_qr_scan"}, "is_reserved": 0, "is_disabled": 0, "bike_id": "2e7f26615fd3567e634826d447537971", "lat": 38.902424333333336, "name": "2e7f26615fd3567e634826d447537971", "fusion_lon": 0.0, "fusion_lat": 0.0, "type": "electric_scooter", "lon": -77.045719}, {"rental_uris": {"android": "https://dc.lft.to/lastmile_qr_scan", "ios": "https://dc.lft.to/lastmile_qr_scan"}, "is_reserved": 0, "is_disabled": 0, "bike_id": "7975ddaf850d3459f645902e816cdb44", "lat": 38.93086366666667, "name": "7975ddaf850d3459f645902e816cdb44", "fusion_lon": 0.0, "fusion_lat": 0.0, "type": "electric_scooter", "lon": -77.03139566666667}, {"rental_uris": {"android": "https://dc.lft.to/lastmile_qr_scan", "ios": "https://dc.lft.to/lastmile_qr_scan"}, "is_reserved": 0, "is_disabled": 0, "bike_id": "fca1c31c327ae014deff9f9368a4cd79", "lat": 38.9097385, "name": "fca1c31c327ae014deff9f9368a4cd79", "fusion_lon": 0.0, "fusion_lat": 0.0, "type": "electric_scooter", "lon": -77.03455383333333}, {"rental_uris": {"android": "https://dc.lft.to/lastmile_qr_scan", "ios": "https://dc.lft.to/lastmile_qr_scan"}, "is_reserved": 0, "is_disabled": 0, "bike_id": "b9b89bc395f4bac7130e1d88e96d6c0d", "lat": 38.92154016666667, "name": "b9b89bc395f4bac7130e1d88e96d6c0d", "fusion_lon": 0.0, "fusion_lat": 0.0, "type": "electric_scooter", "lon": -77.03866966666666}, {"rental_uris": {"android": "https://dc.lft.to/lastmile_qr_scan", "ios": "https://dc.lft.to/lastmile_qr_scan"}, "is_reserved": 0, "is_disabled": 0, "bike_id": "abee26af1da8a0a348b6a90762fb7d72", "lat": 38.89224166666666, "name": "abee26af1da8a0a348b6a90762fb7d72", "fusion_lon": 0.0, "fusion_lat": 0.0, "type": "electric_scooter", "lon": -77.04368033333333}, {"rental_uris": {"android": "https://dc.lft.to/lastmile_qr_scan", "ios": "https://dc.lft.to/lastmile_qr_scan"}, "is_reserved": 0, "is_disabled": 0, "bike_id": "9be63378edbd63c5627a934a8082a9cf", "lat": 38.8922525, "name": "9be63378edbd63c5627a934a8082a9cf", "fusion_lon": 0.0, "fusion_lat": 0.0, "type": "electric_scooter", "lon": -77.045016}, {"rental_uris": {"android": "https://dc.lft.to/lastmile_qr_scan", "ios": "https://dc.lft.to/lastmile_qr_scan"}, "is_reserved": 0, "is_disabled": 0, "bike_id": "15fd63db5f56a8843b538301961fd232", "lat": 38.921641, "name": "15fd63db5f56a8843b538301961fd232", "fusion_lon": 0.0, "fusion_lat": 0.0, "type": "electric_scooter", "lon": -77.03255566666667}, {"rental_uris": {"android": "https://dc.lft.to/lastmile_qr_scan", "ios": "https://dc.lft.to/lastmile_qr_scan"}, "is_reserved": 0, "is_disabled": 0, "bike_id": "d59b9d0020ce01099c33228c4074d49b", "lat": 38.8647475, "name": "d59b9d0020ce01099c33228c4074d49b", "fusion_lon": 0.0, "fusion_lat": 0.0, "type": "electric_scooter", "lon": -76.98230466666666}, {"rental_uris": {"android": "https://dc.lft.to/lastmile_qr_scan", "ios": "https://dc.lft.to/lastmile_qr_scan"}, "is_reserved": 0, "is_disabled": 0, "bike_id": "367a5c35b8fd55f8b00c38fd36076523", "lat": 38.91540533333333, "name": "367a5c35b8fd55f8b00c38fd36076523", "fusion_lon": 0.0, "fusion_lat": 0.0, "type": "electric_scooter", "lon": -76.98344766666666}, {"rental_uris": {"android": "https://dc.lft.to/lastmile_qr_scan", "ios": "https://dc.lft.to/lastmile_qr_scan"}, "is_reserved": 0, "is_disabled": 0, "bike_id": "d32d9a651ea7f0b21b00127138563dda", "lat": 38.85540266666667, "name": "d32d9a651ea7f0b21b00127138563dda", "fusion_lon": 0.0, "fusion_lat": 0.0, "type": "electric_scooter", "lon": -76.984178}, {"rental_uris": {"android": "https://dc.lft.to/lastmile_qr_scan", "ios": "https://dc.lft.to/lastmile_qr_scan"}, "is_reserved": 0, "is_disabled": 0, "bike_id": "0c2fa446fc2eebab35ffee263b7ffb24", "lat": 38.9357155, "name": "0c2fa446fc2eebab35ffee263b7ffb24", "fusion_lon": 0.0, "fusion_lat": 0.0, "type": "electric_scooter", "lon": -77.08117716666666}, {"rental_uris": {"android": "https://dc.lft.to/lastmile_qr_scan", "ios": "https://dc.lft.to/lastmile_qr_scan"}, "is_reserved": 0, "is_disabled": 0, "bike_id": "d50c376975dc70dc7090861c2585fc6d", "lat": 38.922554, "name": "d50c376975dc70dc7090861c2585fc6d", "fusion_lon": 0.0, "fusion_lat": 0.0, "type": "electric_scooter", "lon": -77.01946033333333}, {"rental_uris": {"android": "https://dc.lft.to/lastmile_qr_scan", "ios": "https://dc.lft.to/lastmile_qr_scan"}, "is_reserved": 0, "is_disabled": 0, "bike_id": "f131b9ba163455060c4a8349754aa801", "lat": 38.880830333333336, "name": "f131b9ba163455060c4a8349754aa801", "fusion_lon": 0.0, "fusion_lat": 0.0, "type": "electric_scooter", "lon": -76.98512733333334}, {"rental_uris": {"android": "https://dc.lft.to/lastmile_qr_scan", "ios": "https://dc.lft.to/lastmile_qr_scan"}, "is_reserved": 0, "is_disabled": 0, "bike_id": "8f2fd3b9479ecd7ca432be2136be5dad", "lat": 38.90266733333333, "name": "8f2fd3b9479ecd7ca432be2136be5dad", "fusion_lon": 0.0, "fusion_lat": 0.0, "type": "electric_scooter", "lon": -77.04467283333334}, {"rental_uris": {"android": "https://dc.lft.to/lastmile_qr_scan", "ios": "https://dc.lft.to/lastmile_qr_scan"}, "is_reserved": 0, "is_disabled": 0, "bike_id": "b6869c540bac61029288496faa66e765", "lat": 38.90085083333334, "name": "b6869c540bac61029288496faa66e765", "fusion_lon": 0.0, "fusion_lat": 0.0, "type": "electric_scooter", "lon": -76.93019983333333}, {"rental_uris": {"android": "https://dc.lft.to/lastmile_qr_scan", "ios": "https://dc.lft.to/lastmile_qr_scan"}, "is_reserved": 0, "is_disabled": 0, "bike_id": "e2fb4e3f17e46d436fd692cedd9175ac", "lat": 38.9038735, "name": "e2fb4e3f17e46d436fd692cedd9175ac", "fusion_lon": 0.0, "fusion_lat": 0.0, "type": "electric_scooter", "lon": -77.03876783333334}, {"rental_uris": {"android": "https://dc.lft.to/lastmile_qr_scan", "ios": "https://dc.lft.to/lastmile_qr_scan"}, "is_reserved": 0, "is_disabled": 0, "bike_id": "e6298bbf1daccacf8dfa1a0e94aaf025", "lat": 38.892765, "name": "e6298bbf1daccacf8dfa1a0e94aaf025", "fusion_lon": 0.0, "fusion_lat": 0.0, "type": "electric_scooter", "lon": -77.04871716666666}, {"rental_uris": {"android": "https://dc.lft.to/lastmile_qr_scan", "ios": "https://dc.lft.to/lastmile_qr_scan"}, "is_reserved": 0, "is_disabled": 0, "bike_id": "5c9337b55bd92274a51bf364b836b49a", "lat": 38.90492016666666, "name": "5c9337b55bd92274a51bf364b836b49a", "fusion_lon": 0.0, "fusion_lat": 0.0, "type": "electric_scooter", "lon": -77.00574516666667}, {"rental_uris": {"android": "https://dc.lft.to/lastmile_qr_scan", "ios": "https://dc.lft.to/lastmile_qr_scan"}, "is_reserved": 0, "is_disabled": 0, "bike_id": "f1b83a02076d0b1540bdde8fc9845a13", "lat": 38.927993, "name": "f1b83a02076d0b1540bdde8fc9845a13", "fusion_lon": 0.0, "fusion_lat": 0.0, "type": "electric_scooter", "lon": -77.043582}, {"rental_uris": {"android": "https://dc.lft.to/lastmile_qr_scan", "ios": "https://dc.lft.to/lastmile_qr_scan"}, "is_reserved": 0, "is_disabled": 0, "bike_id": "e64817df244f872ab4b1ed72171267e1", "lat": 38.94415083333333, "name": "e64817df244f872ab4b1ed72171267e1", "fusion_lon": 0.0, "fusion_lat": 0.0, "type": "electric_scooter", "lon": -77.02598616666667}, {"rental_uris": {"android": "https://dc.lft.to/lastmile_qr_scan", "ios": "https://dc.lft.to/lastmile_qr_scan"}, "is_reserved": 0, "is_disabled": 0, "bike_id": "abd273499b56d03766abd8cdf00a2bfa", "lat": 38.922783833333334, "name": "abd273499b56d03766abd8cdf00a2bfa", "fusion_lon": 0.0, "fusion_lat": 0.0, "type": "electric_scooter", "lon": -77.01918666666667}, {"rental_uris": {"android": "https://dc.lft.to/lastmile_qr_scan", "ios": "https://dc.lft.to/lastmile_qr_scan"}, "is_reserved": 0, "is_disabled": 0, "bike_id": "f5d41a2541c697af8323dddcfbecbb4a", "lat": 38.9164525, "name": "f5d41a2541c697af8323dddcfbecbb4a", "fusion_lon": 0.0, "fusion_lat": 0.0, "type": "electric_bike", "lon": -76.973039}, {"rental_uris": {"android": "https://dc.lft.to/lastmile_qr_scan", "ios": "https://dc.lft.to/lastmile_qr_scan"}, "is_reserved": 0, "is_disabled": 0, "bike_id": "1f033036af813362fadd9d8c63487f79", "lat": 38.884872666666666, "name": "1f033036af813362fadd9d8c63487f79", "fusion_lon": 0.0, "fusion_lat": 0.0, "type": "electric_scooter", "lon": -76.92620966666667}, {"rental_uris": {"android": "https://dc.lft.to/lastmile_qr_scan", "ios": "https://dc.lft.to/lastmile_qr_scan"}, "is_reserved": 0, "is_disabled": 0, "bike_id": "b5ade4db5d31cb78c097535d8bf4c3b6", "lat": 38.9506545, "name": "b5ade4db5d31cb78c097535d8bf4c3b6", "fusion_lon": 0.0, "fusion_lat": 0.0, "type": "electric_scooter", "lon": -77.08012366666667}, {"rental_uris": {"android": "https://dc.lft.to/lastmile_qr_scan", "ios": "https://dc.lft.to/lastmile_qr_scan"}, "is_reserved": 0, "is_disabled": 0, "bike_id": "c1541811f339e3226d20091bd24f7190", "lat": 38.91629266666666, "name": "c1541811f339e3226d20091bd24f7190", "fusion_lon": 0.0, "fusion_lat": 0.0, "type": "electric_scooter", "lon": -77.031454}, {"rental_uris": {"android": "https://dc.lft.to/lastmile_qr_scan", "ios": "https://dc.lft.to/lastmile_qr_scan"}, "is_reserved": 0, "is_disabled": 0, "bike_id": "dd14bda43e0078e3b653b45ed494167d", "lat": 38.9027485, "name": "dd14bda43e0078e3b653b45ed494167d", "fusion_lon": 0.0, "fusion_lat": 0.0, "type": "electric_bike", "lon": -76.92924}, {"rental_uris": {"android": "https://dc.lft.to/lastmile_qr_scan", "ios": "https://dc.lft.to/lastmile_qr_scan"}, "is_reserved": 0, "is_disabled": 0, "bike_id": "bf14ff51e54294c4826ef860760fed92", "lat": 38.90537916666667, "name": "bf14ff51e54294c4826ef860760fed92", "fusion_lon": 0.0, "fusion_lat": 0.0, "type": "electric_scooter", "lon": -77.04916733333333}, {"rental_uris": {"android": "https://dc.lft.to/lastmile_qr_scan", "ios": "https://dc.lft.to/lastmile_qr_scan"}, "is_reserved": 0, "is_disabled": 0, "bike_id": "d9dfeea7949283a4b4ac3b0263668897", "lat": 38.89224433333333, "name": "d9dfeea7949283a4b4ac3b0263668897", "fusion_lon": 0.0, "fusion_lat": 0.0, "type": "electric_scooter", "lon": -77.043719}, {"rental_uris": {"android": "https://dc.lft.to/lastmile_qr_scan", "ios": "https://dc.lft.to/lastmile_qr_scan"}, "is_reserved": 0, "is_disabled": 0, "bike_id": "2d0f35ce448867d1938b697676d9e622", "lat": 38.89296316666667, "name": "2d0f35ce448867d1938b697676d9e622", "fusion_lon": 0.0, "fusion_lat": 0.0, "type": "electric_scooter", "lon": -77.01226133333333}, {"rental_uris": {"android": "https://dc.lft.to/lastmile_qr_scan", "ios": "https://dc.lft.to/lastmile_qr_scan"}, "is_reserved": 0, "is_disabled": 0, "bike_id": "9c1fb7a07992641357e6c9cb40285bee", "lat": 38.8984635, "name": "9c1fb7a07992641357e6c9cb40285bee", "fusion_lon": 0.0, "fusion_lat": 0.0, "type": "electric_scooter", "lon": -77.02801966666667}, {"rental_uris": {"android": "https://dc.lft.to/lastmile_qr_scan", "ios": "https://dc.lft.to/lastmile_qr_scan"}, "is_reserved": 0, "is_disabled": 0, "bike_id": "0930ea147ac26aae100f8763429a96f5", "lat": 38.87451883333333, "name": "0930ea147ac26aae100f8763429a96f5", "fusion_lon": 0.0, "fusion_lat": 0.0, "type": "electric_scooter", "lon": -77.00886933333334}, {"rental_uris": {"android": "https://dc.lft.to/lastmile_qr_scan", "ios": "https://dc.lft.to/lastmile_qr_scan"}, "is_reserved": 0, "is_disabled": 0, "bike_id": "6738863e5414935365c28f6e6a373eb8", "lat": 38.89367466666667, "name": "6738863e5414935365c28f6e6a373eb8", "fusion_lon": 0.0, "fusion_lat": 0.0, "type": "electric_scooter", "lon": -76.95011583333333}, {"rental_uris": {"android": "https://dc.lft.to/lastmile_qr_scan", "ios": "https://dc.lft.to/lastmile_qr_scan"}, "is_reserved": 0, "is_disabled": 0, "bike_id": "bf8d98ec7322fcf79ce7e8a914a7c08c", "lat": 39.0423915, "name": "bf8d98ec7322fcf79ce7e8a914a7c08c", "fusion_lon": 0.0, "fusion_lat": 0.0, "type": "electric_bike", "lon": -76.99728266666666}, {"rental_uris": {"android": "https://dc.lft.to/lastmile_qr_scan", "ios": "https://dc.lft.to/lastmile_qr_scan"}, "is_reserved": 0, "is_disabled": 0, "bike_id": "5fc959d7e74c075ebbd20cead316f8a2", "lat": 38.923184166666665, "name": "5fc959d7e74c075ebbd20cead316f8a2", "fusion_lon": 0.0, "fusion_lat": 0.0, "type": "electric_scooter", "lon": -77.043436}, {"rental_uris": {"android": "https://dc.lft.to/lastmile_qr_scan", "ios": "https://dc.lft.to/lastmile_qr_scan"}, "is_reserved": 0, "is_disabled": 0, "bike_id": "83abedce341977f0b1dfab4edd45a756", "lat": 38.91112283333333, "name": "83abedce341977f0b1dfab4edd45a756", "fusion_lon": 0.0, "fusion_lat": 0.0, "type": "electric_scooter", "lon": -77.045033}, {"rental_uris": {"android": "https://dc.lft.to/lastmile_qr_scan", "ios": "https://dc.lft.to/lastmile_qr_scan"}, "is_reserved": 0, "is_disabled": 0, "bike_id": "24ab356814af14d1ff22299e36d645d5", "lat": 38.896831666666664, "name": "24ab356814af14d1ff22299e36d645d5", "fusion_lon": 0.0, "fusion_lat": 0.0, "type": "electric_scooter", "lon": -76.93533883333333}, {"rental_uris": {"android": "https://dc.lft.to/lastmile_qr_scan", "ios": "https://dc.lft.to/lastmile_qr_scan"}, "is_reserved": 0, "is_disabled": 0, "bike_id": "d6776c4c1ed03996b931dc33166b09e2", "lat": 38.899998833333335, "name": "d6776c4c1ed03996b931dc33166b09e2", "fusion_lon": 0.0, "fusion_lat": 0.0, "type": "electric_scooter", "lon": -76.99616716666667}, {"rental_uris": {"android": "https://dc.lft.to/lastmile_qr_scan", "ios": "https://dc.lft.to/lastmile_qr_scan"}, "is_reserved": 0, "is_disabled": 0, "bike_id": "77db9d976c9671251f9f885195611bf7", "lat": 38.91781116666667, "name": "77db9d976c9671251f9f885195611bf7", "fusion_lon": 0.0, "fusion_lat": 0.0, "type": "electric_scooter", "lon": -77.0440655}, {"rental_uris": {"android": "https://dc.lft.to/lastmile_qr_scan", "ios": "https://dc.lft.to/lastmile_qr_scan"}, "is_reserved": 0, "is_disabled": 0, "bike_id": "1547626ddd51b3395df21ab8a67f70e5", "lat": 38.85804733333333, "name": "1547626ddd51b3395df21ab8a67f70e5", "fusion_lon": 0.0, "fusion_lat": 0.0, "type": "electric_scooter", "lon": -76.99138866666667}, {"rental_uris": {"android": "https://dc.lft.to/lastmile_qr_scan", "ios": "https://dc.lft.to/lastmile_qr_scan"}, "is_reserved": 0, "is_disabled": 0, "bike_id": "bbd95536ca2d915b5269c5b2b1afbde5", "lat": 38.89625733333333, "name": "bbd95536ca2d915b5269c5b2b1afbde5", "fusion_lon": 0.0, "fusion_lat": 0.0, "type": "electric_scooter", "lon": -77.01194366666667}, {"rental_uris": {"android": "https://dc.lft.to/lastmile_qr_scan", "ios": "https://dc.lft.to/lastmile_qr_scan"}, "is_reserved": 0, "is_disabled": 0, "bike_id": "3770535fc5137b21690286ae499eba7e", "lat": 38.89229366666667, "name": "3770535fc5137b21690286ae499eba7e", "fusion_lon": 0.0, "fusion_lat": 0.0, "type": "electric_scooter", "lon": -77.00308616666666}, {"rental_uris": {"android": "https://dc.lft.to/lastmile_qr_scan", "ios": "https://dc.lft.to/lastmile_qr_scan"}, "is_reserved": 0, "is_disabled": 0, "bike_id": "ea1fad8d9c0252eb290514c185139a36", "lat": 38.89225716666667, "name": "ea1fad8d9c0252eb290514c185139a36", "fusion_lon": 0.0, "fusion_lat": 0.0, "type": "electric_scooter", "lon": -77.043313}, {"rental_uris": {"android": "https://dc.lft.to/lastmile_qr_scan", "ios": "https://dc.lft.to/lastmile_qr_scan"}, "is_reserved": 0, "is_disabled": 0, "bike_id": "ea742f0e724938a1208e88eedc3ba4b9", "lat": 38.899045, "name": "ea742f0e724938a1208e88eedc3ba4b9", "fusion_lon": 0.0, "fusion_lat": 0.0, "type": "electric_bike", "lon": -77.00734916666667}, {"rental_uris": {"android": "https://dc.lft.to/lastmile_qr_scan", "ios": "https://dc.lft.to/lastmile_qr_scan"}, "is_reserved": 0, "is_disabled": 0, "bike_id": "19ab0e7424822e6e8d6b32b62c707b4b", "lat": 38.9236355, "name": "19ab0e7424822e6e8d6b32b62c707b4b", "fusion_lon": 0.0, "fusion_lat": 0.0, "type": "electric_scooter", "lon": -77.050637}, {"rental_uris": {"android": "https://dc.lft.to/lastmile_qr_scan", "ios": "https://dc.lft.to/lastmile_qr_scan"}, "is_reserved": 0, "is_disabled": 0, "bike_id": "98c3edbe28367a118aaad35a196f9022", "lat": 38.9219855, "name": "98c3edbe28367a118aaad35a196f9022", "fusion_lon": 0.0, "fusion_lat": 0.0, "type": "electric_scooter", "lon": -77.01837533333334}, {"rental_uris": {"android": "https://dc.lft.to/lastmile_qr_scan", "ios": "https://dc.lft.to/lastmile_qr_scan"}, "is_reserved": 0, "is_disabled": 0, "bike_id": "93da93ecf978ac4cf42cd12a9ede4cec", "lat": 38.936104666666665, "name": "93da93ecf978ac4cf42cd12a9ede4cec", "fusion_lon": 0.0, "fusion_lat": 0.0, "type": "electric_scooter", "lon": -77.0588255}, {"rental_uris": {"android": "https://dc.lft.to/lastmile_qr_scan", "ios": "https://dc.lft.to/lastmile_qr_scan"}, "is_reserved": 0, "is_disabled": 0, "bike_id": "24a2d39d24c46c27e138bcb044e26d87", "lat": 38.8750255, "name": "24a2d39d24c46c27e138bcb044e26d87", "fusion_lon": 0.0, "fusion_lat": 0.0, "type": "electric_scooter", "lon": -77.000382}, {"rental_uris": {"android": "https://dc.lft.to/lastmile_qr_scan", "ios": "https://dc.lft.to/lastmile_qr_scan"}, "is_reserved": 0, "is_disabled": 0, "bike_id": "11f3a03c5ad154c4e8747e6e91f50242", "lat": 38.89847133333333, "name": "11f3a03c5ad154c4e8747e6e91f50242", "fusion_lon": 0.0, "fusion_lat": 0.0, "type": "electric_scooter", "lon": -77.04363066666667}, {"rental_uris": {"android": "https://dc.lft.to/lastmile_qr_scan", "ios": "https://dc.lft.to/lastmile_qr_scan"}, "is_reserved": 0, "is_disabled": 0, "bike_id": "49cb0463de9105215c808b0491e47a04", "lat": 38.9231685, "name": "49cb0463de9105215c808b0491e47a04", "fusion_lon": 0.0, "fusion_lat": 0.0, "type": "electric_scooter", "lon": -77.03800716666667}, {"rental_uris": {"android": "https://dc.lft.to/lastmile_qr_scan", "ios": "https://dc.lft.to/lastmile_qr_scan"}, "is_reserved": 0, "is_disabled": 0, "bike_id": "6c3968657cfd1fc96226ef8f3cad1e75", "lat": 38.899161, "name": "6c3968657cfd1fc96226ef8f3cad1e75", "fusion_lon": 0.0, "fusion_lat": 0.0, "type": "electric_scooter", "lon": -77.00336166666666}, {"rental_uris": {"android": "https://dc.lft.to/lastmile_qr_scan", "ios": "https://dc.lft.to/lastmile_qr_scan"}, "is_reserved": 0, "is_disabled": 0, "bike_id": "e9879caccbb4f8740ff71156e690a8c0", "lat": 38.914793, "name": "e9879caccbb4f8740ff71156e690a8c0", "fusion_lon": 0.0, "fusion_lat": 0.0, "type": "electric_scooter", "lon": -77.02580916666666}, {"rental_uris": {"android": "https://dc.lft.to/lastmile_qr_scan", "ios": "https://dc.lft.to/lastmile_qr_scan"}, "is_reserved": 0, "is_disabled": 0, "bike_id": "8dbf4d465bc1d2e6ee1cc82aea114150", "lat": 38.9398395, "name": "8dbf4d465bc1d2e6ee1cc82aea114150", "fusion_lon": 0.0, "fusion_lat": 0.0, "type": "electric_scooter", "lon": -77.03006266666667}, {"rental_uris": {"android": "https://dc.lft.to/lastmile_qr_scan", "ios": "https://dc.lft.to/lastmile_qr_scan"}, "is_reserved": 0, "is_disabled": 0, "bike_id": "e525c0dc45d150bd8e29250ac564469d", "lat": 38.92838733333333, "name": "e525c0dc45d150bd8e29250ac564469d", "fusion_lon": 0.0, "fusion_lat": 0.0, "type": "electric_scooter", "lon": -77.01392016666667}, {"rental_uris": {"android": "https://dc.lft.to/lastmile_qr_scan", "ios": "https://dc.lft.to/lastmile_qr_scan"}, "is_reserved": 0, "is_disabled": 0, "bike_id": "f7be66c7f9d48b609bcda2ab167ded2c", "lat": 38.899203666666665, "name": "f7be66c7f9d48b609bcda2ab167ded2c", "fusion_lon": 0.0, "fusion_lat": 0.0, "type": "electric_scooter", "lon": -76.93377633333333}, {"rental_uris": {"android": "https://dc.lft.to/lastmile_qr_scan", "ios": "https://dc.lft.to/lastmile_qr_scan"}, "is_reserved": 0, "is_disabled": 0, "bike_id": "bf2d1cd1af7d3532a6f2c889c44248eb", "lat": 38.89742533333333, "name": "bf2d1cd1af7d3532a6f2c889c44248eb", "fusion_lon": 0.0, "fusion_lat": 0.0, "type": "electric_scooter", "lon": -77.01265533333333}, {"rental_uris": {"android": "https://dc.lft.to/lastmile_qr_scan", "ios": "https://dc.lft.to/lastmile_qr_scan"}, "is_reserved": 0, "is_disabled": 0, "bike_id": "71135565cc8b5faed44fb51d047adcd1", "lat": 38.91364383333333, "name": "71135565cc8b5faed44fb51d047adcd1", "fusion_lon": 0.0, "fusion_lat": 0.0, "type": "electric_scooter", "lon": -77.03152716666666}, {"rental_uris": {"android": "https://dc.lft.to/lastmile_qr_scan", "ios": "https://dc.lft.to/lastmile_qr_scan"}, "is_reserved": 0, "is_disabled": 0, "bike_id": "cdced619374c86b1c14a5545dc99f05d", "lat": 38.90080716666667, "name": "cdced619374c86b1c14a5545dc99f05d", "fusion_lon": 0.0, "fusion_lat": 0.0, "type": "electric_scooter", "lon": -77.04758683333333}, {"rental_uris": {"android": "https://dc.lft.to/lastmile_qr_scan", "ios": "https://dc.lft.to/lastmile_qr_scan"}, "is_reserved": 0, "is_disabled": 0, "bike_id": "b294ce685ad47398a72a9822357b89f9", "lat": 38.929654166666666, "name": "b294ce685ad47398a72a9822357b89f9", "fusion_lon": 0.0, "fusion_lat": 0.0, "type": "electric_scooter", "lon": -77.0549955}, {"rental_uris": {"android": "https://dc.lft.to/lastmile_qr_scan", "ios": "https://dc.lft.to/lastmile_qr_scan"}, "is_reserved": 0, "is_disabled": 0, "bike_id": "47c76e14cddf143990e674d239018d32", "lat": 38.88307866666667, "name": "47c76e14cddf143990e674d239018d32", "fusion_lon": 0.0, "fusion_lat": 0.0, "type": "electric_scooter", "lon": -76.9786265}, {"rental_uris": {"android": "https://dc.lft.to/lastmile_qr_scan", "ios": "https://dc.lft.to/lastmile_qr_scan"}, "is_reserved": 0, "is_disabled": 0, "bike_id": "58d7d97e9f517fc727f5bf0a5a04ed84", "lat": 39.06298816666666, "name": "58d7d97e9f517fc727f5bf0a5a04ed84", "fusion_lon": 0.0, "fusion_lat": 0.0, "type": "electric_bike", "lon": -77.04978583333333}, {"rental_uris": {"android": "https://dc.lft.to/lastmile_qr_scan", "ios": "https://dc.lft.to/lastmile_qr_scan"}, "is_reserved": 0, "is_disabled": 0, "bike_id": "59b0c30b816b21859d32b7ba21f72f9b", "lat": 38.9022395, "name": "59b0c30b816b21859d32b7ba21f72f9b", "fusion_lon": 0.0, "fusion_lat": 0.0, "type": "electric_scooter", "lon": -77.00572583333333}, {"rental_uris": {"android": "https://dc.lft.to/lastmile_qr_scan", "ios": "https://dc.lft.to/lastmile_qr_scan"}, "is_reserved": 0, "is_disabled": 0, "bike_id": "923e85e292739fd2c1fc6b6c2fb7ba12", "lat": 38.939876, "name": "923e85e292739fd2c1fc6b6c2fb7ba12", "fusion_lon": 0.0, "fusion_lat": 0.0, "type": "electric_scooter", "lon": -77.0297685}, {"rental_uris": {"android": "https://dc.lft.to/lastmile_qr_scan", "ios": "https://dc.lft.to/lastmile_qr_scan"}, "is_reserved": 0, "is_disabled": 0, "bike_id": "ca51aedb30862f83f4bab522e3467661", "lat": 38.8991805, "name": "ca51aedb30862f83f4bab522e3467661", "fusion_lon": 0.0, "fusion_lat": 0.0, "type": "electric_scooter", "lon": -76.93377233333334}, {"rental_uris": {"android": "https://dc.lft.to/lastmile_qr_scan", "ios": "https://dc.lft.to/lastmile_qr_scan"}, "is_reserved": 0, "is_disabled": 0, "bike_id": "c7f67d996b3980edfc51d1026fa9299e", "lat": 38.887328333333336, "name": "c7f67d996b3980edfc51d1026fa9299e", "fusion_lon": 0.0, "fusion_lat": 0.0, "type": "electric_scooter", "lon": -77.01763783333334}, {"rental_uris": {"android": "https://dc.lft.to/lastmile_qr_scan", "ios": "https://dc.lft.to/lastmile_qr_scan"}, "is_reserved": 0, "is_disabled": 0, "bike_id": "57ee951588137f252238d1104d5d9432", "lat": 38.924461, "name": "57ee951588137f252238d1104d5d9432", "fusion_lon": 0.0, "fusion_lat": 0.0, "type": "electric_scooter", "lon": -77.04111866666666}, {"rental_uris": {"android": "https://dc.lft.to/lastmile_qr_scan", "ios": "https://dc.lft.to/lastmile_qr_scan"}, "is_reserved": 0, "is_disabled": 0, "bike_id": "56f5ac2c75a815e35a65627d6c197bc6", "lat": 38.9024525, "name": "56f5ac2c75a815e35a65627d6c197bc6", "fusion_lon": 0.0, "fusion_lat": 0.0, "type": "electric_scooter", "lon": -77.04271033333333}, {"rental_uris": {"android": "https://dc.lft.to/lastmile_qr_scan", "ios": "https://dc.lft.to/lastmile_qr_scan"}, "is_reserved": 0, "is_disabled": 0, "bike_id": "c65f406b142c3f616192e3a8de7c49a3", "lat": 38.90080533333333, "name": "c65f406b142c3f616192e3a8de7c49a3", "fusion_lon": 0.0, "fusion_lat": 0.0, "type": "electric_scooter", "lon": -77.045303}, {"rental_uris": {"android": "https://dc.lft.to/lastmile_qr_scan", "ios": "https://dc.lft.to/lastmile_qr_scan"}, "is_reserved": 0, "is_disabled": 0, "bike_id": "09d3ef4bc498ab570f9f7f7021b315fa", "lat": 38.90719266666667, "name": "09d3ef4bc498ab570f9f7f7021b315fa", "fusion_lon": 0.0, "fusion_lat": 0.0, "type": "electric_scooter", "lon": -77.04501183333333}, {"rental_uris": {"android": "https://dc.lft.to/lastmile_qr_scan", "ios": "https://dc.lft.to/lastmile_qr_scan"}, "is_reserved": 0, "is_disabled": 0, "bike_id": "02999ebb77291ca665ae801d1fb745c1", "lat": 38.87399883333333, "name": "02999ebb77291ca665ae801d1fb745c1", "fusion_lon": 0.0, "fusion_lat": 0.0, "type": "electric_scooter", "lon": -77.00017866666667}, {"rental_uris": {"android": "https://dc.lft.to/lastmile_qr_scan", "ios": "https://dc.lft.to/lastmile_qr_scan"}, "is_reserved": 0, "is_disabled": 0, "bike_id": "fd239a7959fe331857aeffb9d1a0fe47", "lat": 38.921665, "name": "fd239a7959fe331857aeffb9d1a0fe47", "fusion_lon": 0.0, "fusion_lat": 0.0, "type": "electric_scooter", "lon": -77.032606}, {"rental_uris": {"android": "https://dc.lft.to/lastmile_qr_scan", "ios": "https://dc.lft.to/lastmile_qr_scan"}, "is_reserved": 0, "is_disabled": 0, "bike_id": "b12de936b172b3a6e013c5e06e2e7b14", "lat": 38.915948666666665, "name": "b12de936b172b3a6e013c5e06e2e7b14", "fusion_lon": 0.0, "fusion_lat": 0.0, "type": "electric_scooter", "lon": -77.03518383333333}, {"rental_uris": {"android": "https://dc.lft.to/lastmile_qr_scan", "ios": "https://dc.lft.to/lastmile_qr_scan"}, "is_reserved": 0, "is_disabled": 0, "bike_id": "a80be63844d15b495bfb01156f954202", "lat": 38.84314966666667, "name": "a80be63844d15b495bfb01156f954202", "fusion_lon": 0.0, "fusion_lat": 0.0, "type": "electric_scooter", "lon": -76.99926716666667}, {"rental_uris": {"android": "https://dc.lft.to/lastmile_qr_scan", "ios": "https://dc.lft.to/lastmile_qr_scan"}, "is_reserved": 0, "is_disabled": 0, "bike_id": "7cdb40f6c8c750024c0d3b64f7566d83", "lat": 38.92280083333333, "name": "7cdb40f6c8c750024c0d3b64f7566d83", "fusion_lon": 0.0, "fusion_lat": 0.0, "type": "electric_scooter", "lon": -77.0363835}, {"rental_uris": {"android": "https://dc.lft.to/lastmile_qr_scan", "ios": "https://dc.lft.to/lastmile_qr_scan"}, "is_reserved": 0, "is_disabled": 0, "bike_id": "6c795c9974d78c736d21604f25bcffeb", "lat": 38.921524166666664, "name": "6c795c9974d78c736d21604f25bcffeb", "fusion_lon": 0.0, "fusion_lat": 0.0, "type": "electric_scooter", "lon": -77.01794316666667}, {"rental_uris": {"android": "https://dc.lft.to/lastmile_qr_scan", "ios": "https://dc.lft.to/lastmile_qr_scan"}, "is_reserved": 0, "is_disabled": 0, "bike_id": "af58993d8be300b0ce8006ce8d81aa47", "lat": 38.912214166666665, "name": "af58993d8be300b0ce8006ce8d81aa47", "fusion_lon": 0.0, "fusion_lat": 0.0, "type": "electric_scooter", "lon": -77.02797833333334}, {"rental_uris": {"android": "https://dc.lft.to/lastmile_qr_scan", "ios": "https://dc.lft.to/lastmile_qr_scan"}, "is_reserved": 0, "is_disabled": 0, "bike_id": "2f75790ed97f6bd48b3cd2d89ed13ae1", "lat": 38.906319833333335, "name": "2f75790ed97f6bd48b3cd2d89ed13ae1", "fusion_lon": 0.0, "fusion_lat": 0.0, "type": "electric_scooter", "lon": -77.05143016666666}, {"rental_uris": {"android": "https://dc.lft.to/lastmile_qr_scan", "ios": "https://dc.lft.to/lastmile_qr_scan"}, "is_reserved": 0, "is_disabled": 0, "bike_id": "574ebc75077a715e65919660cb6adfda", "lat": 38.9081575, "name": "574ebc75077a715e65919660cb6adfda", "fusion_lon": 0.0, "fusion_lat": 0.0, "type": "electric_scooter", "lon": -77.043261}, {"rental_uris": {"android": "https://dc.lft.to/lastmile_qr_scan", "ios": "https://dc.lft.to/lastmile_qr_scan"}, "is_reserved": 0, "is_disabled": 0, "bike_id": "2f2a762752ca4050911e5cd4462ee0ee", "lat": 38.926812166666664, "name": "2f2a762752ca4050911e5cd4462ee0ee", "fusion_lon": 0.0, "fusion_lat": 0.0, "type": "electric_scooter", "lon": -77.02670566666667}, {"rental_uris": {"android": "https://dc.lft.to/lastmile_qr_scan", "ios": "https://dc.lft.to/lastmile_qr_scan"}, "is_reserved": 0, "is_disabled": 0, "bike_id": "c4ad5f3bef56cdfa4eca8ba1877f1e0f", "lat": 38.87248, "name": "c4ad5f3bef56cdfa4eca8ba1877f1e0f", "fusion_lon": 0.0, "fusion_lat": 0.0, "type": "electric_scooter", "lon": -76.97727166666667}, {"rental_uris": {"android": "https://dc.lft.to/lastmile_qr_scan", "ios": "https://dc.lft.to/lastmile_qr_scan"}, "is_reserved": 0, "is_disabled": 0, "bike_id": "2e21efd9eb2247143392761f3fd719db", "lat": 38.93394833333333, "name": "2e21efd9eb2247143392761f3fd719db", "fusion_lon": 0.0, "fusion_lat": 0.0, "type": "electric_scooter", "lon": -77.022642}, {"rental_uris": {"android": "https://dc.lft.to/lastmile_qr_scan", "ios": "https://dc.lft.to/lastmile_qr_scan"}, "is_reserved": 0, "is_disabled": 0, "bike_id": "51768ba7e1eb3ed69d72e1f46702fce1", "lat": 38.892362, "name": "51768ba7e1eb3ed69d72e1f46702fce1", "fusion_lon": 0.0, "fusion_lat": 0.0, "type": "electric_scooter", "lon": -77.02380566666666}, {"rental_uris": {"android": "https://dc.lft.to/lastmile_qr_scan", "ios": "https://dc.lft.to/lastmile_qr_scan"}, "is_reserved": 0, "is_disabled": 0, "bike_id": "a6b40f004c90f841cce9dcf31326f0c8", "lat": 38.891718833333336, "name": "a6b40f004c90f841cce9dcf31326f0c8", "fusion_lon": 0.0, "fusion_lat": 0.0, "type": "electric_scooter", "lon": -77.015448}, {"rental_uris": {"android": "https://dc.lft.to/lastmile_qr_scan", "ios": "https://dc.lft.to/lastmile_qr_scan"}, "is_reserved": 0, "is_disabled": 0, "bike_id": "00ce7279019b2486e8871339aaed5f78", "lat": 38.897269, "name": "00ce7279019b2486e8871339aaed5f78", "fusion_lon": 0.0, "fusion_lat": 0.0, "type": "electric_scooter", "lon": -77.04348716666667}, {"rental_uris": {"android": "https://dc.lft.to/lastmile_qr_scan", "ios": "https://dc.lft.to/lastmile_qr_scan"}, "is_reserved": 0, "is_disabled": 0, "bike_id": "cadd5fdb1b51ce84a63838294f90cf13", "lat": 38.905354333333335, "name": "cadd5fdb1b51ce84a63838294f90cf13", "fusion_lon": 0.0, "fusion_lat": 0.0, "type": "electric_scooter", "lon": -77.04950966666667}, {"rental_uris": {"android": "https://dc.lft.to/lastmile_qr_scan", "ios": "https://dc.lft.to/lastmile_qr_scan"}, "is_reserved": 0, "is_disabled": 0, "bike_id": "1ba0bda0b736e7567d3a1323bada5d1a", "lat": 38.89329733333334, "name": "1ba0bda0b736e7567d3a1323bada5d1a", "fusion_lon": 0.0, "fusion_lat": 0.0, "type": "electric_scooter", "lon": -77.0466985}, {"rental_uris": {"android": "https://dc.lft.to/lastmile_qr_scan", "ios": "https://dc.lft.to/lastmile_qr_scan"}, "is_reserved": 0, "is_disabled": 0, "bike_id": "3c5164f6e0e7bacae688bf07fe0ff89b", "lat": 38.87557283333334, "name": "3c5164f6e0e7bacae688bf07fe0ff89b", "fusion_lon": 0.0, "fusion_lat": 0.0, "type": "electric_scooter", "lon": -77.0056675}, {"rental_uris": {"android": "https://dc.lft.to/lastmile_qr_scan", "ios": "https://dc.lft.to/lastmile_qr_scan"}, "is_reserved": 0, "is_disabled": 0, "bike_id": "3a625d8b23ede490a6a8a936dce13030", "lat": 38.89359566666667, "name": "3a625d8b23ede490a6a8a936dce13030", "fusion_lon": 0.0, "fusion_lat": 0.0, "type": "electric_scooter", "lon": -77.02218916666666}, {"rental_uris": {"android": "https://dc.lft.to/lastmile_qr_scan", "ios": "https://dc.lft.to/lastmile_qr_scan"}, "is_reserved": 0, "is_disabled": 0, "bike_id": "84f17974a9a79d5d6bfa64929043c049", "lat": 38.880692333333336, "name": "84f17974a9a79d5d6bfa64929043c049", "fusion_lon": 0.0, "fusion_lat": 0.0, "type": "electric_scooter", "lon": -76.93218733333333}, {"rental_uris": {"android": "https://dc.lft.to/lastmile_qr_scan", "ios": "https://dc.lft.to/lastmile_qr_scan"}, "is_reserved": 0, "is_disabled": 0, "bike_id": "dc46f1e24ff2666e5cec0976da312db0", "lat": 38.9960745, "name": "dc46f1e24ff2666e5cec0976da312db0", "fusion_lon": 0.0, "fusion_lat": 0.0, "type": "electric_scooter", "lon": -77.03215633333333}, {"rental_uris": {"android": "https://dc.lft.to/lastmile_qr_scan", "ios": "https://dc.lft.to/lastmile_qr_scan"}, "is_reserved": 0, "is_disabled": 0, "bike_id": "55e35bb60c840e9ba38edfc27448328e", "lat": 38.893374, "name": "55e35bb60c840e9ba38edfc27448328e", "fusion_lon": 0.0, "fusion_lat": 0.0, "type": "electric_scooter", "lon": -77.03171766666667}, {"rental_uris": {"android": "https://dc.lft.to/lastmile_qr_scan", "ios": "https://dc.lft.to/lastmile_qr_scan"}, "is_reserved": 0, "is_disabled": 0, "bike_id": "68a9038c95260ad76f5ae03c67cee2f1", "lat": 38.91415333333333, "name": "68a9038c95260ad76f5ae03c67cee2f1", "fusion_lon": 0.0, "fusion_lat": 0.0, "type": "electric_scooter", "lon": -77.0258595}, {"rental_uris": {"android": "https://dc.lft.to/lastmile_qr_scan", "ios": "https://dc.lft.to/lastmile_qr_scan"}, "is_reserved": 0, "is_disabled": 0, "bike_id": "ff6173d71c105a29c2dfc3391b54b782", "lat": 38.922718833333334, "name": "ff6173d71c105a29c2dfc3391b54b782", "fusion_lon": 0.0, "fusion_lat": 0.0, "type": "electric_scooter", "lon": -77.03412383333334}, {"rental_uris": {"android": "https://dc.lft.to/lastmile_qr_scan", "ios": "https://dc.lft.to/lastmile_qr_scan"}, "is_reserved": 0, "is_disabled": 0, "bike_id": "896775a9b30c6046e8797de226245bff", "lat": 38.90835233333333, "name": "896775a9b30c6046e8797de226245bff", "fusion_lon": 0.0, "fusion_lat": 0.0, "type": "electric_scooter", "lon": -76.99697533333334}, {"rental_uris": {"android": "https://dc.lft.to/lastmile_qr_scan", "ios": "https://dc.lft.to/lastmile_qr_scan"}, "is_reserved": 0, "is_disabled": 0, "bike_id": "eb10daf59a577f3e8e914e47abdbdca0", "lat": 38.9055925, "name": "eb10daf59a577f3e8e914e47abdbdca0", "fusion_lon": 0.0, "fusion_lat": 0.0, "type": "electric_scooter", "lon": -77.0427235}, {"rental_uris": {"android": "https://dc.lft.to/lastmile_qr_scan", "ios": "https://dc.lft.to/lastmile_qr_scan"}, "is_reserved": 0, "is_disabled": 0, "bike_id": "ddce575196bf7936afd79dd40792a1c3", "lat": 38.899337333333335, "name": "ddce575196bf7936afd79dd40792a1c3", "fusion_lon": 0.0, "fusion_lat": 0.0, "type": "electric_scooter", "lon": -76.98276583333333}, {"rental_uris": {"android": "https://dc.lft.to/lastmile_qr_scan", "ios": "https://dc.lft.to/lastmile_qr_scan"}, "is_reserved": 0, "is_disabled": 0, "bike_id": "e9cef0e504b81939857109d935d5b5b8", "lat": 38.90367366666667, "name": "e9cef0e504b81939857109d935d5b5b8", "fusion_lon": 0.0, "fusion_lat": 0.0, "type": "electric_scooter", "lon": -77.007303}, {"rental_uris": {"android": "https://dc.lft.to/lastmile_qr_scan", "ios": "https://dc.lft.to/lastmile_qr_scan"}, "is_reserved": 0, "is_disabled": 0, "bike_id": "6206e716b252b11027f89d5a5117982a", "lat": 38.915706666666665, "name": "6206e716b252b11027f89d5a5117982a", "fusion_lon": 0.0, "fusion_lat": 0.0, "type": "electric_scooter", "lon": -77.01196566666667}, {"rental_uris": {"android": "https://dc.lft.to/lastmile_qr_scan", "ios": "https://dc.lft.to/lastmile_qr_scan"}, "is_reserved": 0, "is_disabled": 0, "bike_id": "3ebda92cf967452bb8e42aad7383fb61", "lat": 38.93553983333334, "name": "3ebda92cf967452bb8e42aad7383fb61", "fusion_lon": 0.0, "fusion_lat": 0.0, "type": "electric_scooter", "lon": -77.022206}, {"rental_uris": {"android": "https://dc.lft.to/lastmile_qr_scan", "ios": "https://dc.lft.to/lastmile_qr_scan"}, "is_reserved": 0, "is_disabled": 0, "bike_id": "fc71ccd1c10a9962c5c9c6383fd3b012", "lat": 38.89601833333333, "name": "fc71ccd1c10a9962c5c9c6383fd3b012", "fusion_lon": 0.0, "fusion_lat": 0.0, "type": "electric_scooter", "lon": -77.05437}, {"rental_uris": {"android": "https://dc.lft.to/lastmile_qr_scan", "ios": "https://dc.lft.to/lastmile_qr_scan"}, "is_reserved": 0, "is_disabled": 0, "bike_id": "248e210e800005110c93d3da410aa8b7", "lat": 38.93227533333334, "name": "248e210e800005110c93d3da410aa8b7", "fusion_lon": 0.0, "fusion_lat": 0.0, "type": "electric_scooter", "lon": -77.02836933333333}, {"rental_uris": {"android": "https://dc.lft.to/lastmile_qr_scan", "ios": "https://dc.lft.to/lastmile_qr_scan"}, "is_reserved": 0, "is_disabled": 0, "bike_id": "3904d19607a7755cfada308719f311bb", "lat": 38.884312, "name": "3904d19607a7755cfada308719f311bb", "fusion_lon": 0.0, "fusion_lat": 0.0, "type": "electric_scooter", "lon": -77.02575416666667}, {"rental_uris": {"android": "https://dc.lft.to/lastmile_qr_scan", "ios": "https://dc.lft.to/lastmile_qr_scan"}, "is_reserved": 0, "is_disabled": 0, "bike_id": "a33a1c54340cd3ef21214e7809e62585", "lat": 38.8876415, "name": "a33a1c54340cd3ef21214e7809e62585", "fusion_lon": 0.0, "fusion_lat": 0.0, "type": "electric_bike", "lon": -76.90076766666667}, {"rental_uris": {"android": "https://dc.lft.to/lastmile_qr_scan", "ios": "https://dc.lft.to/lastmile_qr_scan"}, "is_reserved": 0, "is_disabled": 0, "bike_id": "2f2f66748894a55b44809ee006e7aaba", "lat": 38.807623, "name": "2f2f66748894a55b44809ee006e7aaba", "fusion_lon": 0.0, "fusion_lat": 0.0, "type": "electric_bike", "lon": -77.09465633333333}, {"rental_uris": {"android": "https://dc.lft.to/lastmile_qr_scan", "ios": "https://dc.lft.to/lastmile_qr_scan"}, "is_reserved": 0, "is_disabled": 0, "bike_id": "1e0fd3dc67602c4dfb896635c4fc6ea5", "lat": 38.921678, "name": "1e0fd3dc67602c4dfb896635c4fc6ea5", "fusion_lon": 0.0, "fusion_lat": 0.0, "type": "electric_scooter", "lon": -77.03261883333333}, {"rental_uris": {"android": "https://dc.lft.to/lastmile_qr_scan", "ios": "https://dc.lft.to/lastmile_qr_scan"}, "is_reserved": 0, "is_disabled": 0, "bike_id": "423ad2abf6bcc7e013bb80e2727c8044", "lat": 38.864262833333335, "name": "423ad2abf6bcc7e013bb80e2727c8044", "fusion_lon": 0.0, "fusion_lat": 0.0, "type": "electric_scooter", "lon": -76.97431533333334}, {"rental_uris": {"android": "https://dc.lft.to/lastmile_qr_scan", "ios": "https://dc.lft.to/lastmile_qr_scan"}, "is_reserved": 0, "is_disabled": 0, "bike_id": "82f3b488b05afbba7b328c15034f3dfb", "lat": 38.89236016666667, "name": "82f3b488b05afbba7b328c15034f3dfb", "fusion_lon": 0.0, "fusion_lat": 0.0, "type": "electric_scooter", "lon": -77.01269533333334}, {"rental_uris": {"android": "https://dc.lft.to/lastmile_qr_scan", "ios": "https://dc.lft.to/lastmile_qr_scan"}, "is_reserved": 0, "is_disabled": 0, "bike_id": "14e8497fac5101b57cf19ef93609d998", "lat": 38.905223, "name": "14e8497fac5101b57cf19ef93609d998", "fusion_lon": 0.0, "fusion_lat": 0.0, "type": "electric_scooter", "lon": -77.04131833333334}, {"rental_uris": {"android": "https://dc.lft.to/lastmile_qr_scan", "ios": "https://dc.lft.to/lastmile_qr_scan"}, "is_reserved": 0, "is_disabled": 0, "bike_id": "436bedb1761cec88f1c9b8c8293dfa6a", "lat": 38.914465, "name": "436bedb1761cec88f1c9b8c8293dfa6a", "fusion_lon": 0.0, "fusion_lat": 0.0, "type": "electric_scooter", "lon": -77.02196316666667}, {"rental_uris": {"android": "https://dc.lft.to/lastmile_qr_scan", "ios": "https://dc.lft.to/lastmile_qr_scan"}, "is_reserved": 0, "is_disabled": 0, "bike_id": "47d265e70a08fff25c7431d44555bf80", "lat": 38.924080833333335, "name": "47d265e70a08fff25c7431d44555bf80", "fusion_lon": 0.0, "fusion_lat": 0.0, "type": "electric_scooter", "lon": -77.03557566666667}, {"rental_uris": {"android": "https://dc.lft.to/lastmile_qr_scan", "ios": "https://dc.lft.to/lastmile_qr_scan"}, "is_reserved": 0, "is_disabled": 0, "bike_id": "e2840972e2058bfd9c700576c208511e", "lat": 38.91843733333333, "name": "e2840972e2058bfd9c700576c208511e", "fusion_lon": 0.0, "fusion_lat": 0.0, "type": "electric_scooter", "lon": -77.02306466666667}, {"rental_uris": {"android": "https://dc.lft.to/lastmile_qr_scan", "ios": "https://dc.lft.to/lastmile_qr_scan"}, "is_reserved": 0, "is_disabled": 0, "bike_id": "82183b05350e136731bb87939b122b63", "lat": 38.89478716666667, "name": "82183b05350e136731bb87939b122b63", "fusion_lon": 0.0, "fusion_lat": 0.0, "type": "electric_bike", "lon": -77.01105416666667}, {"rental_uris": {"android": "https://dc.lft.to/lastmile_qr_scan", "ios": "https://dc.lft.to/lastmile_qr_scan"}, "is_reserved": 0, "is_disabled": 0, "bike_id": "7f888ab20f97d54183662a3d3af47fd0", "lat": 38.90250666666667, "name": "7f888ab20f97d54183662a3d3af47fd0", "fusion_lon": 0.0, "fusion_lat": 0.0, "type": "electric_scooter", "lon": -77.04116533333334}, {"rental_uris": {"android": "https://dc.lft.to/lastmile_qr_scan", "ios": "https://dc.lft.to/lastmile_qr_scan"}, "is_reserved": 0, "is_disabled": 0, "bike_id": "5fb21bebfb324eb202782c4c32f6a485", "lat": 38.868833, "name": "5fb21bebfb324eb202782c4c32f6a485", "fusion_lon": 0.0, "fusion_lat": 0.0, "type": "electric_scooter", "lon": -76.98228316666666}, {"rental_uris": {"android": "https://dc.lft.to/lastmile_qr_scan", "ios": "https://dc.lft.to/lastmile_qr_scan"}, "is_reserved": 0, "is_disabled": 0, "bike_id": "4572e3f89ba6a7d533dc40b31400a97f", "lat": 38.8922525, "name": "4572e3f89ba6a7d533dc40b31400a97f", "fusion_lon": 0.0, "fusion_lat": 0.0, "type": "electric_scooter", "lon": -77.04332}, {"rental_uris": {"android": "https://dc.lft.to/lastmile_qr_scan", "ios": "https://dc.lft.to/lastmile_qr_scan"}, "is_reserved": 0, "is_disabled": 0, "bike_id": "8689d5b992c024b3cdc359224c77a535", "lat": 38.90148466666667, "name": "8689d5b992c024b3cdc359224c77a535", "fusion_lon": 0.0, "fusion_lat": 0.0, "type": "electric_scooter", "lon": -77.04463}, {"rental_uris": {"android": "https://dc.lft.to/lastmile_qr_scan", "ios": "https://dc.lft.to/lastmile_qr_scan"}, "is_reserved": 0, "is_disabled": 0, "bike_id": "f4a6c3461d398330592be8324d38f8c8", "lat": 38.916208833333336, "name": "f4a6c3461d398330592be8324d38f8c8", "fusion_lon": 0.0, "fusion_lat": 0.0, "type": "electric_scooter", "lon": -77.04831916666667}, {"rental_uris": {"android": "https://dc.lft.to/lastmile_qr_scan", "ios": "https://dc.lft.to/lastmile_qr_scan"}, "is_reserved": 0, "is_disabled": 0, "bike_id": "9289ae1760807509226cbb4e4260e21a", "lat": 38.87454416666667, "name": "9289ae1760807509226cbb4e4260e21a", "fusion_lon": 0.0, "fusion_lat": 0.0, "type": "electric_scooter", "lon": -77.008895}, {"rental_uris": {"android": "https://dc.lft.to/lastmile_qr_scan", "ios": "https://dc.lft.to/lastmile_qr_scan"}, "is_reserved": 0, "is_disabled": 0, "bike_id": "dea499a43beb813773a787d5a8f94b70", "lat": 38.9216455, "name": "dea499a43beb813773a787d5a8f94b70", "fusion_lon": 0.0, "fusion_lat": 0.0, "type": "electric_scooter", "lon": -77.04026516666667}, {"rental_uris": {"android": "https://dc.lft.to/lastmile_qr_scan", "ios": "https://dc.lft.to/lastmile_qr_scan"}, "is_reserved": 0, "is_disabled": 0, "bike_id": "12fc90db2c333f3fd12154c52c4cc3f2", "lat": 38.843157166666664, "name": "12fc90db2c333f3fd12154c52c4cc3f2", "fusion_lon": 0.0, "fusion_lat": 0.0, "type": "electric_scooter", "lon": -76.9993045}, {"rental_uris": {"android": "https://dc.lft.to/lastmile_qr_scan", "ios": "https://dc.lft.to/lastmile_qr_scan"}, "is_reserved": 0, "is_disabled": 0, "bike_id": "d5aff7d3a18421295e32c99a1ab7d1cf", "lat": 38.9266725, "name": "d5aff7d3a18421295e32c99a1ab7d1cf", "fusion_lon": 0.0, "fusion_lat": 0.0, "type": "electric_scooter", "lon": -77.02322683333334}, {"rental_uris": {"android": "https://dc.lft.to/lastmile_qr_scan", "ios": "https://dc.lft.to/lastmile_qr_scan"}, "is_reserved": 0, "is_disabled": 0, "bike_id": "e74a401dbc88fcc13cb54229df4cfed3", "lat": 38.898549333333335, "name": "e74a401dbc88fcc13cb54229df4cfed3", "fusion_lon": 0.0, "fusion_lat": 0.0, "type": "electric_scooter", "lon": -76.93054383333333}, {"rental_uris": {"android": "https://dc.lft.to/lastmile_qr_scan", "ios": "https://dc.lft.to/lastmile_qr_scan"}, "is_reserved": 0, "is_disabled": 0, "bike_id": "bba1a83add00cbbab405665fa82e25ee", "lat": 38.919912833333335, "name": "bba1a83add00cbbab405665fa82e25ee", "fusion_lon": 0.0, "fusion_lat": 0.0, "type": "electric_scooter", "lon": -77.032738}, {"rental_uris": {"android": "https://dc.lft.to/lastmile_qr_scan", "ios": "https://dc.lft.to/lastmile_qr_scan"}, "is_reserved": 0, "is_disabled": 0, "bike_id": "8f6a0d45cf3b5b1b586113dd56c24397", "lat": 38.86703266666667, "name": "8f6a0d45cf3b5b1b586113dd56c24397", "fusion_lon": 0.0, "fusion_lat": 0.0, "type": "electric_scooter", "lon": -76.98708833333333}, {"rental_uris": {"android": "https://dc.lft.to/lastmile_qr_scan", "ios": "https://dc.lft.to/lastmile_qr_scan"}, "is_reserved": 0, "is_disabled": 0, "bike_id": "942d186145cef67504e2e68fc5a4d749", "lat": 38.892238666666664, "name": "942d186145cef67504e2e68fc5a4d749", "fusion_lon": 0.0, "fusion_lat": 0.0, "type": "electric_scooter", "lon": -77.046376}, {"rental_uris": {"android": "https://dc.lft.to/lastmile_qr_scan", "ios": "https://dc.lft.to/lastmile_qr_scan"}, "is_reserved": 0, "is_disabled": 0, "bike_id": "2f3a71d380de04bdfb75a12ccfc57e39", "lat": 38.89729533333333, "name": "2f3a71d380de04bdfb75a12ccfc57e39", "fusion_lon": 0.0, "fusion_lat": 0.0, "type": "electric_scooter", "lon": -77.030631}, {"rental_uris": {"android": "https://dc.lft.to/lastmile_qr_scan", "ios": "https://dc.lft.to/lastmile_qr_scan"}, "is_reserved": 0, "is_disabled": 0, "bike_id": "76d4d01eed0121bc2a908eb340f8b408", "lat": 38.928634, "name": "76d4d01eed0121bc2a908eb340f8b408", "fusion_lon": 0.0, "fusion_lat": 0.0, "type": "electric_scooter", "lon": -77.0327615}, {"rental_uris": {"android": "https://dc.lft.to/lastmile_qr_scan", "ios": "https://dc.lft.to/lastmile_qr_scan"}, "is_reserved": 0, "is_disabled": 0, "bike_id": "68e61e238e709767326474459e121ac4", "lat": 38.902587833333335, "name": "68e61e238e709767326474459e121ac4", "fusion_lon": 0.0, "fusion_lat": 0.0, "type": "electric_scooter", "lon": -77.00163133333334}, {"rental_uris": {"android": "https://dc.lft.to/lastmile_qr_scan", "ios": "https://dc.lft.to/lastmile_qr_scan"}, "is_reserved": 0, "is_disabled": 0, "bike_id": "7ddd72255ca100f4ba999d93e4696fc2", "lat": 38.92321833333333, "name": "7ddd72255ca100f4ba999d93e4696fc2", "fusion_lon": 0.0, "fusion_lat": 0.0, "type": "electric_scooter", "lon": -77.04201266666666}, {"rental_uris": {"android": "https://dc.lft.to/lastmile_qr_scan", "ios": "https://dc.lft.to/lastmile_qr_scan"}, "is_reserved": 0, "is_disabled": 0, "bike_id": "52b7b8edbd2aafeb0f6dd15728c5a18b", "lat": 38.9310005, "name": "52b7b8edbd2aafeb0f6dd15728c5a18b", "fusion_lon": 0.0, "fusion_lat": 0.0, "type": "electric_scooter", "lon": -77.072798}, {"rental_uris": {"android": "https://dc.lft.to/lastmile_qr_scan", "ios": "https://dc.lft.to/lastmile_qr_scan"}, "is_reserved": 0, "is_disabled": 0, "bike_id": "d063c96ebb63813b53ed1f995f15451d", "lat": 38.928036166666665, "name": "d063c96ebb63813b53ed1f995f15451d", "fusion_lon": 0.0, "fusion_lat": 0.0, "type": "electric_scooter", "lon": -77.03360516666666}, {"rental_uris": {"android": "https://dc.lft.to/lastmile_qr_scan", "ios": "https://dc.lft.to/lastmile_qr_scan"}, "is_reserved": 0, "is_disabled": 0, "bike_id": "0dadf127387f3a3008b8fce5495867c1", "lat": 38.91114733333333, "name": "0dadf127387f3a3008b8fce5495867c1", "fusion_lon": 0.0, "fusion_lat": 0.0, "type": "electric_scooter", "lon": -77.04502216666667}, {"rental_uris": {"android": "https://dc.lft.to/lastmile_qr_scan", "ios": "https://dc.lft.to/lastmile_qr_scan"}, "is_reserved": 0, "is_disabled": 0, "bike_id": "211d5455c5ff3c9b72f958b64f1453c9", "lat": 38.8873895, "name": "211d5455c5ff3c9b72f958b64f1453c9", "fusion_lon": 0.0, "fusion_lat": 0.0, "type": "electric_scooter", "lon": -77.02214916666667}, {"rental_uris": {"android": "https://dc.lft.to/lastmile_qr_scan", "ios": "https://dc.lft.to/lastmile_qr_scan"}, "is_reserved": 0, "is_disabled": 0, "bike_id": "8422f249a652c853aa822786cd820273", "lat": 38.91519683333333, "name": "8422f249a652c853aa822786cd820273", "fusion_lon": 0.0, "fusion_lat": 0.0, "type": "electric_scooter", "lon": -77.05492383333333}, {"rental_uris": {"android": "https://dc.lft.to/lastmile_qr_scan", "ios": "https://dc.lft.to/lastmile_qr_scan"}, "is_reserved": 0, "is_disabled": 0, "bike_id": "2452211688af23e6b5217821dee0da93", "lat": 38.906749833333336, "name": "2452211688af23e6b5217821dee0da93", "fusion_lon": 0.0, "fusion_lat": 0.0, "type": "electric_scooter", "lon": -77.07018316666667}, {"rental_uris": {"android": "https://dc.lft.to/lastmile_qr_scan", "ios": "https://dc.lft.to/lastmile_qr_scan"}, "is_reserved": 0, "is_disabled": 0, "bike_id": "746a79abbcac342186c1b84e5e7bdb94", "lat": 38.89018433333333, "name": "746a79abbcac342186c1b84e5e7bdb94", "fusion_lon": 0.0, "fusion_lat": 0.0, "type": "electric_scooter", "lon": -76.93730266666667}, {"rental_uris": {"android": "https://dc.lft.to/lastmile_qr_scan", "ios": "https://dc.lft.to/lastmile_qr_scan"}, "is_reserved": 0, "is_disabled": 0, "bike_id": "51297348cb3a6e77737924953c85440e", "lat": 38.923783666666665, "name": "51297348cb3a6e77737924953c85440e", "fusion_lon": 0.0, "fusion_lat": 0.0, "type": "electric_scooter", "lon": -77.0515035}, {"rental_uris": {"android": "https://dc.lft.to/lastmile_qr_scan", "ios": "https://dc.lft.to/lastmile_qr_scan"}, "is_reserved": 0, "is_disabled": 0, "bike_id": "1f053fd7cc0354109ad339cb74b65c10", "lat": 38.878440833333336, "name": "1f053fd7cc0354109ad339cb74b65c10", "fusion_lon": 0.0, "fusion_lat": 0.0, "type": "electric_scooter", "lon": -76.931507}, {"rental_uris": {"android": "https://dc.lft.to/lastmile_qr_scan", "ios": "https://dc.lft.to/lastmile_qr_scan"}, "is_reserved": 0, "is_disabled": 0, "bike_id": "cbf3c4b0d1939f4fb678ef7e6c0267c6", "lat": 38.90460133333333, "name": "cbf3c4b0d1939f4fb678ef7e6c0267c6", "fusion_lon": 0.0, "fusion_lat": 0.0, "type": "electric_scooter", "lon": -77.04368566666666}, {"rental_uris": {"android": "https://dc.lft.to/lastmile_qr_scan", "ios": "https://dc.lft.to/lastmile_qr_scan"}, "is_reserved": 0, "is_disabled": 0, "bike_id": "312e35f48f2c4926ffcb05d427b7d07a", "lat": 38.9324895, "name": "312e35f48f2c4926ffcb05d427b7d07a", "fusion_lon": 0.0, "fusion_lat": 0.0, "type": "electric_scooter", "lon": -77.03102133333333}, {"rental_uris": {"android": "https://dc.lft.to/lastmile_qr_scan", "ios": "https://dc.lft.to/lastmile_qr_scan"}, "is_reserved": 0, "is_disabled": 0, "bike_id": "fcc7841c07d1bab2f983a1b28a0b14bf", "lat": 38.917883, "name": "fcc7841c07d1bab2f983a1b28a0b14bf", "fusion_lon": 0.0, "fusion_lat": 0.0, "type": "electric_scooter", "lon": -77.06952733333334}, {"rental_uris": {"android": "https://dc.lft.to/lastmile_qr_scan", "ios": "https://dc.lft.to/lastmile_qr_scan"}, "is_reserved": 0, "is_disabled": 0, "bike_id": "3557c542ca63fce4f448029319cedf3c", "lat": 38.93131066666667, "name": "3557c542ca63fce4f448029319cedf3c", "fusion_lon": 0.0, "fusion_lat": 0.0, "type": "electric_scooter", "lon": -77.038752}, {"rental_uris": {"android": "https://dc.lft.to/lastmile_qr_scan", "ios": "https://dc.lft.to/lastmile_qr_scan"}, "is_reserved": 0, "is_disabled": 0, "bike_id": "82ba33ece1fb5d44a12653ccaff3fb13", "lat": 38.91653266666667, "name": "82ba33ece1fb5d44a12653ccaff3fb13", "fusion_lon": 0.0, "fusion_lat": 0.0, "type": "electric_scooter", "lon": -77.0415495}, {"rental_uris": {"android": "https://dc.lft.to/lastmile_qr_scan", "ios": "https://dc.lft.to/lastmile_qr_scan"}, "is_reserved": 0, "is_disabled": 0, "bike_id": "144ced29f1585bb2ab15ff6ce1d14312", "lat": 38.8973485, "name": "144ced29f1585bb2ab15ff6ce1d14312", "fusion_lon": 0.0, "fusion_lat": 0.0, "type": "electric_scooter", "lon": -77.00773733333334}, {"rental_uris": {"android": "https://dc.lft.to/lastmile_qr_scan", "ios": "https://dc.lft.to/lastmile_qr_scan"}, "is_reserved": 0, "is_disabled": 0, "bike_id": "49222730f7cf2d749a5dfc6fa9df0e8e", "lat": 38.92171316666666, "name": "49222730f7cf2d749a5dfc6fa9df0e8e", "fusion_lon": 0.0, "fusion_lat": 0.0, "type": "electric_scooter", "lon": -77.020237}, {"rental_uris": {"android": "https://dc.lft.to/lastmile_qr_scan", "ios": "https://dc.lft.to/lastmile_qr_scan"}, "is_reserved": 0, "is_disabled": 0, "bike_id": "fe473eec75ae8260227fa45316172ec6", "lat": 38.92831316666667, "name": "fe473eec75ae8260227fa45316172ec6", "fusion_lon": 0.0, "fusion_lat": 0.0, "type": "electric_scooter", "lon": -77.03706633333333}, {"rental_uris": {"android": "https://dc.lft.to/lastmile_qr_scan", "ios": "https://dc.lft.to/lastmile_qr_scan"}, "is_reserved": 0, "is_disabled": 0, "bike_id": "76383f2a9798ecf467ebdf9a5c6a8cae", "lat": 38.884981333333336, "name": "76383f2a9798ecf467ebdf9a5c6a8cae", "fusion_lon": 0.0, "fusion_lat": 0.0, "type": "electric_scooter", "lon": -77.00726983333334}, {"rental_uris": {"android": "https://dc.lft.to/lastmile_qr_scan", "ios": "https://dc.lft.to/lastmile_qr_scan"}, "is_reserved": 0, "is_disabled": 0, "bike_id": "b3572ab30f9dd1b9373fa0b4ba97c5cb", "lat": 38.9515825, "name": "b3572ab30f9dd1b9373fa0b4ba97c5cb", "fusion_lon": 0.0, "fusion_lat": 0.0, "type": "electric_bike", "lon": -77.01283216666667}, {"rental_uris": {"android": "https://dc.lft.to/lastmile_qr_scan", "ios": "https://dc.lft.to/lastmile_qr_scan"}, "is_reserved": 0, "is_disabled": 0, "bike_id": "4d18a0c4e483b54f9b25a2fba9bcdbaf", "lat": 38.9836395, "name": "4d18a0c4e483b54f9b25a2fba9bcdbaf", "fusion_lon": 0.0, "fusion_lat": 0.0, "type": "electric_bike", "lon": -76.97208766666667}, {"rental_uris": {"android": "https://dc.lft.to/lastmile_qr_scan", "ios": "https://dc.lft.to/lastmile_qr_scan"}, "is_reserved": 0, "is_disabled": 0, "bike_id": "fab54e8b3ce2dff72415625353d65fb5", "lat": 38.89173366666667, "name": "fab54e8b3ce2dff72415625353d65fb5", "fusion_lon": 0.0, "fusion_lat": 0.0, "type": "electric_scooter", "lon": -77.01548566666666}, {"rental_uris": {"android": "https://dc.lft.to/lastmile_qr_scan", "ios": "https://dc.lft.to/lastmile_qr_scan"}, "is_reserved": 0, "is_disabled": 0, "bike_id": "ec6293f70c66be8618157be80595841f", "lat": 38.89836566666666, "name": "ec6293f70c66be8618157be80595841f", "fusion_lon": 0.0, "fusion_lat": 0.0, "type": "electric_scooter", "lon": -76.94631833333334}, {"rental_uris": {"android": "https://dc.lft.to/lastmile_qr_scan", "ios": "https://dc.lft.to/lastmile_qr_scan"}, "is_reserved": 0, "is_disabled": 0, "bike_id": "094b7f7da09f5602eade8176205d2abc", "lat": 38.918740666666665, "name": "094b7f7da09f5602eade8176205d2abc", "fusion_lon": 0.0, "fusion_lat": 0.0, "type": "electric_bike", "lon": -77.03655166666667}, {"rental_uris": {"android": "https://dc.lft.to/lastmile_qr_scan", "ios": "https://dc.lft.to/lastmile_qr_scan"}, "is_reserved": 0, "is_disabled": 0, "bike_id": "bc06a3d38f60a2b9be9640cf153ed399", "lat": 38.94633266666666, "name": "bc06a3d38f60a2b9be9640cf153ed399", "fusion_lon": 0.0, "fusion_lat": 0.0, "type": "electric_scooter", "lon": -77.0184195}, {"rental_uris": {"android": "https://dc.lft.to/lastmile_qr_scan", "ios": "https://dc.lft.to/lastmile_qr_scan"}, "is_reserved": 0, "is_disabled": 0, "bike_id": "ca8cac128bca5728f9add4d56c13806f", "lat": 38.929652833333336, "name": "ca8cac128bca5728f9add4d56c13806f", "fusion_lon": 0.0, "fusion_lat": 0.0, "type": "electric_bike", "lon": -77.1856155}, {"rental_uris": {"android": "https://dc.lft.to/lastmile_qr_scan", "ios": "https://dc.lft.to/lastmile_qr_scan"}, "is_reserved": 0, "is_disabled": 0, "bike_id": "870bd862fad4337cda42e84631bc775f", "lat": 38.953299333333334, "name": "870bd862fad4337cda42e84631bc775f", "fusion_lon": 0.0, "fusion_lat": 0.0, "type": "electric_bike", "lon": -76.9823925}, {"rental_uris": {"android": "https://dc.lft.to/lastmile_qr_scan", "ios": "https://dc.lft.to/lastmile_qr_scan"}, "is_reserved": 0, "is_disabled": 0, "bike_id": "7e75ac992b552a121569d314dfd311cc", "lat": 38.954403, "name": "7e75ac992b552a121569d314dfd311cc", "fusion_lon": 0.0, "fusion_lat": 0.0, "type": "electric_bike", "lon": -76.9891125}, {"rental_uris": {"android": "https://dc.lft.to/lastmile_qr_scan", "ios": "https://dc.lft.to/lastmile_qr_scan"}, "is_reserved": 0, "is_disabled": 0, "bike_id": "3f61b6ff2639140cf9b5e8407e23e1a8", "lat": 39.0550125, "name": "3f61b6ff2639140cf9b5e8407e23e1a8", "fusion_lon": 0.0, "fusion_lat": 0.0, "type": "electric_bike", "lon": -77.04646233333334}, {"rental_uris": {"android": "https://dc.lft.to/lastmile_qr_scan", "ios": "https://dc.lft.to/lastmile_qr_scan"}, "is_reserved": 0, "is_disabled": 0, "bike_id": "d43f69f13d472ecb018c8f509cdb5b26", "lat": 38.931688666666666, "name": "d43f69f13d472ecb018c8f509cdb5b26", "fusion_lon": 0.0, "fusion_lat": 0.0, "type": "electric_bike", "lon": -76.88397383333333}, {"rental_uris": {"android": "https://dc.lft.to/lastmile_qr_scan", "ios": "https://dc.lft.to/lastmile_qr_scan"}, "is_reserved": 0, "is_disabled": 0, "bike_id": "5c1b5250481050a3ca7498287495bbf9", "lat": 38.89904533333333, "name": "5c1b5250481050a3ca7498287495bbf9", "fusion_lon": 0.0, "fusion_lat": 0.0, "type": "electric_scooter", "lon": -77.03948316666667}, {"rental_uris": {"android": "https://dc.lft.to/lastmile_qr_scan", "ios": "https://dc.lft.to/lastmile_qr_scan"}, "is_reserved": 0, "is_disabled": 0, "bike_id": "7c0f5c0bcff8e6c740663108208f4aea", "lat": 38.9273415, "name": "7c0f5c0bcff8e6c740663108208f4aea", "fusion_lon": 0.0, "fusion_lat": 0.0, "type": "electric_scooter", "lon": -77.05244466666667}, {"rental_uris": {"android": "https://dc.lft.to/lastmile_qr_scan", "ios": "https://dc.lft.to/lastmile_qr_scan"}, "is_reserved": 0, "is_disabled": 0, "bike_id": "63b2b0a843fa93da4215e8b4d45dacae", "lat": 38.921987666666666, "name": "63b2b0a843fa93da4215e8b4d45dacae", "fusion_lon": 0.0, "fusion_lat": 0.0, "type": "electric_scooter", "lon": -77.02986366666667}, {"rental_uris": {"android": "https://dc.lft.to/lastmile_qr_scan", "ios": "https://dc.lft.to/lastmile_qr_scan"}, "is_reserved": 0, "is_disabled": 0, "bike_id": "1390e9f70e77643f63e94c4bc8eab886", "lat": 38.91408633333333, "name": "1390e9f70e77643f63e94c4bc8eab886", "fusion_lon": 0.0, "fusion_lat": 0.0, "type": "electric_scooter", "lon": -77.04799216666666}, {"rental_uris": {"android": "https://dc.lft.to/lastmile_qr_scan", "ios": "https://dc.lft.to/lastmile_qr_scan"}, "is_reserved": 0, "is_disabled": 0, "bike_id": "7485b0bcbe41ba3df9524ea4f6ed5a10", "lat": 38.911871833333336, "name": "7485b0bcbe41ba3df9524ea4f6ed5a10", "fusion_lon": 0.0, "fusion_lat": 0.0, "type": "electric_scooter", "lon": -77.0445175}, {"rental_uris": {"android": "https://dc.lft.to/lastmile_qr_scan", "ios": "https://dc.lft.to/lastmile_qr_scan"}, "is_reserved": 0, "is_disabled": 0, "bike_id": "4127946187d2de69e7485aa2d9f3eb3f", "lat": 38.923741666666665, "name": "4127946187d2de69e7485aa2d9f3eb3f", "fusion_lon": 0.0, "fusion_lat": 0.0, "type": "electric_scooter", "lon": -77.0291735}, {"rental_uris": {"android": "https://dc.lft.to/lastmile_qr_scan", "ios": "https://dc.lft.to/lastmile_qr_scan"}, "is_reserved": 0, "is_disabled": 0, "bike_id": "5061624cf9caaf6030bd22f4c0c5bf75", "lat": 38.9266325, "name": "5061624cf9caaf6030bd22f4c0c5bf75", "fusion_lon": 0.0, "fusion_lat": 0.0, "type": "electric_scooter", "lon": -77.0552905}, {"rental_uris": {"android": "https://dc.lft.to/lastmile_qr_scan", "ios": "https://dc.lft.to/lastmile_qr_scan"}, "is_reserved": 0, "is_disabled": 0, "bike_id": "2d725952ccc55800db95a048d012233f", "lat": 38.8788305, "name": "2d725952ccc55800db95a048d012233f", "fusion_lon": 0.0, "fusion_lat": 0.0, "type": "electric_scooter", "lon": -77.0230785}, {"rental_uris": {"android": "https://dc.lft.to/lastmile_qr_scan", "ios": "https://dc.lft.to/lastmile_qr_scan"}, "is_reserved": 0, "is_disabled": 0, "bike_id": "13b2a2e251fc11337b574e8275675e30", "lat": 38.884063833333336, "name": "13b2a2e251fc11337b574e8275675e30", "fusion_lon": 0.0, "fusion_lat": 0.0, "type": "electric_bike", "lon": -76.96050683333333}, {"rental_uris": {"android": "https://dc.lft.to/lastmile_qr_scan", "ios": "https://dc.lft.to/lastmile_qr_scan"}, "is_reserved": 0, "is_disabled": 0, "bike_id": "ede24e2f502aaaecc2a7e357d99cfb3c", "lat": 38.924222666666665, "name": "ede24e2f502aaaecc2a7e357d99cfb3c", "fusion_lon": 0.0, "fusion_lat": 0.0, "type": "electric_scooter", "lon": -77.01948566666667}, {"rental_uris": {"android": "https://dc.lft.to/lastmile_qr_scan", "ios": "https://dc.lft.to/lastmile_qr_scan"}, "is_reserved": 0, "is_disabled": 0, "bike_id": "0fb5cfd75af13dc920289627cb702fb0", "lat": 38.888665333333336, "name": "0fb5cfd75af13dc920289627cb702fb0", "fusion_lon": 0.0, "fusion_lat": 0.0, "type": "electric_scooter", "lon": -76.982354}, {"rental_uris": {"android": "https://dc.lft.to/lastmile_qr_scan", "ios": "https://dc.lft.to/lastmile_qr_scan"}, "is_reserved": 0, "is_disabled": 0, "bike_id": "d5f18e091ee45b9756e65b8659e071b3", "lat": 38.894874333333334, "name": "d5f18e091ee45b9756e65b8659e071b3", "fusion_lon": 0.0, "fusion_lat": 0.0, "type": "electric_scooter", "lon": -77.00293383333333}, {"rental_uris": {"android": "https://dc.lft.to/lastmile_qr_scan", "ios": "https://dc.lft.to/lastmile_qr_scan"}, "is_reserved": 0, "is_disabled": 0, "bike_id": "8fc8ad7cdf34925024cb6f06d5697e30", "lat": 38.923576833333335, "name": "8fc8ad7cdf34925024cb6f06d5697e30", "fusion_lon": 0.0, "fusion_lat": 0.0, "type": "electric_scooter", "lon": -77.02054866666667}, {"rental_uris": {"android": "https://dc.lft.to/lastmile_qr_scan", "ios": "https://dc.lft.to/lastmile_qr_scan"}, "is_reserved": 0, "is_disabled": 0, "bike_id": "e5bdf813ce84e9b390b80cf9b3c3a860", "lat": 38.92380083333333, "name": "e5bdf813ce84e9b390b80cf9b3c3a860", "fusion_lon": 0.0, "fusion_lat": 0.0, "type": "electric_scooter", "lon": -77.05052016666667}, {"rental_uris": {"android": "https://dc.lft.to/lastmile_qr_scan", "ios": "https://dc.lft.to/lastmile_qr_scan"}, "is_reserved": 0, "is_disabled": 0, "bike_id": "0c57b4195ab005fd3fb8b6193a5f68f6", "lat": 38.885395, "name": "0c57b4195ab005fd3fb8b6193a5f68f6", "fusion_lon": 0.0, "fusion_lat": 0.0, "type": "electric_scooter", "lon": -77.02178066666667}, {"rental_uris": {"android": "https://dc.lft.to/lastmile_qr_scan", "ios": "https://dc.lft.to/lastmile_qr_scan"}, "is_reserved": 0, "is_disabled": 0, "bike_id": "e3d254680b651d6b41ed2e78930b921d", "lat": 38.8736535, "name": "e3d254680b651d6b41ed2e78930b921d", "fusion_lon": 0.0, "fusion_lat": 0.0, "type": "electric_scooter", "lon": -76.97014366666667}, {"rental_uris": {"android": "https://dc.lft.to/lastmile_qr_scan", "ios": "https://dc.lft.to/lastmile_qr_scan"}, "is_reserved": 0, "is_disabled": 0, "bike_id": "639ddcfc0b377d5496ccc60f8973f790", "lat": 38.92710266666667, "name": "639ddcfc0b377d5496ccc60f8973f790", "fusion_lon": 0.0, "fusion_lat": 0.0, "type": "electric_scooter", "lon": -77.02406416666666}, {"rental_uris": {"android": "https://dc.lft.to/lastmile_qr_scan", "ios": "https://dc.lft.to/lastmile_qr_scan"}, "is_reserved": 0, "is_disabled": 0, "bike_id": "02d6f1cc118c0ebedc7875cfdbefd46e", "lat": 38.897675166666666, "name": "02d6f1cc118c0ebedc7875cfdbefd46e", "fusion_lon": 0.0, "fusion_lat": 0.0, "type": "electric_scooter", "lon": -77.05142033333334}, {"rental_uris": {"android": "https://dc.lft.to/lastmile_qr_scan", "ios": "https://dc.lft.to/lastmile_qr_scan"}, "is_reserved": 0, "is_disabled": 0, "bike_id": "0dd551fc76453641e56a1e5766684aad", "lat": 38.9063925, "name": "0dd551fc76453641e56a1e5766684aad", "fusion_lon": 0.0, "fusion_lat": 0.0, "type": "electric_scooter", "lon": -77.051136}, {"rental_uris": {"android": "https://dc.lft.to/lastmile_qr_scan", "ios": "https://dc.lft.to/lastmile_qr_scan"}, "is_reserved": 0, "is_disabled": 0, "bike_id": "e8dbac020b2afec99c04643f36b0ac31", "lat": 38.89227283333334, "name": "e8dbac020b2afec99c04643f36b0ac31", "fusion_lon": 0.0, "fusion_lat": 0.0, "type": "electric_scooter", "lon": -77.02727016666667}, {"rental_uris": {"android": "https://dc.lft.to/lastmile_qr_scan", "ios": "https://dc.lft.to/lastmile_qr_scan"}, "is_reserved": 0, "is_disabled": 0, "bike_id": "e0eec0df734a26149cdd956033e5295e", "lat": 38.95933766666667, "name": "e0eec0df734a26149cdd956033e5295e", "fusion_lon": 0.0, "fusion_lat": 0.0, "type": "electric_scooter", "lon": -77.03120583333333}, {"rental_uris": {"android": "https://dc.lft.to/lastmile_qr_scan", "ios": "https://dc.lft.to/lastmile_qr_scan"}, "is_reserved": 0, "is_disabled": 0, "bike_id": "825aa123884689c7f226110a07dcc214", "lat": 38.9316915, "name": "825aa123884689c7f226110a07dcc214", "fusion_lon": 0.0, "fusion_lat": 0.0, "type": "electric_scooter", "lon": -77.0285085}, {"rental_uris": {"android": "https://dc.lft.to/lastmile_qr_scan", "ios": "https://dc.lft.to/lastmile_qr_scan"},