{"data": {"bikes": [{"lat": 38.93882133333334, "fusion_lat": 0.0, "type": "electric_scooter", "bike_id": "1f096959cc59a8ba491e3a47f0bd480e", "rental_uris": {"ios": "https://dc.lft.to/lastmile_qr_scan", "android": "https://dc.lft.to/lastmile_qr_scan"}, "fusion_lon": 0.0, "lon": -77.02485733333333, "name": "1f096959cc59a8ba491e3a47f0bd480e", "is_reserved": 0, "is_disabled": 0}, {"lat": 38.93100316666667, "fusion_lat": 0.0, "type": "electric_scooter", "bike_id": "43497e8d517bc1cbe43b750ebf435161", "rental_uris": {"ios": "https://dc.lft.to/lastmile_qr_scan", "android": "https://dc.lft.to/lastmile_qr_scan"}, "fusion_lon": 0.0, "lon": -77.02658883333334, "name": "43497e8d517bc1cbe43b750ebf435161", "is_reserved": 0, "is_disabled": 0}, {"lat": 38.913555333333335, "fusion_lat": 0.0, "type": "electric_scooter", "bike_id": "c22fc92df1787052915352dcffad76ef", "rental_uris": {"ios": "https://dc.lft.to/lastmile_qr_scan", "android": "https://dc.lft.to/lastmile_qr_scan"}, "fusion_lon": 0.0, "lon": -77.0434655, "name": "c22fc92df1787052915352dcffad76ef", "is_reserved": 0, "is_disabled": 0}, {"lat": 38.914182333333336, "fusion_lat": 0.0, "type": "electric_scooter", "bike_id": "853fcb9eefb401ca665774439b791357", "rental_uris": {"ios": "https://dc.lft.to/lastmile_qr_scan", "android": "https://dc.lft.to/lastmile_qr_scan"}, "fusion_lon": 0.0, "lon": -77.022387, "name": "853fcb9eefb401ca665774439b791357", "is_reserved": 0, "is_disabled": 0}, {"lat": 38.89632683333333, "fusion_lat": 0.0, "type": "electric_scooter", "bike_id": "8eb8fe846baff444cdf92af934e5e0ec", "rental_uris": {"ios": "https://dc.lft.to/lastmile_qr_scan", "android": "https://dc.lft.to/lastmile_qr_scan"}, "fusion_lon": 0.0, "lon": -77.0237395, "name": "8eb8fe846baff444cdf92af934e5e0ec", "is_reserved": 0, "is_disabled": 0}, {"lat": 38.9187285, "fusion_lat": 0.0, "type": "electric_scooter", "bike_id": "a500924014fb8a25eb6b980709142f09", "rental_uris": {"ios": "https://dc.lft.to/lastmile_qr_scan", "android": "https://dc.lft.to/lastmile_qr_scan"}, "fusion_lon": 0.0, "lon": -77.0476915, "name": "a500924014fb8a25eb6b980709142f09", "is_reserved": 0, "is_disabled": 0}, {"lat": 38.934338833333335, "fusion_lat": 0.0, "type": "electric_scooter", "bike_id": "4c71d43fffa88d58a914614658f08382", "rental_uris": {"ios": "https://dc.lft.to/lastmile_qr_scan", "android": "https://dc.lft.to/lastmile_qr_scan"}, "fusion_lon": 0.0, "lon": -77.04536833333333, "name": "4c71d43fffa88d58a914614658f08382", "is_reserved": 0, "is_disabled": 0}, {"lat": 38.903907, "fusion_lat": 0.0, "type": "electric_scooter", "bike_id": "2fdb48fb7ec5f1c1ddf94642b7abaf2a", "rental_uris": {"ios": "https://dc.lft.to/lastmile_qr_scan", "android": "https://dc.lft.to/lastmile_qr_scan"}, "fusion_lon": 0.0, "lon": -77.0535045, "name": "2fdb48fb7ec5f1c1ddf94642b7abaf2a", "is_reserved": 0, "is_disabled": 0}, {"lat": 38.956788333333336, "fusion_lat": 0.0, "type": "electric_scooter", "bike_id": "428b909791c0c47611fd38bd548f2d23", "rental_uris": {"ios": "https://dc.lft.to/lastmile_qr_scan", "android": "https://dc.lft.to/lastmile_qr_scan"}, "fusion_lon": 0.0, "lon": -77.01359416666666, "name": "428b909791c0c47611fd38bd548f2d23", "is_reserved": 0, "is_disabled": 0}, {"lat": 38.9362975, "fusion_lat": 0.0, "type": "electric_scooter", "bike_id": "020e5b0e42916cbb98c5dc9a417af0ef", "rental_uris": {"ios": "https://dc.lft.to/lastmile_qr_scan", "android": "https://dc.lft.to/lastmile_qr_scan"}, "fusion_lon": 0.0, "lon": -77.05879266666666, "name": "020e5b0e42916cbb98c5dc9a417af0ef", "is_reserved": 0, "is_disabled": 0}, {"lat": 38.876598, "fusion_lat": 0.0, "type": "electric_scooter", "bike_id": "bad6bb0ba5ba521dfc1afb8e142b0368", "rental_uris": {"ios": "https://dc.lft.to/lastmile_qr_scan", "android": "https://dc.lft.to/lastmile_qr_scan"}, "fusion_lon": 0.0, "lon": -77.00312033333333, "name": "bad6bb0ba5ba521dfc1afb8e142b0368", "is_reserved": 0, "is_disabled": 0}, {"lat": 38.941976833333335, "fusion_lat": 0.0, "type": "electric_scooter", "bike_id": "826c9f5f9072ab94fab009c61ac86e0c", "rental_uris": {"ios": "https://dc.lft.to/lastmile_qr_scan", "android": "https://dc.lft.to/lastmile_qr_scan"}, "fusion_lon": 0.0, "lon": -77.0247595, "name": "826c9f5f9072ab94fab009c61ac86e0c", "is_reserved": 0, "is_disabled": 0}, {"lat": 38.873969833333334, "fusion_lat": 0.0, "type": "electric_scooter", "bike_id": "ce6de3f400d6ff7da135708ab8bef76e", "rental_uris": {"ios": "https://dc.lft.to/lastmile_qr_scan", "android": "https://dc.lft.to/lastmile_qr_scan"}, "fusion_lon": 0.0, "lon": -77.00027583333333, "name": "ce6de3f400d6ff7da135708ab8bef76e", "is_reserved": 0, "is_disabled": 0}, {"lat": 38.92886433333334, "fusion_lat": 0.0, "type": "electric_scooter", "bike_id": "68ea5d430eb82ba5e4e8a579709c0c24", "rental_uris": {"ios": "https://dc.lft.to/lastmile_qr_scan", "android": "https://dc.lft.to/lastmile_qr_scan"}, "fusion_lon": 0.0, "lon": -77.03283883333333, "name": "68ea5d430eb82ba5e4e8a579709c0c24", "is_reserved": 0, "is_disabled": 0}, {"lat": 38.918324, "fusion_lat": 0.0, "type": "electric_scooter", "bike_id": "c7437ec6b838c5c1f0688bc8bee16a6b", "rental_uris": {"ios": "https://dc.lft.to/lastmile_qr_scan", "android": "https://dc.lft.to/lastmile_qr_scan"}, "fusion_lon": 0.0, "lon": -77.0230095, "name": "c7437ec6b838c5c1f0688bc8bee16a6b", "is_reserved": 0, "is_disabled": 0}, {"lat": 38.875477833333335, "fusion_lat": 0.0, "type": "electric_scooter", "bike_id": "7775e33c0b7498ca45559f1342d9e83c", "rental_uris": {"ios": "https://dc.lft.to/lastmile_qr_scan", "android": "https://dc.lft.to/lastmile_qr_scan"}, "fusion_lon": 0.0, "lon": -77.00535966666666, "name": "7775e33c0b7498ca45559f1342d9e83c", "is_reserved": 0, "is_disabled": 0}, {"lat": 38.873841166666665, "fusion_lat": 0.0, "type": "electric_scooter", "bike_id": "7bce2b4966fa0c88b4adc289248bf10b", "rental_uris": {"ios": "https://dc.lft.to/lastmile_qr_scan", "android": "https://dc.lft.to/lastmile_qr_scan"}, "fusion_lon": 0.0, "lon": -77.00165483333333, "name": "7bce2b4966fa0c88b4adc289248bf10b", "is_reserved": 0, "is_disabled": 0}, {"lat": 39.01417166666667, "fusion_lat": 0.0, "type": "electric_bike", "bike_id": "6ea1df0196b2fa33777af63f83a6dda8", "rental_uris": {"ios": "https://dc.lft.to/lastmile_qr_scan", "android": "https://dc.lft.to/lastmile_qr_scan"}, "fusion_lon": 0.0, "lon": -77.04496266666666, "name": "6ea1df0196b2fa33777af63f83a6dda8", "is_reserved": 0, "is_disabled": 0}, {"lat": 38.91694233333333, "fusion_lat": 0.0, "type": "electric_scooter", "bike_id": "5b0ef7aa078b6e3ee6fd445e6586dcfe", "rental_uris": {"ios": "https://dc.lft.to/lastmile_qr_scan", "android": "https://dc.lft.to/lastmile_qr_scan"}, "fusion_lon": 0.0, "lon": -77.0391175, "name": "5b0ef7aa078b6e3ee6fd445e6586dcfe", "is_reserved": 0, "is_disabled": 0}, {"lat": 38.876458666666664, "fusion_lat": 0.0, "type": "electric_scooter", "bike_id": "0cfa95f27db59b0d2e5edf82e70124c0", "rental_uris": {"ios": "https://dc.lft.to/lastmile_qr_scan", "android": "https://dc.lft.to/lastmile_qr_scan"}, "fusion_lon": 0.0, "lon": -77.01590983333334, "name": "0cfa95f27db59b0d2e5edf82e70124c0", "is_reserved": 0, "is_disabled": 0}, {"lat": 38.88333, "fusion_lat": 0.0, "type": "electric_scooter", "bike_id": "cbff1fbdac99c57ac17bde69a8ee1487", "rental_uris": {"ios": "https://dc.lft.to/lastmile_qr_scan", "android": "https://dc.lft.to/lastmile_qr_scan"}, "fusion_lon": 0.0, "lon": -77.0114235, "name": "cbff1fbdac99c57ac17bde69a8ee1487", "is_reserved": 0, "is_disabled": 0}, {"lat": 38.909296499999996, "fusion_lat": 0.0, "type": "electric_scooter", "bike_id": "fa2694503844e66ea8c06fd38bf9409a", "rental_uris": {"ios": "https://dc.lft.to/lastmile_qr_scan", "android": "https://dc.lft.to/lastmile_qr_scan"}, "fusion_lon": 0.0, "lon": -77.02273416666667, "name": "fa2694503844e66ea8c06fd38bf9409a", "is_reserved": 0, "is_disabled": 0}, {"lat": 38.923261833333335, "fusion_lat": 0.0, "type": "electric_scooter", "bike_id": "ba258270e383b0e16aa581aed070da7b", "rental_uris": {"ios": "https://dc.lft.to/lastmile_qr_scan", "android": "https://dc.lft.to/lastmile_qr_scan"}, "fusion_lon": 0.0, "lon": -77.03861266666667, "name": "ba258270e383b0e16aa581aed070da7b", "is_reserved": 0, "is_disabled": 0}, {"lat": 38.925029333333335, "fusion_lat": 0.0, "type": "electric_scooter", "bike_id": "7146b7e055ee8f413df0b4e17fe9fc90", "rental_uris": {"ios": "https://dc.lft.to/lastmile_qr_scan", "android": "https://dc.lft.to/lastmile_qr_scan"}, "fusion_lon": 0.0, "lon": -77.0391905, "name": "7146b7e055ee8f413df0b4e17fe9fc90", "is_reserved": 0, "is_disabled": 0}, {"lat": 38.901608, "fusion_lat": 0.0, "type": "electric_scooter", "bike_id": "ce59124fe7d5ba2625622df6fe6100af", "rental_uris": {"ios": "https://dc.lft.to/lastmile_qr_scan", "android": "https://dc.lft.to/lastmile_qr_scan"}, "fusion_lon": 0.0, "lon": -77.03989783333333, "name": "ce59124fe7d5ba2625622df6fe6100af", "is_reserved": 0, "is_disabled": 0}, {"lat": 38.887481, "fusion_lat": 0.0, "type": "electric_scooter", "bike_id": "b47b8ab8bff826aff115e40cf3e50f5d", "rental_uris": {"ios": "https://dc.lft.to/lastmile_qr_scan", "android": "https://dc.lft.to/lastmile_qr_scan"}, "fusion_lon": 0.0, "lon": -77.02131883333334, "name": "b47b8ab8bff826aff115e40cf3e50f5d", "is_reserved": 0, "is_disabled": 0}, {"lat": 38.93989783333333, "fusion_lat": 0.0, "type": "electric_scooter", "bike_id": "ceb210932554f778c86da2260c721452", "rental_uris": {"ios": "https://dc.lft.to/lastmile_qr_scan", "android": "https://dc.lft.to/lastmile_qr_scan"}, "fusion_lon": 0.0, "lon": -77.025504, "name": "ceb210932554f778c86da2260c721452", "is_reserved": 0, "is_disabled": 0}, {"lat": 38.955979166666665, "fusion_lat": 0.0, "type": "electric_bike", "bike_id": "1794e06f791ed7a2f616634fc5c2cac3", "rental_uris": {"ios": "https://dc.lft.to/lastmile_qr_scan", "android": "https://dc.lft.to/lastmile_qr_scan"}, "fusion_lon": 0.0, "lon": -77.01018433333333, "name": "1794e06f791ed7a2f616634fc5c2cac3", "is_reserved": 0, "is_disabled": 0}, {"lat": 38.8697565, "fusion_lat": 0.0, "type": "electric_scooter", "bike_id": "2f1af579fe107c0fc54eb7efaa25e3f2", "rental_uris": {"ios": "https://dc.lft.to/lastmile_qr_scan", "android": "https://dc.lft.to/lastmile_qr_scan"}, "fusion_lon": 0.0, "lon": -77.012309, "name": "2f1af579fe107c0fc54eb7efaa25e3f2", "is_reserved": 0, "is_disabled": 0}, {"lat": 38.897341833333336, "fusion_lat": 0.0, "type": "electric_scooter", "bike_id": "0bc0cee246c5a60b9114190f5314c8f9", "rental_uris": {"ios": "https://dc.lft.to/lastmile_qr_scan", "android": "https://dc.lft.to/lastmile_qr_scan"}, "fusion_lon": 0.0, "lon": -77.0271445, "name": "0bc0cee246c5a60b9114190f5314c8f9", "is_reserved": 0, "is_disabled": 0}, {"lat": 38.942206166666665, "fusion_lat": 0.0, "type": "electric_scooter", "bike_id": "16e2c82f97e68614a56bd9e5bac57dea", "rental_uris": {"ios": "https://dc.lft.to/lastmile_qr_scan", "android": "https://dc.lft.to/lastmile_qr_scan"}, "fusion_lon": 0.0, "lon": -77.02028966666667, "name": "16e2c82f97e68614a56bd9e5bac57dea", "is_reserved": 0, "is_disabled": 0}, {"lat": 38.89272283333333, "fusion_lat": 0.0, "type": "electric_scooter", "bike_id": "c843d861dc7be534d4f7cbf0dc4579cf", "rental_uris": {"ios": "https://dc.lft.to/lastmile_qr_scan", "android": "https://dc.lft.to/lastmile_qr_scan"}, "fusion_lon": 0.0, "lon": -77.04673066666666, "name": "c843d861dc7be534d4f7cbf0dc4579cf", "is_reserved": 0, "is_disabled": 0}, {"lat": 38.92282133333333, "fusion_lat": 0.0, "type": "electric_bike", "bike_id": "cb1a3278c2ecabc155f007ef0e546007", "rental_uris": {"ios": "https://dc.lft.to/lastmile_qr_scan", "android": "https://dc.lft.to/lastmile_qr_scan"}, "fusion_lon": 0.0, "lon": -76.9974865, "name": "cb1a3278c2ecabc155f007ef0e546007", "is_reserved": 0, "is_disabled": 0}, {"lat": 38.918118166666666, "fusion_lat": 0.0, "type": "electric_scooter", "bike_id": "9b2a5d59dafe1bb64144284d67c1d056", "rental_uris": {"ios": "https://dc.lft.to/lastmile_qr_scan", "android": "https://dc.lft.to/lastmile_qr_scan"}, "fusion_lon": 0.0, "lon": -77.03442533333333, "name": "9b2a5d59dafe1bb64144284d67c1d056", "is_reserved": 0, "is_disabled": 0}, {"lat": 38.92163683333333, "fusion_lat": 0.0, "type": "electric_scooter", "bike_id": "ad6dbf087277097163680b94a550f227", "rental_uris": {"ios": "https://dc.lft.to/lastmile_qr_scan", "android": "https://dc.lft.to/lastmile_qr_scan"}, "fusion_lon": 0.0, "lon": -77.02399633333333, "name": "ad6dbf087277097163680b94a550f227", "is_reserved": 0, "is_disabled": 0}, {"lat": 38.8693765, "fusion_lat": 0.0, "type": "electric_scooter", "bike_id": "718c052ddf1d61d9e95db9a12b6eb57d", "rental_uris": {"ios": "https://dc.lft.to/lastmile_qr_scan", "android": "https://dc.lft.to/lastmile_qr_scan"}, "fusion_lon": 0.0, "lon": -77.01376233333333, "name": "718c052ddf1d61d9e95db9a12b6eb57d", "is_reserved": 0, "is_disabled": 0}, {"lat": 38.87138916666667, "fusion_lat": 0.0, "type": "electric_scooter", "bike_id": "f33daa8dd1d07d69e2be14d4dc392fca", "rental_uris": {"ios": "https://dc.lft.to/lastmile_qr_scan", "android": "https://dc.lft.to/lastmile_qr_scan"}, "fusion_lon": 0.0, "lon": -77.00699416666667, "name": "f33daa8dd1d07d69e2be14d4dc392fca", "is_reserved": 0, "is_disabled": 0}, {"lat": 38.91417033333333, "fusion_lat": 0.0, "type": "electric_scooter", "bike_id": "6f51a28aafeaf002e0648d12c5f7be5c", "rental_uris": {"ios": "https://dc.lft.to/lastmile_qr_scan", "android": "https://dc.lft.to/lastmile_qr_scan"}, "fusion_lon": 0.0, "lon": -77.0317155, "name": "6f51a28aafeaf002e0648d12c5f7be5c", "is_reserved": 0, "is_disabled": 0}, {"lat": 38.878702, "fusion_lat": 0.0, "type": "electric_scooter", "bike_id": "518b0c892d9482e9f2e6033fc1159a23", "rental_uris": {"ios": "https://dc.lft.to/lastmile_qr_scan", "android": "https://dc.lft.to/lastmile_qr_scan"}, "fusion_lon": 0.0, "lon": -76.99678733333333, "name": "518b0c892d9482e9f2e6033fc1159a23", "is_reserved": 0, "is_disabled": 0}, {"lat": 38.91808566666667, "fusion_lat": 0.0, "type": "electric_scooter", "bike_id": "5fdc3c979a9671ffa45087c7e200c0fe", "rental_uris": {"ios": "https://dc.lft.to/lastmile_qr_scan", "android": "https://dc.lft.to/lastmile_qr_scan"}, "fusion_lon": 0.0, "lon": -77.02314916666667, "name": "5fdc3c979a9671ffa45087c7e200c0fe", "is_reserved": 0, "is_disabled": 0}, {"lat": 38.875726, "fusion_lat": 0.0, "type": "electric_scooter", "bike_id": "b7fccecb5b5e13a640b8f657abe75936", "rental_uris": {"ios": "https://dc.lft.to/lastmile_qr_scan", "android": "https://dc.lft.to/lastmile_qr_scan"}, "fusion_lon": 0.0, "lon": -77.005889, "name": "b7fccecb5b5e13a640b8f657abe75936", "is_reserved": 0, "is_disabled": 0}, {"lat": 38.892326, "fusion_lat": 0.0, "type": "electric_scooter", "bike_id": "8ebba0512a82446400e34bea42ee66bd", "rental_uris": {"ios": "https://dc.lft.to/lastmile_qr_scan", "android": "https://dc.lft.to/lastmile_qr_scan"}, "fusion_lon": 0.0, "lon": -77.02179183333334, "name": "8ebba0512a82446400e34bea42ee66bd", "is_reserved": 0, "is_disabled": 0}, {"lat": 38.8644945, "fusion_lat": 0.0, "type": "electric_scooter", "bike_id": "ec38bc32332225530eaded0ddbcd24ce", "rental_uris": {"ios": "https://dc.lft.to/lastmile_qr_scan", "android": "https://dc.lft.to/lastmile_qr_scan"}, "fusion_lon": 0.0, "lon": -76.9743255, "name": "ec38bc32332225530eaded0ddbcd24ce", "is_reserved": 0, "is_disabled": 0}, {"lat": 38.89612316666667, "fusion_lat": 0.0, "type": "electric_scooter", "bike_id": "887024c6511424fafc873aaeab1dc9ad", "rental_uris": {"ios": "https://dc.lft.to/lastmile_qr_scan", "android": "https://dc.lft.to/lastmile_qr_scan"}, "fusion_lon": 0.0, "lon": -77.04272666666667, "name": "887024c6511424fafc873aaeab1dc9ad", "is_reserved": 0, "is_disabled": 0}, {"lat": 38.90132766666667, "fusion_lat": 0.0, "type": "electric_scooter", "bike_id": "9c16756e69814a5e30a30ce75924c65c", "rental_uris": {"ios": "https://dc.lft.to/lastmile_qr_scan", "android": "https://dc.lft.to/lastmile_qr_scan"}, "fusion_lon": 0.0, "lon": -77.02194216666666, "name": "9c16756e69814a5e30a30ce75924c65c", "is_reserved": 0, "is_disabled": 0}, {"lat": 38.925663166666666, "fusion_lat": 0.0, "type": "electric_scooter", "bike_id": "818be1c775250b4b0930325ab98ef741", "rental_uris": {"ios": "https://dc.lft.to/lastmile_qr_scan", "android": "https://dc.lft.to/lastmile_qr_scan"}, "fusion_lon": 0.0, "lon": -77.0778595, "name": "818be1c775250b4b0930325ab98ef741", "is_reserved": 0, "is_disabled": 0}, {"lat": 38.912781833333334, "fusion_lat": 0.0, "type": "electric_scooter", "bike_id": "87801039d611d21578307f5de4fc7b0b", "rental_uris": {"ios": "https://dc.lft.to/lastmile_qr_scan", "android": "https://dc.lft.to/lastmile_qr_scan"}, "fusion_lon": 0.0, "lon": -77.03738266666667, "name": "87801039d611d21578307f5de4fc7b0b", "is_reserved": 0, "is_disabled": 0}, {"lat": 38.890449333333336, "fusion_lat": 0.0, "type": "electric_scooter", "bike_id": "085d2ca45e6f50ba71c90337248b9e15", "rental_uris": {"ios": "https://dc.lft.to/lastmile_qr_scan", "android": "https://dc.lft.to/lastmile_qr_scan"}, "fusion_lon": 0.0, "lon": -76.93760583333334, "name": "085d2ca45e6f50ba71c90337248b9e15", "is_reserved": 0, "is_disabled": 0}, {"lat": 38.966691833333336, "fusion_lat": 0.0, "type": "electric_bike", "bike_id": "be3bb1d8c15c25aec9bbfe382eada867", "rental_uris": {"ios": "https://dc.lft.to/lastmile_qr_scan", "android": "https://dc.lft.to/lastmile_qr_scan"}, "fusion_lon": 0.0, "lon": -76.97444683333333, "name": "be3bb1d8c15c25aec9bbfe382eada867", "is_reserved": 0, "is_disabled": 0}, {"lat": 38.91303033333333, "fusion_lat": 0.0, "type": "electric_scooter", "bike_id": "367aad2658709c84db982ce24bbf2e57", "rental_uris": {"ios": "https://dc.lft.to/lastmile_qr_scan", "android": "https://dc.lft.to/lastmile_qr_scan"}, "fusion_lon": 0.0, "lon": -77.02694383333333, "name": "367aad2658709c84db982ce24bbf2e57", "is_reserved": 0, "is_disabled": 0}, {"lat": 38.9166895, "fusion_lat": 0.0, "type": "electric_scooter", "bike_id": "e77d01fc70dd61e4652deabae98c8978", "rental_uris": {"ios": "https://dc.lft.to/lastmile_qr_scan", "android": "https://dc.lft.to/lastmile_qr_scan"}, "fusion_lon": 0.0, "lon": -77.0385415, "name": "e77d01fc70dd61e4652deabae98c8978", "is_reserved": 0, "is_disabled": 0}, {"lat": 38.9179845, "fusion_lat": 0.0, "type": "electric_scooter", "bike_id": "dd5525d99f594e71b705a2d718301fb4", "rental_uris": {"ios": "https://dc.lft.to/lastmile_qr_scan", "android": "https://dc.lft.to/lastmile_qr_scan"}, "fusion_lon": 0.0, "lon": -77.03436133333334, "name": "dd5525d99f594e71b705a2d718301fb4", "is_reserved": 0, "is_disabled": 0}, {"lat": 38.92029933333333, "fusion_lat": 0.0, "type": "electric_scooter", "bike_id": "73751773df09bf7ff6ac73eb388a29a8", "rental_uris": {"ios": "https://dc.lft.to/lastmile_qr_scan", "android": "https://dc.lft.to/lastmile_qr_scan"}, "fusion_lon": 0.0, "lon": -77.030562, "name": "73751773df09bf7ff6ac73eb388a29a8", "is_reserved": 0, "is_disabled": 0}, {"lat": 38.89360383333333, "fusion_lat": 0.0, "type": "electric_scooter", "bike_id": "b43252ac5ca86753e173b66472323f56", "rental_uris": {"ios": "https://dc.lft.to/lastmile_qr_scan", "android": "https://dc.lft.to/lastmile_qr_scan"}, "fusion_lon": 0.0, "lon": -77.003373, "name": "b43252ac5ca86753e173b66472323f56", "is_reserved": 0, "is_disabled": 0}, {"lat": 38.89450466666667, "fusion_lat": 0.0, "type": "electric_bike", "bike_id": "b4fabf9bb4eab7ecacb8c7de996c5aaf", "rental_uris": {"ios": "https://dc.lft.to/lastmile_qr_scan", "android": "https://dc.lft.to/lastmile_qr_scan"}, "fusion_lon": 0.0, "lon": -77.0316315, "name": "b4fabf9bb4eab7ecacb8c7de996c5aaf", "is_reserved": 0, "is_disabled": 0}, {"lat": 38.88716866666667, "fusion_lat": 0.0, "type": "electric_scooter", "bike_id": "e0998e0e9e41ac2a3b0b51a62bb957f6", "rental_uris": {"ios": "https://dc.lft.to/lastmile_qr_scan", "android": "https://dc.lft.to/lastmile_qr_scan"}, "fusion_lon": 0.0, "lon": -77.022023, "name": "e0998e0e9e41ac2a3b0b51a62bb957f6", "is_reserved": 0, "is_disabled": 0}, {"lat": 38.91071216666667, "fusion_lat": 0.0, "type": "electric_scooter", "bike_id": "332515e72f1c69981bec24959652ed88", "rental_uris": {"ios": "https://dc.lft.to/lastmile_qr_scan", "android": "https://dc.lft.to/lastmile_qr_scan"}, "fusion_lon": 0.0, "lon": -77.027096, "name": "332515e72f1c69981bec24959652ed88", "is_reserved": 0, "is_disabled": 0}, {"lat": 38.91765016666667, "fusion_lat": 0.0, "type": "electric_scooter", "bike_id": "9017b2ef0a7fa8d261df6554fed561d9", "rental_uris": {"ios": "https://dc.lft.to/lastmile_qr_scan", "android": "https://dc.lft.to/lastmile_qr_scan"}, "fusion_lon": 0.0, "lon": -77.02364533333333, "name": "9017b2ef0a7fa8d261df6554fed561d9", "is_reserved": 0, "is_disabled": 0}, {"lat": 38.928954166666664, "fusion_lat": 0.0, "type": "electric_scooter", "bike_id": "41a6af2b1cb2a7c1b706217575cedefe", "rental_uris": {"ios": "https://dc.lft.to/lastmile_qr_scan", "android": "https://dc.lft.to/lastmile_qr_scan"}, "fusion_lon": 0.0, "lon": -77.05809166666667, "name": "41a6af2b1cb2a7c1b706217575cedefe", "is_reserved": 0, "is_disabled": 0}, {"lat": 38.891884833333336, "fusion_lat": 0.0, "type": "electric_scooter", "bike_id": "aeae3288cd17c6e817af5f4d13761d9b", "rental_uris": {"ios": "https://dc.lft.to/lastmile_qr_scan", "android": "https://dc.lft.to/lastmile_qr_scan"}, "fusion_lon": 0.0, "lon": -77.03184933333333, "name": "aeae3288cd17c6e817af5f4d13761d9b", "is_reserved": 0, "is_disabled": 0}, {"lat": 38.90386933333333, "fusion_lat": 0.0, "type": "electric_scooter", "bike_id": "f0d6e1402c57aa348798d73ce93cf5e1", "rental_uris": {"ios": "https://dc.lft.to/lastmile_qr_scan", "android": "https://dc.lft.to/lastmile_qr_scan"}, "fusion_lon": 0.0, "lon": -77.04473216666666, "name": "f0d6e1402c57aa348798d73ce93cf5e1", "is_reserved": 0, "is_disabled": 0}, {"lat": 38.91261083333333, "fusion_lat": 0.0, "type": "electric_scooter", "bike_id": "af37cbd43c868f54aa81839bbae93c68", "rental_uris": {"ios": "https://dc.lft.to/lastmile_qr_scan", "android": "https://dc.lft.to/lastmile_qr_scan"}, "fusion_lon": 0.0, "lon": -77.03803966666666, "name": "af37cbd43c868f54aa81839bbae93c68", "is_reserved": 0, "is_disabled": 0}, {"lat": 38.9042235, "fusion_lat": 0.0, "type": "electric_scooter", "bike_id": "7e2db1ae41739a4fc4de06f54b8ace0c", "rental_uris": {"ios": "https://dc.lft.to/lastmile_qr_scan", "android": "https://dc.lft.to/lastmile_qr_scan"}, "fusion_lon": 0.0, "lon": -77.02068066666666, "name": "7e2db1ae41739a4fc4de06f54b8ace0c", "is_reserved": 0, "is_disabled": 0}, {"lat": 38.916264166666664, "fusion_lat": 0.0, "type": "electric_scooter", "bike_id": "626b9e687e1b113f3ce7f09372c911a4", "rental_uris": {"ios": "https://dc.lft.to/lastmile_qr_scan", "android": "https://dc.lft.to/lastmile_qr_scan"}, "fusion_lon": 0.0, "lon": -77.0385185, "name": "626b9e687e1b113f3ce7f09372c911a4", "is_reserved": 0, "is_disabled": 0}, {"lat": 38.874436833333334, "fusion_lat": 0.0, "type": "electric_scooter", "bike_id": "8893256e94d5e2738546f7b8460b9cde", "rental_uris": {"ios": "https://dc.lft.to/lastmile_qr_scan", "android": "https://dc.lft.to/lastmile_qr_scan"}, "fusion_lon": 0.0, "lon": -77.001148, "name": "8893256e94d5e2738546f7b8460b9cde", "is_reserved": 0, "is_disabled": 0}, {"lat": 38.9288665, "fusion_lat": 0.0, "type": "electric_scooter", "bike_id": "4e23019ae280b505ec6cbd0d045bdeaa", "rental_uris": {"ios": "https://dc.lft.to/lastmile_qr_scan", "android": "https://dc.lft.to/lastmile_qr_scan"}, "fusion_lon": 0.0, "lon": -77.03230983333333, "name": "4e23019ae280b505ec6cbd0d045bdeaa", "is_reserved": 0, "is_disabled": 0}, {"lat": 38.87546116666667, "fusion_lat": 0.0, "type": "electric_scooter", "bike_id": "85ac23defa903f26d2ba2ce4aa91d0c5", "rental_uris": {"ios": "https://dc.lft.to/lastmile_qr_scan", "android": "https://dc.lft.to/lastmile_qr_scan"}, "fusion_lon": 0.0, "lon": -77.005342, "name": "85ac23defa903f26d2ba2ce4aa91d0c5", "is_reserved": 0, "is_disabled": 0}, {"lat": 38.92173416666667, "fusion_lat": 0.0, "type": "electric_scooter", "bike_id": "d9ec65e984cbadf42fdb674070750ed7", "rental_uris": {"ios": "https://dc.lft.to/lastmile_qr_scan", "android": "https://dc.lft.to/lastmile_qr_scan"}, "fusion_lon": 0.0, "lon": -77.04017683333333, "name": "d9ec65e984cbadf42fdb674070750ed7", "is_reserved": 0, "is_disabled": 0}, {"lat": 38.90674083333333, "fusion_lat": 0.0, "type": "electric_scooter", "bike_id": "41ff52f27b66ede3acb493ff611f4172", "rental_uris": {"ios": "https://dc.lft.to/lastmile_qr_scan", "android": "https://dc.lft.to/lastmile_qr_scan"}, "fusion_lon": 0.0, "lon": -77.0271135, "name": "41ff52f27b66ede3acb493ff611f4172", "is_reserved": 0, "is_disabled": 0}, {"lat": 38.913487833333335, "fusion_lat": 0.0, "type": "electric_scooter", "bike_id": "dd76dbad7b3f641385fea0af62f87871", "rental_uris": {"ios": "https://dc.lft.to/lastmile_qr_scan", "android": "https://dc.lft.to/lastmile_qr_scan"}, "fusion_lon": 0.0, "lon": -77.02948583333334, "name": "dd76dbad7b3f641385fea0af62f87871", "is_reserved": 0, "is_disabled": 0}, {"lat": 38.831059333333336, "fusion_lat": 0.0, "type": "electric_bike", "bike_id": "6c9794e983aabf486e5b7642c1bb80d1", "rental_uris": {"ios": "https://dc.lft.to/lastmile_qr_scan", "android": "https://dc.lft.to/lastmile_qr_scan"}, "fusion_lon": 0.0, "lon": -77.11283166666666, "name": "6c9794e983aabf486e5b7642c1bb80d1", "is_reserved": 0, "is_disabled": 0}, {"lat": 38.930319, "fusion_lat": 0.0, "type": "electric_bike", "bike_id": "a7dcc577f45d0e7c83ec4e00d5e41a79", "rental_uris": {"ios": "https://dc.lft.to/lastmile_qr_scan", "android": "https://dc.lft.to/lastmile_qr_scan"}, "fusion_lon": 0.0, "lon": -77.03598633333333, "name": "a7dcc577f45d0e7c83ec4e00d5e41a79", "is_reserved": 0, "is_disabled": 0}, {"lat": 38.89341966666667, "fusion_lat": 0.0, "type": "electric_scooter", "bike_id": "d32be39f50783be799edca144c955133", "rental_uris": {"ios": "https://dc.lft.to/lastmile_qr_scan", "android": "https://dc.lft.to/lastmile_qr_scan"}, "fusion_lon": 0.0, "lon": -77.01221533333333, "name": "d32be39f50783be799edca144c955133", "is_reserved": 0, "is_disabled": 0}, {"lat": 38.89987033333333, "fusion_lat": 0.0, "type": "electric_scooter", "bike_id": "756906fccd4068b1d91395730b2ec221", "rental_uris": {"ios": "https://dc.lft.to/lastmile_qr_scan", "android": "https://dc.lft.to/lastmile_qr_scan"}, "fusion_lon": 0.0, "lon": -77.0291605, "name": "756906fccd4068b1d91395730b2ec221", "is_reserved": 0, "is_disabled": 0}, {"lat": 38.90220166666667, "fusion_lat": 0.0, "type": "electric_scooter", "bike_id": "e2b1dac4ac48b521ee0bafd2433a5633", "rental_uris": {"ios": "https://dc.lft.to/lastmile_qr_scan", "android": "https://dc.lft.to/lastmile_qr_scan"}, "fusion_lon": 0.0, "lon": -76.98190266666667, "name": "e2b1dac4ac48b521ee0bafd2433a5633", "is_reserved": 0, "is_disabled": 0}, {"lat": 38.93098583333333, "fusion_lat": 0.0, "type": "electric_scooter", "bike_id": "f8bf212165359b93f4a375be89d6310e", "rental_uris": {"ios": "https://dc.lft.to/lastmile_qr_scan", "android": "https://dc.lft.to/lastmile_qr_scan"}, "fusion_lon": 0.0, "lon": -77.0246965, "name": "f8bf212165359b93f4a375be89d6310e", "is_reserved": 0, "is_disabled": 0}, {"lat": 39.09965733333333, "fusion_lat": 0.0, "type": "electric_bike", "bike_id": "27157243dbea7a454a3c0d072535b433", "rental_uris": {"ios": "https://dc.lft.to/lastmile_qr_scan", "android": "https://dc.lft.to/lastmile_qr_scan"}, "fusion_lon": 0.0, "lon": -77.183057, "name": "27157243dbea7a454a3c0d072535b433", "is_reserved": 0, "is_disabled": 0}, {"lat": 38.908632833333336, "fusion_lat": 0.0, "type": "electric_scooter", "bike_id": "84f87d47b32385481e83bfdb4499e872", "rental_uris": {"ios": "https://dc.lft.to/lastmile_qr_scan", "android": "https://dc.lft.to/lastmile_qr_scan"}, "fusion_lon": 0.0, "lon": -77.01944083333333, "name": "84f87d47b32385481e83bfdb4499e872", "is_reserved": 0, "is_disabled": 0}, {"lat": 38.933596, "fusion_lat": 0.0, "type": "electric_scooter", "bike_id": "36eec3b021d98e9947a264557e437584", "rental_uris": {"ios": "https://dc.lft.to/lastmile_qr_scan", "android": "https://dc.lft.to/lastmile_qr_scan"}, "fusion_lon": 0.0, "lon": -77.03724033333333, "name": "36eec3b021d98e9947a264557e437584", "is_reserved": 0, "is_disabled": 0}, {"lat": 38.8901235, "fusion_lat": 0.0, "type": "electric_scooter", "bike_id": "de5f044db6ad60dd08c58dcf3e49bed5", "rental_uris": {"ios": "https://dc.lft.to/lastmile_qr_scan", "android": "https://dc.lft.to/lastmile_qr_scan"}, "fusion_lon": 0.0, "lon": -76.93742666666667, "name": "de5f044db6ad60dd08c58dcf3e49bed5", "is_reserved": 0, "is_disabled": 0}, {"lat": 38.9155205, "fusion_lat": 0.0, "type": "electric_scooter", "bike_id": "9ef40ab9cd77334084542d22fd397ef2", "rental_uris": {"ios": "https://dc.lft.to/lastmile_qr_scan", "android": "https://dc.lft.to/lastmile_qr_scan"}, "fusion_lon": 0.0, "lon": -77.01180266666667, "name": "9ef40ab9cd77334084542d22fd397ef2", "is_reserved": 0, "is_disabled": 0}, {"lat": 38.92732433333333, "fusion_lat": 0.0, "type": "electric_scooter", "bike_id": "214ab4e267c847914c0141b042ce08a0", "rental_uris": {"ios": "https://dc.lft.to/lastmile_qr_scan", "android": "https://dc.lft.to/lastmile_qr_scan"}, "fusion_lon": 0.0, "lon": -77.034946, "name": "214ab4e267c847914c0141b042ce08a0", "is_reserved": 0, "is_disabled": 0}, {"lat": 38.9152305, "fusion_lat": 0.0, "type": "electric_scooter", "bike_id": "40037b6c1236abd82ddc52b80b46eb69", "rental_uris": {"ios": "https://dc.lft.to/lastmile_qr_scan", "android": "https://dc.lft.to/lastmile_qr_scan"}, "fusion_lon": 0.0, "lon": -77.01982083333333, "name": "40037b6c1236abd82ddc52b80b46eb69", "is_reserved": 0, "is_disabled": 0}, {"lat": 38.901669, "fusion_lat": 0.0, "type": "electric_scooter", "bike_id": "34ad7565a3ce2180c65d1832506dcf5e", "rental_uris": {"ios": "https://dc.lft.to/lastmile_qr_scan", "android": "https://dc.lft.to/lastmile_qr_scan"}, "fusion_lon": 0.0, "lon": -77.0394015, "name": "34ad7565a3ce2180c65d1832506dcf5e", "is_reserved": 0, "is_disabled": 0}, {"lat": 38.93221316666666, "fusion_lat": 0.0, "type": "electric_scooter", "bike_id": "cc3cf156239bad59ad2e6bc2f7694487", "rental_uris": {"ios": "https://dc.lft.to/lastmile_qr_scan", "android": "https://dc.lft.to/lastmile_qr_scan"}, "fusion_lon": 0.0, "lon": -77.02980816666667, "name": "cc3cf156239bad59ad2e6bc2f7694487", "is_reserved": 0, "is_disabled": 0}, {"lat": 38.9325615, "fusion_lat": 0.0, "type": "electric_scooter", "bike_id": "d94ad69af274b65d27a926c3d6fc6e64", "rental_uris": {"ios": "https://dc.lft.to/lastmile_qr_scan", "android": "https://dc.lft.to/lastmile_qr_scan"}, "fusion_lon": 0.0, "lon": -77.03285733333334, "name": "d94ad69af274b65d27a926c3d6fc6e64", "is_reserved": 0, "is_disabled": 0}, {"lat": 38.920971333333334, "fusion_lat": 0.0, "type": "electric_scooter", "bike_id": "1fc9fd854e31cd6c8d768f05a7a01a13", "rental_uris": {"ios": "https://dc.lft.to/lastmile_qr_scan", "android": "https://dc.lft.to/lastmile_qr_scan"}, "fusion_lon": 0.0, "lon": -77.03657716666666, "name": "1fc9fd854e31cd6c8d768f05a7a01a13", "is_reserved": 0, "is_disabled": 0}, {"lat": 38.8957195, "fusion_lat": 0.0, "type": "electric_scooter", "bike_id": "ace578829c38e38a4f8119ba4256d879", "rental_uris": {"ios": "https://dc.lft.to/lastmile_qr_scan", "android": "https://dc.lft.to/lastmile_qr_scan"}, "fusion_lon": 0.0, "lon": -76.98314333333333, "name": "ace578829c38e38a4f8119ba4256d879", "is_reserved": 0, "is_disabled": 0}, {"lat": 38.908663, "fusion_lat": 0.0, "type": "electric_scooter", "bike_id": "7d49e97c74d4014cacd8149cb840a6c7", "rental_uris": {"ios": "https://dc.lft.to/lastmile_qr_scan", "android": "https://dc.lft.to/lastmile_qr_scan"}, "fusion_lon": 0.0, "lon": -77.0237995, "name": "7d49e97c74d4014cacd8149cb840a6c7", "is_reserved": 0, "is_disabled": 0}, {"lat": 38.902435, "fusion_lat": 0.0, "type": "electric_scooter", "bike_id": "35e1cf38c50935e0e2ee31f83b8ac396", "rental_uris": {"ios": "https://dc.lft.to/lastmile_qr_scan", "android": "https://dc.lft.to/lastmile_qr_scan"}, "fusion_lon": 0.0, "lon": -77.00198533333334, "name": "35e1cf38c50935e0e2ee31f83b8ac396", "is_reserved": 0, "is_disabled": 0}, {"lat": 38.91522616666666, "fusion_lat": 0.0, "type": "electric_scooter", "bike_id": "ce06274cf7e80a924c5acdbb44573e1f", "rental_uris": {"ios": "https://dc.lft.to/lastmile_qr_scan", "android": "https://dc.lft.to/lastmile_qr_scan"}, "fusion_lon": 0.0, "lon": -77.03203683333334, "name": "ce06274cf7e80a924c5acdbb44573e1f", "is_reserved": 0, "is_disabled": 0}, {"lat": 38.90963, "fusion_lat": 0.0, "type": "electric_scooter", "bike_id": "6176f049f5aacf2f5335ed726b1d4d00", "rental_uris": {"ios": "https://dc.lft.to/lastmile_qr_scan", "android": "https://dc.lft.to/lastmile_qr_scan"}, "fusion_lon": 0.0, "lon": -77.04443283333333, "name": "6176f049f5aacf2f5335ed726b1d4d00", "is_reserved": 0, "is_disabled": 0}, {"lat": 38.93712933333333, "fusion_lat": 0.0, "type": "electric_scooter", "bike_id": "1f578f5bcf649ed11c10519ccd5149ca", "rental_uris": {"ios": "https://dc.lft.to/lastmile_qr_scan", "android": "https://dc.lft.to/lastmile_qr_scan"}, "fusion_lon": 0.0, "lon": -77.03523433333334, "name": "1f578f5bcf649ed11c10519ccd5149ca", "is_reserved": 0, "is_disabled": 0}, {"lat": 38.93791783333333, "fusion_lat": 0.0, "type": "electric_scooter", "bike_id": "14f93bf276f2e3fbe34334d93c3de8c9", "rental_uris": {"ios": "https://dc.lft.to/lastmile_qr_scan", "android": "https://dc.lft.to/lastmile_qr_scan"}, "fusion_lon": 0.0, "lon": -77.03284866666667, "name": "14f93bf276f2e3fbe34334d93c3de8c9", "is_reserved": 0, "is_disabled": 0}, {"lat": 38.93423716666667, "fusion_lat": 0.0, "type": "electric_scooter", "bike_id": "dbe823f6da4f5641ab5a7548f73862ad", "rental_uris": {"ios": "https://dc.lft.to/lastmile_qr_scan", "android": "https://dc.lft.to/lastmile_qr_scan"}, "fusion_lon": 0.0, "lon": -77.04277983333333, "name": "dbe823f6da4f5641ab5a7548f73862ad", "is_reserved": 0, "is_disabled": 0}, {"lat": 38.91635083333333, "fusion_lat": 0.0, "type": "electric_scooter", "bike_id": "043f3399e16055921558d1577c2f19d1", "rental_uris": {"ios": "https://dc.lft.to/lastmile_qr_scan", "android": "https://dc.lft.to/lastmile_qr_scan"}, "fusion_lon": 0.0, "lon": -77.040228, "name": "043f3399e16055921558d1577c2f19d1", "is_reserved": 0, "is_disabled": 0}, {"lat": 38.891784333333334, "fusion_lat": 0.0, "type": "electric_scooter", "bike_id": "cb775c4919a5f5bfb0a36faa40d49ef5", "rental_uris": {"ios": "https://dc.lft.to/lastmile_qr_scan", "android": "https://dc.lft.to/lastmile_qr_scan"}, "fusion_lon": 0.0, "lon": -76.9953915, "name": "cb775c4919a5f5bfb0a36faa40d49ef5", "is_reserved": 0, "is_disabled": 0}, {"lat": 38.89607916666667, "fusion_lat": 0.0, "type": "electric_scooter", "bike_id": "71609c58f35584d7eee69a590c901ab9", "rental_uris": {"ios": "https://dc.lft.to/lastmile_qr_scan", "android": "https://dc.lft.to/lastmile_qr_scan"}, "fusion_lon": 0.0, "lon": -77.00897933333333, "name": "71609c58f35584d7eee69a590c901ab9", "is_reserved": 0, "is_disabled": 0}, {"lat": 38.94804966666667, "fusion_lat": 0.0, "type": "electric_bike", "bike_id": "b50f5e5d315e82841abd9bf7afc415bd", "rental_uris": {"ios": "https://dc.lft.to/lastmile_qr_scan", "android": "https://dc.lft.to/lastmile_qr_scan"}, "fusion_lon": 0.0, "lon": -76.959704, "name": "b50f5e5d315e82841abd9bf7afc415bd", "is_reserved": 0, "is_disabled": 0}, {"lat": 38.923949, "fusion_lat": 0.0, "type": "electric_scooter", "bike_id": "5e5b52db10d31b4fab82522af16dcafa", "rental_uris": {"ios": "https://dc.lft.to/lastmile_qr_scan", "android": "https://dc.lft.to/lastmile_qr_scan"}, "fusion_lon": 0.0, "lon": -77.05053383333333, "name": "5e5b52db10d31b4fab82522af16dcafa", "is_reserved": 0, "is_disabled": 0}, {"lat": 38.909725333333334, "fusion_lat": 0.0, "type": "electric_scooter", "bike_id": "0ad161b11f0e1f309b5f3d800bea825e", "rental_uris": {"ios": "https://dc.lft.to/lastmile_qr_scan", "android": "https://dc.lft.to/lastmile_qr_scan"}, "fusion_lon": 0.0, "lon": -77.0333685, "name": "0ad161b11f0e1f309b5f3d800bea825e", "is_reserved": 0, "is_disabled": 0}, {"lat": 38.923823666666664, "fusion_lat": 0.0, "type": "electric_scooter", "bike_id": "e274e40df8e827bc60d6bf8f287c9e8f", "rental_uris": {"ios": "https://dc.lft.to/lastmile_qr_scan", "android": "https://dc.lft.to/lastmile_qr_scan"}, "fusion_lon": 0.0, "lon": -77.040845, "name": "e274e40df8e827bc60d6bf8f287c9e8f", "is_reserved": 0, "is_disabled": 0}, {"lat": 38.906113833333336, "fusion_lat": 0.0, "type": "electric_scooter", "bike_id": "7d0c78fb8e89304c9be8cc4824097de6", "rental_uris": {"ios": "https://dc.lft.to/lastmile_qr_scan", "android": "https://dc.lft.to/lastmile_qr_scan"}, "fusion_lon": 0.0, "lon": -77.02188083333333, "name": "7d0c78fb8e89304c9be8cc4824097de6", "is_reserved": 0, "is_disabled": 0}, {"lat": 38.872493166666665, "fusion_lat": 0.0, "type": "electric_bike", "bike_id": "db5e0c1d2271f770ef48580cd8dcfdf8", "rental_uris": {"ios": "https://dc.lft.to/lastmile_qr_scan", "android": "https://dc.lft.to/lastmile_qr_scan"}, "fusion_lon": 0.0, "lon": -76.97672233333333, "name": "db5e0c1d2271f770ef48580cd8dcfdf8", "is_reserved": 0, "is_disabled": 0}, {"lat": 38.9207485, "fusion_lat": 0.0, "type": "electric_scooter", "bike_id": "aedfccd8bbb0a4cf31c64d20c24c16bd", "rental_uris": {"ios": "https://dc.lft.to/lastmile_qr_scan", "android": "https://dc.lft.to/lastmile_qr_scan"}, "fusion_lon": 0.0, "lon": -77.024112, "name": "aedfccd8bbb0a4cf31c64d20c24c16bd", "is_reserved": 0, "is_disabled": 0}, {"lat": 38.925414333333336, "fusion_lat": 0.0, "type": "electric_scooter", "bike_id": "f97fca8c17406609da9216a3308f3333", "rental_uris": {"ios": "https://dc.lft.to/lastmile_qr_scan", "android": "https://dc.lft.to/lastmile_qr_scan"}, "fusion_lon": 0.0, "lon": -77.0412955, "name": "f97fca8c17406609da9216a3308f3333", "is_reserved": 0, "is_disabled": 0}, {"lat": 38.90956716666667, "fusion_lat": 0.0, "type": "electric_scooter", "bike_id": "37a604036fba9dcda4a65e5c2de79fa0", "rental_uris": {"ios": "https://dc.lft.to/lastmile_qr_scan", "android": "https://dc.lft.to/lastmile_qr_scan"}, "fusion_lon": 0.0, "lon": -77.03433333333334, "name": "37a604036fba9dcda4a65e5c2de79fa0", "is_reserved": 0, "is_disabled": 0}, {"lat": 38.93044533333333, "fusion_lat": 0.0, "type": "electric_scooter", "bike_id": "d316c4ee6cf3de0983d87c6fd97f4bc4", "rental_uris": {"ios": "https://dc.lft.to/lastmile_qr_scan", "android": "https://dc.lft.to/lastmile_qr_scan"}, "fusion_lon": 0.0, "lon": -77.07302333333334, "name": "d316c4ee6cf3de0983d87c6fd97f4bc4", "is_reserved": 0, "is_disabled": 0}, {"lat": 38.907278, "fusion_lat": 0.0, "type": "electric_scooter", "bike_id": "6255fe7261e236c1e4b6ace160d558ba", "rental_uris": {"ios": "https://dc.lft.to/lastmile_qr_scan", "android": "https://dc.lft.to/lastmile_qr_scan"}, "fusion_lon": 0.0, "lon": -77.02523916666667, "name": "6255fe7261e236c1e4b6ace160d558ba", "is_reserved": 0, "is_disabled": 0}, {"lat": 38.914697, "fusion_lat": 0.0, "type": "electric_scooter", "bike_id": "c4a1cd534ced90b862dbf29513905cf8", "rental_uris": {"ios": "https://dc.lft.to/lastmile_qr_scan", "android": "https://dc.lft.to/lastmile_qr_scan"}, "fusion_lon": 0.0, "lon": -77.038315, "name": "c4a1cd534ced90b862dbf29513905cf8", "is_reserved": 0, "is_disabled": 0}, {"lat": 38.935225, "fusion_lat": 0.0, "type": "electric_scooter", "bike_id": "375ec1f77382e6d4653cdf6ee9576934", "rental_uris": {"ios": "https://dc.lft.to/lastmile_qr_scan", "android": "https://dc.lft.to/lastmile_qr_scan"}, "fusion_lon": 0.0, "lon": -77.0325415, "name": "375ec1f77382e6d4653cdf6ee9576934", "is_reserved": 0, "is_disabled": 0}, {"lat": 38.952214833333336, "fusion_lat": 0.0, "type": "electric_scooter", "bike_id": "fb1c1bb4cdc9f51ca1a5334598eec675", "rental_uris": {"ios": "https://dc.lft.to/lastmile_qr_scan", "android": "https://dc.lft.to/lastmile_qr_scan"}, "fusion_lon": 0.0, "lon": -77.01755216666666, "name": "fb1c1bb4cdc9f51ca1a5334598eec675", "is_reserved": 0, "is_disabled": 0}, {"lat": 38.947366, "fusion_lat": 0.0, "type": "electric_scooter", "bike_id": "75f8315fcd4c7251497b70b615bc0f0c", "rental_uris": {"ios": "https://dc.lft.to/lastmile_qr_scan", "android": "https://dc.lft.to/lastmile_qr_scan"}, "fusion_lon": 0.0, "lon": -77.0161215, "name": "75f8315fcd4c7251497b70b615bc0f0c", "is_reserved": 0, "is_disabled": 0}, {"lat": 38.90716333333334, "fusion_lat": 0.0, "type": "electric_scooter", "bike_id": "ea7bb9e1f24cd403ed89205e7f38d320", "rental_uris": {"ios": "https://dc.lft.to/lastmile_qr_scan", "android": "https://dc.lft.to/lastmile_qr_scan"}, "fusion_lon": 0.0, "lon": -77.04657766666666, "name": "ea7bb9e1f24cd403ed89205e7f38d320", "is_reserved": 0, "is_disabled": 0}, {"lat": 38.931947, "fusion_lat": 0.0, "type": "electric_scooter", "bike_id": "b53ab39cfe932999b8b3049e7726b567", "rental_uris": {"ios": "https://dc.lft.to/lastmile_qr_scan", "android": "https://dc.lft.to/lastmile_qr_scan"}, "fusion_lon": 0.0, "lon": -77.029786, "name": "b53ab39cfe932999b8b3049e7726b567", "is_reserved": 0, "is_disabled": 0}, {"lat": 38.9163155, "fusion_lat": 0.0, "type": "electric_scooter", "bike_id": "2b3da2b657ba89c7658530a4a29cffed", "rental_uris": {"ios": "https://dc.lft.to/lastmile_qr_scan", "android": "https://dc.lft.to/lastmile_qr_scan"}, "fusion_lon": 0.0, "lon": -77.0481465, "name": "2b3da2b657ba89c7658530a4a29cffed", "is_reserved": 0, "is_disabled": 0}, {"lat": 38.89905783333333, "fusion_lat": 0.0, "type": "electric_scooter", "bike_id": "02c78c90d9e5633c48434df0976c2dd7", "rental_uris": {"ios": "https://dc.lft.to/lastmile_qr_scan", "android": "https://dc.lft.to/lastmile_qr_scan"}, "fusion_lon": 0.0, "lon": -76.94552233333333, "name": "02c78c90d9e5633c48434df0976c2dd7", "is_reserved": 0, "is_disabled": 0}, {"lat": 38.89506216666667, "fusion_lat": 0.0, "type": "electric_scooter", "bike_id": "a5359e84ba53a3681a156fbdbb116099", "rental_uris": {"ios": "https://dc.lft.to/lastmile_qr_scan", "android": "https://dc.lft.to/lastmile_qr_scan"}, "fusion_lon": 0.0, "lon": -77.02158666666666, "name": "a5359e84ba53a3681a156fbdbb116099", "is_reserved": 0, "is_disabled": 0}, {"lat": 38.93088016666667, "fusion_lat": 0.0, "type": "electric_scooter", "bike_id": "2e792a5e6437c8c6035f55d631f9edb1", "rental_uris": {"ios": "https://dc.lft.to/lastmile_qr_scan", "android": "https://dc.lft.to/lastmile_qr_scan"}, "fusion_lon": 0.0, "lon": -77.023598, "name": "2e792a5e6437c8c6035f55d631f9edb1", "is_reserved": 0, "is_disabled": 0}, {"lat": 38.90509, "fusion_lat": 0.0, "type": "electric_scooter", "bike_id": "85fba1891d075008eb3d4bcb0adac0c0", "rental_uris": {"ios": "https://dc.lft.to/lastmile_qr_scan", "android": "https://dc.lft.to/lastmile_qr_scan"}, "fusion_lon": 0.0, "lon": -77.03002133333334, "name": "85fba1891d075008eb3d4bcb0adac0c0", "is_reserved": 0, "is_disabled": 0}, {"lat": 38.832511833333335, "fusion_lat": 0.0, "type": "electric_bike", "bike_id": "9e2dd75ee4a9fcae06dda1f517b9ce9f", "rental_uris": {"ios": "https://dc.lft.to/lastmile_qr_scan", "android": "https://dc.lft.to/lastmile_qr_scan"}, "fusion_lon": 0.0, "lon": -77.00726816666666, "name": "9e2dd75ee4a9fcae06dda1f517b9ce9f", "is_reserved": 0, "is_disabled": 0}, {"lat": 38.90972683333333, "fusion_lat": 0.0, "type": "electric_scooter", "bike_id": "b88cefd5e35968da42ac7c1d0e62b6ec", "rental_uris": {"ios": "https://dc.lft.to/lastmile_qr_scan", "android": "https://dc.lft.to/lastmile_qr_scan"}, "fusion_lon": 0.0, "lon": -77.03993433333333, "name": "b88cefd5e35968da42ac7c1d0e62b6ec", "is_reserved": 0, "is_disabled": 0}, {"lat": 38.89581033333333, "fusion_lat": 0.0, "type": "electric_scooter", "bike_id": "dc93eea8ce68fb1085215580c7c573b5", "rental_uris": {"ios": "https://dc.lft.to/lastmile_qr_scan", "android": "https://dc.lft.to/lastmile_qr_scan"}, "fusion_lon": 0.0, "lon": -76.983213, "name": "dc93eea8ce68fb1085215580c7c573b5", "is_reserved": 0, "is_disabled": 0}, {"lat": 38.89606216666667, "fusion_lat": 0.0, "type": "electric_scooter", "bike_id": "63afbfe03473315b238863247197d44d", "rental_uris": {"ios": "https://dc.lft.to/lastmile_qr_scan", "android": "https://dc.lft.to/lastmile_qr_scan"}, "fusion_lon": 0.0, "lon": -76.99889183333333, "name": "63afbfe03473315b238863247197d44d", "is_reserved": 0, "is_disabled": 0}, {"lat": 38.8973465, "fusion_lat": 0.0, "type": "electric_scooter", "bike_id": "75a990c43813640ae580eb6ea597dfb1", "rental_uris": {"ios": "https://dc.lft.to/lastmile_qr_scan", "android": "https://dc.lft.to/lastmile_qr_scan"}, "fusion_lon": 0.0, "lon": -77.00969783333333, "name": "75a990c43813640ae580eb6ea597dfb1", "is_reserved": 0, "is_disabled": 0}, {"lat": 38.916602833333336, "fusion_lat": 0.0, "type": "electric_scooter", "bike_id": "1443835fedc5c3518a7614dc356e7993", "rental_uris": {"ios": "https://dc.lft.to/lastmile_qr_scan", "android": "https://dc.lft.to/lastmile_qr_scan"}, "fusion_lon": 0.0, "lon": -77.02803833333333, "name": "1443835fedc5c3518a7614dc356e7993", "is_reserved": 0, "is_disabled": 0}, {"lat": 38.8654015, "fusion_lat": 0.0, "type": "electric_scooter", "bike_id": "0065f5487d3f95569744a9c22efddd96", "rental_uris": {"ios": "https://dc.lft.to/lastmile_qr_scan", "android": "https://dc.lft.to/lastmile_qr_scan"}, "fusion_lon": 0.0, "lon": -76.98706233333333, "name": "0065f5487d3f95569744a9c22efddd96", "is_reserved": 0, "is_disabled": 0}, {"lat": 38.8626865, "fusion_lat": 0.0, "type": "electric_scooter", "bike_id": "adf024539a6d2bb603d7e8ef897698a6", "rental_uris": {"ios": "https://dc.lft.to/lastmile_qr_scan", "android": "https://dc.lft.to/lastmile_qr_scan"}, "fusion_lon": 0.0, "lon": -76.99535516666667, "name": "adf024539a6d2bb603d7e8ef897698a6", "is_reserved": 0, "is_disabled": 0}, {"lat": 38.919978, "fusion_lat": 0.0, "type": "electric_scooter", "bike_id": "689eebcff668b374927f160a6d087b2a", "rental_uris": {"ios": "https://dc.lft.to/lastmile_qr_scan", "android": "https://dc.lft.to/lastmile_qr_scan"}, "fusion_lon": 0.0, "lon": -77.032179, "name": "689eebcff668b374927f160a6d087b2a", "is_reserved": 0, "is_disabled": 0}, {"lat": 38.90867133333333, "fusion_lat": 0.0, "type": "electric_scooter", "bike_id": "05f659c1227fd3b62caf0ae5ec677d4d", "rental_uris": {"ios": "https://dc.lft.to/lastmile_qr_scan", "android": "https://dc.lft.to/lastmile_qr_scan"}, "fusion_lon": 0.0, "lon": -77.00250233333334, "name": "05f659c1227fd3b62caf0ae5ec677d4d", "is_reserved": 0, "is_disabled": 0}, {"lat": 38.919237833333334, "fusion_lat": 0.0, "type": "electric_scooter", "bike_id": "411e856f04be25347c8a95cd4273a8ca", "rental_uris": {"ios": "https://dc.lft.to/lastmile_qr_scan", "android": "https://dc.lft.to/lastmile_qr_scan"}, "fusion_lon": 0.0, "lon": -77.03268933333334, "name": "411e856f04be25347c8a95cd4273a8ca", "is_reserved": 0, "is_disabled": 0}, {"lat": 38.9279915, "fusion_lat": 0.0, "type": "electric_scooter", "bike_id": "253743a636b9ed63002168009d6625aa", "rental_uris": {"ios": "https://dc.lft.to/lastmile_qr_scan", "android": "https://dc.lft.to/lastmile_qr_scan"}, "fusion_lon": 0.0, "lon": -77.021342, "name": "253743a636b9ed63002168009d6625aa", "is_reserved": 0, "is_disabled": 0}, {"lat": 38.91360366666667, "fusion_lat": 0.0, "type": "electric_scooter", "bike_id": "ce5e7b9304ff9554ee5d45fefeabcb8a", "rental_uris": {"ios": "https://dc.lft.to/lastmile_qr_scan", "android": "https://dc.lft.to/lastmile_qr_scan"}, "fusion_lon": 0.0, "lon": -77.02239683333333, "name": "ce5e7b9304ff9554ee5d45fefeabcb8a", "is_reserved": 0, "is_disabled": 0}, {"lat": 38.89236983333333, "fusion_lat": 0.0, "type": "electric_scooter", "bike_id": "e069831bc92934bb5becbb38f486f4d0", "rental_uris": {"ios": "https://dc.lft.to/lastmile_qr_scan", "android": "https://dc.lft.to/lastmile_qr_scan"}, "fusion_lon": 0.0, "lon": -77.0448755, "name": "e069831bc92934bb5becbb38f486f4d0", "is_reserved": 0, "is_disabled": 0}, {"lat": 38.933979666666666, "fusion_lat": 0.0, "type": "electric_scooter", "bike_id": "9813e0458fd6ede229a6912b66fafd23", "rental_uris": {"ios": "https://dc.lft.to/lastmile_qr_scan", "android": "https://dc.lft.to/lastmile_qr_scan"}, "fusion_lon": 0.0, "lon": -77.0574195, "name": "9813e0458fd6ede229a6912b66fafd23", "is_reserved": 0, "is_disabled": 0}, {"lat": 38.92313933333333, "fusion_lat": 0.0, "type": "electric_scooter", "bike_id": "6bd28213f37b08fc885606ed86c63701", "rental_uris": {"ios": "https://dc.lft.to/lastmile_qr_scan", "android": "https://dc.lft.to/lastmile_qr_scan"}, "fusion_lon": 0.0, "lon": -77.04035283333333, "name": "6bd28213f37b08fc885606ed86c63701", "is_reserved": 0, "is_disabled": 0}, {"lat": 38.966108, "fusion_lat": 0.0, "type": "electric_scooter", "bike_id": "a9ec2ebfd844da415ddb4b0755be6c7a", "rental_uris": {"ios": "https://dc.lft.to/lastmile_qr_scan", "android": "https://dc.lft.to/lastmile_qr_scan"}, "fusion_lon": 0.0, "lon": -77.02747916666667, "name": "a9ec2ebfd844da415ddb4b0755be6c7a", "is_reserved": 0, "is_disabled": 0}, {"lat": 38.835180666666666, "fusion_lat": 0.0, "type": "electric_bike", "bike_id": "4796725e7b8867051a0e3fa0aa6596a3", "rental_uris": {"ios": "https://dc.lft.to/lastmile_qr_scan", "android": "https://dc.lft.to/lastmile_qr_scan"}, "fusion_lon": 0.0, "lon": -76.9867255, "name": "4796725e7b8867051a0e3fa0aa6596a3", "is_reserved": 0, "is_disabled": 0}, {"lat": 38.920829499999996, "fusion_lat": 0.0, "type": "electric_scooter", "bike_id": "4d33452a22e4e46f1637ec8df03960d8", "rental_uris": {"ios": "https://dc.lft.to/lastmile_qr_scan", "android": "https://dc.lft.to/lastmile_qr_scan"}, "fusion_lon": 0.0, "lon": -77.02513866666666, "name": "4d33452a22e4e46f1637ec8df03960d8", "is_reserved": 0, "is_disabled": 0}, {"lat": 38.91418683333333, "fusion_lat": 0.0, "type": "electric_scooter", "bike_id": "cb535ecd9df977dc34d7234f8be0f373", "rental_uris": {"ios": "https://dc.lft.to/lastmile_qr_scan", "android": "https://dc.lft.to/lastmile_qr_scan"}, "fusion_lon": 0.0, "lon": -77.0316915, "name": "cb535ecd9df977dc34d7234f8be0f373", "is_reserved": 0, "is_disabled": 0}, {"lat": 38.91011566666667, "fusion_lat": 0.0, "type": "electric_scooter", "bike_id": "c8bdfe3291f44088e8dc70cecfb004dc", "rental_uris": {"ios": "https://dc.lft.to/lastmile_qr_scan", "android": "https://dc.lft.to/lastmile_qr_scan"}, "fusion_lon": 0.0, "lon": -77.0344425, "name": "c8bdfe3291f44088e8dc70cecfb004dc", "is_reserved": 0, "is_disabled": 0}, {"lat": 38.9341195, "fusion_lat": 0.0, "type": "electric_scooter", "bike_id": "24649ca6ea06c8b7e69daee42a9ad786", "rental_uris": {"ios": "https://dc.lft.to/lastmile_qr_scan", "android": "https://dc.lft.to/lastmile_qr_scan"}, "fusion_lon": 0.0, "lon": -77.01982383333333, "name": "24649ca6ea06c8b7e69daee42a9ad786", "is_reserved": 0, "is_disabled": 0}, {"lat": 38.91690116666667, "fusion_lat": 0.0, "type": "electric_scooter", "bike_id": "939bde398cdcb0ece1628255d27f4fcf", "rental_uris": {"ios": "https://dc.lft.to/lastmile_qr_scan", "android": "https://dc.lft.to/lastmile_qr_scan"}, "fusion_lon": 0.0, "lon": -77.00922833333334, "name": "939bde398cdcb0ece1628255d27f4fcf", "is_reserved": 0, "is_disabled": 0}, {"lat": 38.91265333333333, "fusion_lat": 0.0, "type": "electric_scooter", "bike_id": "d04e0f8de5b4ba75ab84786a601d23a5", "rental_uris": {"ios": "https://dc.lft.to/lastmile_qr_scan", "android": "https://dc.lft.to/lastmile_qr_scan"}, "fusion_lon": 0.0, "lon": -77.01675866666666, "name": "d04e0f8de5b4ba75ab84786a601d23a5", "is_reserved": 0, "is_disabled": 0}, {"lat": 38.93710166666666, "fusion_lat": 0.0, "type": "electric_scooter", "bike_id": "bbd3c72965e8bd99b21534eda09fa35b", "rental_uris": {"ios": "https://dc.lft.to/lastmile_qr_scan", "android": "https://dc.lft.to/lastmile_qr_scan"}, "fusion_lon": 0.0, "lon": -77.036312, "name": "bbd3c72965e8bd99b21534eda09fa35b", "is_reserved": 0, "is_disabled": 0}, {"lat": 38.936097833333335, "fusion_lat": 0.0, "type": "electric_scooter", "bike_id": "1449cb08b29cda89c4156621c3306fea", "rental_uris": {"ios": "https://dc.lft.to/lastmile_qr_scan", "android": "https://dc.lft.to/lastmile_qr_scan"}, "fusion_lon": 0.0, "lon": -77.03768, "name": "1449cb08b29cda89c4156621c3306fea", "is_reserved": 0, "is_disabled": 0}, {"lat": 38.88998483333334, "fusion_lat": 0.0, "type": "electric_scooter", "bike_id": "34b17cb1181f1bc5d36ca59cf8948d35", "rental_uris": {"ios": "https://dc.lft.to/lastmile_qr_scan", "android": "https://dc.lft.to/lastmile_qr_scan"}, "fusion_lon": 0.0, "lon": -76.95433116666666, "name": "34b17cb1181f1bc5d36ca59cf8948d35", "is_reserved": 0, "is_disabled": 0}, {"lat": 38.87921016666667, "fusion_lat": 0.0, "type": "electric_scooter", "bike_id": "29b358ede6abffb58b361ca11d328994", "rental_uris": {"ios": "https://dc.lft.to/lastmile_qr_scan", "android": "https://dc.lft.to/lastmile_qr_scan"}, "fusion_lon": 0.0, "lon": -77.00783383333334, "name": "29b358ede6abffb58b361ca11d328994", "is_reserved": 0, "is_disabled": 0}, {"lat": 38.91012383333333, "fusion_lat": 0.0, "type": "electric_scooter", "bike_id": "a6ed6bcb7c350101a248d89e8e5e0068", "rental_uris": {"ios": "https://dc.lft.to/lastmile_qr_scan", "android": "https://dc.lft.to/lastmile_qr_scan"}, "fusion_lon": 0.0, "lon": -77.021012, "name": "a6ed6bcb7c350101a248d89e8e5e0068", "is_reserved": 0, "is_disabled": 0}, {"lat": 38.907220833333334, "fusion_lat": 0.0, "type": "electric_scooter", "bike_id": "cc5b23d14a345de281bb1ea45f958774", "rental_uris": {"ios": "https://dc.lft.to/lastmile_qr_scan", "android": "https://dc.lft.to/lastmile_qr_scan"}, "fusion_lon": 0.0, "lon": -77.02732783333333, "name": "cc5b23d14a345de281bb1ea45f958774", "is_reserved": 0, "is_disabled": 0}, {"lat": 38.92524183333333, "fusion_lat": 0.0, "type": "electric_scooter", "bike_id": "32f4d9ccb1b9bc567c93d5e0d24ec98e", "rental_uris": {"ios": "https://dc.lft.to/lastmile_qr_scan", "android": "https://dc.lft.to/lastmile_qr_scan"}, "fusion_lon": 0.0, "lon": -77.02132966666667, "name": "32f4d9ccb1b9bc567c93d5e0d24ec98e", "is_reserved": 0, "is_disabled": 0}, {"lat": 38.899946, "fusion_lat": 0.0, "type": "electric_scooter", "bike_id": "4febc1f4d900e7b642862f0cb9da2a08", "rental_uris": {"ios": "https://dc.lft.to/lastmile_qr_scan", "android": "https://dc.lft.to/lastmile_qr_scan"}, "fusion_lon": 0.0, "lon": -77.0248235, "name": "4febc1f4d900e7b642862f0cb9da2a08", "is_reserved": 0, "is_disabled": 0}, {"lat": 38.905365, "fusion_lat": 0.0, "type": "electric_scooter", "bike_id": "17a65bec0e8e0c65c0b568e8e4a397c9", "rental_uris": {"ios": "https://dc.lft.to/lastmile_qr_scan", "android": "https://dc.lft.to/lastmile_qr_scan"}, "fusion_lon": 0.0, "lon": -77.05042733333333, "name": "17a65bec0e8e0c65c0b568e8e4a397c9", "is_reserved": 0, "is_disabled": 0}, {"lat": 38.90867733333333, "fusion_lat": 0.0, "type": "electric_scooter", "bike_id": "ff3f453520413c88e8fca372be71b168", "rental_uris": {"ios": "https://dc.lft.to/lastmile_qr_scan", "android": "https://dc.lft.to/lastmile_qr_scan"}, "fusion_lon": 0.0, "lon": -77.0383635, "name": "ff3f453520413c88e8fca372be71b168", "is_reserved": 0, "is_disabled": 0}, {"lat": 38.8992295, "fusion_lat": 0.0, "type": "electric_scooter", "bike_id": "ad7a6321db256d46a8f7077174c4531c", "rental_uris": {"ios": "https://dc.lft.to/lastmile_qr_scan", "android": "https://dc.lft.to/lastmile_qr_scan"}, "fusion_lon": 0.0, "lon": -77.04491383333334, "name": "ad7a6321db256d46a8f7077174c4531c", "is_reserved": 0, "is_disabled": 0}, {"lat": 38.940893333333335, "fusion_lat": 0.0, "type": "electric_scooter", "bike_id": "ba4862e57885a5ef12f3d1cf5a5511c8", "rental_uris": {"ios": "https://dc.lft.to/lastmile_qr_scan", "android": "https://dc.lft.to/lastmile_qr_scan"}, "fusion_lon": 0.0, "lon": -77.02719566666667, "name": "ba4862e57885a5ef12f3d1cf5a5511c8", "is_reserved": 0, "is_disabled": 0}, {"lat": 38.91461916666667, "fusion_lat": 0.0, "type": "electric_scooter", "bike_id": "bb250970880d21e87e9f6d54b0834361", "rental_uris": {"ios": "https://dc.lft.to/lastmile_qr_scan", "android": "https://dc.lft.to/lastmile_qr_scan"}, "fusion_lon": 0.0, "lon": -77.00209516666666, "name": "bb250970880d21e87e9f6d54b0834361", "is_reserved": 0, "is_disabled": 0}, {"lat": 38.910248, "fusion_lat": 0.0, "type": "electric_scooter", "bike_id": "3ab8cc3eb83d557cfd50de0a2ce15fd6", "rental_uris": {"ios": "https://dc.lft.to/lastmile_qr_scan", "android": "https://dc.lft.to/lastmile_qr_scan"}, "fusion_lon": 0.0, "lon": -77.02933, "name": "3ab8cc3eb83d557cfd50de0a2ce15fd6", "is_reserved": 0, "is_disabled": 0}, {"lat": 38.92089416666666, "fusion_lat": 0.0, "type": "electric_scooter", "bike_id": "ebdfef1b6cb91bcde704c3d0954634f8", "rental_uris": {"ios": "https://dc.lft.to/lastmile_qr_scan", "android": "https://dc.lft.to/lastmile_qr_scan"}, "fusion_lon": 0.0, "lon": -77.08195483333333, "name": "ebdfef1b6cb91bcde704c3d0954634f8", "is_reserved": 0, "is_disabled": 0}, {"lat": 38.86504433333333, "fusion_lat": 0.0, "type": "electric_bike", "bike_id": "b94ad795860c88b86ee1602d5198a5b5", "rental_uris": {"ios": "https://dc.lft.to/lastmile_qr_scan", "android": "https://dc.lft.to/lastmile_qr_scan"}, "fusion_lon": 0.0, "lon": -76.97740283333333, "name": "b94ad795860c88b86ee1602d5198a5b5", "is_reserved": 0, "is_disabled": 0}, {"lat": 38.95405133333333, "fusion_lat": 0.0, "type": "electric_scooter", "bike_id": "fbd0aea2fc5ee70497f582507540c697", "rental_uris": {"ios": "https://dc.lft.to/lastmile_qr_scan", "android": "https://dc.lft.to/lastmile_qr_scan"}, "fusion_lon": 0.0, "lon": -77.02795483333334, "name": "fbd0aea2fc5ee70497f582507540c697", "is_reserved": 0, "is_disabled": 0}, {"lat": 38.915628, "fusion_lat": 0.0, "type": "electric_bike", "bike_id": "4e491fa0db933f8ae48e55f9cf7c10cd", "rental_uris": {"ios": "https://dc.lft.to/lastmile_qr_scan", "android": "https://dc.lft.to/lastmile_qr_scan"}, "fusion_lon": 0.0, "lon": -77.04038, "name": "4e491fa0db933f8ae48e55f9cf7c10cd", "is_reserved": 0, "is_disabled": 0}, {"lat": 38.88747583333333, "fusion_lat": 0.0, "type": "electric_scooter", "bike_id": "91b4fe1bf394c9792bd2f2939b23c5b4", "rental_uris": {"ios": "https://dc.lft.to/lastmile_qr_scan", "android": "https://dc.lft.to/lastmile_qr_scan"}, "fusion_lon": 0.0, "lon": -77.02776433333334, "name": "91b4fe1bf394c9792bd2f2939b23c5b4", "is_reserved": 0, "is_disabled": 0}, {"lat": 38.8843115, "fusion_lat": 0.0, "type": "electric_scooter", "bike_id": "84950e889bd60e9e5dfc898a160ea897", "rental_uris": {"ios": "https://dc.lft.to/lastmile_qr_scan", "android": "https://dc.lft.to/lastmile_qr_scan"}, "fusion_lon": 0.0, "lon": -76.95755366666667, "name": "84950e889bd60e9e5dfc898a160ea897", "is_reserved": 0, "is_disabled": 0}, {"lat": 38.90786166666667, "fusion_lat": 0.0, "type": "electric_scooter", "bike_id": "cb7e24bf8c820e3707fa433f12122e4f", "rental_uris": {"ios": "https://dc.lft.to/lastmile_qr_scan", "android": "https://dc.lft.to/lastmile_qr_scan"}, "fusion_lon": 0.0, "lon": -77.04322966666666, "name": "cb7e24bf8c820e3707fa433f12122e4f", "is_reserved": 0, "is_disabled": 0}, {"lat": 38.91636716666667, "fusion_lat": 0.0, "type": "electric_scooter", "bike_id": "dec056e75e0c8f15918d05016940a3c8", "rental_uris": {"ios": "https://dc.lft.to/lastmile_qr_scan", "android": "https://dc.lft.to/lastmile_qr_scan"}, "fusion_lon": 0.0, "lon": -77.05068983333334, "name": "dec056e75e0c8f15918d05016940a3c8", "is_reserved": 0, "is_disabled": 0}, {"lat": 38.9108115, "fusion_lat": 0.0, "type": "electric_scooter", "bike_id": "f82cf253787a8bcf0b77acee22c69f25", "rental_uris": {"ios": "https://dc.lft.to/lastmile_qr_scan", "android": "https://dc.lft.to/lastmile_qr_scan"}, "fusion_lon": 0.0, "lon": -77.0015, "name": "f82cf253787a8bcf0b77acee22c69f25", "is_reserved": 0, "is_disabled": 0}, {"lat": 38.93474283333333, "fusion_lat": 0.0, "type": "electric_scooter", "bike_id": "1e4f398bcc3ce6df61ccc3e3c3e02aa0", "rental_uris": {"ios": "https://dc.lft.to/lastmile_qr_scan", "android": "https://dc.lft.to/lastmile_qr_scan"}, "fusion_lon": 0.0, "lon": -77.0727775, "name": "1e4f398bcc3ce6df61ccc3e3c3e02aa0", "is_reserved": 0, "is_disabled": 0}, {"lat": 38.9196095, "fusion_lat": 0.0, "type": "electric_scooter", "bike_id": "e17e8d6694928b4f74e498dffa44ab22", "rental_uris": {"ios": "https://dc.lft.to/lastmile_qr_scan", "android": "https://dc.lft.to/lastmile_qr_scan"}, "fusion_lon": 0.0, "lon": -77.02384783333333, "name": "e17e8d6694928b4f74e498dffa44ab22", "is_reserved": 0, "is_disabled": 0}, {"lat": 38.9097745, "fusion_lat": 0.0, "type": "electric_scooter", "bike_id": "1238d6cd0c2aa4987fecd0186bd6491f", "rental_uris": {"ios": "https://dc.lft.to/lastmile_qr_scan", "android": "https://dc.lft.to/lastmile_qr_scan"}, "fusion_lon": 0.0, "lon": -77.03252633333334, "name": "1238d6cd0c2aa4987fecd0186bd6491f", "is_reserved": 0, "is_disabled": 0}, {"lat": 38.9248575, "fusion_lat": 0.0, "type": "electric_scooter", "bike_id": "a24c817e0246e4f5368f9089d8aeb1b0", "rental_uris": {"ios": "https://dc.lft.to/lastmile_qr_scan", "android": "https://dc.lft.to/lastmile_qr_scan"}, "fusion_lon": 0.0, "lon": -77.05215333333334, "name": "a24c817e0246e4f5368f9089d8aeb1b0", "is_reserved": 0, "is_disabled": 0}, {"lat": 38.819129333333336, "fusion_lat": 0.0, "type": "electric_bike", "bike_id": "6238ed2f123695f084ce0e686f0c2b81", "rental_uris": {"ios": "https://dc.lft.to/lastmile_qr_scan", "android": "https://dc.lft.to/lastmile_qr_scan"}, "fusion_lon": 0.0, "lon": -77.12653366666666, "name": "6238ed2f123695f084ce0e686f0c2b81", "is_reserved": 0, "is_disabled": 0}, {"lat": 38.920725833333336, "fusion_lat": 0.0, "type": "electric_scooter", "bike_id": "f6f265002638aa81c0fa68d78bd5bc62", "rental_uris": {"ios": "https://dc.lft.to/lastmile_qr_scan", "android": "https://dc.lft.to/lastmile_qr_scan"}, "fusion_lon": 0.0, "lon": -77.02406916666666, "name": "f6f265002638aa81c0fa68d78bd5bc62", "is_reserved": 0, "is_disabled": 0}, {"lat": 38.937087166666664, "fusion_lat": 0.0, "type": "electric_scooter", "bike_id": "3b4d6a0470aff0449680237869a65a35", "rental_uris": {"ios": "https://dc.lft.to/lastmile_qr_scan", "android": "https://dc.lft.to/lastmile_qr_scan"}, "fusion_lon": 0.0, "lon": -77.089781, "name": "3b4d6a0470aff0449680237869a65a35", "is_reserved": 0, "is_disabled": 0}, {"lat": 38.86498816666667, "fusion_lat": 0.0, "type": "electric_bike", "bike_id": "b3e07356d0eea949cfeb50a434ef9256", "rental_uris": {"ios": "https://dc.lft.to/lastmile_qr_scan", "android": "https://dc.lft.to/lastmile_qr_scan"}, "fusion_lon": 0.0, "lon": -77.07667533333333, "name": "b3e07356d0eea949cfeb50a434ef9256", "is_reserved": 0, "is_disabled": 0}, {"lat": 38.89803033333333, "fusion_lat": 0.0, "type": "electric_scooter", "bike_id": "2f12c21d08a8812e4e4a33309b0249d9", "rental_uris": {"ios": "https://dc.lft.to/lastmile_qr_scan", "android": "https://dc.lft.to/lastmile_qr_scan"}, "fusion_lon": 0.0, "lon": -77.02785333333334, "name": "2f12c21d08a8812e4e4a33309b0249d9", "is_reserved": 0, "is_disabled": 0}, {"lat": 38.91867583333333, "fusion_lat": 0.0, "type": "electric_scooter", "bike_id": "6ac83729753d3e3198f23c5806e31ec1", "rental_uris": {"ios": "https://dc.lft.to/lastmile_qr_scan", "android": "https://dc.lft.to/lastmile_qr_scan"}, "fusion_lon": 0.0, "lon": -77.0357365, "name": "6ac83729753d3e3198f23c5806e31ec1", "is_reserved": 0, "is_disabled": 0}, {"lat": 38.891957166666664, "fusion_lat": 0.0, "type": "electric_scooter", "bike_id": "77a38d2870d4fe3c52f3949889b15693", "rental_uris": {"ios": "https://dc.lft.to/lastmile_qr_scan", "android": "https://dc.lft.to/lastmile_qr_scan"}, "fusion_lon": 0.0, "lon": -76.99850383333333, "name": "77a38d2870d4fe3c52f3949889b15693", "is_reserved": 0, "is_disabled": 0}, {"lat": 38.9024395, "fusion_lat": 0.0, "type": "electric_scooter", "bike_id": "008378d87a55de17c654c6e460693de7", "rental_uris": {"ios": "https://dc.lft.to/lastmile_qr_scan", "android": "https://dc.lft.to/lastmile_qr_scan"}, "fusion_lon": 0.0, "lon": -77.01507083333334, "name": "008378d87a55de17c654c6e460693de7", "is_reserved": 0, "is_disabled": 0}, {"lat": 38.89845566666666, "fusion_lat": 0.0, "type": "electric_scooter", "bike_id": "12f5a3b3739ef368be3163e8d63812cf", "rental_uris": {"ios": "https://dc.lft.to/lastmile_qr_scan", "android": "https://dc.lft.to/lastmile_qr_scan"}, "fusion_lon": 0.0, "lon": -77.03955783333333, "name": "12f5a3b3739ef368be3163e8d63812cf", "is_reserved": 0, "is_disabled": 0}, {"lat": 38.84422766666667, "fusion_lat": 0.0, "type": "electric_scooter", "bike_id": "91bb48bc0290d76c8a5a794436bc0b69", "rental_uris": {"ios": "https://dc.lft.to/lastmile_qr_scan", "android": "https://dc.lft.to/lastmile_qr_scan"}, "fusion_lon": 0.0, "lon": -76.9978065, "name": "91bb48bc0290d76c8a5a794436bc0b69", "is_reserved": 0, "is_disabled": 0}, {"lat": 38.966306833333334, "fusion_lat": 0.0, "type": "electric_bike", "bike_id": "fe81db18304282fbe89fe73738c2c28a", "rental_uris": {"ios": "https://dc.lft.to/lastmile_qr_scan", "android": "https://dc.lft.to/lastmile_qr_scan"}, "fusion_lon": 0.0, "lon": -77.03426833333333, "name": "fe81db18304282fbe89fe73738c2c28a", "is_reserved": 0, "is_disabled": 0}, {"lat": 38.884907166666665, "fusion_lat": 0.0, "type": "electric_scooter", "bike_id": "58d4c93af04c04f086d2cf47934dd310", "rental_uris": {"ios": "https://dc.lft.to/lastmile_qr_scan", "android": "https://dc.lft.to/lastmile_qr_scan"}, "fusion_lon": 0.0, "lon": -77.03478616666666, "name": "58d4c93af04c04f086d2cf47934dd310", "is_reserved": 0, "is_disabled": 0}, {"lat": 38.88487383333333, "fusion_lat": 0.0, "type": "electric_scooter", "bike_id": "fd7e1ab6eba329b479d6bb0f623a8bc9", "rental_uris": {"ios": "https://dc.lft.to/lastmile_qr_scan", "android": "https://dc.lft.to/lastmile_qr_scan"}, "fusion_lon": 0.0, "lon": -77.00708366666667, "name": "fd7e1ab6eba329b479d6bb0f623a8bc9", "is_reserved": 0, "is_disabled": 0}, {"lat": 38.91575616666667, "fusion_lat": 0.0, "type": "electric_scooter", "bike_id": "92d97efd42c569efb2dcb8286130b8e1", "rental_uris": {"ios": "https://dc.lft.to/lastmile_qr_scan", "android": "https://dc.lft.to/lastmile_qr_scan"}, "fusion_lon": 0.0, "lon": -77.03852933333333, "name": "92d97efd42c569efb2dcb8286130b8e1", "is_reserved": 0, "is_disabled": 0}, {"lat": 38.85620983333333, "fusion_lat": 0.0, "type": "electric_bike", "bike_id": "3591649676950125383d5d38b9365208", "rental_uris": {"ios": "https://dc.lft.to/lastmile_qr_scan", "android": "https://dc.lft.to/lastmile_qr_scan"}, "fusion_lon": 0.0, "lon": -76.96158083333333, "name": "3591649676950125383d5d38b9365208", "is_reserved": 0, "is_disabled": 0}, {"lat": 38.9276685, "fusion_lat": 0.0, "type": "electric_bike", "bike_id": "053e6b564abcb87182489ebbc9455059", "rental_uris": {"ios": "https://dc.lft.to/lastmile_qr_scan", "android": "https://dc.lft.to/lastmile_qr_scan"}, "fusion_lon": 0.0, "lon": -77.07013933333333, "name": "053e6b564abcb87182489ebbc9455059", "is_reserved": 0, "is_disabled": 0}, {"lat": 38.90926833333333, "fusion_lat": 0.0, "type": "electric_scooter", "bike_id": "4e7861b7c83751fc4b4d96df203778d6", "rental_uris": {"ios": "https://dc.lft.to/lastmile_qr_scan", "android": "https://dc.lft.to/lastmile_qr_scan"}, "fusion_lon": 0.0, "lon": -76.999664, "name": "4e7861b7c83751fc4b4d96df203778d6", "is_reserved": 0, "is_disabled": 0}, {"lat": 38.907217333333335, "fusion_lat": 0.0, "type": "electric_scooter", "bike_id": "64f8193af2bcd980aebae2702cead807", "rental_uris": {"ios": "https://dc.lft.to/lastmile_qr_scan", "android": "https://dc.lft.to/lastmile_qr_scan"}, "fusion_lon": 0.0, "lon": -77.02544266666666, "name": "64f8193af2bcd980aebae2702cead807", "is_reserved": 0, "is_disabled": 0}, {"lat": 38.911064333333336, "fusion_lat": 0.0, "type": "electric_scooter", "bike_id": "f12c80e8dd29a6090c00dd55137b60fd", "rental_uris": {"ios": "https://dc.lft.to/lastmile_qr_scan", "android": "https://dc.lft.to/lastmile_qr_scan"}, "fusion_lon": 0.0, "lon": -77.0021565, "name": "f12c80e8dd29a6090c00dd55137b60fd", "is_reserved": 0, "is_disabled": 0}, {"lat": 38.9361165, "fusion_lat": 0.0, "type": "electric_scooter", "bike_id": "824438e31be15bdba1a72570e51a3c4b", "rental_uris": {"ios": "https://dc.lft.to/lastmile_qr_scan", "android": "https://dc.lft.to/lastmile_qr_scan"}, "fusion_lon": 0.0, "lon": -77.03182083333333, "name": "824438e31be15bdba1a72570e51a3c4b", "is_reserved": 0, "is_disabled": 0}, {"lat": 38.899897833333334, "fusion_lat": 0.0, "type": "electric_scooter", "bike_id": "18be3448df101035dd4701a78606a393", "rental_uris": {"ios": "https://dc.lft.to/lastmile_qr_scan", "android": "https://dc.lft.to/lastmile_qr_scan"}, "fusion_lon": 0.0, "lon": -77.05081116666666, "name": "18be3448df101035dd4701a78606a393", "is_reserved": 0, "is_disabled": 0}, {"lat": 38.900393666666666, "fusion_lat": 0.0, "type": "electric_scooter", "bike_id": "387eb2d03f4ef087e7721853bb42af43", "rental_uris": {"ios": "https://dc.lft.to/lastmile_qr_scan", "android": "https://dc.lft.to/lastmile_qr_scan"}, "fusion_lon": 0.0, "lon": -77.001842, "name": "387eb2d03f4ef087e7721853bb42af43", "is_reserved": 0, "is_disabled": 0}, {"lat": 38.92385783333334, "fusion_lat": 0.0, "type": "electric_scooter", "bike_id": "f936a01ff4ada88ac351dd19aec9162b", "rental_uris": {"ios": "https://dc.lft.to/lastmile_qr_scan", "android": "https://dc.lft.to/lastmile_qr_scan"}, "fusion_lon": 0.0, "lon": -77.0306305, "name": "f936a01ff4ada88ac351dd19aec9162b", "is_reserved": 0, "is_disabled": 0}, {"lat": 38.94453766666667, "fusion_lat": 0.0, "type": "electric_scooter", "bike_id": "c482f6a4f1b388c358ff69e1078ea77e", "rental_uris": {"ios": "https://dc.lft.to/lastmile_qr_scan", "android": "https://dc.lft.to/lastmile_qr_scan"}, "fusion_lon": 0.0, "lon": -77.063589, "name": "c482f6a4f1b388c358ff69e1078ea77e", "is_reserved": 0, "is_disabled": 0}, {"lat": 38.91267216666667, "fusion_lat": 0.0, "type": "electric_scooter", "bike_id": "9d27341b5fd74602ea4769659208c6b5", "rental_uris": {"ios": "https://dc.lft.to/lastmile_qr_scan", "android": "https://dc.lft.to/lastmile_qr_scan"}, "fusion_lon": 0.0, "lon": -77.07434066666667, "name": "9d27341b5fd74602ea4769659208c6b5", "is_reserved": 0, "is_disabled": 0}, {"lat": 38.92810516666667, "fusion_lat": 0.0, "type": "electric_scooter", "bike_id": "fd2d0fa6827a1e4b6df99ff73c23bb21", "rental_uris": {"ios": "https://dc.lft.to/lastmile_qr_scan", "android": "https://dc.lft.to/lastmile_qr_scan"}, "fusion_lon": 0.0, "lon": -77.03635883333334, "name": "fd2d0fa6827a1e4b6df99ff73c23bb21", "is_reserved": 0, "is_disabled": 0}, {"lat": 38.92875266666667, "fusion_lat": 0.0, "type": "electric_scooter", "bike_id": "656efa09a80c19d2c0046ac76b578a93", "rental_uris": {"ios": "https://dc.lft.to/lastmile_qr_scan", "android": "https://dc.lft.to/lastmile_qr_scan"}, "fusion_lon": 0.0, "lon": -77.034445, "name": "656efa09a80c19d2c0046ac76b578a93", "is_reserved": 0, "is_disabled": 0}, {"lat": 38.920767166666664, "fusion_lat": 0.0, "type": "electric_scooter", "bike_id": "e3c4c935bda2f5ff1cf74fa4accb29e3", "rental_uris": {"ios": "https://dc.lft.to/lastmile_qr_scan", "android": "https://dc.lft.to/lastmile_qr_scan"}, "fusion_lon": 0.0, "lon": -77.02317816666667, "name": "e3c4c935bda2f5ff1cf74fa4accb29e3", "is_reserved": 0, "is_disabled": 0}, {"lat": 38.89768216666667, "fusion_lat": 0.0, "type": "electric_scooter", "bike_id": "561ed10faa305bb943236c82c5935039", "rental_uris": {"ios": "https://dc.lft.to/lastmile_qr_scan", "android": "https://dc.lft.to/lastmile_qr_scan"}, "fusion_lon": 0.0, "lon": -76.98557516666666, "name": "561ed10faa305bb943236c82c5935039", "is_reserved": 0, "is_disabled": 0}, {"lat": 38.8993345, "fusion_lat": 0.0, "type": "electric_scooter", "bike_id": "24d387e3e0a73cf88839340da0ac41e8", "rental_uris": {"ios": "https://dc.lft.to/lastmile_qr_scan", "android": "https://dc.lft.to/lastmile_qr_scan"}, "fusion_lon": 0.0, "lon": -77.012726, "name": "24d387e3e0a73cf88839340da0ac41e8", "is_reserved": 0, "is_disabled": 0}, {"lat": 38.9205925, "fusion_lat": 0.0, "type": "electric_scooter", "bike_id": "a7e343167fec0532c349f27432805a09", "rental_uris": {"ios": "https://dc.lft.to/lastmile_qr_scan", "android": "https://dc.lft.to/lastmile_qr_scan"}, "fusion_lon": 0.0, "lon": -77.01774533333334, "name": "a7e343167fec0532c349f27432805a09", "is_reserved": 0, "is_disabled": 0}, {"lat": 38.92081, "fusion_lat": 0.0, "type": "electric_scooter", "bike_id": "0e78a78d54d5a40b90c29f9ed59abc5e", "rental_uris": {"ios": "https://dc.lft.to/lastmile_qr_scan", "android": "https://dc.lft.to/lastmile_qr_scan"}, "fusion_lon": 0.0, "lon": -77.02316533333334, "name": "0e78a78d54d5a40b90c29f9ed59abc5e", "is_reserved": 0, "is_disabled": 0}, {"lat": 38.944213, "fusion_lat": 0.0, "type": "electric_scooter", "bike_id": "0146cc00016f2e337309d04280103674", "rental_uris": {"ios": "https://dc.lft.to/lastmile_qr_scan", "android": "https://dc.lft.to/lastmile_qr_scan"}, "fusion_lon": 0.0, "lon": -77.0177715, "name": "0146cc00016f2e337309d04280103674", "is_reserved": 0, "is_disabled": 0}, {"lat": 38.85947483333333, "fusion_lat": 0.0, "type": "electric_scooter", "bike_id": "35642ba06d03cb47e7f98ad0e92417b2", "rental_uris": {"ios": "https://dc.lft.to/lastmile_qr_scan", "android": "https://dc.lft.to/lastmile_qr_scan"}, "fusion_lon": 0.0, "lon": -76.95878916666666, "name": "35642ba06d03cb47e7f98ad0e92417b2", "is_reserved": 0, "is_disabled": 0}, {"lat": 38.8970555, "fusion_lat": 0.0, "type": "electric_scooter", "bike_id": "2f2f9ef9419170f8a0e8503c88ac815a", "rental_uris": {"ios": "https://dc.lft.to/lastmile_qr_scan", "android": "https://dc.lft.to/lastmile_qr_scan"}, "fusion_lon": 0.0, "lon": -77.0277695, "name": "2f2f9ef9419170f8a0e8503c88ac815a", "is_reserved": 0, "is_disabled": 0}, {"lat": 38.91607583333333, "fusion_lat": 0.0, "type": "electric_scooter", "bike_id": "d05f212005eb39f830942de62645e8c8", "rental_uris": {"ios": "https://dc.lft.to/lastmile_qr_scan", "android": "https://dc.lft.to/lastmile_qr_scan"}, "fusion_lon": 0.0, "lon": -77.03190733333334, "name": "d05f212005eb39f830942de62645e8c8", "is_reserved": 0, "is_disabled": 0}, {"lat": 38.896304, "fusion_lat": 0.0, "type": "electric_scooter", "bike_id": "662ad7c10f3ceb53d283de5341d1414b", "rental_uris": {"ios": "https://dc.lft.to/lastmile_qr_scan", "android": "https://dc.lft.to/lastmile_qr_scan"}, "fusion_lon": 0.0, "lon": -77.0291245, "name": "662ad7c10f3ceb53d283de5341d1414b", "is_reserved": 0, "is_disabled": 0}, {"lat": 38.89703316666667, "fusion_lat": 0.0, "type": "electric_scooter", "bike_id": "62d11c726f9bb95b33e7d7d37c12131f", "rental_uris": {"ios": "https://dc.lft.to/lastmile_qr_scan", "android": "https://dc.lft.to/lastmile_qr_scan"}, "fusion_lon": 0.0, "lon": -76.93574783333334, "name": "62d11c726f9bb95b33e7d7d37c12131f", "is_reserved": 0, "is_disabled": 0}, {"lat": 38.9803575, "fusion_lat": 0.0, "type": "electric_bike", "bike_id": "d1e09e1fbfbe66bc1b4c21e43c704dc6", "rental_uris": {"ios": "https://dc.lft.to/lastmile_qr_scan", "android": "https://dc.lft.to/lastmile_qr_scan"}, "fusion_lon": 0.0, "lon": -76.9579615, "name": "d1e09e1fbfbe66bc1b4c21e43c704dc6", "is_reserved": 0, "is_disabled": 0}, {"lat": 38.9614365, "fusion_lat": 0.0, "type": "electric_scooter", "bike_id": "ef546e1281d8c941dc6363064cc4aeb4", "rental_uris": {"ios": "https://dc.lft.to/lastmile_qr_scan", "android": "https://dc.lft.to/lastmile_qr_scan"}, "fusion_lon": 0.0, "lon": -77.02792116666667, "name": "ef546e1281d8c941dc6363064cc4aeb4", "is_reserved": 0, "is_disabled": 0}, {"lat": 38.93454116666667, "fusion_lat": 0.0, "type": "electric_scooter", "bike_id": "3bf3add94690d6277527454a4e240ba8", "rental_uris": {"ios": "https://dc.lft.to/lastmile_qr_scan", "android": "https://dc.lft.to/lastmile_qr_scan"}, "fusion_lon": 0.0, "lon": -77.02915533333334, "name": "3bf3add94690d6277527454a4e240ba8", "is_reserved": 0, "is_disabled": 0}, {"lat": 38.892215666666665, "fusion_lat": 0.0, "type": "electric_scooter", "bike_id": "0f99465a513fb0aefda472c4d8e76e7f", "rental_uris": {"ios": "https://dc.lft.to/lastmile_qr_scan", "android": "https://dc.lft.to/lastmile_qr_scan"}, "fusion_lon": 0.0, "lon": -77.03165, "name": "0f99465a513fb0aefda472c4d8e76e7f", "is_reserved": 0, "is_disabled": 0}, {"lat": 38.90935866666667, "fusion_lat": 0.0, "type": "electric_scooter", "bike_id": "a402a9d981a4ea885b6bec6fab8b622e", "rental_uris": {"ios": "https://dc.lft.to/lastmile_qr_scan", "android": "https://dc.lft.to/lastmile_qr_scan"}, "fusion_lon": 0.0, "lon": -77.0449125, "name": "a402a9d981a4ea885b6bec6fab8b622e", "is_reserved": 0, "is_disabled": 0}, {"lat": 38.888745166666666, "fusion_lat": 0.0, "type": "electric_scooter", "bike_id": "e5a80fdf247fba65ff327af3d723901e", "rental_uris": {"ios": "https://dc.lft.to/lastmile_qr_scan", "android": "https://dc.lft.to/lastmile_qr_scan"}, "fusion_lon": 0.0, "lon": -77.0399905, "name": "e5a80fdf247fba65ff327af3d723901e", "is_reserved": 0, "is_disabled": 0}, {"lat": 38.9183965, "fusion_lat": 0.0, "type": "electric_scooter", "bike_id": "6db671b72a4b81ce6e4203d72dc14f9d", "rental_uris": {"ios": "https://dc.lft.to/lastmile_qr_scan", "android": "https://dc.lft.to/lastmile_qr_scan"}, "fusion_lon": 0.0, "lon": -77.023257, "name": "6db671b72a4b81ce6e4203d72dc14f9d", "is_reserved": 0, "is_disabled": 0}, {"lat": 38.892314166666665, "fusion_lat": 0.0, "type": "electric_scooter", "bike_id": "26604e7247e8d2b13fbd490068eb3c06", "rental_uris": {"ios": "https://dc.lft.to/lastmile_qr_scan", "android": "https://dc.lft.to/lastmile_qr_scan"}, "fusion_lon": 0.0, "lon": -77.05004166666667, "name": "26604e7247e8d2b13fbd490068eb3c06", "is_reserved": 0, "is_disabled": 0}, {"lat": 38.934752333333336, "fusion_lat": 0.0, "type": "electric_scooter", "bike_id": "9398cef3d72e8187d5dc6f17c38cea0f", "rental_uris": {"ios": "https://dc.lft.to/lastmile_qr_scan", "android": "https://dc.lft.to/lastmile_qr_scan"}, "fusion_lon": 0.0, "lon": -77.07281216666667, "name": "9398cef3d72e8187d5dc6f17c38cea0f", "is_reserved": 0, "is_disabled": 0}, {"lat": 38.83811383333333, "fusion_lat": 0.0, "type": "electric_bike", "bike_id": "1a46a79e323e64d7a47bfbb3823ec22a", "rental_uris": {"ios": "https://dc.lft.to/lastmile_qr_scan", "android": "https://dc.lft.to/lastmile_qr_scan"}, "fusion_lon": 0.0, "lon": -77.0952275, "name": "1a46a79e323e64d7a47bfbb3823ec22a", "is_reserved": 0, "is_disabled": 0}, {"lat": 38.92347266666667, "fusion_lat": 0.0, "type": "electric_scooter", "bike_id": "c0b2d20846b04c0da3fee882cf75b849", "rental_uris": {"ios": "https://dc.lft.to/lastmile_qr_scan", "android": "https://dc.lft.to/lastmile_qr_scan"}, "fusion_lon": 0.0, "lon": -77.03509033333333, "name": "c0b2d20846b04c0da3fee882cf75b849", "is_reserved": 0, "is_disabled": 0}, {"lat": 39.03608033333333, "fusion_lat": 0.0, "type": "electric_bike", "bike_id": "eccf1e0e585e79062dfdad62675616cc", "rental_uris": {"ios": "https://dc.lft.to/lastmile_qr_scan", "android": "https://dc.lft.to/lastmile_qr_scan"}, "fusion_lon": 0.0, "lon": -77.055402, "name": "eccf1e0e585e79062dfdad62675616cc", "is_reserved": 0, "is_disabled": 0}, {"lat": 38.93967133333334, "fusion_lat": 0.0, "type": "electric_scooter", "bike_id": "b8f81bed8159ca133ff880b7b5bd6bb3", "rental_uris": {"ios": "https://dc.lft.to/lastmile_qr_scan", "android": "https://dc.lft.to/lastmile_qr_scan"}, "fusion_lon": 0.0, "lon": -77.03281916666667, "name": "b8f81bed8159ca133ff880b7b5bd6bb3", "is_reserved": 0, "is_disabled": 0}, {"lat": 38.925244, "fusion_lat": 0.0, "type": "electric_scooter", "bike_id": "d77c15833966b05251468d019144449b", "rental_uris": {"ios": "https://dc.lft.to/lastmile_qr_scan", "android": "https://dc.lft.to/lastmile_qr_scan"}, "fusion_lon": 0.0, "lon": -77.05550066666666, "name": "d77c15833966b05251468d019144449b", "is_reserved": 0, "is_disabled": 0}, {"lat": 38.92769283333333, "fusion_lat": 0.0, "type": "electric_scooter", "bike_id": "f15712dab3953b75d6e2abc30c2fcfbb", "rental_uris": {"ios": "https://dc.lft.to/lastmile_qr_scan", "android": "https://dc.lft.to/lastmile_qr_scan"}, "fusion_lon": 0.0, "lon": -77.02060816666666, "name": "f15712dab3953b75d6e2abc30c2fcfbb", "is_reserved": 0, "is_disabled": 0}, {"lat": 38.933934, "fusion_lat": 0.0, "type": "electric_bike", "bike_id": "99d828d761a2c6ccf5eaaee0e65b156d", "rental_uris": {"ios": "https://dc.lft.to/lastmile_qr_scan", "android": "https://dc.lft.to/lastmile_qr_scan"}, "fusion_lon": 0.0, "lon": -77.022136, "name": "99d828d761a2c6ccf5eaaee0e65b156d", "is_reserved": 0, "is_disabled": 0}, {"lat": 38.9170085, "fusion_lat": 0.0, "type": "electric_scooter", "bike_id": "f167935db12a02fd7c480714299550ea", "rental_uris": {"ios": "https://dc.lft.to/lastmile_qr_scan", "android": "https://dc.lft.to/lastmile_qr_scan"}, "fusion_lon": 0.0, "lon": -77.00499316666667, "name": "f167935db12a02fd7c480714299550ea", "is_reserved": 0, "is_disabled": 0}, {"lat": 38.909684666666664, "fusion_lat": 0.0, "type": "electric_scooter", "bike_id": "e84cc4878294219537fae259ed0862cd", "rental_uris": {"ios": "https://dc.lft.to/lastmile_qr_scan", "android": "https://dc.lft.to/lastmile_qr_scan"}, "fusion_lon": 0.0, "lon": -77.03844366666667, "name": "e84cc4878294219537fae259ed0862cd", "is_reserved": 0, "is_disabled": 0}, {"lat": 38.92538866666666, "fusion_lat": 0.0, "type": "electric_scooter", "bike_id": "9f4d70fcda7744cec9bc33a2797d5da8", "rental_uris": {"ios": "https://dc.lft.to/lastmile_qr_scan", "android": "https://dc.lft.to/lastmile_qr_scan"}, "fusion_lon": 0.0, "lon": -77.03818833333334, "name": "9f4d70fcda7744cec9bc33a2797d5da8", "is_reserved": 0, "is_disabled": 0}, {"lat": 38.9086115, "fusion_lat": 0.0, "type": "electric_scooter", "bike_id": "db758f1a5a1aba9b402d2de09446ea27", "rental_uris": {"ios": "https://dc.lft.to/lastmile_qr_scan", "android": "https://dc.lft.to/lastmile_qr_scan"}, "fusion_lon": 0.0, "lon": -76.999799, "name": "db758f1a5a1aba9b402d2de09446ea27", "is_reserved": 0, "is_disabled": 0}, {"lat": 38.906468, "fusion_lat": 0.0, "type": "electric_scooter", "bike_id": "0e841f6c5576c59c721c633910883844", "rental_uris": {"ios": "https://dc.lft.to/lastmile_qr_scan", "android": "https://dc.lft.to/lastmile_qr_scan"}, "fusion_lon": 0.0, "lon": -77.02473316666666, "name": "0e841f6c5576c59c721c633910883844", "is_reserved": 0, "is_disabled": 0}, {"lat": 38.9047975, "fusion_lat": 0.0, "type": "electric_scooter", "bike_id": "25d27fc483915d11b492c1a16f51e123", "rental_uris": {"ios": "https://dc.lft.to/lastmile_qr_scan", "android": "https://dc.lft.to/lastmile_qr_scan"}, "fusion_lon": 0.0, "lon": -76.973242, "name": "25d27fc483915d11b492c1a16f51e123", "is_reserved": 0, "is_disabled": 0}, {"lat": 38.897446333333335, "fusion_lat": 0.0, "type": "electric_scooter", "bike_id": "2357adc241d3437a29d17294a1fdb02b", "rental_uris": {"ios": "https://dc.lft.to/lastmile_qr_scan", "android": "https://dc.lft.to/lastmile_qr_scan"}, "fusion_lon": 0.0, "lon": -77.043542, "name": "2357adc241d3437a29d17294a1fdb02b", "is_reserved": 0, "is_disabled": 0}, {"lat": 38.9127035, "fusion_lat": 0.0, "type": "electric_scooter", "bike_id": "e1634929ccc737abe8d990cd1b6c37ab", "rental_uris": {"ios": "https://dc.lft.to/lastmile_qr_scan", "android": "https://dc.lft.to/lastmile_qr_scan"}, "fusion_lon": 0.0, "lon": -77.02216416666667, "name": "e1634929ccc737abe8d990cd1b6c37ab", "is_reserved": 0, "is_disabled": 0}, {"lat": 38.92221683333333, "fusion_lat": 0.0, "type": "electric_scooter", "bike_id": "094c4c2497d93a33b4d8efe4ba5b7017", "rental_uris": {"ios": "https://dc.lft.to/lastmile_qr_scan", "android": "https://dc.lft.to/lastmile_qr_scan"}, "fusion_lon": 0.0, "lon": -77.04330583333333, "name": "094c4c2497d93a33b4d8efe4ba5b7017", "is_reserved": 0, "is_disabled": 0}, {"lat": 38.923467, "fusion_lat": 0.0, "type": "electric_scooter", "bike_id": "69b41e7e82cd22c862f49977b68869b3", "rental_uris": {"ios": "https://dc.lft.to/lastmile_qr_scan", "android": "https://dc.lft.to/lastmile_qr_scan"}, "fusion_lon": 0.0, "lon": -77.05177033333334, "name": "69b41e7e82cd22c862f49977b68869b3", "is_reserved": 0, "is_disabled": 0}, {"lat": 38.89265116666667, "fusion_lat": 0.0, "type": "electric_scooter", "bike_id": "d502bf7add4fcd9e52d4dde0cb2c50fa", "rental_uris": {"ios": "https://dc.lft.to/lastmile_qr_scan", "android": "https://dc.lft.to/lastmile_qr_scan"}, "fusion_lon": 0.0, "lon": -77.04668733333334, "name": "d502bf7add4fcd9e52d4dde0cb2c50fa", "is_reserved": 0, "is_disabled": 0}, {"lat": 38.93201366666667, "fusion_lat": 0.0, "type": "electric_scooter", "bike_id": "a827088016b63b2b4f83c4b12f6ac1fd", "rental_uris": {"ios": "https://dc.lft.to/lastmile_qr_scan", "android": "https://dc.lft.to/lastmile_qr_scan"}, "fusion_lon": 0.0, "lon": -77.037502, "name": "a827088016b63b2b4f83c4b12f6ac1fd", "is_reserved": 0, "is_disabled": 0}, {"lat": 38.8919615, "fusion_lat": 0.0, "type": "electric_scooter", "bike_id": "075de0f30ce66759932e704f132eb6f5", "rental_uris": {"ios": "https://dc.lft.to/lastmile_qr_scan", "android": "https://dc.lft.to/lastmile_qr_scan"}, "fusion_lon": 0.0, "lon": -77.02378616666667, "name": "075de0f30ce66759932e704f132eb6f5", "is_reserved": 0, "is_disabled": 0}, {"lat": 38.92718033333333, "fusion_lat": 0.0, "type": "electric_scooter", "bike_id": "8e4a008c7119c4e927ad50ca2445e001", "rental_uris": {"ios": "https://dc.lft.to/lastmile_qr_scan", "android": "https://dc.lft.to/lastmile_qr_scan"}, "fusion_lon": 0.0, "lon": -77.053462, "name": "8e4a008c7119c4e927ad50ca2445e001", "is_reserved": 0, "is_disabled": 0}, {"lat": 38.93610566666667, "fusion_lat": 0.0, "type": "electric_scooter", "bike_id": "7c0ac55fa63ab5a5be7e217b02bd0a4c", "rental_uris": {"ios": "https://dc.lft.to/lastmile_qr_scan", "android": "https://dc.lft.to/lastmile_qr_scan"}, "fusion_lon": 0.0, "lon": -77.07307366666667, "name": "7c0ac55fa63ab5a5be7e217b02bd0a4c", "is_reserved": 0, "is_disabled": 0}, {"lat": 38.89878066666667, "fusion_lat": 0.0, "type": "electric_scooter", "bike_id": "b42db448717b3e45a7bc77bbabaab3bd", "rental_uris": {"ios": "https://dc.lft.to/lastmile_qr_scan", "android": "https://dc.lft.to/lastmile_qr_scan"}, "fusion_lon": 0.0, "lon": -76.93187166666667, "name": "b42db448717b3e45a7bc77bbabaab3bd", "is_reserved": 0, "is_disabled": 0}, {"lat": 38.9078935, "fusion_lat": 0.0, "type": "electric_scooter", "bike_id": "5cc6ffeaae5d20f215b9cb3ac6ff62fa", "rental_uris": {"ios": "https://dc.lft.to/lastmile_qr_scan", "android": "https://dc.lft.to/lastmile_qr_scan"}, "fusion_lon": 0.0, "lon": -77.0320775, "name": "5cc6ffeaae5d20f215b9cb3ac6ff62fa", "is_reserved": 0, "is_disabled": 0}, {"lat": 38.892385833333336, "fusion_lat": 0.0, "type": "electric_scooter", "bike_id": "2a5662a21f0ca8862e5ba7e61de0f92a", "rental_uris": {"ios": "https://dc.lft.to/lastmile_qr_scan", "android": "https://dc.lft.to/lastmile_qr_scan"}, "fusion_lon": 0.0, "lon": -77.04159316666667, "name": "2a5662a21f0ca8862e5ba7e61de0f92a", "is_reserved": 0, "is_disabled": 0}, {"lat": 38.91234766666667, "fusion_lat": 0.0, "type": "electric_scooter", "bike_id": "e4a486616294c19e98ff502f301d4da4", "rental_uris": {"ios": "https://dc.lft.to/lastmile_qr_scan", "android": "https://dc.lft.to/lastmile_qr_scan"}, "fusion_lon": 0.0, "lon": -77.0609865, "name": "e4a486616294c19e98ff502f301d4da4", "is_reserved": 0, "is_disabled": 0}, {"lat": 38.996677166666665, "fusion_lat": 0.0, "type": "electric_bike", "bike_id": "cd265c14c73f88c70d7ae8800b558ac5", "rental_uris": {"ios": "https://dc.lft.to/lastmile_qr_scan", "android": "https://dc.lft.to/lastmile_qr_scan"}, "fusion_lon": 0.0, "lon": -77.03761933333334, "name": "cd265c14c73f88c70d7ae8800b558ac5", "is_reserved": 0, "is_disabled": 0}, {"lat": 38.884346, "fusion_lat": 0.0, "type": "electric_scooter", "bike_id": "3baf969b9188d79c3590f7d643fc6ead", "rental_uris": {"ios": "https://dc.lft.to/lastmile_qr_scan", "android": "https://dc.lft.to/lastmile_qr_scan"}, "fusion_lon": 0.0, "lon": -77.01750683333333, "name": "3baf969b9188d79c3590f7d643fc6ead", "is_reserved": 0, "is_disabled": 0}, {"lat": 38.899314333333336, "fusion_lat": 0.0, "type": "electric_scooter", "bike_id": "ddae981e71baa866c4d60763ba9e82d8", "rental_uris": {"ios": "https://dc.lft.to/lastmile_qr_scan", "android": "https://dc.lft.to/lastmile_qr_scan"}, "fusion_lon": 0.0, "lon": -77.012726, "name": "ddae981e71baa866c4d60763ba9e82d8", "is_reserved": 0, "is_disabled": 0}, {"lat": 38.908214, "fusion_lat": 0.0, "type": "electric_scooter", "bike_id": "ab055f2b7f9ffa28abcc4223188f51f6", "rental_uris": {"ios": "https://dc.lft.to/lastmile_qr_scan", "android": "https://dc.lft.to/lastmile_qr_scan"}, "fusion_lon": 0.0, "lon": -77.03447916666667, "name": "ab055f2b7f9ffa28abcc4223188f51f6", "is_reserved": 0, "is_disabled": 0}, {"lat": 38.88750483333333, "fusion_lat": 0.0, "type": "electric_scooter", "bike_id": "178c9f0bce0d792bfe5514d63ce67199", "rental_uris": {"ios": "https://dc.lft.to/lastmile_qr_scan", "android": "https://dc.lft.to/lastmile_qr_scan"}, "fusion_lon": 0.0, "lon": -77.0257195, "name": "178c9f0bce0d792bfe5514d63ce67199", "is_reserved": 0, "is_disabled": 0}, {"lat": 38.93116783333333, "fusion_lat": 0.0, "type": "electric_scooter", "bike_id": "d692d623c06b1446661ce51b9828576a", "rental_uris": {"ios": "https://dc.lft.to/lastmile_qr_scan", "android": "https://dc.lft.to/lastmile_qr_scan"}, "fusion_lon": 0.0, "lon": -77.03029133333334, "name": "d692d623c06b1446661ce51b9828576a", "is_reserved": 0, "is_disabled": 0}, {"lat": 38.891900666666665, "fusion_lat": 0.0, "type": "electric_scooter", "bike_id": "dc9a253bab0c8c45342d557f8db8a3e9", "rental_uris": {"ios": "https://dc.lft.to/lastmile_qr_scan", "android": "https://dc.lft.to/lastmile_qr_scan"}, "fusion_lon": 0.0, "lon": -77.03181083333334, "name": "dc9a253bab0c8c45342d557f8db8a3e9", "is_reserved": 0, "is_disabled": 0}, {"lat": 38.900145, "fusion_lat": 0.0, "type": "electric_scooter", "bike_id": "b07804853bedbd924e0b4bec3c7eb2e7", "rental_uris": {"ios": "https://dc.lft.to/lastmile_qr_scan", "android": "https://dc.lft.to/lastmile_qr_scan"}, "fusion_lon": 0.0, "lon": -76.98850333333333, "name": "b07804853bedbd924e0b4bec3c7eb2e7", "is_reserved": 0, "is_disabled": 0}, {"lat": 38.909668833333335, "fusion_lat": 0.0, "type": "electric_scooter", "bike_id": "dccd6856bb3a79421e20f01af8390509", "rental_uris": {"ios": "https://dc.lft.to/lastmile_qr_scan", "android": "https://dc.lft.to/lastmile_qr_scan"}, "fusion_lon": 0.0, "lon": -77.0469235, "name": "dccd6856bb3a79421e20f01af8390509", "is_reserved": 0, "is_disabled": 0}, {"lat": 38.88370333333334, "fusion_lat": 0.0, "type": "electric_scooter", "bike_id": "375a3aa6b6d32949255225bc19d56816", "rental_uris": {"ios": "https://dc.lft.to/lastmile_qr_scan", "android": "https://dc.lft.to/lastmile_qr_scan"}, "fusion_lon": 0.0, "lon": -76.99500633333334, "name": "375a3aa6b6d32949255225bc19d56816", "is_reserved": 0, "is_disabled": 0}, {"lat": 38.91453466666667, "fusion_lat": 0.0, "type": "electric_bike", "bike_id": "c47aa901d0d99a0bd5429c934ef05fdb", "rental_uris": {"ios": "https://dc.lft.to/lastmile_qr_scan", "android": "https://dc.lft.to/lastmile_qr_scan"}, "fusion_lon": 0.0, "lon": -76.9724545, "name": "c47aa901d0d99a0bd5429c934ef05fdb", "is_reserved": 0, "is_disabled": 0}, {"lat": 38.905803, "fusion_lat": 0.0, "type": "electric_scooter", "bike_id": "47bb8ffc7aefd09b37c737bf33488a71", "rental_uris": {"ios": "https://dc.lft.to/lastmile_qr_scan", "android": "https://dc.lft.to/lastmile_qr_scan"}, "fusion_lon": 0.0, "lon": -77.03449683333334, "name": "47bb8ffc7aefd09b37c737bf33488a71", "is_reserved": 0, "is_disabled": 0}, {"lat": 38.88367016666667, "fusion_lat": 0.0, "type": "electric_scooter", "bike_id": "6f7893f54dc49ff212155334f28e0ef3", "rental_uris": {"ios": "https://dc.lft.to/lastmile_qr_scan", "android": "https://dc.lft.to/lastmile_qr_scan"}, "fusion_lon": 0.0, "lon": -76.9950865, "name": "6f7893f54dc49ff212155334f28e0ef3", "is_reserved": 0, "is_disabled": 0}, {"lat": 38.9660985, "fusion_lat": 0.0, "type": "electric_scooter", "bike_id": "eeca1535a1963632d7f9f33d0625b505", "rental_uris": {"ios": "https://dc.lft.to/lastmile_qr_scan", "android": "https://dc.lft.to/lastmile_qr_scan"}, "fusion_lon": 0.0, "lon": -77.02007616666667, "name": "eeca1535a1963632d7f9f33d0625b505", "is_reserved": 0, "is_disabled": 0}, {"lat": 38.907742666666664, "fusion_lat": 0.0, "type": "electric_scooter", "bike_id": "05e980a1da6f544652944b13d2df6022", "rental_uris": {"ios": "https://dc.lft.to/lastmile_qr_scan", "android": "https://dc.lft.to/lastmile_qr_scan"}, "fusion_lon": 0.0, "lon": -77.038457, "name": "05e980a1da6f544652944b13d2df6022", "is_reserved": 0, "is_disabled": 0}, {"lat": 38.93064433333333, "fusion_lat": 0.0, "type": "electric_scooter", "bike_id": "9aa1b74bdaae3cb4ed78fb94ed860cd9", "rental_uris": {"ios": "https://dc.lft.to/lastmile_qr_scan", "android": "https://dc.lft.to/lastmile_qr_scan"}, "fusion_lon": 0.0, "lon": -77.0394535, "name": "9aa1b74bdaae3cb4ed78fb94ed860cd9", "is_reserved": 0, "is_disabled": 0}, {"lat": 38.93461033333333, "fusion_lat": 0.0, "type": "electric_scooter", "bike_id": "305a8eb88b155be450b02e7d802149e6", "rental_uris": {"ios": "https://dc.lft.to/lastmile_qr_scan", "android": "https://dc.lft.to/lastmile_qr_scan"}, "fusion_lon": 0.0, "lon": -77.02780083333333, "name": "305a8eb88b155be450b02e7d802149e6", "is_reserved": 0, "is_disabled": 0}, {"lat": 38.836293, "fusion_lat": 0.0, "type": "electric_bike", "bike_id": "0536b4096683260f07f1f0e8443f7b4c", "rental_uris": {"ios": "https://dc.lft.to/lastmile_qr_scan", "android": "https://dc.lft.to/lastmile_qr_scan"}, "fusion_lon": 0.0, "lon": -77.06949783333333, "name": "0536b4096683260f07f1f0e8443f7b4c", "is_reserved": 0, "is_disabled": 0}, {"lat": 38.921399, "fusion_lat": 0.0, "type": "electric_scooter", "bike_id": "c46f54213a4c18a9561a4b2572e0f970", "rental_uris": {"ios": "https://dc.lft.to/lastmile_qr_scan", "android": "https://dc.lft.to/lastmile_qr_scan"}, "fusion_lon": 0.0, "lon": -77.04362433333333, "name": "c46f54213a4c18a9561a4b2572e0f970", "is_reserved": 0, "is_disabled": 0}, {"lat": 38.93630516666666, "fusion_lat": 0.0, "type": "electric_scooter", "bike_id": "da0ff8481741d74967507187cdb2630e", "rental_uris": {"ios": "https://dc.lft.to/lastmile_qr_scan", "android": "https://dc.lft.to/lastmile_qr_scan"}, "fusion_lon": 0.0, "lon": -77.021104, "name": "da0ff8481741d74967507187cdb2630e", "is_reserved": 0, "is_disabled": 0}, {"lat": 38.904303666666664, "fusion_lat": 0.0, "type": "electric_scooter", "bike_id": "b8a7d81d950dd4c7e104b2d5adcfee6c", "rental_uris": {"ios": "https://dc.lft.to/lastmile_qr_scan", "android": "https://dc.lft.to/lastmile_qr_scan"}, "fusion_lon": 0.0, "lon": -77.02772433333334, "name": "b8a7d81d950dd4c7e104b2d5adcfee6c", "is_reserved": 0, "is_disabled": 0}, {"lat": 38.9181905, "fusion_lat": 0.0, "type": "electric_scooter", "bike_id": "18cf8bd388c717181efe6f2a07c26c01", "rental_uris": {"ios": "https://dc.lft.to/lastmile_qr_scan", "android": "https://dc.lft.to/lastmile_qr_scan"}, "fusion_lon": 0.0, "lon": -77.036329, "name": "18cf8bd388c717181efe6f2a07c26c01", "is_reserved": 0, "is_disabled": 0}, {"lat": 38.91601566666667, "fusion_lat": 0.0, "type": "electric_bike", "bike_id": "f8cc85505bba299daea5a2d27eda9bda", "rental_uris": {"ios": "https://dc.lft.to/lastmile_qr_scan", "android": "https://dc.lft.to/lastmile_qr_scan"}, "fusion_lon": 0.0, "lon": -77.0401975, "name": "f8cc85505bba299daea5a2d27eda9bda", "is_reserved": 0, "is_disabled": 0}, {"lat": 38.917863, "fusion_lat": 0.0, "type": "electric_scooter", "bike_id": "5d81f75e5018d54fd93a78db986854a1", "rental_uris": {"ios": "https://dc.lft.to/lastmile_qr_scan", "android": "https://dc.lft.to/lastmile_qr_scan"}, "fusion_lon": 0.0, "lon": -77.0230905, "name": "5d81f75e5018d54fd93a78db986854a1", "is_reserved": 0, "is_disabled": 0}, {"lat": 38.91814383333333, "fusion_lat": 0.0, "type": "electric_scooter", "bike_id": "271cfe8877ee3ef4d3f6850c1858759d", "rental_uris": {"ios": "https://dc.lft.to/lastmile_qr_scan", "android": "https://dc.lft.to/lastmile_qr_scan"}, "fusion_lon": 0.0, "lon": -77.03798683333333, "name": "271cfe8877ee3ef4d3f6850c1858759d", "is_reserved": 0, "is_disabled": 0}, {"lat": 38.9203235, "fusion_lat": 0.0, "type": "electric_scooter", "bike_id": "1ed419491395e249eecfce0765e181b7", "rental_uris": {"ios": "https://dc.lft.to/lastmile_qr_scan", "android": "https://dc.lft.to/lastmile_qr_scan"}, "fusion_lon": 0.0, "lon": -77.0103785, "name": "1ed419491395e249eecfce0765e181b7", "is_reserved": 0, "is_disabled": 0}, {"lat": 38.92065383333333, "fusion_lat": 0.0, "type": "electric_scooter", "bike_id": "1091227606f6c849f81d9b14c8ba50f4", "rental_uris": {"ios": "https://dc.lft.to/lastmile_qr_scan", "android": "https://dc.lft.to/lastmile_qr_scan"}, "fusion_lon": 0.0, "lon": -77.024178, "name": "1091227606f6c849f81d9b14c8ba50f4", "is_reserved": 0, "is_disabled": 0}, {"lat": 38.93950383333333, "fusion_lat": 0.0, "type": "electric_scooter", "bike_id": "475e97d74e72c1e48cc8e464eff224f6", "rental_uris": {"ios": "https://dc.lft.to/lastmile_qr_scan", "android": "https://dc.lft.to/lastmile_qr_scan"}, "fusion_lon": 0.0, "lon": -77.021859, "name": "475e97d74e72c1e48cc8e464eff224f6", "is_reserved": 0, "is_disabled": 0}, {"lat": 38.898967666666664, "fusion_lat": 0.0, "type": "electric_scooter", "bike_id": "021371626ada7b9e84cabecd7346c7a1", "rental_uris": {"ios": "https://dc.lft.to/lastmile_qr_scan", "android": "https://dc.lft.to/lastmile_qr_scan"}, "fusion_lon": 0.0, "lon": -77.0099065, "name": "021371626ada7b9e84cabecd7346c7a1", "is_reserved": 0, "is_disabled": 0}, {"lat": 38.91607616666667, "fusion_lat": 0.0, "type": "electric_scooter", "bike_id": "a152c6fd3fe676d465064dd8d751335f", "rental_uris": {"ios": "https://dc.lft.to/lastmile_qr_scan", "android": "https://dc.lft.to/lastmile_qr_scan"}, "fusion_lon": 0.0, "lon": -77.04496466666667, "name": "a152c6fd3fe676d465064dd8d751335f", "is_reserved": 0, "is_disabled": 0}, {"lat": 38.80678966666667, "fusion_lat": 0.0, "type": "electric_bike", "bike_id": "55b7da0c33b813f428363aa14e43df8e", "rental_uris": {"ios": "https://dc.lft.to/lastmile_qr_scan", "android": "https://dc.lft.to/lastmile_qr_scan"}, "fusion_lon": 0.0, "lon": -77.069207, "name": "55b7da0c33b813f428363aa14e43df8e", "is_reserved": 0, "is_disabled": 0}, {"lat": 38.96154466666667, "fusion_lat": 0.0, "type": "electric_scooter", "bike_id": "cd77ca84ccf9c0881d50e0856399c1b6", "rental_uris": {"ios": "https://dc.lft.to/lastmile_qr_scan", "android": "https://dc.lft.to/lastmile_qr_scan"}, "fusion_lon": 0.0, "lon": -77.032335, "name": "cd77ca84ccf9c0881d50e0856399c1b6", "is_reserved": 0, "is_disabled": 0}, {"lat": 38.8849725, "fusion_lat": 0.0, "type": "electric_scooter", "bike_id": "7e5d7d1a6a3cf01343c32fe50466a77f", "rental_uris": {"ios": "https://dc.lft.to/lastmile_qr_scan", "android": "https://dc.lft.to/lastmile_qr_scan"}, "fusion_lon": 0.0, "lon": -76.9806615, "name": "7e5d7d1a6a3cf01343c32fe50466a77f", "is_reserved": 0, "is_disabled": 0}, {"lat": 38.921790333333334, "fusion_lat": 0.0, "type": "electric_scooter", "bike_id": "7eb6b921dce2cd5a7405601c35379506", "rental_uris": {"ios": "https://dc.lft.to/lastmile_qr_scan", "android": "https://dc.lft.to/lastmile_qr_scan"}, "fusion_lon": 0.0, "lon": -77.03990533333334, "name": "7eb6b921dce2cd5a7405601c35379506", "is_reserved": 0, "is_disabled": 0}, {"lat": 38.92847183333333, "fusion_lat": 0.0, "type": "electric_scooter", "bike_id": "be8cc8d0af6add375e5cebbd193855ec", "rental_uris": {"ios": "https://dc.lft.to/lastmile_qr_scan", "android": "https://dc.lft.to/lastmile_qr_scan"}, "fusion_lon": 0.0, "lon": -77.02009666666666, "name": "be8cc8d0af6add375e5cebbd193855ec", "is_reserved": 0, "is_disabled": 0}, {"lat": 38.862129, "fusion_lat": 0.0, "type": "electric_scooter", "bike_id": "76db7d962662146483ed1b8aaca3ad23", "rental_uris": {"ios": "https://dc.lft.to/lastmile_qr_scan", "android": "https://dc.lft.to/lastmile_qr_scan"}, "fusion_lon": 0.0, "lon": -76.994444, "name": "76db7d962662146483ed1b8aaca3ad23", "is_reserved": 0, "is_disabled": 0}, {"lat": 38.882639833333336, "fusion_lat": 0.0, "type": "electric_scooter", "bike_id": "c8c37aa76597a0462bb3a49ae3a27c62", "rental_uris": {"ios": "https://dc.lft.to/lastmile_qr_scan", "android": "https://dc.lft.to/lastmile_qr_scan"}, "fusion_lon": 0.0, "lon": -76.99613183333334, "name": "c8c37aa76597a0462bb3a49ae3a27c62", "is_reserved": 0, "is_disabled": 0}, {"lat": 38.94888916666667, "fusion_lat": 0.0, "type": "electric_scooter", "bike_id": "c8a23562c77635d92aac8bf7733fc424", "rental_uris": {"ios": "https://dc.lft.to/lastmile_qr_scan", "android": "https://dc.lft.to/lastmile_qr_scan"}, "fusion_lon": 0.0, "lon": -77.01852483333333, "name": "c8a23562c77635d92aac8bf7733fc424", "is_reserved": 0, "is_disabled": 0}, {"lat": 38.902704666666665, "fusion_lat": 0.0, "type": "electric_scooter", "bike_id": "0f5f5bf675a9c36832d81a34402611af", "rental_uris": {"ios": "https://dc.lft.to/lastmile_qr_scan", "android": "https://dc.lft.to/lastmile_qr_scan"},