{"data": {"bikes": [{"bike_id": "aaec1ed0c99f5ef27b4fde0d1754a6da", "type": "electric_scooter", "is_disabled": 0, "lat": 38.91914666666667, "rental_uris": {"ios": "https://dc.lft.to/lastmile_qr_scan", "android": "https://dc.lft.to/lastmile_qr_scan"}, "is_reserved": 0, "fusion_lon": 0.0, "fusion_lat": 0.0, "lon": -77.04481166666666, "name": "aaec1ed0c99f5ef27b4fde0d1754a6da"}, {"bike_id": "6e6519d690432e7cbf27b396064dd9f1", "type": "electric_scooter", "is_disabled": 0, "lat": 38.9038525, "rental_uris": {"ios": "https://dc.lft.to/lastmile_qr_scan", "android": "https://dc.lft.to/lastmile_qr_scan"}, "is_reserved": 0, "fusion_lon": 0.0, "fusion_lat": 0.0, "lon": -77.02207016666667, "name": "6e6519d690432e7cbf27b396064dd9f1"}, {"bike_id": "e19b655d4d0be9836897d990941830b7", "type": "electric_scooter", "is_disabled": 0, "lat": 38.914169666666666, "rental_uris": {"ios": "https://dc.lft.to/lastmile_qr_scan", "android": "https://dc.lft.to/lastmile_qr_scan"}, "is_reserved": 0, "fusion_lon": 0.0, "fusion_lat": 0.0, "lon": -77.022285, "name": "e19b655d4d0be9836897d990941830b7"}, {"bike_id": "3aaf83a09d1c817665deda15a5d5471a", "type": "electric_bike", "is_disabled": 0, "lat": 38.883969666666665, "rental_uris": {"ios": "https://dc.lft.to/lastmile_qr_scan", "android": "https://dc.lft.to/lastmile_qr_scan"}, "is_reserved": 0, "fusion_lon": 0.0, "fusion_lat": 0.0, "lon": -77.02413, "name": "3aaf83a09d1c817665deda15a5d5471a"}, {"bike_id": "a6e579fab64997032557285089d520ab", "type": "electric_scooter", "is_disabled": 0, "lat": 38.96167616666666, "rental_uris": {"ios": "https://dc.lft.to/lastmile_qr_scan", "android": "https://dc.lft.to/lastmile_qr_scan"}, "is_reserved": 0, "fusion_lon": 0.0, "fusion_lat": 0.0, "lon": -77.0427625, "name": "a6e579fab64997032557285089d520ab"}, {"bike_id": "84909fb9e9d5e7aeb50b15bf5f9f5b0c", "type": "electric_scooter", "is_disabled": 0, "lat": 38.9148065, "rental_uris": {"ios": "https://dc.lft.to/lastmile_qr_scan", "android": "https://dc.lft.to/lastmile_qr_scan"}, "is_reserved": 0, "fusion_lon": 0.0, "fusion_lat": 0.0, "lon": -77.0321565, "name": "84909fb9e9d5e7aeb50b15bf5f9f5b0c"}, {"bike_id": "a675a6bd7b1faccfe317dbcc95d4d8bb", "type": "electric_scooter", "is_disabled": 0, "lat": 38.91611666666667, "rental_uris": {"ios": "https://dc.lft.to/lastmile_qr_scan", "android": "https://dc.lft.to/lastmile_qr_scan"}, "is_reserved": 0, "fusion_lon": 0.0, "fusion_lat": 0.0, "lon": -77.02138666666667, "name": "a675a6bd7b1faccfe317dbcc95d4d8bb"}, {"bike_id": "50507ec662520cb1e7784b0b62e65c3d", "type": "electric_scooter", "is_disabled": 0, "lat": 38.9126445, "rental_uris": {"ios": "https://dc.lft.to/lastmile_qr_scan", "android": "https://dc.lft.to/lastmile_qr_scan"}, "is_reserved": 0, "fusion_lon": 0.0, "fusion_lat": 0.0, "lon": -77.03827683333333, "name": "50507ec662520cb1e7784b0b62e65c3d"}, {"bike_id": "e53f53be0a6118f38ae703dd8157bb4d", "type": "electric_scooter", "is_disabled": 0, "lat": 38.929084333333336, "rental_uris": {"ios": "https://dc.lft.to/lastmile_qr_scan", "android": "https://dc.lft.to/lastmile_qr_scan"}, "is_reserved": 0, "fusion_lon": 0.0, "fusion_lat": 0.0, "lon": -77.032757, "name": "e53f53be0a6118f38ae703dd8157bb4d"}, {"bike_id": "0d1d0bf5de2f906e210799700c7f81b2", "type": "electric_scooter", "is_disabled": 0, "lat": 38.913236166666664, "rental_uris": {"ios": "https://dc.lft.to/lastmile_qr_scan", "android": "https://dc.lft.to/lastmile_qr_scan"}, "is_reserved": 0, "fusion_lon": 0.0, "fusion_lat": 0.0, "lon": -77.03180316666666, "name": "0d1d0bf5de2f906e210799700c7f81b2"}, {"bike_id": "a21c9f74fa45ee8abf7f3449f04f0fe6", "type": "electric_scooter", "is_disabled": 0, "lat": 38.9660455, "rental_uris": {"ios": "https://dc.lft.to/lastmile_qr_scan", "android": "https://dc.lft.to/lastmile_qr_scan"}, "is_reserved": 0, "fusion_lon": 0.0, "fusion_lat": 0.0, "lon": -77.01978433333333, "name": "a21c9f74fa45ee8abf7f3449f04f0fe6"}, {"bike_id": "9893172a7f6623c7d90cd5ebf7fa3779", "type": "electric_scooter", "is_disabled": 0, "lat": 38.92255766666667, "rental_uris": {"ios": "https://dc.lft.to/lastmile_qr_scan", "android": "https://dc.lft.to/lastmile_qr_scan"}, "is_reserved": 0, "fusion_lon": 0.0, "fusion_lat": 0.0, "lon": -77.04256583333333, "name": "9893172a7f6623c7d90cd5ebf7fa3779"}, {"bike_id": "0f6b2eca13a55957bccd8671080084db", "type": "electric_scooter", "is_disabled": 0, "lat": 38.89994516666667, "rental_uris": {"ios": "https://dc.lft.to/lastmile_qr_scan", "android": "https://dc.lft.to/lastmile_qr_scan"}, "is_reserved": 0, "fusion_lon": 0.0, "fusion_lat": 0.0, "lon": -77.02156783333334, "name": "0f6b2eca13a55957bccd8671080084db"}, {"bike_id": "6f73af959a560054a964f5ea8f4f487e", "type": "electric_scooter", "is_disabled": 0, "lat": 38.87647883333333, "rental_uris": {"ios": "https://dc.lft.to/lastmile_qr_scan", "android": "https://dc.lft.to/lastmile_qr_scan"}, "is_reserved": 0, "fusion_lon": 0.0, "fusion_lat": 0.0, "lon": -76.96511716666667, "name": "6f73af959a560054a964f5ea8f4f487e"}, {"bike_id": "afb56b6e23e042dbf798c165fbf12246", "type": "electric_scooter", "is_disabled": 0, "lat": 38.914167, "rental_uris": {"ios": "https://dc.lft.to/lastmile_qr_scan", "android": "https://dc.lft.to/lastmile_qr_scan"}, "is_reserved": 0, "fusion_lon": 0.0, "fusion_lat": 0.0, "lon": -77.03228166666666, "name": "afb56b6e23e042dbf798c165fbf12246"}, {"bike_id": "2283da31c3d5e752aa094687296472e2", "type": "electric_scooter", "is_disabled": 0, "lat": 38.92856033333333, "rental_uris": {"ios": "https://dc.lft.to/lastmile_qr_scan", "android": "https://dc.lft.to/lastmile_qr_scan"}, "is_reserved": 0, "fusion_lon": 0.0, "fusion_lat": 0.0, "lon": -77.013922, "name": "2283da31c3d5e752aa094687296472e2"}, {"bike_id": "7d82f0673c225d1521b2c3f275acfa16", "type": "electric_scooter", "is_disabled": 0, "lat": 38.913829, "rental_uris": {"ios": "https://dc.lft.to/lastmile_qr_scan", "android": "https://dc.lft.to/lastmile_qr_scan"}, "is_reserved": 0, "fusion_lon": 0.0, "fusion_lat": 0.0, "lon": -77.017041, "name": "7d82f0673c225d1521b2c3f275acfa16"}, {"bike_id": "a42fa8f4a2fef26a5fe891587a04f1d3", "type": "electric_scooter", "is_disabled": 0, "lat": 38.927435833333334, "rental_uris": {"ios": "https://dc.lft.to/lastmile_qr_scan", "android": "https://dc.lft.to/lastmile_qr_scan"}, "is_reserved": 0, "fusion_lon": 0.0, "fusion_lat": 0.0, "lon": -77.03423066666667, "name": "a42fa8f4a2fef26a5fe891587a04f1d3"}, {"bike_id": "8ead8036444905b1421e0cd13f3c280c", "type": "electric_scooter", "is_disabled": 0, "lat": 38.878981833333334, "rental_uris": {"ios": "https://dc.lft.to/lastmile_qr_scan", "android": "https://dc.lft.to/lastmile_qr_scan"}, "is_reserved": 0, "fusion_lon": 0.0, "fusion_lat": 0.0, "lon": -77.02197766666667, "name": "8ead8036444905b1421e0cd13f3c280c"}, {"bike_id": "f4017dfd791f24f00c8c204d26c6a241", "type": "electric_bike", "is_disabled": 0, "lat": 38.90870566666667, "rental_uris": {"ios": "https://dc.lft.to/lastmile_qr_scan", "android": "https://dc.lft.to/lastmile_qr_scan"}, "is_reserved": 0, "fusion_lon": 0.0, "fusion_lat": 0.0, "lon": -76.9913545, "name": "f4017dfd791f24f00c8c204d26c6a241"}, {"bike_id": "35dc76efe0a81cb5b1f41d7f52294796", "type": "electric_scooter", "is_disabled": 0, "lat": 38.911024166666664, "rental_uris": {"ios": "https://dc.lft.to/lastmile_qr_scan", "android": "https://dc.lft.to/lastmile_qr_scan"}, "is_reserved": 0, "fusion_lon": 0.0, "fusion_lat": 0.0, "lon": -77.0421195, "name": "35dc76efe0a81cb5b1f41d7f52294796"}, {"bike_id": "0d6a65f97d87d41e8e78731e014378c9", "type": "electric_scooter", "is_disabled": 0, "lat": 38.9056845, "rental_uris": {"ios": "https://dc.lft.to/lastmile_qr_scan", "android": "https://dc.lft.to/lastmile_qr_scan"}, "is_reserved": 0, "fusion_lon": 0.0, "fusion_lat": 0.0, "lon": -77.02401666666667, "name": "0d6a65f97d87d41e8e78731e014378c9"}, {"bike_id": "d441bcbd4cf851b40a4dbcc7bc711b9f", "type": "electric_scooter", "is_disabled": 0, "lat": 38.88024166666667, "rental_uris": {"ios": "https://dc.lft.to/lastmile_qr_scan", "android": "https://dc.lft.to/lastmile_qr_scan"}, "is_reserved": 0, "fusion_lon": 0.0, "fusion_lat": 0.0, "lon": -77.0100775, "name": "d441bcbd4cf851b40a4dbcc7bc711b9f"}, {"bike_id": "1ae3cd683317bf726188172e93a99f27", "type": "electric_scooter", "is_disabled": 0, "lat": 38.916940333333336, "rental_uris": {"ios": "https://dc.lft.to/lastmile_qr_scan", "android": "https://dc.lft.to/lastmile_qr_scan"}, "is_reserved": 0, "fusion_lon": 0.0, "fusion_lat": 0.0, "lon": -77.02873216666667, "name": "1ae3cd683317bf726188172e93a99f27"}, {"bike_id": "471af5b3e788ced5f81ff682eb895747", "type": "electric_scooter", "is_disabled": 0, "lat": 38.9287025, "rental_uris": {"ios": "https://dc.lft.to/lastmile_qr_scan", "android": "https://dc.lft.to/lastmile_qr_scan"}, "is_reserved": 0, "fusion_lon": 0.0, "fusion_lat": 0.0, "lon": -77.03291, "name": "471af5b3e788ced5f81ff682eb895747"}, {"bike_id": "5f036c3e5bbc1f3f4d34333ed2ea0e6c", "type": "electric_scooter", "is_disabled": 0, "lat": 38.91331383333333, "rental_uris": {"ios": "https://dc.lft.to/lastmile_qr_scan", "android": "https://dc.lft.to/lastmile_qr_scan"}, "is_reserved": 0, "fusion_lon": 0.0, "fusion_lat": 0.0, "lon": -77.03650216666666, "name": "5f036c3e5bbc1f3f4d34333ed2ea0e6c"}, {"bike_id": "f3f078373ab3c664fe36be76c6351741", "type": "electric_scooter", "is_disabled": 0, "lat": 38.89879216666667, "rental_uris": {"ios": "https://dc.lft.to/lastmile_qr_scan", "android": "https://dc.lft.to/lastmile_qr_scan"}, "is_reserved": 0, "fusion_lon": 0.0, "fusion_lat": 0.0, "lon": -76.93177666666666, "name": "f3f078373ab3c664fe36be76c6351741"}, {"bike_id": "b4a85b80cc4430fa565146eb8436953d", "type": "electric_scooter", "is_disabled": 0, "lat": 38.867016666666665, "rental_uris": {"ios": "https://dc.lft.to/lastmile_qr_scan", "android": "https://dc.lft.to/lastmile_qr_scan"}, "is_reserved": 0, "fusion_lon": 0.0, "fusion_lat": 0.0, "lon": -76.98710666666666, "name": "b4a85b80cc4430fa565146eb8436953d"}, {"bike_id": "e2ee23ee56b5b53f6268de83aa312fd8", "type": "electric_scooter", "is_disabled": 0, "lat": 38.862120166666664, "rental_uris": {"ios": "https://dc.lft.to/lastmile_qr_scan", "android": "https://dc.lft.to/lastmile_qr_scan"}, "is_reserved": 0, "fusion_lon": 0.0, "fusion_lat": 0.0, "lon": -76.99473583333334, "name": "e2ee23ee56b5b53f6268de83aa312fd8"}, {"bike_id": "7392bfae03c2983dbc0041cbe3e19134", "type": "electric_bike", "is_disabled": 0, "lat": 38.969209166666666, "rental_uris": {"ios": "https://dc.lft.to/lastmile_qr_scan", "android": "https://dc.lft.to/lastmile_qr_scan"}, "is_reserved": 0, "fusion_lon": 0.0, "fusion_lat": 0.0, "lon": -76.95784, "name": "7392bfae03c2983dbc0041cbe3e19134"}, {"bike_id": "b217572a6ee1af1154e35d1f71dbbe12", "type": "electric_scooter", "is_disabled": 0, "lat": 38.9214485, "rental_uris": {"ios": "https://dc.lft.to/lastmile_qr_scan", "android": "https://dc.lft.to/lastmile_qr_scan"}, "is_reserved": 0, "fusion_lon": 0.0, "fusion_lat": 0.0, "lon": -77.04347566666667, "name": "b217572a6ee1af1154e35d1f71dbbe12"}, {"bike_id": "0f7245be92b0f8d60c573a686c06e9f0", "type": "electric_scooter", "is_disabled": 0, "lat": 38.895556, "rental_uris": {"ios": "https://dc.lft.to/lastmile_qr_scan", "android": "https://dc.lft.to/lastmile_qr_scan"}, "is_reserved": 0, "fusion_lon": 0.0, "fusion_lat": 0.0, "lon": -76.94934433333333, "name": "0f7245be92b0f8d60c573a686c06e9f0"}, {"bike_id": "ac75872ea77b6078c51d3dc94fcbca8f", "type": "electric_scooter", "is_disabled": 0, "lat": 38.89218733333333, "rental_uris": {"ios": "https://dc.lft.to/lastmile_qr_scan", "android": "https://dc.lft.to/lastmile_qr_scan"}, "is_reserved": 0, "fusion_lon": 0.0, "fusion_lat": 0.0, "lon": -77.02258233333333, "name": "ac75872ea77b6078c51d3dc94fcbca8f"}, {"bike_id": "819cdf0c7094642968bbace74657585e", "type": "electric_scooter", "is_disabled": 0, "lat": 38.8670285, "rental_uris": {"ios": "https://dc.lft.to/lastmile_qr_scan", "android": "https://dc.lft.to/lastmile_qr_scan"}, "is_reserved": 0, "fusion_lon": 0.0, "fusion_lat": 0.0, "lon": -76.98712833333333, "name": "819cdf0c7094642968bbace74657585e"}, {"bike_id": "047fa9c5cf68e8363a185c43a1b2234f", "type": "electric_scooter", "is_disabled": 0, "lat": 38.9177065, "rental_uris": {"ios": "https://dc.lft.to/lastmile_qr_scan", "android": "https://dc.lft.to/lastmile_qr_scan"}, "is_reserved": 0, "fusion_lon": 0.0, "fusion_lat": 0.0, "lon": -77.04770833333333, "name": "047fa9c5cf68e8363a185c43a1b2234f"}, {"bike_id": "0f8c51a3029cc4cfced862385f3954fa", "type": "electric_scooter", "is_disabled": 0, "lat": 38.90718833333333, "rental_uris": {"ios": "https://dc.lft.to/lastmile_qr_scan", "android": "https://dc.lft.to/lastmile_qr_scan"}, "is_reserved": 0, "fusion_lon": 0.0, "fusion_lat": 0.0, "lon": -77.02884483333334, "name": "0f8c51a3029cc4cfced862385f3954fa"}, {"bike_id": "5e3f9a18adacca3764af7ea10dcf3b47", "type": "electric_scooter", "is_disabled": 0, "lat": 38.91173283333333, "rental_uris": {"ios": "https://dc.lft.to/lastmile_qr_scan", "android": "https://dc.lft.to/lastmile_qr_scan"}, "is_reserved": 0, "fusion_lon": 0.0, "fusion_lat": 0.0, "lon": -77.012169, "name": "5e3f9a18adacca3764af7ea10dcf3b47"}, {"bike_id": "cb7b6ee2a1819996defdc9c93dfc857e", "type": "electric_scooter", "is_disabled": 0, "lat": 38.901894166666665, "rental_uris": {"ios": "https://dc.lft.to/lastmile_qr_scan", "android": "https://dc.lft.to/lastmile_qr_scan"}, "is_reserved": 0, "fusion_lon": 0.0, "fusion_lat": 0.0, "lon": -77.02006066666667, "name": "cb7b6ee2a1819996defdc9c93dfc857e"}, {"bike_id": "9852d11420d2681d92ede5dbc8730763", "type": "electric_scooter", "is_disabled": 0, "lat": 38.92255183333333, "rental_uris": {"ios": "https://dc.lft.to/lastmile_qr_scan", "android": "https://dc.lft.to/lastmile_qr_scan"}, "is_reserved": 0, "fusion_lon": 0.0, "fusion_lat": 0.0, "lon": -77.03669433333333, "name": "9852d11420d2681d92ede5dbc8730763"}, {"bike_id": "bf1682cdd3a477f45a67cec395527784", "type": "electric_scooter", "is_disabled": 0, "lat": 38.901197833333335, "rental_uris": {"ios": "https://dc.lft.to/lastmile_qr_scan", "android": "https://dc.lft.to/lastmile_qr_scan"}, "is_reserved": 0, "fusion_lon": 0.0, "fusion_lat": 0.0, "lon": -77.0182275, "name": "bf1682cdd3a477f45a67cec395527784"}, {"bike_id": "b97531509054cfb176c9b9993b7475b4", "type": "electric_scooter", "is_disabled": 0, "lat": 38.91277933333333, "rental_uris": {"ios": "https://dc.lft.to/lastmile_qr_scan", "android": "https://dc.lft.to/lastmile_qr_scan"}, "is_reserved": 0, "fusion_lon": 0.0, "fusion_lat": 0.0, "lon": -77.03216533333334, "name": "b97531509054cfb176c9b9993b7475b4"}, {"bike_id": "5554170abda24386d457045d21b29fa2", "type": "electric_bike", "is_disabled": 0, "lat": 38.91550183333333, "rental_uris": {"ios": "https://dc.lft.to/lastmile_qr_scan", "android": "https://dc.lft.to/lastmile_qr_scan"}, "is_reserved": 0, "fusion_lon": 0.0, "fusion_lat": 0.0, "lon": -77.066709, "name": "5554170abda24386d457045d21b29fa2"}, {"bike_id": "4c24ff02d1af119b0d650a4bdbb2ef99", "type": "electric_scooter", "is_disabled": 0, "lat": 38.91503816666667, "rental_uris": {"ios": "https://dc.lft.to/lastmile_qr_scan", "android": "https://dc.lft.to/lastmile_qr_scan"}, "is_reserved": 0, "fusion_lon": 0.0, "fusion_lat": 0.0, "lon": -77.01780116666667, "name": "4c24ff02d1af119b0d650a4bdbb2ef99"}, {"bike_id": "1d6ffb0fd74c124bb0fc12a00ca96912", "type": "electric_scooter", "is_disabled": 0, "lat": 38.902562833333334, "rental_uris": {"ios": "https://dc.lft.to/lastmile_qr_scan", "android": "https://dc.lft.to/lastmile_qr_scan"}, "is_reserved": 0, "fusion_lon": 0.0, "fusion_lat": 0.0, "lon": -77.02669966666667, "name": "1d6ffb0fd74c124bb0fc12a00ca96912"}, {"bike_id": "37ba9dd1628836d571367c86a73947fe", "type": "electric_scooter", "is_disabled": 0, "lat": 38.914114166666664, "rental_uris": {"ios": "https://dc.lft.to/lastmile_qr_scan", "android": "https://dc.lft.to/lastmile_qr_scan"}, "is_reserved": 0, "fusion_lon": 0.0, "fusion_lat": 0.0, "lon": -77.02216816666666, "name": "37ba9dd1628836d571367c86a73947fe"}, {"bike_id": "7f9dbcd1d1d9f19c6305869b555ae7cf", "type": "electric_scooter", "is_disabled": 0, "lat": 38.939925333333335, "rental_uris": {"ios": "https://dc.lft.to/lastmile_qr_scan", "android": "https://dc.lft.to/lastmile_qr_scan"}, "is_reserved": 0, "fusion_lon": 0.0, "fusion_lat": 0.0, "lon": -77.01752066666667, "name": "7f9dbcd1d1d9f19c6305869b555ae7cf"}, {"bike_id": "4802eb10071584a10020523bfbef024c", "type": "electric_scooter", "is_disabled": 0, "lat": 38.92759566666667, "rental_uris": {"ios": "https://dc.lft.to/lastmile_qr_scan", "android": "https://dc.lft.to/lastmile_qr_scan"}, "is_reserved": 0, "fusion_lon": 0.0, "fusion_lat": 0.0, "lon": -76.96100966666667, "name": "4802eb10071584a10020523bfbef024c"}, {"bike_id": "9c157f3964487edf11e9f37a1900977d", "type": "electric_scooter", "is_disabled": 0, "lat": 38.923206666666665, "rental_uris": {"ios": "https://dc.lft.to/lastmile_qr_scan", "android": "https://dc.lft.to/lastmile_qr_scan"}, "is_reserved": 0, "fusion_lon": 0.0, "fusion_lat": 0.0, "lon": -77.0381565, "name": "9c157f3964487edf11e9f37a1900977d"}, {"bike_id": "adbb7628d8732d0bc5ec9da784e5d69f", "type": "electric_scooter", "is_disabled": 0, "lat": 38.921523666666666, "rental_uris": {"ios": "https://dc.lft.to/lastmile_qr_scan", "android": "https://dc.lft.to/lastmile_qr_scan"}, "is_reserved": 0, "fusion_lon": 0.0, "fusion_lat": 0.0, "lon": -77.03519383333334, "name": "adbb7628d8732d0bc5ec9da784e5d69f"}, {"bike_id": "b6c30c3d97dc892c1feb9834ad66fb26", "type": "electric_scooter", "is_disabled": 0, "lat": 38.867349, "rental_uris": {"ios": "https://dc.lft.to/lastmile_qr_scan", "android": "https://dc.lft.to/lastmile_qr_scan"}, "is_reserved": 0, "fusion_lon": 0.0, "fusion_lat": 0.0, "lon": -76.97856916666667, "name": "b6c30c3d97dc892c1feb9834ad66fb26"}, {"bike_id": "db89ab86c26f538046a9fd2acc649d54", "type": "electric_scooter", "is_disabled": 0, "lat": 38.925976666666664, "rental_uris": {"ios": "https://dc.lft.to/lastmile_qr_scan", "android": "https://dc.lft.to/lastmile_qr_scan"}, "is_reserved": 0, "fusion_lon": 0.0, "fusion_lat": 0.0, "lon": -77.02389, "name": "db89ab86c26f538046a9fd2acc649d54"}, {"bike_id": "a5785ff6a2191442c22ef64b9f30f5d4", "type": "electric_scooter", "is_disabled": 0, "lat": 38.91418983333333, "rental_uris": {"ios": "https://dc.lft.to/lastmile_qr_scan", "android": "https://dc.lft.to/lastmile_qr_scan"}, "is_reserved": 0, "fusion_lon": 0.0, "fusion_lat": 0.0, "lon": -77.01805416666667, "name": "a5785ff6a2191442c22ef64b9f30f5d4"}, {"bike_id": "5a43ef2be0f1437f9598ce55e75c9c1c", "type": "electric_scooter", "is_disabled": 0, "lat": 38.909360666666664, "rental_uris": {"ios": "https://dc.lft.to/lastmile_qr_scan", "android": "https://dc.lft.to/lastmile_qr_scan"}, "is_reserved": 0, "fusion_lon": 0.0, "fusion_lat": 0.0, "lon": -77.05561616666667, "name": "5a43ef2be0f1437f9598ce55e75c9c1c"}, {"bike_id": "43e90858d6c61b9981a6b27d6c686090", "type": "electric_scooter", "is_disabled": 0, "lat": 38.919526166666664, "rental_uris": {"ios": "https://dc.lft.to/lastmile_qr_scan", "android": "https://dc.lft.to/lastmile_qr_scan"}, "is_reserved": 0, "fusion_lon": 0.0, "fusion_lat": 0.0, "lon": -77.024877, "name": "43e90858d6c61b9981a6b27d6c686090"}, {"bike_id": "c1c484c348142081574c9b7c57e5403a", "type": "electric_scooter", "is_disabled": 0, "lat": 38.85805283333333, "rental_uris": {"ios": "https://dc.lft.to/lastmile_qr_scan", "android": "https://dc.lft.to/lastmile_qr_scan"}, "is_reserved": 0, "fusion_lon": 0.0, "fusion_lat": 0.0, "lon": -76.98929666666666, "name": "c1c484c348142081574c9b7c57e5403a"}, {"bike_id": "f3d4a4b6bf07d596dcdc948b3e887163", "type": "electric_scooter", "is_disabled": 0, "lat": 38.87071533333334, "rental_uris": {"ios": "https://dc.lft.to/lastmile_qr_scan", "android": "https://dc.lft.to/lastmile_qr_scan"}, "is_reserved": 0, "fusion_lon": 0.0, "fusion_lat": 0.0, "lon": -76.98131183333334, "name": "f3d4a4b6bf07d596dcdc948b3e887163"}, {"bike_id": "7d3926d01ace9b36ea1495153cf98ca6", "type": "electric_scooter", "is_disabled": 0, "lat": 38.886393166666664, "rental_uris": {"ios": "https://dc.lft.to/lastmile_qr_scan", "android": "https://dc.lft.to/lastmile_qr_scan"}, "is_reserved": 0, "fusion_lon": 0.0, "fusion_lat": 0.0, "lon": -77.013807, "name": "7d3926d01ace9b36ea1495153cf98ca6"}, {"bike_id": "69e8035ec201bc581115ded79349b114", "type": "electric_scooter", "is_disabled": 0, "lat": 38.93512316666666, "rental_uris": {"ios": "https://dc.lft.to/lastmile_qr_scan", "android": "https://dc.lft.to/lastmile_qr_scan"}, "is_reserved": 0, "fusion_lon": 0.0, "fusion_lat": 0.0, "lon": -77.0254085, "name": "69e8035ec201bc581115ded79349b114"}, {"bike_id": "d9349773c6b967bd153cc20d0b483d1a", "type": "electric_scooter", "is_disabled": 0, "lat": 38.8996695, "rental_uris": {"ios": "https://dc.lft.to/lastmile_qr_scan", "android": "https://dc.lft.to/lastmile_qr_scan"}, "is_reserved": 0, "fusion_lon": 0.0, "fusion_lat": 0.0, "lon": -76.98302483333333, "name": "d9349773c6b967bd153cc20d0b483d1a"}, {"bike_id": "d98e7b5bd1a1e464bbc99aaff2c6ccc6", "type": "electric_scooter", "is_disabled": 0, "lat": 38.946141833333336, "rental_uris": {"ios": "https://dc.lft.to/lastmile_qr_scan", "android": "https://dc.lft.to/lastmile_qr_scan"}, "is_reserved": 0, "fusion_lon": 0.0, "fusion_lat": 0.0, "lon": -77.02267866666666, "name": "d98e7b5bd1a1e464bbc99aaff2c6ccc6"}, {"bike_id": "ee2c71e4a258da503979aa83ef9a0f4d", "type": "electric_scooter", "is_disabled": 0, "lat": 38.9056175, "rental_uris": {"ios": "https://dc.lft.to/lastmile_qr_scan", "android": "https://dc.lft.to/lastmile_qr_scan"}, "is_reserved": 0, "fusion_lon": 0.0, "fusion_lat": 0.0, "lon": -77.02185483333334, "name": "ee2c71e4a258da503979aa83ef9a0f4d"}, {"bike_id": "f1d6a7cce498c342959cb84c5afb00ca", "type": "electric_scooter", "is_disabled": 0, "lat": 38.91600716666667, "rental_uris": {"ios": "https://dc.lft.to/lastmile_qr_scan", "android": "https://dc.lft.to/lastmile_qr_scan"}, "is_reserved": 0, "fusion_lon": 0.0, "fusion_lat": 0.0, "lon": -77.03993783333334, "name": "f1d6a7cce498c342959cb84c5afb00ca"}, {"bike_id": "428d5c3245805e2ac5d2d92029b4bc8d", "type": "electric_scooter", "is_disabled": 0, "lat": 38.939760166666666, "rental_uris": {"ios": "https://dc.lft.to/lastmile_qr_scan", "android": "https://dc.lft.to/lastmile_qr_scan"}, "is_reserved": 0, "fusion_lon": 0.0, "fusion_lat": 0.0, "lon": -77.02872633333334, "name": "428d5c3245805e2ac5d2d92029b4bc8d"}, {"bike_id": "430cff6715aed4f5263f57c9c86674ca", "type": "electric_scooter", "is_disabled": 0, "lat": 38.89853316666667, "rental_uris": {"ios": "https://dc.lft.to/lastmile_qr_scan", "android": "https://dc.lft.to/lastmile_qr_scan"}, "is_reserved": 0, "fusion_lon": 0.0, "fusion_lat": 0.0, "lon": -77.02414033333334, "name": "430cff6715aed4f5263f57c9c86674ca"}, {"bike_id": "c1a54e435ccd2557e09cb99e7db0c4b5", "type": "electric_scooter", "is_disabled": 0, "lat": 38.90789816666667, "rental_uris": {"ios": "https://dc.lft.to/lastmile_qr_scan", "android": "https://dc.lft.to/lastmile_qr_scan"}, "is_reserved": 0, "fusion_lon": 0.0, "fusion_lat": 0.0, "lon": -76.994258, "name": "c1a54e435ccd2557e09cb99e7db0c4b5"}, {"bike_id": "db678b9419b4c4749b1bb6769f655e36", "type": "electric_scooter", "is_disabled": 0, "lat": 38.921279166666665, "rental_uris": {"ios": "https://dc.lft.to/lastmile_qr_scan", "android": "https://dc.lft.to/lastmile_qr_scan"}, "is_reserved": 0, "fusion_lon": 0.0, "fusion_lat": 0.0, "lon": -77.0271925, "name": "db678b9419b4c4749b1bb6769f655e36"}, {"bike_id": "ee5eaac0d201a760ac97fbb0e96dcf92", "type": "electric_bike", "is_disabled": 0, "lat": 38.94361983333334, "rental_uris": {"ios": "https://dc.lft.to/lastmile_qr_scan", "android": "https://dc.lft.to/lastmile_qr_scan"}, "is_reserved": 0, "fusion_lon": 0.0, "fusion_lat": 0.0, "lon": -77.00355116666667, "name": "ee5eaac0d201a760ac97fbb0e96dcf92"}, {"bike_id": "898dd61c03a789500c1a03844e696197", "type": "electric_scooter", "is_disabled": 0, "lat": 38.92701316666667, "rental_uris": {"ios": "https://dc.lft.to/lastmile_qr_scan", "android": "https://dc.lft.to/lastmile_qr_scan"}, "is_reserved": 0, "fusion_lon": 0.0, "fusion_lat": 0.0, "lon": -77.02070033333334, "name": "898dd61c03a789500c1a03844e696197"}, {"bike_id": "770fa14adac38f61c94a8f6615fa4e5b", "type": "electric_scooter", "is_disabled": 0, "lat": 38.9086585, "rental_uris": {"ios": "https://dc.lft.to/lastmile_qr_scan", "android": "https://dc.lft.to/lastmile_qr_scan"}, "is_reserved": 0, "fusion_lon": 0.0, "fusion_lat": 0.0, "lon": -76.999538, "name": "770fa14adac38f61c94a8f6615fa4e5b"}, {"bike_id": "40e9edec68461e6792b86a36b3ff6e22", "type": "electric_scooter", "is_disabled": 0, "lat": 38.866306, "rental_uris": {"ios": "https://dc.lft.to/lastmile_qr_scan", "android": "https://dc.lft.to/lastmile_qr_scan"}, "is_reserved": 0, "fusion_lon": 0.0, "fusion_lat": 0.0, "lon": -76.98717266666667, "name": "40e9edec68461e6792b86a36b3ff6e22"}, {"bike_id": "2355ffeae7b9269d124dea8843e94ace", "type": "electric_scooter", "is_disabled": 0, "lat": 38.89481216666667, "rental_uris": {"ios": "https://dc.lft.to/lastmile_qr_scan", "android": "https://dc.lft.to/lastmile_qr_scan"}, "is_reserved": 0, "fusion_lon": 0.0, "fusion_lat": 0.0, "lon": -76.98784633333334, "name": "2355ffeae7b9269d124dea8843e94ace"}, {"bike_id": "c6468e6d15e8f1ec36463a2308955784", "type": "electric_scooter", "is_disabled": 0, "lat": 38.9063085, "rental_uris": {"ios": "https://dc.lft.to/lastmile_qr_scan", "android": "https://dc.lft.to/lastmile_qr_scan"}, "is_reserved": 0, "fusion_lon": 0.0, "fusion_lat": 0.0, "lon": -77.010115, "name": "c6468e6d15e8f1ec36463a2308955784"}, {"bike_id": "a027b29b9942674584fedb9321d13deb", "type": "electric_bike", "is_disabled": 0, "lat": 38.9264445, "rental_uris": {"ios": "https://dc.lft.to/lastmile_qr_scan", "android": "https://dc.lft.to/lastmile_qr_scan"}, "is_reserved": 0, "fusion_lon": 0.0, "fusion_lat": 0.0, "lon": -76.98425366666666, "name": "a027b29b9942674584fedb9321d13deb"}, {"bike_id": "6b6baeb77681e07dd750c73680d260bd", "type": "electric_bike", "is_disabled": 0, "lat": 38.92457116666667, "rental_uris": {"ios": "https://dc.lft.to/lastmile_qr_scan", "android": "https://dc.lft.to/lastmile_qr_scan"}, "is_reserved": 0, "fusion_lon": 0.0, "fusion_lat": 0.0, "lon": -77.22549066666667, "name": "6b6baeb77681e07dd750c73680d260bd"}, {"bike_id": "ffc5698e3d496baf336d7bdd561bba78", "type": "electric_scooter", "is_disabled": 0, "lat": 38.9419445, "rental_uris": {"ios": "https://dc.lft.to/lastmile_qr_scan", "android": "https://dc.lft.to/lastmile_qr_scan"}, "is_reserved": 0, "fusion_lon": 0.0, "fusion_lat": 0.0, "lon": -77.02436933333334, "name": "ffc5698e3d496baf336d7bdd561bba78"}, {"bike_id": "857ad1b4a15391b3e58d1f25b7f01170", "type": "electric_scooter", "is_disabled": 0, "lat": 38.906826333333335, "rental_uris": {"ios": "https://dc.lft.to/lastmile_qr_scan", "android": "https://dc.lft.to/lastmile_qr_scan"}, "is_reserved": 0, "fusion_lon": 0.0, "fusion_lat": 0.0, "lon": -77.02398916666667, "name": "857ad1b4a15391b3e58d1f25b7f01170"}, {"bike_id": "c851772ca9380b70639b6b38bc7dd6b1", "type": "electric_scooter", "is_disabled": 0, "lat": 38.9037355, "rental_uris": {"ios": "https://dc.lft.to/lastmile_qr_scan", "android": "https://dc.lft.to/lastmile_qr_scan"}, "is_reserved": 0, "fusion_lon": 0.0, "fusion_lat": 0.0, "lon": -77.02922383333333, "name": "c851772ca9380b70639b6b38bc7dd6b1"}, {"bike_id": "57c3f4e068319248d519ccaa791e45a9", "type": "electric_scooter", "is_disabled": 0, "lat": 38.9145975, "rental_uris": {"ios": "https://dc.lft.to/lastmile_qr_scan", "android": "https://dc.lft.to/lastmile_qr_scan"}, "is_reserved": 0, "fusion_lon": 0.0, "fusion_lat": 0.0, "lon": -77.02290533333333, "name": "57c3f4e068319248d519ccaa791e45a9"}, {"bike_id": "cafac466f817abfd91d1994e73a6784a", "type": "electric_bike", "is_disabled": 0, "lat": 38.936713166666664, "rental_uris": {"ios": "https://dc.lft.to/lastmile_qr_scan", "android": "https://dc.lft.to/lastmile_qr_scan"}, "is_reserved": 0, "fusion_lon": 0.0, "fusion_lat": 0.0, "lon": -76.95210083333333, "name": "cafac466f817abfd91d1994e73a6784a"}, {"bike_id": "fb8466b981afb7c6fbb08bc57e632758", "type": "electric_scooter", "is_disabled": 0, "lat": 38.898399166666664, "rental_uris": {"ios": "https://dc.lft.to/lastmile_qr_scan", "android": "https://dc.lft.to/lastmile_qr_scan"}, "is_reserved": 0, "fusion_lon": 0.0, "fusion_lat": 0.0, "lon": -76.946352, "name": "fb8466b981afb7c6fbb08bc57e632758"}, {"bike_id": "d765c392675587bc1cecbaf91bbd6e29", "type": "electric_scooter", "is_disabled": 0, "lat": 38.9168235, "rental_uris": {"ios": "https://dc.lft.to/lastmile_qr_scan", "android": "https://dc.lft.to/lastmile_qr_scan"}, "is_reserved": 0, "fusion_lon": 0.0, "fusion_lat": 0.0, "lon": -77.02957566666667, "name": "d765c392675587bc1cecbaf91bbd6e29"}, {"bike_id": "819ccf5aae87bae80df3b99e5f05abde", "type": "electric_bike", "is_disabled": 0, "lat": 38.90207066666667, "rental_uris": {"ios": "https://dc.lft.to/lastmile_qr_scan", "android": "https://dc.lft.to/lastmile_qr_scan"}, "is_reserved": 0, "fusion_lon": 0.0, "fusion_lat": 0.0, "lon": -76.9741285, "name": "819ccf5aae87bae80df3b99e5f05abde"}, {"bike_id": "b246f94e38745ec4dd47e8b3e2e31909", "type": "electric_scooter", "is_disabled": 0, "lat": 38.918022, "rental_uris": {"ios": "https://dc.lft.to/lastmile_qr_scan", "android": "https://dc.lft.to/lastmile_qr_scan"}, "is_reserved": 0, "fusion_lon": 0.0, "fusion_lat": 0.0, "lon": -77.02376033333333, "name": "b246f94e38745ec4dd47e8b3e2e31909"}, {"bike_id": "103234b747578149c991c8022735655b", "type": "electric_scooter", "is_disabled": 0, "lat": 38.98694, "rental_uris": {"ios": "https://dc.lft.to/lastmile_qr_scan", "android": "https://dc.lft.to/lastmile_qr_scan"}, "is_reserved": 0, "fusion_lon": 0.0, "fusion_lat": 0.0, "lon": -77.0298145, "name": "103234b747578149c991c8022735655b"}, {"bike_id": "a58e74abc266392d4effbcc3c57242f3", "type": "electric_scooter", "is_disabled": 0, "lat": 38.91680383333333, "rental_uris": {"ios": "https://dc.lft.to/lastmile_qr_scan", "android": "https://dc.lft.to/lastmile_qr_scan"}, "is_reserved": 0, "fusion_lon": 0.0, "fusion_lat": 0.0, "lon": -77.02300966666667, "name": "a58e74abc266392d4effbcc3c57242f3"}, {"bike_id": "c243847897e486b29775886fa36658e4", "type": "electric_scooter", "is_disabled": 0, "lat": 38.8806165, "rental_uris": {"ios": "https://dc.lft.to/lastmile_qr_scan", "android": "https://dc.lft.to/lastmile_qr_scan"}, "is_reserved": 0, "fusion_lon": 0.0, "fusion_lat": 0.0, "lon": -77.0154075, "name": "c243847897e486b29775886fa36658e4"}, {"bike_id": "90539ca33705b35387d3b66bac5c2b59", "type": "electric_bike", "is_disabled": 0, "lat": 38.90398716666667, "rental_uris": {"ios": "https://dc.lft.to/lastmile_qr_scan", "android": "https://dc.lft.to/lastmile_qr_scan"}, "is_reserved": 0, "fusion_lon": 0.0, "fusion_lat": 0.0, "lon": -77.01785416666667, "name": "90539ca33705b35387d3b66bac5c2b59"}, {"bike_id": "b60992dd12da5e900affd23d05cd185d", "type": "electric_scooter", "is_disabled": 0, "lat": 38.8871865, "rental_uris": {"ios": "https://dc.lft.to/lastmile_qr_scan", "android": "https://dc.lft.to/lastmile_qr_scan"}, "is_reserved": 0, "fusion_lon": 0.0, "fusion_lat": 0.0, "lon": -77.02197033333333, "name": "b60992dd12da5e900affd23d05cd185d"}, {"bike_id": "7207c0ffa3fe61864e4aa42c80ae22e8", "type": "electric_scooter", "is_disabled": 0, "lat": 38.90262716666667, "rental_uris": {"ios": "https://dc.lft.to/lastmile_qr_scan", "android": "https://dc.lft.to/lastmile_qr_scan"}, "is_reserved": 0, "fusion_lon": 0.0, "fusion_lat": 0.0, "lon": -77.01758133333334, "name": "7207c0ffa3fe61864e4aa42c80ae22e8"}, {"bike_id": "71cbe568c4950a9277d7a74f77cdc46a", "type": "electric_scooter", "is_disabled": 0, "lat": 38.928669, "rental_uris": {"ios": "https://dc.lft.to/lastmile_qr_scan", "android": "https://dc.lft.to/lastmile_qr_scan"}, "is_reserved": 0, "fusion_lon": 0.0, "fusion_lat": 0.0, "lon": -77.03277383333334, "name": "71cbe568c4950a9277d7a74f77cdc46a"}, {"bike_id": "9e60e80fd599aacdae1162c4db3ad376", "type": "electric_scooter", "is_disabled": 0, "lat": 38.90910983333333, "rental_uris": {"ios": "https://dc.lft.to/lastmile_qr_scan", "android": "https://dc.lft.to/lastmile_qr_scan"}, "is_reserved": 0, "fusion_lon": 0.0, "fusion_lat": 0.0, "lon": -77.0420205, "name": "9e60e80fd599aacdae1162c4db3ad376"}, {"bike_id": "c52dee68ae43759e2a9b53e6ef788b21", "type": "electric_scooter", "is_disabled": 0, "lat": 38.886579166666664, "rental_uris": {"ios": "https://dc.lft.to/lastmile_qr_scan", "android": "https://dc.lft.to/lastmile_qr_scan"}, "is_reserved": 0, "fusion_lon": 0.0, "fusion_lat": 0.0, "lon": -77.02846383333333, "name": "c52dee68ae43759e2a9b53e6ef788b21"}, {"bike_id": "08cb4c7e29ae7b204877fc78823e16a6", "type": "electric_scooter", "is_disabled": 0, "lat": 38.9286195, "rental_uris": {"ios": "https://dc.lft.to/lastmile_qr_scan", "android": "https://dc.lft.to/lastmile_qr_scan"}, "is_reserved": 0, "fusion_lon": 0.0, "fusion_lat": 0.0, "lon": -77.03288333333333, "name": "08cb4c7e29ae7b204877fc78823e16a6"}, {"bike_id": "6ab7a5a2790fe72595476859d15e0c85", "type": "electric_scooter", "is_disabled": 0, "lat": 38.918343166666666, "rental_uris": {"ios": "https://dc.lft.to/lastmile_qr_scan", "android": "https://dc.lft.to/lastmile_qr_scan"}, "is_reserved": 0, "fusion_lon": 0.0, "fusion_lat": 0.0, "lon": -77.02459116666667, "name": "6ab7a5a2790fe72595476859d15e0c85"}, {"bike_id": "bf8035d9aeee51e9ad2d56c3243fe5c9", "type": "electric_scooter", "is_disabled": 0, "lat": 38.91697166666667, "rental_uris": {"ios": "https://dc.lft.to/lastmile_qr_scan", "android": "https://dc.lft.to/lastmile_qr_scan"}, "is_reserved": 0, "fusion_lon": 0.0, "fusion_lat": 0.0, "lon": -77.03164116666666, "name": "bf8035d9aeee51e9ad2d56c3243fe5c9"}, {"bike_id": "c41990400ab8e7a9fd46a3ba6fab69da", "type": "electric_scooter", "is_disabled": 0, "lat": 38.929622, "rental_uris": {"ios": "https://dc.lft.to/lastmile_qr_scan", "android": "https://dc.lft.to/lastmile_qr_scan"}, "is_reserved": 0, "fusion_lon": 0.0, "fusion_lat": 0.0, "lon": -77.02789316666667, "name": "c41990400ab8e7a9fd46a3ba6fab69da"}, {"bike_id": "021330fe112403d1f85f38836fb0567a", "type": "electric_scooter", "is_disabled": 0, "lat": 38.89997366666667, "rental_uris": {"ios": "https://dc.lft.to/lastmile_qr_scan", "android": "https://dc.lft.to/lastmile_qr_scan"}, "is_reserved": 0, "fusion_lon": 0.0, "fusion_lat": 0.0, "lon": -77.0236055, "name": "021330fe112403d1f85f38836fb0567a"}, {"bike_id": "0e2eb13fd465c30886ce3d8fa0d7d67b", "type": "electric_scooter", "is_disabled": 0, "lat": 38.93997366666667, "rental_uris": {"ios": "https://dc.lft.to/lastmile_qr_scan", "android": "https://dc.lft.to/lastmile_qr_scan"}, "is_reserved": 0, "fusion_lon": 0.0, "fusion_lat": 0.0, "lon": -77.03805366666667, "name": "0e2eb13fd465c30886ce3d8fa0d7d67b"}, {"bike_id": "375ba65baebefa797de5c58687f9e491", "type": "electric_scooter", "is_disabled": 0, "lat": 38.920430833333334, "rental_uris": {"ios": "https://dc.lft.to/lastmile_qr_scan", "android": "https://dc.lft.to/lastmile_qr_scan"}, "is_reserved": 0, "fusion_lon": 0.0, "fusion_lat": 0.0, "lon": -77.0338175, "name": "375ba65baebefa797de5c58687f9e491"}, {"bike_id": "666df62861c9dc65878eaa0c43a24953", "type": "electric_scooter", "is_disabled": 0, "lat": 38.9222865, "rental_uris": {"ios": "https://dc.lft.to/lastmile_qr_scan", "android": "https://dc.lft.to/lastmile_qr_scan"}, "is_reserved": 0, "fusion_lon": 0.0, "fusion_lat": 0.0, "lon": -77.04378333333334, "name": "666df62861c9dc65878eaa0c43a24953"}, {"bike_id": "1c2a20a9aecd16d68a12ceb50b4b5986", "type": "electric_scooter", "is_disabled": 0, "lat": 38.88463866666667, "rental_uris": {"ios": "https://dc.lft.to/lastmile_qr_scan", "android": "https://dc.lft.to/lastmile_qr_scan"}, "is_reserved": 0, "fusion_lon": 0.0, "fusion_lat": 0.0, "lon": -77.0004985, "name": "1c2a20a9aecd16d68a12ceb50b4b5986"}, {"bike_id": "18e6e1b591183d7ecfe5fa89eb0d3511", "type": "electric_scooter", "is_disabled": 0, "lat": 38.895473833333334, "rental_uris": {"ios": "https://dc.lft.to/lastmile_qr_scan", "android": "https://dc.lft.to/lastmile_qr_scan"}, "is_reserved": 0, "fusion_lon": 0.0, "fusion_lat": 0.0, "lon": -76.92953566666667, "name": "18e6e1b591183d7ecfe5fa89eb0d3511"}, {"bike_id": "b6ed4a2516903143b39ec1feb185e134", "type": "electric_scooter", "is_disabled": 0, "lat": 38.918578333333336, "rental_uris": {"ios": "https://dc.lft.to/lastmile_qr_scan", "android": "https://dc.lft.to/lastmile_qr_scan"}, "is_reserved": 0, "fusion_lon": 0.0, "fusion_lat": 0.0, "lon": -76.96114683333333, "name": "b6ed4a2516903143b39ec1feb185e134"}, {"bike_id": "33dca50f0701282f4a2b799ec80280bd", "type": "electric_scooter", "is_disabled": 0, "lat": 38.92332533333333, "rental_uris": {"ios": "https://dc.lft.to/lastmile_qr_scan", "android": "https://dc.lft.to/lastmile_qr_scan"}, "is_reserved": 0, "fusion_lon": 0.0, "fusion_lat": 0.0, "lon": -77.04312516666667, "name": "33dca50f0701282f4a2b799ec80280bd"}, {"bike_id": "4adba1cb41527e2e066becfb61c420e5", "type": "electric_scooter", "is_disabled": 0, "lat": 38.91658133333333, "rental_uris": {"ios": "https://dc.lft.to/lastmile_qr_scan", "android": "https://dc.lft.to/lastmile_qr_scan"}, "is_reserved": 0, "fusion_lon": 0.0, "fusion_lat": 0.0, "lon": -77.03216833333333, "name": "4adba1cb41527e2e066becfb61c420e5"}, {"bike_id": "d39e3feed238df8e4915d229833aae9f", "type": "electric_scooter", "is_disabled": 0, "lat": 38.898888666666664, "rental_uris": {"ios": "https://dc.lft.to/lastmile_qr_scan", "android": "https://dc.lft.to/lastmile_qr_scan"}, "is_reserved": 0, "fusion_lon": 0.0, "fusion_lat": 0.0, "lon": -76.9768535, "name": "d39e3feed238df8e4915d229833aae9f"}, {"bike_id": "0d589adb402985b0ebd0cdc565ec039d", "type": "electric_scooter", "is_disabled": 0, "lat": 38.9219815, "rental_uris": {"ios": "https://dc.lft.to/lastmile_qr_scan", "android": "https://dc.lft.to/lastmile_qr_scan"}, "is_reserved": 0, "fusion_lon": 0.0, "fusion_lat": 0.0, "lon": -77.02030783333333, "name": "0d589adb402985b0ebd0cdc565ec039d"}, {"bike_id": "4743fddfb813cdf20bb6cb2960ada357", "type": "electric_scooter", "is_disabled": 0, "lat": 38.91326816666667, "rental_uris": {"ios": "https://dc.lft.to/lastmile_qr_scan", "android": "https://dc.lft.to/lastmile_qr_scan"}, "is_reserved": 0, "fusion_lon": 0.0, "fusion_lat": 0.0, "lon": -77.06582383333334, "name": "4743fddfb813cdf20bb6cb2960ada357"}, {"bike_id": "938b30849a7a2fb8ab3d20667ed82217", "type": "electric_bike", "is_disabled": 0, "lat": 38.819379, "rental_uris": {"ios": "https://dc.lft.to/lastmile_qr_scan", "android": "https://dc.lft.to/lastmile_qr_scan"}, "is_reserved": 0, "fusion_lon": 0.0, "fusion_lat": 0.0, "lon": -77.00201816666667, "name": "938b30849a7a2fb8ab3d20667ed82217"}, {"bike_id": "e53b52812bcfb60ab13c412d88a4d3aa", "type": "electric_scooter", "is_disabled": 0, "lat": 38.90490583333333, "rental_uris": {"ios": "https://dc.lft.to/lastmile_qr_scan", "android": "https://dc.lft.to/lastmile_qr_scan"}, "is_reserved": 0, "fusion_lon": 0.0, "fusion_lat": 0.0, "lon": -77.04108033333333, "name": "e53b52812bcfb60ab13c412d88a4d3aa"}, {"bike_id": "3e25cdb658d3b8cbb2ff6efcbc0463fa", "type": "electric_scooter", "is_disabled": 0, "lat": 38.89217566666667, "rental_uris": {"ios": "https://dc.lft.to/lastmile_qr_scan", "android": "https://dc.lft.to/lastmile_qr_scan"}, "is_reserved": 0, "fusion_lon": 0.0, "fusion_lat": 0.0, "lon": -77.02261766666666, "name": "3e25cdb658d3b8cbb2ff6efcbc0463fa"}, {"bike_id": "fdd37ae05b87df3c6bd6cfdc62c195c7", "type": "electric_scooter", "is_disabled": 0, "lat": 38.897436, "rental_uris": {"ios": "https://dc.lft.to/lastmile_qr_scan", "android": "https://dc.lft.to/lastmile_qr_scan"}, "is_reserved": 0, "fusion_lon": 0.0, "fusion_lat": 0.0, "lon": -77.0274935, "name": "fdd37ae05b87df3c6bd6cfdc62c195c7"}, {"bike_id": "66ee25baa9c79a5c19b62021f57b9edb", "type": "electric_scooter", "is_disabled": 0, "lat": 38.956455, "rental_uris": {"ios": "https://dc.lft.to/lastmile_qr_scan", "android": "https://dc.lft.to/lastmile_qr_scan"}, "is_reserved": 0, "fusion_lon": 0.0, "fusion_lat": 0.0, "lon": -77.023966, "name": "66ee25baa9c79a5c19b62021f57b9edb"}, {"bike_id": "36e6aeba7fb55bde4839369a1be7b941", "type": "electric_scooter", "is_disabled": 0, "lat": 38.8935655, "rental_uris": {"ios": "https://dc.lft.to/lastmile_qr_scan", "android": "https://dc.lft.to/lastmile_qr_scan"}, "is_reserved": 0, "fusion_lon": 0.0, "fusion_lat": 0.0, "lon": -76.94933616666667, "name": "36e6aeba7fb55bde4839369a1be7b941"}, {"bike_id": "6988077b4ef0db7b2a7de5a452d312d0", "type": "electric_scooter", "is_disabled": 0, "lat": 38.9197385, "rental_uris": {"ios": "https://dc.lft.to/lastmile_qr_scan", "android": "https://dc.lft.to/lastmile_qr_scan"}, "is_reserved": 0, "fusion_lon": 0.0, "fusion_lat": 0.0, "lon": -77.0426615, "name": "6988077b4ef0db7b2a7de5a452d312d0"}, {"bike_id": "83157973caf8ba5a6764a02d77483608", "type": "electric_scooter", "is_disabled": 0, "lat": 38.904939666666664, "rental_uris": {"ios": "https://dc.lft.to/lastmile_qr_scan", "android": "https://dc.lft.to/lastmile_qr_scan"}, "is_reserved": 0, "fusion_lon": 0.0, "fusion_lat": 0.0, "lon": -77.02003633333334, "name": "83157973caf8ba5a6764a02d77483608"}, {"bike_id": "e90de1a3e569f4274956735ed1197f0a", "type": "electric_scooter", "is_disabled": 0, "lat": 38.84637633333333, "rental_uris": {"ios": "https://dc.lft.to/lastmile_qr_scan", "android": "https://dc.lft.to/lastmile_qr_scan"}, "is_reserved": 0, "fusion_lon": 0.0, "fusion_lat": 0.0, "lon": -76.99132233333333, "name": "e90de1a3e569f4274956735ed1197f0a"}, {"bike_id": "29ce886b5b13ec53c92111c55119f745", "type": "electric_scooter", "is_disabled": 0, "lat": 38.8715745, "rental_uris": {"ios": "https://dc.lft.to/lastmile_qr_scan", "android": "https://dc.lft.to/lastmile_qr_scan"}, "is_reserved": 0, "fusion_lon": 0.0, "fusion_lat": 0.0, "lon": -77.013591, "name": "29ce886b5b13ec53c92111c55119f745"}, {"bike_id": "de6a7226bdae6a284e44c815fffb163c", "type": "electric_scooter", "is_disabled": 0, "lat": 38.8922705, "rental_uris": {"ios": "https://dc.lft.to/lastmile_qr_scan", "android": "https://dc.lft.to/lastmile_qr_scan"}, "is_reserved": 0, "fusion_lon": 0.0, "fusion_lat": 0.0, "lon": -76.99842533333333, "name": "de6a7226bdae6a284e44c815fffb163c"}, {"bike_id": "7fc696f862454c2027227498d45d249b", "type": "electric_scooter", "is_disabled": 0, "lat": 38.90629466666667, "rental_uris": {"ios": "https://dc.lft.to/lastmile_qr_scan", "android": "https://dc.lft.to/lastmile_qr_scan"}, "is_reserved": 0, "fusion_lon": 0.0, "fusion_lat": 0.0, "lon": -77.03443183333333, "name": "7fc696f862454c2027227498d45d249b"}, {"bike_id": "9ceb166f8ee89ffc1ba8f2ce90ae1282", "type": "electric_scooter", "is_disabled": 0, "lat": 38.893132666666666, "rental_uris": {"ios": "https://dc.lft.to/lastmile_qr_scan", "android": "https://dc.lft.to/lastmile_qr_scan"}, "is_reserved": 0, "fusion_lon": 0.0, "fusion_lat": 0.0, "lon": -77.03184233333333, "name": "9ceb166f8ee89ffc1ba8f2ce90ae1282"}, {"bike_id": "62d693eebb10a34838012d22b4ba5bb6", "type": "electric_bike", "is_disabled": 0, "lat": 38.821757833333336, "rental_uris": {"ios": "https://dc.lft.to/lastmile_qr_scan", "android": "https://dc.lft.to/lastmile_qr_scan"}, "is_reserved": 0, "fusion_lon": 0.0, "fusion_lat": 0.0, "lon": -76.99512916666667, "name": "62d693eebb10a34838012d22b4ba5bb6"}, {"bike_id": "d5af0a1f60fb01102f096748aa8b378d", "type": "electric_bike", "is_disabled": 0, "lat": 39.043228, "rental_uris": {"ios": "https://dc.lft.to/lastmile_qr_scan", "android": "https://dc.lft.to/lastmile_qr_scan"}, "is_reserved": 0, "fusion_lon": 0.0, "fusion_lat": 0.0, "lon": -77.051562, "name": "d5af0a1f60fb01102f096748aa8b378d"}, {"bike_id": "f8d988a83542f962ecbf18cc9a07b9da", "type": "electric_scooter", "is_disabled": 0, "lat": 38.90558883333333, "rental_uris": {"ios": "https://dc.lft.to/lastmile_qr_scan", "android": "https://dc.lft.to/lastmile_qr_scan"}, "is_reserved": 0, "fusion_lon": 0.0, "fusion_lat": 0.0, "lon": -77.06524866666666, "name": "f8d988a83542f962ecbf18cc9a07b9da"}, {"bike_id": "747d4ddb7a73c12729d3b5d6dc4ecd8f", "type": "electric_scooter", "is_disabled": 0, "lat": 38.91820966666667, "rental_uris": {"ios": "https://dc.lft.to/lastmile_qr_scan", "android": "https://dc.lft.to/lastmile_qr_scan"}, "is_reserved": 0, "fusion_lon": 0.0, "fusion_lat": 0.0, "lon": -77.025323, "name": "747d4ddb7a73c12729d3b5d6dc4ecd8f"}, {"bike_id": "40c99a896028fe9653031f4b128143a3", "type": "electric_scooter", "is_disabled": 0, "lat": 38.9184035, "rental_uris": {"ios": "https://dc.lft.to/lastmile_qr_scan", "android": "https://dc.lft.to/lastmile_qr_scan"}, "is_reserved": 0, "fusion_lon": 0.0, "fusion_lat": 0.0, "lon": -77.03947216666667, "name": "40c99a896028fe9653031f4b128143a3"}, {"bike_id": "b86b49bef3245b30ca61cc81c7012f3c", "type": "electric_scooter", "is_disabled": 0, "lat": 38.87684866666667, "rental_uris": {"ios": "https://dc.lft.to/lastmile_qr_scan", "android": "https://dc.lft.to/lastmile_qr_scan"}, "is_reserved": 0, "fusion_lon": 0.0, "fusion_lat": 0.0, "lon": -77.01758433333333, "name": "b86b49bef3245b30ca61cc81c7012f3c"}, {"bike_id": "744f9149cc00254df8741e033d5c6eb8", "type": "electric_scooter", "is_disabled": 0, "lat": 38.9056615, "rental_uris": {"ios": "https://dc.lft.to/lastmile_qr_scan", "android": "https://dc.lft.to/lastmile_qr_scan"}, "is_reserved": 0, "fusion_lon": 0.0, "fusion_lat": 0.0, "lon": -77.00483583333333, "name": "744f9149cc00254df8741e033d5c6eb8"}, {"bike_id": "2dab1aef824a5c7992eb58f36a1c4aef", "type": "electric_scooter", "is_disabled": 0, "lat": 38.897628166666664, "rental_uris": {"ios": "https://dc.lft.to/lastmile_qr_scan", "android": "https://dc.lft.to/lastmile_qr_scan"}, "is_reserved": 0, "fusion_lon": 0.0, "fusion_lat": 0.0, "lon": -77.03199466666666, "name": "2dab1aef824a5c7992eb58f36a1c4aef"}, {"bike_id": "ef36efa94f1be3f9ac68174db11ee872", "type": "electric_scooter", "is_disabled": 0, "lat": 38.91107133333333, "rental_uris": {"ios": "https://dc.lft.to/lastmile_qr_scan", "android": "https://dc.lft.to/lastmile_qr_scan"}, "is_reserved": 0, "fusion_lon": 0.0, "fusion_lat": 0.0, "lon": -77.04476216666667, "name": "ef36efa94f1be3f9ac68174db11ee872"}, {"bike_id": "f93b56f5a3ca385a635902faffc419cb", "type": "electric_scooter", "is_disabled": 0, "lat": 38.900718166666664, "rental_uris": {"ios": "https://dc.lft.to/lastmile_qr_scan", "android": "https://dc.lft.to/lastmile_qr_scan"}, "is_reserved": 0, "fusion_lon": 0.0, "fusion_lat": 0.0, "lon": -76.99018316666667, "name": "f93b56f5a3ca385a635902faffc419cb"}, {"bike_id": "549a1246a3e898f6a60f85770620b8d3", "type": "electric_scooter", "is_disabled": 0, "lat": 38.871242333333335, "rental_uris": {"ios": "https://dc.lft.to/lastmile_qr_scan", "android": "https://dc.lft.to/lastmile_qr_scan"}, "is_reserved": 0, "fusion_lon": 0.0, "fusion_lat": 0.0, "lon": -76.9824125, "name": "549a1246a3e898f6a60f85770620b8d3"}, {"bike_id": "7635a4298416c20d78ebf7b15a3419c1", "type": "electric_scooter", "is_disabled": 0, "lat": 38.852035666666666, "rental_uris": {"ios": "https://dc.lft.to/lastmile_qr_scan", "android": "https://dc.lft.to/lastmile_qr_scan"}, "is_reserved": 0, "fusion_lon": 0.0, "fusion_lat": 0.0, "lon": -76.98561716666667, "name": "7635a4298416c20d78ebf7b15a3419c1"}, {"bike_id": "f60a2893838e49703f1361ed392f075d", "type": "electric_scooter", "is_disabled": 0, "lat": 38.902702, "rental_uris": {"ios": "https://dc.lft.to/lastmile_qr_scan", "android": "https://dc.lft.to/lastmile_qr_scan"}, "is_reserved": 0, "fusion_lon": 0.0, "fusion_lat": 0.0, "lon": -77.029994, "name": "f60a2893838e49703f1361ed392f075d"}, {"bike_id": "b3fa9c6a6799dca256821da6d1ba2987", "type": "electric_scooter", "is_disabled": 0, "lat": 38.90269383333333, "rental_uris": {"ios": "https://dc.lft.to/lastmile_qr_scan", "android": "https://dc.lft.to/lastmile_qr_scan"}, "is_reserved": 0, "fusion_lon": 0.0, "fusion_lat": 0.0, "lon": -77.04873116666667, "name": "b3fa9c6a6799dca256821da6d1ba2987"}, {"bike_id": "600282d533da2f573076e7f47b8480d4", "type": "electric_scooter", "is_disabled": 0, "lat": 38.909928, "rental_uris": {"ios": "https://dc.lft.to/lastmile_qr_scan", "android": "https://dc.lft.to/lastmile_qr_scan"}, "is_reserved": 0, "fusion_lon": 0.0, "fusion_lat": 0.0, "lon": -77.04323466666666, "name": "600282d533da2f573076e7f47b8480d4"}, {"bike_id": "d21ff89f6a04a7d516605b5636d4d81e", "type": "electric_bike", "is_disabled": 0, "lat": 39.0578695, "rental_uris": {"ios": "https://dc.lft.to/lastmile_qr_scan", "android": "https://dc.lft.to/lastmile_qr_scan"}, "is_reserved": 0, "fusion_lon": 0.0, "fusion_lat": 0.0, "lon": -77.15025516666667, "name": "d21ff89f6a04a7d516605b5636d4d81e"}, {"bike_id": "1b78db3dc67b276373067030a3c98ba5", "type": "electric_scooter", "is_disabled": 0, "lat": 38.9156775, "rental_uris": {"ios": "https://dc.lft.to/lastmile_qr_scan", "android": "https://dc.lft.to/lastmile_qr_scan"}, "is_reserved": 0, "fusion_lon": 0.0, "fusion_lat": 0.0, "lon": -77.0120095, "name": "1b78db3dc67b276373067030a3c98ba5"}, {"bike_id": "2a90ddfc586ed3c3e2df46436b4b98d5", "type": "electric_bike", "is_disabled": 0, "lat": 38.819881333333335, "rental_uris": {"ios": "https://dc.lft.to/lastmile_qr_scan", "android": "https://dc.lft.to/lastmile_qr_scan"}, "is_reserved": 0, "fusion_lon": 0.0, "fusion_lat": 0.0, "lon": -76.9980165, "name": "2a90ddfc586ed3c3e2df46436b4b98d5"}, {"bike_id": "661a797cb877e035d2a3b3acc645af42", "type": "electric_scooter", "is_disabled": 0, "lat": 38.91643033333333, "rental_uris": {"ios": "https://dc.lft.to/lastmile_qr_scan", "android": "https://dc.lft.to/lastmile_qr_scan"}, "is_reserved": 0, "fusion_lon": 0.0, "fusion_lat": 0.0, "lon": -77.02384616666667, "name": "661a797cb877e035d2a3b3acc645af42"}, {"bike_id": "af4f49392b0fb15f0ea0d3a8301e8c4b", "type": "electric_scooter", "is_disabled": 0, "lat": 38.857035, "rental_uris": {"ios": "https://dc.lft.to/lastmile_qr_scan", "android": "https://dc.lft.to/lastmile_qr_scan"}, "is_reserved": 0, "fusion_lon": 0.0, "fusion_lat": 0.0, "lon": -76.98966333333334, "name": "af4f49392b0fb15f0ea0d3a8301e8c4b"}, {"bike_id": "fc41a6374add6f5edc7859fdf131897e", "type": "electric_scooter", "is_disabled": 0, "lat": 38.90118183333333, "rental_uris": {"ios": "https://dc.lft.to/lastmile_qr_scan", "android": "https://dc.lft.to/lastmile_qr_scan"}, "is_reserved": 0, "fusion_lon": 0.0, "fusion_lat": 0.0, "lon": -77.027932, "name": "fc41a6374add6f5edc7859fdf131897e"}, {"bike_id": "5fbababbfccde59acdfa3d4e8f386614", "type": "electric_scooter", "is_disabled": 0, "lat": 38.905248666666665, "rental_uris": {"ios": "https://dc.lft.to/lastmile_qr_scan", "android": "https://dc.lft.to/lastmile_qr_scan"}, "is_reserved": 0, "fusion_lon": 0.0, "fusion_lat": 0.0, "lon": -77.05012716666667, "name": "5fbababbfccde59acdfa3d4e8f386614"}, {"bike_id": "4b108588648e7197c9ee6ee01840858f", "type": "electric_scooter", "is_disabled": 0, "lat": 38.9168635, "rental_uris": {"ios": "https://dc.lft.to/lastmile_qr_scan", "android": "https://dc.lft.to/lastmile_qr_scan"}, "is_reserved": 0, "fusion_lon": 0.0, "fusion_lat": 0.0, "lon": -77.02516116666666, "name": "4b108588648e7197c9ee6ee01840858f"}, {"bike_id": "626a7010d2f5f72601e30d2c2aa318d6", "type": "electric_scooter", "is_disabled": 0, "lat": 38.886423666666666, "rental_uris": {"ios": "https://dc.lft.to/lastmile_qr_scan", "android": "https://dc.lft.to/lastmile_qr_scan"}, "is_reserved": 0, "fusion_lon": 0.0, "fusion_lat": 0.0, "lon": -77.0213655, "name": "626a7010d2f5f72601e30d2c2aa318d6"}, {"bike_id": "f1485378569a3e0a1c9e833f7df9a06d", "type": "electric_scooter", "is_disabled": 0, "lat": 38.88716383333333, "rental_uris": {"ios": "https://dc.lft.to/lastmile_qr_scan", "android": "https://dc.lft.to/lastmile_qr_scan"}, "is_reserved": 0, "fusion_lon": 0.0, "fusion_lat": 0.0, "lon": -77.02184566666666, "name": "f1485378569a3e0a1c9e833f7df9a06d"}, {"bike_id": "d698133392c85966f39020b4898da593", "type": "electric_bike", "is_disabled": 0, "lat": 38.9053645, "rental_uris": {"ios": "https://dc.lft.to/lastmile_qr_scan", "android": "https://dc.lft.to/lastmile_qr_scan"}, "is_reserved": 0, "fusion_lon": 0.0, "fusion_lat": 0.0, "lon": -77.029235, "name": "d698133392c85966f39020b4898da593"}, {"bike_id": "eb9d76938a4cdb904149ce875556ee88", "type": "electric_scooter", "is_disabled": 0, "lat": 38.9335975, "rental_uris": {"ios": "https://dc.lft.to/lastmile_qr_scan", "android": "https://dc.lft.to/lastmile_qr_scan"}, "is_reserved": 0, "fusion_lon": 0.0, "fusion_lat": 0.0, "lon": -77.0885925, "name": "eb9d76938a4cdb904149ce875556ee88"}, {"bike_id": "df4047cdcdccf8593b1ec679bc180d30", "type": "electric_scooter", "is_disabled": 0, "lat": 38.90732933333334, "rental_uris": {"ios": "https://dc.lft.to/lastmile_qr_scan", "android": "https://dc.lft.to/lastmile_qr_scan"}, "is_reserved": 0, "fusion_lon": 0.0, "fusion_lat": 0.0, "lon": -77.02515466666667, "name": "df4047cdcdccf8593b1ec679bc180d30"}, {"bike_id": "b7dd0dc3c4afbc668149d3ea3bf1b73d", "type": "electric_scooter", "is_disabled": 0, "lat": 38.97208066666666, "rental_uris": {"ios": "https://dc.lft.to/lastmile_qr_scan", "android": "https://dc.lft.to/lastmile_qr_scan"}, "is_reserved": 0, "fusion_lon": 0.0, "fusion_lat": 0.0, "lon": -77.026575, "name": "b7dd0dc3c4afbc668149d3ea3bf1b73d"}, {"bike_id": "3a8faff94f49317ae7c56b0157f181d1", "type": "electric_scooter", "is_disabled": 0, "lat": 38.92536533333333, "rental_uris": {"ios": "https://dc.lft.to/lastmile_qr_scan", "android": "https://dc.lft.to/lastmile_qr_scan"}, "is_reserved": 0, "fusion_lon": 0.0, "fusion_lat": 0.0, "lon": -77.03378933333333, "name": "3a8faff94f49317ae7c56b0157f181d1"}, {"bike_id": "b4c2143977e2da7ca5481de6f41a460e", "type": "electric_scooter", "is_disabled": 0, "lat": 38.90382366666667, "rental_uris": {"ios": "https://dc.lft.to/lastmile_qr_scan", "android": "https://dc.lft.to/lastmile_qr_scan"}, "is_reserved": 0, "fusion_lon": 0.0, "fusion_lat": 0.0, "lon": -77.0424695, "name": "b4c2143977e2da7ca5481de6f41a460e"}, {"bike_id": "13a6dc448e81fd62108367c8336cf12e", "type": "electric_scooter", "is_disabled": 0, "lat": 38.908320333333336, "rental_uris": {"ios": "https://dc.lft.to/lastmile_qr_scan", "android": "https://dc.lft.to/lastmile_qr_scan"}, "is_reserved": 0, "fusion_lon": 0.0, "fusion_lat": 0.0, "lon": -76.997019, "name": "13a6dc448e81fd62108367c8336cf12e"}, {"bike_id": "516aa1b7fef870d2c1acf2ad1441f0c8", "type": "electric_scooter", "is_disabled": 0, "lat": 38.9147055, "rental_uris": {"ios": "https://dc.lft.to/lastmile_qr_scan", "android": "https://dc.lft.to/lastmile_qr_scan"}, "is_reserved": 0, "fusion_lon": 0.0, "fusion_lat": 0.0, "lon": -77.0198585, "name": "516aa1b7fef870d2c1acf2ad1441f0c8"}, {"bike_id": "c3f78bf4e841753ccbdf7fd8a370f336", "type": "electric_scooter", "is_disabled": 0, "lat": 38.913252, "rental_uris": {"ios": "https://dc.lft.to/lastmile_qr_scan", "android": "https://dc.lft.to/lastmile_qr_scan"}, "is_reserved": 0, "fusion_lon": 0.0, "fusion_lat": 0.0, "lon": -77.03180966666666, "name": "c3f78bf4e841753ccbdf7fd8a370f336"}, {"bike_id": "7516b754bf59d1ddffdaafc6e956d65a", "type": "electric_scooter", "is_disabled": 0, "lat": 38.866266333333336, "rental_uris": {"ios": "https://dc.lft.to/lastmile_qr_scan", "android": "https://dc.lft.to/lastmile_qr_scan"}, "is_reserved": 0, "fusion_lon": 0.0, "fusion_lat": 0.0, "lon": -76.98715316666667, "name": "7516b754bf59d1ddffdaafc6e956d65a"}, {"bike_id": "d36c139b8b0c239ee8f15292e3ca7080", "type": "electric_scooter", "is_disabled": 0, "lat": 38.9215245, "rental_uris": {"ios": "https://dc.lft.to/lastmile_qr_scan", "android": "https://dc.lft.to/lastmile_qr_scan"}, "is_reserved": 0, "fusion_lon": 0.0, "fusion_lat": 0.0, "lon": -77.03516933333333, "name": "d36c139b8b0c239ee8f15292e3ca7080"}, {"bike_id": "906414af60c25eb018296c4a8473a67c", "type": "electric_scooter", "is_disabled": 0, "lat": 38.9050465, "rental_uris": {"ios": "https://dc.lft.to/lastmile_qr_scan", "android": "https://dc.lft.to/lastmile_qr_scan"}, "is_reserved": 0, "fusion_lon": 0.0, "fusion_lat": 0.0, "lon": -77.06430383333333, "name": "906414af60c25eb018296c4a8473a67c"}, {"bike_id": "f2727c8c2cc1b6754985534d8ed7625f", "type": "electric_scooter", "is_disabled": 0, "lat": 38.911900833333334, "rental_uris": {"ios": "https://dc.lft.to/lastmile_qr_scan", "android": "https://dc.lft.to/lastmile_qr_scan"}, "is_reserved": 0, "fusion_lon": 0.0, "fusion_lat": 0.0, "lon": -77.040341, "name": "f2727c8c2cc1b6754985534d8ed7625f"}, {"bike_id": "a20c24a6580d522d3fe5167a763800e2", "type": "electric_scooter", "is_disabled": 0, "lat": 38.914840833333336, "rental_uris": {"ios": "https://dc.lft.to/lastmile_qr_scan", "android": "https://dc.lft.to/lastmile_qr_scan"}, "is_reserved": 0, "fusion_lon": 0.0, "fusion_lat": 0.0, "lon": -77.03763216666667, "name": "a20c24a6580d522d3fe5167a763800e2"}, {"bike_id": "633da3bae57314f060ecc5c7e7aa15d3", "type": "electric_scooter", "is_disabled": 0, "lat": 38.92529183333333, "rental_uris": {"ios": "https://dc.lft.to/lastmile_qr_scan", "android": "https://dc.lft.to/lastmile_qr_scan"}, "is_reserved": 0, "fusion_lon": 0.0, "fusion_lat": 0.0, "lon": -77.04275783333334, "name": "633da3bae57314f060ecc5c7e7aa15d3"}, {"bike_id": "46e49676358a2f5d2c56b90fa21e65d2", "type": "electric_scooter", "is_disabled": 0, "lat": 38.89476233333333, "rental_uris": {"ios": "https://dc.lft.to/lastmile_qr_scan", "android": "https://dc.lft.to/lastmile_qr_scan"}, "is_reserved": 0, "fusion_lon": 0.0, "fusion_lat": 0.0, "lon": -76.94861016666667, "name": "46e49676358a2f5d2c56b90fa21e65d2"}, {"bike_id": "3e251d90fb4470bef1adc968d0dfe708", "type": "electric_scooter", "is_disabled": 0, "lat": 38.9012985, "rental_uris": {"ios": "https://dc.lft.to/lastmile_qr_scan", "android": "https://dc.lft.to/lastmile_qr_scan"}, "is_reserved": 0, "fusion_lon": 0.0, "fusion_lat": 0.0, "lon": -77.00326216666667, "name": "3e251d90fb4470bef1adc968d0dfe708"}, {"bike_id": "e5a1bac9d45e0f3204ce287146fc693a", "type": "electric_scooter", "is_disabled": 0, "lat": 38.91326816666667, "rental_uris": {"ios": "https://dc.lft.to/lastmile_qr_scan", "android": "https://dc.lft.to/lastmile_qr_scan"}, "is_reserved": 0, "fusion_lon": 0.0, "fusion_lat": 0.0, "lon": -77.03184233333333, "name": "e5a1bac9d45e0f3204ce287146fc693a"}, {"bike_id": "76b9a2ec87df6ce5ad8467d5c1d33ff5", "type": "electric_scooter", "is_disabled": 0, "lat": 38.907558, "rental_uris": {"ios": "https://dc.lft.to/lastmile_qr_scan", "android": "https://dc.lft.to/lastmile_qr_scan"}, "is_reserved": 0, "fusion_lon": 0.0, "fusion_lat": 0.0, "lon": -77.01698633333334, "name": "76b9a2ec87df6ce5ad8467d5c1d33ff5"}, {"bike_id": "978be6fb2ef944066132fd6cea682a2d", "type": "electric_scooter", "is_disabled": 0, "lat": 38.915474333333336, "rental_uris": {"ios": "https://dc.lft.to/lastmile_qr_scan", "android": "https://dc.lft.to/lastmile_qr_scan"}, "is_reserved": 0, "fusion_lon": 0.0, "fusion_lat": 0.0, "lon": -77.02208066666667, "name": "978be6fb2ef944066132fd6cea682a2d"}, {"bike_id": "8326e8076daf6594aa756aea2fec2916", "type": "electric_scooter", "is_disabled": 0, "lat": 38.905099166666666, "rental_uris": {"ios": "https://dc.lft.to/lastmile_qr_scan", "android": "https://dc.lft.to/lastmile_qr_scan"}, "is_reserved": 0, "fusion_lon": 0.0, "fusion_lat": 0.0, "lon": -77.01711983333334, "name": "8326e8076daf6594aa756aea2fec2916"}, {"bike_id": "8715f15ca87a14df5944401844181d4e", "type": "electric_scooter", "is_disabled": 0, "lat": 38.916931166666664, "rental_uris": {"ios": "https://dc.lft.to/lastmile_qr_scan", "android": "https://dc.lft.to/lastmile_qr_scan"}, "is_reserved": 0, "fusion_lon": 0.0, "fusion_lat": 0.0, "lon": -77.03760516666667, "name": "8715f15ca87a14df5944401844181d4e"}, {"bike_id": "279d3788bb6ac594950a4b10e8d1224f", "type": "electric_scooter", "is_disabled": 0, "lat": 38.918089, "rental_uris": {"ios": "https://dc.lft.to/lastmile_qr_scan", "android": "https://dc.lft.to/lastmile_qr_scan"}, "is_reserved": 0, "fusion_lon": 0.0, "fusion_lat": 0.0, "lon": -77.0318775, "name": "279d3788bb6ac594950a4b10e8d1224f"}, {"bike_id": "87c187a72ec0e2b858002bbc7a956a81", "type": "electric_scooter", "is_disabled": 0, "lat": 38.90262033333333, "rental_uris": {"ios": "https://dc.lft.to/lastmile_qr_scan", "android": "https://dc.lft.to/lastmile_qr_scan"}, "is_reserved": 0, "fusion_lon": 0.0, "fusion_lat": 0.0, "lon": -77.0548335, "name": "87c187a72ec0e2b858002bbc7a956a81"}, {"bike_id": "d2d18ad1ef5fd8ebd5da297ab886fdaa", "type": "electric_scooter", "is_disabled": 0, "lat": 38.89841766666667, "rental_uris": {"ios": "https://dc.lft.to/lastmile_qr_scan", "android": "https://dc.lft.to/lastmile_qr_scan"}, "is_reserved": 0, "fusion_lon": 0.0, "fusion_lat": 0.0, "lon": -76.946345, "name": "d2d18ad1ef5fd8ebd5da297ab886fdaa"}, {"bike_id": "06500f4e10f2517593cfc33a54d64354", "type": "electric_bike", "is_disabled": 0, "lat": 38.87479016666666, "rental_uris": {"ios": "https://dc.lft.to/lastmile_qr_scan", "android": "https://dc.lft.to/lastmile_qr_scan"}, "is_reserved": 0, "fusion_lon": 0.0, "fusion_lat": 0.0, "lon": -76.96533416666666, "name": "06500f4e10f2517593cfc33a54d64354"}, {"bike_id": "f11e0d1d0ce12c3378cae6992d602d09", "type": "electric_scooter", "is_disabled": 0, "lat": 38.874285666666665, "rental_uris": {"ios": "https://dc.lft.to/lastmile_qr_scan", "android": "https://dc.lft.to/lastmile_qr_scan"}, "is_reserved": 0, "fusion_lon": 0.0, "fusion_lat": 0.0, "lon": -77.000488, "name": "f11e0d1d0ce12c3378cae6992d602d09"}, {"bike_id": "aee38d7661d6a405f36ae1e8b137e565", "type": "electric_scooter", "is_disabled": 0, "lat": 38.956445, "rental_uris": {"ios": "https://dc.lft.to/lastmile_qr_scan", "android": "https://dc.lft.to/lastmile_qr_scan"}, "is_reserved": 0, "fusion_lon": 0.0, "fusion_lat": 0.0, "lon": -77.02399433333333, "name": "aee38d7661d6a405f36ae1e8b137e565"}, {"bike_id": "1cc600f1c54d0ca19a7e9000697c821c", "type": "electric_scooter", "is_disabled": 0, "lat": 38.920061, "rental_uris": {"ios": "https://dc.lft.to/lastmile_qr_scan", "android": "https://dc.lft.to/lastmile_qr_scan"}, "is_reserved": 0, "fusion_lon": 0.0, "fusion_lat": 0.0, "lon": -77.041706, "name": "1cc600f1c54d0ca19a7e9000697c821c"}, {"bike_id": "1115dd2e5078f57a58b75c6c0a53bb11", "type": "electric_scooter", "is_disabled": 0, "lat": 38.91676983333333, "rental_uris": {"ios": "https://dc.lft.to/lastmile_qr_scan", "android": "https://dc.lft.to/lastmile_qr_scan"}, "is_reserved": 0, "fusion_lon": 0.0, "fusion_lat": 0.0, "lon": -77.02536283333333, "name": "1115dd2e5078f57a58b75c6c0a53bb11"}, {"bike_id": "4d18427185bb81b9dbbfcd1d570119fb", "type": "electric_scooter", "is_disabled": 0, "lat": 38.89293083333333, "rental_uris": {"ios": "https://dc.lft.to/lastmile_qr_scan", "android": "https://dc.lft.to/lastmile_qr_scan"}, "is_reserved": 0, "fusion_lon": 0.0, "fusion_lat": 0.0, "lon": -77.04876933333334, "name": "4d18427185bb81b9dbbfcd1d570119fb"}, {"bike_id": "0374addbdc54edba9cdfa5edae34fd42", "type": "electric_scooter", "is_disabled": 0, "lat": 38.90391483333333, "rental_uris": {"ios": "https://dc.lft.to/lastmile_qr_scan", "android": "https://dc.lft.to/lastmile_qr_scan"}, "is_reserved": 0, "fusion_lon": 0.0, "fusion_lat": 0.0, "lon": -76.99015733333333, "name": "0374addbdc54edba9cdfa5edae34fd42"}, {"bike_id": "0f6e7b6256c9ae48cbb273132ab85940", "type": "electric_scooter", "is_disabled": 0, "lat": 38.87631, "rental_uris": {"ios": "https://dc.lft.to/lastmile_qr_scan", "android": "https://dc.lft.to/lastmile_qr_scan"}, "is_reserved": 0, "fusion_lon": 0.0, "fusion_lat": 0.0, "lon": -77.00069683333334, "name": "0f6e7b6256c9ae48cbb273132ab85940"}, {"bike_id": "f8c4eb30eede06f44f500a3b658a76cc", "type": "electric_scooter", "is_disabled": 0, "lat": 38.8644555, "rental_uris": {"ios": "https://dc.lft.to/lastmile_qr_scan", "android": "https://dc.lft.to/lastmile_qr_scan"}, "is_reserved": 0, "fusion_lon": 0.0, "fusion_lat": 0.0, "lon": -76.97988983333333, "name": "f8c4eb30eede06f44f500a3b658a76cc"}, {"bike_id": "77b548fe1ffc63103a1d5f0c3d6a4a21", "type": "electric_scooter", "is_disabled": 0, "lat": 38.906432833333334, "rental_uris": {"ios": "https://dc.lft.to/lastmile_qr_scan", "android": "https://dc.lft.to/lastmile_qr_scan"}, "is_reserved": 0, "fusion_lon": 0.0, "fusion_lat": 0.0, "lon": -77.01829733333334, "name": "77b548fe1ffc63103a1d5f0c3d6a4a21"}, {"bike_id": "175083313ad53fc424f84aad7d8ff0fe", "type": "electric_scooter", "is_disabled": 0, "lat": 38.89255516666667, "rental_uris": {"ios": "https://dc.lft.to/lastmile_qr_scan", "android": "https://dc.lft.to/lastmile_qr_scan"}, "is_reserved": 0, "fusion_lon": 0.0, "fusion_lat": 0.0, "lon": -76.9257345, "name": "175083313ad53fc424f84aad7d8ff0fe"}, {"bike_id": "a630e54ad265b1310c81361705fda2f6", "type": "electric_scooter", "is_disabled": 0, "lat": 38.90852016666667, "rental_uris": {"ios": "https://dc.lft.to/lastmile_qr_scan", "android": "https://dc.lft.to/lastmile_qr_scan"}, "is_reserved": 0, "fusion_lon": 0.0, "fusion_lat": 0.0, "lon": -77.03013983333334, "name": "a630e54ad265b1310c81361705fda2f6"}, {"bike_id": "93b619e1b7d8e6b43a1ce8e48f383719", "type": "electric_scooter", "is_disabled": 0, "lat": 38.92960216666667, "rental_uris": {"ios": "https://dc.lft.to/lastmile_qr_scan", "android": "https://dc.lft.to/lastmile_qr_scan"}, "is_reserved": 0, "fusion_lon": 0.0, "fusion_lat": 0.0, "lon": -77.02791583333334, "name": "93b619e1b7d8e6b43a1ce8e48f383719"}, {"bike_id": "44e17056a41ddc8e618349ec0d80380f", "type": "electric_scooter", "is_disabled": 0, "lat": 38.90980783333333, "rental_uris": {"ios": "https://dc.lft.to/lastmile_qr_scan", "android": "https://dc.lft.to/lastmile_qr_scan"}, "is_reserved": 0, "fusion_lon": 0.0, "fusion_lat": 0.0, "lon": -77.04538833333334, "name": "44e17056a41ddc8e618349ec0d80380f"}, {"bike_id": "b521a3f752e3c812f6f1aaf14f1948af", "type": "electric_scooter", "is_disabled": 0, "lat": 38.905272833333335, "rental_uris": {"ios": "https://dc.lft.to/lastmile_qr_scan", "android": "https://dc.lft.to/lastmile_qr_scan"}, "is_reserved": 0, "fusion_lon": 0.0, "fusion_lat": 0.0, "lon": -77.065247, "name": "b521a3f752e3c812f6f1aaf14f1948af"}, {"bike_id": "676ed5416fec5006affcbcb226530538", "type": "electric_scooter", "is_disabled": 0, "lat": 38.919476833333334, "rental_uris": {"ios": "https://dc.lft.to/lastmile_qr_scan", "android": "https://dc.lft.to/lastmile_qr_scan"}, "is_reserved": 0, "fusion_lon": 0.0, "fusion_lat": 0.0, "lon": -77.04491783333333, "name": "676ed5416fec5006affcbcb226530538"}, {"bike_id": "e58dc6b422e28c3be9559c2ddfc08a1c", "type": "electric_bike", "is_disabled": 0, "lat": 38.936994166666665, "rental_uris": {"ios": "https://dc.lft.to/lastmile_qr_scan", "android": "https://dc.lft.to/lastmile_qr_scan"}, "is_reserved": 0, "fusion_lon": 0.0, "fusion_lat": 0.0, "lon": -77.05611266666666, "name": "e58dc6b422e28c3be9559c2ddfc08a1c"}, {"bike_id": "e42fda4cc6a04c2e8f68a141a4515ae6", "type": "electric_bike", "is_disabled": 0, "lat": 38.831577333333335, "rental_uris": {"ios": "https://dc.lft.to/lastmile_qr_scan", "android": "https://dc.lft.to/lastmile_qr_scan"}, "is_reserved": 0, "fusion_lon": 0.0, "fusion_lat": 0.0, "lon": -76.99546316666667, "name": "e42fda4cc6a04c2e8f68a141a4515ae6"}, {"bike_id": "afcf79eb7973ff94fe1bf27301250199", "type": "electric_scooter", "is_disabled": 0, "lat": 38.916063666666666, "rental_uris": {"ios": "https://dc.lft.to/lastmile_qr_scan", "android": "https://dc.lft.to/lastmile_qr_scan"}, "is_reserved": 0, "fusion_lon": 0.0, "fusion_lat": 0.0, "lon": -77.02289883333333, "name": "afcf79eb7973ff94fe1bf27301250199"}, {"bike_id": "ec03a96bda5396554d107cf83766b7f2", "type": "electric_scooter", "is_disabled": 0, "lat": 38.92046, "rental_uris": {"ios": "https://dc.lft.to/lastmile_qr_scan", "android": "https://dc.lft.to/lastmile_qr_scan"}, "is_reserved": 0, "fusion_lon": 0.0, "fusion_lat": 0.0, "lon": -77.03400483333333, "name": "ec03a96bda5396554d107cf83766b7f2"}, {"bike_id": "189ba28c74da98c2ebf98c70204e29e0", "type": "electric_scooter", "is_disabled": 0, "lat": 38.900815333333334, "rental_uris": {"ios": "https://dc.lft.to/lastmile_qr_scan", "android": "https://dc.lft.to/lastmile_qr_scan"}, "is_reserved": 0, "fusion_lon": 0.0, "fusion_lat": 0.0, "lon": -77.03081616666667, "name": "189ba28c74da98c2ebf98c70204e29e0"}, {"bike_id": "7d73787d9febe8acab86ad15293fcea5", "type": "electric_scooter", "is_disabled": 0, "lat": 38.8871345, "rental_uris": {"ios": "https://dc.lft.to/lastmile_qr_scan", "android": "https://dc.lft.to/lastmile_qr_scan"}, "is_reserved": 0, "fusion_lon": 0.0, "fusion_lat": 0.0, "lon": -77.01777166666666, "name": "7d73787d9febe8acab86ad15293fcea5"}, {"bike_id": "afcbceca40c7d1e2b36a0660b044e4f1", "type": "electric_scooter", "is_disabled": 0, "lat": 38.87671533333334, "rental_uris": {"ios": "https://dc.lft.to/lastmile_qr_scan", "android": "https://dc.lft.to/lastmile_qr_scan"}, "is_reserved": 0, "fusion_lon": 0.0, "fusion_lat": 0.0, "lon": -77.007083, "name": "afcbceca40c7d1e2b36a0660b044e4f1"}, {"bike_id": "339d58a75c4685041f1580fd9424f1f9", "type": "electric_scooter", "is_disabled": 0, "lat": 38.90502716666667, "rental_uris": {"ios": "https://dc.lft.to/lastmile_qr_scan", "android": "https://dc.lft.to/lastmile_qr_scan"}, "is_reserved": 0, "fusion_lon": 0.0, "fusion_lat": 0.0, "lon": -77.06883816666667, "name": "339d58a75c4685041f1580fd9424f1f9"}, {"bike_id": "67021531ab4a24646973dcd59efecff2", "type": "electric_scooter", "is_disabled": 0, "lat": 38.9090755, "rental_uris": {"ios": "https://dc.lft.to/lastmile_qr_scan", "android": "https://dc.lft.to/lastmile_qr_scan"}, "is_reserved": 0, "fusion_lon": 0.0, "fusion_lat": 0.0, "lon": -77.04405583333333, "name": "67021531ab4a24646973dcd59efecff2"}, {"bike_id": "e7524d52f4f8f193c48d723be1354909", "type": "electric_scooter", "is_disabled": 0, "lat": 38.914132333333335, "rental_uris": {"ios": "https://dc.lft.to/lastmile_qr_scan", "android": "https://dc.lft.to/lastmile_qr_scan"}, "is_reserved": 0, "fusion_lon": 0.0, "fusion_lat": 0.0, "lon": -77.02427633333333, "name": "e7524d52f4f8f193c48d723be1354909"}, {"bike_id": "7c84a69012270dd2e3c1596c236cdc5f", "type": "electric_scooter", "is_disabled": 0, "lat": 38.897816166666665, "rental_uris": {"ios": "https://dc.lft.to/lastmile_qr_scan", "android": "https://dc.lft.to/lastmile_qr_scan"}, "is_reserved": 0, "fusion_lon": 0.0, "fusion_lat": 0.0, "lon": -76.94736783333333, "name": "7c84a69012270dd2e3c1596c236cdc5f"}, {"bike_id": "8dbc006c0c8510974e7718d6e47198c2", "type": "electric_scooter", "is_disabled": 0, "lat": 38.91417883333333, "rental_uris": {"ios": "https://dc.lft.to/lastmile_qr_scan", "android": "https://dc.lft.to/lastmile_qr_scan"}, "is_reserved": 0, "fusion_lon": 0.0, "fusion_lat": 0.0, "lon": -77.022272, "name": "8dbc006c0c8510974e7718d6e47198c2"}, {"bike_id": "df46ba320f1c546b16cf06598b604179", "type": "electric_scooter", "is_disabled": 0, "lat": 38.918105, "rental_uris": {"ios": "https://dc.lft.to/lastmile_qr_scan", "android": "https://dc.lft.to/lastmile_qr_scan"}, "is_reserved": 0, "fusion_lon": 0.0, "fusion_lat": 0.0, "lon": -77.0278155, "name": "df46ba320f1c546b16cf06598b604179"}, {"bike_id": "250d792c85844566bea4ea468bfe382e", "type": "electric_scooter", "is_disabled": 0, "lat": 38.914131833333336, "rental_uris": {"ios": "https://dc.lft.to/lastmile_qr_scan", "android": "https://dc.lft.to/lastmile_qr_scan"}, "is_reserved": 0, "fusion_lon": 0.0, "fusion_lat": 0.0, "lon": -77.0241125, "name": "250d792c85844566bea4ea468bfe382e"}, {"bike_id": "3c2085e6e8d9a96a9934d1b5fc2d5977", "type": "electric_scooter", "is_disabled": 0, "lat": 38.924929, "rental_uris": {"ios": "https://dc.lft.to/lastmile_qr_scan", "android": "https://dc.lft.to/lastmile_qr_scan"}, "is_reserved": 0, "fusion_lon": 0.0, "fusion_lat": 0.0, "lon": -77.0218075, "name": "3c2085e6e8d9a96a9934d1b5fc2d5977"}, {"bike_id": "33e5f2ab2f373fc803650569973082d5", "type": "electric_scooter", "is_disabled": 0, "lat": 38.915729, "rental_uris": {"ios": "https://dc.lft.to/lastmile_qr_scan", "android": "https://dc.lft.to/lastmile_qr_scan"}, "is_reserved": 0, "fusion_lon": 0.0, "fusion_lat": 0.0, "lon": -77.01959283333333, "name": "33e5f2ab2f373fc803650569973082d5"}, {"bike_id": "015590fa3eca5798096f40d9b4e4013f", "type": "electric_scooter", "is_disabled": 0, "lat": 38.86696966666667, "rental_uris": {"ios": "https://dc.lft.to/lastmile_qr_scan", "android": "https://dc.lft.to/lastmile_qr_scan"}, "is_reserved": 0, "fusion_lon": 0.0, "fusion_lat": 0.0, "lon": -76.98548866666667, "name": "015590fa3eca5798096f40d9b4e4013f"}, {"bike_id": "90d6a2adf10a3469df27ff2e487c205a", "type": "electric_scooter", "is_disabled": 0, "lat": 38.9247225, "rental_uris": {"ios": "https://dc.lft.to/lastmile_qr_scan", "android": "https://dc.lft.to/lastmile_qr_scan"}, "is_reserved": 0, "fusion_lon": 0.0, "fusion_lat": 0.0, "lon": -77.0283995, "name": "90d6a2adf10a3469df27ff2e487c205a"}, {"bike_id": "49320ba48fdc10c17e8b3ca4e907c755", "type": "electric_scooter", "is_disabled": 0, "lat": 38.9013, "rental_uris": {"ios": "https://dc.lft.to/lastmile_qr_scan", "android": "https://dc.lft.to/lastmile_qr_scan"}, "is_reserved": 0, "fusion_lon": 0.0, "fusion_lat": 0.0, "lon": -77.04339783333333, "name": "49320ba48fdc10c17e8b3ca4e907c755"}, {"bike_id": "b9ac6c208e22423b034e283c84e7f99e", "type": "electric_bike", "is_disabled": 0, "lat": 38.803915333333336, "rental_uris": {"ios": "https://dc.lft.to/lastmile_qr_scan", "android": "https://dc.lft.to/lastmile_qr_scan"}, "is_reserved": 0, "fusion_lon": 0.0, "fusion_lat": 0.0, "lon": -77.05566816666666, "name": "b9ac6c208e22423b034e283c84e7f99e"}, {"bike_id": "6a8eac8b4c9e855eee27272c7ba1754d", "type": "electric_bike", "is_disabled": 0, "lat": 38.919002666666664, "rental_uris": {"ios": "https://dc.lft.to/lastmile_qr_scan", "android": "https://dc.lft.to/lastmile_qr_scan"}, "is_reserved": 0, "fusion_lon": 0.0, "fusion_lat": 0.0, "lon": -77.00064083333334, "name": "6a8eac8b4c9e855eee27272c7ba1754d"}, {"bike_id": "f6f8a8afe1061021b76e0ca47628da04", "type": "electric_scooter", "is_disabled": 0, "lat": 38.94467783333333, "rental_uris": {"ios": "https://dc.lft.to/lastmile_qr_scan", "android": "https://dc.lft.to/lastmile_qr_scan"}, "is_reserved": 0, "fusion_lon": 0.0, "fusion_lat": 0.0, "lon": -77.02343383333333, "name": "f6f8a8afe1061021b76e0ca47628da04"}, {"bike_id": "341a00636237619ed390043ae6dfd3ce", "type": "electric_scooter", "is_disabled": 0, "lat": 38.9084765, "rental_uris": {"ios": "https://dc.lft.to/lastmile_qr_scan", "android": "https://dc.lft.to/lastmile_qr_scan"}, "is_reserved": 0, "fusion_lon": 0.0, "fusion_lat": 0.0, "lon": -77.0205955, "name": "341a00636237619ed390043ae6dfd3ce"}, {"bike_id": "29ce6b998e3ca239c58e598eb0505278", "type": "electric_scooter", "is_disabled": 0, "lat": 38.8995645, "rental_uris": {"ios": "https://dc.lft.to/lastmile_qr_scan", "android": "https://dc.lft.to/lastmile_qr_scan"}, "is_reserved": 0, "fusion_lon": 0.0, "fusion_lat": 0.0, "lon": -77.01507583333333, "name": "29ce6b998e3ca239c58e598eb0505278"}, {"bike_id": "1f2d887e127681ffbad22f46ed54570b", "type": "electric_scooter", "is_disabled": 0, "lat": 38.915569833333336, "rental_uris": {"ios": "https://dc.lft.to/lastmile_qr_scan", "android": "https://dc.lft.to/lastmile_qr_scan"}, "is_reserved": 0, "fusion_lon": 0.0, "fusion_lat": 0.0, "lon": -77.0213645, "name": "1f2d887e127681ffbad22f46ed54570b"}, {"bike_id": "2d4b246982381630423bb5bb1e05e4ab", "type": "electric_scooter", "is_disabled": 0, "lat": 38.9150255, "rental_uris": {"ios": "https://dc.lft.to/lastmile_qr_scan", "android": "https://dc.lft.to/lastmile_qr_scan"}, "is_reserved": 0, "fusion_lon": 0.0, "fusion_lat": 0.0, "lon": -77.03180833333333, "name": "2d4b246982381630423bb5bb1e05e4ab"}, {"bike_id": "afa6515f1af86be82e97bdc315668efc", "type": "electric_scooter", "is_disabled": 0, "lat": 38.92944133333334, "rental_uris": {"ios": "https://dc.lft.to/lastmile_qr_scan", "android": "https://dc.lft.to/lastmile_qr_scan"}, "is_reserved": 0, "fusion_lon": 0.0, "fusion_lat": 0.0, "lon": -77.03754, "name": "afa6515f1af86be82e97bdc315668efc"}, {"bike_id": "8b92e89ab8c09d479061641b85ac9573", "type": "electric_scooter", "is_disabled": 0, "lat": 38.901948166666664, "rental_uris": {"ios": "https://dc.lft.to/lastmile_qr_scan", "android": "https://dc.lft.to/lastmile_qr_scan"}, "is_reserved": 0, "fusion_lon": 0.0, "fusion_lat": 0.0, "lon": -76.9968465, "name": "8b92e89ab8c09d479061641b85ac9573"}, {"bike_id": "adf97391def837273a9701727d441b0c", "type": "electric_scooter", "is_disabled": 0, "lat": 38.882193, "rental_uris": {"ios": "https://dc.lft.to/lastmile_qr_scan", "android": "https://dc.lft.to/lastmile_qr_scan"}, "is_reserved": 0, "fusion_lon": 0.0, "fusion_lat": 0.0, "lon": -77.02919283333334, "name": "adf97391def837273a9701727d441b0c"}, {"bike_id": "846bf53aec9d523db5b47b2320bd18a7", "type": "electric_scooter", "is_disabled": 0, "lat": 38.895678, "rental_uris": {"ios": "https://dc.lft.to/lastmile_qr_scan", "android": "https://dc.lft.to/lastmile_qr_scan"}, "is_reserved": 0, "fusion_lon": 0.0, "fusion_lat": 0.0, "lon": -77.03143933333334, "name": "846bf53aec9d523db5b47b2320bd18a7"}, {"bike_id": "549aebf67bc1124d104e31ae56a4efc4", "type": "electric_scooter", "is_disabled": 0, "lat": 38.87893916666667, "rental_uris": {"ios": "https://dc.lft.to/lastmile_qr_scan", "android": "https://dc.lft.to/lastmile_qr_scan"}, "is_reserved": 0, "fusion_lon": 0.0, "fusion_lat": 0.0, "lon": -76.99150233333333, "name": "549aebf67bc1124d104e31ae56a4efc4"}, {"bike_id": "aeb4503db7760b900f88f68caba193ea", "type": "electric_scooter", "is_disabled": 0, "lat": 38.930393, "rental_uris": {"ios": "https://dc.lft.to/lastmile_qr_scan", "android": "https://dc.lft.to/lastmile_qr_scan"}, "is_reserved": 0, "fusion_lon": 0.0, "fusion_lat": 0.0, "lon": -77.0183785, "name": "aeb4503db7760b900f88f68caba193ea"}, {"bike_id": "5b937ef3e6f40686b8535aaf40dee3fa", "type": "electric_scooter", "is_disabled": 0, "lat": 38.884380666666665, "rental_uris": {"ios": "https://dc.lft.to/lastmile_qr_scan", "android": "https://dc.lft.to/lastmile_qr_scan"}, "is_reserved": 0, "fusion_lon": 0.0, "fusion_lat": 0.0, "lon": -76.95755816666667, "name": "5b937ef3e6f40686b8535aaf40dee3fa"}, {"bike_id": "24fe04bce73c4b52fa492fff1aa8aca1", "type": "electric_scooter", "is_disabled": 0, "lat": 38.9081175, "rental_uris": {"ios": "https://dc.lft.to/lastmile_qr_scan", "android": "https://dc.lft.to/lastmile_qr_scan"}, "is_reserved": 0, "fusion_lon": 0.0, "fusion_lat": 0.0, "lon": -77.02609266666667, "name": "24fe04bce73c4b52fa492fff1aa8aca1"}, {"bike_id": "d272be4b6261c06dd10223a23a9bddc7", "type": "electric_scooter", "is_disabled": 0, "lat": 38.88716333333333, "rental_uris": {"ios": "https://dc.lft.to/lastmile_qr_scan", "android": "https://dc.lft.to/lastmile_qr_scan"}, "is_reserved": 0, "fusion_lon": 0.0, "fusion_lat": 0.0, "lon": -77.02180933333334, "name": "d272be4b6261c06dd10223a23a9bddc7"}, {"bike_id": "6ed31e6722aeea82bb1b3a711fc4e588", "type": "electric_scooter", "is_disabled": 0, "lat": 38.90279116666667, "rental_uris": {"ios": "https://dc.lft.to/lastmile_qr_scan", "android": "https://dc.lft.to/lastmile_qr_scan"}, "is_reserved": 0, "fusion_lon": 0.0, "fusion_lat": 0.0, "lon": -77.03567266666667, "name": "6ed31e6722aeea82bb1b3a711fc4e588"}, {"bike_id": "a1b8f27f2e65be4fcf1b67c66a014496", "type": "electric_scooter", "is_disabled": 0, "lat": 38.9004735, "rental_uris": {"ios": "https://dc.lft.to/lastmile_qr_scan", "android": "https://dc.lft.to/lastmile_qr_scan"}, "is_reserved": 0, "fusion_lon": 0.0, "fusion_lat": 0.0, "lon": -77.050805, "name": "a1b8f27f2e65be4fcf1b67c66a014496"}, {"bike_id": "567c0fcef1445122da207b521ffd2583", "type": "electric_scooter", "is_disabled": 0, "lat": 38.89700833333333, "rental_uris": {"ios": "https://dc.lft.to/lastmile_qr_scan", "android": "https://dc.lft.to/lastmile_qr_scan"}, "is_reserved": 0, "fusion_lon": 0.0, "fusion_lat": 0.0, "lon": -76.92998166666666, "name": "567c0fcef1445122da207b521ffd2583"}, {"bike_id": "1986bb1685b41d4f9113688f97096490", "type": "electric_bike", "is_disabled": 0, "lat": 38.8651655, "rental_uris": {"ios": "https://dc.lft.to/lastmile_qr_scan", "android": "https://dc.lft.to/lastmile_qr_scan"}, "is_reserved": 0, "fusion_lon": 0.0, "fusion_lat": 0.0, "lon": -77.12938883333334, "name": "1986bb1685b41d4f9113688f97096490"}, {"bike_id": "55376be9ebf8f4e8f56c6d31de2eb410", "type": "electric_bike", "is_disabled": 0, "lat": 38.93960666666667, "rental_uris": {"ios": "https://dc.lft.to/lastmile_qr_scan", "android": "https://dc.lft.to/lastmile_qr_scan"}, "is_reserved": 0, "fusion_lon": 0.0, "fusion_lat": 0.0, "lon": -77.05258433333333, "name": "55376be9ebf8f4e8f56c6d31de2eb410"}, {"bike_id": "fd36e1918973912ed4f7e4f7329a37b8", "type": "electric_scooter", "is_disabled": 0, "lat": 38.90820633333333, "rental_uris": {"ios": "https://dc.lft.to/lastmile_qr_scan", "android": "https://dc.lft.to/lastmile_qr_scan"}, "is_reserved": 0, "fusion_lon": 0.0, "fusion_lat": 0.0, "lon": -77.04321733333333, "name": "fd36e1918973912ed4f7e4f7329a37b8"}, {"bike_id": "16ccc86d17fd62f375af6dfc887b60ad", "type": "electric_bike", "is_disabled": 0, "lat": 38.92571866666667, "rental_uris": {"ios": "https://dc.lft.to/lastmile_qr_scan", "android": "https://dc.lft.to/lastmile_qr_scan"}, "is_reserved": 0, "fusion_lon": 0.0, "fusion_lat": 0.0, "lon": -77.043799, "name": "16ccc86d17fd62f375af6dfc887b60ad"}, {"bike_id": "3df49c512f53762ddf06225352d70749", "type": "electric_scooter", "is_disabled": 0, "lat": 38.88353733333334, "rental_uris": {"ios": "https://dc.lft.to/lastmile_qr_scan", "android": "https://dc.lft.to/lastmile_qr_scan"}, "is_reserved": 0, "fusion_lon": 0.0, "fusion_lat": 0.0, "lon": -77.01977566666666, "name": "3df49c512f53762ddf06225352d70749"}, {"bike_id": "d168369a902b313bd9c6294fd863c6e0", "type": "electric_scooter", "is_disabled": 0, "lat": 38.9378935, "rental_uris": {"ios": "https://dc.lft.to/lastmile_qr_scan", "android": "https://dc.lft.to/lastmile_qr_scan"}, "is_reserved": 0, "fusion_lon": 0.0, "fusion_lat": 0.0, "lon": -77.03299666666666, "name": "d168369a902b313bd9c6294fd863c6e0"}, {"bike_id": "92b47618f3f0b5e5e0eaacfc90a2752c", "type": "electric_scooter", "is_disabled": 0, "lat": 38.92478, "rental_uris": {"ios": "https://dc.lft.to/lastmile_qr_scan", "android": "https://dc.lft.to/lastmile_qr_scan"}, "is_reserved": 0, "fusion_lon": 0.0, "fusion_lat": 0.0, "lon": -77.02832, "name": "92b47618f3f0b5e5e0eaacfc90a2752c"}, {"bike_id": "9fc4304bda1557a29b53a5f6d7e7fc0c", "type": "electric_scooter", "is_disabled": 0, "lat": 38.911743333333334, "rental_uris": {"ios": "https://dc.lft.to/lastmile_qr_scan", "android": "https://dc.lft.to/lastmile_qr_scan"}, "is_reserved": 0, "fusion_lon": 0.0, "fusion_lat": 0.0, "lon": -77.00456616666666, "name": "9fc4304bda1557a29b53a5f6d7e7fc0c"}, {"bike_id": "cc6580945ba928bd1cc3759839fa8c81", "type": "electric_scooter", "is_disabled": 0, "lat": 38.91490683333333, "rental_uris": {"ios": "https://dc.lft.to/lastmile_qr_scan", "android": "https://dc.lft.to/lastmile_qr_scan"}, "is_reserved": 0, "fusion_lon": 0.0, "fusion_lat": 0.0, "lon": -77.03130566666667, "name": "cc6580945ba928bd1cc3759839fa8c81"}, {"bike_id": "bf361c2adf9f02dfe3da5d57db4c9d57", "type": "electric_scooter", "is_disabled": 0, "lat": 38.89874066666667, "rental_uris": {"ios": "https://dc.lft.to/lastmile_qr_scan", "android": "https://dc.lft.to/lastmile_qr_scan"}, "is_reserved": 0, "fusion_lon": 0.0, "fusion_lat": 0.0, "lon": -76.93186766666666, "name": "bf361c2adf9f02dfe3da5d57db4c9d57"}, {"bike_id": "a597b0e6d88ca1f626cdc3c09a6e0dd9", "type": "electric_scooter", "is_disabled": 0, "lat": 38.931037333333336, "rental_uris": {"ios": "https://dc.lft.to/lastmile_qr_scan", "android": "https://dc.lft.to/lastmile_qr_scan"}, "is_reserved": 0, "fusion_lon": 0.0, "fusion_lat": 0.0, "lon": -77.04120433333334, "name": "a597b0e6d88ca1f626cdc3c09a6e0dd9"}, {"bike_id": "cf7f64a8c0f0b238a13e1591fbab6931", "type": "electric_scooter", "is_disabled": 0, "lat": 38.899942, "rental_uris": {"ios": "https://dc.lft.to/lastmile_qr_scan", "android": "https://dc.lft.to/lastmile_qr_scan"}, "is_reserved": 0, "fusion_lon": 0.0, "fusion_lat": 0.0, "lon": -77.01922466666667, "name": "cf7f64a8c0f0b238a13e1591fbab6931"}, {"bike_id": "67b0e026ddd1d71e298de6e5151d6821", "type": "electric_scooter", "is_disabled": 0, "lat": 38.91118566666667, "rental_uris": {"ios": "https://dc.lft.to/lastmile_qr_scan", "android": "https://dc.lft.to/lastmile_qr_scan"}, "is_reserved": 0, "fusion_lon": 0.0, "fusion_lat": 0.0, "lon": -77.03725966666667, "name": "67b0e026ddd1d71e298de6e5151d6821"}, {"bike_id": "6ea541219d5e2da9b2a854ae0451b361", "type": "electric_scooter", "is_disabled": 0, "lat": 38.93056516666667, "rental_uris": {"ios": "https://dc.lft.to/lastmile_qr_scan", "android": "https://dc.lft.to/lastmile_qr_scan"}, "is_reserved": 0, "fusion_lon": 0.0, "fusion_lat": 0.0, "lon": -77.0319525, "name": "6ea541219d5e2da9b2a854ae0451b361"}, {"bike_id": "eb2e118f3db4a5ba35c6f3ad76765d01", "type": "electric_scooter", "is_disabled": 0, "lat": 38.89220183333333, "rental_uris": {"ios": "https://dc.lft.to/lastmile_qr_scan", "android": "https://dc.lft.to/lastmile_qr_scan"}, "is_reserved": 0, "fusion_lon": 0.0, "fusion_lat": 0.0, "lon": -77.04801466666666, "name": "eb2e118f3db4a5ba35c6f3ad76765d01"}, {"bike_id": "1e58931c30ce2468d25f4e5bf055d1ed", "type": "electric_scooter", "is_disabled": 0, "lat": 38.9224255, "rental_uris": {"ios": "https://dc.lft.to/lastmile_qr_scan", "android": "https://dc.lft.to/lastmile_qr_scan"}, "is_reserved": 0, "fusion_lon": 0.0, "fusion_lat": 0.0, "lon": -77.04277066666667, "name": "1e58931c30ce2468d25f4e5bf055d1ed"}, {"bike_id": "d53a5efeccf0f266c91bd295f6c9af10", "type": "electric_scooter", "is_disabled": 0, "lat": 38.91698566666667, "rental_uris": {"ios": "https://dc.lft.to/lastmile_qr_scan", "android": "https://dc.lft.to/lastmile_qr_scan"}, "is_reserved": 0, "fusion_lon": 0.0, "fusion_lat": 0.0, "lon": -77.03761566666667, "name": "d53a5efeccf0f266c91bd295f6c9af10"}, {"bike_id": "edca7d4fe897c9c1fc5e75f5f743a441", "type": "electric_scooter", "is_disabled": 0, "lat": 38.9034545, "rental_uris": {"ios": "https://dc.lft.to/lastmile_qr_scan", "android": "https://dc.lft.to/lastmile_qr_scan"}, "is_reserved": 0, "fusion_lon": 0.0, "fusion_lat": 0.0, "lon": -77.02867733333333, "name": "edca7d4fe897c9c1fc5e75f5f743a441"}, {"bike_id": "3c342e045b0051105c9451a4abbdeee5", "type": "electric_scooter", "is_disabled": 0, "lat": 38.905026, "rental_uris": {"ios": "https://dc.lft.to/lastmile_qr_scan", "android": "https://dc.lft.to/lastmile_qr_scan"}, "is_reserved": 0, "fusion_lon": 0.0, "fusion_lat": 0.0, "lon": -76.99956716666667, "name": "3c342e045b0051105c9451a4abbdeee5"}, {"bike_id": "3a441b0514d6f505ff36b8b1632b44bd", "type": "electric_bike", "is_disabled": 0, "lat": 38.87881483333334, "rental_uris": {"ios": "https://dc.lft.to/lastmile_qr_scan", "android": "https://dc.lft.to/lastmile_qr_scan"}, "is_reserved": 0, "fusion_lon": 0.0, "fusion_lat": 0.0, "lon": -77.096184, "name": "3a441b0514d6f505ff36b8b1632b44bd"}, {"bike_id": "140a1f509f0ca76eeae30e036d71f5a9", "type": "electric_scooter", "is_disabled": 0, "lat": 38.92573516666667, "rental_uris": {"ios": "https://dc.lft.to/lastmile_qr_scan", "android": "https://dc.lft.to/lastmile_qr_scan"}, "is_reserved": 0, "fusion_lon": 0.0, "fusion_lat": 0.0, "lon": -77.02572333333333, "name": "140a1f509f0ca76eeae30e036d71f5a9"}, {"bike_id": "66bb612367c676cb10846f1a03c0d009", "type": "electric_scooter", "is_disabled": 0, "lat": 38.90077483333334, "rental_uris": {"ios": "https://dc.lft.to/lastmile_qr_scan", "android": "https://dc.lft.to/lastmile_qr_scan"}, "is_reserved": 0, "fusion_lon": 0.0, "fusion_lat": 0.0, "lon": -77.05017633333334, "name": "66bb612367c676cb10846f1a03c0d009"}, {"bike_id": "7e5b08f6f293470898d8d1932e2b3165", "type": "electric_scooter", "is_disabled": 0, "lat": 38.91687666666667, "rental_uris": {"ios": "https://dc.lft.to/lastmile_qr_scan", "android": "https://dc.lft.to/lastmile_qr_scan"}, "is_reserved": 0, "fusion_lon": 0.0, "fusion_lat": 0.0, "lon": -77.02291833333334, "name": "7e5b08f6f293470898d8d1932e2b3165"}, {"bike_id": "73ea3922776df2eebb31aa66a7f68990", "type": "electric_scooter", "is_disabled": 0, "lat": 38.900559, "rental_uris": {"ios": "https://dc.lft.to/lastmile_qr_scan", "android": "https://dc.lft.to/lastmile_qr_scan"}, "is_reserved": 0, "fusion_lon": 0.0, "fusion_lat": 0.0, "lon": -76.99752516666666, "name": "73ea3922776df2eebb31aa66a7f68990"}, {"bike_id": "3b905d9cd92dcaea3bf3cdc931f496fa", "type": "electric_scooter", "is_disabled": 0, "lat": 38.92374316666667, "rental_uris": {"ios": "https://dc.lft.to/lastmile_qr_scan", "android": "https://dc.lft.to/lastmile_qr_scan"}, "is_reserved": 0, "fusion_lon": 0.0, "fusion_lat": 0.0, "lon": -77.04316066666667, "name": "3b905d9cd92dcaea3bf3cdc931f496fa"}, {"bike_id": "ca9439aff09dc9c11edbf79d2e63c259", "type": "electric_scooter", "is_disabled": 0, "lat": 38.8747435, "rental_uris": {"ios": "https://dc.lft.to/lastmile_qr_scan", "android": "https://dc.lft.to/lastmile_qr_scan"}, "is_reserved": 0, "fusion_lon": 0.0, "fusion_lat": 0.0, "lon": -77.01071633333333, "name": "ca9439aff09dc9c11edbf79d2e63c259"}, {"bike_id": "f66876320a7e69cabd0164d21f951d3d", "type": "electric_scooter", "is_disabled": 0, "lat": 38.9073685, "rental_uris": {"ios": "https://dc.lft.to/lastmile_qr_scan", "android": "https://dc.lft.to/lastmile_qr_scan"}, "is_reserved": 0, "fusion_lon": 0.0, "fusion_lat": 0.0, "lon": -77.04161966666666, "name": "f66876320a7e69cabd0164d21f951d3d"}, {"bike_id": "248901b76e73991085a00930d75619a9", "type": "electric_bike", "is_disabled": 0, "lat": 38.8867215, "rental_uris": {"ios": "https://dc.lft.to/lastmile_qr_scan", "android": "https://dc.lft.to/lastmile_qr_scan"}, "is_reserved": 0, "fusion_lon": 0.0, "fusion_lat": 0.0, "lon": -77.162454, "name": "248901b76e73991085a00930d75619a9"}, {"bike_id": "687e2660be74db73a4c2119129c39b2b", "type": "electric_scooter", "is_disabled": 0, "lat": 38.914178166666666, "rental_uris": {"ios": "https://dc.lft.to/lastmile_qr_scan", "android": "https://dc.lft.to/lastmile_qr_scan"}, "is_reserved": 0, "fusion_lon": 0.0, "fusion_lat": 0.0, "lon": -77.01987783333334, "name": "687e2660be74db73a4c2119129c39b2b"}, {"bike_id": "1aa92ca68a6ba54181a7ed09e2312d8a", "type": "electric_bike", "is_disabled": 0, "lat": 38.83606733333333, "rental_uris": {"ios": "https://dc.lft.to/lastmile_qr_scan", "android": "https://dc.lft.to/lastmile_qr_scan"}, "is_reserved": 0, "fusion_lon": 0.0, "fusion_lat": 0.0, "lon": -77.0038595, "name": "1aa92ca68a6ba54181a7ed09e2312d8a"}, {"bike_id": "238997a4af0efbab12088ba1b90568bb", "type": "electric_scooter", "is_disabled": 0, "lat": 38.9169685, "rental_uris": {"ios": "https://dc.lft.to/lastmile_qr_scan", "android": "https://dc.lft.to/lastmile_qr_scan"}, "is_reserved": 0, "fusion_lon": 0.0, "fusion_lat": 0.0, "lon": -77.041071, "name": "238997a4af0efbab12088ba1b90568bb"}, {"bike_id": "c8dfe92587c54c67617a9783647ff3fc", "type": "electric_scooter", "is_disabled": 0, "lat": 38.898543, "rental_uris": {"ios": "https://dc.lft.to/lastmile_qr_scan", "android": "https://dc.lft.to/lastmile_qr_scan"}, "is_reserved": 0, "fusion_lon": 0.0, "fusion_lat": 0.0, "lon": -77.02243266666666, "name": "c8dfe92587c54c67617a9783647ff3fc"}, {"bike_id": "e6a59d705903279e59b2904763b8b580", "type": "electric_scooter", "is_disabled": 0, "lat": 38.90112533333333, "rental_uris": {"ios": "https://dc.lft.to/lastmile_qr_scan", "android": "https://dc.lft.to/lastmile_qr_scan"}, "is_reserved": 0, "fusion_lon": 0.0, "fusion_lat": 0.0, "lon": -77.03833633333333, "name": "e6a59d705903279e59b2904763b8b580"}, {"bike_id": "cde60973481026c1fa429a5f75411a70", "type": "electric_scooter", "is_disabled": 0, "lat": 38.92239, "rental_uris": {"ios": "https://dc.lft.to/lastmile_qr_scan", "android": "https://dc.lft.to/lastmile_qr_scan"}, "is_reserved": 0, "fusion_lon": 0.0, "fusion_lat": 0.0, "lon": -77.0424185, "name": "cde60973481026c1fa429a5f75411a70"}, {"bike_id": "d3d9beb760e34bd25718153d78168c90", "type": "electric_scooter", "is_disabled": 0, "lat": 38.906721833333336, "rental_uris": {"ios": "https://dc.lft.to/lastmile_qr_scan", "android": "https://dc.lft.to/lastmile_qr_scan"}, "is_reserved": 0, "fusion_lon": 0.0, "fusion_lat": 0.0, "lon": -77.02728333333333, "name": "d3d9beb760e34bd25718153d78168c90"}, {"bike_id": "04a0646fdbf169c73bfb14a0f463742b", "type": "electric_scooter", "is_disabled": 0, "lat": 38.91145683333333, "rental_uris": {"ios": "https://dc.lft.to/lastmile_qr_scan", "android": "https://dc.lft.to/lastmile_qr_scan"}, "is_reserved": 0, "fusion_lon": 0.0, "fusion_lat": 0.0, "lon": -77.0269115, "name": "04a0646fdbf169c73bfb14a0f463742b"}, {"bike_id": "e196aa1df21bc90f28c91517c8b489d4", "type": "electric_scooter", "is_disabled": 0, "lat": 38.939509, "rental_uris": {"ios": "https://dc.lft.to/lastmile_qr_scan", "android": "https://dc.lft.to/lastmile_qr_scan"}, "is_reserved": 0, "fusion_lon": 0.0, "fusion_lat": 0.0, "lon": -77.0724845, "name": "e196aa1df21bc90f28c91517c8b489d4"}, {"bike_id": "1c3de5aa58c388544d196cc0d882ed17", "type": "electric_scooter", "is_disabled": 0, "lat": 38.92330316666666, "rental_uris": {"ios": "https://dc.lft.to/lastmile_qr_scan", "android": "https://dc.lft.to/lastmile_qr_scan"}, "is_reserved": 0, "fusion_lon": 0.0, "fusion_lat": 0.0, "lon": -77.05742583333334, "name": "1c3de5aa58c388544d196cc0d882ed17"}, {"bike_id": "91623507527f44f4099cad050c676616", "type": "electric_scooter", "is_disabled": 0, "lat": 38.92382833333333, "rental_uris": {"ios": "https://dc.lft.to/lastmile_qr_scan", "android": "https://dc.lft.to/lastmile_qr_scan"}, "is_reserved": 0, "fusion_lon": 0.0, "fusion_lat": 0.0, "lon": -77.0447265, "name": "91623507527f44f4099cad050c676616"}, {"bike_id": "c3c4e94ebceabf26a0c1fb7a8fdf61f0", "type": "electric_scooter", "is_disabled": 0, "lat": 38.916927333333334, "rental_uris": {"ios": "https://dc.lft.to/lastmile_qr_scan", "android": "https://dc.lft.to/lastmile_qr_scan"}, "is_reserved": 0, "fusion_lon": 0.0, "fusion_lat": 0.0, "lon": -77.02597666666666, "name": "c3c4e94ebceabf26a0c1fb7a8fdf61f0"}, {"bike_id": "f345953e23206554ef1c495108da98cc", "type": "electric_scooter", "is_disabled": 0, "lat": 38.905708833333335, "rental_uris": {"ios": "https://dc.lft.to/lastmile_qr_scan", "android": "https://dc.lft.to/lastmile_qr_scan"}, "is_reserved": 0, "fusion_lon": 0.0, "fusion_lat": 0.0, "lon": -77.02201866666667, "name": "f345953e23206554ef1c495108da98cc"}, {"bike_id": "4a206a7e0767ec05f51705a0e4bfb450", "type": "electric_scooter", "is_disabled": 0, "lat": 38.93354983333333, "rental_uris": {"ios": "https://dc.lft.to/lastmile_qr_scan", "android": "https://dc.lft.to/lastmile_qr_scan"}, "is_reserved": 0, "fusion_lon": 0.0, "fusion_lat": 0.0, "lon": -77.041246, "name": "4a206a7e0767ec05f51705a0e4bfb450"}, {"bike_id": "15b6b2e8070af2f27b2c44b79f8a2d5c", "type": "electric_scooter", "is_disabled": 0, "lat": 38.91068516666667, "rental_uris": {"ios": "https://dc.lft.to/lastmile_qr_scan", "android": "https://dc.lft.to/lastmile_qr_scan"}, "is_reserved": 0, "fusion_lon": 0.0, "fusion_lat": 0.0, "lon": -77.0409835, "name": "15b6b2e8070af2f27b2c44b79f8a2d5c"}, {"bike_id": "df7ecaa5608fb1baf471bc34af2e8954", "type": "electric_scooter", "is_disabled": 0, "lat": 38.91698066666667, "rental_uris": {"ios": "https://dc.lft.to/lastmile_qr_scan", "android": "https://dc.lft.to/lastmile_qr_scan"}, "is_reserved": 0, "fusion_lon": 0.0, "fusion_lat": 0.0, "lon": -77.037748, "name": "df7ecaa5608fb1baf471bc34af2e8954"}, {"bike_id": "89a69510cd9f2ee33994f2a66a134bb2", "type": "electric_scooter", "is_disabled": 0, "lat": 38.91101066666667, "rental_uris": {"ios": "https://dc.lft.to/lastmile_qr_scan", "android": "https://dc.lft.to/lastmile_qr_scan"}, "is_reserved": 0, "fusion_lon": 0.0, "fusion_lat": 0.0, "lon": -77.04212366666667, "name": "89a69510cd9f2ee33994f2a66a134bb2"}, {"bike_id": "9fd28a9dcfa991d9c955bb8233475fb3", "type": "electric_scooter", "is_disabled": 0, "lat": 38.916158333333335, "rental_uris": {"ios": "https://dc.lft.to/lastmile_qr_scan", "android": "https://dc.lft.to/lastmile_qr_scan"}, "is_reserved": 0, "fusion_lon": 0.0, "fusion_lat": 0.0, "lon": -77.03391016666667, "name": "9fd28a9dcfa991d9c955bb8233475fb3"}, {"bike_id": "c8329aa1f647027e2af5c73d742288af", "type": "electric_scooter", "is_disabled": 0, "lat": 38.91694116666667, "rental_uris": {"ios": "https://dc.lft.to/lastmile_qr_scan", "android": "https://dc.lft.to/lastmile_qr_scan"}, "is_reserved": 0, "fusion_lon": 0.0, "fusion_lat": 0.0, "lon": -77.03748666666667, "name": "c8329aa1f647027e2af5c73d742288af"}, {"bike_id": "59bd8418203826edaf51b86e9900bd1e", "type": "electric_bike", "is_disabled": 0, "lat": 38.800254, "rental_uris": {"ios": "https://dc.lft.to/lastmile_qr_scan", "android": "https://dc.lft.to/lastmile_qr_scan"}, "is_reserved": 0, "fusion_lon": 0.0, "fusion_lat": 0.0, "lon": -77.06336233333333, "name": "59bd8418203826edaf51b86e9900bd1e"}, {"bike_id": "30e222c7c91c0d3cd1b3d2a590e0cbfa", "type": "electric_scooter", "is_disabled": 0, "lat": 38.918132, "rental_uris": {"ios": "https://dc.lft.to/lastmile_qr_scan", "android": "https://dc.lft.to/lastmile_qr_scan"}, "is_reserved": 0, "fusion_lon": 0.0, "fusion_lat": 0.0, "lon": -77.02474683333334, "name": "30e222c7c91c0d3cd1b3d2a590e0cbfa"}, {"bike_id": "dbc49c4b71ebc84929763b48eaf8990f", "type": "electric_scooter", "is_disabled": 0, "lat": 38.86503883333334, "rental_uris": {"ios": "https://dc.lft.to/lastmile_qr_scan", "android": "https://dc.lft.to/lastmile_qr_scan"}, "is_reserved": 0, "fusion_lon": 0.0, "fusion_lat": 0.0, "lon": -76.99003733333333, "name": "dbc49c4b71ebc84929763b48eaf8990f"}, {"bike_id": "b18ba8a04e84a88b2e9ea19494e2250f", "type": "electric_scooter", "is_disabled": 0, "lat": 38.91699916666666, "rental_uris": {"ios": "https://dc.lft.to/lastmile_qr_scan", "android": "https://dc.lft.to/lastmile_qr_scan"}, "is_reserved": 0, "fusion_lon": 0.0, "fusion_lat": 0.0, "lon": -77.00655366666666, "name": "b18ba8a04e84a88b2e9ea19494e2250f"}, {"bike_id": "b2101316e629de338917c782d1227b53", "type": "electric_scooter", "is_disabled": 0, "lat": 38.9071995, "rental_uris": {"ios": "https://dc.lft.to/lastmile_qr_scan", "android": "https://dc.lft.to/lastmile_qr_scan"}, "is_reserved": 0, "fusion_lon": 0.0, "fusion_lat": 0.0, "lon": -77.000699, "name": "b2101316e629de338917c782d1227b53"}, {"bike_id": "dfc2568f4222ad8363dd56382c06e310", "type": "electric_scooter", "is_disabled": 0, "lat": 38.918248166666665, "rental_uris": {"ios": "https://dc.lft.to/lastmile_qr_scan", "android": "https://dc.lft.to/lastmile_qr_scan"}, "is_reserved": 0, "fusion_lon": 0.0, "fusion_lat": 0.0, "lon": -77.04944666666667, "name": "dfc2568f4222ad8363dd56382c06e310"}, {"bike_id": "10b2e17e29738f43ea578c01a7e950b7", "type": "electric_scooter", "is_disabled": 0, "lat": 38.931309166666665, "rental_uris": {"ios": "https://dc.lft.to/lastmile_qr_scan", "android": "https://dc.lft.to/lastmile_qr_scan"}, "is_reserved": 0, "fusion_lon": 0.0, "fusion_lat": 0.0, "lon": -76.99576083333334, "name": "10b2e17e29738f43ea578c01a7e950b7"}, {"bike_id": "e9e48378ccc5243aadc1df2b330af17e", "type": "electric_scooter", "is_disabled": 0, "lat": 38.933364833333336, "rental_uris": {"ios": "https://dc.lft.to/lastmile_qr_scan", "android": "https://dc.lft.to/lastmile_qr_scan"}, "is_reserved": 0, "fusion_lon": 0.0, "fusion_lat": 0.0, "lon": -77.02060083333333, "name": "e9e48378ccc5243aadc1df2b330af17e"}, {"bike_id": "9b94bc54dcf5a00fdca09307c649f725", "type": "electric_scooter", "is_disabled": 0, "lat": 38.90702683333333, "rental_uris": {"ios": "https://dc.lft.to/lastmile_qr_scan", "android": "https://dc.lft.to/lastmile_qr_scan"}, "is_reserved": 0, "fusion_lon": 0.0, "fusion_lat": 0.0, "lon": -77.024052, "name": "9b94bc54dcf5a00fdca09307c649f725"}, {"bike_id": "a7331002148d00d02b7067178a50d4bf", "type": "electric_scooter", "is_disabled": 0, "lat": 38.91686966666666, "rental_uris": {"ios": "https://dc.lft.to/lastmile_qr_scan", "android": "https://dc.lft.to/lastmile_qr_scan"}, "is_reserved": 0, "fusion_lon": 0.0, "fusion_lat": 0.0, "lon": -77.029565, "name": "a7331002148d00d02b7067178a50d4bf"},