{"data": {"bikes": [{"is_disabled": 0, "fusion_lat": 0.0, "lat": 38.905796333333335, "type": "electric_scooter", "lon": -77.0348235, "is_reserved": 0, "fusion_lon": 0.0, "bike_id": "0c345d5292a1c0ec349241e123f6861b", "name": "0c345d5292a1c0ec349241e123f6861b", "rental_uris": {"ios": "https://dc.lft.to/lastmile_qr_scan", "android": "https://dc.lft.to/lastmile_qr_scan"}}, {"is_disabled": 0, "fusion_lat": 0.0, "lat": 38.892202, "type": "electric_scooter", "lon": -77.02439683333333, "is_reserved": 0, "fusion_lon": 0.0, "bike_id": "f0c969198b9a3f83c2991f9b626a0063", "name": "f0c969198b9a3f83c2991f9b626a0063", "rental_uris": {"ios": "https://dc.lft.to/lastmile_qr_scan", "android": "https://dc.lft.to/lastmile_qr_scan"}}, {"is_disabled": 0, "fusion_lat": 0.0, "lat": 39.038839833333334, "type": "electric_bike", "lon": -76.9904335, "is_reserved": 0, "fusion_lon": 0.0, "bike_id": "f88deb8ec9e8f571e9550e8af1cf984a", "name": "f88deb8ec9e8f571e9550e8af1cf984a", "rental_uris": {"ios": "https://dc.lft.to/lastmile_qr_scan", "android": "https://dc.lft.to/lastmile_qr_scan"}}, {"is_disabled": 0, "fusion_lat": 0.0, "lat": 38.9444265, "type": "electric_scooter", "lon": -77.06354016666667, "is_reserved": 0, "fusion_lon": 0.0, "bike_id": "d4219105e6c09c57f82092f7bafac101", "name": "d4219105e6c09c57f82092f7bafac101", "rental_uris": {"ios": "https://dc.lft.to/lastmile_qr_scan", "android": "https://dc.lft.to/lastmile_qr_scan"}}, {"is_disabled": 0, "fusion_lat": 0.0, "lat": 38.904827833333336, "type": "electric_scooter", "lon": -77.0600685, "is_reserved": 0, "fusion_lon": 0.0, "bike_id": "a28ea4e55924f317710d1f4ce095137c", "name": "a28ea4e55924f317710d1f4ce095137c", "rental_uris": {"ios": "https://dc.lft.to/lastmile_qr_scan", "android": "https://dc.lft.to/lastmile_qr_scan"}}, {"is_disabled": 0, "fusion_lat": 0.0, "lat": 38.8976575, "type": "electric_scooter", "lon": -76.985582, "is_reserved": 0, "fusion_lon": 0.0, "bike_id": "9e78113553bf500669d54dc386cc7e75", "name": "9e78113553bf500669d54dc386cc7e75", "rental_uris": {"ios": "https://dc.lft.to/lastmile_qr_scan", "android": "https://dc.lft.to/lastmile_qr_scan"}}, {"is_disabled": 0, "fusion_lat": 0.0, "lat": 38.942062666666665, "type": "electric_bike", "lon": -77.01824783333333, "is_reserved": 0, "fusion_lon": 0.0, "bike_id": "6fe1231193b8eee3aafe49689e0f7170", "name": "6fe1231193b8eee3aafe49689e0f7170", "rental_uris": {"ios": "https://dc.lft.to/lastmile_qr_scan", "android": "https://dc.lft.to/lastmile_qr_scan"}}, {"is_disabled": 0, "fusion_lat": 0.0, "lat": 38.94227983333333, "type": "electric_scooter", "lon": -77.015336, "is_reserved": 0, "fusion_lon": 0.0, "bike_id": "20b57aa338cbc00023b887b4d3d73264", "name": "20b57aa338cbc00023b887b4d3d73264", "rental_uris": {"ios": "https://dc.lft.to/lastmile_qr_scan", "android": "https://dc.lft.to/lastmile_qr_scan"}}, {"is_disabled": 0, "fusion_lat": 0.0, "lat": 38.908012666666664, "type": "electric_scooter", "lon": -77.03417316666666, "is_reserved": 0, "fusion_lon": 0.0, "bike_id": "57e636807a22c9aa85b1866f0460e17a", "name": "57e636807a22c9aa85b1866f0460e17a", "rental_uris": {"ios": "https://dc.lft.to/lastmile_qr_scan", "android": "https://dc.lft.to/lastmile_qr_scan"}}, {"is_disabled": 0, "fusion_lat": 0.0, "lat": 38.91791933333333, "type": "electric_scooter", "lon": -77.0231215, "is_reserved": 0, "fusion_lon": 0.0, "bike_id": "b656516ca407646c481b450d1257014b", "name": "b656516ca407646c481b450d1257014b", "rental_uris": {"ios": "https://dc.lft.to/lastmile_qr_scan", "android": "https://dc.lft.to/lastmile_qr_scan"}}, {"is_disabled": 0, "fusion_lat": 0.0, "lat": 38.8580675, "type": "electric_scooter", "lon": -76.98650533333333, "is_reserved": 0, "fusion_lon": 0.0, "bike_id": "e8af3575b168f724b0becb55d9a8df91", "name": "e8af3575b168f724b0becb55d9a8df91", "rental_uris": {"ios": "https://dc.lft.to/lastmile_qr_scan", "android": "https://dc.lft.to/lastmile_qr_scan"}}, {"is_disabled": 0, "fusion_lat": 0.0, "lat": 38.906282166666664, "type": "electric_scooter", "lon": -77.03962483333333, "is_reserved": 0, "fusion_lon": 0.0, "bike_id": "a1f6073c4c1df8b1dcbc619e4353ee28", "name": "a1f6073c4c1df8b1dcbc619e4353ee28", "rental_uris": {"ios": "https://dc.lft.to/lastmile_qr_scan", "android": "https://dc.lft.to/lastmile_qr_scan"}}, {"is_disabled": 0, "fusion_lat": 0.0, "lat": 38.9072625, "type": "electric_scooter", "lon": -77.0321665, "is_reserved": 0, "fusion_lon": 0.0, "bike_id": "cc263b30cab52ddb182f0dc7d4080197", "name": "cc263b30cab52ddb182f0dc7d4080197", "rental_uris": {"ios": "https://dc.lft.to/lastmile_qr_scan", "android": "https://dc.lft.to/lastmile_qr_scan"}}, {"is_disabled": 0, "fusion_lat": 0.0, "lat": 38.902700833333334, "type": "electric_scooter", "lon": -77.03841983333334, "is_reserved": 0, "fusion_lon": 0.0, "bike_id": "ecef3d36fedf05bbd892f97d492c04f8", "name": "ecef3d36fedf05bbd892f97d492c04f8", "rental_uris": {"ios": "https://dc.lft.to/lastmile_qr_scan", "android": "https://dc.lft.to/lastmile_qr_scan"}}, {"is_disabled": 0, "fusion_lat": 0.0, "lat": 38.915488, "type": "electric_scooter", "lon": -77.0383685, "is_reserved": 0, "fusion_lon": 0.0, "bike_id": "e3ca42adebc61efda3cc4881e0818c54", "name": "e3ca42adebc61efda3cc4881e0818c54", "rental_uris": {"ios": "https://dc.lft.to/lastmile_qr_scan", "android": "https://dc.lft.to/lastmile_qr_scan"}}, {"is_disabled": 0, "fusion_lat": 0.0, "lat": 38.921650666666665, "type": "electric_scooter", "lon": -77.03548433333333, "is_reserved": 0, "fusion_lon": 0.0, "bike_id": "f69f98989c9d2873e726d8f59cb86b9e", "name": "f69f98989c9d2873e726d8f59cb86b9e", "rental_uris": {"ios": "https://dc.lft.to/lastmile_qr_scan", "android": "https://dc.lft.to/lastmile_qr_scan"}}, {"is_disabled": 0, "fusion_lat": 0.0, "lat": 38.90193633333333, "type": "electric_scooter", "lon": -77.021898, "is_reserved": 0, "fusion_lon": 0.0, "bike_id": "d76f29370a55b470b9d57495ca6f876a", "name": "d76f29370a55b470b9d57495ca6f876a", "rental_uris": {"ios": "https://dc.lft.to/lastmile_qr_scan", "android": "https://dc.lft.to/lastmile_qr_scan"}}, {"is_disabled": 0, "fusion_lat": 0.0, "lat": 38.90325816666667, "type": "electric_scooter", "lon": -77.0376625, "is_reserved": 0, "fusion_lon": 0.0, "bike_id": "e36bbc1da7bbab4aba8836f15bd99564", "name": "e36bbc1da7bbab4aba8836f15bd99564", "rental_uris": {"ios": "https://dc.lft.to/lastmile_qr_scan", "android": "https://dc.lft.to/lastmile_qr_scan"}}, {"is_disabled": 0, "fusion_lat": 0.0, "lat": 38.92040183333334, "type": "electric_scooter", "lon": -76.97906133333333, "is_reserved": 0, "fusion_lon": 0.0, "bike_id": "ea7245bb0abf35ae9bbbed2519b08811", "name": "ea7245bb0abf35ae9bbbed2519b08811", "rental_uris": {"ios": "https://dc.lft.to/lastmile_qr_scan", "android": "https://dc.lft.to/lastmile_qr_scan"}}, {"is_disabled": 0, "fusion_lat": 0.0, "lat": 38.91685733333333, "type": "electric_scooter", "lon": -77.03762616666667, "is_reserved": 0, "fusion_lon": 0.0, "bike_id": "2df5835d83f9ffea5d909cb017d6d97b", "name": "2df5835d83f9ffea5d909cb017d6d97b", "rental_uris": {"ios": "https://dc.lft.to/lastmile_qr_scan", "android": "https://dc.lft.to/lastmile_qr_scan"}}, {"is_disabled": 0, "fusion_lat": 0.0, "lat": 38.914016, "type": "electric_scooter", "lon": -77.01840216666666, "is_reserved": 0, "fusion_lon": 0.0, "bike_id": "bf595feb985c00248260067a5eb4e859", "name": "bf595feb985c00248260067a5eb4e859", "rental_uris": {"ios": "https://dc.lft.to/lastmile_qr_scan", "android": "https://dc.lft.to/lastmile_qr_scan"}}, {"is_disabled": 0, "fusion_lat": 0.0, "lat": 38.871612166666665, "type": "electric_scooter", "lon": -77.01348116666666, "is_reserved": 0, "fusion_lon": 0.0, "bike_id": "21ff6c496680d2aa3643b397996e7c32", "name": "21ff6c496680d2aa3643b397996e7c32", "rental_uris": {"ios": "https://dc.lft.to/lastmile_qr_scan", "android": "https://dc.lft.to/lastmile_qr_scan"}}, {"is_disabled": 0, "fusion_lat": 0.0, "lat": 38.903830166666665, "type": "electric_scooter", "lon": -77.0534265, "is_reserved": 0, "fusion_lon": 0.0, "bike_id": "c1e3e670660c0c79f7b65aaf7fd69dc2", "name": "c1e3e670660c0c79f7b65aaf7fd69dc2", "rental_uris": {"ios": "https://dc.lft.to/lastmile_qr_scan", "android": "https://dc.lft.to/lastmile_qr_scan"}}, {"is_disabled": 0, "fusion_lat": 0.0, "lat": 38.90342783333333, "type": "electric_scooter", "lon": -77.06567466666667, "is_reserved": 0, "fusion_lon": 0.0, "bike_id": "9ee2aed9d9abbab26d19b1f1e7775a6b", "name": "9ee2aed9d9abbab26d19b1f1e7775a6b", "rental_uris": {"ios": "https://dc.lft.to/lastmile_qr_scan", "android": "https://dc.lft.to/lastmile_qr_scan"}}, {"is_disabled": 0, "fusion_lat": 0.0, "lat": 38.927495, "type": "electric_scooter", "lon": -77.015417, "is_reserved": 0, "fusion_lon": 0.0, "bike_id": "0d39be49b0a1765b600b7468d512409d", "name": "0d39be49b0a1765b600b7468d512409d", "rental_uris": {"ios": "https://dc.lft.to/lastmile_qr_scan", "android": "https://dc.lft.to/lastmile_qr_scan"}}, {"is_disabled": 0, "fusion_lat": 0.0, "lat": 38.9044675, "type": "electric_scooter", "lon": -77.03126783333333, "is_reserved": 0, "fusion_lon": 0.0, "bike_id": "47c762e62439fd58211ac7592df3c583", "name": "47c762e62439fd58211ac7592df3c583", "rental_uris": {"ios": "https://dc.lft.to/lastmile_qr_scan", "android": "https://dc.lft.to/lastmile_qr_scan"}}, {"is_disabled": 0, "fusion_lat": 0.0, "lat": 38.909170833333334, "type": "electric_scooter", "lon": -76.99268766666667, "is_reserved": 0, "fusion_lon": 0.0, "bike_id": "21f689aecc7420bae184029aa29f6c49", "name": "21f689aecc7420bae184029aa29f6c49", "rental_uris": {"ios": "https://dc.lft.to/lastmile_qr_scan", "android": "https://dc.lft.to/lastmile_qr_scan"}}, {"is_disabled": 0, "fusion_lat": 0.0, "lat": 38.917942333333336, "type": "electric_scooter", "lon": -77.034364, "is_reserved": 0, "fusion_lon": 0.0, "bike_id": "1d4589b74eb7939271cf9d44e660b914", "name": "1d4589b74eb7939271cf9d44e660b914", "rental_uris": {"ios": "https://dc.lft.to/lastmile_qr_scan", "android": "https://dc.lft.to/lastmile_qr_scan"}}, {"is_disabled": 0, "fusion_lat": 0.0, "lat": 38.917297, "type": "electric_scooter", "lon": -77.036637, "is_reserved": 0, "fusion_lon": 0.0, "bike_id": "e0e1739a1a8622a5037dfb1b0302c1cc", "name": "e0e1739a1a8622a5037dfb1b0302c1cc", "rental_uris": {"ios": "https://dc.lft.to/lastmile_qr_scan", "android": "https://dc.lft.to/lastmile_qr_scan"}}, {"is_disabled": 0, "fusion_lat": 0.0, "lat": 38.9173, "type": "electric_scooter", "lon": -77.036619, "is_reserved": 0, "fusion_lon": 0.0, "bike_id": "315f5c95ecf3dfc100cc5ebfdb7207bf", "name": "315f5c95ecf3dfc100cc5ebfdb7207bf", "rental_uris": {"ios": "https://dc.lft.to/lastmile_qr_scan", "android": "https://dc.lft.to/lastmile_qr_scan"}}, {"is_disabled": 0, "fusion_lat": 0.0, "lat": 38.908504666666666, "type": "electric_scooter", "lon": -77.032938, "is_reserved": 0, "fusion_lon": 0.0, "bike_id": "92809c46bb0c73fd86647a0463b5cdf3", "name": "92809c46bb0c73fd86647a0463b5cdf3", "rental_uris": {"ios": "https://dc.lft.to/lastmile_qr_scan", "android": "https://dc.lft.to/lastmile_qr_scan"}}, {"is_disabled": 0, "fusion_lat": 0.0, "lat": 38.845729, "type": "electric_bike", "lon": -77.09622116666667, "is_reserved": 0, "fusion_lon": 0.0, "bike_id": "7730a46cddfc12b63ed943802f04a3b7", "name": "7730a46cddfc12b63ed943802f04a3b7", "rental_uris": {"ios": "https://dc.lft.to/lastmile_qr_scan", "android": "https://dc.lft.to/lastmile_qr_scan"}}, {"is_disabled": 0, "fusion_lat": 0.0, "lat": 38.92412566666667, "type": "electric_bike", "lon": -77.2081285, "is_reserved": 0, "fusion_lon": 0.0, "bike_id": "8d24fdeadba8cf095cf0fe2e6becac78", "name": "8d24fdeadba8cf095cf0fe2e6becac78", "rental_uris": {"ios": "https://dc.lft.to/lastmile_qr_scan", "android": "https://dc.lft.to/lastmile_qr_scan"}}, {"is_disabled": 0, "fusion_lat": 0.0, "lat": 38.901570166666666, "type": "electric_scooter", "lon": -77.041984, "is_reserved": 0, "fusion_lon": 0.0, "bike_id": "ff0cd93548744b4e7dc2c88438bca2d5", "name": "ff0cd93548744b4e7dc2c88438bca2d5", "rental_uris": {"ios": "https://dc.lft.to/lastmile_qr_scan", "android": "https://dc.lft.to/lastmile_qr_scan"}}, {"is_disabled": 0, "fusion_lat": 0.0, "lat": 38.916669666666664, "type": "electric_scooter", "lon": -77.04163933333334, "is_reserved": 0, "fusion_lon": 0.0, "bike_id": "b557ef5d0788a23ce29c4c586831ab83", "name": "b557ef5d0788a23ce29c4c586831ab83", "rental_uris": {"ios": "https://dc.lft.to/lastmile_qr_scan", "android": "https://dc.lft.to/lastmile_qr_scan"}}, {"is_disabled": 0, "fusion_lat": 0.0, "lat": 38.87145783333333, "type": "electric_bike", "lon": -76.93693633333334, "is_reserved": 0, "fusion_lon": 0.0, "bike_id": "a0326e31f314d16be71b487013c20a2b", "name": "a0326e31f314d16be71b487013c20a2b", "rental_uris": {"ios": "https://dc.lft.to/lastmile_qr_scan", "android": "https://dc.lft.to/lastmile_qr_scan"}}, {"is_disabled": 0, "fusion_lat": 0.0, "lat": 38.915517666666666, "type": "electric_scooter", "lon": -77.0316425, "is_reserved": 0, "fusion_lon": 0.0, "bike_id": "6ec277920eed01ec851fc78d29884640", "name": "6ec277920eed01ec851fc78d29884640", "rental_uris": {"ios": "https://dc.lft.to/lastmile_qr_scan", "android": "https://dc.lft.to/lastmile_qr_scan"}}, {"is_disabled": 0, "fusion_lat": 0.0, "lat": 38.9170605, "type": "electric_scooter", "lon": -77.00713283333333, "is_reserved": 0, "fusion_lon": 0.0, "bike_id": "e8321bee06a5814ae38a13261e36efb7", "name": "e8321bee06a5814ae38a13261e36efb7", "rental_uris": {"ios": "https://dc.lft.to/lastmile_qr_scan", "android": "https://dc.lft.to/lastmile_qr_scan"}}, {"is_disabled": 0, "fusion_lat": 0.0, "lat": 38.923881333333334, "type": "electric_scooter", "lon": -77.0006225, "is_reserved": 0, "fusion_lon": 0.0, "bike_id": "72a33a28a64e7ee9d2dd3b0e06eaf4d7", "name": "72a33a28a64e7ee9d2dd3b0e06eaf4d7", "rental_uris": {"ios": "https://dc.lft.to/lastmile_qr_scan", "android": "https://dc.lft.to/lastmile_qr_scan"}}, {"is_disabled": 0, "fusion_lat": 0.0, "lat": 38.90927166666667, "type": "electric_scooter", "lon": -76.99877783333334, "is_reserved": 0, "fusion_lon": 0.0, "bike_id": "bfd2dd053e33ec793a804dd73429683c", "name": "bfd2dd053e33ec793a804dd73429683c", "rental_uris": {"ios": "https://dc.lft.to/lastmile_qr_scan", "android": "https://dc.lft.to/lastmile_qr_scan"}}, {"is_disabled": 0, "fusion_lat": 0.0, "lat": 38.864523166666665, "type": "electric_bike", "lon": -76.945421, "is_reserved": 0, "fusion_lon": 0.0, "bike_id": "788444c3695aac61248fbceb3932ef89", "name": "788444c3695aac61248fbceb3932ef89", "rental_uris": {"ios": "https://dc.lft.to/lastmile_qr_scan", "android": "https://dc.lft.to/lastmile_qr_scan"}}, {"is_disabled": 0, "fusion_lat": 0.0, "lat": 38.93089416666667, "type": "electric_scooter", "lon": -77.07794066666666, "is_reserved": 0, "fusion_lon": 0.0, "bike_id": "c79b85444b86e5df9ce0c28d065a96e0", "name": "c79b85444b86e5df9ce0c28d065a96e0", "rental_uris": {"ios": "https://dc.lft.to/lastmile_qr_scan", "android": "https://dc.lft.to/lastmile_qr_scan"}}, {"is_disabled": 0, "fusion_lat": 0.0, "lat": 38.92372066666667, "type": "electric_scooter", "lon": -77.01918466666666, "is_reserved": 0, "fusion_lon": 0.0, "bike_id": "595f8296a0d0d28726252f18211cbba5", "name": "595f8296a0d0d28726252f18211cbba5", "rental_uris": {"ios": "https://dc.lft.to/lastmile_qr_scan", "android": "https://dc.lft.to/lastmile_qr_scan"}}, {"is_disabled": 0, "fusion_lat": 0.0, "lat": 38.90578716666667, "type": "electric_scooter", "lon": -77.02988966666666, "is_reserved": 0, "fusion_lon": 0.0, "bike_id": "aae544cbaa70800215a31ad70900be61", "name": "aae544cbaa70800215a31ad70900be61", "rental_uris": {"ios": "https://dc.lft.to/lastmile_qr_scan", "android": "https://dc.lft.to/lastmile_qr_scan"}}, {"is_disabled": 0, "fusion_lat": 0.0, "lat": 38.95635383333333, "type": "electric_scooter", "lon": -77.03302416666666, "is_reserved": 0, "fusion_lon": 0.0, "bike_id": "9a5e413b4141cf4fcfb267e2ed8ae7ec", "name": "9a5e413b4141cf4fcfb267e2ed8ae7ec", "rental_uris": {"ios": "https://dc.lft.to/lastmile_qr_scan", "android": "https://dc.lft.to/lastmile_qr_scan"}}, {"is_disabled": 0, "fusion_lat": 0.0, "lat": 38.949301, "type": "electric_scooter", "lon": -77.01931833333333, "is_reserved": 0, "fusion_lon": 0.0, "bike_id": "b1ea622aa88c34af935193b545e94ace", "name": "b1ea622aa88c34af935193b545e94ace", "rental_uris": {"ios": "https://dc.lft.to/lastmile_qr_scan", "android": "https://dc.lft.to/lastmile_qr_scan"}}, {"is_disabled": 0, "fusion_lat": 0.0, "lat": 38.8979865, "type": "electric_scooter", "lon": -76.99160783333333, "is_reserved": 0, "fusion_lon": 0.0, "bike_id": "d52914a6dff0a57fd6d551a356a4d20d", "name": "d52914a6dff0a57fd6d551a356a4d20d", "rental_uris": {"ios": "https://dc.lft.to/lastmile_qr_scan", "android": "https://dc.lft.to/lastmile_qr_scan"}}, {"is_disabled": 0, "fusion_lat": 0.0, "lat": 38.896276666666665, "type": "electric_scooter", "lon": -76.98491883333334, "is_reserved": 0, "fusion_lon": 0.0, "bike_id": "28809acefd6e2a5ca620ac06114c43a0", "name": "28809acefd6e2a5ca620ac06114c43a0", "rental_uris": {"ios": "https://dc.lft.to/lastmile_qr_scan", "android": "https://dc.lft.to/lastmile_qr_scan"}}, {"is_disabled": 0, "fusion_lat": 0.0, "lat": 38.917080166666665, "type": "electric_scooter", "lon": -77.00116266666667, "is_reserved": 0, "fusion_lon": 0.0, "bike_id": "b2fbd5c7fe04f96208372fc5d2ae913d", "name": "b2fbd5c7fe04f96208372fc5d2ae913d", "rental_uris": {"ios": "https://dc.lft.to/lastmile_qr_scan", "android": "https://dc.lft.to/lastmile_qr_scan"}}, {"is_disabled": 0, "fusion_lat": 0.0, "lat": 38.91418266666667, "type": "electric_scooter", "lon": -77.0217, "is_reserved": 0, "fusion_lon": 0.0, "bike_id": "feb73ff8c343435657501e983db689af", "name": "feb73ff8c343435657501e983db689af", "rental_uris": {"ios": "https://dc.lft.to/lastmile_qr_scan", "android": "https://dc.lft.to/lastmile_qr_scan"}}, {"is_disabled": 0, "fusion_lat": 0.0, "lat": 38.86062883333334, "type": "electric_bike", "lon": -77.05638033333334, "is_reserved": 0, "fusion_lon": 0.0, "bike_id": "53f1050dc2b39167ea7df779b0ca9527", "name": "53f1050dc2b39167ea7df779b0ca9527", "rental_uris": {"ios": "https://dc.lft.to/lastmile_qr_scan", "android": "https://dc.lft.to/lastmile_qr_scan"}}, {"is_disabled": 0, "fusion_lat": 0.0, "lat": 38.88436216666667, "type": "electric_scooter", "lon": -77.030392, "is_reserved": 0, "fusion_lon": 0.0, "bike_id": "d55f80391356f44eae11ac042156c664", "name": "d55f80391356f44eae11ac042156c664", "rental_uris": {"ios": "https://dc.lft.to/lastmile_qr_scan", "android": "https://dc.lft.to/lastmile_qr_scan"}}, {"is_disabled": 0, "fusion_lat": 0.0, "lat": 38.959558333333334, "type": "electric_bike", "lon": -77.1008505, "is_reserved": 0, "fusion_lon": 0.0, "bike_id": "f1b0a40713a4a3f13f738ad25e634ffb", "name": "f1b0a40713a4a3f13f738ad25e634ffb", "rental_uris": {"ios": "https://dc.lft.to/lastmile_qr_scan", "android": "https://dc.lft.to/lastmile_qr_scan"}}, {"is_disabled": 0, "fusion_lat": 0.0, "lat": 38.892149333333336, "type": "electric_scooter", "lon": -77.0004035, "is_reserved": 0, "fusion_lon": 0.0, "bike_id": "55a25c6ef4a3d1714a69a0e0a2b6162e", "name": "55a25c6ef4a3d1714a69a0e0a2b6162e", "rental_uris": {"ios": "https://dc.lft.to/lastmile_qr_scan", "android": "https://dc.lft.to/lastmile_qr_scan"}}, {"is_disabled": 0, "fusion_lat": 0.0, "lat": 38.908605333333334, "type": "electric_scooter", "lon": -77.02339866666667, "is_reserved": 0, "fusion_lon": 0.0, "bike_id": "175f102c006572dc09b9f99620921386", "name": "175f102c006572dc09b9f99620921386", "rental_uris": {"ios": "https://dc.lft.to/lastmile_qr_scan", "android": "https://dc.lft.to/lastmile_qr_scan"}}, {"is_disabled": 0, "fusion_lat": 0.0, "lat": 38.8794215, "type": "electric_scooter", "lon": -77.00510516666667, "is_reserved": 0, "fusion_lon": 0.0, "bike_id": "8e8427954285c57bb6d29ae00ed347fa", "name": "8e8427954285c57bb6d29ae00ed347fa", "rental_uris": {"ios": "https://dc.lft.to/lastmile_qr_scan", "android": "https://dc.lft.to/lastmile_qr_scan"}}, {"is_disabled": 0, "fusion_lat": 0.0, "lat": 38.9168485, "type": "electric_scooter", "lon": -77.02327066666666, "is_reserved": 0, "fusion_lon": 0.0, "bike_id": "906e5d52f98ae31c77051e412dc6e62c", "name": "906e5d52f98ae31c77051e412dc6e62c", "rental_uris": {"ios": "https://dc.lft.to/lastmile_qr_scan", "android": "https://dc.lft.to/lastmile_qr_scan"}}, {"is_disabled": 0, "fusion_lat": 0.0, "lat": 38.9119285, "type": "electric_scooter", "lon": -77.06098316666667, "is_reserved": 0, "fusion_lon": 0.0, "bike_id": "c35cf252e48269eacd9068b8d2ace5cf", "name": "c35cf252e48269eacd9068b8d2ace5cf", "rental_uris": {"ios": "https://dc.lft.to/lastmile_qr_scan", "android": "https://dc.lft.to/lastmile_qr_scan"}}, {"is_disabled": 0, "fusion_lat": 0.0, "lat": 38.84467466666667, "type": "electric_scooter", "lon": -76.99867316666666, "is_reserved": 0, "fusion_lon": 0.0, "bike_id": "80588e80730f5098fb0d3c2182e2c5f4", "name": "80588e80730f5098fb0d3c2182e2c5f4", "rental_uris": {"ios": "https://dc.lft.to/lastmile_qr_scan", "android": "https://dc.lft.to/lastmile_qr_scan"}}, {"is_disabled": 0, "fusion_lat": 0.0, "lat": 38.9041765, "type": "electric_scooter", "lon": -77.02078916666666, "is_reserved": 0, "fusion_lon": 0.0, "bike_id": "ad93bf2ef931e6fae44064aaeed46932", "name": "ad93bf2ef931e6fae44064aaeed46932", "rental_uris": {"ios": "https://dc.lft.to/lastmile_qr_scan", "android": "https://dc.lft.to/lastmile_qr_scan"}}, {"is_disabled": 0, "fusion_lat": 0.0, "lat": 38.900399, "type": "electric_scooter", "lon": -76.98834833333333, "is_reserved": 0, "fusion_lon": 0.0, "bike_id": "50c43104ab4c69835b0b16cf12e939c0", "name": "50c43104ab4c69835b0b16cf12e939c0", "rental_uris": {"ios": "https://dc.lft.to/lastmile_qr_scan", "android": "https://dc.lft.to/lastmile_qr_scan"}}, {"is_disabled": 0, "fusion_lat": 0.0, "lat": 38.91552, "type": "electric_scooter", "lon": -77.033704, "is_reserved": 0, "fusion_lon": 0.0, "bike_id": "7128639a5ca1ead29698e26366bc1ba2", "name": "7128639a5ca1ead29698e26366bc1ba2", "rental_uris": {"ios": "https://dc.lft.to/lastmile_qr_scan", "android": "https://dc.lft.to/lastmile_qr_scan"}}, {"is_disabled": 0, "fusion_lat": 0.0, "lat": 38.904644, "type": "electric_scooter", "lon": -77.04855433333333, "is_reserved": 0, "fusion_lon": 0.0, "bike_id": "6494f305edcaa88d5f3fdbbfbf4d1fae", "name": "6494f305edcaa88d5f3fdbbfbf4d1fae", "rental_uris": {"ios": "https://dc.lft.to/lastmile_qr_scan", "android": "https://dc.lft.to/lastmile_qr_scan"}}, {"is_disabled": 0, "fusion_lat": 0.0, "lat": 38.89743466666667, "type": "electric_scooter", "lon": -77.0003245, "is_reserved": 0, "fusion_lon": 0.0, "bike_id": "c90f200618d5f541d6a5f4fa7b89b27c", "name": "c90f200618d5f541d6a5f4fa7b89b27c", "rental_uris": {"ios": "https://dc.lft.to/lastmile_qr_scan", "android": "https://dc.lft.to/lastmile_qr_scan"}}, {"is_disabled": 0, "fusion_lat": 0.0, "lat": 38.9139445, "type": "electric_scooter", "lon": -76.98419766666666, "is_reserved": 0, "fusion_lon": 0.0, "bike_id": "8dfae6eb9502f50a89bb32fa67a95e25", "name": "8dfae6eb9502f50a89bb32fa67a95e25", "rental_uris": {"ios": "https://dc.lft.to/lastmile_qr_scan", "android": "https://dc.lft.to/lastmile_qr_scan"}}, {"is_disabled": 0, "fusion_lat": 0.0, "lat": 38.952710833333335, "type": "electric_bike", "lon": -77.06978116666667, "is_reserved": 0, "fusion_lon": 0.0, "bike_id": "4992ea2c2a8b58395dcb531ead49934f", "name": "4992ea2c2a8b58395dcb531ead49934f", "rental_uris": {"ios": "https://dc.lft.to/lastmile_qr_scan", "android": "https://dc.lft.to/lastmile_qr_scan"}}, {"is_disabled": 0, "fusion_lat": 0.0, "lat": 38.914169666666666, "type": "electric_scooter", "lon": -77.01959566666666, "is_reserved": 0, "fusion_lon": 0.0, "bike_id": "620a9373c491b11c3669713a4423698b", "name": "620a9373c491b11c3669713a4423698b", "rental_uris": {"ios": "https://dc.lft.to/lastmile_qr_scan", "android": "https://dc.lft.to/lastmile_qr_scan"}}, {"is_disabled": 0, "fusion_lat": 0.0, "lat": 38.85791833333333, "type": "electric_bike", "lon": -77.09960983333333, "is_reserved": 0, "fusion_lon": 0.0, "bike_id": "434035f095cb2578bf37c477a153c397", "name": "434035f095cb2578bf37c477a153c397", "rental_uris": {"ios": "https://dc.lft.to/lastmile_qr_scan", "android": "https://dc.lft.to/lastmile_qr_scan"}}, {"is_disabled": 0, "fusion_lat": 0.0, "lat": 38.876598666666666, "type": "electric_scooter", "lon": -77.00410483333333, "is_reserved": 0, "fusion_lon": 0.0, "bike_id": "52043b524df5213dd3f74cd84ba6f008", "name": "52043b524df5213dd3f74cd84ba6f008", "rental_uris": {"ios": "https://dc.lft.to/lastmile_qr_scan", "android": "https://dc.lft.to/lastmile_qr_scan"}}, {"is_disabled": 0, "fusion_lat": 0.0, "lat": 38.900341833333336, "type": "electric_scooter", "lon": -76.99843, "is_reserved": 0, "fusion_lon": 0.0, "bike_id": "89f99139cbb4ea7196a7c1075bf1ba6f", "name": "89f99139cbb4ea7196a7c1075bf1ba6f", "rental_uris": {"ios": "https://dc.lft.to/lastmile_qr_scan", "android": "https://dc.lft.to/lastmile_qr_scan"}}, {"is_disabled": 0, "fusion_lat": 0.0, "lat": 38.91908733333333, "type": "electric_scooter", "lon": -77.04627366666666, "is_reserved": 0, "fusion_lon": 0.0, "bike_id": "837f5682f9c5d2ed5985beef40f02dd1", "name": "837f5682f9c5d2ed5985beef40f02dd1", "rental_uris": {"ios": "https://dc.lft.to/lastmile_qr_scan", "android": "https://dc.lft.to/lastmile_qr_scan"}}, {"is_disabled": 0, "fusion_lat": 0.0, "lat": 38.91716866666667, "type": "electric_scooter", "lon": -77.00886266666667, "is_reserved": 0, "fusion_lon": 0.0, "bike_id": "acecc46fb150f43a40a1ab7fa12666a8", "name": "acecc46fb150f43a40a1ab7fa12666a8", "rental_uris": {"ios": "https://dc.lft.to/lastmile_qr_scan", "android": "https://dc.lft.to/lastmile_qr_scan"}}, {"is_disabled": 0, "fusion_lat": 0.0, "lat": 38.9358745, "type": "electric_scooter", "lon": -77.035091, "is_reserved": 0, "fusion_lon": 0.0, "bike_id": "4e12be6f80ccd12896055f3b4d4dc419", "name": "4e12be6f80ccd12896055f3b4d4dc419", "rental_uris": {"ios": "https://dc.lft.to/lastmile_qr_scan", "android": "https://dc.lft.to/lastmile_qr_scan"}}, {"is_disabled": 0, "fusion_lat": 0.0, "lat": 38.939091, "type": "electric_scooter", "lon": -77.06040916666667, "is_reserved": 0, "fusion_lon": 0.0, "bike_id": "e820921dcf961001bbbd2ce53509a335", "name": "e820921dcf961001bbbd2ce53509a335", "rental_uris": {"ios": "https://dc.lft.to/lastmile_qr_scan", "android": "https://dc.lft.to/lastmile_qr_scan"}}, {"is_disabled": 0, "fusion_lat": 0.0, "lat": 38.912165333333334, "type": "electric_scooter", "lon": -77.038423, "is_reserved": 0, "fusion_lon": 0.0, "bike_id": "16ed9f4b7c7006a3b12df104c0011072", "name": "16ed9f4b7c7006a3b12df104c0011072", "rental_uris": {"ios": "https://dc.lft.to/lastmile_qr_scan", "android": "https://dc.lft.to/lastmile_qr_scan"}}, {"is_disabled": 0, "fusion_lat": 0.0, "lat": 38.863730333333336, "type": "electric_scooter", "lon": -76.99053483333333, "is_reserved": 0, "fusion_lon": 0.0, "bike_id": "559af2a279da1346347d72785f341309", "name": "559af2a279da1346347d72785f341309", "rental_uris": {"ios": "https://dc.lft.to/lastmile_qr_scan", "android": "https://dc.lft.to/lastmile_qr_scan"}}, {"is_disabled": 0, "fusion_lat": 0.0, "lat": 38.925071333333335, "type": "electric_scooter", "lon": -77.0352565, "is_reserved": 0, "fusion_lon": 0.0, "bike_id": "8a18cb3cb959b276acc93591a3efa6db", "name": "8a18cb3cb959b276acc93591a3efa6db", "rental_uris": {"ios": "https://dc.lft.to/lastmile_qr_scan", "android": "https://dc.lft.to/lastmile_qr_scan"}}, {"is_disabled": 0, "fusion_lat": 0.0, "lat": 38.86528, "type": "electric_scooter", "lon": -76.990321, "is_reserved": 0, "fusion_lon": 0.0, "bike_id": "93b6e1b55029c3e4a8c2bd226006d620", "name": "93b6e1b55029c3e4a8c2bd226006d620", "rental_uris": {"ios": "https://dc.lft.to/lastmile_qr_scan", "android": "https://dc.lft.to/lastmile_qr_scan"}}, {"is_disabled": 0, "fusion_lat": 0.0, "lat": 38.8955695, "type": "electric_scooter", "lon": -77.009188, "is_reserved": 0, "fusion_lon": 0.0, "bike_id": "cac370c188e85a24ea62bdbf4c38cc7e", "name": "cac370c188e85a24ea62bdbf4c38cc7e", "rental_uris": {"ios": "https://dc.lft.to/lastmile_qr_scan", "android": "https://dc.lft.to/lastmile_qr_scan"}}, {"is_disabled": 0, "fusion_lat": 0.0, "lat": 38.940449666666666, "type": "electric_scooter", "lon": -77.0290165, "is_reserved": 0, "fusion_lon": 0.0, "bike_id": "597b4f97ca59b3fd8461411472ec6a89", "name": "597b4f97ca59b3fd8461411472ec6a89", "rental_uris": {"ios": "https://dc.lft.to/lastmile_qr_scan", "android": "https://dc.lft.to/lastmile_qr_scan"}}, {"is_disabled": 0, "fusion_lat": 0.0, "lat": 38.866175, "type": "electric_scooter", "lon": -76.9866545, "is_reserved": 0, "fusion_lon": 0.0, "bike_id": "a5f544d9cb30e1195b805d29bfe637dd", "name": "a5f544d9cb30e1195b805d29bfe637dd", "rental_uris": {"ios": "https://dc.lft.to/lastmile_qr_scan", "android": "https://dc.lft.to/lastmile_qr_scan"}}, {"is_disabled": 0, "fusion_lat": 0.0, "lat": 38.8459065, "type": "electric_bike", "lon": -77.07679683333333, "is_reserved": 0, "fusion_lon": 0.0, "bike_id": "ed412bca72cd93b139813cd62d63a01d", "name": "ed412bca72cd93b139813cd62d63a01d", "rental_uris": {"ios": "https://dc.lft.to/lastmile_qr_scan", "android": "https://dc.lft.to/lastmile_qr_scan"}}, {"is_disabled": 0, "fusion_lat": 0.0, "lat": 38.93543583333334, "type": "electric_scooter", "lon": -77.07266833333334, "is_reserved": 0, "fusion_lon": 0.0, "bike_id": "24c75dd34f148e8573503907baa4b1cb", "name": "24c75dd34f148e8573503907baa4b1cb", "rental_uris": {"ios": "https://dc.lft.to/lastmile_qr_scan", "android": "https://dc.lft.to/lastmile_qr_scan"}}, {"is_disabled": 0, "fusion_lat": 0.0, "lat": 38.925865, "type": "electric_scooter", "lon": -77.00477233333334, "is_reserved": 0, "fusion_lon": 0.0, "bike_id": "fa6e65547c2aaee73f7b3e352cef4f84", "name": "fa6e65547c2aaee73f7b3e352cef4f84", "rental_uris": {"ios": "https://dc.lft.to/lastmile_qr_scan", "android": "https://dc.lft.to/lastmile_qr_scan"}}, {"is_disabled": 0, "fusion_lat": 0.0, "lat": 38.900551666666665, "type": "electric_scooter", "lon": -77.00235183333334, "is_reserved": 0, "fusion_lon": 0.0, "bike_id": "85d373e00720e69e2406b5bfe65b0d17", "name": "85d373e00720e69e2406b5bfe65b0d17", "rental_uris": {"ios": "https://dc.lft.to/lastmile_qr_scan", "android": "https://dc.lft.to/lastmile_qr_scan"}}, {"is_disabled": 0, "fusion_lat": 0.0, "lat": 38.923832833333336, "type": "electric_bike", "lon": -77.22307483333333, "is_reserved": 0, "fusion_lon": 0.0, "bike_id": "a0d3eea7a0ea5a630d2b40941de1b86e", "name": "a0d3eea7a0ea5a630d2b40941de1b86e", "rental_uris": {"ios": "https://dc.lft.to/lastmile_qr_scan", "android": "https://dc.lft.to/lastmile_qr_scan"}}, {"is_disabled": 0, "fusion_lat": 0.0, "lat": 38.885045833333336, "type": "electric_scooter", "lon": -77.01551616666667, "is_reserved": 0, "fusion_lon": 0.0, "bike_id": "3a36fba97cea678a4035620877c73f46", "name": "3a36fba97cea678a4035620877c73f46", "rental_uris": {"ios": "https://dc.lft.to/lastmile_qr_scan", "android": "https://dc.lft.to/lastmile_qr_scan"}}, {"is_disabled": 0, "fusion_lat": 0.0, "lat": 38.903142333333335, "type": "electric_scooter", "lon": -76.97802183333333, "is_reserved": 0, "fusion_lon": 0.0, "bike_id": "015216b5fec32d4cffb883952201fad3", "name": "015216b5fec32d4cffb883952201fad3", "rental_uris": {"ios": "https://dc.lft.to/lastmile_qr_scan", "android": "https://dc.lft.to/lastmile_qr_scan"}}, {"is_disabled": 0, "fusion_lat": 0.0, "lat": 38.87965533333333, "type": "electric_bike", "lon": -77.01009916666666, "is_reserved": 0, "fusion_lon": 0.0, "bike_id": "f28c3ffa56ff450a5cbeda4019952030", "name": "f28c3ffa56ff450a5cbeda4019952030", "rental_uris": {"ios": "https://dc.lft.to/lastmile_qr_scan", "android": "https://dc.lft.to/lastmile_qr_scan"}}, {"is_disabled": 0, "fusion_lat": 0.0, "lat": 38.97094883333333, "type": "electric_bike", "lon": -77.06966916666667, "is_reserved": 0, "fusion_lon": 0.0, "bike_id": "5e3293f9fc3f4ef4b3d812e7bae85254", "name": "5e3293f9fc3f4ef4b3d812e7bae85254", "rental_uris": {"ios": "https://dc.lft.to/lastmile_qr_scan", "android": "https://dc.lft.to/lastmile_qr_scan"}}, {"is_disabled": 0, "fusion_lat": 0.0, "lat": 38.9000095, "type": "electric_scooter", "lon": -77.0268875, "is_reserved": 0, "fusion_lon": 0.0, "bike_id": "97710eb48ca64a8900d2732ecf62ac53", "name": "97710eb48ca64a8900d2732ecf62ac53", "rental_uris": {"ios": "https://dc.lft.to/lastmile_qr_scan", "android": "https://dc.lft.to/lastmile_qr_scan"}}, {"is_disabled": 0, "fusion_lat": 0.0, "lat": 38.925084166666664, "type": "electric_scooter", "lon": -77.0388745, "is_reserved": 0, "fusion_lon": 0.0, "bike_id": "acb8e77188b87ffae1de78621799227a", "name": "acb8e77188b87ffae1de78621799227a", "rental_uris": {"ios": "https://dc.lft.to/lastmile_qr_scan", "android": "https://dc.lft.to/lastmile_qr_scan"}}, {"is_disabled": 0, "fusion_lat": 0.0, "lat": 38.8987655, "type": "electric_scooter", "lon": -76.93182166666666, "is_reserved": 0, "fusion_lon": 0.0, "bike_id": "40e4b9946036cf5d99bebd9f685cd246", "name": "40e4b9946036cf5d99bebd9f685cd246", "rental_uris": {"ios": "https://dc.lft.to/lastmile_qr_scan", "android": "https://dc.lft.to/lastmile_qr_scan"}}, {"is_disabled": 0, "fusion_lat": 0.0, "lat": 38.915614166666664, "type": "electric_scooter", "lon": -77.04872916666666, "is_reserved": 0, "fusion_lon": 0.0, "bike_id": "b037ae32710d6e9a3405ca4d5bc1c4c5", "name": "b037ae32710d6e9a3405ca4d5bc1c4c5", "rental_uris": {"ios": "https://dc.lft.to/lastmile_qr_scan", "android": "https://dc.lft.to/lastmile_qr_scan"}}, {"is_disabled": 0, "fusion_lat": 0.0, "lat": 38.9000295, "type": "electric_scooter", "lon": -77.052515, "is_reserved": 0, "fusion_lon": 0.0, "bike_id": "b16dd6c22322c7eedd10e43497a96012", "name": "b16dd6c22322c7eedd10e43497a96012", "rental_uris": {"ios": "https://dc.lft.to/lastmile_qr_scan", "android": "https://dc.lft.to/lastmile_qr_scan"}}, {"is_disabled": 0, "fusion_lat": 0.0, "lat": 38.959007, "type": "electric_bike", "lon": -76.92479683333333, "is_reserved": 0, "fusion_lon": 0.0, "bike_id": "a5a5294b8062b1f74e6e8bf5eb392d1d", "name": "a5a5294b8062b1f74e6e8bf5eb392d1d", "rental_uris": {"ios": "https://dc.lft.to/lastmile_qr_scan", "android": "https://dc.lft.to/lastmile_qr_scan"}}, {"is_disabled": 0, "fusion_lat": 0.0, "lat": 38.8953655, "type": "electric_scooter", "lon": -77.0483745, "is_reserved": 0, "fusion_lon": 0.0, "bike_id": "6b2a062ce15531d409e9ea3e10b9a420", "name": "6b2a062ce15531d409e9ea3e10b9a420", "rental_uris": {"ios": "https://dc.lft.to/lastmile_qr_scan", "android": "https://dc.lft.to/lastmile_qr_scan"}}, {"is_disabled": 0, "fusion_lat": 0.0, "lat": 38.9103525, "type": "electric_scooter", "lon": -77.04399583333333, "is_reserved": 0, "fusion_lon": 0.0, "bike_id": "62cb68e50fed332a29c80b74547568da", "name": "62cb68e50fed332a29c80b74547568da", "rental_uris": {"ios": "https://dc.lft.to/lastmile_qr_scan", "android": "https://dc.lft.to/lastmile_qr_scan"}}, {"is_disabled": 0, "fusion_lat": 0.0, "lat": 38.9304835, "type": "electric_scooter", "lon": -77.03224, "is_reserved": 0, "fusion_lon": 0.0, "bike_id": "2289fc7a275f706c86211af9167e9e93", "name": "2289fc7a275f706c86211af9167e9e93", "rental_uris": {"ios": "https://dc.lft.to/lastmile_qr_scan", "android": "https://dc.lft.to/lastmile_qr_scan"}}, {"is_disabled": 0, "fusion_lat": 0.0, "lat": 38.90974416666667, "type": "electric_scooter", "lon": -77.04041516666666, "is_reserved": 0, "fusion_lon": 0.0, "bike_id": "cab37a8033beb25b62dacd7f7158f03d", "name": "cab37a8033beb25b62dacd7f7158f03d", "rental_uris": {"ios": "https://dc.lft.to/lastmile_qr_scan", "android": "https://dc.lft.to/lastmile_qr_scan"}}, {"is_disabled": 0, "fusion_lat": 0.0, "lat": 38.9056375, "type": "electric_scooter", "lon": -77.04358116666667, "is_reserved": 0, "fusion_lon": 0.0, "bike_id": "39ca1f47323f460ba222c2c6024de36a", "name": "39ca1f47323f460ba222c2c6024de36a", "rental_uris": {"ios": "https://dc.lft.to/lastmile_qr_scan", "android": "https://dc.lft.to/lastmile_qr_scan"}}, {"is_disabled": 0, "fusion_lat": 0.0, "lat": 38.89046866666666, "type": "electric_scooter", "lon": -76.940766, "is_reserved": 0, "fusion_lon": 0.0, "bike_id": "c53e2242b2df346762654b2a19a51af8", "name": "c53e2242b2df346762654b2a19a51af8", "rental_uris": {"ios": "https://dc.lft.to/lastmile_qr_scan", "android": "https://dc.lft.to/lastmile_qr_scan"}}, {"is_disabled": 0, "fusion_lat": 0.0, "lat": 38.87551666666667, "type": "electric_scooter", "lon": -76.9648915, "is_reserved": 0, "fusion_lon": 0.0, "bike_id": "323dcc0b986993eed14d4d52874f9fc1", "name": "323dcc0b986993eed14d4d52874f9fc1", "rental_uris": {"ios": "https://dc.lft.to/lastmile_qr_scan", "android": "https://dc.lft.to/lastmile_qr_scan"}}, {"is_disabled": 0, "fusion_lat": 0.0, "lat": 38.92471316666666, "type": "electric_scooter", "lon": -77.03779933333334, "is_reserved": 0, "fusion_lon": 0.0, "bike_id": "695aaac234f1b64f1e4a7a169bcc4a5e", "name": "695aaac234f1b64f1e4a7a169bcc4a5e", "rental_uris": {"ios": "https://dc.lft.to/lastmile_qr_scan", "android": "https://dc.lft.to/lastmile_qr_scan"}}, {"is_disabled": 0, "fusion_lat": 0.0, "lat": 38.906754166666666, "type": "electric_scooter", "lon": -76.9878275, "is_reserved": 0, "fusion_lon": 0.0, "bike_id": "e2808c6b8e1578411c8c2ef5c636aa92", "name": "e2808c6b8e1578411c8c2ef5c636aa92", "rental_uris": {"ios": "https://dc.lft.to/lastmile_qr_scan", "android": "https://dc.lft.to/lastmile_qr_scan"}}, {"is_disabled": 0, "fusion_lat": 0.0, "lat": 38.930903666666666, "type": "electric_scooter", "lon": -77.0366905, "is_reserved": 0, "fusion_lon": 0.0, "bike_id": "e1ecd10df5b4e7bc02c4913ae1a65a53", "name": "e1ecd10df5b4e7bc02c4913ae1a65a53", "rental_uris": {"ios": "https://dc.lft.to/lastmile_qr_scan", "android": "https://dc.lft.to/lastmile_qr_scan"}}, {"is_disabled": 0, "fusion_lat": 0.0, "lat": 38.902809500000004, "type": "electric_scooter", "lon": -77.01726266666667, "is_reserved": 0, "fusion_lon": 0.0, "bike_id": "f6c948b59f8b1336ac5dd3a3ef206617", "name": "f6c948b59f8b1336ac5dd3a3ef206617", "rental_uris": {"ios": "https://dc.lft.to/lastmile_qr_scan", "android": "https://dc.lft.to/lastmile_qr_scan"}}, {"is_disabled": 0, "fusion_lat": 0.0, "lat": 38.90799166666667, "type": "electric_scooter", "lon": -77.0347745, "is_reserved": 0, "fusion_lon": 0.0, "bike_id": "15680c1057f6a374becea17560a24240", "name": "15680c1057f6a374becea17560a24240", "rental_uris": {"ios": "https://dc.lft.to/lastmile_qr_scan", "android": "https://dc.lft.to/lastmile_qr_scan"}}, {"is_disabled": 0, "fusion_lat": 0.0, "lat": 38.904165166666665, "type": "electric_scooter", "lon": -76.9809885, "is_reserved": 0, "fusion_lon": 0.0, "bike_id": "b921d4580ecf95a1e8daaab60600dad7", "name": "b921d4580ecf95a1e8daaab60600dad7", "rental_uris": {"ios": "https://dc.lft.to/lastmile_qr_scan", "android": "https://dc.lft.to/lastmile_qr_scan"}}, {"is_disabled": 0, "fusion_lat": 0.0, "lat": 38.860617500000004, "type": "electric_scooter", "lon": -76.98421916666666, "is_reserved": 0, "fusion_lon": 0.0, "bike_id": "3ad32bd99b84ede75d850dbca4790fe8", "name": "3ad32bd99b84ede75d850dbca4790fe8", "rental_uris": {"ios": "https://dc.lft.to/lastmile_qr_scan", "android": "https://dc.lft.to/lastmile_qr_scan"}}, {"is_disabled": 0, "fusion_lat": 0.0, "lat": 38.90795166666667, "type": "electric_scooter", "lon": -77.03661516666666, "is_reserved": 0, "fusion_lon": 0.0, "bike_id": "45cbfd3649eec5edb6a6513d03250f63", "name": "45cbfd3649eec5edb6a6513d03250f63", "rental_uris": {"ios": "https://dc.lft.to/lastmile_qr_scan", "android": "https://dc.lft.to/lastmile_qr_scan"}}, {"is_disabled": 0, "fusion_lat": 0.0, "lat": 38.93013166666667, "type": "electric_scooter", "lon": -77.02091183333333, "is_reserved": 0, "fusion_lon": 0.0, "bike_id": "e88031cbdf8856163860c5c2eb28f6b2", "name": "e88031cbdf8856163860c5c2eb28f6b2", "rental_uris": {"ios": "https://dc.lft.to/lastmile_qr_scan", "android": "https://dc.lft.to/lastmile_qr_scan"}}, {"is_disabled": 0, "fusion_lat": 0.0, "lat": 38.91042, "type": "electric_scooter", "lon": -77.00996916666666, "is_reserved": 0, "fusion_lon": 0.0, "bike_id": "a7679cf3a23b799be5c87f09dd519d63", "name": "a7679cf3a23b799be5c87f09dd519d63", "rental_uris": {"ios": "https://dc.lft.to/lastmile_qr_scan", "android": "https://dc.lft.to/lastmile_qr_scan"}}, {"is_disabled": 0, "fusion_lat": 0.0, "lat": 38.8982375, "type": "electric_scooter", "lon": -77.031594, "is_reserved": 0, "fusion_lon": 0.0, "bike_id": "ffc5032ec669de4c71f4cab6b162cb26", "name": "ffc5032ec669de4c71f4cab6b162cb26", "rental_uris": {"ios": "https://dc.lft.to/lastmile_qr_scan", "android": "https://dc.lft.to/lastmile_qr_scan"}}, {"is_disabled": 0, "fusion_lat": 0.0, "lat": 38.869883333333334, "type": "electric_bike", "lon": -76.95983766666667, "is_reserved": 0, "fusion_lon": 0.0, "bike_id": "df2bf5aebf400b1eebb6c15f3074754c", "name": "df2bf5aebf400b1eebb6c15f3074754c", "rental_uris": {"ios": "https://dc.lft.to/lastmile_qr_scan", "android": "https://dc.lft.to/lastmile_qr_scan"}}, {"is_disabled": 0, "fusion_lat": 0.0, "lat": 38.87891183333333, "type": "electric_scooter", "lon": -77.00566583333334, "is_reserved": 0, "fusion_lon": 0.0, "bike_id": "88d49afc575476bb88ff36b9f917479f", "name": "88d49afc575476bb88ff36b9f917479f", "rental_uris": {"ios": "https://dc.lft.to/lastmile_qr_scan", "android": "https://dc.lft.to/lastmile_qr_scan"}}, {"is_disabled": 0, "fusion_lat": 0.0, "lat": 38.884987, "type": "electric_scooter", "lon": -77.00707983333334, "is_reserved": 0, "fusion_lon": 0.0, "bike_id": "5e44bab218c488ff164f91daeffa464a", "name": "5e44bab218c488ff164f91daeffa464a", "rental_uris": {"ios": "https://dc.lft.to/lastmile_qr_scan", "android": "https://dc.lft.to/lastmile_qr_scan"}}, {"is_disabled": 0, "fusion_lat": 0.0, "lat": 38.806202166666665, "type": "electric_bike", "lon": -77.06343216666667, "is_reserved": 0, "fusion_lon": 0.0, "bike_id": "276504e93cbc0769c63e6dac5cd87715", "name": "276504e93cbc0769c63e6dac5cd87715", "rental_uris": {"ios": "https://dc.lft.to/lastmile_qr_scan", "android": "https://dc.lft.to/lastmile_qr_scan"}}, {"is_disabled": 0, "fusion_lat": 0.0, "lat": 38.881841666666666, "type": "electric_scooter", "lon": -77.02083933333333, "is_reserved": 0, "fusion_lon": 0.0, "bike_id": "ccaa86dde3a5f8937429827d152ecad4", "name": "ccaa86dde3a5f8937429827d152ecad4", "rental_uris": {"ios": "https://dc.lft.to/lastmile_qr_scan", "android": "https://dc.lft.to/lastmile_qr_scan"}}, {"is_disabled": 0, "fusion_lat": 0.0, "lat": 38.9323705, "type": "electric_scooter", "lon": -77.032678, "is_reserved": 0, "fusion_lon": 0.0, "bike_id": "b651fb6dfba5a0907ec4565f272f4383", "name": "b651fb6dfba5a0907ec4565f272f4383", "rental_uris": {"ios": "https://dc.lft.to/lastmile_qr_scan", "android": "https://dc.lft.to/lastmile_qr_scan"}}, {"is_disabled": 0, "fusion_lat": 0.0, "lat": 38.985046833333335, "type": "electric_bike", "lon": -76.98210283333333, "is_reserved": 0, "fusion_lon": 0.0, "bike_id": "126f4ca5067f1cfaf04d41d8b6c84493", "name": "126f4ca5067f1cfaf04d41d8b6c84493", "rental_uris": {"ios": "https://dc.lft.to/lastmile_qr_scan", "android": "https://dc.lft.to/lastmile_qr_scan"}}, {"is_disabled": 0, "fusion_lat": 0.0, "lat": 38.9416795, "type": "electric_scooter", "lon": -77.02534, "is_reserved": 0, "fusion_lon": 0.0, "bike_id": "3621ae249b83fc5f56f4fde069fd4650", "name": "3621ae249b83fc5f56f4fde069fd4650", "rental_uris": {"ios": "https://dc.lft.to/lastmile_qr_scan", "android": "https://dc.lft.to/lastmile_qr_scan"}}, {"is_disabled": 0, "fusion_lat": 0.0, "lat": 38.92097, "type": "electric_scooter", "lon": -77.02556133333333, "is_reserved": 0, "fusion_lon": 0.0, "bike_id": "926f0c8e856e36ff2de6dde7fda3c81d", "name": "926f0c8e856e36ff2de6dde7fda3c81d", "rental_uris": {"ios": "https://dc.lft.to/lastmile_qr_scan", "android": "https://dc.lft.to/lastmile_qr_scan"}}, {"is_disabled": 0, "fusion_lat": 0.0, "lat": 38.92482, "type": "electric_scooter", "lon": -77.02632483333333, "is_reserved": 0, "fusion_lon": 0.0, "bike_id": "8ae7e11f39c1a750f5d567c9475104fb", "name": "8ae7e11f39c1a750f5d567c9475104fb", "rental_uris": {"ios": "https://dc.lft.to/lastmile_qr_scan", "android": "https://dc.lft.to/lastmile_qr_scan"}}, {"is_disabled": 0, "fusion_lat": 0.0, "lat": 38.822605833333334, "type": "electric_bike", "lon": -77.058073, "is_reserved": 0, "fusion_lon": 0.0, "bike_id": "609843612d0eda2ad9e7370449f1de23", "name": "609843612d0eda2ad9e7370449f1de23", "rental_uris": {"ios": "https://dc.lft.to/lastmile_qr_scan", "android": "https://dc.lft.to/lastmile_qr_scan"}}, {"is_disabled": 0, "fusion_lat": 0.0, "lat": 38.9048625, "type": "electric_scooter", "lon": -77.06012183333333, "is_reserved": 0, "fusion_lon": 0.0, "bike_id": "cadbb7e448b8b28c8c0eb35b2d711ee3", "name": "cadbb7e448b8b28c8c0eb35b2d711ee3", "rental_uris": {"ios": "https://dc.lft.to/lastmile_qr_scan", "android": "https://dc.lft.to/lastmile_qr_scan"}}, {"is_disabled": 0, "fusion_lat": 0.0, "lat": 38.89017466666667, "type": "electric_scooter", "lon": -76.93743016666667, "is_reserved": 0, "fusion_lon": 0.0, "bike_id": "e0c1533e7cf68056d994b87c4e6c799f", "name": "e0c1533e7cf68056d994b87c4e6c799f", "rental_uris": {"ios": "https://dc.lft.to/lastmile_qr_scan", "android": "https://dc.lft.to/lastmile_qr_scan"}}, {"is_disabled": 0, "fusion_lat": 0.0, "lat": 38.94013483333333, "type": "electric_scooter", "lon": -77.07175333333333, "is_reserved": 0, "fusion_lon": 0.0, "bike_id": "e298862aeadc5634c71e043ea559adb2", "name": "e298862aeadc5634c71e043ea559adb2", "rental_uris": {"ios": "https://dc.lft.to/lastmile_qr_scan", "android": "https://dc.lft.to/lastmile_qr_scan"}}, {"is_disabled": 0, "fusion_lat": 0.0, "lat": 38.8548275, "type": "electric_bike", "lon": -77.11602533333334, "is_reserved": 0, "fusion_lon": 0.0, "bike_id": "dd05b62ba209c79584b2bc1dc869c598", "name": "dd05b62ba209c79584b2bc1dc869c598", "rental_uris": {"ios": "https://dc.lft.to/lastmile_qr_scan", "android": "https://dc.lft.to/lastmile_qr_scan"}}, {"is_disabled": 0, "fusion_lat": 0.0, "lat": 38.8991125, "type": "electric_scooter", "lon": -76.933454, "is_reserved": 0, "fusion_lon": 0.0, "bike_id": "f77cce5c547800cff5ee89f2fde4efb3", "name": "f77cce5c547800cff5ee89f2fde4efb3", "rental_uris": {"ios": "https://dc.lft.to/lastmile_qr_scan", "android": "https://dc.lft.to/lastmile_qr_scan"}}, {"is_disabled": 0, "fusion_lat": 0.0, "lat": 38.89199166666667, "type": "electric_scooter", "lon": -77.02379316666666, "is_reserved": 0, "fusion_lon": 0.0, "bike_id": "6610b5bc2c98370e42400d7ee7fce90d", "name": "6610b5bc2c98370e42400d7ee7fce90d", "rental_uris": {"ios": "https://dc.lft.to/lastmile_qr_scan", "android": "https://dc.lft.to/lastmile_qr_scan"}}, {"is_disabled": 0, "fusion_lat": 0.0, "lat": 38.874961, "type": "electric_scooter", "lon": -76.99799016666667, "is_reserved": 0, "fusion_lon": 0.0, "bike_id": "5547dc27e0f9a2cf5de55934674ca06f", "name": "5547dc27e0f9a2cf5de55934674ca06f", "rental_uris": {"ios": "https://dc.lft.to/lastmile_qr_scan", "android": "https://dc.lft.to/lastmile_qr_scan"}}, {"is_disabled": 0, "fusion_lat": 0.0, "lat": 38.924195, "type": "electric_scooter", "lon": -77.02238066666666, "is_reserved": 0, "fusion_lon": 0.0, "bike_id": "52e748a6c772378d0f25955ef69927c2", "name": "52e748a6c772378d0f25955ef69927c2", "rental_uris": {"ios": "https://dc.lft.to/lastmile_qr_scan", "android": "https://dc.lft.to/lastmile_qr_scan"}}, {"is_disabled": 0, "fusion_lat": 0.0, "lat": 38.90409666666667, "type": "electric_scooter", "lon": -77.02083716666667, "is_reserved": 0, "fusion_lon": 0.0, "bike_id": "3a869346636232505364b0591c03e48e", "name": "3a869346636232505364b0591c03e48e", "rental_uris": {"ios": "https://dc.lft.to/lastmile_qr_scan", "android": "https://dc.lft.to/lastmile_qr_scan"}}, {"is_disabled": 0, "fusion_lat": 0.0, "lat": 38.88520883333333, "type": "electric_scooter", "lon": -77.0334455, "is_reserved": 0, "fusion_lon": 0.0, "bike_id": "560827c2a5175b52af9506d179426160", "name": "560827c2a5175b52af9506d179426160", "rental_uris": {"ios": "https://dc.lft.to/lastmile_qr_scan", "android": "https://dc.lft.to/lastmile_qr_scan"}}, {"is_disabled": 0, "fusion_lat": 0.0, "lat": 38.85808083333333, "type": "electric_scooter", "lon": -76.9898625, "is_reserved": 0, "fusion_lon": 0.0, "bike_id": "39e0b5d24ee6cdb8ffbc537dd851e366", "name": "39e0b5d24ee6cdb8ffbc537dd851e366", "rental_uris": {"ios": "https://dc.lft.to/lastmile_qr_scan", "android": "https://dc.lft.to/lastmile_qr_scan"}}, {"is_disabled": 0, "fusion_lat": 0.0, "lat": 38.905094166666665, "type": "electric_scooter", "lon": -77.0476835, "is_reserved": 0, "fusion_lon": 0.0, "bike_id": "cc9688d14e514203d3d0ee72f94d9067", "name": "cc9688d14e514203d3d0ee72f94d9067", "rental_uris": {"ios": "https://dc.lft.to/lastmile_qr_scan", "android": "https://dc.lft.to/lastmile_qr_scan"}}, {"is_disabled": 0, "fusion_lat": 0.0, "lat": 38.90626733333333, "type": "electric_scooter", "lon": -77.04644566666667, "is_reserved": 0, "fusion_lon": 0.0, "bike_id": "d53b616b3ccb6c0eefb83880577c9621", "name": "d53b616b3ccb6c0eefb83880577c9621", "rental_uris": {"ios": "https://dc.lft.to/lastmile_qr_scan", "android": "https://dc.lft.to/lastmile_qr_scan"}}, {"is_disabled": 0, "fusion_lat": 0.0, "lat": 38.88990733333333, "type": "electric_scooter", "lon": -76.9951115, "is_reserved": 0, "fusion_lon": 0.0, "bike_id": "32b582af42be45e0da3c2bca39d1f6ad", "name": "32b582af42be45e0da3c2bca39d1f6ad", "rental_uris": {"ios": "https://dc.lft.to/lastmile_qr_scan", "android": "https://dc.lft.to/lastmile_qr_scan"}}, {"is_disabled": 0, "fusion_lat": 0.0, "lat": 38.915503666666666, "type": "electric_scooter", "lon": -77.041549, "is_reserved": 0, "fusion_lon": 0.0, "bike_id": "c7ae6abf8385ffbb216469c88d68c3d3", "name": "c7ae6abf8385ffbb216469c88d68c3d3", "rental_uris": {"ios": "https://dc.lft.to/lastmile_qr_scan", "android": "https://dc.lft.to/lastmile_qr_scan"}}, {"is_disabled": 0, "fusion_lat": 0.0, "lat": 38.84432316666667, "type": "electric_scooter", "lon": -76.9978475, "is_reserved": 0, "fusion_lon": 0.0, "bike_id": "ab436d41ccfd9f236e8931df97fb269d", "name": "ab436d41ccfd9f236e8931df97fb269d", "rental_uris": {"ios": "https://dc.lft.to/lastmile_qr_scan", "android": "https://dc.lft.to/lastmile_qr_scan"}}, {"is_disabled": 0, "fusion_lat": 0.0, "lat": 38.944148, "type": "electric_scooter", "lon": -77.0551465, "is_reserved": 0, "fusion_lon": 0.0, "bike_id": "aba06f9c38e98032bfe25755435ae41e", "name": "aba06f9c38e98032bfe25755435ae41e", "rental_uris": {"ios": "https://dc.lft.to/lastmile_qr_scan", "android": "https://dc.lft.to/lastmile_qr_scan"}}, {"is_disabled": 0, "fusion_lat": 0.0, "lat": 38.8022525, "type": "electric_bike", "lon": -77.0791605, "is_reserved": 0, "fusion_lon": 0.0, "bike_id": "5baed7b39b706e1a01fcb897660a7c8f", "name": "5baed7b39b706e1a01fcb897660a7c8f", "rental_uris": {"ios": "https://dc.lft.to/lastmile_qr_scan", "android": "https://dc.lft.to/lastmile_qr_scan"}}, {"is_disabled": 0, "fusion_lat": 0.0, "lat": 38.88269616666667, "type": "electric_scooter", "lon": -76.99546516666666, "is_reserved": 0, "fusion_lon": 0.0, "bike_id": "f193f2aef450c6fac6f25e5490b9c3ad", "name": "f193f2aef450c6fac6f25e5490b9c3ad", "rental_uris": {"ios": "https://dc.lft.to/lastmile_qr_scan", "android": "https://dc.lft.to/lastmile_qr_scan"}}, {"is_disabled": 0, "fusion_lat": 0.0, "lat": 38.8662015, "type": "electric_scooter", "lon": -76.9865215, "is_reserved": 0, "fusion_lon": 0.0, "bike_id": "e140e43b65ab19f679e2911f433f3212", "name": "e140e43b65ab19f679e2911f433f3212", "rental_uris": {"ios": "https://dc.lft.to/lastmile_qr_scan", "android": "https://dc.lft.to/lastmile_qr_scan"}}, {"is_disabled": 0, "fusion_lat": 0.0, "lat": 38.90769383333333, "type": "electric_scooter", "lon": -77.0206715, "is_reserved": 0, "fusion_lon": 0.0, "bike_id": "2139d64529be26573dba45caf04420e9", "name": "2139d64529be26573dba45caf04420e9", "rental_uris": {"ios": "https://dc.lft.to/lastmile_qr_scan", "android": "https://dc.lft.to/lastmile_qr_scan"}}, {"is_disabled": 0, "fusion_lat": 0.0, "lat": 38.862556, "type": "electric_scooter", "lon": -76.98700133333334, "is_reserved": 0, "fusion_lon": 0.0, "bike_id": "ab210684712173e213ce46070b3ec260", "name": "ab210684712173e213ce46070b3ec260", "rental_uris": {"ios": "https://dc.lft.to/lastmile_qr_scan", "android": "https://dc.lft.to/lastmile_qr_scan"}}, {"is_disabled": 0, "fusion_lat": 0.0, "lat": 38.91608, "type": "electric_scooter", "lon": -77.03172533333333, "is_reserved": 0, "fusion_lon": 0.0, "bike_id": "d9600af445187c54477003e388195207", "name": "d9600af445187c54477003e388195207", "rental_uris": {"ios": "https://dc.lft.to/lastmile_qr_scan", "android": "https://dc.lft.to/lastmile_qr_scan"}}, {"is_disabled": 0, "fusion_lat": 0.0, "lat": 38.90684066666667, "type": "electric_bike", "lon": -76.9518525, "is_reserved": 0, "fusion_lon": 0.0, "bike_id": "0360b081b7656c0dba5cca9346e3cfa5", "name": "0360b081b7656c0dba5cca9346e3cfa5", "rental_uris": {"ios": "https://dc.lft.to/lastmile_qr_scan", "android": "https://dc.lft.to/lastmile_qr_scan"}}, {"is_disabled": 0, "fusion_lat": 0.0, "lat": 38.90698533333333, "type": "electric_scooter", "lon": -77.06334416666667, "is_reserved": 0, "fusion_lon": 0.0, "bike_id": "4b5964ebc2fb35f8f2469bb5ea1675d2", "name": "4b5964ebc2fb35f8f2469bb5ea1675d2", "rental_uris": {"ios": "https://dc.lft.to/lastmile_qr_scan", "android": "https://dc.lft.to/lastmile_qr_scan"}}, {"is_disabled": 0, "fusion_lat": 0.0, "lat": 38.916831333333334, "type": "electric_scooter", "lon": -77.0377045, "is_reserved": 0, "fusion_lon": 0.0, "bike_id": "48bb8e5df8f608a0b3eb561ea1ee19aa", "name": "48bb8e5df8f608a0b3eb561ea1ee19aa", "rental_uris": {"ios": "https://dc.lft.to/lastmile_qr_scan", "android": "https://dc.lft.to/lastmile_qr_scan"}}, {"is_disabled": 0, "fusion_lat": 0.0, "lat": 38.92102283333333, "type": "electric_scooter", "lon": -77.06333483333333, "is_reserved": 0, "fusion_lon": 0.0, "bike_id": "66b105ececb9ee189fef454010fddceb", "name": "66b105ececb9ee189fef454010fddceb", "rental_uris": {"ios": "https://dc.lft.to/lastmile_qr_scan", "android": "https://dc.lft.to/lastmile_qr_scan"}}, {"is_disabled": 0, "fusion_lat": 0.0, "lat": 38.866625666666664, "type": "electric_scooter", "lon": -76.98904333333333, "is_reserved": 0, "fusion_lon": 0.0, "bike_id": "ea8715390c6f4860bbb41f02d82a3da7", "name": "ea8715390c6f4860bbb41f02d82a3da7", "rental_uris": {"ios": "https://dc.lft.to/lastmile_qr_scan", "android": "https://dc.lft.to/lastmile_qr_scan"}}, {"is_disabled": 0, "fusion_lat": 0.0, "lat": 38.9066535, "type": "electric_scooter", "lon": -77.00832083333333, "is_reserved": 0, "fusion_lon": 0.0, "bike_id": "0fcc5b879df2c8173a52bf69f31471f2", "name": "0fcc5b879df2c8173a52bf69f31471f2", "rental_uris": {"ios": "https://dc.lft.to/lastmile_qr_scan", "android": "https://dc.lft.to/lastmile_qr_scan"}}, {"is_disabled": 0, "fusion_lat": 0.0, "lat": 38.89658933333333, "type": "electric_scooter", "lon": -77.04946033333333, "is_reserved": 0, "fusion_lon": 0.0, "bike_id": "c12ea85b5e294abbd4d84c3c6241a91c", "name": "c12ea85b5e294abbd4d84c3c6241a91c", "rental_uris": {"ios": "https://dc.lft.to/lastmile_qr_scan", "android": "https://dc.lft.to/lastmile_qr_scan"}}, {"is_disabled": 0, "fusion_lat": 0.0, "lat": 38.880360333333336, "type": "electric_scooter", "lon": -77.03081933333333, "is_reserved": 0, "fusion_lon": 0.0, "bike_id": "fb3dffc5f5354c31d9daa1642bf86447", "name": "fb3dffc5f5354c31d9daa1642bf86447", "rental_uris": {"ios": "https://dc.lft.to/lastmile_qr_scan", "android": "https://dc.lft.to/lastmile_qr_scan"}}, {"is_disabled": 0, "fusion_lat": 0.0, "lat": 38.93354216666667, "type": "electric_scooter", "lon": -77.06931516666667, "is_reserved": 0, "fusion_lon": 0.0, "bike_id": "9aa4bb1b29965c06ce6ebc715246c7f4", "name": "9aa4bb1b29965c06ce6ebc715246c7f4", "rental_uris": {"ios": "https://dc.lft.to/lastmile_qr_scan", "android": "https://dc.lft.to/lastmile_qr_scan"}}, {"is_disabled": 0, "fusion_lat": 0.0, "lat": 38.917385, "type": "electric_scooter", "lon": -77.03461383333334, "is_reserved": 0, "fusion_lon": 0.0, "bike_id": "7c59a284615bc18be2c9a3ab89657cac", "name": "7c59a284615bc18be2c9a3ab89657cac", "rental_uris": {"ios": "https://dc.lft.to/lastmile_qr_scan", "android": "https://dc.lft.to/lastmile_qr_scan"}}, {"is_disabled": 0, "fusion_lat": 0.0, "lat": 38.9035565, "type": "electric_scooter", "lon": -77.03466883333333, "is_reserved": 0, "fusion_lon": 0.0, "bike_id": "92b8313d7d8953b184dfe55b425a5a6b", "name": "92b8313d7d8953b184dfe55b425a5a6b", "rental_uris": {"ios": "https://dc.lft.to/lastmile_qr_scan", "android": "https://dc.lft.to/lastmile_qr_scan"}}, {"is_disabled": 0, "fusion_lat": 0.0, "lat": 38.91662733333333, "type": "electric_scooter", "lon": -77.04178633333333, "is_reserved": 0, "fusion_lon": 0.0, "bike_id": "5c4883f142eba3b1ec90fe9323ba7178", "name": "5c4883f142eba3b1ec90fe9323ba7178", "rental_uris": {"ios": "https://dc.lft.to/lastmile_qr_scan", "android": "https://dc.lft.to/lastmile_qr_scan"}}, {"is_disabled": 0, "fusion_lat": 0.0, "lat": 38.888568, "type": "electric_scooter", "lon": -77.00113366666666, "is_reserved": 0, "fusion_lon": 0.0, "bike_id": "3176d8e04c0f6f04b84e1eba0475563e", "name": "3176d8e04c0f6f04b84e1eba0475563e", "rental_uris": {"ios": "https://dc.lft.to/lastmile_qr_scan", "android": "https://dc.lft.to/lastmile_qr_scan"}}, {"is_disabled": 0, "fusion_lat": 0.0, "lat": 38.90698616666667, "type": "electric_scooter", "lon": -77.03475266666666, "is_reserved": 0, "fusion_lon": 0.0, "bike_id": "acb9fde0038ef619e43217b6b9a9f5c9", "name": "acb9fde0038ef619e43217b6b9a9f5c9", "rental_uris": {"ios": "https://dc.lft.to/lastmile_qr_scan", "android": "https://dc.lft.to/lastmile_qr_scan"}}, {"is_disabled": 0, "fusion_lat": 0.0, "lat": 38.92366883333333, "type": "electric_scooter", "lon": -77.05758366666667, "is_reserved": 0, "fusion_lon": 0.0, "bike_id": "09bbfd3e8dd756691837fbfdacdf707f", "name": "09bbfd3e8dd756691837fbfdacdf707f", "rental_uris": {"ios": "https://dc.lft.to/lastmile_qr_scan", "android": "https://dc.lft.to/lastmile_qr_scan"}}, {"is_disabled": 0, "fusion_lat": 0.0, "lat": 38.914050333333336, "type": "electric_scooter", "lon": -77.03259683333333, "is_reserved": 0, "fusion_lon": 0.0, "bike_id": "15273566e6c32564c944832d2f5619eb", "name": "15273566e6c32564c944832d2f5619eb", "rental_uris": {"ios": "https://dc.lft.to/lastmile_qr_scan", "android": "https://dc.lft.to/lastmile_qr_scan"}}, {"is_disabled": 0, "fusion_lat": 0.0, "lat": 38.86422016666667, "type": "electric_scooter", "lon": -77.013511, "is_reserved": 0, "fusion_lon": 0.0, "bike_id": "2ab836c8c600fb5d9d80dcd982f504f7", "name": "2ab836c8c600fb5d9d80dcd982f504f7", "rental_uris": {"ios": "https://dc.lft.to/lastmile_qr_scan", "android": "https://dc.lft.to/lastmile_qr_scan"}}, {"is_disabled": 0, "fusion_lat": 0.0, "lat": 38.90180016666667, "type": "electric_scooter", "lon": -76.99999466666667, "is_reserved": 0, "fusion_lon": 0.0, "bike_id": "0829bc84c1fc3a90812a89072984c9bc", "name": "0829bc84c1fc3a90812a89072984c9bc", "rental_uris": {"ios": "https://dc.lft.to/lastmile_qr_scan", "android": "https://dc.lft.to/lastmile_qr_scan"}}, {"is_disabled": 0, "fusion_lat": 0.0, "lat": 38.884365, "type": "electric_scooter", "lon": -77.030376, "is_reserved": 0, "fusion_lon": 0.0, "bike_id": "66f21fe101695831beac45a6b7f07154", "name": "66f21fe101695831beac45a6b7f07154", "rental_uris": {"ios": "https://dc.lft.to/lastmile_qr_scan", "android": "https://dc.lft.to/lastmile_qr_scan"}}, {"is_disabled": 0, "fusion_lat": 0.0, "lat": 38.89467466666667, "type": "electric_scooter", "lon": -77.00062166666666, "is_reserved": 0, "fusion_lon": 0.0, "bike_id": "a810395630f9daa44f4e1c0a833e00c6", "name": "a810395630f9daa44f4e1c0a833e00c6", "rental_uris": {"ios": "https://dc.lft.to/lastmile_qr_scan", "android": "https://dc.lft.to/lastmile_qr_scan"}}, {"is_disabled": 0, "fusion_lat": 0.0, "lat": 38.900111, "type": "electric_scooter", "lon": -76.98678933333333, "is_reserved": 0, "fusion_lon": 0.0, "bike_id": "0df86447e2a2c7ce00ee5f6b7288cb90", "name": "0df86447e2a2c7ce00ee5f6b7288cb90", "rental_uris": {"ios": "https://dc.lft.to/lastmile_qr_scan", "android": "https://dc.lft.to/lastmile_qr_scan"}}, {"is_disabled": 0, "fusion_lat": 0.0, "lat": 38.903151666666666, "type": "electric_scooter", "lon": -77.03452216666666, "is_reserved": 0, "fusion_lon": 0.0, "bike_id": "6eaba930b6154903caf09dc53c955e4a", "name": "6eaba930b6154903caf09dc53c955e4a", "rental_uris": {"ios": "https://dc.lft.to/lastmile_qr_scan", "android": "https://dc.lft.to/lastmile_qr_scan"}}, {"is_disabled": 0, "fusion_lat": 0.0, "lat": 38.92583366666667, "type": "electric_scooter", "lon": -77.05758133333333, "is_reserved": 0, "fusion_lon": 0.0, "bike_id": "d5b13e53fa4bfddae927c975e5435049", "name": "d5b13e53fa4bfddae927c975e5435049", "rental_uris": {"ios": "https://dc.lft.to/lastmile_qr_scan", "android": "https://dc.lft.to/lastmile_qr_scan"}}, {"is_disabled": 0, "fusion_lat": 0.0, "lat": 38.91916766666667, "type": "electric_scooter", "lon": -77.03344066666666, "is_reserved": 0, "fusion_lon": 0.0, "bike_id": "03cc0ec54507352ca836b8107648461a", "name": "03cc0ec54507352ca836b8107648461a", "rental_uris": {"ios": "https://dc.lft.to/lastmile_qr_scan", "android": "https://dc.lft.to/lastmile_qr_scan"}}, {"is_disabled": 0, "fusion_lat": 0.0, "lat": 38.9018035, "type": "electric_scooter", "lon": -77.02541, "is_reserved": 0, "fusion_lon": 0.0, "bike_id": "90fb28d7292a0ec31716b173949884f9", "name": "90fb28d7292a0ec31716b173949884f9", "rental_uris": {"ios": "https://dc.lft.to/lastmile_qr_scan", "android": "https://dc.lft.to/lastmile_qr_scan"}}, {"is_disabled": 0, "fusion_lat": 0.0, "lat": 38.9228865, "type": "electric_scooter", "lon": -77.03198916666666, "is_reserved": 0, "fusion_lon": 0.0, "bike_id": "90fd3debf201fd049224c55d0e4b9a37", "name": "90fd3debf201fd049224c55d0e4b9a37", "rental_uris": {"ios": "https://dc.lft.to/lastmile_qr_scan", "android": "https://dc.lft.to/lastmile_qr_scan"}}, {"is_disabled": 0, "fusion_lat": 0.0, "lat": 38.948976333333334, "type": "electric_bike", "lon": -76.96366783333333, "is_reserved": 0, "fusion_lon": 0.0, "bike_id": "0cc2a5c2b163d63c75166e754e9ea091", "name": "0cc2a5c2b163d63c75166e754e9ea091", "rental_uris": {"ios": "https://dc.lft.to/lastmile_qr_scan", "android": "https://dc.lft.to/lastmile_qr_scan"}}, {"is_disabled": 0, "fusion_lat": 0.0, "lat": 38.88311916666667, "type": "electric_scooter", "lon": -77.0093405, "is_reserved": 0, "fusion_lon": 0.0, "bike_id": "be75908ca0e91bd6308dab6fe55b0482", "name": "be75908ca0e91bd6308dab6fe55b0482", "rental_uris": {"ios": "https://dc.lft.to/lastmile_qr_scan", "android": "https://dc.lft.to/lastmile_qr_scan"}}, {"is_disabled": 0, "fusion_lat": 0.0, "lat": 38.875303, "type": "electric_scooter", "lon": -77.00048016666666, "is_reserved": 0, "fusion_lon": 0.0, "bike_id": "724c17cbc99cbabebe45478b2a289c98", "name": "724c17cbc99cbabebe45478b2a289c98", "rental_uris": {"ios": "https://dc.lft.to/lastmile_qr_scan", "android": "https://dc.lft.to/lastmile_qr_scan"}}, {"is_disabled": 0, "fusion_lat": 0.0, "lat": 38.892505166666666, "type": "electric_scooter", "lon": -76.9432865, "is_reserved": 0, "fusion_lon": 0.0, "bike_id": "14096d98f90d5cbb70a0cb9a4539c7da", "name": "14096d98f90d5cbb70a0cb9a4539c7da", "rental_uris": {"ios": "https://dc.lft.to/lastmile_qr_scan", "android": "https://dc.lft.to/lastmile_qr_scan"}}, {"is_disabled": 0, "fusion_lat": 0.0, "lat": 38.898843666666664, "type": "electric_scooter", "lon": -77.0327225, "is_reserved": 0, "fusion_lon": 0.0, "bike_id": "aa538fda17b052511eb9b14f645cb726", "name": "aa538fda17b052511eb9b14f645cb726", "rental_uris": {"ios": "https://dc.lft.to/lastmile_qr_scan", "android": "https://dc.lft.to/lastmile_qr_scan"}}, {"is_disabled": 0, "fusion_lat": 0.0, "lat": 38.90006616666667, "type": "electric_scooter", "lon": -77.005931, "is_reserved": 0, "fusion_lon": 0.0, "bike_id": "dfcf990ab78b153fe198071a37c3032b", "name": "dfcf990ab78b153fe198071a37c3032b", "rental_uris": {"ios": "https://dc.lft.to/lastmile_qr_scan", "android": "https://dc.lft.to/lastmile_qr_scan"}}, {"is_disabled": 0, "fusion_lat": 0.0, "lat": 38.9161725, "type": "electric_scooter", "lon": -77.02710816666666, "is_reserved": 0, "fusion_lon": 0.0, "bike_id": "7fcec6a91420a3f1581463260e8e6fde", "name": "7fcec6a91420a3f1581463260e8e6fde", "rental_uris": {"ios": "https://dc.lft.to/lastmile_qr_scan", "android": "https://dc.lft.to/lastmile_qr_scan"}}, {"is_disabled": 0, "fusion_lat": 0.0, "lat": 38.92149283333333, "type": "electric_scooter", "lon": -77.03869466666667, "is_reserved": 0, "fusion_lon": 0.0, "bike_id": "1a6a9ed43bd456915034b736487392a0", "name": "1a6a9ed43bd456915034b736487392a0", "rental_uris": {"ios": "https://dc.lft.to/lastmile_qr_scan", "android": "https://dc.lft.to/lastmile_qr_scan"}}, {"is_disabled": 0, "fusion_lat": 0.0, "lat": 38.8714525, "type": "electric_bike", "lon": -76.93661916666667, "is_reserved": 0, "fusion_lon": 0.0, "bike_id": "2ff8249fe7506aa8bd0664a1a7e78e5c", "name": "2ff8249fe7506aa8bd0664a1a7e78e5c", "rental_uris": {"ios": "https://dc.lft.to/lastmile_qr_scan", "android": "https://dc.lft.to/lastmile_qr_scan"}}, {"is_disabled": 0, "fusion_lat": 0.0, "lat": 38.938319166666666, "type": "electric_bike", "lon": -77.03287266666666, "is_reserved": 0, "fusion_lon": 0.0, "bike_id": "1a1b261800e743d9a86f582810b9e782", "name": "1a1b261800e743d9a86f582810b9e782", "rental_uris": {"ios": "https://dc.lft.to/lastmile_qr_scan", "android": "https://dc.lft.to/lastmile_qr_scan"}}, {"is_disabled": 0, "fusion_lat": 0.0, "lat": 38.90371783333333, "type": "electric_scooter", "lon": -77.038773, "is_reserved": 0, "fusion_lon": 0.0, "bike_id": "4ed75784145bbebf2daab1e7b02a8611", "name": "4ed75784145bbebf2daab1e7b02a8611", "rental_uris": {"ios": "https://dc.lft.to/lastmile_qr_scan", "android": "https://dc.lft.to/lastmile_qr_scan"}}, {"is_disabled": 0, "fusion_lat": 0.0, "lat": 38.88456466666667, "type": "electric_scooter", "lon": -77.005794, "is_reserved": 0, "fusion_lon": 0.0, "bike_id": "6b805069c03df03fe7e750c2f34b20e0", "name": "6b805069c03df03fe7e750c2f34b20e0", "rental_uris": {"ios": "https://dc.lft.to/lastmile_qr_scan", "android": "https://dc.lft.to/lastmile_qr_scan"}}, {"is_disabled": 0, "fusion_lat": 0.0, "lat": 38.953571333333336, "type": "electric_bike", "lon": -76.98090483333333, "is_reserved": 0, "fusion_lon": 0.0, "bike_id": "6e5173eca9f334aa3074424bd6e97a09", "name": "6e5173eca9f334aa3074424bd6e97a09", "rental_uris": {"ios": "https://dc.lft.to/lastmile_qr_scan", "android": "https://dc.lft.to/lastmile_qr_scan"}}, {"is_disabled": 0, "fusion_lat": 0.0, "lat": 38.9014135, "type": "electric_scooter", "lon": -76.99791966666666, "is_reserved": 0, "fusion_lon": 0.0, "bike_id": "e56599dddde90135db7df9111fa3a516", "name": "e56599dddde90135db7df9111fa3a516", "rental_uris": {"ios": "https://dc.lft.to/lastmile_qr_scan", "android": "https://dc.lft.to/lastmile_qr_scan"}}, {"is_disabled": 0, "fusion_lat": 0.0, "lat": 38.9480095, "type": "electric_bike", "lon": -77.0081225, "is_reserved": 0, "fusion_lon": 0.0, "bike_id": "4c4e964d71898e32615722e6b12fb3dc", "name": "4c4e964d71898e32615722e6b12fb3dc", "rental_uris": {"ios": "https://dc.lft.to/lastmile_qr_scan", "android": "https://dc.lft.to/lastmile_qr_scan"}}, {"is_disabled": 0, "fusion_lat": 0.0, "lat": 38.92052733333333, "type": "electric_scooter", "lon": -77.024321, "is_reserved": 0, "fusion_lon": 0.0, "bike_id": "37f58d3e12f3522f9170487b9c73b95e", "name": "37f58d3e12f3522f9170487b9c73b95e", "rental_uris": {"ios": "https://dc.lft.to/lastmile_qr_scan", "android": "https://dc.lft.to/lastmile_qr_scan"}}, {"is_disabled": 0, "fusion_lat": 0.0, "lat": 38.91268683333333, "type": "electric_scooter", "lon": -77.04164333333334, "is_reserved": 0, "fusion_lon": 0.0, "bike_id": "de22e8c474550b77d1868aaef59a57ea", "name": "de22e8c474550b77d1868aaef59a57ea", "rental_uris": {"ios": "https://dc.lft.to/lastmile_qr_scan", "android": "https://dc.lft.to/lastmile_qr_scan"}}, {"is_disabled": 0, "fusion_lat": 0.0, "lat": 38.90852616666667, "type": "electric_scooter", "lon": -77.02448716666666, "is_reserved": 0, "fusion_lon": 0.0, "bike_id": "20c0336f469b0dc5bf017eaf280a26d5", "name": "20c0336f469b0dc5bf017eaf280a26d5", "rental_uris": {"ios": "https://dc.lft.to/lastmile_qr_scan", "android": "https://dc.lft.to/lastmile_qr_scan"}}, {"is_disabled": 0, "fusion_lat": 0.0, "lat": 38.901349833333335, "type": "electric_scooter", "lon": -77.02367433333333, "is_reserved": 0, "fusion_lon": 0.0, "bike_id": "ce5a22a4b84530169cdebc1123a8bfbf", "name": "ce5a22a4b84530169cdebc1123a8bfbf", "rental_uris": {"ios": "https://dc.lft.to/lastmile_qr_scan", "android": "https://dc.lft.to/lastmile_qr_scan"}}, {"is_disabled": 0, "fusion_lat": 0.0, "lat": 38.8961695, "type": "electric_scooter", "lon": -76.99408716666667, "is_reserved": 0, "fusion_lon": 0.0, "bike_id": "1f03f22675f55b0611de6c5d581513fa", "name": "1f03f22675f55b0611de6c5d581513fa", "rental_uris": {"ios": "https://dc.lft.to/lastmile_qr_scan", "android": "https://dc.lft.to/lastmile_qr_scan"}}, {"is_disabled": 0, "fusion_lat": 0.0, "lat": 38.92233266666667, "type": "electric_scooter", "lon": -77.033445, "is_reserved": 0, "fusion_lon": 0.0, "bike_id": "3a1fb0cc01b957ea9eb2c8bb63ea475e", "name": "3a1fb0cc01b957ea9eb2c8bb63ea475e", "rental_uris": {"ios": "https://dc.lft.to/lastmile_qr_scan", "android": "https://dc.lft.to/lastmile_qr_scan"}}, {"is_disabled": 0, "fusion_lat": 0.0, "lat": 38.92681, "type": "electric_scooter", "lon": -77.09560166666667, "is_reserved": 0, "fusion_lon": 0.0, "bike_id": "0083a40521b221057fd6be34576c924f", "name": "0083a40521b221057fd6be34576c924f", "rental_uris": {"ios": "https://dc.lft.to/lastmile_qr_scan", "android": "https://dc.lft.to/lastmile_qr_scan"}}, {"is_disabled": 0, "fusion_lat": 0.0, "lat": 38.905514333333336, "type": "electric_scooter", "lon": -77.03834583333334, "is_reserved": 0, "fusion_lon": 0.0, "bike_id": "5f260e73187c74623d56b4ce18f3b85b", "name": "5f260e73187c74623d56b4ce18f3b85b", "rental_uris": {"ios": "https://dc.lft.to/lastmile_qr_scan", "android": "https://dc.lft.to/lastmile_qr_scan"}}, {"is_disabled": 0, "fusion_lat": 0.0, "lat": 38.91478766666667, "type": "electric_bike", "lon": -76.98369366666667, "is_reserved": 0, "fusion_lon": 0.0, "bike_id": "d5d6a3b725b5269ba138f851cab06080", "name": "d5d6a3b725b5269ba138f851cab06080", "rental_uris": {"ios": "https://dc.lft.to/lastmile_qr_scan", "android": "https://dc.lft.to/lastmile_qr_scan"}}, {"is_disabled": 0, "fusion_lat": 0.0, "lat": 38.9297725, "type": "electric_scooter", "lon": -77.02816016666667, "is_reserved": 0, "fusion_lon": 0.0, "bike_id": "00dbba8dd862344e5d00359740666210", "name": "00dbba8dd862344e5d00359740666210", "rental_uris": {"ios": "https://dc.lft.to/lastmile_qr_scan", "android": "https://dc.lft.to/lastmile_qr_scan"}}, {"is_disabled": 0, "fusion_lat": 0.0, "lat": 38.928030166666666, "type": "electric_scooter", "lon": -77.03661116666666, "is_reserved": 0, "fusion_lon": 0.0, "bike_id": "35eff36915aeb1b0f73cb15213712c7d", "name": "35eff36915aeb1b0f73cb15213712c7d", "rental_uris": {"ios": "https://dc.lft.to/lastmile_qr_scan", "android": "https://dc.lft.to/lastmile_qr_scan"}}, {"is_disabled": 0, "fusion_lat": 0.0, "lat": 38.89953766666667, "type": "electric_scooter", "lon": -77.04777683333333, "is_reserved": 0, "fusion_lon": 0.0, "bike_id": "ac51d95ad652cd35cfce99b81b2f19b1", "name": "ac51d95ad652cd35cfce99b81b2f19b1", "rental_uris": {"ios": "https://dc.lft.to/lastmile_qr_scan", "android": "https://dc.lft.to/lastmile_qr_scan"}}, {"is_disabled": 0, "fusion_lat": 0.0, "lat": 38.882009, "type": "electric_scooter", "lon": -77.00596366666667, "is_reserved": 0, "fusion_lon": 0.0, "bike_id": "6f68d19e059701de2441f9e8bf583dc7", "name": "6f68d19e059701de2441f9e8bf583dc7", "rental_uris": {"ios": "https://dc.lft.to/lastmile_qr_scan", "android": "https://dc.lft.to/lastmile_qr_scan"}}, {"is_disabled": 0, "fusion_lat": 0.0, "lat": 38.943362, "type": "electric_scooter", "lon": -77.03261683333334, "is_reserved": 0, "fusion_lon": 0.0, "bike_id": "c0280355d1864d1feb03143f71ebe2b8", "name": "c0280355d1864d1feb03143f71ebe2b8", "rental_uris": {"ios": "https://dc.lft.to/lastmile_qr_scan", "android": "https://dc.lft.to/lastmile_qr_scan"}}, {"is_disabled": 0, "fusion_lat": 0.0, "lat": 38.892367, "type": "electric_scooter", "lon": -77.02204066666667, "is_reserved": 0, "fusion_lon": 0.0, "bike_id": "893390cee3c81c47ac858aae98fb3270", "name": "893390cee3c81c47ac858aae98fb3270", "rental_uris": {"ios": "https://dc.lft.to/lastmile_qr_scan", "android": "https://dc.lft.to/lastmile_qr_scan"}}, {"is_disabled": 0, "fusion_lat": 0.0, "lat": 38.936156, "type": "electric_scooter", "lon": -77.0571705, "is_reserved": 0, "fusion_lon": 0.0, "bike_id": "cee13dc63605b5f6b5b1ecaff8b73ca5", "name": "cee13dc63605b5f6b5b1ecaff8b73ca5", "rental_uris": {"ios": "https://dc.lft.to/lastmile_qr_scan", "android": "https://dc.lft.to/lastmile_qr_scan"}}, {"is_disabled": 0, "fusion_lat": 0.0, "lat": 38.920764166666665, "type": "electric_scooter", "lon": -77.04206716666667, "is_reserved": 0, "fusion_lon": 0.0, "bike_id": "9c3a2cd4644a69f29b0f32b5300645ca", "name": "9c3a2cd4644a69f29b0f32b5300645ca", "rental_uris": {"ios": "https://dc.lft.to/lastmile_qr_scan", "android": "https://dc.lft.to/lastmile_qr_scan"}}, {"is_disabled": 0, "fusion_lat": 0.0, "lat": 38.913364333333334, "type": "electric_scooter", "lon": -77.0105295, "is_reserved": 0, "fusion_lon": 0.0, "bike_id": "25813c4ae97b79c8c92c2b610ab9bdbc", "name": "25813c4ae97b79c8c92c2b610ab9bdbc", "rental_uris": {"ios": "https://dc.lft.to/lastmile_qr_scan", "android": "https://dc.lft.to/lastmile_qr_scan"}}, {"is_disabled": 0, "fusion_lat": 0.0, "lat": 38.891998, "type": "electric_scooter", "lon": -77.0237975, "is_reserved": 0, "fusion_lon": 0.0, "bike_id": "49cda31dd4ddb06d02d90e43be56c5ec", "name": "49cda31dd4ddb06d02d90e43be56c5ec", "rental_uris": {"ios": "https://dc.lft.to/lastmile_qr_scan", "android": "https://dc.lft.to/lastmile_qr_scan"}}, {"is_disabled": 0, "fusion_lat": 0.0, "lat": 38.89453533333333, "type": "electric_bike", "lon": -76.97031183333333, "is_reserved": 0, "fusion_lon": 0.0, "bike_id": "628354c0027f935ace1408b345b83c74", "name": "628354c0027f935ace1408b345b83c74", "rental_uris": {"ios": "https://dc.lft.to/lastmile_qr_scan", "android": "https://dc.lft.to/lastmile_qr_scan"}}, {"is_disabled": 0, "fusion_lat": 0.0, "lat": 38.922571833333336, "type": "electric_scooter", "lon": -77.03406283333334, "is_reserved": 0, "fusion_lon": 0.0, "bike_id": "c965588c909dbd42f8973936dea809aa", "name": "c965588c909dbd42f8973936dea809aa", "rental_uris": {"ios": "https://dc.lft.to/lastmile_qr_scan", "android": "https://dc.lft.to/lastmile_qr_scan"}}, {"is_disabled": 0, "fusion_lat": 0.0, "lat": 38.92326933333333, "type": "electric_scooter", "lon": -77.0357905, "is_reserved": 0, "fusion_lon": 0.0, "bike_id": "de027ec5b87fb0cc09380bb0dc00e170", "name": "de027ec5b87fb0cc09380bb0dc00e170", "rental_uris": {"ios": "https://dc.lft.to/lastmile_qr_scan", "android": "https://dc.lft.to/lastmile_qr_scan"}}, {"is_disabled": 0, "fusion_lat": 0.0, "lat": 38.874788833333334, "type": "electric_scooter", "lon": -77.01068216666667, "is_reserved": 0, "fusion_lon": 0.0, "bike_id": "1ad2c2241374dfd442507aad5016569c", "name": "1ad2c2241374dfd442507aad5016569c", "rental_uris": {"ios": "https://dc.lft.to/lastmile_qr_scan", "android": "https://dc.lft.to/lastmile_qr_scan"}}, {"is_disabled": 0, "fusion_lat": 0.0, "lat": 38.876639, "type": "electric_scooter", "lon": -77.00423266666667, "is_reserved": 0, "fusion_lon": 0.0, "bike_id": "d850c8e1cd6d6e583a9dc022b41686d6", "name": "d850c8e1cd6d6e583a9dc022b41686d6", "rental_uris": {"ios": "https://dc.lft.to/lastmile_qr_scan", "android": "https://dc.lft.to/lastmile_qr_scan"}}, {"is_disabled": 0, "fusion_lat": 0.0, "lat": 38.864410166666666, "type": "electric_scooter", "lon": -76.97366566666666, "is_reserved": 0, "fusion_lon": 0.0, "bike_id": "69551158b87e74e49a34fb9d2b42f37f", "name": "69551158b87e74e49a34fb9d2b42f37f", "rental_uris": {"ios": "https://dc.lft.to/lastmile_qr_scan", "android": "https://dc.lft.to/lastmile_qr_scan"}}, {"is_disabled": 0, "fusion_lat": 0.0, "lat": 38.82264983333334, "type": "electric_bike", "lon": -77.0055405, "is_reserved": 0, "fusion_lon": 0.0, "bike_id": "9e8ca82aaf568bde255e5c03979c14a2", "name": "9e8ca82aaf568bde255e5c03979c14a2", "rental_uris": {"ios": "https://dc.lft.to/lastmile_qr_scan", "android": "https://dc.lft.to/lastmile_qr_scan"}}, {"is_disabled": 0, "fusion_lat": 0.0, "lat": 38.89229566666667, "type": "electric_scooter", "lon": -77.0265005, "is_reserved": 0, "fusion_lon": 0.0, "bike_id": "e46d5dcb60a6bc13ca5e04530c86b966", "name": "e46d5dcb60a6bc13ca5e04530c86b966", "rental_uris": {"ios": "https://dc.lft.to/lastmile_qr_scan", "android": "https://dc.lft.to/lastmile_qr_scan"}}, {"is_disabled": 0, "fusion_lat": 0.0, "lat": 38.90812283333333, "type": "electric_scooter", "lon": -76.99843266666667, "is_reserved": 0, "fusion_lon": 0.0, "bike_id": "696dde175694e7a75ef8e185de78bd9f", "name": "696dde175694e7a75ef8e185de78bd9f", "rental_uris": {"ios": "https://dc.lft.to/lastmile_qr_scan", "android": "https://dc.lft.to/lastmile_qr_scan"}}, {"is_disabled": 0, "fusion_lat": 0.0, "lat": 38.911068666666665, "type": "electric_scooter", "lon": -77.02414983333334, "is_reserved": 0, "fusion_lon": 0.0, "bike_id": "84bc160a690406f49ed36494af15198d", "name": "84bc160a690406f49ed36494af15198d", "rental_uris": {"ios": "https://dc.lft.to/lastmile_qr_scan", "android": "https://dc.lft.to/lastmile_qr_scan"}}, {"is_disabled": 0, "fusion_lat": 0.0, "lat": 38.899791, "type": "electric_scooter", "lon": -77.051702, "is_reserved": 0, "fusion_lon": 0.0, "bike_id": "8b30f948116629955a00b736053658f6", "name": "8b30f948116629955a00b736053658f6", "rental_uris": {"ios": "https://dc.lft.to/lastmile_qr_scan", "android": "https://dc.lft.to/lastmile_qr_scan"}}, {"is_disabled": 0, "fusion_lat": 0.0, "lat": 38.926383333333334, "type": "electric_scooter", "lon": -77.037891, "is_reserved": 0, "fusion_lon": 0.0, "bike_id": "01a49c8a2cb9695fe256b849646dd731", "name": "01a49c8a2cb9695fe256b849646dd731", "rental_uris": {"ios": "https://dc.lft.to/lastmile_qr_scan", "android": "https://dc.lft.to/lastmile_qr_scan"}}, {"is_disabled": 0, "fusion_lat": 0.0, "lat": 38.8926545, "type": "electric_scooter", "lon": -76.9415815, "is_reserved": 0, "fusion_lon": 0.0, "bike_id": "4052e5f7d8749263511ec0bf569c9866", "name": "4052e5f7d8749263511ec0bf569c9866", "rental_uris": {"ios": "https://dc.lft.to/lastmile_qr_scan", "android": "https://dc.lft.to/lastmile_qr_scan"}}, {"is_disabled": 0, "fusion_lat": 0.0, "lat": 38.905749, "type": "electric_scooter", "lon": -77.02983533333334, "is_reserved": 0, "fusion_lon": 0.0, "bike_id": "2369b5b5fa53e2e352e0d3261ec07d79", "name": "2369b5b5fa53e2e352e0d3261ec07d79", "rental_uris": {"ios": "https://dc.lft.to/lastmile_qr_scan", "android": "https://dc.lft.to/lastmile_qr_scan"}}, {"is_disabled": 0, "fusion_lat": 0.0, "lat": 38.932877166666664, "type": "electric_scooter", "lon": -77.03278966666667, "is_reserved": 0, "fusion_lon": 0.0, "bike_id": "013a6a3e8d9eab8970bf6d6a3e69d8fa", "name": "013a6a3e8d9eab8970bf6d6a3e69d8fa", "rental_uris": {"ios": "https://dc.lft.to/lastmile_qr_scan", "android": "https://dc.lft.to/lastmile_qr_scan"}}, {"is_disabled": 0, "fusion_lat": 0.0, "lat": 38.91411333333333, "type": "electric_scooter", "lon": -77.01279333333333, "is_reserved": 0, "fusion_lon": 0.0, "bike_id": "f85570adbb8128031a41b987ae34905d", "name": "f85570adbb8128031a41b987ae34905d", "rental_uris": {"ios": "https://dc.lft.to/lastmile_qr_scan", "android": "https://dc.lft.to/lastmile_qr_scan"}}, {"is_disabled": 0, "fusion_lat": 0.0, "lat": 38.89228, "type": "electric_scooter", "lon": -77.04653566666667, "is_reserved": 0, "fusion_lon": 0.0, "bike_id": "24466928c64cea82a69838886788968f", "name": "24466928c64cea82a69838886788968f", "rental_uris": {"ios": "https://dc.lft.to/lastmile_qr_scan", "android": "https://dc.lft.to/lastmile_qr_scan"}}, {"is_disabled": 0, "fusion_lat": 0.0, "lat": 38.90264533333333, "type": "electric_scooter", "lon": -77.0214415, "is_reserved": 0, "fusion_lon": 0.0, "bike_id": "94e6c1ed7430524e773ec195b1e25f11", "name": "94e6c1ed7430524e773ec195b1e25f11", "rental_uris": {"ios": "https://dc.lft.to/lastmile_qr_scan", "android": "https://dc.lft.to/lastmile_qr_scan"}}, {"is_disabled": 0, "fusion_lat": 0.0, "lat": 38.914568333333335, "type": "electric_scooter", "lon": -77.04618883333333, "is_reserved": 0, "fusion_lon": 0.0, "bike_id": "59ce283ce696ca9b8aec99510fd8c535", "name": "59ce283ce696ca9b8aec99510fd8c535", "rental_uris": {"ios": "https://dc.lft.to/lastmile_qr_scan", "android": "https://dc.lft.to/lastmile_qr_scan"}}, {"is_disabled": 0, "fusion_lat": 0.0, "lat": 38.915492666666665, "type": "electric_scooter", "lon": -77.04156383333333, "is_reserved": 0, "fusion_lon": 0.0, "bike_id": "aa4600b1f9a9d3f1141a051985520710", "name": "aa4600b1f9a9d3f1141a051985520710", "rental_uris": {"ios": "https://dc.lft.to/lastmile_qr_scan", "android": "https://dc.lft.to/lastmile_qr_scan"}}, {"is_disabled": 0, "fusion_lat": 0.0, "lat": 38.925555333333335, "type": "electric_bike", "lon": -77.0013495, "is_reserved": 0, "fusion_lon": 0.0, "bike_id": "c6bf1e846a2ad01eabb13c29c2ea3ab3", "name": "c6bf1e846a2ad01eabb13c29c2ea3ab3", "rental_uris": {"ios": "https://dc.lft.to/lastmile_qr_scan", "android": "https://dc.lft.to/lastmile_qr_scan"}}, {"is_disabled": 0, "fusion_lat": 0.0, "lat": 38.902527666666664, "type": "electric_scooter", "lon": -77.0458175, "is_reserved": 0, "fusion_lon": 0.0, "bike_id": "0d8a3a2f04fe461079382bf8421bec9f", "name": "0d8a3a2f04fe461079382bf8421bec9f", "rental_uris": {"ios": "https://dc.lft.to/lastmile_qr_scan", "android": "https://dc.lft.to/lastmile_qr_scan"}}, {"is_disabled": 0, "fusion_lat": 0.0, "lat": 38.9169095, "type": "electric_scooter", "lon": -77.03870666666667, "is_reserved": 0, "fusion_lon": 0.0, "bike_id": "94db3e80dbdf6d12e4b8c2878114012a", "name": "94db3e80dbdf6d12e4b8c2878114012a", "rental_uris": {"ios": "https://dc.lft.to/lastmile_qr_scan", "android": "https://dc.lft.to/lastmile_qr_scan"}}, {"is_disabled": 0, "fusion_lat": 0.0, "lat": 38.925716666666666, "type": "electric_scooter", "lon": -77.05269466666667, "is_reserved": 0, "fusion_lon": 0.0, "bike_id": "8b5a3e11cf93f1deeac87ecc6e3c3236", "name": "8b5a3e11cf93f1deeac87ecc6e3c3236", "rental_uris": {"ios": "https://dc.lft.to/lastmile_qr_scan", "android": "https://dc.lft.to/lastmile_qr_scan"}}, {"is_disabled": 0, "fusion_lat": 0.0, "lat": 38.863692666666665, "type": "electric_bike", "lon": -76.970073, "is_reserved": 0, "fusion_lon": 0.0, "bike_id": "9cb6c2be525fce2c4a5a7dcb204891f3", "name": "9cb6c2be525fce2c4a5a7dcb204891f3", "rental_uris": {"ios": "https://dc.lft.to/lastmile_qr_scan", "android": "https://dc.lft.to/lastmile_qr_scan"}}, {"is_disabled": 0, "fusion_lat": 0.0, "lat": 38.850565333333336, "type": "electric_bike", "lon": -76.97326366666667, "is_reserved": 0, "fusion_lon": 0.0, "bike_id": "9893adae73fedca534958a91452b5786", "name": "9893adae73fedca534958a91452b5786", "rental_uris": {"ios": "https://dc.lft.to/lastmile_qr_scan", "android": "https://dc.lft.to/lastmile_qr_scan"}}, {"is_disabled": 0, "fusion_lat": 0.0, "lat": 38.940204333333334, "type": "electric_scooter", "lon": -77.07170516666666, "is_reserved": 0, "fusion_lon": 0.0, "bike_id": "2d8b7f6e074cc767e8da5d93ffd05955", "name": "2d8b7f6e074cc767e8da5d93ffd05955", "rental_uris": {"ios": "https://dc.lft.to/lastmile_qr_scan", "android": "https://dc.lft.to/lastmile_qr_scan"}}, {"is_disabled": 0, "fusion_lat": 0.0, "lat": 38.89887866666667, "type": "electric_scooter", "lon": -76.93175683333334, "is_reserved": 0, "fusion_lon": 0.0, "bike_id": "5c96a60075f904f1597d582ed54f0ed6", "name": "5c96a60075f904f1597d582ed54f0ed6", "rental_uris": {"ios": "https://dc.lft.to/lastmile_qr_scan", "android": "https://dc.lft.to/lastmile_qr_scan"}}, {"is_disabled": 0, "fusion_lat": 0.0, "lat": 38.92065633333333, "type": "electric_scooter", "lon": -77.04377383333333, "is_reserved": 0, "fusion_lon": 0.0, "bike_id": "4dc0e22cc48c32f0228c478e834c0fc5", "name": "4dc0e22cc48c32f0228c478e834c0fc5", "rental_uris": {"ios": "https://dc.lft.to/lastmile_qr_scan", "android": "https://dc.lft.to/lastmile_qr_scan"}}, {"is_disabled": 0, "fusion_lat": 0.0, "lat": 38.88499916666667, "type": "electric_scooter", "lon": -77.00898333333333, "is_reserved": 0, "fusion_lon": 0.0, "bike_id": "4a0ae6ec434dbd23cee883483cc6d142", "name": "4a0ae6ec434dbd23cee883483cc6d142", "rental_uris": {"ios": "https://dc.lft.to/lastmile_qr_scan", "android": "https://dc.lft.to/lastmile_qr_scan"}}, {"is_disabled": 0, "fusion_lat": 0.0, "lat": 38.923306833333335, "type": "electric_scooter", "lon": -77.05675116666667, "is_reserved": 0, "fusion_lon": 0.0, "bike_id": "39871ac0c082d87cd9e4f3bc97d80dc0", "name": "39871ac0c082d87cd9e4f3bc97d80dc0", "rental_uris": {"ios": "https://dc.lft.to/lastmile_qr_scan", "android": "https://dc.lft.to/lastmile_qr_scan"}}, {"is_disabled": 0, "fusion_lat": 0.0, "lat": 38.861666166666666, "type": "electric_bike", "lon": -76.95066033333333, "is_reserved": 0, "fusion_lon": 0.0, "bike_id": "ae63e71973bc271ac2ab820854518224", "name": "ae63e71973bc271ac2ab820854518224", "rental_uris": {"ios": "https://dc.lft.to/lastmile_qr_scan", "android": "https://dc.lft.to/lastmile_qr_scan"}}, {"is_disabled": 0, "fusion_lat": 0.0, "lat": 38.956481, "type": "electric_bike", "lon": -77.0225125, "is_reserved": 0, "fusion_lon": 0.0, "bike_id": "c5c0f4b660f98d4a006c85f5f9086a51", "name": "c5c0f4b660f98d4a006c85f5f9086a51", "rental_uris": {"ios": "https://dc.lft.to/lastmile_qr_scan", "android": "https://dc.lft.to/lastmile_qr_scan"}}, {"is_disabled": 0, "fusion_lat": 0.0, "lat": 38.92451466666667, "type": "electric_scooter", "lon": -77.04117266666667, "is_reserved": 0, "fusion_lon": 0.0, "bike_id": "81babe85237b083323716646d43592ff", "name": "81babe85237b083323716646d43592ff", "rental_uris": {"ios": "https://dc.lft.to/lastmile_qr_scan", "android": "https://dc.lft.to/lastmile_qr_scan"}}, {"is_disabled": 0, "fusion_lat": 0.0, "lat": 38.89535083333333, "type": "electric_scooter", "lon": -76.948905, "is_reserved": 0, "fusion_lon": 0.0, "bike_id": "75311f96a5c101feb6c6703d84947a5c", "name": "75311f96a5c101feb6c6703d84947a5c", "rental_uris": {"ios": "https://dc.lft.to/lastmile_qr_scan", "android": "https://dc.lft.to/lastmile_qr_scan"}}, {"is_disabled": 0, "fusion_lat": 0.0, "lat": 38.892512333333336, "type": "electric_scooter", "lon": -77.03955383333333, "is_reserved": 0, "fusion_lon": 0.0, "bike_id": "84d5e3d4449e5b54d95db798989c1d09", "name": "84d5e3d4449e5b54d95db798989c1d09", "rental_uris": {"ios": "https://dc.lft.to/lastmile_qr_scan", "android": "https://dc.lft.to/lastmile_qr_scan"}}, {"is_disabled": 0, "fusion_lat": 0.0, "lat": 38.9170815, "type": "electric_scooter", "lon": -77.03125716666666, "is_reserved": 0, "fusion_lon": 0.0, "bike_id": "b07db7fd714a603ea9ed628858bc2378", "name": "b07db7fd714a603ea9ed628858bc2378", "rental_uris": {"ios": "https://dc.lft.to/lastmile_qr_scan", "android": "https://dc.lft.to/lastmile_qr_scan"}}, {"is_disabled": 0, "fusion_lat": 0.0, "lat": 38.928471, "type": "electric_scooter", "lon": -77.05433866666667, "is_reserved": 0, "fusion_lon": 0.0, "bike_id": "40e43c78c3e86988e04c6410c8c0dbb4", "name": "40e43c78c3e86988e04c6410c8c0dbb4", "rental_uris": {"ios": "https://dc.lft.to/lastmile_qr_scan", "android": "https://dc.lft.to/lastmile_qr_scan"}}, {"is_disabled": 0, "fusion_lat": 0.0, "lat": 38.923775, "type": "electric_scooter", "lon": -77.03534433333333, "is_reserved": 0, "fusion_lon": 0.0, "bike_id": "4b0b10f83f9cf2125f3eaa3ad6324b2b", "name": "4b0b10f83f9cf2125f3eaa3ad6324b2b", "rental_uris": {"ios": "https://dc.lft.to/lastmile_qr_scan", "android": "https://dc.lft.to/lastmile_qr_scan"}}, {"is_disabled": 0, "fusion_lat": 0.0, "lat": 38.9119435, "type": "electric_scooter", "lon": -77.0609445, "is_reserved": 0, "fusion_lon": 0.0, "bike_id": "2e1cc8d887a2d2d6dd6649be6a31f41d", "name": "2e1cc8d887a2d2d6dd6649be6a31f41d", "rental_uris": {"ios": "https://dc.lft.to/lastmile_qr_scan", "android": "https://dc.lft.to/lastmile_qr_scan"}}, {"is_disabled": 0, "fusion_lat": 0.0, "lat": 38.89609466666667, "type": "electric_scooter", "lon": -77.04790216666666, "is_reserved": 0, "fusion_lon": 0.0, "bike_id": "177b6e2f975cc3d11f4949829844a334", "name": "177b6e2f975cc3d11f4949829844a334", "rental_uris": {"ios": "https://dc.lft.to/lastmile_qr_scan", "android": "https://dc.lft.to/lastmile_qr_scan"}}, {"is_disabled": 0, "fusion_lat": 0.0, "lat": 38.923201666666664, "type": "electric_scooter", "lon": -77.0475745, "is_reserved": 0, "fusion_lon": 0.0, "bike_id": "a68b9eef932611e7d74567285cebf618", "name": "a68b9eef932611e7d74567285cebf618", "rental_uris": {"ios": "https://dc.lft.to/lastmile_qr_scan", "android": "https://dc.lft.to/lastmile_qr_scan"}}, {"is_disabled": 0, "fusion_lat": 0.0, "lat": 38.87662983333333, "type": "electric_scooter", "lon": -77.00428, "is_reserved": 0, "fusion_lon": 0.0, "bike_id": "1928bd447c992c3d632680b90aff0612", "name": "1928bd447c992c3d632680b90aff0612", "rental_uris": {"ios": "https://dc.lft.to/lastmile_qr_scan", "android": "https://dc.lft.to/lastmile_qr_scan"}}, {"is_disabled": 0, "fusion_lat": 0.0, "lat": 38.903994833333336, "type": "electric_scooter", "lon": -77.0206915, "is_reserved": 0, "fusion_lon": 0.0, "bike_id": "e9230b7f8a533814f1544d623746f27f", "name": "e9230b7f8a533814f1544d623746f27f", "rental_uris": {"ios": "https://dc.lft.to/lastmile_qr_scan", "android": "https://dc.lft.to/lastmile_qr_scan"}}, {"is_disabled": 0, "fusion_lat": 0.0, "lat": 38.910556666666665, "type": "electric_scooter", "lon": -77.02197666666666, "is_reserved": 0, "fusion_lon": 0.0, "bike_id": "45e0d6764413ef0612e3a7a0b619a60f", "name": "45e0d6764413ef0612e3a7a0b619a60f", "rental_uris": {"ios": "https://dc.lft.to/lastmile_qr_scan", "android": "https://dc.lft.to/lastmile_qr_scan"}}, {"is_disabled": 0, "fusion_lat": 0.0, "lat": 38.960276666666665, "type": "electric_scooter", "lon": -77.02825916666667, "is_reserved": 0, "fusion_lon": 0.0, "bike_id": "3d08fe19800d27a4e873d3c3c6b03d50", "name": "3d08fe19800d27a4e873d3c3c6b03d50", "rental_uris": {"ios": "https://dc.lft.to/lastmile_qr_scan", "android": "https://dc.lft.to/lastmile_qr_scan"}}, {"is_disabled": 0, "fusion_lat": 0.0, "lat": 38.906755, "type": "electric_scooter", "lon": -77.0006555, "is_reserved": 0, "fusion_lon": 0.0, "bike_id": "1183661fca1dd85fcae26446aed2387a", "name": "1183661fca1dd85fcae26446aed2387a", "rental_uris": {"ios": "https://dc.lft.to/lastmile_qr_scan", "android": "https://dc.lft.to/lastmile_qr_scan"}}, {"is_disabled": 0, "fusion_lat": 0.0, "lat": 38.90414083333334, "type": "electric_scooter", "lon": -77.03264883333334, "is_reserved": 0, "fusion_lon": 0.0, "bike_id": "b58a98a2a5d8327faf481a526b5e554f", "name": "b58a98a2a5d8327faf481a526b5e554f", "rental_uris": {"ios": "https://dc.lft.to/lastmile_qr_scan", "android": "https://dc.lft.to/lastmile_qr_scan"}}, {"is_disabled": 0, "fusion_lat": 0.0, "lat": 38.89741016666667, "type": "electric_scooter", "lon": -77.04506216666667, "is_reserved": 0, "fusion_lon": 0.0, "bike_id": "caf0dc8274ee230f41dbf4e646d46be7", "name": "caf0dc8274ee230f41dbf4e646d46be7", "rental_uris": {"ios": "https://dc.lft.to/lastmile_qr_scan", "android": "https://dc.lft.to/lastmile_qr_scan"}}, {"is_disabled": 0, "fusion_lat": 0.0, "lat": 38.91276833333333, "type": "electric_scooter", "lon": -77.016837, "is_reserved": 0, "fusion_lon": 0.0, "bike_id": "45a990181015c96bcabb92e68243c00d", "name": "45a990181015c96bcabb92e68243c00d", "rental_uris": {"ios": "https://dc.lft.to/lastmile_qr_scan", "android": "https://dc.lft.to/lastmile_qr_scan"}}, {"is_disabled": 0, "fusion_lat": 0.0, "lat": 38.91209383333333, "type": "electric_scooter", "lon": -77.00358583333333, "is_reserved": 0, "fusion_lon": 0.0, "bike_id": "520ad5af82266d2ab606492442878a9e", "name": "520ad5af82266d2ab606492442878a9e", "rental_uris": {"ios": "https://dc.lft.to/lastmile_qr_scan", "android": "https://dc.lft.to/lastmile_qr_scan"}}, {"is_disabled": 0, "fusion_lat": 0.0, "lat": 38.8935005, "type": "electric_scooter", "lon": -77.01598683333333, "is_reserved": 0, "fusion_lon": 0.0, "bike_id": "330add12ca7d1df929b82d8e25b83436", "name": "330add12ca7d1df929b82d8e25b83436", "rental_uris": {"ios": "https://dc.lft.to/lastmile_qr_scan", "android": "https://dc.lft.to/lastmile_qr_scan"}}, {"is_disabled": 0, "fusion_lat": 0.0, "lat": 38.931728, "type": "electric_scooter", "lon": -77.02834066666667, "is_reserved": 0, "fusion_lon": 0.0, "bike_id": "bfc043ae07f860b98eb3b86f54f54d67", "name": "bfc043ae07f860b98eb3b86f54f54d67", "rental_uris": {"ios": "https://dc.lft.to/lastmile_qr_scan", "android": "https://dc.lft.to/lastmile_qr_scan"}}, {"is_disabled": 0, "fusion_lat": 0.0, "lat": 38.91194083333333, "type": "electric_scooter", "lon": -77.01051183333334, "is_reserved": 0, "fusion_lon": 0.0, "bike_id": "62cdb66257e4d3020a5952219e5d34a4", "name": "62cdb66257e4d3020a5952219e5d34a4", "rental_uris": {"ios": "https://dc.lft.to/lastmile_qr_scan", "android": "https://dc.lft.to/lastmile_qr_scan"}}, {"is_disabled": 0, "fusion_lat": 0.0, "lat": 38.90247516666667, "type": "electric_scooter", "lon": -77.0021155, "is_reserved": 0, "fusion_lon": 0.0, "bike_id": "7bd5cba929c9ec4af0079807c7e2ab92", "name": "7bd5cba929c9ec4af0079807c7e2ab92", "rental_uris": {"ios": "https://dc.lft.to/lastmile_qr_scan", "android": "https://dc.lft.to/lastmile_qr_scan"}}, {"is_disabled": 0, "fusion_lat": 0.0, "lat": 38.90502016666667, "type": "electric_scooter", "lon": -76.99016933333333, "is_reserved": 0, "fusion_lon": 0.0, "bike_id": "8a3c9141467eb9e09506614e3dc9857e", "name": "8a3c9141467eb9e09506614e3dc9857e", "rental_uris": {"ios": "https://dc.lft.to/lastmile_qr_scan", "android": "https://dc.lft.to/lastmile_qr_scan"}}, {"is_disabled": 0, "fusion_lat": 0.0, "lat": 38.906248166666664, "type": "electric_bike", "lon": -76.98605116666667, "is_reserved": 0, "fusion_lon": 0.0, "bike_id": "3443ac70c2975db2aba4ba4c41ebe0d7", "name": "3443ac70c2975db2aba4ba4c41ebe0d7", "rental_uris": {"ios": "https://dc.lft.to/lastmile_qr_scan", "android": "https://dc.lft.to/lastmile_qr_scan"}}, {"is_disabled": 0, "fusion_lat": 0.0, "lat": 38.902545333333336, "type": "electric_scooter", "lon": -77.01545483333334, "is_reserved": 0, "fusion_lon": 0.0, "bike_id": "3e1607e3c6a32c842388b8afbf4b59c5", "name": "3e1607e3c6a32c842388b8afbf4b59c5", "rental_uris": {"ios": "https://dc.lft.to/lastmile_qr_scan", "android": "https://dc.lft.to/lastmile_qr_scan"}}, {"is_disabled": 0, "fusion_lat": 0.0, "lat": 38.918234166666664, "type": "electric_scooter", "lon": -77.02535666666667, "is_reserved": 0, "fusion_lon": 0.0, "bike_id": "fd177a6c3a416471549a16fe256faa76", "name": "fd177a6c3a416471549a16fe256faa76", "rental_uris": {"ios": "https://dc.lft.to/lastmile_qr_scan", "android": "https://dc.lft.to/lastmile_qr_scan"}}, {"is_disabled": 0, "fusion_lat": 0.0, "lat": 38.905018166666665, "type": "electric_scooter", "lon": -77.029736, "is_reserved": 0, "fusion_lon": 0.0, "bike_id": "bfbbf1a87aef63a5e9d256cfbbfb3828", "name": "bfbbf1a87aef63a5e9d256cfbbfb3828", "rental_uris": {"ios": "https://dc.lft.to/lastmile_qr_scan", "android": "https://dc.lft.to/lastmile_qr_scan"}}, {"is_disabled": 0, "fusion_lat": 0.0, "lat": 38.96571483333334, "type": "electric_bike", "lon": -77.01625683333333, "is_reserved": 0, "fusion_lon": 0.0, "bike_id": "fe52e18838cc107293318769cca2ff51", "name": "fe52e18838cc107293318769cca2ff51", "rental_uris": {"ios": "https://dc.lft.to/lastmile_qr_scan", "android": "https://dc.lft.to/lastmile_qr_scan"}}, {"is_disabled": 0, "fusion_lat": 0.0, "lat": 38.925254833333334, "type": "electric_scooter", "lon": -77.04421083333334, "is_reserved": 0, "fusion_lon": 0.0, "bike_id": "874c1eb066c3c49e5c77f00f03bf5ef8", "name": "874c1eb066c3c49e5c77f00f03bf5ef8", "rental_uris": {"ios": "https://dc.lft.to/lastmile_qr_scan", "android": "https://dc.lft.to/lastmile_qr_scan"}}, {"is_disabled": 0, "fusion_lat": 0.0, "lat": 38.9015135, "type": "electric_scooter", "lon": -77.02557133333333, "is_reserved": 0, "fusion_lon": 0.0, "bike_id": "2a5a5b208d79c37661abbe9ea585189d", "name": "2a5a5b208d79c37661abbe9ea585189d", "rental_uris": {"ios": "https://dc.lft.to/lastmile_qr_scan", "android": "https://dc.lft.to/lastmile_qr_scan"}}, {"is_disabled": 0, "fusion_lat": 0.0, "lat": 38.872027, "type": "electric_scooter", "lon": -77.0060665, "is_reserved": 0, "fusion_lon": 0.0, "bike_id": "03f57d07e394d5b2426b8a1bb96f2460", "name": "03f57d07e394d5b2426b8a1bb96f2460", "rental_uris": {"ios": "https://dc.lft.to/lastmile_qr_scan", "android": "https://dc.lft.to/lastmile_qr_scan"}}, {"is_disabled": 0, "fusion_lat": 0.0, "lat": 38.917304333333334, "type": "electric_scooter", "lon": -77.036613, "is_reserved": 0, "fusion_lon": 0.0, "bike_id": "5aea15ec44670a79f9d0b1f9ce0d02a7", "name": "5aea15ec44670a79f9d0b1f9ce0d02a7", "rental_uris": {"ios": "https://dc.lft.to/lastmile_qr_scan", "android": "https://dc.lft.to/lastmile_qr_scan"}}, {"is_disabled": 0, "fusion_lat": 0.0, "lat": 38.895357833333335, "type": "electric_scooter", "lon": -76.94887833333334, "is_reserved": 0, "fusion_lon": 0.0, "bike_id": "8b64b51fc3c4a3a3d3c621bb806118a7", "name": "8b64b51fc3c4a3a3d3c621bb806118a7", "rental_uris": {"ios": "https://dc.lft.to/lastmile_qr_scan", "android": "https://dc.lft.to/lastmile_qr_scan"}}, {"is_disabled": 0, "fusion_lat": 0.0, "lat": 38.8982535, "type": "electric_scooter", "lon": -77.0329955, "is_reserved": 0, "fusion_lon": 0.0, "bike_id": "c01b69d579c0d4b04d0ccc1e08ffe6e5", "name": "c01b69d579c0d4b04d0ccc1e08ffe6e5", "rental_uris": {"ios": "https://dc.lft.to/lastmile_qr_scan", "android": "https://dc.lft.to/lastmile_qr_scan"}}, {"is_disabled": 0, "fusion_lat": 0.0, "lat": 38.880329, "type": "electric_bike", "lon": -77.11073, "is_reserved": 0, "fusion_lon": 0.0, "bike_id": "55124c8c9024a02868d0ab2b23bc0035", "name": "55124c8c9024a02868d0ab2b23bc0035", "rental_uris": {"ios": "https://dc.lft.to/lastmile_qr_scan", "android": "https://dc.lft.to/lastmile_qr_scan"}}, {"is_disabled": 0, "fusion_lat": 0.0, "lat": 38.88548816666667, "type": "electric_bike", "lon": -77.117828, "is_reserved": 0, "fusion_lon": 0.0, "bike_id": "a321cba3589faae00521a6bd55f75417", "name": "a321cba3589faae00521a6bd55f75417", "rental_uris": {"ios": "https://dc.lft.to/lastmile_qr_scan", "android": "https://dc.lft.to/lastmile_qr_scan"}}, {"is_disabled": 0, "fusion_lat": 0.0, "lat": 38.93429283333333, "type": "electric_scooter", "lon": -76.96505483333334, "is_reserved": 0, "fusion_lon": 0.0, "bike_id": "694c89e8e9daaddbc6430c3ffff58f43", "name": "694c89e8e9daaddbc6430c3ffff58f43", "rental_uris": {"ios": "https://dc.lft.to/lastmile_qr_scan", "android": "https://dc.lft.to/lastmile_qr_scan"}}, {"is_disabled": 0, "fusion_lat": 0.0, "lat": 38.918117333333335, "type": "electric_scooter", "lon": -77.02702566666666, "is_reserved": 0, "fusion_lon": 0.0, "bike_id": "0250f1598d371166c862088626d1c361", "name": "0250f1598d371166c862088626d1c361", "rental_uris": {"ios": "https://dc.lft.to/lastmile_qr_scan", "android": "https://dc.lft.to/lastmile_qr_scan"}}, {"is_disabled": 0, "fusion_lat": 0.0, "lat": 38.920749, "type": "electric_scooter", "lon": -77.02386183333333, "is_reserved": 0, "fusion_lon": 0.0, "bike_id": "43539ccec9ee49efdf97a1f34badb1dd", "name": "43539ccec9ee49efdf97a1f34badb1dd", "rental_uris": {"ios": "https://dc.lft.to/lastmile_qr_scan", "android": "https://dc.lft.to/lastmile_qr_scan"}}, {"is_disabled": 0, "fusion_lat": 0.0, "lat": 38.92214516666667, "type": "electric_scooter", "lon": -77.036584, "is_reserved": 0, "fusion_lon": 0.0, "bike_id": "e1e08d26a2b70dfcc42d995d65e051c3", "name": "e1e08d26a2b70dfcc42d995d65e051c3", "rental_uris": {"ios": "https://dc.lft.to/lastmile_qr_scan", "android": "https://dc.lft.to/lastmile_qr_scan"}}, {"is_disabled": 0, "fusion_lat": 0.0, "lat": 38.998458166666666, "type": "electric_bike", "lon": -77.02907133333333, "is_reserved": 0, "fusion_lon": 0.0, "bike_id": "719cbd7a257e6a7a0472dec052e737c8", "name": "719cbd7a257e6a7a0472dec052e737c8", "rental_uris": {"ios": "https://dc.lft.to/lastmile_qr_scan", "android": "https://dc.lft.to/lastmile_qr_scan"}},