{"data": {"bikes": [{"rental_uris": {"ios": "https://dc.lft.to/lastmile_qr_scan", "android": "https://dc.lft.to/lastmile_qr_scan"}, "lat": 38.92514833333333, "is_reserved": 0, "bike_id": "d71e781717af2c411bcbd4158ed6a241", "lon": -77.02138633333334, "is_disabled": 0, "fusion_lat": 0.0, "fusion_lon": 0.0, "name": "d71e781717af2c411bcbd4158ed6a241", "type": "electric_scooter"}, {"rental_uris": {"ios": "https://dc.lft.to/lastmile_qr_scan", "android": "https://dc.lft.to/lastmile_qr_scan"}, "lat": 38.90309533333333, "is_reserved": 0, "bike_id": "557f8925d638e266ab88a739b4b6dee6", "lon": -77.02369433333334, "is_disabled": 0, "fusion_lat": 0.0, "fusion_lon": 0.0, "name": "557f8925d638e266ab88a739b4b6dee6", "type": "electric_scooter"}, {"rental_uris": {"ios": "https://dc.lft.to/lastmile_qr_scan", "android": "https://dc.lft.to/lastmile_qr_scan"}, "lat": 38.922517166666665, "is_reserved": 0, "bike_id": "3b583fa398408a585d140e591aa3954b", "lon": -77.03902716666667, "is_disabled": 0, "fusion_lat": 0.0, "fusion_lon": 0.0, "name": "3b583fa398408a585d140e591aa3954b", "type": "electric_scooter"}, {"rental_uris": {"ios": "https://dc.lft.to/lastmile_qr_scan", "android": "https://dc.lft.to/lastmile_qr_scan"}, "lat": 38.915532, "is_reserved": 0, "bike_id": "b6a318c85558cac7bf77d2e638461bdc", "lon": -77.03176016666667, "is_disabled": 0, "fusion_lat": 0.0, "fusion_lon": 0.0, "name": "b6a318c85558cac7bf77d2e638461bdc", "type": "electric_scooter"}, {"rental_uris": {"ios": "https://dc.lft.to/lastmile_qr_scan", "android": "https://dc.lft.to/lastmile_qr_scan"}, "lat": 38.871806666666664, "is_reserved": 0, "bike_id": "e612cbf6bf0b1e5b5136d0b6bfb86fef", "lon": -77.006087, "is_disabled": 0, "fusion_lat": 0.0, "fusion_lon": 0.0, "name": "e612cbf6bf0b1e5b5136d0b6bfb86fef", "type": "electric_scooter"}, {"rental_uris": {"ios": "https://dc.lft.to/lastmile_qr_scan", "android": "https://dc.lft.to/lastmile_qr_scan"}, "lat": 38.98458483333334, "is_reserved": 0, "bike_id": "8a9f21a8621f840907d950b5d5e0f025", "lon": -76.970536, "is_disabled": 0, "fusion_lat": 0.0, "fusion_lon": 0.0, "name": "8a9f21a8621f840907d950b5d5e0f025", "type": "electric_bike"}, {"rental_uris": {"ios": "https://dc.lft.to/lastmile_qr_scan", "android": "https://dc.lft.to/lastmile_qr_scan"}, "lat": 38.93117433333333, "is_reserved": 0, "bike_id": "5788c539ffefc7d46d70e749c4b1b910", "lon": -77.03817616666667, "is_disabled": 0, "fusion_lat": 0.0, "fusion_lon": 0.0, "name": "5788c539ffefc7d46d70e749c4b1b910", "type": "electric_scooter"}, {"rental_uris": {"ios": "https://dc.lft.to/lastmile_qr_scan", "android": "https://dc.lft.to/lastmile_qr_scan"}, "lat": 38.919751, "is_reserved": 0, "bike_id": "1f539943104096b1fe82dc35ce117364", "lon": -77.02382766666666, "is_disabled": 0, "fusion_lat": 0.0, "fusion_lon": 0.0, "name": "1f539943104096b1fe82dc35ce117364", "type": "electric_scooter"}, {"rental_uris": {"ios": "https://dc.lft.to/lastmile_qr_scan", "android": "https://dc.lft.to/lastmile_qr_scan"}, "lat": 38.9067415, "is_reserved": 0, "bike_id": "3d8a24e65a0137bcca94d80ea1fee970", "lon": -77.04324866666667, "is_disabled": 0, "fusion_lat": 0.0, "fusion_lon": 0.0, "name": "3d8a24e65a0137bcca94d80ea1fee970", "type": "electric_scooter"}, {"rental_uris": {"ios": "https://dc.lft.to/lastmile_qr_scan", "android": "https://dc.lft.to/lastmile_qr_scan"}, "lat": 38.9105285, "is_reserved": 0, "bike_id": "9504c4266ad88c109a7dd1cec3879e96", "lon": -77.03236133333333, "is_disabled": 0, "fusion_lat": 0.0, "fusion_lon": 0.0, "name": "9504c4266ad88c109a7dd1cec3879e96", "type": "electric_scooter"}, {"rental_uris": {"ios": "https://dc.lft.to/lastmile_qr_scan", "android": "https://dc.lft.to/lastmile_qr_scan"}, "lat": 38.92973633333333, "is_reserved": 0, "bike_id": "b03455eaa2fb6e74aebfd5f2ad43dba7", "lon": -77.03266983333333, "is_disabled": 0, "fusion_lat": 0.0, "fusion_lon": 0.0, "name": "b03455eaa2fb6e74aebfd5f2ad43dba7", "type": "electric_scooter"}, {"rental_uris": {"ios": "https://dc.lft.to/lastmile_qr_scan", "android": "https://dc.lft.to/lastmile_qr_scan"}, "lat": 38.87684866666667, "is_reserved": 0, "bike_id": "25aff0afdecb3d2680188396ae43b904", "lon": -77.01760533333334, "is_disabled": 0, "fusion_lat": 0.0, "fusion_lon": 0.0, "name": "25aff0afdecb3d2680188396ae43b904", "type": "electric_scooter"}, {"rental_uris": {"ios": "https://dc.lft.to/lastmile_qr_scan", "android": "https://dc.lft.to/lastmile_qr_scan"}, "lat": 38.90997133333333, "is_reserved": 0, "bike_id": "4dc5b8d4b3b1bdc21c6e0d4214c0714e", "lon": -77.03653633333333, "is_disabled": 0, "fusion_lat": 0.0, "fusion_lon": 0.0, "name": "4dc5b8d4b3b1bdc21c6e0d4214c0714e", "type": "electric_scooter"}, {"rental_uris": {"ios": "https://dc.lft.to/lastmile_qr_scan", "android": "https://dc.lft.to/lastmile_qr_scan"}, "lat": 38.909502333333336, "is_reserved": 0, "bike_id": "807fe67f5bb997ade7dd66c39f37e2c9", "lon": -76.99904033333334, "is_disabled": 0, "fusion_lat": 0.0, "fusion_lon": 0.0, "name": "807fe67f5bb997ade7dd66c39f37e2c9", "type": "electric_bike"}, {"rental_uris": {"ios": "https://dc.lft.to/lastmile_qr_scan", "android": "https://dc.lft.to/lastmile_qr_scan"}, "lat": 38.911291, "is_reserved": 0, "bike_id": "8fd23eb928527f29fd34e678dda0a8cc", "lon": -77.04422733333334, "is_disabled": 0, "fusion_lat": 0.0, "fusion_lon": 0.0, "name": "8fd23eb928527f29fd34e678dda0a8cc", "type": "electric_scooter"}, {"rental_uris": {"ios": "https://dc.lft.to/lastmile_qr_scan", "android": "https://dc.lft.to/lastmile_qr_scan"}, "lat": 38.927723, "is_reserved": 0, "bike_id": "a0f59dd367fef3423bb96d7dbed19d67", "lon": -77.00558216666667, "is_disabled": 0, "fusion_lat": 0.0, "fusion_lon": 0.0, "name": "a0f59dd367fef3423bb96d7dbed19d67", "type": "electric_scooter"}, {"rental_uris": {"ios": "https://dc.lft.to/lastmile_qr_scan", "android": "https://dc.lft.to/lastmile_qr_scan"}, "lat": 38.86501883333333, "is_reserved": 0, "bike_id": "2a8f7206f37067f5e3a1a2714b0a38e8", "lon": -76.99009166666667, "is_disabled": 0, "fusion_lat": 0.0, "fusion_lon": 0.0, "name": "2a8f7206f37067f5e3a1a2714b0a38e8", "type": "electric_scooter"}, {"rental_uris": {"ios": "https://dc.lft.to/lastmile_qr_scan", "android": "https://dc.lft.to/lastmile_qr_scan"}, "lat": 38.92646633333333, "is_reserved": 0, "bike_id": "ed33a3e6884954d4ba8dbab7f22f93de", "lon": -77.03474416666667, "is_disabled": 0, "fusion_lat": 0.0, "fusion_lon": 0.0, "name": "ed33a3e6884954d4ba8dbab7f22f93de", "type": "electric_scooter"}, {"rental_uris": {"ios": "https://dc.lft.to/lastmile_qr_scan", "android": "https://dc.lft.to/lastmile_qr_scan"}, "lat": 38.92870883333333, "is_reserved": 0, "bike_id": "9bef67f9e17581a1f94f1b5233883083", "lon": -77.01383416666667, "is_disabled": 0, "fusion_lat": 0.0, "fusion_lon": 0.0, "name": "9bef67f9e17581a1f94f1b5233883083", "type": "electric_scooter"}, {"rental_uris": {"ios": "https://dc.lft.to/lastmile_qr_scan", "android": "https://dc.lft.to/lastmile_qr_scan"}, "lat": 38.90986133333333, "is_reserved": 0, "bike_id": "1a41356145bf257c14ca3645c3a1a032", "lon": -77.03191633333333, "is_disabled": 0, "fusion_lat": 0.0, "fusion_lon": 0.0, "name": "1a41356145bf257c14ca3645c3a1a032", "type": "electric_scooter"}, {"rental_uris": {"ios": "https://dc.lft.to/lastmile_qr_scan", "android": "https://dc.lft.to/lastmile_qr_scan"}, "lat": 38.89350866666667, "is_reserved": 0, "bike_id": "a5032fc77d15f8636dff48fd9ac25b66", "lon": -77.18745166666666, "is_disabled": 0, "fusion_lat": 0.0, "fusion_lon": 0.0, "name": "a5032fc77d15f8636dff48fd9ac25b66", "type": "electric_bike"}, {"rental_uris": {"ios": "https://dc.lft.to/lastmile_qr_scan", "android": "https://dc.lft.to/lastmile_qr_scan"}, "lat": 38.921097833333334, "is_reserved": 0, "bike_id": "808112591f4c4666735dcdb4379736c3", "lon": -77.02141666666667, "is_disabled": 0, "fusion_lat": 0.0, "fusion_lon": 0.0, "name": "808112591f4c4666735dcdb4379736c3", "type": "electric_scooter"}, {"rental_uris": {"ios": "https://dc.lft.to/lastmile_qr_scan", "android": "https://dc.lft.to/lastmile_qr_scan"}, "lat": 38.90581383333333, "is_reserved": 0, "bike_id": "7c3a8fb015c5fcca9fe273975c0a2bf1", "lon": -77.03484616666667, "is_disabled": 0, "fusion_lat": 0.0, "fusion_lon": 0.0, "name": "7c3a8fb015c5fcca9fe273975c0a2bf1", "type": "electric_scooter"}, {"rental_uris": {"ios": "https://dc.lft.to/lastmile_qr_scan", "android": "https://dc.lft.to/lastmile_qr_scan"}, "lat": 38.908793833333334, "is_reserved": 0, "bike_id": "244cdf277dd32d7980200a0138f33020", "lon": -77.02007016666667, "is_disabled": 0, "fusion_lat": 0.0, "fusion_lon": 0.0, "name": "244cdf277dd32d7980200a0138f33020", "type": "electric_scooter"}, {"rental_uris": {"ios": "https://dc.lft.to/lastmile_qr_scan", "android": "https://dc.lft.to/lastmile_qr_scan"}, "lat": 38.9256925, "is_reserved": 0, "bike_id": "17a8978b1f9fe98803478c8491c8006e", "lon": -77.02692666666667, "is_disabled": 0, "fusion_lat": 0.0, "fusion_lon": 0.0, "name": "17a8978b1f9fe98803478c8491c8006e", "type": "electric_scooter"}, {"rental_uris": {"ios": "https://dc.lft.to/lastmile_qr_scan", "android": "https://dc.lft.to/lastmile_qr_scan"}, "lat": 38.89727833333333, "is_reserved": 0, "bike_id": "af9425c3864eb1036e933fe715d1f72c", "lon": -76.99469833333333, "is_disabled": 0, "fusion_lat": 0.0, "fusion_lon": 0.0, "name": "af9425c3864eb1036e933fe715d1f72c", "type": "electric_scooter"}, {"rental_uris": {"ios": "https://dc.lft.to/lastmile_qr_scan", "android": "https://dc.lft.to/lastmile_qr_scan"}, "lat": 38.9233135, "is_reserved": 0, "bike_id": "ea2067f7d1aca8e378cfd95dcd4b2ece", "lon": -77.05347733333333, "is_disabled": 0, "fusion_lat": 0.0, "fusion_lon": 0.0, "name": "ea2067f7d1aca8e378cfd95dcd4b2ece", "type": "electric_scooter"}, {"rental_uris": {"ios": "https://dc.lft.to/lastmile_qr_scan", "android": "https://dc.lft.to/lastmile_qr_scan"}, "lat": 38.896282666666664, "is_reserved": 0, "bike_id": "6dfda3aafa0ec16b80f2f93299f9d272", "lon": -77.03228716666666, "is_disabled": 0, "fusion_lat": 0.0, "fusion_lon": 0.0, "name": "6dfda3aafa0ec16b80f2f93299f9d272", "type": "electric_scooter"}, {"rental_uris": {"ios": "https://dc.lft.to/lastmile_qr_scan", "android": "https://dc.lft.to/lastmile_qr_scan"}, "lat": 38.88467633333333, "is_reserved": 0, "bike_id": "5320aa94bedafcfd3447aceb394ea3f6", "lon": -76.9844195, "is_disabled": 0, "fusion_lat": 0.0, "fusion_lon": 0.0, "name": "5320aa94bedafcfd3447aceb394ea3f6", "type": "electric_scooter"}, {"rental_uris": {"ios": "https://dc.lft.to/lastmile_qr_scan", "android": "https://dc.lft.to/lastmile_qr_scan"}, "lat": 38.90265333333333, "is_reserved": 0, "bike_id": "a890ed3125920fa35e7d3bc50d7f6374", "lon": -77.017579, "is_disabled": 0, "fusion_lat": 0.0, "fusion_lon": 0.0, "name": "a890ed3125920fa35e7d3bc50d7f6374", "type": "electric_scooter"}, {"rental_uris": {"ios": "https://dc.lft.to/lastmile_qr_scan", "android": "https://dc.lft.to/lastmile_qr_scan"}, "lat": 38.84462766666667, "is_reserved": 0, "bike_id": "555c0e82e55c3f30a1cc2278d4accbe1", "lon": -76.99859083333334, "is_disabled": 0, "fusion_lat": 0.0, "fusion_lon": 0.0, "name": "555c0e82e55c3f30a1cc2278d4accbe1", "type": "electric_bike"}, {"rental_uris": {"ios": "https://dc.lft.to/lastmile_qr_scan", "android": "https://dc.lft.to/lastmile_qr_scan"}, "lat": 38.88378933333333, "is_reserved": 0, "bike_id": "d2922a3a9e76b19d8d667fcc35f71c31", "lon": -76.9952285, "is_disabled": 0, "fusion_lat": 0.0, "fusion_lon": 0.0, "name": "d2922a3a9e76b19d8d667fcc35f71c31", "type": "electric_scooter"}, {"rental_uris": {"ios": "https://dc.lft.to/lastmile_qr_scan", "android": "https://dc.lft.to/lastmile_qr_scan"}, "lat": 38.963161, "is_reserved": 0, "bike_id": "8bf4e081e0733195bf26d17d0b9d1c6e", "lon": -77.0113675, "is_disabled": 0, "fusion_lat": 0.0, "fusion_lon": 0.0, "name": "8bf4e081e0733195bf26d17d0b9d1c6e", "type": "electric_bike"}, {"rental_uris": {"ios": "https://dc.lft.to/lastmile_qr_scan", "android": "https://dc.lft.to/lastmile_qr_scan"}, "lat": 38.935730666666664, "is_reserved": 0, "bike_id": "7f53dbd96b549b3747dd45f64d358539", "lon": -77.03657333333334, "is_disabled": 0, "fusion_lat": 0.0, "fusion_lon": 0.0, "name": "7f53dbd96b549b3747dd45f64d358539", "type": "electric_scooter"}, {"rental_uris": {"ios": "https://dc.lft.to/lastmile_qr_scan", "android": "https://dc.lft.to/lastmile_qr_scan"}, "lat": 38.89738633333333, "is_reserved": 0, "bike_id": "1eec31322792bdb90e7015488b995ddc", "lon": -77.0265375, "is_disabled": 0, "fusion_lat": 0.0, "fusion_lon": 0.0, "name": "1eec31322792bdb90e7015488b995ddc", "type": "electric_scooter"}, {"rental_uris": {"ios": "https://dc.lft.to/lastmile_qr_scan", "android": "https://dc.lft.to/lastmile_qr_scan"}, "lat": 38.87606366666667, "is_reserved": 0, "bike_id": "82c8ad5fcb5aacb1ab5e2a3cc52953ad", "lon": -77.00932666666667, "is_disabled": 0, "fusion_lat": 0.0, "fusion_lon": 0.0, "name": "82c8ad5fcb5aacb1ab5e2a3cc52953ad", "type": "electric_scooter"}, {"rental_uris": {"ios": "https://dc.lft.to/lastmile_qr_scan", "android": "https://dc.lft.to/lastmile_qr_scan"}, "lat": 38.90404766666666, "is_reserved": 0, "bike_id": "92a6246575c8015e54be8b721b09e486", "lon": -77.06405, "is_disabled": 0, "fusion_lat": 0.0, "fusion_lon": 0.0, "name": "92a6246575c8015e54be8b721b09e486", "type": "electric_scooter"}, {"rental_uris": {"ios": "https://dc.lft.to/lastmile_qr_scan", "android": "https://dc.lft.to/lastmile_qr_scan"}, "lat": 38.8968565, "is_reserved": 0, "bike_id": "a16c49b71546d82f9f9617458658fda8", "lon": -77.02379533333334, "is_disabled": 0, "fusion_lat": 0.0, "fusion_lon": 0.0, "name": "a16c49b71546d82f9f9617458658fda8", "type": "electric_scooter"}, {"rental_uris": {"ios": "https://dc.lft.to/lastmile_qr_scan", "android": "https://dc.lft.to/lastmile_qr_scan"}, "lat": 38.91635316666667, "is_reserved": 0, "bike_id": "f7936f7a149e82b8cac5114483c296b8", "lon": -77.03210116666666, "is_disabled": 0, "fusion_lat": 0.0, "fusion_lon": 0.0, "name": "f7936f7a149e82b8cac5114483c296b8", "type": "electric_scooter"}, {"rental_uris": {"ios": "https://dc.lft.to/lastmile_qr_scan", "android": "https://dc.lft.to/lastmile_qr_scan"}, "lat": 38.9011915, "is_reserved": 0, "bike_id": "57642ee25f386e4c0ddc4b05f8840bfb", "lon": -77.03471166666667, "is_disabled": 0, "fusion_lat": 0.0, "fusion_lon": 0.0, "name": "57642ee25f386e4c0ddc4b05f8840bfb", "type": "electric_scooter"}, {"rental_uris": {"ios": "https://dc.lft.to/lastmile_qr_scan", "android": "https://dc.lft.to/lastmile_qr_scan"}, "lat": 38.94049483333333, "is_reserved": 0, "bike_id": "54e8993df82c15ca96b04799a596b34f", "lon": -76.90421283333333, "is_disabled": 0, "fusion_lat": 0.0, "fusion_lon": 0.0, "name": "54e8993df82c15ca96b04799a596b34f", "type": "electric_bike"}, {"rental_uris": {"ios": "https://dc.lft.to/lastmile_qr_scan", "android": "https://dc.lft.to/lastmile_qr_scan"}, "lat": 38.922303666666664, "is_reserved": 0, "bike_id": "24b9b6f8ab0c8c2350d6805af065f2eb", "lon": -77.02332, "is_disabled": 0, "fusion_lat": 0.0, "fusion_lon": 0.0, "name": "24b9b6f8ab0c8c2350d6805af065f2eb", "type": "electric_scooter"}, {"rental_uris": {"ios": "https://dc.lft.to/lastmile_qr_scan", "android": "https://dc.lft.to/lastmile_qr_scan"}, "lat": 38.917094166666665, "is_reserved": 0, "bike_id": "729c19a84a9569ac1d91d1beae9808fa", "lon": -77.03865083333334, "is_disabled": 0, "fusion_lat": 0.0, "fusion_lon": 0.0, "name": "729c19a84a9569ac1d91d1beae9808fa", "type": "electric_scooter"}, {"rental_uris": {"ios": "https://dc.lft.to/lastmile_qr_scan", "android": "https://dc.lft.to/lastmile_qr_scan"}, "lat": 38.929774, "is_reserved": 0, "bike_id": "b4a6af38eda2e8c94496374ab254dafa", "lon": -77.02528766666667, "is_disabled": 0, "fusion_lat": 0.0, "fusion_lon": 0.0, "name": "b4a6af38eda2e8c94496374ab254dafa", "type": "electric_scooter"}, {"rental_uris": {"ios": "https://dc.lft.to/lastmile_qr_scan", "android": "https://dc.lft.to/lastmile_qr_scan"}, "lat": 38.879258666666665, "is_reserved": 0, "bike_id": "aeccfec76c2d7eab70f605411d14a407", "lon": -77.00535166666667, "is_disabled": 0, "fusion_lat": 0.0, "fusion_lon": 0.0, "name": "aeccfec76c2d7eab70f605411d14a407", "type": "electric_scooter"}, {"rental_uris": {"ios": "https://dc.lft.to/lastmile_qr_scan", "android": "https://dc.lft.to/lastmile_qr_scan"}, "lat": 38.932930166666665, "is_reserved": 0, "bike_id": "f62694cf76084b5be11e64badd154eca", "lon": -77.03990683333333, "is_disabled": 0, "fusion_lat": 0.0, "fusion_lon": 0.0, "name": "f62694cf76084b5be11e64badd154eca", "type": "electric_scooter"}, {"rental_uris": {"ios": "https://dc.lft.to/lastmile_qr_scan", "android": "https://dc.lft.to/lastmile_qr_scan"}, "lat": 38.92333216666667, "is_reserved": 0, "bike_id": "fb05f2e580a72c06cd6b84df18b143ba", "lon": -77.0534975, "is_disabled": 0, "fusion_lat": 0.0, "fusion_lon": 0.0, "name": "fb05f2e580a72c06cd6b84df18b143ba", "type": "electric_scooter"}, {"rental_uris": {"ios": "https://dc.lft.to/lastmile_qr_scan", "android": "https://dc.lft.to/lastmile_qr_scan"}, "lat": 38.91476333333333, "is_reserved": 0, "bike_id": "d2ba6887e8cc62914f58c5d5ea17863b", "lon": -77.04171183333334, "is_disabled": 0, "fusion_lat": 0.0, "fusion_lon": 0.0, "name": "d2ba6887e8cc62914f58c5d5ea17863b", "type": "electric_scooter"}, {"rental_uris": {"ios": "https://dc.lft.to/lastmile_qr_scan", "android": "https://dc.lft.to/lastmile_qr_scan"}, "lat": 38.90344433333333, "is_reserved": 0, "bike_id": "b09f658a1384225bc940135de3781ad2", "lon": -77.03850483333333, "is_disabled": 0, "fusion_lat": 0.0, "fusion_lon": 0.0, "name": "b09f658a1384225bc940135de3781ad2", "type": "electric_scooter"}, {"rental_uris": {"ios": "https://dc.lft.to/lastmile_qr_scan", "android": "https://dc.lft.to/lastmile_qr_scan"}, "lat": 38.916446, "is_reserved": 0, "bike_id": "38a589f1a87d06257821b0f615f31c56", "lon": -77.03640616666667, "is_disabled": 0, "fusion_lat": 0.0, "fusion_lon": 0.0, "name": "38a589f1a87d06257821b0f615f31c56", "type": "electric_scooter"}, {"rental_uris": {"ios": "https://dc.lft.to/lastmile_qr_scan", "android": "https://dc.lft.to/lastmile_qr_scan"}, "lat": 38.939198833333336, "is_reserved": 0, "bike_id": "a16221d22ecd93811a83c8331f600b37", "lon": -77.03663716666667, "is_disabled": 0, "fusion_lat": 0.0, "fusion_lon": 0.0, "name": "a16221d22ecd93811a83c8331f600b37", "type": "electric_scooter"}, {"rental_uris": {"ios": "https://dc.lft.to/lastmile_qr_scan", "android": "https://dc.lft.to/lastmile_qr_scan"}, "lat": 38.95127633333333, "is_reserved": 0, "bike_id": "136a8c3a1b2d853a9dc3d0fdf74fa9b7", "lon": -77.01260966666666, "is_disabled": 0, "fusion_lat": 0.0, "fusion_lon": 0.0, "name": "136a8c3a1b2d853a9dc3d0fdf74fa9b7", "type": "electric_bike"}, {"rental_uris": {"ios": "https://dc.lft.to/lastmile_qr_scan", "android": "https://dc.lft.to/lastmile_qr_scan"}, "lat": 38.91105016666667, "is_reserved": 0, "bike_id": "7be9a8d8beddbecd22a1bcaaaeecf84e", "lon": -77.04396633333333, "is_disabled": 0, "fusion_lat": 0.0, "fusion_lon": 0.0, "name": "7be9a8d8beddbecd22a1bcaaaeecf84e", "type": "electric_scooter"}, {"rental_uris": {"ios": "https://dc.lft.to/lastmile_qr_scan", "android": "https://dc.lft.to/lastmile_qr_scan"}, "lat": 38.9067505, "is_reserved": 0, "bike_id": "722dfbe09d489fa43d757dfad0108efe", "lon": -77.03441483333333, "is_disabled": 0, "fusion_lat": 0.0, "fusion_lon": 0.0, "name": "722dfbe09d489fa43d757dfad0108efe", "type": "electric_scooter"}, {"rental_uris": {"ios": "https://dc.lft.to/lastmile_qr_scan", "android": "https://dc.lft.to/lastmile_qr_scan"}, "lat": 38.89517166666667, "is_reserved": 0, "bike_id": "23ebe6c595bdd9dc591541653b8c5e1b", "lon": -77.00217783333333, "is_disabled": 0, "fusion_lat": 0.0, "fusion_lon": 0.0, "name": "23ebe6c595bdd9dc591541653b8c5e1b", "type": "electric_scooter"}, {"rental_uris": {"ios": "https://dc.lft.to/lastmile_qr_scan", "android": "https://dc.lft.to/lastmile_qr_scan"}, "lat": 38.87877966666667, "is_reserved": 0, "bike_id": "9bd3a1134b39b5868dfbc41ca9226ced", "lon": -76.982288, "is_disabled": 0, "fusion_lat": 0.0, "fusion_lon": 0.0, "name": "9bd3a1134b39b5868dfbc41ca9226ced", "type": "electric_scooter"}, {"rental_uris": {"ios": "https://dc.lft.to/lastmile_qr_scan", "android": "https://dc.lft.to/lastmile_qr_scan"}, "lat": 38.93959316666667, "is_reserved": 0, "bike_id": "8b849379db9d60f6bcc4d3b567f8b1e4", "lon": -77.07525716666666, "is_disabled": 0, "fusion_lat": 0.0, "fusion_lon": 0.0, "name": "8b849379db9d60f6bcc4d3b567f8b1e4", "type": "electric_scooter"}, {"rental_uris": {"ios": "https://dc.lft.to/lastmile_qr_scan", "android": "https://dc.lft.to/lastmile_qr_scan"}, "lat": 38.8831785, "is_reserved": 0, "bike_id": "8d375adeac5843cc15c4ad66e5366bf8", "lon": -77.01732583333333, "is_disabled": 0, "fusion_lat": 0.0, "fusion_lon": 0.0, "name": "8d375adeac5843cc15c4ad66e5366bf8", "type": "electric_scooter"}, {"rental_uris": {"ios": "https://dc.lft.to/lastmile_qr_scan", "android": "https://dc.lft.to/lastmile_qr_scan"}, "lat": 38.91674066666667, "is_reserved": 0, "bike_id": "015e52efd11cbbc54b657932a4f542af", "lon": -77.02965133333333, "is_disabled": 0, "fusion_lat": 0.0, "fusion_lon": 0.0, "name": "015e52efd11cbbc54b657932a4f542af", "type": "electric_scooter"}, {"rental_uris": {"ios": "https://dc.lft.to/lastmile_qr_scan", "android": "https://dc.lft.to/lastmile_qr_scan"}, "lat": 38.937746, "is_reserved": 0, "bike_id": "7e798e639b0f801009260e513d00a05c", "lon": -77.08841383333333, "is_disabled": 0, "fusion_lat": 0.0, "fusion_lon": 0.0, "name": "7e798e639b0f801009260e513d00a05c", "type": "electric_scooter"}, {"rental_uris": {"ios": "https://dc.lft.to/lastmile_qr_scan", "android": "https://dc.lft.to/lastmile_qr_scan"}, "lat": 38.90006966666667, "is_reserved": 0, "bike_id": "ca937a1173c7b7a4fe0c228bbcc814aa", "lon": -77.03205983333334, "is_disabled": 0, "fusion_lat": 0.0, "fusion_lon": 0.0, "name": "ca937a1173c7b7a4fe0c228bbcc814aa", "type": "electric_scooter"}, {"rental_uris": {"ios": "https://dc.lft.to/lastmile_qr_scan", "android": "https://dc.lft.to/lastmile_qr_scan"}, "lat": 38.952458666666665, "is_reserved": 0, "bike_id": "5ed8864f6b0792651aaa6044355f009e", "lon": -77.02381366666667, "is_disabled": 0, "fusion_lat": 0.0, "fusion_lon": 0.0, "name": "5ed8864f6b0792651aaa6044355f009e", "type": "electric_scooter"}, {"rental_uris": {"ios": "https://dc.lft.to/lastmile_qr_scan", "android": "https://dc.lft.to/lastmile_qr_scan"}, "lat": 38.98136816666667, "is_reserved": 0, "bike_id": "06480da29ba2ea3625c71ec7d830f9a5", "lon": -77.02634533333334, "is_disabled": 0, "fusion_lat": 0.0, "fusion_lon": 0.0, "name": "06480da29ba2ea3625c71ec7d830f9a5", "type": "electric_scooter"}, {"rental_uris": {"ios": "https://dc.lft.to/lastmile_qr_scan", "android": "https://dc.lft.to/lastmile_qr_scan"}, "lat": 38.896272333333336, "is_reserved": 0, "bike_id": "cc4b69a186d5460e621783b350d41165", "lon": -77.0286235, "is_disabled": 0, "fusion_lat": 0.0, "fusion_lon": 0.0, "name": "cc4b69a186d5460e621783b350d41165", "type": "electric_scooter"}, {"rental_uris": {"ios": "https://dc.lft.to/lastmile_qr_scan", "android": "https://dc.lft.to/lastmile_qr_scan"}, "lat": 38.939822666666664, "is_reserved": 0, "bike_id": "8f7cf9dd39dd26c6cc74b88afee242cb", "lon": -77.03264983333334, "is_disabled": 0, "fusion_lat": 0.0, "fusion_lon": 0.0, "name": "8f7cf9dd39dd26c6cc74b88afee242cb", "type": "electric_scooter"}, {"rental_uris": {"ios": "https://dc.lft.to/lastmile_qr_scan", "android": "https://dc.lft.to/lastmile_qr_scan"}, "lat": 38.89461583333333, "is_reserved": 0, "bike_id": "28ab7dd7ff9038c26906533e98055ba6", "lon": -77.00344283333334, "is_disabled": 0, "fusion_lat": 0.0, "fusion_lon": 0.0, "name": "28ab7dd7ff9038c26906533e98055ba6", "type": "electric_scooter"}, {"rental_uris": {"ios": "https://dc.lft.to/lastmile_qr_scan", "android": "https://dc.lft.to/lastmile_qr_scan"}, "lat": 38.905618, "is_reserved": 0, "bike_id": "9ccc1a06ad7823d39603e48c3bd90b4c", "lon": -77.0188335, "is_disabled": 0, "fusion_lat": 0.0, "fusion_lon": 0.0, "name": "9ccc1a06ad7823d39603e48c3bd90b4c", "type": "electric_scooter"}, {"rental_uris": {"ios": "https://dc.lft.to/lastmile_qr_scan", "android": "https://dc.lft.to/lastmile_qr_scan"}, "lat": 38.896007, "is_reserved": 0, "bike_id": "089a95e1c153b8488e8a9b9d556ed605", "lon": -77.00528983333334, "is_disabled": 0, "fusion_lat": 0.0, "fusion_lon": 0.0, "name": "089a95e1c153b8488e8a9b9d556ed605", "type": "electric_scooter"}, {"rental_uris": {"ios": "https://dc.lft.to/lastmile_qr_scan", "android": "https://dc.lft.to/lastmile_qr_scan"}, "lat": 38.901346, "is_reserved": 0, "bike_id": "8494c55e34c8eaf0d410ca557c4a0da0", "lon": -77.01834783333334, "is_disabled": 0, "fusion_lat": 0.0, "fusion_lon": 0.0, "name": "8494c55e34c8eaf0d410ca557c4a0da0", "type": "electric_scooter"}, {"rental_uris": {"ios": "https://dc.lft.to/lastmile_qr_scan", "android": "https://dc.lft.to/lastmile_qr_scan"}, "lat": 38.89221116666667, "is_reserved": 0, "bike_id": "5acac97c3c072f8ff4f80f11efef43a5", "lon": -77.047731, "is_disabled": 0, "fusion_lat": 0.0, "fusion_lon": 0.0, "name": "5acac97c3c072f8ff4f80f11efef43a5", "type": "electric_scooter"}, {"rental_uris": {"ios": "https://dc.lft.to/lastmile_qr_scan", "android": "https://dc.lft.to/lastmile_qr_scan"}, "lat": 38.86563183333333, "is_reserved": 0, "bike_id": "1e83f3b66bb6a4086cb52eb4b3bb1038", "lon": -76.98338416666667, "is_disabled": 0, "fusion_lat": 0.0, "fusion_lon": 0.0, "name": "1e83f3b66bb6a4086cb52eb4b3bb1038", "type": "electric_scooter"}, {"rental_uris": {"ios": "https://dc.lft.to/lastmile_qr_scan", "android": "https://dc.lft.to/lastmile_qr_scan"}, "lat": 38.892160833333335, "is_reserved": 0, "bike_id": "b0b1004174b3089cb0e7ac2cdd8afe9f", "lon": -77.04519016666667, "is_disabled": 0, "fusion_lat": 0.0, "fusion_lon": 0.0, "name": "b0b1004174b3089cb0e7ac2cdd8afe9f", "type": "electric_scooter"}, {"rental_uris": {"ios": "https://dc.lft.to/lastmile_qr_scan", "android": "https://dc.lft.to/lastmile_qr_scan"}, "lat": 38.91594683333334, "is_reserved": 0, "bike_id": "c7e56c9eefcdf93782f8ad08c616df9a", "lon": -77.02201516666666, "is_disabled": 0, "fusion_lat": 0.0, "fusion_lon": 0.0, "name": "c7e56c9eefcdf93782f8ad08c616df9a", "type": "electric_scooter"}, {"rental_uris": {"ios": "https://dc.lft.to/lastmile_qr_scan", "android": "https://dc.lft.to/lastmile_qr_scan"}, "lat": 38.9289685, "is_reserved": 0, "bike_id": "f549e150f7099697a5029c11f13eb325", "lon": -77.016457, "is_disabled": 0, "fusion_lat": 0.0, "fusion_lon": 0.0, "name": "f549e150f7099697a5029c11f13eb325", "type": "electric_scooter"}, {"rental_uris": {"ios": "https://dc.lft.to/lastmile_qr_scan", "android": "https://dc.lft.to/lastmile_qr_scan"}, "lat": 38.89973583333333, "is_reserved": 0, "bike_id": "6ad18df2eea85df5fabeea184f23f2b5", "lon": -77.0070865, "is_disabled": 0, "fusion_lat": 0.0, "fusion_lon": 0.0, "name": "6ad18df2eea85df5fabeea184f23f2b5", "type": "electric_scooter"}, {"rental_uris": {"ios": "https://dc.lft.to/lastmile_qr_scan", "android": "https://dc.lft.to/lastmile_qr_scan"}, "lat": 38.902341166666666, "is_reserved": 0, "bike_id": "4be38d394bcd1870ab61808182d9af7e", "lon": -77.02704166666666, "is_disabled": 0, "fusion_lat": 0.0, "fusion_lon": 0.0, "name": "4be38d394bcd1870ab61808182d9af7e", "type": "electric_scooter"}, {"rental_uris": {"ios": "https://dc.lft.to/lastmile_qr_scan", "android": "https://dc.lft.to/lastmile_qr_scan"}, "lat": 38.9047875, "is_reserved": 0, "bike_id": "0b0083df408ec72010bc7ad4d15f2d24", "lon": -77.04363983333333, "is_disabled": 0, "fusion_lat": 0.0, "fusion_lon": 0.0, "name": "0b0083df408ec72010bc7ad4d15f2d24", "type": "electric_scooter"}, {"rental_uris": {"ios": "https://dc.lft.to/lastmile_qr_scan", "android": "https://dc.lft.to/lastmile_qr_scan"}, "lat": 38.903835, "is_reserved": 0, "bike_id": "806460c7ffe38377a6d21f1ddd068ad9", "lon": -77.03636583333333, "is_disabled": 0, "fusion_lat": 0.0, "fusion_lon": 0.0, "name": "806460c7ffe38377a6d21f1ddd068ad9", "type": "electric_scooter"}, {"rental_uris": {"ios": "https://dc.lft.to/lastmile_qr_scan", "android": "https://dc.lft.to/lastmile_qr_scan"}, "lat": 38.92310483333333, "is_reserved": 0, "bike_id": "8c81b7097aceaa014c73b58fc42f8b3b", "lon": -77.04190733333333, "is_disabled": 0, "fusion_lat": 0.0, "fusion_lon": 0.0, "name": "8c81b7097aceaa014c73b58fc42f8b3b", "type": "electric_scooter"}, {"rental_uris": {"ios": "https://dc.lft.to/lastmile_qr_scan", "android": "https://dc.lft.to/lastmile_qr_scan"}, "lat": 38.9233925, "is_reserved": 0, "bike_id": "35179d7247472fd7db4e6bb9dafd822b", "lon": -77.04303183333333, "is_disabled": 0, "fusion_lat": 0.0, "fusion_lon": 0.0, "name": "35179d7247472fd7db4e6bb9dafd822b", "type": "electric_scooter"}, {"rental_uris": {"ios": "https://dc.lft.to/lastmile_qr_scan", "android": "https://dc.lft.to/lastmile_qr_scan"}, "lat": 38.9040345, "is_reserved": 0, "bike_id": "666f6dfb609d3740052a2f097c9b960e", "lon": -77.04051266666667, "is_disabled": 0, "fusion_lat": 0.0, "fusion_lon": 0.0, "name": "666f6dfb609d3740052a2f097c9b960e", "type": "electric_scooter"}, {"rental_uris": {"ios": "https://dc.lft.to/lastmile_qr_scan", "android": "https://dc.lft.to/lastmile_qr_scan"}, "lat": 38.87903266666667, "is_reserved": 0, "bike_id": "a1741a23b518f21ec8bc32867b737456", "lon": -77.02200183333333, "is_disabled": 0, "fusion_lat": 0.0, "fusion_lon": 0.0, "name": "a1741a23b518f21ec8bc32867b737456", "type": "electric_scooter"}, {"rental_uris": {"ios": "https://dc.lft.to/lastmile_qr_scan", "android": "https://dc.lft.to/lastmile_qr_scan"}, "lat": 38.905651166666665, "is_reserved": 0, "bike_id": "0ccf0d0c039a8d3ddf63456785e19835", "lon": -77.04353766666667, "is_disabled": 0, "fusion_lat": 0.0, "fusion_lon": 0.0, "name": "0ccf0d0c039a8d3ddf63456785e19835", "type": "electric_scooter"}, {"rental_uris": {"ios": "https://dc.lft.to/lastmile_qr_scan", "android": "https://dc.lft.to/lastmile_qr_scan"}, "lat": 38.88650766666667, "is_reserved": 0, "bike_id": "21822a59b3fa9bd4d4d42a308cebe9d2", "lon": -77.02828216666667, "is_disabled": 0, "fusion_lat": 0.0, "fusion_lon": 0.0, "name": "21822a59b3fa9bd4d4d42a308cebe9d2", "type": "electric_bike"}, {"rental_uris": {"ios": "https://dc.lft.to/lastmile_qr_scan", "android": "https://dc.lft.to/lastmile_qr_scan"}, "lat": 38.899975833333336, "is_reserved": 0, "bike_id": "e1255bff4d0415a795993c925b6f0170", "lon": -77.04133033333333, "is_disabled": 0, "fusion_lat": 0.0, "fusion_lon": 0.0, "name": "e1255bff4d0415a795993c925b6f0170", "type": "electric_scooter"}, {"rental_uris": {"ios": "https://dc.lft.to/lastmile_qr_scan", "android": "https://dc.lft.to/lastmile_qr_scan"}, "lat": 38.88337966666667, "is_reserved": 0, "bike_id": "fcc89aac44945325920d50c6190fb6aa", "lon": -77.02818933333333, "is_disabled": 0, "fusion_lat": 0.0, "fusion_lon": 0.0, "name": "fcc89aac44945325920d50c6190fb6aa", "type": "electric_scooter"}, {"rental_uris": {"ios": "https://dc.lft.to/lastmile_qr_scan", "android": "https://dc.lft.to/lastmile_qr_scan"}, "lat": 38.898984, "is_reserved": 0, "bike_id": "cf819d161980f40d6e2ab88fa0f5781e", "lon": -77.03948016666666, "is_disabled": 0, "fusion_lat": 0.0, "fusion_lon": 0.0, "name": "cf819d161980f40d6e2ab88fa0f5781e", "type": "electric_scooter"}, {"rental_uris": {"ios": "https://dc.lft.to/lastmile_qr_scan", "android": "https://dc.lft.to/lastmile_qr_scan"}, "lat": 38.9367365, "is_reserved": 0, "bike_id": "3a732429eb109d84f177356dcf0d1e11", "lon": -77.03592366666666, "is_disabled": 0, "fusion_lat": 0.0, "fusion_lon": 0.0, "name": "3a732429eb109d84f177356dcf0d1e11", "type": "electric_scooter"}, {"rental_uris": {"ios": "https://dc.lft.to/lastmile_qr_scan", "android": "https://dc.lft.to/lastmile_qr_scan"}, "lat": 38.9145035, "is_reserved": 0, "bike_id": "5fb6a7069c5080f8b30c02fc5efdf7aa", "lon": -77.02193483333333, "is_disabled": 0, "fusion_lat": 0.0, "fusion_lon": 0.0, "name": "5fb6a7069c5080f8b30c02fc5efdf7aa", "type": "electric_scooter"}, {"rental_uris": {"ios": "https://dc.lft.to/lastmile_qr_scan", "android": "https://dc.lft.to/lastmile_qr_scan"}, "lat": 38.916988833333335, "is_reserved": 0, "bike_id": "fd7257adad9895b23e98dffa82385aa8", "lon": -77.02843783333333, "is_disabled": 0, "fusion_lat": 0.0, "fusion_lon": 0.0, "name": "fd7257adad9895b23e98dffa82385aa8", "type": "electric_scooter"}, {"rental_uris": {"ios": "https://dc.lft.to/lastmile_qr_scan", "android": "https://dc.lft.to/lastmile_qr_scan"}, "lat": 38.89225283333333, "is_reserved": 0, "bike_id": "e87e086bb777589b85ae19ad97624588", "lon": -77.04328866666667, "is_disabled": 0, "fusion_lat": 0.0, "fusion_lon": 0.0, "name": "e87e086bb777589b85ae19ad97624588", "type": "electric_scooter"}, {"rental_uris": {"ios": "https://dc.lft.to/lastmile_qr_scan", "android": "https://dc.lft.to/lastmile_qr_scan"}, "lat": 38.90164216666667, "is_reserved": 0, "bike_id": "f4408c77ed1f922a54f36c7573af78f1", "lon": -76.93073033333333, "is_disabled": 0, "fusion_lat": 0.0, "fusion_lon": 0.0, "name": "f4408c77ed1f922a54f36c7573af78f1", "type": "electric_scooter"}, {"rental_uris": {"ios": "https://dc.lft.to/lastmile_qr_scan", "android": "https://dc.lft.to/lastmile_qr_scan"}, "lat": 38.857898, "is_reserved": 0, "bike_id": "57d6147ee270844492f557db7342c691", "lon": -77.09964383333333, "is_disabled": 0, "fusion_lat": 0.0, "fusion_lon": 0.0, "name": "57d6147ee270844492f557db7342c691", "type": "electric_bike"}, {"rental_uris": {"ios": "https://dc.lft.to/lastmile_qr_scan", "android": "https://dc.lft.to/lastmile_qr_scan"}, "lat": 38.8952815, "is_reserved": 0, "bike_id": "137006a63b6e91976903d8f924a9cbe2", "lon": -77.002095, "is_disabled": 0, "fusion_lat": 0.0, "fusion_lon": 0.0, "name": "137006a63b6e91976903d8f924a9cbe2", "type": "electric_scooter"}, {"rental_uris": {"ios": "https://dc.lft.to/lastmile_qr_scan", "android": "https://dc.lft.to/lastmile_qr_scan"}, "lat": 38.90913183333333, "is_reserved": 0, "bike_id": "c56d95be2b1d2943bfc57846ef10f79a", "lon": -76.986327, "is_disabled": 0, "fusion_lat": 0.0, "fusion_lon": 0.0, "name": "c56d95be2b1d2943bfc57846ef10f79a", "type": "electric_scooter"}, {"rental_uris": {"ios": "https://dc.lft.to/lastmile_qr_scan", "android": "https://dc.lft.to/lastmile_qr_scan"}, "lat": 39.01413683333333, "is_reserved": 0, "bike_id": "a5ed3fdbf0baddfdb5a87bc737eec254", "lon": -77.04500433333334, "is_disabled": 0, "fusion_lat": 0.0, "fusion_lon": 0.0, "name": "a5ed3fdbf0baddfdb5a87bc737eec254", "type": "electric_bike"}, {"rental_uris": {"ios": "https://dc.lft.to/lastmile_qr_scan", "android": "https://dc.lft.to/lastmile_qr_scan"}, "lat": 38.8160725, "is_reserved": 0, "bike_id": "35c7b1a5de2f243d73959b43bd6fed23", "lon": -76.99658583333333, "is_disabled": 0, "fusion_lat": 0.0, "fusion_lon": 0.0, "name": "35c7b1a5de2f243d73959b43bd6fed23", "type": "electric_bike"}, {"rental_uris": {"ios": "https://dc.lft.to/lastmile_qr_scan", "android": "https://dc.lft.to/lastmile_qr_scan"}, "lat": 38.9610955, "is_reserved": 0, "bike_id": "39bfbd413fc8d892c9208abd79d3eb77", "lon": -77.00948566666666, "is_disabled": 0, "fusion_lat": 0.0, "fusion_lon": 0.0, "name": "39bfbd413fc8d892c9208abd79d3eb77", "type": "electric_scooter"}, {"rental_uris": {"ios": "https://dc.lft.to/lastmile_qr_scan", "android": "https://dc.lft.to/lastmile_qr_scan"}, "lat": 38.898027666666664, "is_reserved": 0, "bike_id": "76ccc7abe438a95c139ae29a2aa0fa97", "lon": -76.99086933333334, "is_disabled": 0, "fusion_lat": 0.0, "fusion_lon": 0.0, "name": "76ccc7abe438a95c139ae29a2aa0fa97", "type": "electric_bike"}, {"rental_uris": {"ios": "https://dc.lft.to/lastmile_qr_scan", "android": "https://dc.lft.to/lastmile_qr_scan"}, "lat": 38.930441333333334, "is_reserved": 0, "bike_id": "c22049d22eb8d50d9a5947776c53feb5", "lon": -76.95837616666667, "is_disabled": 0, "fusion_lat": 0.0, "fusion_lon": 0.0, "name": "c22049d22eb8d50d9a5947776c53feb5", "type": "electric_bike"}, {"rental_uris": {"ios": "https://dc.lft.to/lastmile_qr_scan", "android": "https://dc.lft.to/lastmile_qr_scan"}, "lat": 38.89974316666667, "is_reserved": 0, "bike_id": "700963e2c1c5c4dc86e0feb14664e7f1", "lon": -77.02126483333333, "is_disabled": 0, "fusion_lat": 0.0, "fusion_lon": 0.0, "name": "700963e2c1c5c4dc86e0feb14664e7f1", "type": "electric_bike"}, {"rental_uris": {"ios": "https://dc.lft.to/lastmile_qr_scan", "android": "https://dc.lft.to/lastmile_qr_scan"}, "lat": 38.8838165, "is_reserved": 0, "bike_id": "485c8e6e99b28346cb4abdde90aaa114", "lon": -76.99524083333333, "is_disabled": 0, "fusion_lat": 0.0, "fusion_lon": 0.0, "name": "485c8e6e99b28346cb4abdde90aaa114", "type": "electric_scooter"}, {"rental_uris": {"ios": "https://dc.lft.to/lastmile_qr_scan", "android": "https://dc.lft.to/lastmile_qr_scan"}, "lat": 38.9071955, "is_reserved": 0, "bike_id": "54166118037ba4562572c908b89570d9", "lon": -77.01139233333333, "is_disabled": 0, "fusion_lat": 0.0, "fusion_lon": 0.0, "name": "54166118037ba4562572c908b89570d9", "type": "electric_scooter"}, {"rental_uris": {"ios": "https://dc.lft.to/lastmile_qr_scan", "android": "https://dc.lft.to/lastmile_qr_scan"}, "lat": 38.9265235, "is_reserved": 0, "bike_id": "d0a51c40ad0d67b4a06648c7605cf571", "lon": -77.03730766666666, "is_disabled": 0, "fusion_lat": 0.0, "fusion_lon": 0.0, "name": "d0a51c40ad0d67b4a06648c7605cf571", "type": "electric_scooter"}, {"rental_uris": {"ios": "https://dc.lft.to/lastmile_qr_scan", "android": "https://dc.lft.to/lastmile_qr_scan"}, "lat": 38.896210833333335, "is_reserved": 0, "bike_id": "60e0eead3322cbc075a0600f1f7da626", "lon": -77.00915216666667, "is_disabled": 0, "fusion_lat": 0.0, "fusion_lon": 0.0, "name": "60e0eead3322cbc075a0600f1f7da626", "type": "electric_scooter"}, {"rental_uris": {"ios": "https://dc.lft.to/lastmile_qr_scan", "android": "https://dc.lft.to/lastmile_qr_scan"}, "lat": 38.8968625, "is_reserved": 0, "bike_id": "90c5e601bf8defdd7625ee3d42db1abc", "lon": -77.023867, "is_disabled": 0, "fusion_lat": 0.0, "fusion_lon": 0.0, "name": "90c5e601bf8defdd7625ee3d42db1abc", "type": "electric_scooter"}, {"rental_uris": {"ios": "https://dc.lft.to/lastmile_qr_scan", "android": "https://dc.lft.to/lastmile_qr_scan"}, "lat": 38.923622, "is_reserved": 0, "bike_id": "b1b678c72baa8ce9e334fb1dbaa648f9", "lon": -77.0505305, "is_disabled": 0, "fusion_lat": 0.0, "fusion_lon": 0.0, "name": "b1b678c72baa8ce9e334fb1dbaa648f9", "type": "electric_scooter"}, {"rental_uris": {"ios": "https://dc.lft.to/lastmile_qr_scan", "android": "https://dc.lft.to/lastmile_qr_scan"}, "lat": 38.89247816666666, "is_reserved": 0, "bike_id": "10b9aec969789a72392efe9f1e7cfd08", "lon": -77.039587, "is_disabled": 0, "fusion_lat": 0.0, "fusion_lon": 0.0, "name": "10b9aec969789a72392efe9f1e7cfd08", "type": "electric_scooter"}, {"rental_uris": {"ios": "https://dc.lft.to/lastmile_qr_scan", "android": "https://dc.lft.to/lastmile_qr_scan"}, "lat": 38.909115, "is_reserved": 0, "bike_id": "20c03ccbed019edd29304b08ee61256a", "lon": -77.07188216666667, "is_disabled": 0, "fusion_lat": 0.0, "fusion_lon": 0.0, "name": "20c03ccbed019edd29304b08ee61256a", "type": "electric_scooter"}, {"rental_uris": {"ios": "https://dc.lft.to/lastmile_qr_scan", "android": "https://dc.lft.to/lastmile_qr_scan"}, "lat": 38.884841333333334, "is_reserved": 0, "bike_id": "e0e60d0a2b094471d69a6e95c871e822", "lon": -76.9564855, "is_disabled": 0, "fusion_lat": 0.0, "fusion_lon": 0.0, "name": "e0e60d0a2b094471d69a6e95c871e822", "type": "electric_scooter"}, {"rental_uris": {"ios": "https://dc.lft.to/lastmile_qr_scan", "android": "https://dc.lft.to/lastmile_qr_scan"}, "lat": 38.9329425, "is_reserved": 0, "bike_id": "a132cde067014ee0cbb7ccecd60eeda7", "lon": -77.02845583333334, "is_disabled": 0, "fusion_lat": 0.0, "fusion_lon": 0.0, "name": "a132cde067014ee0cbb7ccecd60eeda7", "type": "electric_scooter"}, {"rental_uris": {"ios": "https://dc.lft.to/lastmile_qr_scan", "android": "https://dc.lft.to/lastmile_qr_scan"}, "lat": 38.90113683333333, "is_reserved": 0, "bike_id": "12807c9541cf59fd6739b3a4dbe23b6f", "lon": -77.03173866666667, "is_disabled": 0, "fusion_lat": 0.0, "fusion_lon": 0.0, "name": "12807c9541cf59fd6739b3a4dbe23b6f", "type": "electric_scooter"}, {"rental_uris": {"ios": "https://dc.lft.to/lastmile_qr_scan", "android": "https://dc.lft.to/lastmile_qr_scan"}, "lat": 38.9028785, "is_reserved": 0, "bike_id": "93ddfc217a725374e45beadf363ed51e", "lon": -77.03459433333333, "is_disabled": 0, "fusion_lat": 0.0, "fusion_lon": 0.0, "name": "93ddfc217a725374e45beadf363ed51e", "type": "electric_scooter"}, {"rental_uris": {"ios": "https://dc.lft.to/lastmile_qr_scan", "android": "https://dc.lft.to/lastmile_qr_scan"}, "lat": 38.90363633333333, "is_reserved": 0, "bike_id": "66a79ce84c51bf54e7cb19df2ffe024c", "lon": -77.04035933333333, "is_disabled": 0, "fusion_lat": 0.0, "fusion_lon": 0.0, "name": "66a79ce84c51bf54e7cb19df2ffe024c", "type": "electric_scooter"}, {"rental_uris": {"ios": "https://dc.lft.to/lastmile_qr_scan", "android": "https://dc.lft.to/lastmile_qr_scan"}, "lat": 38.887449333333336, "is_reserved": 0, "bike_id": "00081477c5d03b1c6995e9f41d9a3cf2", "lon": -77.02230966666667, "is_disabled": 0, "fusion_lat": 0.0, "fusion_lon": 0.0, "name": "00081477c5d03b1c6995e9f41d9a3cf2", "type": "electric_scooter"}, {"rental_uris": {"ios": "https://dc.lft.to/lastmile_qr_scan", "android": "https://dc.lft.to/lastmile_qr_scan"}, "lat": 38.92936133333333, "is_reserved": 0, "bike_id": "0c4862ab4f0c9333cf1c0696ed43865d", "lon": -77.03266066666667, "is_disabled": 0, "fusion_lat": 0.0, "fusion_lon": 0.0, "name": "0c4862ab4f0c9333cf1c0696ed43865d", "type": "electric_scooter"}, {"rental_uris": {"ios": "https://dc.lft.to/lastmile_qr_scan", "android": "https://dc.lft.to/lastmile_qr_scan"}, "lat": 38.92753966666667, "is_reserved": 0, "bike_id": "33ce37f146fa23387e6d31b8e4ff55a6", "lon": -77.03311083333334, "is_disabled": 0, "fusion_lat": 0.0, "fusion_lon": 0.0, "name": "33ce37f146fa23387e6d31b8e4ff55a6", "type": "electric_scooter"}, {"rental_uris": {"ios": "https://dc.lft.to/lastmile_qr_scan", "android": "https://dc.lft.to/lastmile_qr_scan"}, "lat": 38.839533833333334, "is_reserved": 0, "bike_id": "223998301ee72ab8eb4c1a1b78e91f66", "lon": -77.08764483333333, "is_disabled": 0, "fusion_lat": 0.0, "fusion_lon": 0.0, "name": "223998301ee72ab8eb4c1a1b78e91f66", "type": "electric_bike"}, {"rental_uris": {"ios": "https://dc.lft.to/lastmile_qr_scan", "android": "https://dc.lft.to/lastmile_qr_scan"}, "lat": 38.873931, "is_reserved": 0, "bike_id": "84c15dcfaf37fc0d9ca5f4f5ef3d6c23", "lon": -77.00004583333333, "is_disabled": 0, "fusion_lat": 0.0, "fusion_lon": 0.0, "name": "84c15dcfaf37fc0d9ca5f4f5ef3d6c23", "type": "electric_scooter"}, {"rental_uris": {"ios": "https://dc.lft.to/lastmile_qr_scan", "android": "https://dc.lft.to/lastmile_qr_scan"}, "lat": 38.9246725, "is_reserved": 0, "bike_id": "02bacbc4962146990ee135566553e608", "lon": -77.02218033333334, "is_disabled": 0, "fusion_lat": 0.0, "fusion_lon": 0.0, "name": "02bacbc4962146990ee135566553e608", "type": "electric_scooter"}, {"rental_uris": {"ios": "https://dc.lft.to/lastmile_qr_scan", "android": "https://dc.lft.to/lastmile_qr_scan"}, "lat": 38.923195, "is_reserved": 0, "bike_id": "e377d636b8a01ec4b655b8f64c10b1fe", "lon": -77.04519283333333, "is_disabled": 0, "fusion_lat": 0.0, "fusion_lon": 0.0, "name": "e377d636b8a01ec4b655b8f64c10b1fe", "type": "electric_scooter"}, {"rental_uris": {"ios": "https://dc.lft.to/lastmile_qr_scan", "android": "https://dc.lft.to/lastmile_qr_scan"}, "lat": 38.92706, "is_reserved": 0, "bike_id": "8fb250bd3aa0a41710a547831f375aa7", "lon": -77.024413, "is_disabled": 0, "fusion_lat": 0.0, "fusion_lon": 0.0, "name": "8fb250bd3aa0a41710a547831f375aa7", "type": "electric_scooter"}, {"rental_uris": {"ios": "https://dc.lft.to/lastmile_qr_scan", "android": "https://dc.lft.to/lastmile_qr_scan"}, "lat": 38.917069833333336, "is_reserved": 0, "bike_id": "cd4fc2122e5b9f14db9be0c4e51a1766", "lon": -77.03226083333334, "is_disabled": 0, "fusion_lat": 0.0, "fusion_lon": 0.0, "name": "cd4fc2122e5b9f14db9be0c4e51a1766", "type": "electric_scooter"}, {"rental_uris": {"ios": "https://dc.lft.to/lastmile_qr_scan", "android": "https://dc.lft.to/lastmile_qr_scan"}, "lat": 38.903104666666664, "is_reserved": 0, "bike_id": "fc076f3f978bf3083ff5d1f70fc20479", "lon": -77.04248083333333, "is_disabled": 0, "fusion_lat": 0.0, "fusion_lon": 0.0, "name": "fc076f3f978bf3083ff5d1f70fc20479", "type": "electric_scooter"}, {"rental_uris": {"ios": "https://dc.lft.to/lastmile_qr_scan", "android": "https://dc.lft.to/lastmile_qr_scan"}, "lat": 38.990499666666665, "is_reserved": 0, "bike_id": "3ae14a335441ea5e025477c0a660deae", "lon": -77.03872466666667, "is_disabled": 0, "fusion_lat": 0.0, "fusion_lon": 0.0, "name": "3ae14a335441ea5e025477c0a660deae", "type": "electric_bike"}, {"rental_uris": {"ios": "https://dc.lft.to/lastmile_qr_scan", "android": "https://dc.lft.to/lastmile_qr_scan"}, "lat": 38.9231915, "is_reserved": 0, "bike_id": "81b6ad4b4a366a4d1d97504e444f1924", "lon": -77.01952083333333, "is_disabled": 0, "fusion_lat": 0.0, "fusion_lon": 0.0, "name": "81b6ad4b4a366a4d1d97504e444f1924", "type": "electric_scooter"}, {"rental_uris": {"ios": "https://dc.lft.to/lastmile_qr_scan", "android": "https://dc.lft.to/lastmile_qr_scan"}, "lat": 38.907704333333335, "is_reserved": 0, "bike_id": "897ad4c858dd4276a77feb1ba8895f88", "lon": -77.0427245, "is_disabled": 0, "fusion_lat": 0.0, "fusion_lon": 0.0, "name": "897ad4c858dd4276a77feb1ba8895f88", "type": "electric_scooter"}, {"rental_uris": {"ios": "https://dc.lft.to/lastmile_qr_scan", "android": "https://dc.lft.to/lastmile_qr_scan"}, "lat": 38.892242, "is_reserved": 0, "bike_id": "6882fac2efdb0aea7e9b304fc4b2b1e9", "lon": -77.047746, "is_disabled": 0, "fusion_lat": 0.0, "fusion_lon": 0.0, "name": "6882fac2efdb0aea7e9b304fc4b2b1e9", "type": "electric_scooter"}, {"rental_uris": {"ios": "https://dc.lft.to/lastmile_qr_scan", "android": "https://dc.lft.to/lastmile_qr_scan"}, "lat": 38.886338, "is_reserved": 0, "bike_id": "a1417cbae4566069ea0143472eaf6933", "lon": -77.01543533333333, "is_disabled": 0, "fusion_lat": 0.0, "fusion_lon": 0.0, "name": "a1417cbae4566069ea0143472eaf6933", "type": "electric_scooter"}, {"rental_uris": {"ios": "https://dc.lft.to/lastmile_qr_scan", "android": "https://dc.lft.to/lastmile_qr_scan"}, "lat": 38.83545816666667, "is_reserved": 0, "bike_id": "35152e806bd5129e0a9c559eec00942f", "lon": -76.98724566666667, "is_disabled": 0, "fusion_lat": 0.0, "fusion_lon": 0.0, "name": "35152e806bd5129e0a9c559eec00942f", "type": "electric_bike"}, {"rental_uris": {"ios": "https://dc.lft.to/lastmile_qr_scan", "android": "https://dc.lft.to/lastmile_qr_scan"}, "lat": 38.917327666666665, "is_reserved": 0, "bike_id": "a1e9a25d1f07a1f99f7bc2a2550087c8", "lon": -77.034709, "is_disabled": 0, "fusion_lat": 0.0, "fusion_lon": 0.0, "name": "a1e9a25d1f07a1f99f7bc2a2550087c8", "type": "electric_scooter"}, {"rental_uris": {"ios": "https://dc.lft.to/lastmile_qr_scan", "android": "https://dc.lft.to/lastmile_qr_scan"}, "lat": 38.929598666666664, "is_reserved": 0, "bike_id": "60a3704c9ea86e4188eaf41760ab0205", "lon": -77.01146866666667, "is_disabled": 0, "fusion_lat": 0.0, "fusion_lon": 0.0, "name": "60a3704c9ea86e4188eaf41760ab0205", "type": "electric_scooter"}, {"rental_uris": {"ios": "https://dc.lft.to/lastmile_qr_scan", "android": "https://dc.lft.to/lastmile_qr_scan"}, "lat": 38.9091725, "is_reserved": 0, "bike_id": "eba2da9252e9816dbccbc765e8833fa7", "lon": -77.04160416666667, "is_disabled": 0, "fusion_lat": 0.0, "fusion_lon": 0.0, "name": "eba2da9252e9816dbccbc765e8833fa7", "type": "electric_scooter"}, {"rental_uris": {"ios": "https://dc.lft.to/lastmile_qr_scan", "android": "https://dc.lft.to/lastmile_qr_scan"}, "lat": 38.907643, "is_reserved": 0, "bike_id": "45cff24387e94b7d3c6f1c315451a8a1", "lon": -77.032154, "is_disabled": 0, "fusion_lat": 0.0, "fusion_lon": 0.0, "name": "45cff24387e94b7d3c6f1c315451a8a1", "type": "electric_scooter"}, {"rental_uris": {"ios": "https://dc.lft.to/lastmile_qr_scan", "android": "https://dc.lft.to/lastmile_qr_scan"}, "lat": 38.8789505, "is_reserved": 0, "bike_id": "aab3060ceef6e2a5ac9240c86f4a6e1c", "lon": -77.02197183333334, "is_disabled": 0, "fusion_lat": 0.0, "fusion_lon": 0.0, "name": "aab3060ceef6e2a5ac9240c86f4a6e1c", "type": "electric_scooter"}, {"rental_uris": {"ios": "https://dc.lft.to/lastmile_qr_scan", "android": "https://dc.lft.to/lastmile_qr_scan"}, "lat": 38.844883333333335, "is_reserved": 0, "bike_id": "e223d81cfe123d272e93f8c6b1423109", "lon": -76.9879335, "is_disabled": 0, "fusion_lat": 0.0, "fusion_lon": 0.0, "name": "e223d81cfe123d272e93f8c6b1423109", "type": "electric_scooter"}, {"rental_uris": {"ios": "https://dc.lft.to/lastmile_qr_scan", "android": "https://dc.lft.to/lastmile_qr_scan"}, "lat": 38.9292015, "is_reserved": 0, "bike_id": "f46838385047fb8a9ea923796d9c77cd", "lon": -77.03289116666667, "is_disabled": 0, "fusion_lat": 0.0, "fusion_lon": 0.0, "name": "f46838385047fb8a9ea923796d9c77cd", "type": "electric_scooter"}, {"rental_uris": {"ios": "https://dc.lft.to/lastmile_qr_scan", "android": "https://dc.lft.to/lastmile_qr_scan"}, "lat": 38.920384166666665, "is_reserved": 0, "bike_id": "06a82d5711058c01cb0a693724c7462a", "lon": -77.01677183333334, "is_disabled": 0, "fusion_lat": 0.0, "fusion_lon": 0.0, "name": "06a82d5711058c01cb0a693724c7462a", "type": "electric_scooter"}, {"rental_uris": {"ios": "https://dc.lft.to/lastmile_qr_scan", "android": "https://dc.lft.to/lastmile_qr_scan"}, "lat": 38.902435833333335, "is_reserved": 0, "bike_id": "9c1d26a6ad35415d36f969db34ec0a20", "lon": -77.0433935, "is_disabled": 0, "fusion_lat": 0.0, "fusion_lon": 0.0, "name": "9c1d26a6ad35415d36f969db34ec0a20", "type": "electric_scooter"}, {"rental_uris": {"ios": "https://dc.lft.to/lastmile_qr_scan", "android": "https://dc.lft.to/lastmile_qr_scan"}, "lat": 38.93372566666667, "is_reserved": 0, "bike_id": "f9bc6354e2b6bcb50a22a29a4aa47ef5", "lon": -77.02378333333333, "is_disabled": 0, "fusion_lat": 0.0, "fusion_lon": 0.0, "name": "f9bc6354e2b6bcb50a22a29a4aa47ef5", "type": "electric_scooter"}, {"rental_uris": {"ios": "https://dc.lft.to/lastmile_qr_scan", "android": "https://dc.lft.to/lastmile_qr_scan"}, "lat": 38.897124166666664, "is_reserved": 0, "bike_id": "fd3905e1921b9b8820aa0f48998f5dc0", "lon": -77.02689183333334, "is_disabled": 0, "fusion_lat": 0.0, "fusion_lon": 0.0, "name": "fd3905e1921b9b8820aa0f48998f5dc0", "type": "electric_scooter"}, {"rental_uris": {"ios": "https://dc.lft.to/lastmile_qr_scan", "android": "https://dc.lft.to/lastmile_qr_scan"}, "lat": 38.80653183333333, "is_reserved": 0, "bike_id": "1926a75cf0f8cfe3188cba440c7729a9", "lon": -77.08762533333334, "is_disabled": 0, "fusion_lat": 0.0, "fusion_lon": 0.0, "name": "1926a75cf0f8cfe3188cba440c7729a9", "type": "electric_bike"}, {"rental_uris": {"ios": "https://dc.lft.to/lastmile_qr_scan", "android": "https://dc.lft.to/lastmile_qr_scan"}, "lat": 38.97215933333333, "is_reserved": 0, "bike_id": "f915515709d5a736f12aaaf7d3a83a96", "lon": -77.01425916666666, "is_disabled": 0, "fusion_lat": 0.0, "fusion_lon": 0.0, "name": "f915515709d5a736f12aaaf7d3a83a96", "type": "electric_bike"}, {"rental_uris": {"ios": "https://dc.lft.to/lastmile_qr_scan", "android": "https://dc.lft.to/lastmile_qr_scan"}, "lat": 38.794647833333336, "is_reserved": 0, "bike_id": "2bf7bb29385acaf192cad707e06683b3", "lon": -76.9925005, "is_disabled": 0, "fusion_lat": 0.0, "fusion_lon": 0.0, "name": "2bf7bb29385acaf192cad707e06683b3", "type": "electric_bike"}, {"rental_uris": {"ios": "https://dc.lft.to/lastmile_qr_scan", "android": "https://dc.lft.to/lastmile_qr_scan"}, "lat": 38.9004365, "is_reserved": 0, "bike_id": "5debbd8c5d222a43387721cf8f12ad7a", "lon": -77.00216, "is_disabled": 0, "fusion_lat": 0.0, "fusion_lon": 0.0, "name": "5debbd8c5d222a43387721cf8f12ad7a", "type": "electric_scooter"}, {"rental_uris": {"ios": "https://dc.lft.to/lastmile_qr_scan", "android": "https://dc.lft.to/lastmile_qr_scan"}, "lat": 38.91693266666667, "is_reserved": 0, "bike_id": "29087a8891a9c719d70a9df4ee6ce341", "lon": -77.02292716666666, "is_disabled": 0, "fusion_lat": 0.0, "fusion_lon": 0.0, "name": "29087a8891a9c719d70a9df4ee6ce341", "type": "electric_scooter"}, {"rental_uris": {"ios": "https://dc.lft.to/lastmile_qr_scan", "android": "https://dc.lft.to/lastmile_qr_scan"}, "lat": 38.90027966666667, "is_reserved": 0, "bike_id": "f4ad3b5aa26420e2f9ec11a6ab3461ee", "lon": -77.05824866666667, "is_disabled": 0, "fusion_lat": 0.0, "fusion_lon": 0.0, "name": "f4ad3b5aa26420e2f9ec11a6ab3461ee", "type": "electric_scooter"}, {"rental_uris": {"ios": "https://dc.lft.to/lastmile_qr_scan", "android": "https://dc.lft.to/lastmile_qr_scan"}, "lat": 38.943796166666665, "is_reserved": 0, "bike_id": "7baf6599f31fc88ed6b6b65e264b10fe", "lon": -77.07705416666667, "is_disabled": 0, "fusion_lat": 0.0, "fusion_lon": 0.0, "name": "7baf6599f31fc88ed6b6b65e264b10fe", "type": "electric_scooter"}, {"rental_uris": {"ios": "https://dc.lft.to/lastmile_qr_scan", "android": "https://dc.lft.to/lastmile_qr_scan"}, "lat": 38.866871833333335, "is_reserved": 0, "bike_id": "35e303e08965fe7e19cd77699cd64873", "lon": -76.9854485, "is_disabled": 0, "fusion_lat": 0.0, "fusion_lon": 0.0, "name": "35e303e08965fe7e19cd77699cd64873", "type": "electric_scooter"}, {"rental_uris": {"ios": "https://dc.lft.to/lastmile_qr_scan", "android": "https://dc.lft.to/lastmile_qr_scan"}, "lat": 38.88634833333333, "is_reserved": 0, "bike_id": "e58f4fa28c42aff18077466b938fe960", "lon": -77.015427, "is_disabled": 0, "fusion_lat": 0.0, "fusion_lon": 0.0, "name": "e58f4fa28c42aff18077466b938fe960", "type": "electric_scooter"}, {"rental_uris": {"ios": "https://dc.lft.to/lastmile_qr_scan", "android": "https://dc.lft.to/lastmile_qr_scan"}, "lat": 38.91908933333333, "is_reserved": 0, "bike_id": "24831394b5ccab321695a70d8b5e61b5", "lon": -77.0295085, "is_disabled": 0, "fusion_lat": 0.0, "fusion_lon": 0.0, "name": "24831394b5ccab321695a70d8b5e61b5", "type": "electric_scooter"}, {"rental_uris": {"ios": "https://dc.lft.to/lastmile_qr_scan", "android": "https://dc.lft.to/lastmile_qr_scan"}, "lat": 38.90046066666667, "is_reserved": 0, "bike_id": "0f306eda1be56b6afda1ded45762fc01", "lon": -76.988342, "is_disabled": 0, "fusion_lat": 0.0, "fusion_lon": 0.0, "name": "0f306eda1be56b6afda1ded45762fc01", "type": "electric_scooter"}, {"rental_uris": {"ios": "https://dc.lft.to/lastmile_qr_scan", "android": "https://dc.lft.to/lastmile_qr_scan"}, "lat": 38.90030633333333, "is_reserved": 0, "bike_id": "285bb11a365708ca1b20dd7b2fe23d70", "lon": -77.01218233333333, "is_disabled": 0, "fusion_lat": 0.0, "fusion_lon": 0.0, "name": "285bb11a365708ca1b20dd7b2fe23d70", "type": "electric_scooter"}, {"rental_uris": {"ios": "https://dc.lft.to/lastmile_qr_scan", "android": "https://dc.lft.to/lastmile_qr_scan"}, "lat": 38.91037716666666, "is_reserved": 0, "bike_id": "99f3bc3d920769149f0e5cc57722645a", "lon": -77.04355983333333, "is_disabled": 0, "fusion_lat": 0.0, "fusion_lon": 0.0, "name": "99f3bc3d920769149f0e5cc57722645a", "type": "electric_scooter"}, {"rental_uris": {"ios": "https://dc.lft.to/lastmile_qr_scan", "android": "https://dc.lft.to/lastmile_qr_scan"}, "lat": 38.92416566666667, "is_reserved": 0, "bike_id": "6e9c37c26dff652c6a0d97858122853f", "lon": -77.05754933333333, "is_disabled": 0, "fusion_lat": 0.0, "fusion_lon": 0.0, "name": "6e9c37c26dff652c6a0d97858122853f", "type": "electric_scooter"}, {"rental_uris": {"ios": "https://dc.lft.to/lastmile_qr_scan", "android": "https://dc.lft.to/lastmile_qr_scan"}, "lat": 38.92365616666667, "is_reserved": 0, "bike_id": "29feac42e7d563b942d141aaa81f8400", "lon": -77.050297, "is_disabled": 0, "fusion_lat": 0.0, "fusion_lon": 0.0, "name": "29feac42e7d563b942d141aaa81f8400", "type": "electric_scooter"}, {"rental_uris": {"ios": "https://dc.lft.to/lastmile_qr_scan", "android": "https://dc.lft.to/lastmile_qr_scan"}, "lat": 38.927390333333335, "is_reserved": 0, "bike_id": "6f7de3a7b0ac6921430ece1360ecff91", "lon": -77.03634683333334, "is_disabled": 0, "fusion_lat": 0.0, "fusion_lon": 0.0, "name": "6f7de3a7b0ac6921430ece1360ecff91", "type": "electric_scooter"}, {"rental_uris": {"ios": "https://dc.lft.to/lastmile_qr_scan", "android": "https://dc.lft.to/lastmile_qr_scan"}, "lat": 38.95241266666667, "is_reserved": 0, "bike_id": "b0f7a811334cc27c5d2278902231df69", "lon": -77.0018395, "is_disabled": 0, "fusion_lat": 0.0, "fusion_lon": 0.0, "name": "b0f7a811334cc27c5d2278902231df69", "type": "electric_scooter"}, {"rental_uris": {"ios": "https://dc.lft.to/lastmile_qr_scan", "android": "https://dc.lft.to/lastmile_qr_scan"}, "lat": 38.89645183333333, "is_reserved": 0, "bike_id": "b0966fe0aa7f7c30e24314c8a45e7dc1", "lon": -77.02611483333334, "is_disabled": 0, "fusion_lat": 0.0, "fusion_lon": 0.0, "name": "b0966fe0aa7f7c30e24314c8a45e7dc1", "type": "electric_scooter"}, {"rental_uris": {"ios": "https://dc.lft.to/lastmile_qr_scan", "android": "https://dc.lft.to/lastmile_qr_scan"}, "lat": 38.92069816666667, "is_reserved": 0, "bike_id": "e11229a6ad045d6dbd6950ed38b5891c", "lon": -77.02329883333333, "is_disabled": 0, "fusion_lat": 0.0, "fusion_lon": 0.0, "name": "e11229a6ad045d6dbd6950ed38b5891c", "type": "electric_scooter"}, {"rental_uris": {"ios": "https://dc.lft.to/lastmile_qr_scan", "android": "https://dc.lft.to/lastmile_qr_scan"}, "lat": 38.90430416666667, "is_reserved": 0, "bike_id": "ad3f2d9d9cce497a93979f8d3ee9ad77", "lon": -77.05910916666667, "is_disabled": 0, "fusion_lat": 0.0, "fusion_lon": 0.0, "name": "ad3f2d9d9cce497a93979f8d3ee9ad77", "type": "electric_scooter"}, {"rental_uris": {"ios": "https://dc.lft.to/lastmile_qr_scan", "android": "https://dc.lft.to/lastmile_qr_scan"}, "lat": 38.901144, "is_reserved": 0, "bike_id": "2511d8405e83992e49a670c099469c57", "lon": -77.01685333333333, "is_disabled": 0, "fusion_lat": 0.0, "fusion_lon": 0.0, "name": "2511d8405e83992e49a670c099469c57", "type": "electric_scooter"}, {"rental_uris": {"ios": "https://dc.lft.to/lastmile_qr_scan", "android": "https://dc.lft.to/lastmile_qr_scan"}, "lat": 38.878922, "is_reserved": 0, "bike_id": "839c70043d03f6e60f7ee929785c5ce4", "lon": -77.02214266666667, "is_disabled": 0, "fusion_lat": 0.0, "fusion_lon": 0.0, "name": "839c70043d03f6e60f7ee929785c5ce4", "type": "electric_scooter"}, {"rental_uris": {"ios": "https://dc.lft.to/lastmile_qr_scan", "android": "https://dc.lft.to/lastmile_qr_scan"}, "lat": 38.90394883333333, "is_reserved": 0, "bike_id": "061288854d9184b9496b5ae0afe3e01d", "lon": -77.04500366666667, "is_disabled": 0, "fusion_lat": 0.0, "fusion_lon": 0.0, "name": "061288854d9184b9496b5ae0afe3e01d", "type": "electric_scooter"}, {"rental_uris": {"ios": "https://dc.lft.to/lastmile_qr_scan", "android": "https://dc.lft.to/lastmile_qr_scan"}, "lat": 38.90724, "is_reserved": 0, "bike_id": "57bdb38e1b215cee69fec6d25fd9bfe2", "lon": -77.02495716666667, "is_disabled": 0, "fusion_lat": 0.0, "fusion_lon": 0.0, "name": "57bdb38e1b215cee69fec6d25fd9bfe2", "type": "electric_scooter"}, {"rental_uris": {"ios": "https://dc.lft.to/lastmile_qr_scan", "android": "https://dc.lft.to/lastmile_qr_scan"}, "lat": 38.92403083333333, "is_reserved": 0, "bike_id": "127a1ee8dfc1c803e473938ea209a146", "lon": -77.0200915, "is_disabled": 0, "fusion_lat": 0.0, "fusion_lon": 0.0, "name": "127a1ee8dfc1c803e473938ea209a146", "type": "electric_scooter"}, {"rental_uris": {"ios": "https://dc.lft.to/lastmile_qr_scan", "android": "https://dc.lft.to/lastmile_qr_scan"}, "lat": 38.8811285, "is_reserved": 0, "bike_id": "25b99db55aa287dac3b8ddd78e04f3a8", "lon": -77.016444, "is_disabled": 0, "fusion_lat": 0.0, "fusion_lon": 0.0, "name": "25b99db55aa287dac3b8ddd78e04f3a8", "type": "electric_scooter"}, {"rental_uris": {"ios": "https://dc.lft.to/lastmile_qr_scan", "android": "https://dc.lft.to/lastmile_qr_scan"}, "lat": 38.907705166666666, "is_reserved": 0, "bike_id": "2631d530b55d723ba0549eaab02791a7", "lon": -77.03766416666667, "is_disabled": 0, "fusion_lat": 0.0, "fusion_lon": 0.0, "name": "2631d530b55d723ba0549eaab02791a7", "type": "electric_bike"}, {"rental_uris": {"ios": "https://dc.lft.to/lastmile_qr_scan", "android": "https://dc.lft.to/lastmile_qr_scan"}, "lat": 38.898265, "is_reserved": 0, "bike_id": "5efbd299d5cec95b78226071f2974152", "lon": -76.9463045, "is_disabled": 0, "fusion_lat": 0.0, "fusion_lon": 0.0, "name": "5efbd299d5cec95b78226071f2974152", "type": "electric_scooter"}, {"rental_uris": {"ios": "https://dc.lft.to/lastmile_qr_scan", "android": "https://dc.lft.to/lastmile_qr_scan"}, "lat": 38.94164, "is_reserved": 0, "bike_id": "8c32da5a75c61c942bd3d7cc859bf4d3", "lon": -77.0255825, "is_disabled": 0, "fusion_lat": 0.0, "fusion_lon": 0.0, "name": "8c32da5a75c61c942bd3d7cc859bf4d3", "type": "electric_scooter"}, {"rental_uris": {"ios": "https://dc.lft.to/lastmile_qr_scan", "android": "https://dc.lft.to/lastmile_qr_scan"}, "lat": 38.887159833333335, "is_reserved": 0, "bike_id": "5cbbb745f65a5a14d6c68780a23d68e8", "lon": -77.03191166666667, "is_disabled": 0, "fusion_lat": 0.0, "fusion_lon": 0.0, "name": "5cbbb745f65a5a14d6c68780a23d68e8", "type": "electric_scooter"}, {"rental_uris": {"ios": "https://dc.lft.to/lastmile_qr_scan", "android": "https://dc.lft.to/lastmile_qr_scan"}, "lat": 38.89936433333333, "is_reserved": 0, "bike_id": "e75cd46f8d04825c36e2c8cbb05b4baf", "lon": -76.99723116666667, "is_disabled": 0, "fusion_lat": 0.0, "fusion_lon": 0.0, "name": "e75cd46f8d04825c36e2c8cbb05b4baf", "type": "electric_scooter"}, {"rental_uris": {"ios": "https://dc.lft.to/lastmile_qr_scan", "android": "https://dc.lft.to/lastmile_qr_scan"}, "lat": 38.93425216666667, "is_reserved": 0, "bike_id": "90a2f381f2b8a1d20b165c3501ff5fe8", "lon": -77.04002366666667, "is_disabled": 0, "fusion_lat": 0.0, "fusion_lon": 0.0, "name": "90a2f381f2b8a1d20b165c3501ff5fe8", "type": "electric_scooter"}, {"rental_uris": {"ios": "https://dc.lft.to/lastmile_qr_scan", "android": "https://dc.lft.to/lastmile_qr_scan"}, "lat": 38.9354425, "is_reserved": 0, "bike_id": "51af7667eab85e18031ce488cb707642", "lon": -77.03091616666667, "is_disabled": 0, "fusion_lat": 0.0, "fusion_lon": 0.0, "name": "51af7667eab85e18031ce488cb707642", "type": "electric_scooter"}, {"rental_uris": {"ios": "https://dc.lft.to/lastmile_qr_scan", "android": "https://dc.lft.to/lastmile_qr_scan"}, "lat": 38.907164333333334, "is_reserved": 0, "bike_id": "263a7bbf00aaf4e99275c45ec5939f81", "lon": -77.01916083333333, "is_disabled": 0, "fusion_lat": 0.0, "fusion_lon": 0.0, "name": "263a7bbf00aaf4e99275c45ec5939f81", "type": "electric_scooter"}, {"rental_uris": {"ios": "https://dc.lft.to/lastmile_qr_scan", "android": "https://dc.lft.to/lastmile_qr_scan"}, "lat": 38.88743733333333, "is_reserved": 0, "bike_id": "a4369d23e35c238e4861a5aa3a71a9bf", "lon": -77.02283583333333, "is_disabled": 0, "fusion_lat": 0.0, "fusion_lon": 0.0, "name": "a4369d23e35c238e4861a5aa3a71a9bf", "type": "electric_scooter"}, {"rental_uris": {"ios": "https://dc.lft.to/lastmile_qr_scan", "android": "https://dc.lft.to/lastmile_qr_scan"}, "lat": 38.90611916666667, "is_reserved": 0, "bike_id": "6ed60487347b05bbd89822bc49320978", "lon": -77.0403765, "is_disabled": 0, "fusion_lat": 0.0, "fusion_lon": 0.0, "name": "6ed60487347b05bbd89822bc49320978", "type": "electric_scooter"}, {"rental_uris": {"ios": "https://dc.lft.to/lastmile_qr_scan", "android": "https://dc.lft.to/lastmile_qr_scan"}, "lat": 38.91817616666667, "is_reserved": 0, "bike_id": "6bc156a70f30c46d1c81357f2ef17afe", "lon": -77.02473783333333, "is_disabled": 0, "fusion_lat": 0.0, "fusion_lon": 0.0, "name": "6bc156a70f30c46d1c81357f2ef17afe", "type": "electric_scooter"}, {"rental_uris": {"ios": "https://dc.lft.to/lastmile_qr_scan", "android": "https://dc.lft.to/lastmile_qr_scan"}, "lat": 38.85244483333334, "is_reserved": 0, "bike_id": "453192b22eb65f5115d7f0512a0fc4c9", "lon": -77.10793066666666, "is_disabled": 0, "fusion_lat": 0.0, "fusion_lon": 0.0, "name": "453192b22eb65f5115d7f0512a0fc4c9", "type": "electric_bike"}, {"rental_uris": {"ios": "https://dc.lft.to/lastmile_qr_scan", "android": "https://dc.lft.to/lastmile_qr_scan"}, "lat": 38.93491083333333, "is_reserved": 0, "bike_id": "761a724e132ddf1a16cd529609af4238", "lon": -77.08157883333334, "is_disabled": 0, "fusion_lat": 0.0, "fusion_lon": 0.0, "name": "761a724e132ddf1a16cd529609af4238", "type": "electric_scooter"}, {"rental_uris": {"ios": "https://dc.lft.to/lastmile_qr_scan", "android": "https://dc.lft.to/lastmile_qr_scan"}, "lat": 38.9028975, "is_reserved": 0, "bike_id": "28fed7de96975f7563027333d481f34e", "lon": -77.044698, "is_disabled": 0, "fusion_lat": 0.0, "fusion_lon": 0.0, "name": "28fed7de96975f7563027333d481f34e", "type": "electric_scooter"}, {"rental_uris": {"ios": "https://dc.lft.to/lastmile_qr_scan", "android": "https://dc.lft.to/lastmile_qr_scan"}, "lat": 38.86688066666667, "is_reserved": 0, "bike_id": "efda388fcf5194ef1626a3801046533d", "lon": -76.98544133333333, "is_disabled": 0, "fusion_lat": 0.0, "fusion_lon": 0.0, "name": "efda388fcf5194ef1626a3801046533d", "type": "electric_scooter"}, {"rental_uris": {"ios": "https://dc.lft.to/lastmile_qr_scan", "android": "https://dc.lft.to/lastmile_qr_scan"}, "lat": 38.90710083333333, "is_reserved": 0, "bike_id": "117d3b09f7b83e54a6a5c61d6ad30182", "lon": -77.009318, "is_disabled": 0, "fusion_lat": 0.0, "fusion_lon": 0.0, "name": "117d3b09f7b83e54a6a5c61d6ad30182", "type": "electric_scooter"}, {"rental_uris": {"ios": "https://dc.lft.to/lastmile_qr_scan", "android": "https://dc.lft.to/lastmile_qr_scan"}, "lat": 38.821727833333334, "is_reserved": 0, "bike_id": "6f8dd79ddd5b1033fe9a737051f0fe75", "lon": -76.99511383333333, "is_disabled": 0, "fusion_lat": 0.0, "fusion_lon": 0.0, "name": "6f8dd79ddd5b1033fe9a737051f0fe75", "type": "electric_bike"}, {"rental_uris": {"ios": "https://dc.lft.to/lastmile_qr_scan", "android": "https://dc.lft.to/lastmile_qr_scan"}, "lat": 38.918133166666664, "is_reserved": 0, "bike_id": "ca58c3a16762b49b91ca972b5ce9213b", "lon": -77.03699266666666, "is_disabled": 0, "fusion_lat": 0.0, "fusion_lon": 0.0, "name": "ca58c3a16762b49b91ca972b5ce9213b", "type": "electric_scooter"}, {"rental_uris": {"ios": "https://dc.lft.to/lastmile_qr_scan", "android": "https://dc.lft.to/lastmile_qr_scan"}, "lat": 38.902222333333334, "is_reserved": 0, "bike_id": "9008c6328839dab18c22e6490db177d5", "lon": -77.04567566666667, "is_disabled": 0, "fusion_lat": 0.0, "fusion_lon": 0.0, "name": "9008c6328839dab18c22e6490db177d5", "type": "electric_bike"}, {"rental_uris": {"ios": "https://dc.lft.to/lastmile_qr_scan", "android": "https://dc.lft.to/lastmile_qr_scan"}, "lat": 38.919197, "is_reserved": 0, "bike_id": "f0786bd40c4bb3143d50ea0044503a40", "lon": -77.03181883333333, "is_disabled": 0, "fusion_lat": 0.0, "fusion_lon": 0.0, "name": "f0786bd40c4bb3143d50ea0044503a40", "type": "electric_scooter"}, {"rental_uris": {"ios": "https://dc.lft.to/lastmile_qr_scan", "android": "https://dc.lft.to/lastmile_qr_scan"}, "lat": 38.92832116666666, "is_reserved": 0, "bike_id": "4db88b75be4ce1df6985cf4f64e8df8b", "lon": -77.02190416666667, "is_disabled": 0, "fusion_lat": 0.0, "fusion_lon": 0.0, "name": "4db88b75be4ce1df6985cf4f64e8df8b", "type": "electric_scooter"}, {"rental_uris": {"ios": "https://dc.lft.to/lastmile_qr_scan", "android": "https://dc.lft.to/lastmile_qr_scan"}, "lat": 38.93182316666667, "is_reserved": 0, "bike_id": "098d29be78aab344d1062bcb60d586fb", "lon": -77.03634583333333, "is_disabled": 0, "fusion_lat": 0.0, "fusion_lon": 0.0, "name": "098d29be78aab344d1062bcb60d586fb", "type": "electric_scooter"}, {"rental_uris": {"ios": "https://dc.lft.to/lastmile_qr_scan", "android": "https://dc.lft.to/lastmile_qr_scan"}, "lat": 38.914730666666664, "is_reserved": 0, "bike_id": "2f4516d1e24f39268818dcd74c6d309f", "lon": -77.04613566666667, "is_disabled": 0, "fusion_lat": 0.0, "fusion_lon": 0.0, "name": "2f4516d1e24f39268818dcd74c6d309f", "type": "electric_scooter"}, {"rental_uris": {"ios": "https://dc.lft.to/lastmile_qr_scan", "android": "https://dc.lft.to/lastmile_qr_scan"}, "lat": 38.90107366666667, "is_reserved": 0, "bike_id": "2fe7216a5c76dfd111331dcc14e28bc5", "lon": -77.0487915, "is_disabled": 0, "fusion_lat": 0.0, "fusion_lon": 0.0, "name": "2fe7216a5c76dfd111331dcc14e28bc5", "type": "electric_bike"}, {"rental_uris": {"ios": "https://dc.lft.to/lastmile_qr_scan", "android": "https://dc.lft.to/lastmile_qr_scan"}, "lat": 38.887342333333336, "is_reserved": 0, "bike_id": "c8198403151590bf9e0d7400043986eb", "lon": -77.00202366666667, "is_disabled": 0, "fusion_lat": 0.0, "fusion_lon": 0.0, "name": "c8198403151590bf9e0d7400043986eb", "type": "electric_scooter"}, {"rental_uris": {"ios": "https://dc.lft.to/lastmile_qr_scan", "android": "https://dc.lft.to/lastmile_qr_scan"}, "lat": 38.915511333333335, "is_reserved": 0, "bike_id": "3959716c53547b840dfc41eefb4cb3d9", "lon": -77.03176466666666, "is_disabled": 0, "fusion_lat": 0.0, "fusion_lon": 0.0, "name": "3959716c53547b840dfc41eefb4cb3d9", "type": "electric_scooter"}, {"rental_uris": {"ios": "https://dc.lft.to/lastmile_qr_scan", "android": "https://dc.lft.to/lastmile_qr_scan"}, "lat": 38.91698266666667, "is_reserved": 0, "bike_id": "eb669854e2d06acd491f08d290a846cb", "lon": -77.02765133333334, "is_disabled": 0, "fusion_lat": 0.0, "fusion_lon": 0.0, "name": "eb669854e2d06acd491f08d290a846cb", "type": "electric_scooter"}, {"rental_uris": {"ios": "https://dc.lft.to/lastmile_qr_scan", "android": "https://dc.lft.to/lastmile_qr_scan"}, "lat": 38.93095116666667, "is_reserved": 0, "bike_id": "ec66dbef92c8a792dbea301458a024bc", "lon": -77.0306715, "is_disabled": 0, "fusion_lat": 0.0, "fusion_lon": 0.0, "name": "ec66dbef92c8a792dbea301458a024bc", "type": "electric_scooter"}, {"rental_uris": {"ios": "https://dc.lft.to/lastmile_qr_scan", "android": "https://dc.lft.to/lastmile_qr_scan"}, "lat": 38.89438216666667, "is_reserved": 0, "bike_id": "cf964556f215c0e8efbfce86343aafaf", "lon": -77.001262, "is_disabled": 0, "fusion_lat": 0.0, "fusion_lon": 0.0, "name": "cf964556f215c0e8efbfce86343aafaf", "type": "electric_scooter"}, {"rental_uris": {"ios": "https://dc.lft.to/lastmile_qr_scan", "android": "https://dc.lft.to/lastmile_qr_scan"}, "lat": 38.897421333333334, "is_reserved": 0, "bike_id": "a452197923e635461589792b52a97a45", "lon": -77.03194983333333, "is_disabled": 0, "fusion_lat": 0.0, "fusion_lon": 0.0, "name": "a452197923e635461589792b52a97a45", "type": "electric_scooter"}, {"rental_uris": {"ios": "https://dc.lft.to/lastmile_qr_scan", "android": "https://dc.lft.to/lastmile_qr_scan"}, "lat": 38.918142, "is_reserved": 0, "bike_id": "de7682ebf37b9c75484a9b659a7df3f8", "lon": -77.02479083333333, "is_disabled": 0, "fusion_lat": 0.0, "fusion_lon": 0.0, "name": "de7682ebf37b9c75484a9b659a7df3f8", "type": "electric_scooter"}, {"rental_uris": {"ios": "https://dc.lft.to/lastmile_qr_scan", "android": "https://dc.lft.to/lastmile_qr_scan"}, "lat": 38.91419583333333, "is_reserved": 0, "bike_id": "d401baa5a275099232be2a378a871163", "lon": -77.03189283333333, "is_disabled": 0, "fusion_lat": 0.0, "fusion_lon": 0.0, "name": "d401baa5a275099232be2a378a871163", "type": "electric_scooter"}, {"rental_uris": {"ios": "https://dc.lft.to/lastmile_qr_scan", "android": "https://dc.lft.to/lastmile_qr_scan"}, "lat": 38.894789833333334, "is_reserved": 0, "bike_id": "d744c60def82ccc93fe63d6712068193", "lon": -77.01524916666666, "is_disabled": 0, "fusion_lat": 0.0, "fusion_lon": 0.0, "name": "d744c60def82ccc93fe63d6712068193", "type": "electric_scooter"}, {"rental_uris": {"ios": "https://dc.lft.to/lastmile_qr_scan", "android": "https://dc.lft.to/lastmile_qr_scan"}, "lat": 38.900331333333334, "is_reserved": 0, "bike_id": "dfa75c1055aa40954940c102e0790760", "lon": -76.998563, "is_disabled": 0, "fusion_lat": 0.0, "fusion_lon": 0.0, "name": "dfa75c1055aa40954940c102e0790760", "type": "electric_scooter"}, {"rental_uris": {"ios": "https://dc.lft.to/lastmile_qr_scan", "android": "https://dc.lft.to/lastmile_qr_scan"}, "lat": 38.924980833333336, "is_reserved": 0, "bike_id": "82739d0623b0ab3e42cac72fbc8b00c4", "lon": -77.03542666666667, "is_disabled": 0, "fusion_lat": 0.0, "fusion_lon": 0.0, "name": "82739d0623b0ab3e42cac72fbc8b00c4", "type": "electric_scooter"}, {"rental_uris": {"ios": "https://dc.lft.to/lastmile_qr_scan", "android": "https://dc.lft.to/lastmile_qr_scan"}, "lat": 38.9963035, "is_reserved": 0, "bike_id": "3494f68bbb3567aec2099b2d950320ed", "lon": -77.03952233333334, "is_disabled": 0, "fusion_lat": 0.0, "fusion_lon": 0.0, "name": "3494f68bbb3567aec2099b2d950320ed", "type": "electric_bike"}, {"rental_uris": {"ios": "https://dc.lft.to/lastmile_qr_scan", "android": "https://dc.lft.to/lastmile_qr_scan"}, "lat": 38.91567966666667, "is_reserved": 0, "bike_id": "bfa6c44eceedcc72c8993bc182a53a6a", "lon": -77.0118565, "is_disabled": 0, "fusion_lat": 0.0, "fusion_lon": 0.0, "name": "bfa6c44eceedcc72c8993bc182a53a6a", "type": "electric_scooter"}, {"rental_uris": {"ios": "https://dc.lft.to/lastmile_qr_scan", "android": "https://dc.lft.to/lastmile_qr_scan"}, "lat": 38.9014135, "is_reserved": 0, "bike_id": "fed654f4f167da653aa077a5e94bdff3", "lon": -77.03192033333333, "is_disabled": 0, "fusion_lat": 0.0, "fusion_lon": 0.0, "name": "fed654f4f167da653aa077a5e94bdff3", "type": "electric_scooter"}, {"rental_uris": {"ios": "https://dc.lft.to/lastmile_qr_scan", "android": "https://dc.lft.to/lastmile_qr_scan"}, "lat": 38.916465333333335, "is_reserved": 0, "bike_id": "f0150e11a1350feb47c6ff387fe5bee0", "lon": -77.02806966666667, "is_disabled": 0, "fusion_lat": 0.0, "fusion_lon": 0.0, "name": "f0150e11a1350feb47c6ff387fe5bee0", "type": "electric_scooter"}, {"rental_uris": {"ios": "https://dc.lft.to/lastmile_qr_scan", "android": "https://dc.lft.to/lastmile_qr_scan"}, "lat": 38.92830766666667, "is_reserved": 0, "bike_id": "9e24acf2d7367c4391e63f5acc1794d4", "lon": -77.03259333333334, "is_disabled": 0, "fusion_lat": 0.0, "fusion_lon": 0.0, "name": "9e24acf2d7367c4391e63f5acc1794d4", "type": "electric_scooter"}, {"rental_uris": {"ios": "https://dc.lft.to/lastmile_qr_scan", "android": "https://dc.lft.to/lastmile_qr_scan"}, "lat": 38.892232, "is_reserved": 0, "bike_id": "bd9cca867ec01b33cc18f1f1848af877", "lon": -77.043739, "is_disabled": 0, "fusion_lat": 0.0, "fusion_lon": 0.0, "name": "bd9cca867ec01b33cc18f1f1848af877", "type": "electric_scooter"}, {"rental_uris": {"ios": "https://dc.lft.to/lastmile_qr_scan", "android": "https://dc.lft.to/lastmile_qr_scan"}, "lat": 39.05630216666667, "is_reserved": 0, "bike_id": "33b6d3ce45db91371887acea4f9d7538", "lon": -77.12527316666667, "is_disabled": 0, "fusion_lat": 0.0, "fusion_lon": 0.0, "name": "33b6d3ce45db91371887acea4f9d7538", "type": "electric_bike"}, {"rental_uris": {"ios": "https://dc.lft.to/lastmile_qr_scan", "android": "https://dc.lft.to/lastmile_qr_scan"}, "lat": 38.861382, "is_reserved": 0, "bike_id": "ec6486af85dfec31f3cd6ca44d35ff65", "lon": -76.97168233333333, "is_disabled": 0, "fusion_lat": 0.0, "fusion_lon": 0.0, "name": "ec6486af85dfec31f3cd6ca44d35ff65", "type": "electric_scooter"}, {"rental_uris": {"ios": "https://dc.lft.to/lastmile_qr_scan", "android": "https://dc.lft.to/lastmile_qr_scan"}, "lat": 38.87673916666667, "is_reserved": 0, "bike_id": "a5d5157832046ca60d5b8d5187ab34de", "lon": -77.01764, "is_disabled": 0, "fusion_lat": 0.0, "fusion_lon": 0.0, "name": "a5d5157832046ca60d5b8d5187ab34de", "type": "electric_scooter"}, {"rental_uris": {"ios": "https://dc.lft.to/lastmile_qr_scan", "android": "https://dc.lft.to/lastmile_qr_scan"}, "lat": 38.924333, "is_reserved": 0, "bike_id": "ce748cb9be5f7c9010d325bcfcffd9fe", "lon": -77.040112, "is_disabled": 0, "fusion_lat": 0.0, "fusion_lon": 0.0, "name": "ce748cb9be5f7c9010d325bcfcffd9fe", "type": "electric_scooter"}, {"rental_uris": {"ios": "https://dc.lft.to/lastmile_qr_scan", "android": "https://dc.lft.to/lastmile_qr_scan"}, "lat": 38.896158, "is_reserved": 0, "bike_id": "1282de55b3e70869563790556fc154f7", "lon": -77.0446315, "is_disabled": 0, "fusion_lat": 0.0, "fusion_lon": 0.0, "name": "1282de55b3e70869563790556fc154f7", "type": "electric_scooter"}, {"rental_uris": {"ios": "https://dc.lft.to/lastmile_qr_scan", "android": "https://dc.lft.to/lastmile_qr_scan"}, "lat": 38.931066333333334, "is_reserved": 0, "bike_id": "1e316ad8c0d1d9e400fb1fc7d9f16bd9", "lon": -77.02981766666667, "is_disabled": 0, "fusion_lat": 0.0, "fusion_lon": 0.0, "name": "1e316ad8c0d1d9e400fb1fc7d9f16bd9", "type": "electric_scooter"}, {"rental_uris": {"ios": "https://dc.lft.to/lastmile_qr_scan", "android": "https://dc.lft.to/lastmile_qr_scan"}, "lat": 38.925087833333336, "is_reserved": 0, "bike_id": "1d9bcf91ee936fbbbbffe692eff9b287", "lon": -77.00226766666667, "is_disabled": 0, "fusion_lat": 0.0, "fusion_lon": 0.0, "name": "1d9bcf91ee936fbbbbffe692eff9b287", "type": "electric_scooter"}, {"rental_uris": {"ios": "https://dc.lft.to/lastmile_qr_scan", "android": "https://dc.lft.to/lastmile_qr_scan"}, "lat": 38.900648, "is_reserved": 0, "bike_id": "6e7dcc8cf3323083cbe783e641ffb023", "lon": -77.01288016666666, "is_disabled": 0, "fusion_lat": 0.0, "fusion_lon": 0.0, "name": "6e7dcc8cf3323083cbe783e641ffb023", "type": "electric_scooter"}, {"rental_uris": {"ios": "https://dc.lft.to/lastmile_qr_scan", "android": "https://dc.lft.to/lastmile_qr_scan"}, "lat": 38.89860216666667, "is_reserved": 0, "bike_id": "938ea52c798200ee7ff16f2efec3c380", "lon": -76.94642483333334, "is_disabled": 0, "fusion_lat": 0.0, "fusion_lon": 0.0, "name": "938ea52c798200ee7ff16f2efec3c380", "type": "electric_scooter"}, {"rental_uris": {"ios": "https://dc.lft.to/lastmile_qr_scan", "android": "https://dc.lft.to/lastmile_qr_scan"}, "lat": 38.91175666666667, "is_reserved": 0, "bike_id": "b439a33099489b4efa70d8076095c44c", "lon": -77.02830616666667, "is_disabled": 0, "fusion_lat": 0.0, "fusion_lon": 0.0, "name": "b439a33099489b4efa70d8076095c44c", "type": "electric_scooter"}, {"rental_uris": {"ios": "https://dc.lft.to/lastmile_qr_scan", "android": "https://dc.lft.to/lastmile_qr_scan"}, "lat": 38.933735666666664, "is_reserved": 0, "bike_id": "f418e745a812ec9f6e5894f2926aeb92", "lon": -77.02676716666667, "is_disabled": 0, "fusion_lat": 0.0, "fusion_lon": 0.0, "name": "f418e745a812ec9f6e5894f2926aeb92", "type": "electric_scooter"}, {"rental_uris": {"ios": "https://dc.lft.to/lastmile_qr_scan", "android": "https://dc.lft.to/lastmile_qr_scan"}, "lat": 38.898613, "is_reserved": 0, "bike_id": "46386e7771bcd2801f526feb3175ee8e", "lon": -77.02819783333334, "is_disabled": 0, "fusion_lat": 0.0, "fusion_lon": 0.0, "name": "46386e7771bcd2801f526feb3175ee8e", "type": "electric_scooter"}, {"rental_uris": {"ios": "https://dc.lft.to/lastmile_qr_scan", "android": "https://dc.lft.to/lastmile_qr_scan"}, "lat": 38.909699333333336, "is_reserved": 0, "bike_id": "d26192f1ac0043b88e77ac4e1afc5380", "lon": -77.0184075, "is_disabled": 0, "fusion_lat": 0.0, "fusion_lon": 0.0, "name": "d26192f1ac0043b88e77ac4e1afc5380", "type": "electric_scooter"}, {"rental_uris": {"ios": "https://dc.lft.to/lastmile_qr_scan", "android": "https://dc.lft.to/lastmile_qr_scan"}, "lat": 38.90728583333333, "is_reserved": 0, "bike_id": "707800ecf688e0ca92061bcfb83acad2", "lon": -77.04284883333334, "is_disabled": 0, "fusion_lat": 0.0, "fusion_lon": 0.0, "name": "707800ecf688e0ca92061bcfb83acad2", "type": "electric_scooter"}, {"rental_uris": {"ios": "https://dc.lft.to/lastmile_qr_scan", "android": "https://dc.lft.to/lastmile_qr_scan"}, "lat": 38.87478616666667, "is_reserved": 0, "bike_id": "c63caa9171db7344e83cac5acdc998b1", "lon": -77.0083395, "is_disabled": 0, "fusion_lat": 0.0, "fusion_lon": 0.0, "name": "c63caa9171db7344e83cac5acdc998b1", "type": "electric_scooter"}, {"rental_uris": {"ios": "https://dc.lft.to/lastmile_qr_scan", "android": "https://dc.lft.to/lastmile_qr_scan"}, "lat": 38.92474466666667, "is_reserved": 0, "bike_id": "993f774652791d77672e3ca3289f4964", "lon": -77.02651716666666, "is_disabled": 0, "fusion_lat": 0.0, "fusion_lon": 0.0, "name": "993f774652791d77672e3ca3289f4964", "type": "electric_scooter"}, {"rental_uris": {"ios": "https://dc.lft.to/lastmile_qr_scan", "android": "https://dc.lft.to/lastmile_qr_scan"}, "lat": 38.91612716666667, "is_reserved": 0, "bike_id": "9311c6951509692c7a2002ca5a2b0516", "lon": -77.04619566666666, "is_disabled": 0, "fusion_lat": 0.0, "fusion_lon": 0.0, "name": "9311c6951509692c7a2002ca5a2b0516", "type": "electric_scooter"}, {"rental_uris": {"ios": "https://dc.lft.to/lastmile_qr_scan", "android": "https://dc.lft.to/lastmile_qr_scan"}, "lat": 38.9033745, "is_reserved": 0, "bike_id": "74e6716e5fe8c381c94c225a26db8030", "lon": -77.04338983333334, "is_disabled": 0, "fusion_lat": 0.0, "fusion_lon": 0.0, "name": "74e6716e5fe8c381c94c225a26db8030", "type": "electric_scooter"}, {"rental_uris": {"ios": "https://dc.lft.to/lastmile_qr_scan", "android": "https://dc.lft.to/lastmile_qr_scan"}, "lat": 38.867627666666664, "is_reserved": 0, "bike_id": "e379b378547409327e36e59aaf569155", "lon": -76.9827425, "is_disabled": 0, "fusion_lat": 0.0, "fusion_lon": 0.0, "name": "e379b378547409327e36e59aaf569155", "type": "electric_scooter"}, {"rental_uris": {"ios": "https://dc.lft.to/lastmile_qr_scan", "android": "https://dc.lft.to/lastmile_qr_scan"}, "lat": 38.881334, "is_reserved": 0, "bike_id": "59c0df815bb5c8ae6a34c0a1148ce325", "lon": -77.0271295, "is_disabled": 0, "fusion_lat": 0.0, "fusion_lon": 0.0, "name": "59c0df815bb5c8ae6a34c0a1148ce325", "type": "electric_scooter"}, {"rental_uris": {"ios": "https://dc.lft.to/lastmile_qr_scan", "android": "https://dc.lft.to/lastmile_qr_scan"}, "lat": 38.952327833333335, "is_reserved": 0, "bike_id": "3e90c3ac7bb2d14c8159aa76873566e6", "lon": -77.01380733333333, "is_disabled": 0, "fusion_lat": 0.0, "fusion_lon": 0.0, "name": "3e90c3ac7bb2d14c8159aa76873566e6", "type": "electric_scooter"}, {"rental_uris": {"ios": "https://dc.lft.to/lastmile_qr_scan", "android": "https://dc.lft.to/lastmile_qr_scan"}, "lat": 38.926020666666666, "is_reserved": 0, "bike_id": "d586c60a8e19c7aa6747b88373d53a70", "lon": -77.01225966666667, "is_disabled": 0, "fusion_lat": 0.0, "fusion_lon": 0.0, "name": "d586c60a8e19c7aa6747b88373d53a70", "type": "electric_scooter"}, {"rental_uris": {"ios": "https://dc.lft.to/lastmile_qr_scan", "android": "https://dc.lft.to/lastmile_qr_scan"}, "lat": 38.892309833333336, "is_reserved": 0, "bike_id": "5e12bd0fc98795d9d5c4c549318ac8b2", "lon": -77.03211633333333, "is_disabled": 0, "fusion_lat": 0.0, "fusion_lon": 0.0, "name": "5e12bd0fc98795d9d5c4c549318ac8b2", "type": "electric_scooter"}, {"rental_uris": {"ios": "https://dc.lft.to/lastmile_qr_scan", "android": "https://dc.lft.to/lastmile_qr_scan"}, "lat": 38.90238166666666, "is_reserved": 0, "bike_id": "c8f49d76d3f3dd6e4d13259a3a17710d", "lon": -77.04347983333334, "is_disabled": 0, "fusion_lat": 0.0, "fusion_lon": 0.0, "name": "c8f49d76d3f3dd6e4d13259a3a17710d", "type": "electric_scooter"}, {"rental_uris": {"ios": "https://dc.lft.to/lastmile_qr_scan", "android": "https://dc.lft.to/lastmile_qr_scan"}, "lat": 38.88488366666667, "is_reserved": 0, "bike_id": "28cd506f3b03e14bdbcba647e4839ad7", "lon": -77.007081, "is_disabled": 0, "fusion_lat": 0.0, "fusion_lon": 0.0, "name": "28cd506f3b03e14bdbcba647e4839ad7", "type": "electric_scooter"}, {"rental_uris": {"ios": "https://dc.lft.to/lastmile_qr_scan", "android": "https://dc.lft.to/lastmile_qr_scan"}, "lat": 38.897299, "is_reserved": 0, "bike_id": "4e54d46958fe8701e0d4cb729b6f576b", "lon": -77.02010266666667, "is_disabled": 0, "fusion_lat": 0.0, "fusion_lon": 0.0, "name": "4e54d46958fe8701e0d4cb729b6f576b", "type": "electric_scooter"}, {"rental_uris": {"ios": "https://dc.lft.to/lastmile_qr_scan", "android": "https://dc.lft.to/lastmile_qr_scan"}, "lat": 38.907347666666666, "is_reserved": 0, "bike_id": "e11e2d6eee30d8a9ed7bb646ffe673a4", "lon": -77.04168083333333, "is_disabled": 0, "fusion_lat": 0.0, "fusion_lon": 0.0, "name": "e11e2d6eee30d8a9ed7bb646ffe673a4", "type": "electric_scooter"}, {"rental_uris": {"ios": "https://dc.lft.to/lastmile_qr_scan", "android": "https://dc.lft.to/lastmile_qr_scan"}, "lat": 38.90665533333333, "is_reserved": 0, "bike_id": "c3b94719d1aaa47227039dabab2515fc", "lon": -77.02605316666667, "is_disabled": 0, "fusion_lat": 0.0, "fusion_lon": 0.0, "name": "c3b94719d1aaa47227039dabab2515fc", "type": "electric_scooter"}, {"rental_uris": {"ios": "https://dc.lft.to/lastmile_qr_scan", "android": "https://dc.lft.to/lastmile_qr_scan"}, "lat": 38.9207325, "is_reserved": 0, "bike_id": "2948869eabfa8ed7f4e79a4ba9cf8555", "lon": -77.02329133333333, "is_disabled": 0, "fusion_lat": 0.0, "fusion_lon": 0.0, "name": "2948869eabfa8ed7f4e79a4ba9cf8555", "type": "electric_scooter"}, {"rental_uris": {"ios": "https://dc.lft.to/lastmile_qr_scan", "android": "https://dc.lft.to/lastmile_qr_scan"}, "lat": 38.956905666666664, "is_reserved": 0, "bike_id": "1323df4e4200f0dea5f2f2b729bdc1ec", "lon": -77.02229383333334, "is_disabled": 0, "fusion_lat": 0.0, "fusion_lon": 0.0, "name": "1323df4e4200f0dea5f2f2b729bdc1ec", "type": "electric_bike"}, {"rental_uris": {"ios": "https://dc.lft.to/lastmile_qr_scan", "android": "https://dc.lft.to/lastmile_qr_scan"}, "lat": 38.909664666666664, "is_reserved": 0, "bike_id": "c558047a7198cddb0400d0f07f1f280b", "lon": -77.01073633333333, "is_disabled": 0, "fusion_lat": 0.0, "fusion_lon": 0.0, "name": "c558047a7198cddb0400d0f07f1f280b", "type": "electric_scooter"}, {"rental_uris": {"ios": "https://dc.lft.to/lastmile_qr_scan", "android": "https://dc.lft.to/lastmile_qr_scan"}, "lat": 38.90414883333333, "is_reserved": 0, "bike_id": "a2e27be17e8350abe22ec502618775b9", "lon": -77.0434525, "is_disabled": 0, "fusion_lat": 0.0, "fusion_lon": 0.0, "name": "a2e27be17e8350abe22ec502618775b9", "type": "electric_scooter"}, {"rental_uris": {"ios": "https://dc.lft.to/lastmile_qr_scan", "android": "https://dc.lft.to/lastmile_qr_scan"}, "lat": 38.9005125, "is_reserved": 0, "bike_id": "9bfa48ebf5e4c13ea46711f4636677a8", "lon": -77.00231366666667, "is_disabled": 0, "fusion_lat": 0.0, "fusion_lon": 0.0, "name": "9bfa48ebf5e4c13ea46711f4636677a8", "type": "electric_scooter"}, {"rental_uris": {"ios": "https://dc.lft.to/lastmile_qr_scan", "android": "https://dc.lft.to/lastmile_qr_scan"}, "lat": 38.92547533333333, "is_reserved": 0, "bike_id": "1167b1d1d4fa16d87b8e794d083a33d5", "lon": -77.00075066666666, "is_disabled": 0, "fusion_lat": 0.0, "fusion_lon": 0.0, "name": "1167b1d1d4fa16d87b8e794d083a33d5", "type": "electric_scooter"}, {"rental_uris": {"ios": "https://dc.lft.to/lastmile_qr_scan", "android": "https://dc.lft.to/lastmile_qr_scan"}, "lat": 38.89556283333334, "is_reserved": 0, "bike_id": "a2ab7e18e78437c00fd35ee5de787a5e", "lon": -77.01899733333333, "is_disabled": 0, "fusion_lat": 0.0, "fusion_lon": 0.0, "name": "a2ab7e18e78437c00fd35ee5de787a5e", "type": "electric_bike"}, {"rental_uris": {"ios": "https://dc.lft.to/lastmile_qr_scan", "android": "https://dc.lft.to/lastmile_qr_scan"}, "lat": 38.957349666666666, "is_reserved": 0, "bike_id": "173ac38f9b134bff74640520a9d8487c", "lon": -76.9725325, "is_disabled": 0, "fusion_lat": 0.0, "fusion_lon": 0.0, "name": "173ac38f9b134bff74640520a9d8487c", "type": "electric_bike"}, {"rental_uris": {"ios": "https://dc.lft.to/lastmile_qr_scan", "android": "https://dc.lft.to/lastmile_qr_scan"}, "lat": 38.874134, "is_reserved": 0, "bike_id": "2cb4fe2c6f924060081d396f9eee71d9", "lon": -76.99962233333333, "is_disabled": 0, "fusion_lat": 0.0, "fusion_lon": 0.0, "name": "2cb4fe2c6f924060081d396f9eee71d9", "type": "electric_scooter"}, {"rental_uris": {"ios": "https://dc.lft.to/lastmile_qr_scan", "android": "https://dc.lft.to/lastmile_qr_scan"}, "lat": 38.914043166666666, "is_reserved": 0, "bike_id": "38523c213ab8627e724560b93210b737", "lon": -77.01484383333333, "is_disabled": 0, "fusion_lat": 0.0, "fusion_lon": 0.0, "name": "38523c213ab8627e724560b93210b737", "type": "electric_scooter"}, {"rental_uris": {"ios": "https://dc.lft.to/lastmile_qr_scan", "android": "https://dc.lft.to/lastmile_qr_scan"}, "lat": 38.90561116666667, "is_reserved": 0, "bike_id": "ee4d3147e5ee61df23d1ac9b591fe082", "lon": -77.04021183333333, "is_disabled": 0, "fusion_lat": 0.0, "fusion_lon": 0.0, "name": "ee4d3147e5ee61df23d1ac9b591fe082", "type": "electric_scooter"}, {"rental_uris": {"ios": "https://dc.lft.to/lastmile_qr_scan", "android": "https://dc.lft.to/lastmile_qr_scan"}, "lat": 38.95745516666667, "is_reserved": 0, "bike_id": "f75f2613803a2f27a39193a5de061288", "lon": -76.972549, "is_disabled": 0, "fusion_lat": 0.0, "fusion_lon": 0.0, "name": "f75f2613803a2f27a39193a5de061288", "type": "electric_bike"}, {"rental_uris": {"ios": "https://dc.lft.to/lastmile_qr_scan", "android": "https://dc.lft.to/lastmile_qr_scan"}, "lat": 38.900251833333336, "is_reserved": 0, "bike_id": "1326d237636df39ac3511ff2032bcbbc", "lon": -77.01185133333334, "is_disabled": 0, "fusion_lat": 0.0, "fusion_lon": 0.0, "name": "1326d237636df39ac3511ff2032bcbbc", "type": "electric_scooter"}, {"rental_uris": {"ios": "https://dc.lft.to/lastmile_qr_scan", "android": "https://dc.lft.to/lastmile_qr_scan"}, "lat": 38.894441666666665, "is_reserved": 0, "bike_id": "3b5bb6786abf5daf43dec32632105847", "lon": -77.0263285, "is_disabled": 0, "fusion_lat": 0.0, "fusion_lon": 0.0, "name": "3b5bb6786abf5daf43dec32632105847", "type": "electric_scooter"}, {"rental_uris": {"ios": "https://dc.lft.to/lastmile_qr_scan", "android": "https://dc.lft.to/lastmile_qr_scan"}, "lat": 38.87625933333333, "is_reserved": 0, "bike_id": "e0b793484355d1e7f38dc5b195e46be9", "lon": -77.00746233333334, "is_disabled": 0, "fusion_lat": 0.0, "fusion_lon": 0.0, "name": "e0b793484355d1e7f38dc5b195e46be9", "type": "electric_scooter"}, {"rental_uris": {"ios": "https://dc.lft.to/lastmile_qr_scan", "android": "https://dc.lft.to/lastmile_qr_scan"}, "lat": 38.897522, "is_reserved": 0, "bike_id": "489258396d4ce1e4688b445e274fd2bc", "lon": -77.05151083333334, "is_disabled": 0, "fusion_lat": 0.0, "fusion_lon": 0.0, "name": "489258396d4ce1e4688b445e274fd2bc", "type": "electric_scooter"}, {"rental_uris": {"ios": "https://dc.lft.to/lastmile_qr_scan", "android": "https://dc.lft.to/lastmile_qr_scan"}, "lat": 38.89640383333333, "is_reserved": 0, "bike_id": "5b044283bced99dbfc82b42cdd39ae78", "lon": -77.00927783333333, "is_disabled": 0, "fusion_lat": 0.0, "fusion_lon": 0.0, "name": "5b044283bced99dbfc82b42cdd39ae78", "type": "electric_scooter"}, {"rental_uris": {"ios": "https://dc.lft.to/lastmile_qr_scan", "android": "https://dc.lft.to/lastmile_qr_scan"}, "lat": 38.916284833333336, "is_reserved": 0, "bike_id": "8e5ae201283773698c7c245484b7b274", "lon": -77.03210233333333, "is_disabled": 0, "fusion_lat": 0.0, "fusion_lon": 0.0, "name": "8e5ae201283773698c7c245484b7b274", "type": "electric_scooter"}, {"rental_uris": {"ios": "https://dc.lft.to/lastmile_qr_scan", "android": "https://dc.lft.to/lastmile_qr_scan"}, "lat": 38.9326065, "is_reserved": 0, "bike_id": "2ca3fa2614c4429d613d6e4d20fbd686", "lon": -77.0328375, "is_disabled": 0, "fusion_lat": 0.0, "fusion_lon": 0.0, "name": "2ca3fa2614c4429d613d6e4d20fbd686", "type": "electric_scooter"}, {"rental_uris": {"ios": "https://dc.lft.to/lastmile_qr_scan", "android": "https://dc.lft.to/lastmile_qr_scan"}, "lat": 38.8922115, "is_reserved": 0, "bike_id": "75a59bd9e36fcb51e817348383ab6711", "lon": -77.04513033333333, "is_disabled": 0, "fusion_lat": 0.0, "fusion_lon": 0.0, "name": "75a59bd9e36fcb51e817348383ab6711", "type": "electric_scooter"}, {"rental_uris": {"ios": "https://dc.lft.to/lastmile_qr_scan", "android": "https://dc.lft.to/lastmile_qr_scan"}, "lat": 38.907836833333334, "is_reserved": 0, "bike_id": "fb5b9526c2bb9290dac81bb632788f3d", "lon": -77.03799916666667, "is_disabled": 0, "fusion_lat": 0.0, "fusion_lon": 0.0, "name": "fb5b9526c2bb9290dac81bb632788f3d", "type": "electric_scooter"}, {"rental_uris": {"ios": "https://dc.lft.to/lastmile_qr_scan", "android": "https://dc.lft.to/lastmile_qr_scan"}, "lat": 38.95582483333333, "is_reserved": 0, "bike_id": "11812969cceed632bfb8bde8cca5ff26", "lon": -77.07015033333333, "is_disabled": 0, "fusion_lat": 0.0, "fusion_lon": 0.0, "name": "11812969cceed632bfb8bde8cca5ff26", "type": "electric_scooter"}, {"rental_uris": {"ios": "https://dc.lft.to/lastmile_qr_scan", "android": "https://dc.lft.to/lastmile_qr_scan"}, "lat": 38.9273825, "is_reserved": 0, "bike_id": "9c6a75fc977bbb9de3fd43e51de7a92e", "lon": -77.03434166666666, "is_disabled": 0, "fusion_lat": 0.0, "fusion_lon": 0.0, "name": "9c6a75fc977bbb9de3fd43e51de7a92e", "type": "electric_scooter"}, {"rental_uris": {"ios": "https://dc.lft.to/lastmile_qr_scan", "android": "https://dc.lft.to/lastmile_qr_scan"}, "lat": 38.9030395, "is_reserved": 0, "bike_id": "26683ac66e5b516572e644636561ca2f", "lon": -77.02125533333333, "is_disabled": 0, "fusion_lat": 0.0, "fusion_lon": 0.0, "name": "26683ac66e5b516572e644636561ca2f", "type": "electric_scooter"}, {"rental_uris": {"ios": "https://dc.lft.to/lastmile_qr_scan", "android": "https://dc.lft.to/lastmile_qr_scan"}, "lat": 38.911365, "is_reserved": 0, "bike_id": "74b95c701deeae1dc5f55eaaa92ab5a6", "lon": -77.021884, "is_disabled": 0, "fusion_lat": 0.0, "fusion_lon": 0.0, "name": "74b95c701deeae1dc5f55eaaa92ab5a6", "type": "electric_scooter"}, {"rental_uris": {"ios": "https://dc.lft.to/lastmile_qr_scan", "android": "https://dc.lft.to/lastmile_qr_scan"}, "lat": 38.9138875, "is_reserved": 0, "bike_id": "03a946c694bd7008c4ad28ba69fd7645", "lon": -77.03661916666667, "is_disabled": 0, "fusion_lat": 0.0, "fusion_lon": 0.0, "name": "03a946c694bd7008c4ad28ba69fd7645", "type": "electric_scooter"}, {"rental_uris": {"ios": "https://dc.lft.to/lastmile_qr_scan", "android": "https://dc.lft.to/lastmile_qr_scan"}, "lat": 38.89879066666666, "is_reserved": 0, "bike_id": "c74fafb6f2426e1bfed7e73899594693", "lon": -77.00915066666667, "is_disabled": 0, "fusion_lat": 0.0, "fusion_lon": 0.0, "name": "c74fafb6f2426e1bfed7e73899594693", "type": "electric_scooter"}, {"rental_uris": {"ios": "https://dc.lft.to/lastmile_qr_scan", "android": "https://dc.lft.to/lastmile_qr_scan"}, "lat": 38.9141415, "is_reserved": 0, "bike_id": "12784fb8f8a091bc0bd3e9c9d135eb64", "lon": -77.0223645, "is_disabled": 0, "fusion_lat": 0.0, "fusion_lon": 0.0, "name": "12784fb8f8a091bc0bd3e9c9d135eb64", "type": "electric_scooter"}, {"rental_uris": {"ios": "https://dc.lft.to/lastmile_qr_scan", "android": "https://dc.lft.to/lastmile_qr_scan"}, "lat": 38.887334833333334, "is_reserved": 0, "bike_id": "f01c2fef5de8a4f427630fbdc239c439", "lon": -77.02581583333334, "is_disabled": 0, "fusion_lat": 0.0, "fusion_lon": 0.0, "name": "f01c2fef5de8a4f427630fbdc239c439", "type": "electric_scooter"}, {"rental_uris": {"ios": "https://dc.lft.to/lastmile_qr_scan", "android": "https://dc.lft.to/lastmile_qr_scan"}, "lat": 38.892329833333335, "is_reserved": 0, "bike_id": "dcc0b469edd30546ebd925b87965b9db", "lon": -77.02177633333334, "is_disabled": 0, "fusion_lat": 0.0, "fusion_lon": 0.0, "name": "dcc0b469edd30546ebd925b87965b9db", "type": "electric_scooter"}, {"rental_uris": {"ios": "https://dc.lft.to/lastmile_qr_scan", "android": "https://dc.lft.to/lastmile_qr_scan"}, "lat": 38.901497, "is_reserved": 0, "bike_id": "7784f63aca341de338eadbe311b35139", "lon": -77.03578, "is_disabled": 0, "fusion_lat": 0.0, "fusion_lon": 0.0, "name": "7784f63aca341de338eadbe311b35139", "type": "electric_scooter"}, {"rental_uris": {"ios": "https://dc.lft.to/lastmile_qr_scan", "android": "https://dc.lft.to/lastmile_qr_scan"}, "lat": 38.866797, "is_reserved": 0, "bike_id": "5a0b0df702ef1c293537a999ed683022", "lon": -76.98574466666666, "is_disabled": 0, "fusion_lat": 0.0, "fusion_lon": 0.0, "name": "5a0b0df702ef1c293537a999ed683022", "type": "electric_scooter"}, {"rental_uris": {"ios": "https://dc.lft.to/lastmile_qr_scan", "android": "https://dc.lft.to/lastmile_qr_scan"}, "lat": 38.897442833333336, "is_reserved": 0, "bike_id": "78556e467072e88af5eb534c3b3e3d85", "lon": -76.979757, "is_disabled": 0, "fusion_lat": 0.0, "fusion_lon": 0.0, "name": "78556e467072e88af5eb534c3b3e3d85", "type": "electric_scooter"}, {"rental_uris": {"ios": "https://dc.lft.to/lastmile_qr_scan", "android": "https://dc.lft.to/lastmile_qr_scan"}, "lat": 38.8748955, "is_reserved": 0, "bike_id": "2f0782a717e648f3125c6c2a905a6ba8", "lon": -77.21128683333333, "is_disabled": 0, "fusion_lat": 0.0, "fusion_lon": 0.0, "name": "2f0782a717e648f3125c6c2a905a6ba8", "type": "electric_bike"}, {"rental_uris": {"ios": "https://dc.lft.to/lastmile_qr_scan", "android": "https://dc.lft.to/lastmile_qr_scan"}, "lat": 38.891019666666665, "is_reserved": 0, "bike_id": "5a6a4e10e21b4aff23d50247df4bbcba", "lon": -76.93482783333333, "is_disabled": 0, "fusion_lat": 0.0, "fusion_lon": 0.0, "name": "5a6a4e10e21b4aff23d50247df4bbcba", "type": "electric_bike"}, {"rental_uris": {"ios": "https://dc.lft.to/lastmile_qr_scan", "android": "https://dc.lft.to/lastmile_qr_scan"}, "lat": 38.916314166666666, "is_reserved": 0, "bike_id": "26e504db4a2e1ccedfa0d6737984cda4", "lon": -77.02561833333333, "is_disabled": 0, "fusion_lat": 0.0, "fusion_lon": 0.0, "name": "26e504db4a2e1ccedfa0d6737984cda4", "type": "electric_scooter"}, {"rental_uris": {"ios": "https://dc.lft.to/lastmile_qr_scan", "android": "https://dc.lft.to/lastmile_qr_scan"}, "lat": 38.896143, "is_reserved": 0, "bike_id": "12bead52f520c188f54a6a6bc0d17d3c", "lon": -76.907336, "is_disabled": 0, "fusion_lat": 0.0, "fusion_lon": 0.0, "name": "12bead52f520c188f54a6a6bc0d17d3c", "type": "electric_bike"}, {"rental_uris": {"ios": "https://dc.lft.to/lastmile_qr_scan", "android": "https://dc.lft.to/lastmile_qr_scan"}, "lat": 38.9187655, "is_reserved": 0, "bike_id": "5eb0c4e0b9c6db4362edc8f670154c35", "lon": -77.02207033333333, "is_disabled": 0, "fusion_lat": 0.0, "fusion_lon": 0.0, "name": "5eb0c4e0b9c6db4362edc8f670154c35", "type": "electric_scooter"}, {"rental_uris": {"ios": "https://dc.lft.to/lastmile_qr_scan", "android": "https://dc.lft.to/lastmile_qr_scan"}, "lat": 38.927358166666664, "is_reserved": 0, "bike_id": "4639dc837c44e5110f50f13b3042e238", "lon": -77.02261633333333, "is_disabled": 0, "fusion_lat": 0.0, "fusion_lon": 0.0, "name": "4639dc837c44e5110f50f13b3042e238", "type": "electric_scooter"}, {"rental_uris": {"ios": "https://dc.lft.to/lastmile_qr_scan", "android": "https://dc.lft.to/lastmile_qr_scan"}, "lat": 38.897329666666664, "is_reserved": 0, "bike_id": "a543571d1b9803fde777bd8f8b16ef87", "lon": -77.03361683333334, "is_disabled": 0, "fusion_lat": 0.0, "fusion_lon": 0.0, "name": "a543571d1b9803fde777bd8f8b16ef87", "type": "electric_scooter"}, {"rental_uris": {"ios": "https://dc.lft.to/lastmile_qr_scan", "android": "https://dc.lft.to/lastmile_qr_scan"}, "lat": 38.897513000000004, "is_reserved": 0, "bike_id": "e25aeb66c0911c780e5276222f31552c", "lon": -77.01885666666666, "is_disabled": 0, "fusion_lat": 0.0, "fusion_lon": 0.0, "name": "e25aeb66c0911c780e5276222f31552c", "type": "electric_scooter"}, {"rental_uris": {"ios": "https://dc.lft.to/lastmile_qr_scan", "android": "https://dc.lft.to/lastmile_qr_scan"}, "lat": 38.84608433333333, "is_reserved": 0, "bike_id": "9714613cc0fa28b0560b327c1f091320", "lon": -76.969153, "is_disabled": 0, "fusion_lat": 0.0, "fusion_lon": 0.0, "name": "9714613cc0fa28b0560b327c1f091320", "type": "electric_bike"}, {"rental_uris": {"ios": "https://dc.lft.to/lastmile_qr_scan", "android": "https://dc.lft.to/lastmile_qr_scan"}, "lat": 38.9189895, "is_reserved": 0, "bike_id": "bb4a0a78f59ce81c6a89fbf15d61ce2a", "lon": -77.031142, "is_disabled": 0, "fusion_lat": 0.0, "fusion_lon": 0.0, "name": "bb4a0a78f59ce81c6a89fbf15d61ce2a", "type": "electric_scooter"}, {"rental_uris": {"ios": "https://dc.lft.to/lastmile_qr_scan", "android": "https://dc.lft.to/lastmile_qr_scan"}, "lat": 38.87420633333333, "is_reserved": 0, "bike_id": "a43860b4a0bc9da1dccf27847f935e48", "lon": -77.08566883333333, "is_disabled": 0, "fusion_lat": 0.0, "fusion_lon": 0.0, "name": "a43860b4a0bc9da1dccf27847f935e48", "type": "electric_bike"}, {"rental_uris": {"ios": "https://dc.lft.to/lastmile_qr_scan", "android": "https://dc.lft.to/lastmile_qr_scan"}, "lat": 38.87549583333333, "is_reserved": 0, "bike_id": "db8017b6fd9e8c963e732fa7eae6bbec", "lon": -77.10696733333333, "is_disabled": 0, "fusion_lat": 0.0, "fusion_lon": 0.0, "name": "db8017b6fd9e8c963e732fa7eae6bbec", "type": "electric_bike"}, {"rental_uris": {"ios": "https://dc.lft.to/lastmile_qr_scan", "android": "https://dc.lft.to/lastmile_qr_scan"},