{"data": {"bikes": [{"lon": -77.10808983333334, "bike_id": "e23abfcee4d6b86475c77ddd375e5abf", "lat": 38.812056, "fusion_lon": 0.0, "fusion_lat": 0.0, "type": "electric_bike", "name": "e23abfcee4d6b86475c77ddd375e5abf", "is_disabled": 0, "rental_uris": {"ios": "https://dc.lft.to/lastmile_qr_scan", "android": "https://dc.lft.to/lastmile_qr_scan"}, "is_reserved": 0}, {"lon": -77.000082, "bike_id": "c665cb6092012060c49b63d594a07bd7", "lat": 38.89743083333333, "fusion_lon": 0.0, "fusion_lat": 0.0, "type": "electric_scooter", "name": "c665cb6092012060c49b63d594a07bd7", "is_disabled": 0, "rental_uris": {"ios": "https://dc.lft.to/lastmile_qr_scan", "android": "https://dc.lft.to/lastmile_qr_scan"}, "is_reserved": 0}, {"lon": -76.97425683333333, "bike_id": "1a0e0868a24222fcc7b5b6bf80388710", "lat": 38.90402, "fusion_lon": 0.0, "fusion_lat": 0.0, "type": "electric_scooter", "name": "1a0e0868a24222fcc7b5b6bf80388710", "is_disabled": 0, "rental_uris": {"ios": "https://dc.lft.to/lastmile_qr_scan", "android": "https://dc.lft.to/lastmile_qr_scan"}, "is_reserved": 0}, {"lon": -77.0543295, "bike_id": "6977121546422d95d1a7a07cc77663d9", "lat": 38.928527833333334, "fusion_lon": 0.0, "fusion_lat": 0.0, "type": "electric_bike", "name": "6977121546422d95d1a7a07cc77663d9", "is_disabled": 0, "rental_uris": {"ios": "https://dc.lft.to/lastmile_qr_scan", "android": "https://dc.lft.to/lastmile_qr_scan"}, "is_reserved": 0}, {"lon": -77.0334525, "bike_id": "fb88949bef095fbbc983dde33e69ccce", "lat": 38.90723633333333, "fusion_lon": 0.0, "fusion_lat": 0.0, "type": "electric_scooter", "name": "fb88949bef095fbbc983dde33e69ccce", "is_disabled": 0, "rental_uris": {"ios": "https://dc.lft.to/lastmile_qr_scan", "android": "https://dc.lft.to/lastmile_qr_scan"}, "is_reserved": 0}, {"lon": -77.03167183333333, "bike_id": "b4488b2682b1f3a1224c79cfeb3066ed", "lat": 38.9029755, "fusion_lon": 0.0, "fusion_lat": 0.0, "type": "electric_scooter", "name": "b4488b2682b1f3a1224c79cfeb3066ed", "is_disabled": 0, "rental_uris": {"ios": "https://dc.lft.to/lastmile_qr_scan", "android": "https://dc.lft.to/lastmile_qr_scan"}, "is_reserved": 0}, {"lon": -77.03220483333334, "bike_id": "47c87deb3a0be80b9df6ef851ad187e1", "lat": 38.892255166666665, "fusion_lon": 0.0, "fusion_lat": 0.0, "type": "electric_scooter", "name": "47c87deb3a0be80b9df6ef851ad187e1", "is_disabled": 0, "rental_uris": {"ios": "https://dc.lft.to/lastmile_qr_scan", "android": "https://dc.lft.to/lastmile_qr_scan"}, "is_reserved": 0}, {"lon": -77.0150935, "bike_id": "885bfe9c28fbc65328f6073c5fdc7c66", "lat": 38.88499916666667, "fusion_lon": 0.0, "fusion_lat": 0.0, "type": "electric_scooter", "name": "885bfe9c28fbc65328f6073c5fdc7c66", "is_disabled": 0, "rental_uris": {"ios": "https://dc.lft.to/lastmile_qr_scan", "android": "https://dc.lft.to/lastmile_qr_scan"}, "is_reserved": 0}, {"lon": -77.0350645, "bike_id": "e5074d806ab7ae89eec9e52f36b7b856", "lat": 38.92150083333333, "fusion_lon": 0.0, "fusion_lat": 0.0, "type": "electric_scooter", "name": "e5074d806ab7ae89eec9e52f36b7b856", "is_disabled": 0, "rental_uris": {"ios": "https://dc.lft.to/lastmile_qr_scan", "android": "https://dc.lft.to/lastmile_qr_scan"}, "is_reserved": 0}, {"lon": -77.041642, "bike_id": "37930ffdeb8e2491c287d76785be6204", "lat": 38.905533, "fusion_lon": 0.0, "fusion_lat": 0.0, "type": "electric_scooter", "name": "37930ffdeb8e2491c287d76785be6204", "is_disabled": 0, "rental_uris": {"ios": "https://dc.lft.to/lastmile_qr_scan", "android": "https://dc.lft.to/lastmile_qr_scan"}, "is_reserved": 0}, {"lon": -77.02405216666666, "bike_id": "e770cb0e63066ab4389fd574d0c606bd", "lat": 38.920908, "fusion_lon": 0.0, "fusion_lat": 0.0, "type": "electric_scooter", "name": "e770cb0e63066ab4389fd574d0c606bd", "is_disabled": 0, "rental_uris": {"ios": "https://dc.lft.to/lastmile_qr_scan", "android": "https://dc.lft.to/lastmile_qr_scan"}, "is_reserved": 0}, {"lon": -77.0458825, "bike_id": "e7606914f383def2ccc6adf513cda7cd", "lat": 38.913608833333335, "fusion_lon": 0.0, "fusion_lat": 0.0, "type": "electric_scooter", "name": "e7606914f383def2ccc6adf513cda7cd", "is_disabled": 0, "rental_uris": {"ios": "https://dc.lft.to/lastmile_qr_scan", "android": "https://dc.lft.to/lastmile_qr_scan"}, "is_reserved": 0}, {"lon": -77.00587266666666, "bike_id": "20ee8b334b640ff25e0efebcb5edafb3", "lat": 38.905614, "fusion_lon": 0.0, "fusion_lat": 0.0, "type": "electric_scooter", "name": "20ee8b334b640ff25e0efebcb5edafb3", "is_disabled": 0, "rental_uris": {"ios": "https://dc.lft.to/lastmile_qr_scan", "android": "https://dc.lft.to/lastmile_qr_scan"}, "is_reserved": 0}, {"lon": -77.0218025, "bike_id": "96c92cd93e30fa1727f765284d5c6abf", "lat": 38.89355333333334, "fusion_lon": 0.0, "fusion_lat": 0.0, "type": "electric_scooter", "name": "96c92cd93e30fa1727f765284d5c6abf", "is_disabled": 0, "rental_uris": {"ios": "https://dc.lft.to/lastmile_qr_scan", "android": "https://dc.lft.to/lastmile_qr_scan"}, "is_reserved": 0}, {"lon": -77.0399585, "bike_id": "0c5026b8eab8878e3b4b2a5597f3f17c", "lat": 38.93397133333333, "fusion_lon": 0.0, "fusion_lat": 0.0, "type": "electric_bike", "name": "0c5026b8eab8878e3b4b2a5597f3f17c", "is_disabled": 0, "rental_uris": {"ios": "https://dc.lft.to/lastmile_qr_scan", "android": "https://dc.lft.to/lastmile_qr_scan"}, "is_reserved": 0}, {"lon": -77.01765033333334, "bike_id": "6144a14234fe6aada026a4fca0b0b158", "lat": 38.88740216666667, "fusion_lon": 0.0, "fusion_lat": 0.0, "type": "electric_scooter", "name": "6144a14234fe6aada026a4fca0b0b158", "is_disabled": 0, "rental_uris": {"ios": "https://dc.lft.to/lastmile_qr_scan", "android": "https://dc.lft.to/lastmile_qr_scan"}, "is_reserved": 0}, {"lon": -76.94877116666666, "bike_id": "0e7852890345b109ac3cddafa0b26dcf", "lat": 38.894312666666664, "fusion_lon": 0.0, "fusion_lat": 0.0, "type": "electric_scooter", "name": "0e7852890345b109ac3cddafa0b26dcf", "is_disabled": 0, "rental_uris": {"ios": "https://dc.lft.to/lastmile_qr_scan", "android": "https://dc.lft.to/lastmile_qr_scan"}, "is_reserved": 0}, {"lon": -76.99622066666667, "bike_id": "e13aa89de733f62fd55d75d6ad41f842", "lat": 38.887970833333334, "fusion_lon": 0.0, "fusion_lat": 0.0, "type": "electric_scooter", "name": "e13aa89de733f62fd55d75d6ad41f842", "is_disabled": 0, "rental_uris": {"ios": "https://dc.lft.to/lastmile_qr_scan", "android": "https://dc.lft.to/lastmile_qr_scan"}, "is_reserved": 0}, {"lon": -77.01830266666667, "bike_id": "73f8cb60560d7f816cfa1419017d4b67", "lat": 38.90132, "fusion_lon": 0.0, "fusion_lat": 0.0, "type": "electric_scooter", "name": "73f8cb60560d7f816cfa1419017d4b67", "is_disabled": 0, "rental_uris": {"ios": "https://dc.lft.to/lastmile_qr_scan", "android": "https://dc.lft.to/lastmile_qr_scan"}, "is_reserved": 0}, {"lon": -76.94117816666666, "bike_id": "985076a1278562c7dba3055baaea51fd", "lat": 38.9082335, "fusion_lon": 0.0, "fusion_lat": 0.0, "type": "electric_scooter", "name": "985076a1278562c7dba3055baaea51fd", "is_disabled": 0, "rental_uris": {"ios": "https://dc.lft.to/lastmile_qr_scan", "android": "https://dc.lft.to/lastmile_qr_scan"}, "is_reserved": 0}, {"lon": -77.0225335, "bike_id": "e2d2dea3753bb98cfa6258df3148d668", "lat": 38.955314666666666, "fusion_lon": 0.0, "fusion_lat": 0.0, "type": "electric_scooter", "name": "e2d2dea3753bb98cfa6258df3148d668", "is_disabled": 0, "rental_uris": {"ios": "https://dc.lft.to/lastmile_qr_scan", "android": "https://dc.lft.to/lastmile_qr_scan"}, "is_reserved": 0}, {"lon": -77.04481766666666, "bike_id": "8b9b2eadae79ca11bf361bffee482cc7", "lat": 38.91937633333333, "fusion_lon": 0.0, "fusion_lat": 0.0, "type": "electric_scooter", "name": "8b9b2eadae79ca11bf361bffee482cc7", "is_disabled": 0, "rental_uris": {"ios": "https://dc.lft.to/lastmile_qr_scan", "android": "https://dc.lft.to/lastmile_qr_scan"}, "is_reserved": 0}, {"lon": -76.99053383333333, "bike_id": "09b3627d6d69302584eb1ab2ee43f34d", "lat": 38.863801, "fusion_lon": 0.0, "fusion_lat": 0.0, "type": "electric_scooter", "name": "09b3627d6d69302584eb1ab2ee43f34d", "is_disabled": 0, "rental_uris": {"ios": "https://dc.lft.to/lastmile_qr_scan", "android": "https://dc.lft.to/lastmile_qr_scan"}, "is_reserved": 0}, {"lon": -77.05288816666666, "bike_id": "0fea4c34e57eb7cb887cf2c1361162e9", "lat": 38.90335566666667, "fusion_lon": 0.0, "fusion_lat": 0.0, "type": "electric_scooter", "name": "0fea4c34e57eb7cb887cf2c1361162e9", "is_disabled": 0, "rental_uris": {"ios": "https://dc.lft.to/lastmile_qr_scan", "android": "https://dc.lft.to/lastmile_qr_scan"}, "is_reserved": 0}, {"lon": -77.0385625, "bike_id": "e1829709c633d09bc955a5bcdb4aa40d", "lat": 38.91262316666667, "fusion_lon": 0.0, "fusion_lat": 0.0, "type": "electric_scooter", "name": "e1829709c633d09bc955a5bcdb4aa40d", "is_disabled": 0, "rental_uris": {"ios": "https://dc.lft.to/lastmile_qr_scan", "android": "https://dc.lft.to/lastmile_qr_scan"}, "is_reserved": 0}, {"lon": -77.0006775, "bike_id": "37b72138d7aa8224185531a27fd34a18", "lat": 38.90083716666667, "fusion_lon": 0.0, "fusion_lat": 0.0, "type": "electric_scooter", "name": "37b72138d7aa8224185531a27fd34a18", "is_disabled": 0, "rental_uris": {"ios": "https://dc.lft.to/lastmile_qr_scan", "android": "https://dc.lft.to/lastmile_qr_scan"}, "is_reserved": 0}, {"lon": -77.02579483333334, "bike_id": "b6bb51cae8c9ce43b674c2da2a6da100", "lat": 38.887407, "fusion_lon": 0.0, "fusion_lat": 0.0, "type": "electric_scooter", "name": "b6bb51cae8c9ce43b674c2da2a6da100", "is_disabled": 0, "rental_uris": {"ios": "https://dc.lft.to/lastmile_qr_scan", "android": "https://dc.lft.to/lastmile_qr_scan"}, "is_reserved": 0}, {"lon": -76.993735, "bike_id": "4bd138328e849841cbad6abc3822848e", "lat": 38.89369116666667, "fusion_lon": 0.0, "fusion_lat": 0.0, "type": "electric_scooter", "name": "4bd138328e849841cbad6abc3822848e", "is_disabled": 0, "rental_uris": {"ios": "https://dc.lft.to/lastmile_qr_scan", "android": "https://dc.lft.to/lastmile_qr_scan"}, "is_reserved": 0}, {"lon": -77.03865116666667, "bike_id": "4d96ad67add418c55b15fc94fb13d343", "lat": 38.915599666666665, "fusion_lon": 0.0, "fusion_lat": 0.0, "type": "electric_scooter", "name": "4d96ad67add418c55b15fc94fb13d343", "is_disabled": 0, "rental_uris": {"ios": "https://dc.lft.to/lastmile_qr_scan", "android": "https://dc.lft.to/lastmile_qr_scan"}, "is_reserved": 0}, {"lon": -77.00678566666667, "bike_id": "2a0cdb66e751714ba7afe3befeddd458", "lat": 38.83496816666667, "fusion_lon": 0.0, "fusion_lat": 0.0, "type": "electric_scooter", "name": "2a0cdb66e751714ba7afe3befeddd458", "is_disabled": 0, "rental_uris": {"ios": "https://dc.lft.to/lastmile_qr_scan", "android": "https://dc.lft.to/lastmile_qr_scan"}, "is_reserved": 0}, {"lon": -77.02401333333333, "bike_id": "3252912be8dba0cff6b6ffaf6628bba8", "lat": 38.882808833333335, "fusion_lon": 0.0, "fusion_lat": 0.0, "type": "electric_scooter", "name": "3252912be8dba0cff6b6ffaf6628bba8", "is_disabled": 0, "rental_uris": {"ios": "https://dc.lft.to/lastmile_qr_scan", "android": "https://dc.lft.to/lastmile_qr_scan"}, "is_reserved": 0}, {"lon": -77.03777116666667, "bike_id": "4cfa9efbf03a4e270844f57477249ab4", "lat": 38.936095333333334, "fusion_lon": 0.0, "fusion_lat": 0.0, "type": "electric_scooter", "name": "4cfa9efbf03a4e270844f57477249ab4", "is_disabled": 0, "rental_uris": {"ios": "https://dc.lft.to/lastmile_qr_scan", "android": "https://dc.lft.to/lastmile_qr_scan"}, "is_reserved": 0}, {"lon": -77.010304, "bike_id": "f99f2ea3676778f56622b78224011453", "lat": 38.92126, "fusion_lon": 0.0, "fusion_lat": 0.0, "type": "electric_scooter", "name": "f99f2ea3676778f56622b78224011453", "is_disabled": 0, "rental_uris": {"ios": "https://dc.lft.to/lastmile_qr_scan", "android": "https://dc.lft.to/lastmile_qr_scan"}, "is_reserved": 0}, {"lon": -77.03655616666667, "bike_id": "006f8c7632f5db9ccb693dd76606b708", "lat": 38.90843916666667, "fusion_lon": 0.0, "fusion_lat": 0.0, "type": "electric_scooter", "name": "006f8c7632f5db9ccb693dd76606b708", "is_disabled": 0, "rental_uris": {"ios": "https://dc.lft.to/lastmile_qr_scan", "android": "https://dc.lft.to/lastmile_qr_scan"}, "is_reserved": 0}, {"lon": -77.04661783333333, "bike_id": "db850bc6ff40c781cbf8b6ccb3e45785", "lat": 38.905505, "fusion_lon": 0.0, "fusion_lat": 0.0, "type": "electric_scooter", "name": "db850bc6ff40c781cbf8b6ccb3e45785", "is_disabled": 0, "rental_uris": {"ios": "https://dc.lft.to/lastmile_qr_scan", "android": "https://dc.lft.to/lastmile_qr_scan"}, "is_reserved": 0}, {"lon": -77.02196083333334, "bike_id": "37c85ff082af74416fd9040414eda108", "lat": 38.909541833333336, "fusion_lon": 0.0, "fusion_lat": 0.0, "type": "electric_scooter", "name": "37c85ff082af74416fd9040414eda108", "is_disabled": 0, "rental_uris": {"ios": "https://dc.lft.to/lastmile_qr_scan", "android": "https://dc.lft.to/lastmile_qr_scan"}, "is_reserved": 0}, {"lon": -77.032104, "bike_id": "ea3292b68d5a01cbd36dca251968fe93", "lat": 38.9073115, "fusion_lon": 0.0, "fusion_lat": 0.0, "type": "electric_scooter", "name": "ea3292b68d5a01cbd36dca251968fe93", "is_disabled": 0, "rental_uris": {"ios": "https://dc.lft.to/lastmile_qr_scan", "android": "https://dc.lft.to/lastmile_qr_scan"}, "is_reserved": 0}, {"lon": -76.966077, "bike_id": "3e35cf6cf847f1303290b82729dae6cc", "lat": 38.87115266666667, "fusion_lon": 0.0, "fusion_lat": 0.0, "type": "electric_scooter", "name": "3e35cf6cf847f1303290b82729dae6cc", "is_disabled": 0, "rental_uris": {"ios": "https://dc.lft.to/lastmile_qr_scan", "android": "https://dc.lft.to/lastmile_qr_scan"}, "is_reserved": 0}, {"lon": -77.021568, "bike_id": "8649bf7c51fb5b71b9680f3f857fe9b5", "lat": 38.897161, "fusion_lon": 0.0, "fusion_lat": 0.0, "type": "electric_scooter", "name": "8649bf7c51fb5b71b9680f3f857fe9b5", "is_disabled": 0, "rental_uris": {"ios": "https://dc.lft.to/lastmile_qr_scan", "android": "https://dc.lft.to/lastmile_qr_scan"}, "is_reserved": 0}, {"lon": -77.03662566666667, "bike_id": "6fdc6b121ace00ee1375d9e6ee2f3906", "lat": 38.91814316666667, "fusion_lon": 0.0, "fusion_lat": 0.0, "type": "electric_scooter", "name": "6fdc6b121ace00ee1375d9e6ee2f3906", "is_disabled": 0, "rental_uris": {"ios": "https://dc.lft.to/lastmile_qr_scan", "android": "https://dc.lft.to/lastmile_qr_scan"}, "is_reserved": 0}, {"lon": -77.03085916666667, "bike_id": "726b5460ee4a2638725598a8c7de5647", "lat": 38.932686, "fusion_lon": 0.0, "fusion_lat": 0.0, "type": "electric_bike", "name": "726b5460ee4a2638725598a8c7de5647", "is_disabled": 0, "rental_uris": {"ios": "https://dc.lft.to/lastmile_qr_scan", "android": "https://dc.lft.to/lastmile_qr_scan"}, "is_reserved": 0}, {"lon": -76.9318955, "bike_id": "12f81f20c8de853d7e43852cc21a8931", "lat": 38.8987945, "fusion_lon": 0.0, "fusion_lat": 0.0, "type": "electric_scooter", "name": "12f81f20c8de853d7e43852cc21a8931", "is_disabled": 0, "rental_uris": {"ios": "https://dc.lft.to/lastmile_qr_scan", "android": "https://dc.lft.to/lastmile_qr_scan"}, "is_reserved": 0}, {"lon": -77.02158883333334, "bike_id": "7d1686f2199de7195a8d533f06782d35", "lat": 38.89716216666667, "fusion_lon": 0.0, "fusion_lat": 0.0, "type": "electric_scooter", "name": "7d1686f2199de7195a8d533f06782d35", "is_disabled": 0, "rental_uris": {"ios": "https://dc.lft.to/lastmile_qr_scan", "android": "https://dc.lft.to/lastmile_qr_scan"}, "is_reserved": 0}, {"lon": -76.94595416666667, "bike_id": "476c7f9f43cb2b616727301256510381", "lat": 38.901520833333336, "fusion_lon": 0.0, "fusion_lat": 0.0, "type": "electric_scooter", "name": "476c7f9f43cb2b616727301256510381", "is_disabled": 0, "rental_uris": {"ios": "https://dc.lft.to/lastmile_qr_scan", "android": "https://dc.lft.to/lastmile_qr_scan"}, "is_reserved": 0}, {"lon": -77.03762466666667, "bike_id": "e9627b886d04cc9b8442d98b74201832", "lat": 38.92606033333333, "fusion_lon": 0.0, "fusion_lat": 0.0, "type": "electric_scooter", "name": "e9627b886d04cc9b8442d98b74201832", "is_disabled": 0, "rental_uris": {"ios": "https://dc.lft.to/lastmile_qr_scan", "android": "https://dc.lft.to/lastmile_qr_scan"}, "is_reserved": 0}, {"lon": -77.030408, "bike_id": "bcb67202a6ab8cb46821cadd6d66264d", "lat": 38.937207, "fusion_lon": 0.0, "fusion_lat": 0.0, "type": "electric_scooter", "name": "bcb67202a6ab8cb46821cadd6d66264d", "is_disabled": 0, "rental_uris": {"ios": "https://dc.lft.to/lastmile_qr_scan", "android": "https://dc.lft.to/lastmile_qr_scan"}, "is_reserved": 0}, {"lon": -76.9739495, "bike_id": "0b7bc4c0612cccecd64f49759e734469", "lat": 38.90298583333333, "fusion_lon": 0.0, "fusion_lat": 0.0, "type": "electric_scooter", "name": "0b7bc4c0612cccecd64f49759e734469", "is_disabled": 0, "rental_uris": {"ios": "https://dc.lft.to/lastmile_qr_scan", "android": "https://dc.lft.to/lastmile_qr_scan"}, "is_reserved": 0}, {"lon": -77.03343916666667, "bike_id": "7cf69dbde6f807d9adbb489f14941543", "lat": 38.9205055, "fusion_lon": 0.0, "fusion_lat": 0.0, "type": "electric_scooter", "name": "7cf69dbde6f807d9adbb489f14941543", "is_disabled": 0, "rental_uris": {"ios": "https://dc.lft.to/lastmile_qr_scan", "android": "https://dc.lft.to/lastmile_qr_scan"}, "is_reserved": 0}, {"lon": -77.02715683333334, "bike_id": "f17ee325240e0102b14f9d70d0ea8afe", "lat": 38.9246515, "fusion_lon": 0.0, "fusion_lat": 0.0, "type": "electric_scooter", "name": "f17ee325240e0102b14f9d70d0ea8afe", "is_disabled": 0, "rental_uris": {"ios": "https://dc.lft.to/lastmile_qr_scan", "android": "https://dc.lft.to/lastmile_qr_scan"}, "is_reserved": 0}, {"lon": -77.03996683333334, "bike_id": "2d110b35a8affaacbd6cb81bd80bc858", "lat": 38.93437383333333, "fusion_lon": 0.0, "fusion_lat": 0.0, "type": "electric_scooter", "name": "2d110b35a8affaacbd6cb81bd80bc858", "is_disabled": 0, "rental_uris": {"ios": "https://dc.lft.to/lastmile_qr_scan", "android": "https://dc.lft.to/lastmile_qr_scan"}, "is_reserved": 0}, {"lon": -76.98910516666666, "bike_id": "0a2d2a84b5eebcaa55f45cbdb29a9459", "lat": 38.86492833333333, "fusion_lon": 0.0, "fusion_lat": 0.0, "type": "electric_scooter", "name": "0a2d2a84b5eebcaa55f45cbdb29a9459", "is_disabled": 0, "rental_uris": {"ios": "https://dc.lft.to/lastmile_qr_scan", "android": "https://dc.lft.to/lastmile_qr_scan"}, "is_reserved": 0}, {"lon": -76.98061833333334, "bike_id": "a04da668a549f55723bb227c6fc7c70f", "lat": 38.8849415, "fusion_lon": 0.0, "fusion_lat": 0.0, "type": "electric_scooter", "name": "a04da668a549f55723bb227c6fc7c70f", "is_disabled": 0, "rental_uris": {"ios": "https://dc.lft.to/lastmile_qr_scan", "android": "https://dc.lft.to/lastmile_qr_scan"}, "is_reserved": 0}, {"lon": -77.038309, "bike_id": "e00d8d4a8475a3769d606fdbe70c0efd", "lat": 38.90964483333333, "fusion_lon": 0.0, "fusion_lat": 0.0, "type": "electric_scooter", "name": "e00d8d4a8475a3769d606fdbe70c0efd", "is_disabled": 0, "rental_uris": {"ios": "https://dc.lft.to/lastmile_qr_scan", "android": "https://dc.lft.to/lastmile_qr_scan"}, "is_reserved": 0}, {"lon": -77.02715, "bike_id": "e0af4031dfd74332e70a4dd5b4ce92a8", "lat": 38.922858166666664, "fusion_lon": 0.0, "fusion_lat": 0.0, "type": "electric_scooter", "name": "e0af4031dfd74332e70a4dd5b4ce92a8", "is_disabled": 0, "rental_uris": {"ios": "https://dc.lft.to/lastmile_qr_scan", "android": "https://dc.lft.to/lastmile_qr_scan"}, "is_reserved": 0}, {"lon": -77.04726633333334, "bike_id": "5fd20852af7ecfa0c0cb89f3235c1b48", "lat": 38.903291333333335, "fusion_lon": 0.0, "fusion_lat": 0.0, "type": "electric_scooter", "name": "5fd20852af7ecfa0c0cb89f3235c1b48", "is_disabled": 0, "rental_uris": {"ios": "https://dc.lft.to/lastmile_qr_scan", "android": "https://dc.lft.to/lastmile_qr_scan"}, "is_reserved": 0}, {"lon": -77.02831266666666, "bike_id": "6f721780eac0f66322f2f479f6b27ab3", "lat": 38.895272, "fusion_lon": 0.0, "fusion_lat": 0.0, "type": "electric_scooter", "name": "6f721780eac0f66322f2f479f6b27ab3", "is_disabled": 0, "rental_uris": {"ios": "https://dc.lft.to/lastmile_qr_scan", "android": "https://dc.lft.to/lastmile_qr_scan"}, "is_reserved": 0}, {"lon": -77.07469816666666, "bike_id": "bb459b7eb00fedb75e17c6e5ec9d62d0", "lat": 38.920605333333334, "fusion_lon": 0.0, "fusion_lat": 0.0, "type": "electric_bike", "name": "bb459b7eb00fedb75e17c6e5ec9d62d0", "is_disabled": 0, "rental_uris": {"ios": "https://dc.lft.to/lastmile_qr_scan", "android": "https://dc.lft.to/lastmile_qr_scan"}, "is_reserved": 0}, {"lon": -77.04466783333334, "bike_id": "f1d76202faa960c979923120cfef63c4", "lat": 38.92432933333333, "fusion_lon": 0.0, "fusion_lat": 0.0, "type": "electric_scooter", "name": "f1d76202faa960c979923120cfef63c4", "is_disabled": 0, "rental_uris": {"ios": "https://dc.lft.to/lastmile_qr_scan", "android": "https://dc.lft.to/lastmile_qr_scan"}, "is_reserved": 0}, {"lon": -77.0343015, "bike_id": "3ef6e98cbc74f2293afbab6ed8e3d28b", "lat": 38.919314666666665, "fusion_lon": 0.0, "fusion_lat": 0.0, "type": "electric_scooter", "name": "3ef6e98cbc74f2293afbab6ed8e3d28b", "is_disabled": 0, "rental_uris": {"ios": "https://dc.lft.to/lastmile_qr_scan", "android": "https://dc.lft.to/lastmile_qr_scan"}, "is_reserved": 0}, {"lon": -77.08486683333334, "bike_id": "796c59888067e415ef7f47a62fcf29b9", "lat": 38.848503, "fusion_lon": 0.0, "fusion_lat": 0.0, "type": "electric_bike", "name": "796c59888067e415ef7f47a62fcf29b9", "is_disabled": 0, "rental_uris": {"ios": "https://dc.lft.to/lastmile_qr_scan", "android": "https://dc.lft.to/lastmile_qr_scan"}, "is_reserved": 0}, {"lon": -77.01683633333333, "bike_id": "e31576e89ade4cdb30d3c489b7b74626", "lat": 38.91450433333333, "fusion_lon": 0.0, "fusion_lat": 0.0, "type": "electric_scooter", "name": "e31576e89ade4cdb30d3c489b7b74626", "is_disabled": 0, "rental_uris": {"ios": "https://dc.lft.to/lastmile_qr_scan", "android": "https://dc.lft.to/lastmile_qr_scan"}, "is_reserved": 0}, {"lon": -77.03660466666666, "bike_id": "f067315e4495715a8de122d18e552722", "lat": 38.917530166666666, "fusion_lon": 0.0, "fusion_lat": 0.0, "type": "electric_scooter", "name": "f067315e4495715a8de122d18e552722", "is_disabled": 0, "rental_uris": {"ios": "https://dc.lft.to/lastmile_qr_scan", "android": "https://dc.lft.to/lastmile_qr_scan"}, "is_reserved": 0}, {"lon": -77.07415333333333, "bike_id": "a603006e44a9602eaab9915dead4e575", "lat": 38.9288915, "fusion_lon": 0.0, "fusion_lat": 0.0, "type": "electric_scooter", "name": "a603006e44a9602eaab9915dead4e575", "is_disabled": 0, "rental_uris": {"ios": "https://dc.lft.to/lastmile_qr_scan", "android": "https://dc.lft.to/lastmile_qr_scan"}, "is_reserved": 0}, {"lon": -77.0270455, "bike_id": "1d1ef361bdd55a4800ae941eae2fc81c", "lat": 38.90424616666667, "fusion_lon": 0.0, "fusion_lat": 0.0, "type": "electric_scooter", "name": "1d1ef361bdd55a4800ae941eae2fc81c", "is_disabled": 0, "rental_uris": {"ios": "https://dc.lft.to/lastmile_qr_scan", "android": "https://dc.lft.to/lastmile_qr_scan"}, "is_reserved": 0}, {"lon": -77.0405375, "bike_id": "e95fd044bd18c990e4b2dd9865f47e35", "lat": 38.88989883333333, "fusion_lon": 0.0, "fusion_lat": 0.0, "type": "electric_scooter", "name": "e95fd044bd18c990e4b2dd9865f47e35", "is_disabled": 0, "rental_uris": {"ios": "https://dc.lft.to/lastmile_qr_scan", "android": "https://dc.lft.to/lastmile_qr_scan"}, "is_reserved": 0}, {"lon": -76.9317415, "bike_id": "618f424806a16df713cf07852003a2ae", "lat": 38.898839333333335, "fusion_lon": 0.0, "fusion_lat": 0.0, "type": "electric_scooter", "name": "618f424806a16df713cf07852003a2ae", "is_disabled": 0, "rental_uris": {"ios": "https://dc.lft.to/lastmile_qr_scan", "android": "https://dc.lft.to/lastmile_qr_scan"}, "is_reserved": 0}, {"lon": -77.03420933333334, "bike_id": "0172ddb03534c3bb64c878c3729b915d", "lat": 38.93354633333333, "fusion_lon": 0.0, "fusion_lat": 0.0, "type": "electric_scooter", "name": "0172ddb03534c3bb64c878c3729b915d", "is_disabled": 0, "rental_uris": {"ios": "https://dc.lft.to/lastmile_qr_scan", "android": "https://dc.lft.to/lastmile_qr_scan"}, "is_reserved": 0}, {"lon": -76.9364465, "bike_id": "4b6f7d80d421554fb69f0b37c14b455f", "lat": 38.90062016666667, "fusion_lon": 0.0, "fusion_lat": 0.0, "type": "electric_scooter", "name": "4b6f7d80d421554fb69f0b37c14b455f", "is_disabled": 0, "rental_uris": {"ios": "https://dc.lft.to/lastmile_qr_scan", "android": "https://dc.lft.to/lastmile_qr_scan"}, "is_reserved": 0}, {"lon": -77.03295766666666, "bike_id": "870814cad7955654a5779dd7728a791b", "lat": 38.95654533333333, "fusion_lon": 0.0, "fusion_lat": 0.0, "type": "electric_scooter", "name": "870814cad7955654a5779dd7728a791b", "is_disabled": 0, "rental_uris": {"ios": "https://dc.lft.to/lastmile_qr_scan", "android": "https://dc.lft.to/lastmile_qr_scan"}, "is_reserved": 0}, {"lon": -77.02434816666667, "bike_id": "541655448615b4ce530554b53943e878", "lat": 38.93746216666667, "fusion_lon": 0.0, "fusion_lat": 0.0, "type": "electric_scooter", "name": "541655448615b4ce530554b53943e878", "is_disabled": 0, "rental_uris": {"ios": "https://dc.lft.to/lastmile_qr_scan", "android": "https://dc.lft.to/lastmile_qr_scan"}, "is_reserved": 0}, {"lon": -76.95749033333334, "bike_id": "70ad2ff2b9e01c528f6c22119f0c76f3", "lat": 38.8842795, "fusion_lon": 0.0, "fusion_lat": 0.0, "type": "electric_scooter", "name": "70ad2ff2b9e01c528f6c22119f0c76f3", "is_disabled": 0, "rental_uris": {"ios": "https://dc.lft.to/lastmile_qr_scan", "android": "https://dc.lft.to/lastmile_qr_scan"}, "is_reserved": 0}, {"lon": -77.006519, "bike_id": "f2f146209614d7ddcb2c5579b2592c6d", "lat": 38.838941, "fusion_lon": 0.0, "fusion_lat": 0.0, "type": "electric_scooter", "name": "f2f146209614d7ddcb2c5579b2592c6d", "is_disabled": 0, "rental_uris": {"ios": "https://dc.lft.to/lastmile_qr_scan", "android": "https://dc.lft.to/lastmile_qr_scan"}, "is_reserved": 0}, {"lon": -77.03868333333334, "bike_id": "cc0462baa6b3d36aff2c3a73a8a89281", "lat": 38.9156215, "fusion_lon": 0.0, "fusion_lat": 0.0, "type": "electric_scooter", "name": "cc0462baa6b3d36aff2c3a73a8a89281", "is_disabled": 0, "rental_uris": {"ios": "https://dc.lft.to/lastmile_qr_scan", "android": "https://dc.lft.to/lastmile_qr_scan"}, "is_reserved": 0}, {"lon": -76.93012416666667, "bike_id": "77cf439955e36794ea06900b5340a33a", "lat": 38.8964855, "fusion_lon": 0.0, "fusion_lat": 0.0, "type": "electric_bike", "name": "77cf439955e36794ea06900b5340a33a", "is_disabled": 0, "rental_uris": {"ios": "https://dc.lft.to/lastmile_qr_scan", "android": "https://dc.lft.to/lastmile_qr_scan"}, "is_reserved": 0}, {"lon": -76.87495633333333, "bike_id": "a0f035da82d89c5b983bf71e458e8f7e", "lat": 38.99091033333333, "fusion_lon": 0.0, "fusion_lat": 0.0, "type": "electric_bike", "name": "a0f035da82d89c5b983bf71e458e8f7e", "is_disabled": 0, "rental_uris": {"ios": "https://dc.lft.to/lastmile_qr_scan", "android": "https://dc.lft.to/lastmile_qr_scan"}, "is_reserved": 0}, {"lon": -77.03807433333333, "bike_id": "15cd8de5480bb9b4c8144279f9837339", "lat": 38.92064216666667, "fusion_lon": 0.0, "fusion_lat": 0.0, "type": "electric_scooter", "name": "15cd8de5480bb9b4c8144279f9837339", "is_disabled": 0, "rental_uris": {"ios": "https://dc.lft.to/lastmile_qr_scan", "android": "https://dc.lft.to/lastmile_qr_scan"}, "is_reserved": 0}, {"lon": -76.98714283333334, "bike_id": "be30fed071d8736d10e06b8f50d66857", "lat": 38.867040333333335, "fusion_lon": 0.0, "fusion_lat": 0.0, "type": "electric_scooter", "name": "be30fed071d8736d10e06b8f50d66857", "is_disabled": 0, "rental_uris": {"ios": "https://dc.lft.to/lastmile_qr_scan", "android": "https://dc.lft.to/lastmile_qr_scan"}, "is_reserved": 0}, {"lon": -77.03182, "bike_id": "6fd4fa24c80dfe5ed88c39ee3cf3d60d", "lat": 38.887326, "fusion_lon": 0.0, "fusion_lat": 0.0, "type": "electric_scooter", "name": "6fd4fa24c80dfe5ed88c39ee3cf3d60d", "is_disabled": 0, "rental_uris": {"ios": "https://dc.lft.to/lastmile_qr_scan", "android": "https://dc.lft.to/lastmile_qr_scan"}, "is_reserved": 0}, {"lon": -77.02895066666666, "bike_id": "cdcc21ff856abc56e370e08cd0e5dfa4", "lat": 38.93982883333334, "fusion_lon": 0.0, "fusion_lat": 0.0, "type": "electric_scooter", "name": "cdcc21ff856abc56e370e08cd0e5dfa4", "is_disabled": 0, "rental_uris": {"ios": "https://dc.lft.to/lastmile_qr_scan", "android": "https://dc.lft.to/lastmile_qr_scan"}, "is_reserved": 0}, {"lon": -77.03201266666666, "bike_id": "2f095e564a8b197020482d4046dd6eb9", "lat": 38.884106, "fusion_lon": 0.0, "fusion_lat": 0.0, "type": "electric_scooter", "name": "2f095e564a8b197020482d4046dd6eb9", "is_disabled": 0, "rental_uris": {"ios": "https://dc.lft.to/lastmile_qr_scan", "android": "https://dc.lft.to/lastmile_qr_scan"}, "is_reserved": 0}, {"lon": -77.02682666666666, "bike_id": "c6ba0cdf683aee63f919725df93de230", "lat": 38.9848965, "fusion_lon": 0.0, "fusion_lat": 0.0, "type": "electric_scooter", "name": "c6ba0cdf683aee63f919725df93de230", "is_disabled": 0, "rental_uris": {"ios": "https://dc.lft.to/lastmile_qr_scan", "android": "https://dc.lft.to/lastmile_qr_scan"}, "is_reserved": 0}, {"lon": -77.021005, "bike_id": "bb214351c36120ca52e493469f979d78", "lat": 38.921795833333334, "fusion_lon": 0.0, "fusion_lat": 0.0, "type": "electric_scooter", "name": "bb214351c36120ca52e493469f979d78", "is_disabled": 0, "rental_uris": {"ios": "https://dc.lft.to/lastmile_qr_scan", "android": "https://dc.lft.to/lastmile_qr_scan"}, "is_reserved": 0}, {"lon": -77.015379, "bike_id": "de36d2b8a76d61cfaad7ef1e5d43c3db", "lat": 38.883232666666665, "fusion_lon": 0.0, "fusion_lat": 0.0, "type": "electric_scooter", "name": "de36d2b8a76d61cfaad7ef1e5d43c3db", "is_disabled": 0, "rental_uris": {"ios": "https://dc.lft.to/lastmile_qr_scan", "android": "https://dc.lft.to/lastmile_qr_scan"}, "is_reserved": 0}, {"lon": -77.0330265, "bike_id": "a3e9217302e76a4c4b868e922152dbbe", "lat": 38.92557583333333, "fusion_lon": 0.0, "fusion_lat": 0.0, "type": "electric_scooter", "name": "a3e9217302e76a4c4b868e922152dbbe", "is_disabled": 0, "rental_uris": {"ios": "https://dc.lft.to/lastmile_qr_scan", "android": "https://dc.lft.to/lastmile_qr_scan"}, "is_reserved": 0}, {"lon": -77.00157916666667, "bike_id": "15b5a65f7a92d753cbb7fa2c495a900c", "lat": 38.84281566666667, "fusion_lon": 0.0, "fusion_lat": 0.0, "type": "electric_scooter", "name": "15b5a65f7a92d753cbb7fa2c495a900c", "is_disabled": 0, "rental_uris": {"ios": "https://dc.lft.to/lastmile_qr_scan", "android": "https://dc.lft.to/lastmile_qr_scan"}, "is_reserved": 0}, {"lon": -77.019858, "bike_id": "f40bb68c3ff87483464de4ca4420adbf", "lat": 38.960301333333334, "fusion_lon": 0.0, "fusion_lat": 0.0, "type": "electric_scooter", "name": "f40bb68c3ff87483464de4ca4420adbf", "is_disabled": 0, "rental_uris": {"ios": "https://dc.lft.to/lastmile_qr_scan", "android": "https://dc.lft.to/lastmile_qr_scan"}, "is_reserved": 0}, {"lon": -76.987064, "bike_id": "79b0bcf5f12f0e5001348a45a855b7fc", "lat": 38.866932, "fusion_lon": 0.0, "fusion_lat": 0.0, "type": "electric_scooter", "name": "79b0bcf5f12f0e5001348a45a855b7fc", "is_disabled": 0, "rental_uris": {"ios": "https://dc.lft.to/lastmile_qr_scan", "android": "https://dc.lft.to/lastmile_qr_scan"}, "is_reserved": 0}, {"lon": -76.99188983333333, "bike_id": "4145f45136e8ce3e6ed0a3108a6206c6", "lat": 38.90834683333333, "fusion_lon": 0.0, "fusion_lat": 0.0, "type": "electric_scooter", "name": "4145f45136e8ce3e6ed0a3108a6206c6", "is_disabled": 0, "rental_uris": {"ios": "https://dc.lft.to/lastmile_qr_scan", "android": "https://dc.lft.to/lastmile_qr_scan"}, "is_reserved": 0}, {"lon": -77.00886316666667, "bike_id": "8e06d03512dd4acaf2fe38745e8ee6b1", "lat": 38.917927, "fusion_lon": 0.0, "fusion_lat": 0.0, "type": "electric_scooter", "name": "8e06d03512dd4acaf2fe38745e8ee6b1", "is_disabled": 0, "rental_uris": {"ios": "https://dc.lft.to/lastmile_qr_scan", "android": "https://dc.lft.to/lastmile_qr_scan"}, "is_reserved": 0}, {"lon": -77.00332833333333, "bike_id": "099f713feacb1462c74f574eb6382847", "lat": 38.91977633333333, "fusion_lon": 0.0, "fusion_lat": 0.0, "type": "electric_bike", "name": "099f713feacb1462c74f574eb6382847", "is_disabled": 0, "rental_uris": {"ios": "https://dc.lft.to/lastmile_qr_scan", "android": "https://dc.lft.to/lastmile_qr_scan"}, "is_reserved": 0}, {"lon": -76.93176166666667, "bike_id": "45fd2910e6ae1f95051711ac1aeab1d9", "lat": 38.89883866666667, "fusion_lon": 0.0, "fusion_lat": 0.0, "type": "electric_scooter", "name": "45fd2910e6ae1f95051711ac1aeab1d9", "is_disabled": 0, "rental_uris": {"ios": "https://dc.lft.to/lastmile_qr_scan", "android": "https://dc.lft.to/lastmile_qr_scan"}, "is_reserved": 0}, {"lon": -77.04320583333333, "bike_id": "33a8cc214063c6f15ec3509bad49cc38", "lat": 38.918778333333336, "fusion_lon": 0.0, "fusion_lat": 0.0, "type": "electric_scooter", "name": "33a8cc214063c6f15ec3509bad49cc38", "is_disabled": 0, "rental_uris": {"ios": "https://dc.lft.to/lastmile_qr_scan", "android": "https://dc.lft.to/lastmile_qr_scan"}, "is_reserved": 0}, {"lon": -77.03060833333333, "bike_id": "ee885e6e26ed61da44db54dea72478de", "lat": 38.938718333333334, "fusion_lon": 0.0, "fusion_lat": 0.0, "type": "electric_scooter", "name": "ee885e6e26ed61da44db54dea72478de", "is_disabled": 0, "rental_uris": {"ios": "https://dc.lft.to/lastmile_qr_scan", "android": "https://dc.lft.to/lastmile_qr_scan"}, "is_reserved": 0}, {"lon": -77.02154833333333, "bike_id": "75bebc19e8e587ce7c67a8147107d16e", "lat": 38.895092166666664, "fusion_lon": 0.0, "fusion_lat": 0.0, "type": "electric_scooter", "name": "75bebc19e8e587ce7c67a8147107d16e", "is_disabled": 0, "rental_uris": {"ios": "https://dc.lft.to/lastmile_qr_scan", "android": "https://dc.lft.to/lastmile_qr_scan"}, "is_reserved": 0}, {"lon": -77.01405366666667, "bike_id": "9952846c3eed9559b6efd9af284f8bfa", "lat": 38.928369833333335, "fusion_lon": 0.0, "fusion_lat": 0.0, "type": "electric_scooter", "name": "9952846c3eed9559b6efd9af284f8bfa", "is_disabled": 0, "rental_uris": {"ios": "https://dc.lft.to/lastmile_qr_scan", "android": "https://dc.lft.to/lastmile_qr_scan"}, "is_reserved": 0}, {"lon": -76.98192483333334, "bike_id": "af86a67cf7f6648e9acb1e57bfbd9c00", "lat": 38.92604983333333, "fusion_lon": 0.0, "fusion_lat": 0.0, "type": "electric_scooter", "name": "af86a67cf7f6648e9acb1e57bfbd9c00", "is_disabled": 0, "rental_uris": {"ios": "https://dc.lft.to/lastmile_qr_scan", "android": "https://dc.lft.to/lastmile_qr_scan"}, "is_reserved": 0}, {"lon": -77.12649816666666, "bike_id": "3373ad0bc07b437039667599c5a9e131", "lat": 38.81510316666667, "fusion_lon": 0.0, "fusion_lat": 0.0, "type": "electric_bike", "name": "3373ad0bc07b437039667599c5a9e131", "is_disabled": 0, "rental_uris": {"ios": "https://dc.lft.to/lastmile_qr_scan", "android": "https://dc.lft.to/lastmile_qr_scan"}, "is_reserved": 0}, {"lon": -77.04506733333334, "bike_id": "f1cd85dc5e44d430227d3822e01d7bca", "lat": 38.91614883333333, "fusion_lon": 0.0, "fusion_lat": 0.0, "type": "electric_scooter", "name": "f1cd85dc5e44d430227d3822e01d7bca", "is_disabled": 0, "rental_uris": {"ios": "https://dc.lft.to/lastmile_qr_scan", "android": "https://dc.lft.to/lastmile_qr_scan"}, "is_reserved": 0}, {"lon": -77.04631633333334, "bike_id": "1401c2c737202194ecbc58dddb2262a2", "lat": 38.919225833333336, "fusion_lon": 0.0, "fusion_lat": 0.0, "type": "electric_scooter", "name": "1401c2c737202194ecbc58dddb2262a2", "is_disabled": 0, "rental_uris": {"ios": "https://dc.lft.to/lastmile_qr_scan", "android": "https://dc.lft.to/lastmile_qr_scan"}, "is_reserved": 0}, {"lon": -77.00212733333333, "bike_id": "a92ca15e4ba6c56de1eb57ad404e7780", "lat": 38.88131666666666, "fusion_lon": 0.0, "fusion_lat": 0.0, "type": "electric_scooter", "name": "a92ca15e4ba6c56de1eb57ad404e7780", "is_disabled": 0, "rental_uris": {"ios": "https://dc.lft.to/lastmile_qr_scan", "android": "https://dc.lft.to/lastmile_qr_scan"}, "is_reserved": 0}, {"lon": -77.04824, "bike_id": "f10da1ac1c43e9dbb055f5299f39bc8e", "lat": 38.907211333333336, "fusion_lon": 0.0, "fusion_lat": 0.0, "type": "electric_scooter", "name": "f10da1ac1c43e9dbb055f5299f39bc8e", "is_disabled": 0, "rental_uris": {"ios": "https://dc.lft.to/lastmile_qr_scan", "android": "https://dc.lft.to/lastmile_qr_scan"}, "is_reserved": 0}, {"lon": -77.0234045, "bike_id": "f1558998e0aac75903cb6e36809e7858", "lat": 38.935367666666664, "fusion_lon": 0.0, "fusion_lat": 0.0, "type": "electric_scooter", "name": "f1558998e0aac75903cb6e36809e7858", "is_disabled": 0, "rental_uris": {"ios": "https://dc.lft.to/lastmile_qr_scan", "android": "https://dc.lft.to/lastmile_qr_scan"}, "is_reserved": 0}, {"lon": -76.93364983333333, "bike_id": "dd9ee2a88155cfc4ac042f892249cf17", "lat": 38.899091166666665, "fusion_lon": 0.0, "fusion_lat": 0.0, "type": "electric_scooter", "name": "dd9ee2a88155cfc4ac042f892249cf17", "is_disabled": 0, "rental_uris": {"ios": "https://dc.lft.to/lastmile_qr_scan", "android": "https://dc.lft.to/lastmile_qr_scan"}, "is_reserved": 0}, {"lon": -77.04450283333334, "bike_id": "8b2093e2b797c999cc0eb95ce6973e49", "lat": 38.91879816666667, "fusion_lon": 0.0, "fusion_lat": 0.0, "type": "electric_scooter", "name": "8b2093e2b797c999cc0eb95ce6973e49", "is_disabled": 0, "rental_uris": {"ios": "https://dc.lft.to/lastmile_qr_scan", "android": "https://dc.lft.to/lastmile_qr_scan"}, "is_reserved": 0}, {"lon": -77.02362216666667, "bike_id": "17de99bf748b209dbc251ec8612c543a", "lat": 38.9206675, "fusion_lon": 0.0, "fusion_lat": 0.0, "type": "electric_scooter", "name": "17de99bf748b209dbc251ec8612c543a", "is_disabled": 0, "rental_uris": {"ios": "https://dc.lft.to/lastmile_qr_scan", "android": "https://dc.lft.to/lastmile_qr_scan"}, "is_reserved": 0}, {"lon": -76.93325083333333, "bike_id": "feb0b096f647c40b672218bae440bae1", "lat": 38.9106245, "fusion_lon": 0.0, "fusion_lat": 0.0, "type": "electric_scooter", "name": "feb0b096f647c40b672218bae440bae1", "is_disabled": 0, "rental_uris": {"ios": "https://dc.lft.to/lastmile_qr_scan", "android": "https://dc.lft.to/lastmile_qr_scan"}, "is_reserved": 0}, {"lon": -77.04794266666667, "bike_id": "e5dce9627a3ae7f4d3f493bc3f431164", "lat": 38.909574166666665, "fusion_lon": 0.0, "fusion_lat": 0.0, "type": "electric_scooter", "name": "e5dce9627a3ae7f4d3f493bc3f431164", "is_disabled": 0, "rental_uris": {"ios": "https://dc.lft.to/lastmile_qr_scan", "android": "https://dc.lft.to/lastmile_qr_scan"}, "is_reserved": 0}, {"lon": -77.0271405, "bike_id": "a729109f63c2b19512fb6f20abe7be7e", "lat": 38.92771333333334, "fusion_lon": 0.0, "fusion_lat": 0.0, "type": "electric_scooter", "name": "a729109f63c2b19512fb6f20abe7be7e", "is_disabled": 0, "rental_uris": {"ios": "https://dc.lft.to/lastmile_qr_scan", "android": "https://dc.lft.to/lastmile_qr_scan"}, "is_reserved": 0}, {"lon": -76.92737633333333, "bike_id": "5a79d45f788a410cd2572af25a32a481", "lat": 38.889674, "fusion_lon": 0.0, "fusion_lat": 0.0, "type": "electric_scooter", "name": "5a79d45f788a410cd2572af25a32a481", "is_disabled": 0, "rental_uris": {"ios": "https://dc.lft.to/lastmile_qr_scan", "android": "https://dc.lft.to/lastmile_qr_scan"}, "is_reserved": 0}, {"lon": -76.98556, "bike_id": "538e332dc499149a87db42cdef8d98f1", "lat": 38.8995695, "fusion_lon": 0.0, "fusion_lat": 0.0, "type": "electric_scooter", "name": "538e332dc499149a87db42cdef8d98f1", "is_disabled": 0, "rental_uris": {"ios": "https://dc.lft.to/lastmile_qr_scan", "android": "https://dc.lft.to/lastmile_qr_scan"}, "is_reserved": 0}, {"lon": -76.991085, "bike_id": "23af1a99406ccb81ece9511ad51174f8", "lat": 38.903209, "fusion_lon": 0.0, "fusion_lat": 0.0, "type": "electric_scooter", "name": "23af1a99406ccb81ece9511ad51174f8", "is_disabled": 0, "rental_uris": {"ios": "https://dc.lft.to/lastmile_qr_scan", "android": "https://dc.lft.to/lastmile_qr_scan"}, "is_reserved": 0}, {"lon": -76.99284633333333, "bike_id": "63d30e6f5de281ee3067968bc139e3b3", "lat": 38.898855, "fusion_lon": 0.0, "fusion_lat": 0.0, "type": "electric_scooter", "name": "63d30e6f5de281ee3067968bc139e3b3", "is_disabled": 0, "rental_uris": {"ios": "https://dc.lft.to/lastmile_qr_scan", "android": "https://dc.lft.to/lastmile_qr_scan"}, "is_reserved": 0}, {"lon": -77.03539066666667, "bike_id": "5ae11f50dc8ed98ced916513753fdcc1", "lat": 38.92575566666667, "fusion_lon": 0.0, "fusion_lat": 0.0, "type": "electric_scooter", "name": "5ae11f50dc8ed98ced916513753fdcc1", "is_disabled": 0, "rental_uris": {"ios": "https://dc.lft.to/lastmile_qr_scan", "android": "https://dc.lft.to/lastmile_qr_scan"}, "is_reserved": 0}, {"lon": -77.03191233333334, "bike_id": "80704acec9949554ab89b0831e367ad3", "lat": 38.927879833333336, "fusion_lon": 0.0, "fusion_lat": 0.0, "type": "electric_scooter", "name": "80704acec9949554ab89b0831e367ad3", "is_disabled": 0, "rental_uris": {"ios": "https://dc.lft.to/lastmile_qr_scan", "android": "https://dc.lft.to/lastmile_qr_scan"}, "is_reserved": 0}, {"lon": -77.02763933333334, "bike_id": "46a526cd3de6da13fa5fe120ec1a1ce7", "lat": 38.933377166666666, "fusion_lon": 0.0, "fusion_lat": 0.0, "type": "electric_scooter", "name": "46a526cd3de6da13fa5fe120ec1a1ce7", "is_disabled": 0, "rental_uris": {"ios": "https://dc.lft.to/lastmile_qr_scan", "android": "https://dc.lft.to/lastmile_qr_scan"}, "is_reserved": 0}, {"lon": -76.9837965, "bike_id": "83f373a10a3e4cc04c25989c85318733", "lat": 38.896068166666666, "fusion_lon": 0.0, "fusion_lat": 0.0, "type": "electric_scooter", "name": "83f373a10a3e4cc04c25989c85318733", "is_disabled": 0, "rental_uris": {"ios": "https://dc.lft.to/lastmile_qr_scan", "android": "https://dc.lft.to/lastmile_qr_scan"}, "is_reserved": 0}, {"lon": -77.04162083333334, "bike_id": "a2856c72e6a91fd9f2e8408b3bba613c", "lat": 38.90549866666667, "fusion_lon": 0.0, "fusion_lat": 0.0, "type": "electric_scooter", "name": "a2856c72e6a91fd9f2e8408b3bba613c", "is_disabled": 0, "rental_uris": {"ios": "https://dc.lft.to/lastmile_qr_scan", "android": "https://dc.lft.to/lastmile_qr_scan"}, "is_reserved": 0}, {"lon": -77.03764733333334, "bike_id": "8d5bf6b1584400a537cf2a2845183f39", "lat": 38.92014366666667, "fusion_lon": 0.0, "fusion_lat": 0.0, "type": "electric_scooter", "name": "8d5bf6b1584400a537cf2a2845183f39", "is_disabled": 0, "rental_uris": {"ios": "https://dc.lft.to/lastmile_qr_scan", "android": "https://dc.lft.to/lastmile_qr_scan"}, "is_reserved": 0}, {"lon": -77.02170166666667, "bike_id": "04c8a2ba89a8e3832c4a5bf0e4a881e4", "lat": 38.93000216666667, "fusion_lon": 0.0, "fusion_lat": 0.0, "type": "electric_scooter", "name": "04c8a2ba89a8e3832c4a5bf0e4a881e4", "is_disabled": 0, "rental_uris": {"ios": "https://dc.lft.to/lastmile_qr_scan", "android": "https://dc.lft.to/lastmile_qr_scan"}, "is_reserved": 0}, {"lon": -77.03266133333334, "bike_id": "c860acfc73d2ff7c849866ae0c11479a", "lat": 38.93242883333333, "fusion_lon": 0.0, "fusion_lat": 0.0, "type": "electric_scooter", "name": "c860acfc73d2ff7c849866ae0c11479a", "is_disabled": 0, "rental_uris": {"ios": "https://dc.lft.to/lastmile_qr_scan", "android": "https://dc.lft.to/lastmile_qr_scan"}, "is_reserved": 0}, {"lon": -77.04662666666667, "bike_id": "0b8ebc2ee187740ab6046dc5f249046b", "lat": 38.90730116666667, "fusion_lon": 0.0, "fusion_lat": 0.0, "type": "electric_scooter", "name": "0b8ebc2ee187740ab6046dc5f249046b", "is_disabled": 0, "rental_uris": {"ios": "https://dc.lft.to/lastmile_qr_scan", "android": "https://dc.lft.to/lastmile_qr_scan"}, "is_reserved": 0}, {"lon": -77.03583816666666, "bike_id": "b7e71f293703016b3101243ece35b191", "lat": 38.91046583333333, "fusion_lon": 0.0, "fusion_lat": 0.0, "type": "electric_scooter", "name": "b7e71f293703016b3101243ece35b191", "is_disabled": 0, "rental_uris": {"ios": "https://dc.lft.to/lastmile_qr_scan", "android": "https://dc.lft.to/lastmile_qr_scan"}, "is_reserved": 0}, {"lon": -77.04429516666667, "bike_id": "1067a32ce27249a224d0fa9a52fc80e8", "lat": 38.91126916666666, "fusion_lon": 0.0, "fusion_lat": 0.0, "type": "electric_scooter", "name": "1067a32ce27249a224d0fa9a52fc80e8", "is_disabled": 0, "rental_uris": {"ios": "https://dc.lft.to/lastmile_qr_scan", "android": "https://dc.lft.to/lastmile_qr_scan"}, "is_reserved": 0}, {"lon": -77.03263333333334, "bike_id": "1b279a14e0538a8f32d6d171e0c25d38", "lat": 38.9377605, "fusion_lon": 0.0, "fusion_lat": 0.0, "type": "electric_scooter", "name": "1b279a14e0538a8f32d6d171e0c25d38", "is_disabled": 0, "rental_uris": {"ios": "https://dc.lft.to/lastmile_qr_scan", "android": "https://dc.lft.to/lastmile_qr_scan"}, "is_reserved": 0}, {"lon": -77.03204933333333, "bike_id": "7244e2985313210200e71fcf7c032bad", "lat": 38.91740716666666, "fusion_lon": 0.0, "fusion_lat": 0.0, "type": "electric_scooter", "name": "7244e2985313210200e71fcf7c032bad", "is_disabled": 0, "rental_uris": {"ios": "https://dc.lft.to/lastmile_qr_scan", "android": "https://dc.lft.to/lastmile_qr_scan"}, "is_reserved": 0}, {"lon": -77.03325066666666, "bike_id": "4e3ea535b5bd13adee56087d9fadb1b6", "lat": 38.94718266666667, "fusion_lon": 0.0, "fusion_lat": 0.0, "type": "electric_scooter", "name": "4e3ea535b5bd13adee56087d9fadb1b6", "is_disabled": 0, "rental_uris": {"ios": "https://dc.lft.to/lastmile_qr_scan", "android": "https://dc.lft.to/lastmile_qr_scan"}, "is_reserved": 0}, {"lon": -77.04223083333333, "bike_id": "cf6d78444a8fa934cbe5bc58b5acb79c", "lat": 38.91349433333333, "fusion_lon": 0.0, "fusion_lat": 0.0, "type": "electric_scooter", "name": "cf6d78444a8fa934cbe5bc58b5acb79c", "is_disabled": 0, "rental_uris": {"ios": "https://dc.lft.to/lastmile_qr_scan", "android": "https://dc.lft.to/lastmile_qr_scan"}, "is_reserved": 0}, {"lon": -77.0383475, "bike_id": "86a75649fe2dd8c67a3a6f7dfa2a2ff4", "lat": 38.91106466666667, "fusion_lon": 0.0, "fusion_lat": 0.0, "type": "electric_scooter", "name": "86a75649fe2dd8c67a3a6f7dfa2a2ff4", "is_disabled": 0, "rental_uris": {"ios": "https://dc.lft.to/lastmile_qr_scan", "android": "https://dc.lft.to/lastmile_qr_scan"}, "is_reserved": 0}, {"lon": -77.015141, "bike_id": "e44d2a0c25b3fdba58b3e0f98cc5df20", "lat": 38.91869066666667, "fusion_lon": 0.0, "fusion_lat": 0.0, "type": "electric_scooter", "name": "e44d2a0c25b3fdba58b3e0f98cc5df20", "is_disabled": 0, "rental_uris": {"ios": "https://dc.lft.to/lastmile_qr_scan", "android": "https://dc.lft.to/lastmile_qr_scan"}, "is_reserved": 0}, {"lon": -77.01835216666667, "bike_id": "3cd06438adb305a0b0918556770f370e", "lat": 38.9092935, "fusion_lon": 0.0, "fusion_lat": 0.0, "type": "electric_scooter", "name": "3cd06438adb305a0b0918556770f370e", "is_disabled": 0, "rental_uris": {"ios": "https://dc.lft.to/lastmile_qr_scan", "android": "https://dc.lft.to/lastmile_qr_scan"}, "is_reserved": 0}, {"lon": -77.01689783333333, "bike_id": "cf29452bfc12e23add9dc62af4729b93", "lat": 38.90454033333333, "fusion_lon": 0.0, "fusion_lat": 0.0, "type": "electric_scooter", "name": "cf29452bfc12e23add9dc62af4729b93", "is_disabled": 0, "rental_uris": {"ios": "https://dc.lft.to/lastmile_qr_scan", "android": "https://dc.lft.to/lastmile_qr_scan"}, "is_reserved": 0}, {"lon": -76.97246083333333, "bike_id": "28194220115109f9ef4fe8162b0aeefb", "lat": 38.90343583333333, "fusion_lon": 0.0, "fusion_lat": 0.0, "type": "electric_scooter", "name": "28194220115109f9ef4fe8162b0aeefb", "is_disabled": 0, "rental_uris": {"ios": "https://dc.lft.to/lastmile_qr_scan", "android": "https://dc.lft.to/lastmile_qr_scan"}, "is_reserved": 0}, {"lon": -76.99068233333334, "bike_id": "9b7bf3f3e75d26f4182016b964d0ebba", "lat": 38.898292, "fusion_lon": 0.0, "fusion_lat": 0.0, "type": "electric_bike", "name": "9b7bf3f3e75d26f4182016b964d0ebba", "is_disabled": 0, "rental_uris": {"ios": "https://dc.lft.to/lastmile_qr_scan", "android": "https://dc.lft.to/lastmile_qr_scan"}, "is_reserved": 0}, {"lon": -77.03829616666667, "bike_id": "0befec4acaff4aa83bf8802844d6beee", "lat": 38.91108466666667, "fusion_lon": 0.0, "fusion_lat": 0.0, "type": "electric_scooter", "name": "0befec4acaff4aa83bf8802844d6beee", "is_disabled": 0, "rental_uris": {"ios": "https://dc.lft.to/lastmile_qr_scan", "android": "https://dc.lft.to/lastmile_qr_scan"}, "is_reserved": 0}, {"lon": -77.01987533333333, "bike_id": "c4f82b4e5e31256c835a74d1e068185a", "lat": 38.885881166666664, "fusion_lon": 0.0, "fusion_lat": 0.0, "type": "electric_scooter", "name": "c4f82b4e5e31256c835a74d1e068185a", "is_disabled": 0, "rental_uris": {"ios": "https://dc.lft.to/lastmile_qr_scan", "android": "https://dc.lft.to/lastmile_qr_scan"}, "is_reserved": 0}, {"lon": -76.9833495, "bike_id": "c66651229cf3517c6292d4c05b1243ac", "lat": 38.895457666666665, "fusion_lon": 0.0, "fusion_lat": 0.0, "type": "electric_scooter", "name": "c66651229cf3517c6292d4c05b1243ac", "is_disabled": 0, "rental_uris": {"ios": "https://dc.lft.to/lastmile_qr_scan", "android": "https://dc.lft.to/lastmile_qr_scan"}, "is_reserved": 0}, {"lon": -76.99709483333334, "bike_id": "ff11052c734a03cd3480b2dd04df9dae", "lat": 38.8925835, "fusion_lon": 0.0, "fusion_lat": 0.0, "type": "electric_scooter", "name": "ff11052c734a03cd3480b2dd04df9dae", "is_disabled": 0, "rental_uris": {"ios": "https://dc.lft.to/lastmile_qr_scan", "android": "https://dc.lft.to/lastmile_qr_scan"}, "is_reserved": 0}, {"lon": -77.02294516666667, "bike_id": "23593328263fecf8642b321b3d535a10", "lat": 38.916884833333334, "fusion_lon": 0.0, "fusion_lat": 0.0, "type": "electric_scooter", "name": "23593328263fecf8642b321b3d535a10", "is_disabled": 0, "rental_uris": {"ios": "https://dc.lft.to/lastmile_qr_scan", "android": "https://dc.lft.to/lastmile_qr_scan"}, "is_reserved": 0}, {"lon": -77.02980483333333, "bike_id": "00f4850d76505cc9392280e77d344cec", "lat": 38.9452365, "fusion_lon": 0.0, "fusion_lat": 0.0, "type": "electric_scooter", "name": "00f4850d76505cc9392280e77d344cec", "is_disabled": 0, "rental_uris": {"ios": "https://dc.lft.to/lastmile_qr_scan", "android": "https://dc.lft.to/lastmile_qr_scan"}, "is_reserved": 0}, {"lon": -77.02803, "bike_id": "e1947dc59fc3888462b73d6276caff41", "lat": 38.910995, "fusion_lon": 0.0, "fusion_lat": 0.0, "type": "electric_scooter", "name": "e1947dc59fc3888462b73d6276caff41", "is_disabled": 0, "rental_uris": {"ios": "https://dc.lft.to/lastmile_qr_scan", "android": "https://dc.lft.to/lastmile_qr_scan"}, "is_reserved": 0}, {"lon": -77.00921533333333, "bike_id": "c3870cfc1598464a0a314e1a7c1ad408", "lat": 38.91098566666667, "fusion_lon": 0.0, "fusion_lat": 0.0, "type": "electric_scooter", "name": "c3870cfc1598464a0a314e1a7c1ad408", "is_disabled": 0, "rental_uris": {"ios": "https://dc.lft.to/lastmile_qr_scan", "android": "https://dc.lft.to/lastmile_qr_scan"}, "is_reserved": 0}, {"lon": -76.9575745, "bike_id": "e2ec8b27189e20e3a3227cb7bfb5015c", "lat": 38.88432783333333, "fusion_lon": 0.0, "fusion_lat": 0.0, "type": "electric_scooter", "name": "e2ec8b27189e20e3a3227cb7bfb5015c", "is_disabled": 0, "rental_uris": {"ios": "https://dc.lft.to/lastmile_qr_scan", "android": "https://dc.lft.to/lastmile_qr_scan"}, "is_reserved": 0}, {"lon": -77.02504233333333, "bike_id": "42d97ac37795f946183765daeb39553a", "lat": 38.92076016666667, "fusion_lon": 0.0, "fusion_lat": 0.0, "type": "electric_scooter", "name": "42d97ac37795f946183765daeb39553a", "is_disabled": 0, "rental_uris": {"ios": "https://dc.lft.to/lastmile_qr_scan", "android": "https://dc.lft.to/lastmile_qr_scan"}, "is_reserved": 0}, {"lon": -77.0486175, "bike_id": "d2ec6a377c9244f4c1ddda31dce4541a", "lat": 38.909552, "fusion_lon": 0.0, "fusion_lat": 0.0, "type": "electric_scooter", "name": "d2ec6a377c9244f4c1ddda31dce4541a", "is_disabled": 0, "rental_uris": {"ios": "https://dc.lft.to/lastmile_qr_scan", "android": "https://dc.lft.to/lastmile_qr_scan"}, "is_reserved": 0}, {"lon": -77.03131666666667, "bike_id": "f50b30531b4335c48347071dc18112cb", "lat": 38.914944166666665, "fusion_lon": 0.0, "fusion_lat": 0.0, "type": "electric_scooter", "name": "f50b30531b4335c48347071dc18112cb", "is_disabled": 0, "rental_uris": {"ios": "https://dc.lft.to/lastmile_qr_scan", "android": "https://dc.lft.to/lastmile_qr_scan"}, "is_reserved": 0}, {"lon": -77.01929433333333, "bike_id": "2764a6c2ba943e01cb6c50d9f4122e12", "lat": 38.93207116666667, "fusion_lon": 0.0, "fusion_lat": 0.0, "type": "electric_scooter", "name": "2764a6c2ba943e01cb6c50d9f4122e12", "is_disabled": 0, "rental_uris": {"ios": "https://dc.lft.to/lastmile_qr_scan", "android": "https://dc.lft.to/lastmile_qr_scan"}, "is_reserved": 0}, {"lon": -77.02771016666667, "bike_id": "29356d99c6523dac6d92755ffc5d5e44", "lat": 38.904270833333335, "fusion_lon": 0.0, "fusion_lat": 0.0, "type": "electric_bike", "name": "29356d99c6523dac6d92755ffc5d5e44", "is_disabled": 0, "rental_uris": {"ios": "https://dc.lft.to/lastmile_qr_scan", "android": "https://dc.lft.to/lastmile_qr_scan"}, "is_reserved": 0}, {"lon": -77.017227, "bike_id": "b7dfaec44f4d027e868b29adb9c6b89c", "lat": 38.8729735, "fusion_lon": 0.0, "fusion_lat": 0.0, "type": "electric_scooter", "name": "b7dfaec44f4d027e868b29adb9c6b89c", "is_disabled": 0, "rental_uris": {"ios": "https://dc.lft.to/lastmile_qr_scan", "android": "https://dc.lft.to/lastmile_qr_scan"}, "is_reserved": 0}, {"lon": -77.0282945, "bike_id": "2060952121054bf808ff35bec0296860", "lat": 38.934626, "fusion_lon": 0.0, "fusion_lat": 0.0, "type": "electric_scooter", "name": "2060952121054bf808ff35bec0296860", "is_disabled": 0, "rental_uris": {"ios": "https://dc.lft.to/lastmile_qr_scan", "android": "https://dc.lft.to/lastmile_qr_scan"}, "is_reserved": 0}, {"lon": -77.02842266666667, "bike_id": "85be209c8e9e9e260471ce77955f5264", "lat": 38.92583233333333, "fusion_lon": 0.0, "fusion_lat": 0.0, "type": "electric_scooter", "name": "85be209c8e9e9e260471ce77955f5264", "is_disabled": 0, "rental_uris": {"ios": "https://dc.lft.to/lastmile_qr_scan", "android": "https://dc.lft.to/lastmile_qr_scan"}, "is_reserved": 0}, {"lon": -77.02981366666667, "bike_id": "cfff942f49e5a772ceaa26924ef37bd0", "lat": 38.934974, "fusion_lon": 0.0, "fusion_lat": 0.0, "type": "electric_scooter", "name": "cfff942f49e5a772ceaa26924ef37bd0", "is_disabled": 0, "rental_uris": {"ios": "https://dc.lft.to/lastmile_qr_scan", "android": "https://dc.lft.to/lastmile_qr_scan"}, "is_reserved": 0}, {"lon": -76.97826816666667, "bike_id": "74caa8571cd7d3cf93b0e0b4e16d7b91", "lat": 38.84370966666667, "fusion_lon": 0.0, "fusion_lat": 0.0, "type": "electric_bike", "name": "74caa8571cd7d3cf93b0e0b4e16d7b91", "is_disabled": 0, "rental_uris": {"ios": "https://dc.lft.to/lastmile_qr_scan", "android": "https://dc.lft.to/lastmile_qr_scan"}, "is_reserved": 0}, {"lon": -77.02309966666667, "bike_id": "9e65482cc316e9f9623e849551a7079e", "lat": 38.9087725, "fusion_lon": 0.0, "fusion_lat": 0.0, "type": "electric_scooter", "name": "9e65482cc316e9f9623e849551a7079e", "is_disabled": 0, "rental_uris": {"ios": "https://dc.lft.to/lastmile_qr_scan", "android": "https://dc.lft.to/lastmile_qr_scan"}, "is_reserved": 0}, {"lon": -77.08335566666666, "bike_id": "5e434fa1ac4ed972344068ce47d79171", "lat": 38.854388, "fusion_lon": 0.0, "fusion_lat": 0.0, "type": "electric_bike", "name": "5e434fa1ac4ed972344068ce47d79171", "is_disabled": 0, "rental_uris": {"ios": "https://dc.lft.to/lastmile_qr_scan", "android": "https://dc.lft.to/lastmile_qr_scan"}, "is_reserved": 0}, {"lon": -77.024814, "bike_id": "4f5ad847bb6809c7e64e24220209b7b0", "lat": 38.9040005, "fusion_lon": 0.0, "fusion_lat": 0.0, "type": "electric_scooter", "name": "4f5ad847bb6809c7e64e24220209b7b0", "is_disabled": 0, "rental_uris": {"ios": "https://dc.lft.to/lastmile_qr_scan", "android": "https://dc.lft.to/lastmile_qr_scan"}, "is_reserved": 0}, {"lon": -77.00913233333333, "bike_id": "0d9c295bb2e56edfcb18a0b8e796a684", "lat": 38.899826166666664, "fusion_lon": 0.0, "fusion_lat": 0.0, "type": "electric_scooter", "name": "0d9c295bb2e56edfcb18a0b8e796a684", "is_disabled": 0, "rental_uris": {"ios": "https://dc.lft.to/lastmile_qr_scan", "android": "https://dc.lft.to/lastmile_qr_scan"}, "is_reserved": 0}, {"lon": -77.0260805, "bike_id": "008941e3f440bfb19fd37581ab61d75f", "lat": 38.92586416666666, "fusion_lon": 0.0, "fusion_lat": 0.0, "type": "electric_scooter", "name": "008941e3f440bfb19fd37581ab61d75f", "is_disabled": 0, "rental_uris": {"ios": "https://dc.lft.to/lastmile_qr_scan", "android": "https://dc.lft.to/lastmile_qr_scan"}, "is_reserved": 0}, {"lon": -77.02975783333333, "bike_id": "f7025f048adb045543c21e80d2d82478", "lat": 38.929030833333336, "fusion_lon": 0.0, "fusion_lat": 0.0, "type": "electric_scooter", "name": "f7025f048adb045543c21e80d2d82478", "is_disabled": 0, "rental_uris": {"ios": "https://dc.lft.to/lastmile_qr_scan", "android": "https://dc.lft.to/lastmile_qr_scan"}, "is_reserved": 0}, {"lon": -77.0182725, "bike_id": "affe94e230da90ee73d93a9dc7a32886", "lat": 38.900775333333335, "fusion_lon": 0.0, "fusion_lat": 0.0, "type": "electric_scooter", "name": "affe94e230da90ee73d93a9dc7a32886", "is_disabled": 0, "rental_uris": {"ios": "https://dc.lft.to/lastmile_qr_scan", "android": "https://dc.lft.to/lastmile_qr_scan"}, "is_reserved": 0}, {"lon": -77.0171995, "bike_id": "56b7f75fe98c52eba4810c5ca1fcc985", "lat": 38.905663, "fusion_lon": 0.0, "fusion_lat": 0.0, "type": "electric_scooter", "name": "56b7f75fe98c52eba4810c5ca1fcc985", "is_disabled": 0, "rental_uris": {"ios": "https://dc.lft.to/lastmile_qr_scan", "android": "https://dc.lft.to/lastmile_qr_scan"}, "is_reserved": 0}, {"lon": -77.03587233333333, "bike_id": "d1ef48e13846c635b03b7c083f1dd4d3", "lat": 38.99226566666667, "fusion_lon": 0.0, "fusion_lat": 0.0, "type": "electric_scooter", "name": "d1ef48e13846c635b03b7c083f1dd4d3", "is_disabled": 0, "rental_uris": {"ios": "https://dc.lft.to/lastmile_qr_scan", "android": "https://dc.lft.to/lastmile_qr_scan"}, "is_reserved": 0}, {"lon": -77.03526516666666, "bike_id": "1bcec09bc48a57e9aecb9853ab490b54", "lat": 38.92724616666667, "fusion_lon": 0.0, "fusion_lat": 0.0, "type": "electric_scooter", "name": "1bcec09bc48a57e9aecb9853ab490b54", "is_disabled": 0, "rental_uris": {"ios": "https://dc.lft.to/lastmile_qr_scan", "android": "https://dc.lft.to/lastmile_qr_scan"}, "is_reserved": 0}, {"lon": -76.98195133333333, "bike_id": "b9416087fd41927b988f409f100773ce", "lat": 38.92601283333333, "fusion_lon": 0.0, "fusion_lat": 0.0, "type": "electric_scooter", "name": "b9416087fd41927b988f409f100773ce", "is_disabled": 0, "rental_uris": {"ios": "https://dc.lft.to/lastmile_qr_scan", "android": "https://dc.lft.to/lastmile_qr_scan"}, "is_reserved": 0}, {"lon": -76.942943, "bike_id": "a2901f663700b98cad2edd4b19538e3f", "lat": 38.93870183333333, "fusion_lon": 0.0, "fusion_lat": 0.0, "type": "electric_bike", "name": "a2901f663700b98cad2edd4b19538e3f", "is_disabled": 0, "rental_uris": {"ios": "https://dc.lft.to/lastmile_qr_scan", "android": "https://dc.lft.to/lastmile_qr_scan"}, "is_reserved": 0}, {"lon": -77.026193, "bike_id": "43435cd93126bd859e958ce603e7daa4", "lat": 38.962215666666665, "fusion_lon": 0.0, "fusion_lat": 0.0, "type": "electric_bike", "name": "43435cd93126bd859e958ce603e7daa4", "is_disabled": 0, "rental_uris": {"ios": "https://dc.lft.to/lastmile_qr_scan", "android": "https://dc.lft.to/lastmile_qr_scan"}, "is_reserved": 0}, {"lon": -77.0070275, "bike_id": "908d14fdb3165e8c5bd2c0d7320acc9d", "lat": 38.8796045, "fusion_lon": 0.0, "fusion_lat": 0.0, "type": "electric_scooter", "name": "908d14fdb3165e8c5bd2c0d7320acc9d", "is_disabled": 0, "rental_uris": {"ios": "https://dc.lft.to/lastmile_qr_scan", "android": "https://dc.lft.to/lastmile_qr_scan"}, "is_reserved": 0}, {"lon": -76.95485583333334, "bike_id": "1cb3eaf336fbf83e267a5edcd69fdc47", "lat": 38.884678, "fusion_lon": 0.0, "fusion_lat": 0.0, "type": "electric_scooter", "name": "1cb3eaf336fbf83e267a5edcd69fdc47", "is_disabled": 0, "rental_uris": {"ios": "https://dc.lft.to/lastmile_qr_scan", "android": "https://dc.lft.to/lastmile_qr_scan"}, "is_reserved": 0}, {"lon": -77.00204683333334, "bike_id": "d929e00f8baea021bf63d28500a606d8", "lat": 38.900369833333336, "fusion_lon": 0.0, "fusion_lat": 0.0, "type": "electric_scooter", "name": "d929e00f8baea021bf63d28500a606d8", "is_disabled": 0, "rental_uris": {"ios": "https://dc.lft.to/lastmile_qr_scan", "android": "https://dc.lft.to/lastmile_qr_scan"}, "is_reserved": 0}, {"lon": -76.98264883333333, "bike_id": "5094fbe94894656033f8bd23f17dfd30", "lat": 38.908545, "fusion_lon": 0.0, "fusion_lat": 0.0, "type": "electric_scooter", "name": "5094fbe94894656033f8bd23f17dfd30", "is_disabled": 0, "rental_uris": {"ios": "https://dc.lft.to/lastmile_qr_scan", "android": "https://dc.lft.to/lastmile_qr_scan"}, "is_reserved": 0}, {"lon": -76.98877816666666, "bike_id": "cbc9c7e387ee2726f0cf5c2675c0fb05", "lat": 38.86657266666667, "fusion_lon": 0.0, "fusion_lat": 0.0, "type": "electric_scooter", "name": "cbc9c7e387ee2726f0cf5c2675c0fb05", "is_disabled": 0, "rental_uris": {"ios": "https://dc.lft.to/lastmile_qr_scan", "android": "https://dc.lft.to/lastmile_qr_scan"}, "is_reserved": 0}, {"lon": -76.98593416666667, "bike_id": "cf60289dfe99bd4f63220956492a6fcc", "lat": 38.908113166666666, "fusion_lon": 0.0, "fusion_lat": 0.0, "type": "electric_scooter", "name": "cf60289dfe99bd4f63220956492a6fcc", "is_disabled": 0, "rental_uris": {"ios": "https://dc.lft.to/lastmile_qr_scan", "android": "https://dc.lft.to/lastmile_qr_scan"}, "is_reserved": 0}, {"lon": -76.994869, "bike_id": "811c702c772ef2dbbc1829a30351e37e", "lat": 38.91572683333333, "fusion_lon": 0.0, "fusion_lat": 0.0, "type": "electric_scooter", "name": "811c702c772ef2dbbc1829a30351e37e", "is_disabled": 0, "rental_uris": {"ios": "https://dc.lft.to/lastmile_qr_scan", "android": "https://dc.lft.to/lastmile_qr_scan"}, "is_reserved": 0}, {"lon": -77.06490216666667, "bike_id": "babff8afc79e71cae875e6053dd9961a", "lat": 38.94649533333333, "fusion_lon": 0.0, "fusion_lat": 0.0, "type": "electric_scooter", "name": "babff8afc79e71cae875e6053dd9961a", "is_disabled": 0, "rental_uris": {"ios": "https://dc.lft.to/lastmile_qr_scan", "android": "https://dc.lft.to/lastmile_qr_scan"}, "is_reserved": 0}, {"lon": -76.93381983333333, "bike_id": "1155500695a0510dc9914106568ac48a", "lat": 38.899132333333334, "fusion_lon": 0.0, "fusion_lat": 0.0, "type": "electric_scooter", "name": "1155500695a0510dc9914106568ac48a", "is_disabled": 0, "rental_uris": {"ios": "https://dc.lft.to/lastmile_qr_scan", "android": "https://dc.lft.to/lastmile_qr_scan"}, "is_reserved": 0}, {"lon": -77.041005, "bike_id": "d1596918e7317d0d6c2433e1d0552aef", "lat": 38.92032533333333, "fusion_lon": 0.0, "fusion_lat": 0.0, "type": "electric_scooter", "name": "d1596918e7317d0d6c2433e1d0552aef", "is_disabled": 0, "rental_uris": {"ios": "https://dc.lft.to/lastmile_qr_scan", "android": "https://dc.lft.to/lastmile_qr_scan"}, "is_reserved": 0}, {"lon": -76.98897683333334, "bike_id": "c0d3168f6d7505df9b436bb18438ea8c", "lat": 38.913476833333334, "fusion_lon": 0.0, "fusion_lat": 0.0, "type": "electric_scooter", "name": "c0d3168f6d7505df9b436bb18438ea8c", "is_disabled": 0, "rental_uris": {"ios": "https://dc.lft.to/lastmile_qr_scan", "android": "https://dc.lft.to/lastmile_qr_scan"}, "is_reserved": 0}, {"lon": -77.10089683333334, "bike_id": "fa4c8ee44fd8785889492ec4cbbdf52e", "lat": 38.959570666666664, "fusion_lon": 0.0, "fusion_lat": 0.0, "type": "electric_bike", "name": "fa4c8ee44fd8785889492ec4cbbdf52e", "is_disabled": 0, "rental_uris": {"ios": "https://dc.lft.to/lastmile_qr_scan", "android": "https://dc.lft.to/lastmile_qr_scan"}, "is_reserved": 0}, {"lon": -77.03653933333334, "bike_id": "89e7eaf6085124bde6db52644ebdea1a", "lat": 38.94174966666667, "fusion_lon": 0.0, "fusion_lat": 0.0, "type": "electric_scooter", "name": "89e7eaf6085124bde6db52644ebdea1a", "is_disabled": 0, "rental_uris": {"ios": "https://dc.lft.to/lastmile_qr_scan", "android": "https://dc.lft.to/lastmile_qr_scan"}, "is_reserved": 0}, {"lon": -76.99410266666666, "bike_id": "3445e3c4a00c74664d8cc629b13ef549", "lat": 38.83139766666667, "fusion_lon": 0.0, "fusion_lat": 0.0, "type": "electric_bike", "name": "3445e3c4a00c74664d8cc629b13ef549", "is_disabled": 0, "rental_uris": {"ios": "https://dc.lft.to/lastmile_qr_scan", "android": "https://dc.lft.to/lastmile_qr_scan"}, "is_reserved": 0}, {"lon": -77.05323366666667, "bike_id": "3842b16224e6d493fa5428c7cfe54d1f", "lat": 38.90200866666667, "fusion_lon": 0.0, "fusion_lat": 0.0, "type": "electric_scooter", "name": "3842b16224e6d493fa5428c7cfe54d1f", "is_disabled": 0, "rental_uris": {"ios": "https://dc.lft.to/lastmile_qr_scan", "android": "https://dc.lft.to/lastmile_qr_scan"}, "is_reserved": 0}, {"lon": -77.001233, "bike_id": "b8459a4c88b48e2fadedb2877ef21f0c", "lat": 38.905025, "fusion_lon": 0.0, "fusion_lat": 0.0, "type": "electric_scooter", "name": "b8459a4c88b48e2fadedb2877ef21f0c", "is_disabled": 0, "rental_uris": {"ios": "https://dc.lft.to/lastmile_qr_scan", "android": "https://dc.lft.to/lastmile_qr_scan"}, "is_reserved": 0}, {"lon": -77.03853466666666, "bike_id": "8b16deededac0f3d424e331a37e9125d", "lat": 38.916639333333336, "fusion_lon": 0.0, "fusion_lat": 0.0, "type": "electric_scooter", "name": "8b16deededac0f3d424e331a37e9125d", "is_disabled": 0, "rental_uris": {"ios": "https://dc.lft.to/lastmile_qr_scan", "android": "https://dc.lft.to/lastmile_qr_scan"}, "is_reserved": 0}, {"lon": -77.0325625, "bike_id": "495825102e373b5aa8b35a79f7fee338", "lat": 38.919959166666665, "fusion_lon": 0.0, "fusion_lat": 0.0, "type": "electric_scooter", "name": "495825102e373b5aa8b35a79f7fee338", "is_disabled": 0, "rental_uris": {"ios": "https://dc.lft.to/lastmile_qr_scan", "android": "https://dc.lft.to/lastmile_qr_scan"}, "is_reserved": 0}, {"lon": -77.03826233333334, "bike_id": "82ed28494968c2950ec3988424cf70a5", "lat": 38.9097075, "fusion_lon": 0.0, "fusion_lat": 0.0, "type": "electric_scooter", "name": "82ed28494968c2950ec3988424cf70a5", "is_disabled": 0, "rental_uris": {"ios": "https://dc.lft.to/lastmile_qr_scan", "android": "https://dc.lft.to/lastmile_qr_scan"}, "is_reserved": 0}, {"lon": -77.05913183333334, "bike_id": "5bbdb61bdc49be07da5a30f092a6b41d", "lat": 38.86247383333333, "fusion_lon": 0.0, "fusion_lat": 0.0, "type": "electric_scooter", "name": "5bbdb61bdc49be07da5a30f092a6b41d", "is_disabled": 0, "rental_uris": {"ios": "https://dc.lft.to/lastmile_qr_scan", "android": "https://dc.lft.to/lastmile_qr_scan"}, "is_reserved": 0}, {"lon": -77.03520266666666, "bike_id": "04a5a197c53c24b247469528b5c0f643", "lat": 38.9233735, "fusion_lon": 0.0, "fusion_lat": 0.0, "type": "electric_scooter", "name": "04a5a197c53c24b247469528b5c0f643", "is_disabled": 0, "rental_uris": {"ios": "https://dc.lft.to/lastmile_qr_scan", "android": "https://dc.lft.to/lastmile_qr_scan"}, "is_reserved": 0}, {"lon": -77.03831833333334, "bike_id": "43ac1d4fa04838464aedd7cf789be338", "lat": 38.906741333333336, "fusion_lon": 0.0, "fusion_lat": 0.0, "type": "electric_scooter", "name": "43ac1d4fa04838464aedd7cf789be338", "is_disabled": 0, "rental_uris": {"ios": "https://dc.lft.to/lastmile_qr_scan", "android": "https://dc.lft.to/lastmile_qr_scan"}, "is_reserved": 0}, {"lon": -77.03191516666666, "bike_id": "f67cdf06f4a3c019bf09ce968c9a9571", "lat": 38.9190885, "fusion_lon": 0.0, "fusion_lat": 0.0, "type": "electric_scooter", "name": "f67cdf06f4a3c019bf09ce968c9a9571", "is_disabled": 0, "rental_uris": {"ios": "https://dc.lft.to/lastmile_qr_scan", "android": "https://dc.lft.to/lastmile_qr_scan"}, "is_reserved": 0}, {"lon": -77.0293575, "bike_id": "d854f502d38178dfbdf6dce4be2bb88c", "lat": 38.92081066666667, "fusion_lon": 0.0, "fusion_lat": 0.0, "type": "electric_scooter", "name": "d854f502d38178dfbdf6dce4be2bb88c", "is_disabled": 0, "rental_uris": {"ios": "https://dc.lft.to/lastmile_qr_scan", "android": "https://dc.lft.to/lastmile_qr_scan"}, "is_reserved": 0}, {"lon": -77.00842983333334, "bike_id": "82a1679b7f6f4daa29a3a037591ca494", "lat": 38.9162225, "fusion_lon": 0.0, "fusion_lat": 0.0, "type": "electric_scooter", "name": "82a1679b7f6f4daa29a3a037591ca494", "is_disabled": 0, "rental_uris": {"ios": "https://dc.lft.to/lastmile_qr_scan", "android": "https://dc.lft.to/lastmile_qr_scan"}, "is_reserved": 0}, {"lon": -76.9889785, "bike_id": "763d95683d2bb0eddc31d275c177ea43", "lat": 38.913494666666665, "fusion_lon": 0.0, "fusion_lat": 0.0, "type": "electric_scooter", "name": "763d95683d2bb0eddc31d275c177ea43", "is_disabled": 0, "rental_uris": {"ios": "https://dc.lft.to/lastmile_qr_scan", "android": "https://dc.lft.to/lastmile_qr_scan"}, "is_reserved": 0}, {"lon": -77.018415, "bike_id": "e0e83221be6db22af2dcdfed3992cb31", "lat": 38.90143316666666, "fusion_lon": 0.0, "fusion_lat": 0.0, "type": "electric_scooter", "name": "e0e83221be6db22af2dcdfed3992cb31", "is_disabled": 0, "rental_uris": {"ios": "https://dc.lft.to/lastmile_qr_scan", "android": "https://dc.lft.to/lastmile_qr_scan"}, "is_reserved": 0}, {"lon": -77.08819666666666, "bike_id": "eba1776e00de3c64a001080d6a5e8f7a", "lat": 38.909785166666666, "fusion_lon": 0.0, "fusion_lat": 0.0, "type": "electric_scooter", "name": "eba1776e00de3c64a001080d6a5e8f7a", "is_disabled": 0, "rental_uris": {"ios": "https://dc.lft.to/lastmile_qr_scan", "android": "https://dc.lft.to/lastmile_qr_scan"}, "is_reserved": 0}, {"lon": -77.00225166666667, "bike_id": "c4c72eac77f43c297e484c9bda822bfe", "lat": 38.90043, "fusion_lon": 0.0, "fusion_lat": 0.0, "type": "electric_scooter", "name": "c4c72eac77f43c297e484c9bda822bfe", "is_disabled": 0, "rental_uris": {"ios": "https://dc.lft.to/lastmile_qr_scan", "android": "https://dc.lft.to/lastmile_qr_scan"}, "is_reserved": 0}, {"lon": -77.02383433333334, "bike_id": "f0ac60427e1dd393fb093cd2aa3dd8c4", "lat": 38.90984683333333, "fusion_lon": 0.0, "fusion_lat": 0.0, "type": "electric_scooter", "name": "f0ac60427e1dd393fb093cd2aa3dd8c4", "is_disabled": 0, "rental_uris": {"ios": "https://dc.lft.to/lastmile_qr_scan", "android": "https://dc.lft.to/lastmile_qr_scan"}, "is_reserved": 0}, {"lon": -77.00718366666666, "bike_id": "bf3c83df58cf5dbdfc294bd2dbab7cf9", "lat": 38.950588, "fusion_lon": 0.0, "fusion_lat": 0.0, "type": "electric_bike", "name": "bf3c83df58cf5dbdfc294bd2dbab7cf9", "is_disabled": 0, "rental_uris": {"ios": "https://dc.lft.to/lastmile_qr_scan", "android": "https://dc.lft.to/lastmile_qr_scan"}, "is_reserved": 0}, {"lon": -76.992698, "bike_id": "68b6c64c46cde4a06cd197ca55150971", "lat": 38.8976845, "fusion_lon": 0.0, "fusion_lat": 0.0, "type": "electric_scooter", "name": "68b6c64c46cde4a06cd197ca55150971", "is_disabled": 0, "rental_uris": {"ios": "https://dc.lft.to/lastmile_qr_scan", "android": "https://dc.lft.to/lastmile_qr_scan"}, "is_reserved": 0}, {"lon": -76.98335866666666, "bike_id": "01564ac17edd5a3fc380023a9338df07", "lat": 38.900883, "fusion_lon": 0.0, "fusion_lat": 0.0, "type": "electric_scooter", "name": "01564ac17edd5a3fc380023a9338df07", "is_disabled": 0, "rental_uris": {"ios": "https://dc.lft.to/lastmile_qr_scan", "android": "https://dc.lft.to/lastmile_qr_scan"}, "is_reserved": 0}, {"lon": -77.0318295, "bike_id": "aa61d5b682cd50e983b3321d6864e669", "lat": 38.919028, "fusion_lon": 0.0, "fusion_lat": 0.0, "type": "electric_scooter", "name": "aa61d5b682cd50e983b3321d6864e669", "is_disabled": 0, "rental_uris": {"ios": "https://dc.lft.to/lastmile_qr_scan", "android": "https://dc.lft.to/lastmile_qr_scan"}, "is_reserved": 0}, {"lon": -76.948944, "bike_id": "fb278ecc0f5e42bda884bbee52711a7b", "lat": 38.895321, "fusion_lon": 0.0, "fusion_lat": 0.0, "type": "electric_scooter", "name": "fb278ecc0f5e42bda884bbee52711a7b", "is_disabled": 0, "rental_uris": {"ios": "https://dc.lft.to/lastmile_qr_scan", "android": "https://dc.lft.to/lastmile_qr_scan"}, "is_reserved": 0}, {"lon": -77.0649955, "bike_id": "607282d03a1ed642db3f69172f7691a6", "lat": 38.92905016666667, "fusion_lon": 0.0, "fusion_lat": 0.0, "type": "electric_scooter", "name": "607282d03a1ed642db3f69172f7691a6", "is_disabled": 0, "rental_uris": {"ios": "https://dc.lft.to/lastmile_qr_scan", "android": "https://dc.lft.to/lastmile_qr_scan"}, "is_reserved": 0}, {"lon": -76.99031833333333, "bike_id": "7554f2e77de9ea1932cf410a34e54ec4", "lat": 38.88758383333333, "fusion_lon": 0.0, "fusion_lat": 0.0, "type": "electric_scooter", "name": "7554f2e77de9ea1932cf410a34e54ec4", "is_disabled": 0, "rental_uris": {"ios": "https://dc.lft.to/lastmile_qr_scan", "android": "https://dc.lft.to/lastmile_qr_scan"}, "is_reserved": 0}, {"lon": -77.00886366666667, "bike_id": "d167e486fb7ac47b3c03dea74a0c9249", "lat": 38.917132, "fusion_lon": 0.0, "fusion_lat": 0.0, "type": "electric_scooter", "name": "d167e486fb7ac47b3c03dea74a0c9249", "is_disabled": 0, "rental_uris": {"ios": "https://dc.lft.to/lastmile_qr_scan", "android": "https://dc.lft.to/lastmile_qr_scan"}, "is_reserved": 0}, {"lon": -77.03560516666667, "bike_id": "b06ad9f65934c19e1b096855bc06209c", "lat": 38.927508833333334, "fusion_lon": 0.0, "fusion_lat": 0.0, "type": "electric_scooter", "name": "b06ad9f65934c19e1b096855bc06209c", "is_disabled": 0, "rental_uris": {"ios": "https://dc.lft.to/lastmile_qr_scan", "android": "https://dc.lft.to/lastmile_qr_scan"}, "is_reserved": 0}, {"lon": -76.99036733333334, "bike_id": "51d9a532a9ee94eaa8fedb0d7462745a", "lat": 38.89848683333334, "fusion_lon": 0.0, "fusion_lat": 0.0, "type": "electric_scooter", "name": "51d9a532a9ee94eaa8fedb0d7462745a", "is_disabled": 0, "rental_uris": {"ios": "https://dc.lft.to/lastmile_qr_scan", "android": "https://dc.lft.to/lastmile_qr_scan"}, "is_reserved": 0}, {"lon": -77.02187616666667, "bike_id": "cfca698aa814351520291672c5712ac3", "lat": 38.909481, "fusion_lon": 0.0, "fusion_lat": 0.0, "type": "electric_scooter", "name": "cfca698aa814351520291672c5712ac3", "is_disabled": 0, "rental_uris": {"ios": "https://dc.lft.to/lastmile_qr_scan", "android": "https://dc.lft.to/lastmile_qr_scan"}, "is_reserved": 0}, {"lon": -77.03405666666667, "bike_id": "e2e1e1b17bca548897a62c73bb858fee", "lat": 38.93128266666667, "fusion_lon": 0.0, "fusion_lat": 0.0, "type": "electric_scooter", "name": "e2e1e1b17bca548897a62c73bb858fee", "is_disabled": 0, "rental_uris": {"ios": "https://dc.lft.to/lastmile_qr_scan", "android": "https://dc.lft.to/lastmile_qr_scan"}, "is_reserved": 0}, {"lon": -77.04810466666666, "bike_id": "c25734d1b92c65dbb2d70825de9a1298", "lat": 38.914063666666664, "fusion_lon": 0.0, "fusion_lat": 0.0, "type": "electric_scooter", "name": "c25734d1b92c65dbb2d70825de9a1298", "is_disabled": 0, "rental_uris": {"ios": "https://dc.lft.to/lastmile_qr_scan", "android": "https://dc.lft.to/lastmile_qr_scan"}, "is_reserved": 0}, {"lon": -77.00580816666667, "bike_id": "19e2131ee7ad75afe2dfc347c8beccf9", "lat": 38.905605333333334, "fusion_lon": 0.0, "fusion_lat": 0.0, "type": "electric_scooter", "name": "19e2131ee7ad75afe2dfc347c8beccf9", "is_disabled": 0, "rental_uris": {"ios": "https://dc.lft.to/lastmile_qr_scan", "android": "https://dc.lft.to/lastmile_qr_scan"}, "is_reserved": 0}, {"lon": -77.0190685, "bike_id": "eb8f189251ee1d46fbe7d1a83b80a9f3", "lat": 38.87746683333334, "fusion_lon": 0.0, "fusion_lat": 0.0, "type": "electric_scooter", "name": "eb8f189251ee1d46fbe7d1a83b80a9f3", "is_disabled": 0, "rental_uris": {"ios": "https://dc.lft.to/lastmile_qr_scan", "android": "https://dc.lft.to/lastmile_qr_scan"}, "is_reserved": 0}, {"lon": -77.03860833333333, "bike_id": "42aac97fb16fbf46b12b3f211a2e919e", "lat": 38.915593333333334, "fusion_lon": 0.0, "fusion_lat": 0.0, "type": "electric_scooter", "name": "42aac97fb16fbf46b12b3f211a2e919e", "is_disabled": 0, "rental_uris": {"ios": "https://dc.lft.to/lastmile_qr_scan", "android": "https://dc.lft.to/lastmile_qr_scan"}, "is_reserved": 0}, {"lon": -76.98239983333333, "bike_id": "aca33b04b1fe571d14a3b4a2d06bd12a", "lat": 38.88864133333333, "fusion_lon": 0.0, "fusion_lat": 0.0, "type": "electric_scooter", "name": "aca33b04b1fe571d14a3b4a2d06bd12a", "is_disabled": 0, "rental_uris": {"ios": "https://dc.lft.to/lastmile_qr_scan", "android": "https://dc.lft.to/lastmile_qr_scan"}, "is_reserved": 0}, {"lon": -77.02672166666666, "bike_id": "f2a1fc591c01415b961e1d673e99bfa0", "lat": 38.97193466666667, "fusion_lon": 0.0, "fusion_lat": 0.0, "type": "electric_scooter", "name": "f2a1fc591c01415b961e1d673e99bfa0", "is_disabled": 0, "rental_uris": {"ios": "https://dc.lft.to/lastmile_qr_scan", "android": "https://dc.lft.to/lastmile_qr_scan"}, "is_reserved": 0}, {"lon": -77.03364366666666, "bike_id": "ea6a1a736fbc833e533b108eae9ca894", "lat": 38.9234495, "fusion_lon": 0.0, "fusion_lat": 0.0, "type": "electric_scooter", "name": "ea6a1a736fbc833e533b108eae9ca894", "is_disabled": 0, "rental_uris": {"ios": "https://dc.lft.to/lastmile_qr_scan", "android": "https://dc.lft.to/lastmile_qr_scan"}, "is_reserved": 0}, {"lon": -77.00446166666667, "bike_id": "8f9806691f5c36ff3877f4771e0e1eb1", "lat": 38.91763733333333, "fusion_lon": 0.0, "fusion_lat": 0.0, "type": "electric_scooter", "name": "8f9806691f5c36ff3877f4771e0e1eb1", "is_disabled": 0, "rental_uris": {"ios": "https://dc.lft.to/lastmile_qr_scan", "android": "https://dc.lft.to/lastmile_qr_scan"}, "is_reserved": 0}, {"lon": -77.047538, "bike_id": "3b23d3e800b7c99d5c73a636f5f6ed3b", "lat": 38.917680833333335, "fusion_lon": 0.0, "fusion_lat": 0.0, "type": "electric_scooter", "name": "3b23d3e800b7c99d5c73a636f5f6ed3b", "is_disabled": 0, "rental_uris": {"ios": "https://dc.lft.to/lastmile_qr_scan", "android": "https://dc.lft.to/lastmile_qr_scan"}, "is_reserved": 0}, {"lon": -76.98234933333333, "bike_id": "2747f2b8b9ee308dd1ebfba1b2c415e9", "lat": 38.916653, "fusion_lon": 0.0, "fusion_lat": 0.0, "type": "electric_scooter", "name": "2747f2b8b9ee308dd1ebfba1b2c415e9", "is_disabled": 0, "rental_uris": {"ios": "https://dc.lft.to/lastmile_qr_scan", "android": "https://dc.lft.to/lastmile_qr_scan"}, "is_reserved": 0}, {"lon": -77.022328, "bike_id": "0ed301ffc6171505aa84c7d4fd9915b6", "lat": 38.962044666666664, "fusion_lon": 0.0, "fusion_lat": 0.0, "type": "electric_scooter", "name": "0ed301ffc6171505aa84c7d4fd9915b6", "is_disabled": 0, "rental_uris": {"ios": "https://dc.lft.to/lastmile_qr_scan", "android": "https://dc.lft.to/lastmile_qr_scan"}, "is_reserved": 0}, {"lon": -77.02956333333333, "bike_id": "c05f9d3348c15deb48d06dfb66c1b8aa", "lat": 38.90655, "fusion_lon": 0.0, "fusion_lat": 0.0, "type": "electric_scooter", "name": "c05f9d3348c15deb48d06dfb66c1b8aa", "is_disabled": 0, "rental_uris": {"ios": "https://dc.lft.to/lastmile_qr_scan", "android": "https://dc.lft.to/lastmile_qr_scan"}, "is_reserved": 0}, {"lon": -77.02833433333333, "bike_id": "2a1cbebd11dbc1156ca3b2fd4f1abf94", "lat": 38.89532366666667, "fusion_lon": 0.0, "fusion_lat": 0.0, "type": "electric_scooter", "name": "2a1cbebd11dbc1156ca3b2fd4f1abf94", "is_disabled": 0, "rental_uris": {"ios": "https://dc.lft.to/lastmile_qr_scan", "android": "https://dc.lft.to/lastmile_qr_scan"}, "is_reserved": 0}, {"lon": -77.03873516666667, "bike_id": "fd4feeefb757c6914c3a5c4066297fcc", "lat": 38.90361816666667, "fusion_lon": 0.0, "fusion_lat": 0.0, "type": "electric_scooter", "name": "fd4feeefb757c6914c3a5c4066297fcc", "is_disabled": 0, "rental_uris": {"ios": "https://dc.lft.to/lastmile_qr_scan", "android": "https://dc.lft.to/lastmile_qr_scan"}, "is_reserved": 0}, {"lon": -76.998813, "bike_id": "c45e9a4682a71b152b25a4031108ff30", "lat": 38.909443, "fusion_lon": 0.0, "fusion_lat": 0.0, "type": "electric_scooter", "name": "c45e9a4682a71b152b25a4031108ff30", "is_disabled": 0, "rental_uris": {"ios": "https://dc.lft.to/lastmile_qr_scan", "android": "https://dc.lft.to/lastmile_qr_scan"}, "is_reserved": 0}, {"lon": -76.9923265, "bike_id": "0b12e2541812d81382dcc1a10005b62a", "lat": 38.92217766666667, "fusion_lon": 0.0, "fusion_lat": 0.0, "type": "electric_scooter", "name": "0b12e2541812d81382dcc1a10005b62a", "is_disabled": 0, "rental_uris": {"ios": "https://dc.lft.to/lastmile_qr_scan", "android": "https://dc.lft.to/lastmile_qr_scan"}, "is_reserved": 0}, {"lon": -77.04873233333333, "bike_id": "fc60f4131859549d3fd038db3be6cafc", "lat": 38.8923445, "fusion_lon": 0.0, "fusion_lat": 0.0, "type": "electric_scooter", "name": "fc60f4131859549d3fd038db3be6cafc", "is_disabled": 0, "rental_uris": {"ios": "https://dc.lft.to/lastmile_qr_scan", "android": "https://dc.lft.to/lastmile_qr_scan"}, "is_reserved": 0}, {"lon": -77.00581233333334, "bike_id": "05c823a73031360feadebaae3593111e", "lat": 38.90559016666667, "fusion_lon": 0.0, "fusion_lat": 0.0, "type": "electric_scooter", "name": "05c823a73031360feadebaae3593111e", "is_disabled": 0, "rental_uris": {"ios": "https://dc.lft.to/lastmile_qr_scan", "android": "https://dc.lft.to/lastmile_qr_scan"}, "is_reserved": 0}, {"lon": -77.03462883333333, "bike_id": "562256cc7e45b1040b51c3edfb6533aa", "lat": 38.92639766666667, "fusion_lon": 0.0, "fusion_lat": 0.0, "type": "electric_scooter", "name": "562256cc7e45b1040b51c3edfb6533aa", "is_disabled": 0, "rental_uris": {"ios": "https://dc.lft.to/lastmile_qr_scan", "android": "https://dc.lft.to/lastmile_qr_scan"}, "is_reserved": 0}, {"lon": -77.02352683333334, "bike_id": "627dceaf82d1f74e50a4f066e2ff708d", "lat": 38.89622833333333, "fusion_lon": 0.0, "fusion_lat": 0.0, "type": "electric_scooter", "name": "627dceaf82d1f74e50a4f066e2ff708d", "is_disabled": 0, "rental_uris": {"ios": "https://dc.lft.to/lastmile_qr_scan", "android": "https://dc.lft.to/lastmile_qr_scan"}, "is_reserved": 0}, {"lon": -77.03176, "bike_id": "ec02ef1573d942b3265658795d82b3db", "lat": 38.92121233333334, "fusion_lon": 0.0, "fusion_lat": 0.0, "type": "electric_scooter", "name": "ec02ef1573d942b3265658795d82b3db", "is_disabled": 0, "rental_uris": {"ios": "https://dc.lft.to/lastmile_qr_scan", "android": "https://dc.lft.to/lastmile_qr_scan"}, "is_reserved": 0}, {"lon": -77.02710766666667, "bike_id": "681e76e5a01d8c1bcca150f8253b6208", "lat": 38.8977615, "fusion_lon": 0.0, "fusion_lat": 0.0, "type": "electric_scooter", "name": "681e76e5a01d8c1bcca150f8253b6208", "is_disabled": 0, "rental_uris": {"ios": "https://dc.lft.to/lastmile_qr_scan", "android": "https://dc.lft.to/lastmile_qr_scan"}, "is_reserved": 0}, {"lon": -77.04273066666667, "bike_id": "d52bb96044a3701b5f8c876301384ae9", "lat": 38.93417133333333, "fusion_lon": 0.0, "fusion_lat": 0.0, "type": "electric_scooter", "name": "d52bb96044a3701b5f8c876301384ae9", "is_disabled": 0, "rental_uris": {"ios": "https://dc.lft.to/lastmile_qr_scan", "android": "https://dc.lft.to/lastmile_qr_scan"}, "is_reserved": 0}, {"lon": -77.030774, "bike_id": "9a729351c2334c0d31e7b610b9bfb3f8", "lat": 38.880388333333336, "fusion_lon": 0.0, "fusion_lat": 0.0, "type": "electric_scooter", "name": "9a729351c2334c0d31e7b610b9bfb3f8", "is_disabled": 0, "rental_uris": {"ios": "https://dc.lft.to/lastmile_qr_scan", "android": "https://dc.lft.to/lastmile_qr_scan"}, "is_reserved": 0}, {"lon": -77.038572, "bike_id": "a94cc6552dea67a12aed8b436cea80ae", "lat": 38.916666166666666, "fusion_lon": 0.0, "fusion_lat": 0.0, "type": "electric_scooter", "name": "a94cc6552dea67a12aed8b436cea80ae", "is_disabled": 0, "rental_uris": {"ios": "https://dc.lft.to/lastmile_qr_scan", "android": "https://dc.lft.to/lastmile_qr_scan"}, "is_reserved": 0}, {"lon": -77.02217816666666, "bike_id": "d46e039359f8fbbcf0db5c87649dfe53", "lat": 38.9409645, "fusion_lon": 0.0, "fusion_lat": 0.0, "type": "electric_scooter", "name": "d46e039359f8fbbcf0db5c87649dfe53", "is_disabled": 0, "rental_uris": {"ios": "https://dc.lft.to/lastmile_qr_scan", "android": "https://dc.lft.to/lastmile_qr_scan"}, "is_reserved": 0}, {"lon": -76.99460566666667, "bike_id": "7ec9e5ca3dae26bd813d250b2eb09277", "lat": 38.9406175, "fusion_lon": 0.0, "fusion_lat": 0.0, "type": "electric_bike", "name": "7ec9e5ca3dae26bd813d250b2eb09277", "is_disabled": 0, "rental_uris": {"ios": "https://dc.lft.to/lastmile_qr_scan", "android": "https://dc.lft.to/lastmile_qr_scan"}, "is_reserved": 0}, {"lon": -77.03590966666667, "bike_id": "a73e6cb5a29465bd126a8ea1e1ec3a96", "lat": 38.936712666666665, "fusion_lon": 0.0, "fusion_lat": 0.0, "type": "electric_scooter", "name": "a73e6cb5a29465bd126a8ea1e1ec3a96", "is_disabled": 0, "rental_uris": {"ios": "https://dc.lft.to/lastmile_qr_scan", "android": "https://dc.lft.to/lastmile_qr_scan"}, "is_reserved": 0}, {"lon": -76.9888915, "bike_id": "b9a1b91f7669ad876359194cd4a7c061", "lat": 38.866578, "fusion_lon": 0.0, "fusion_lat": 0.0, "type": "electric_scooter", "name": "b9a1b91f7669ad876359194cd4a7c061", "is_disabled": 0, "rental_uris": {"ios": "https://dc.lft.to/lastmile_qr_scan", "android": "https://dc.lft.to/lastmile_qr_scan"}, "is_reserved": 0}, {"lon": -77.02955833333333, "bike_id": "8312c978b1ad97af87a8b7fcc3f99c03", "lat": 38.90504816666667, "fusion_lon": 0.0, "fusion_lat": 0.0, "type": "electric_scooter", "name": "8312c978b1ad97af87a8b7fcc3f99c03", "is_disabled": 0, "rental_uris": {"ios": "https://dc.lft.to/lastmile_qr_scan", "android": "https://dc.lft.to/lastmile_qr_scan"}, "is_reserved": 0}, {"lon": -77.02578766666667, "bike_id": "1561911791cf5d1de7164d16f7c2c427", "lat": 38.887382, "fusion_lon": 0.0, "fusion_lat": 0.0, "type": "electric_scooter", "name": "1561911791cf5d1de7164d16f7c2c427", "is_disabled": 0, "rental_uris": {"ios": "https://dc.lft.to/lastmile_qr_scan", "android": "https://dc.lft.to/lastmile_qr_scan"}, "is_reserved": 0}, {"lon": -77.03559, "bike_id": "e944c81ed1ab794ec86d6b5333cdae6d", "lat": 38.908448666666665, "fusion_lon": 0.0, "fusion_lat": 0.0, "type": "electric_scooter", "name": "e944c81ed1ab794ec86d6b5333cdae6d", "is_disabled": 0, "rental_uris": {"ios": "https://dc.lft.to/lastmile_qr_scan", "android": "https://dc.lft.to/lastmile_qr_scan"}, "is_reserved": 0}, {"lon": -77.01232266666666, "bike_id": "c571ce10fcff8c032f55d0f53a132ce8", "lat": 38.892971333333335, "fusion_lon": 0.0, "fusion_lat": 0.0, "type": "electric_scooter", "name": "c571ce10fcff8c032f55d0f53a132ce8", "is_disabled": 0, "rental_uris": {"ios": "https://dc.lft.to/lastmile_qr_scan", "android": "https://dc.lft.to/lastmile_qr_scan"}, "is_reserved": 0}, {"lon": -77.0357955, "bike_id": "47a56158dac82a61efc101653f6bec5a", "lat": 38.91767183333333, "fusion_lon": 0.0, "fusion_lat": 0.0, "type": "electric_scooter", "name": "47a56158dac82a61efc101653f6bec5a", "is_disabled": 0, "rental_uris": {"ios": "https://dc.lft.to/lastmile_qr_scan", "android": "https://dc.lft.to/lastmile_qr_scan"}, "is_reserved": 0}, {"lon": -76.999506, "bike_id": "477df6b02d4773ee50e7ce9fa2377b1d", "lat": 38.906203166666664, "fusion_lon": 0.0, "fusion_lat": 0.0, "type": "electric_scooter", "name": "477df6b02d4773ee50e7ce9fa2377b1d", "is_disabled": 0, "rental_uris": {"ios": "https://dc.lft.to/lastmile_qr_scan", "android": "https://dc.lft.to/lastmile_qr_scan"}, "is_reserved": 0}, {"lon": -77.03174716666666, "bike_id": "ea0060762debad9d6cc33ad8d1a288c8", "lat": 38.89219883333333, "fusion_lon": 0.0, "fusion_lat": 0.0, "type": "electric_scooter", "name": "ea0060762debad9d6cc33ad8d1a288c8", "is_disabled": 0, "rental_uris": {"ios": "https://dc.lft.to/lastmile_qr_scan", "android": "https://dc.lft.to/lastmile_qr_scan"}, "is_reserved": 0}, {"lon": -77.03900133333333, "bike_id": "b17ee512a1c9c15ba5eaaa2a6ced9f2e", "lat": 38.918456, "fusion_lon": 0.0, "fusion_lat": 0.0, "type": "electric_scooter", "name": "b17ee512a1c9c15ba5eaaa2a6ced9f2e", "is_disabled": 0, "rental_uris": {"ios": "https://dc.lft.to/lastmile_qr_scan", "android": "https://dc.lft.to/lastmile_qr_scan"}, "is_reserved": 0}, {"lon": -77.01632383333333, "bike_id": "fd51a4f97d921c387e162dba49aa1d3f", "lat": 38.905719166666664, "fusion_lon": 0.0, "fusion_lat": 0.0, "type": "electric_scooter", "name": "fd51a4f97d921c387e162dba49aa1d3f", "is_disabled": 0, "rental_uris": {"ios": "https://dc.lft.to/lastmile_qr_scan", "android": "https://dc.lft.to/lastmile_qr_scan"}, "is_reserved": 0}, {"lon": -77.03466516666667, "bike_id": "ad12946b9492e1fe2070e68a12fbe978", "lat": 38.920026, "fusion_lon": 0.0, "fusion_lat": 0.0, "type": "electric_scooter", "name": "ad12946b9492e1fe2070e68a12fbe978", "is_disabled": 0, "rental_uris": {"ios": "https://dc.lft.to/lastmile_qr_scan", "android": "https://dc.lft.to/lastmile_qr_scan"}, "is_reserved": 0}, {"lon": -77.04004516666667, "bike_id": "f29886ac46bd008263bb19dcd67e5273", "lat": 38.909989833333334, "fusion_lon": 0.0, "fusion_lat": 0.0, "type": "electric_scooter", "name": "f29886ac46bd008263bb19dcd67e5273", "is_disabled": 0, "rental_uris": {"ios": "https://dc.lft.to/lastmile_qr_scan", "android": "https://dc.lft.to/lastmile_qr_scan"}, "is_reserved": 0}, {"lon": -77.03625466666666, "bike_id": "af9aeaf2399d82ccaff108990ec89aae", "lat": 38.931600333333336, "fusion_lon": 0.0, "fusion_lat": 0.0, "type": "electric_scooter", "name": "af9aeaf2399d82ccaff108990ec89aae", "is_disabled": 0, "rental_uris": {"ios": "https://dc.lft.to/lastmile_qr_scan", "android": "https://dc.lft.to/lastmile_qr_scan"}, "is_reserved": 0}, {"lon": -76.97810633333333, "bike_id": "3e5ff2917ababdef3472ee1e08d9579c", "lat": 38.90667466666667, "fusion_lon": 0.0, "fusion_lat": 0.0, "type": "electric_scooter", "name": "3e5ff2917ababdef3472ee1e08d9579c", "is_disabled": 0, "rental_uris": {"ios": "https://dc.lft.to/lastmile_qr_scan", "android": "https://dc.lft.to/lastmile_qr_scan"}, "is_reserved": 0}, {"lon": -77.01460283333333, "bike_id": "78f787183f8fde9caeb24c682e763d8b", "lat": 38.917689, "fusion_lon": 0.0, "fusion_lat": 0.0, "type": "electric_scooter", "name": "78f787183f8fde9caeb24c682e763d8b", "is_disabled": 0, "rental_uris": {"ios": "https://dc.lft.to/lastmile_qr_scan", "android": "https://dc.lft.to/lastmile_qr_scan"}, "is_reserved": 0}, {"lon": -77.10845266666666, "bike_id": "d0b0654acefd8910206b620b97a79f29", "lat": 38.81200783333333, "fusion_lon": 0.0, "fusion_lat": 0.0, "type": "electric_bike", "name": "d0b0654acefd8910206b620b97a79f29", "is_disabled": 0, "rental_uris": {"ios": "https://dc.lft.to/lastmile_qr_scan", "android": "https://dc.lft.to/lastmile_qr_scan"}, "is_reserved": 0}, {"lon": -77.02566366666667, "bike_id": "b5abdb6f0131dc7a67c0b8012b78c95b", "lat": 38.9149215, "fusion_lon": 0.0, "fusion_lat": 0.0, "type": "electric_scooter", "name": "b5abdb6f0131dc7a67c0b8012b78c95b", "is_disabled": 0, "rental_uris": {"ios": "https://dc.lft.to/lastmile_qr_scan", "android": "https://dc.lft.to/lastmile_qr_scan"}, "is_reserved": 0}, {"lon": -76.99177816666666, "bike_id": "e5edcdf252be92d8bf17a3b9ebdefd17", "lat": 38.90507266666667, "fusion_lon": 0.0, "fusion_lat": 0.0, "type": "electric_scooter", "name": "e5edcdf252be92d8bf17a3b9ebdefd17", "is_disabled": 0, "rental_uris": {"ios": "https://dc.lft.to/lastmile_qr_scan", "android": "https://dc.lft.to/lastmile_qr_scan"}, "is_reserved": 0}, {"lon": -77.02970983333333, "bike_id": "b5505695dc00ba3292bc762331bfe95f", "lat": 38.904959, "fusion_lon": 0.0, "fusion_lat": 0.0, "type": "electric_scooter", "name": "b5505695dc00ba3292bc762331bfe95f", "is_disabled": 0, "rental_uris": {"ios": "https://dc.lft.to/lastmile_qr_scan", "android": "https://dc.lft.to/lastmile_qr_scan"}, "is_reserved": 0}, {"lon": -77.03576466666667, "bike_id": "eeaac2031dccca58cd105dfbe5e0a9e5", "lat": 38.93479216666667, "fusion_lon": 0.0, "fusion_lat": 0.0, "type": "electric_scooter", "name": "eeaac2031dccca58cd105dfbe5e0a9e5", "is_disabled": 0, "rental_uris": {"ios": "https://dc.lft.to/lastmile_qr_scan", "android": "https://dc.lft.to/lastmile_qr_scan"}, "is_reserved": 0}, {"lon": -76.89541566666666, "bike_id": "5f90275b9d6e35098f1c481fa87e81d1", "lat": 38.94553233333333, "fusion_lon": 0.0, "fusion_lat": 0.0, "type": "electric_bike", "name": "5f90275b9d6e35098f1c481fa87e81d1", "is_disabled": 0, "rental_uris": {"ios": "https://dc.lft.to/lastmile_qr_scan", "android": "https://dc.lft.to/lastmile_qr_scan"}, "is_reserved": 0}, {"lon": -77.07119066666667, "bike_id": "baa628a626d404bfa82b441ac807ed15", "lat": 38.919720166666664, "fusion_lon": 0.0, "fusion_lat": 0.0, "type": "electric_scooter", "name": "baa628a626d404bfa82b441ac807ed15", "is_disabled": 0, "rental_uris": {"ios": "https://dc.lft.to/lastmile_qr_scan", "android": "https://dc.lft.to/lastmile_qr_scan"}, "is_reserved": 0}, {"lon": -77.04198766666667, "bike_id": "e67f1b61ae93b157cbd3221fe9877183", "lat": 38.920541666666665, "fusion_lon": 0.0, "fusion_lat": 0.0, "type": "electric_scooter", "name": "e67f1b61ae93b157cbd3221fe9877183", "is_disabled": 0, "rental_uris": {"ios": "https://dc.lft.to/lastmile_qr_scan", "android": "https://dc.lft.to/lastmile_qr_scan"}, "is_reserved": 0}, {"lon": -77.04417016666666, "bike_id": "0b94ce357c0cbb4d9ad898591f4b3f41", "lat": 38.921221333333335, "fusion_lon": 0.0, "fusion_lat": 0.0, "type": "electric_scooter", "name": "0b94ce357c0cbb4d9ad898591f4b3f41", "is_disabled": 0, "rental_uris": {"ios": "https://dc.lft.to/lastmile_qr_scan", "android": "https://dc.lft.to/lastmile_qr_scan"}, "is_reserved": 0}, {"lon": -77.00800183333334, "bike_id": "d1b529fbf9bdc7c3c2813aacd5c4bcf8", "lat": 38.949237333333336, "fusion_lon": 0.0, "fusion_lat": 0.0, "type": "electric_bike", "name": "d1b529fbf9bdc7c3c2813aacd5c4bcf8", "is_disabled": 0, "rental_uris": {"ios": "https://dc.lft.to/lastmile_qr_scan", "android": "https://dc.lft.to/lastmile_qr_scan"}, "is_reserved": 0}, {"lon": -77.036699, "bike_id": "018069bcce9735570a6b3df0f49f2ba0", "lat": 38.92334066666667, "fusion_lon": 0.0, "fusion_lat": 0.0, "type": "electric_scooter", "name": "018069bcce9735570a6b3df0f49f2ba0", "is_disabled": 0, "rental_uris": {"ios": "https://dc.lft.to/lastmile_qr_scan", "android": "https://dc.lft.to/lastmile_qr_scan"}, "is_reserved": 0}, {"lon": -77.03941383333333, "bike_id": "898132381d09e493a02d148da6b7747d", "lat": 38.900692166666666, "fusion_lon": 0.0, "fusion_lat": 0.0, "type": "electric_scooter", "name": "898132381d09e493a02d148da6b7747d", "is_disabled": 0, "rental_uris": {"ios": "https://dc.lft.to/lastmile_qr_scan", "android": "https://dc.lft.to/lastmile_qr_scan"}, "is_reserved": 0}, {"lon": -76.99953066666667, "bike_id": "3e92aaa5230eb43ad37025a44e53af57", "lat": 38.89823483333333, "fusion_lon": 0.0, "fusion_lat": 0.0, "type": "electric_scooter", "name": "3e92aaa5230eb43ad37025a44e53af57", "is_disabled": 0, "rental_uris": {"ios": "https://dc.lft.to/lastmile_qr_scan", "android": "https://dc.lft.to/lastmile_qr_scan"}, "is_reserved": 0}, {"lon": -77.0057495, "bike_id": "8b7b03e6df5f1dc1c15c2fd377e0ce83", "lat": 38.835905333333336, "fusion_lon": 0.0, "fusion_lat": 0.0, "type": "electric_scooter", "name": "8b7b03e6df5f1dc1c15c2fd377e0ce83", "is_disabled": 0, "rental_uris": {"ios": "https://dc.lft.to/lastmile_qr_scan", "android": "https://dc.lft.to/lastmile_qr_scan"}, "is_reserved": 0}, {"lon": -77.0130445, "bike_id": "e0e9344729882eb3d60a0b2164f107a6", "lat": 38.943249, "fusion_lon": 0.0, "fusion_lat": 0.0, "type": "electric_scooter", "name": "e0e9344729882eb3d60a0b2164f107a6", "is_disabled": 0, "rental_uris": {"ios": "https://dc.lft.to/lastmile_qr_scan", "android": "https://dc.lft.to/lastmile_qr_scan"}, "is_reserved": 0}, {"lon": -77.03201983333334, "bike_id": "ac40e3226da7bfb0254437126655e0d5", "lat": 38.919229, "fusion_lon": 0.0, "fusion_lat": 0.0, "type": "electric_scooter", "name": "ac40e3226da7bfb0254437126655e0d5", "is_disabled": 0, "rental_uris": {"ios": "https://dc.lft.to/lastmile_qr_scan", "android": "https://dc.lft.to/lastmile_qr_scan"}, "is_reserved": 0}, {"lon": -77.0487485, "bike_id": "52cecde8ac6386ca43f87a4f6f552a62", "lat": 38.89230533333333, "fusion_lon": 0.0, "fusion_lat": 0.0, "type": "electric_scooter", "name": "52cecde8ac6386ca43f87a4f6f552a62", "is_disabled": 0, "rental_uris": {"ios": "https://dc.lft.to/lastmile_qr_scan", "android": "https://dc.lft.to/lastmile_qr_scan"}, "is_reserved": 0}, {"lon": -76.99378683333333, "bike_id": "1558a5c6fdc68e3bf1a0a3ea3ea2d22a", "lat": 38.97191433333333, "fusion_lon": 0.0, "fusion_lat": 0.0, "type": "electric_bike", "name": "1558a5c6fdc68e3bf1a0a3ea3ea2d22a", "is_disabled": 0, "rental_uris": {"ios": "https://dc.lft.to/lastmile_qr_scan", "android": "https://dc.lft.to/lastmile_qr_scan"}, "is_reserved": 0}, {"lon": -76.98107916666666, "bike_id": "0653689b668d9d4a2a2b43652ca7de7d", "lat": 38.90531816666667, "fusion_lon": 0.0, "fusion_lat": 0.0, "type": "electric_scooter", "name": "0653689b668d9d4a2a2b43652ca7de7d", "is_disabled": 0, "rental_uris": {"ios": "https://dc.lft.to/lastmile_qr_scan", "android": "https://dc.lft.to/lastmile_qr_scan"}, "is_reserved": 0}, {"lon": -77.07006716666666, "bike_id": "c63feb2ba1f39856a8eee6e151078cad", "lat": 38.95853916666667, "fusion_lon": 0.0, "fusion_lat": 0.0, "type": "electric_scooter", "name": "c63feb2ba1f39856a8eee6e151078cad", "is_disabled": 0, "rental_uris": {"ios": "https://dc.lft.to/lastmile_qr_scan", "android": "https://dc.lft.to/lastmile_qr_scan"}, "is_reserved": 0}, {"lon": -77.038666, "bike_id": "4069bb09cec30d16c34ff54d52fb58a3", "lat": 38.94500633333333, "fusion_lon": 0.0, "fusion_lat": 0.0, "type": "electric_scooter", "name": "4069bb09cec30d16c34ff54d52fb58a3", "is_disabled": 0, "rental_uris": {"ios": "https://dc.lft.to/lastmile_qr_scan", "android": "https://dc.lft.to/lastmile_qr_scan"}, "is_reserved": 0}, {"lon": -77.034157, "bike_id": "8fbab9348c2cd0ac70db1d61d80b82a1", "lat": 38.90266716666667, "fusion_lon": 0.0, "fusion_lat": 0.0, "type": "electric_scooter", "name": "8fbab9348c2cd0ac70db1d61d80b82a1", "is_disabled": 0, "rental_uris": {"ios": "https://dc.lft.to/lastmile_qr_scan", "android": "https://dc.lft.to/lastmile_qr_scan"}, "is_reserved": 0}, {"lon": -76.93532516666667, "bike_id": "782187e0103ea98356ad16d31a948558", "lat": 38.89681566666667, "fusion_lon": 0.0, "fusion_lat": 0.0, "type": "electric_scooter", "name": "782187e0103ea98356ad16d31a948558", "is_disabled": 0, "rental_uris": {"ios": "https://dc.lft.to/lastmile_qr_scan", "android": "https://dc.lft.to/lastmile_qr_scan"}, "is_reserved": 0}, {"lon": -76.980997, "bike_id": "125d855922092287abd34f89edaa1f39", "lat": 38.8955535, "fusion_lon": 0.0, "fusion_lat": 0.0, "type": "electric_scooter", "name": "125d855922092287abd34f89edaa1f39", "is_disabled": 0, "rental_uris": {"ios": "https://dc.lft.to/lastmile_qr_scan", "android": "https://dc.lft.to/lastmile_qr_scan"}, "is_reserved": 0}, {"lon": -77.02710816666666, "bike_id": "79ead4299335a2481c81bac8a2996d04", "lat": 38.92467966666667, "fusion_lon": 0.0, "fusion_lat": 0.0, "type": "electric_scooter", "name": "79ead4299335a2481c81bac8a2996d04", "is_disabled": 0, "rental_uris": {"ios": "https://dc.lft.to/lastmile_qr_scan", "android": "https://dc.lft.to/lastmile_qr_scan"}, "is_reserved": 0}, {"lon": -76.9615295, "bike_id": "e7aaa4d5ab669f3c4a7626f05acacf14", "lat": 38.883609166666666, "fusion_lon": 0.0, "fusion_lat": 0.0, "type": "electric_scooter", "name": "e7aaa4d5ab669f3c4a7626f05acacf14", "is_disabled": 0, "rental_uris": {"ios": "https://dc.lft.to/lastmile_qr_scan", "android": "https://dc.lft.to/lastmile_qr_scan"}, "is_reserved": 0}, {"lon": -77.0318615, "bike_id": "421b02fa5e84dfe5567dc46d30906f26", "lat": 38.91909833333333, "fusion_lon": 0.0, "fusion_lat": 0.0, "type": "electric_scooter", "name": "421b02fa5e84dfe5567dc46d30906f26", "is_disabled": 0, "rental_uris": {"ios": "https://dc.lft.to/lastmile_qr_scan", "android": "https://dc.lft.to/lastmile_qr_scan"}, "is_reserved": 0}, {"lon": -76.99042383333334, "bike_id": "4d5a76c890fc891182aaa267a9c797f2", "lat": 38.887552166666666, "fusion_lon": 0.0, "fusion_lat": 0.0, "type": "electric_scooter", "name": "4d5a76c890fc891182aaa267a9c797f2", "is_disabled": 0, "rental_uris": {"ios": "https://dc.lft.to/lastmile_qr_scan", "android": "https://dc.lft.to/lastmile_qr_scan"}, "is_reserved": 0}, {"lon": -76.96784233333334, "bike_id": "3efe42abff7f1572a58788a7b157c22c", "lat": 38.8685495, "fusion_lon": 0.0, "fusion_lat": 0.0, "type": "electric_scooter", "name": "3efe42abff7f1572a58788a7b157c22c", "is_disabled": 0, "rental_uris": {"ios": "https://dc.lft.to/lastmile_qr_scan", "android": "https://dc.lft.to/lastmile_qr_scan"}, "is_reserved": 0}, {"lon": -77.00803483333334, "bike_id": "7fa53e852a442cdda591f8bb444f3c72", "lat": 38.905598, "fusion_lon": 0.0, "fusion_lat": 0.0, "type": "electric_scooter", "name": "7fa53e852a442cdda591f8bb444f3c72", "is_disabled": 0, "rental_uris": {"ios": "https://dc.lft.to/lastmile_qr_scan", "android": "https://dc.lft.to/lastmile_qr_scan"}, "is_reserved": 0}, {"lon": -77.05559016666666, "bike_id": "18633645fdb03fe8acd4f7e7ee1e2e44", "lat": 38.930400666666664, "fusion_lon": 0.0, "fusion_lat": 0.0, "type": "electric_scooter", "name": "18633645fdb03fe8acd4f7e7ee1e2e44", "is_disabled": 0, "rental_uris": {"ios": "https://dc.lft.to/lastmile_qr_scan", "android": "https://dc.lft.to/lastmile_qr_scan"}, "is_reserved": 0}, {"lon": -77.0366595, "bike_id": "339e197c364798ebbdf6e458562dbb5a", "lat": 38.91818633333333, "fusion_lon": 0.0, "fusion_lat": 0.0, "type": "electric_scooter", "name": "339e197c364798ebbdf6e458562dbb5a", "is_disabled": 0, "rental_uris": {"ios": "https://dc.lft.to/lastmile_qr_scan", "android": "https://dc.lft.to/lastmile_qr_scan"}, "is_reserved": 0},