{"data": {"bikes": [{"lon": -77.034425, "bike_id": "cc144cbba5ecdd40ee2d14e119b8ee76", "lat": 38.90696583333333, "fusion_lon": 0.0, "fusion_lat": 0.0, "type": "electric_scooter", "name": "cc144cbba5ecdd40ee2d14e119b8ee76", "is_disabled": 0, "rental_uris": {"ios": "https://dc.lft.to/lastmile_qr_scan", "android": "https://dc.lft.to/lastmile_qr_scan"}, "is_reserved": 0}, {"lon": -77.0390635, "bike_id": "5006ed5065a70b2ef8c73a0241ab68e8", "lat": 38.914148, "fusion_lon": 0.0, "fusion_lat": 0.0, "type": "electric_scooter", "name": "5006ed5065a70b2ef8c73a0241ab68e8", "is_disabled": 0, "rental_uris": {"ios": "https://dc.lft.to/lastmile_qr_scan", "android": "https://dc.lft.to/lastmile_qr_scan"}, "is_reserved": 0}, {"lon": -77.04391566666666, "bike_id": "c256abf0cfa50a84f923814a62580426", "lat": 38.923152333333334, "fusion_lon": 0.0, "fusion_lat": 0.0, "type": "electric_scooter", "name": "c256abf0cfa50a84f923814a62580426", "is_disabled": 0, "rental_uris": {"ios": "https://dc.lft.to/lastmile_qr_scan", "android": "https://dc.lft.to/lastmile_qr_scan"}, "is_reserved": 0}, {"lon": -77.032477, "bike_id": "1bd4153d3c0bda85451373cf3a9f91a0", "lat": 38.909653666666664, "fusion_lon": 0.0, "fusion_lat": 0.0, "type": "electric_scooter", "name": "1bd4153d3c0bda85451373cf3a9f91a0", "is_disabled": 0, "rental_uris": {"ios": "https://dc.lft.to/lastmile_qr_scan", "android": "https://dc.lft.to/lastmile_qr_scan"}, "is_reserved": 0}, {"lon": -77.02171433333334, "bike_id": "0cd6ac9f6bf0eca66799ecdc481ba7b6", "lat": 38.919123666666664, "fusion_lon": 0.0, "fusion_lat": 0.0, "type": "electric_scooter", "name": "0cd6ac9f6bf0eca66799ecdc481ba7b6", "is_disabled": 0, "rental_uris": {"ios": "https://dc.lft.to/lastmile_qr_scan", "android": "https://dc.lft.to/lastmile_qr_scan"}, "is_reserved": 0}, {"lon": -77.02853733333333, "bike_id": "f77bd25da6388826badfb0e8abb4d108", "lat": 38.95633566666667, "fusion_lon": 0.0, "fusion_lat": 0.0, "type": "electric_scooter", "name": "f77bd25da6388826badfb0e8abb4d108", "is_disabled": 0, "rental_uris": {"ios": "https://dc.lft.to/lastmile_qr_scan", "android": "https://dc.lft.to/lastmile_qr_scan"}, "is_reserved": 0}, {"lon": -77.048729, "bike_id": "3e811eadae68213cd646f3c22283ed84", "lat": 38.9155605, "fusion_lon": 0.0, "fusion_lat": 0.0, "type": "electric_scooter", "name": "3e811eadae68213cd646f3c22283ed84", "is_disabled": 0, "rental_uris": {"ios": "https://dc.lft.to/lastmile_qr_scan", "android": "https://dc.lft.to/lastmile_qr_scan"}, "is_reserved": 0}, {"lon": -77.039793, "bike_id": "39059cb270f4d55db963ef53fc268a9e", "lat": 38.9202885, "fusion_lon": 0.0, "fusion_lat": 0.0, "type": "electric_scooter", "name": "39059cb270f4d55db963ef53fc268a9e", "is_disabled": 0, "rental_uris": {"ios": "https://dc.lft.to/lastmile_qr_scan", "android": "https://dc.lft.to/lastmile_qr_scan"}, "is_reserved": 0}, {"lon": -77.08066, "bike_id": "2fb5bc2de975e35afebfbb8f24fe2c01", "lat": 39.052803, "fusion_lon": 0.0, "fusion_lat": 0.0, "type": "electric_bike", "name": "2fb5bc2de975e35afebfbb8f24fe2c01", "is_disabled": 0, "rental_uris": {"ios": "https://dc.lft.to/lastmile_qr_scan", "android": "https://dc.lft.to/lastmile_qr_scan"}, "is_reserved": 0}, {"lon": -76.99021016666667, "bike_id": "6c6cd8331f3cf3a6d1cf2a9b9f39d60f", "lat": 38.866451166666664, "fusion_lon": 0.0, "fusion_lat": 0.0, "type": "electric_scooter", "name": "6c6cd8331f3cf3a6d1cf2a9b9f39d60f", "is_disabled": 0, "rental_uris": {"ios": "https://dc.lft.to/lastmile_qr_scan", "android": "https://dc.lft.to/lastmile_qr_scan"}, "is_reserved": 0}, {"lon": -77.04181283333334, "bike_id": "5ea461e7c6255c7ed194c6bd16ff6122", "lat": 38.90655616666667, "fusion_lon": 0.0, "fusion_lat": 0.0, "type": "electric_scooter", "name": "5ea461e7c6255c7ed194c6bd16ff6122", "is_disabled": 0, "rental_uris": {"ios": "https://dc.lft.to/lastmile_qr_scan", "android": "https://dc.lft.to/lastmile_qr_scan"}, "is_reserved": 0}, {"lon": -77.02064966666667, "bike_id": "86cfd193d48c8fc702fcf1637c17f687", "lat": 38.897339833333334, "fusion_lon": 0.0, "fusion_lat": 0.0, "type": "electric_scooter", "name": "86cfd193d48c8fc702fcf1637c17f687", "is_disabled": 0, "rental_uris": {"ios": "https://dc.lft.to/lastmile_qr_scan", "android": "https://dc.lft.to/lastmile_qr_scan"}, "is_reserved": 0}, {"lon": -77.02462783333333, "bike_id": "14923696c0c6ec8c8d090af959bcf40d", "lat": 38.93881566666667, "fusion_lon": 0.0, "fusion_lat": 0.0, "type": "electric_scooter", "name": "14923696c0c6ec8c8d090af959bcf40d", "is_disabled": 0, "rental_uris": {"ios": "https://dc.lft.to/lastmile_qr_scan", "android": "https://dc.lft.to/lastmile_qr_scan"}, "is_reserved": 0}, {"lon": -77.02804433333333, "bike_id": "397c05e6e977be607ead9637885a550b", "lat": 38.931453833333336, "fusion_lon": 0.0, "fusion_lat": 0.0, "type": "electric_scooter", "name": "397c05e6e977be607ead9637885a550b", "is_disabled": 0, "rental_uris": {"ios": "https://dc.lft.to/lastmile_qr_scan", "android": "https://dc.lft.to/lastmile_qr_scan"}, "is_reserved": 0}, {"lon": -76.9747685, "bike_id": "5c7e1cc5062b4694a69e3a554c2241c6", "lat": 38.903516333333336, "fusion_lon": 0.0, "fusion_lat": 0.0, "type": "electric_scooter", "name": "5c7e1cc5062b4694a69e3a554c2241c6", "is_disabled": 0, "rental_uris": {"ios": "https://dc.lft.to/lastmile_qr_scan", "android": "https://dc.lft.to/lastmile_qr_scan"}, "is_reserved": 0}, {"lon": -77.006853, "bike_id": "fc4dc02ce573f5c5e1f972a66e121518", "lat": 38.90011, "fusion_lon": 0.0, "fusion_lat": 0.0, "type": "electric_scooter", "name": "fc4dc02ce573f5c5e1f972a66e121518", "is_disabled": 0, "rental_uris": {"ios": "https://dc.lft.to/lastmile_qr_scan", "android": "https://dc.lft.to/lastmile_qr_scan"}, "is_reserved": 0}, {"lon": -76.99175766666667, "bike_id": "9eea87f02ce4bef88f3b415d24979091", "lat": 38.9050585, "fusion_lon": 0.0, "fusion_lat": 0.0, "type": "electric_scooter", "name": "9eea87f02ce4bef88f3b415d24979091", "is_disabled": 0, "rental_uris": {"ios": "https://dc.lft.to/lastmile_qr_scan", "android": "https://dc.lft.to/lastmile_qr_scan"}, "is_reserved": 0}, {"lon": -77.02810416666667, "bike_id": "6bfaa724351b2fb3515fa9740a8cb85b", "lat": 38.899763, "fusion_lon": 0.0, "fusion_lat": 0.0, "type": "electric_scooter", "name": "6bfaa724351b2fb3515fa9740a8cb85b", "is_disabled": 0, "rental_uris": {"ios": "https://dc.lft.to/lastmile_qr_scan", "android": "https://dc.lft.to/lastmile_qr_scan"}, "is_reserved": 0}, {"lon": -77.02983016666667, "bike_id": "4ed475b3bdf92b935f74c32bc5186aef", "lat": 38.94738266666667, "fusion_lon": 0.0, "fusion_lat": 0.0, "type": "electric_scooter", "name": "4ed475b3bdf92b935f74c32bc5186aef", "is_disabled": 0, "rental_uris": {"ios": "https://dc.lft.to/lastmile_qr_scan", "android": "https://dc.lft.to/lastmile_qr_scan"}, "is_reserved": 0}, {"lon": -77.03220833333333, "bike_id": "9fb0f7003f2c6795c576131c87b03590", "lat": 38.914054666666665, "fusion_lon": 0.0, "fusion_lat": 0.0, "type": "electric_scooter", "name": "9fb0f7003f2c6795c576131c87b03590", "is_disabled": 0, "rental_uris": {"ios": "https://dc.lft.to/lastmile_qr_scan", "android": "https://dc.lft.to/lastmile_qr_scan"}, "is_reserved": 0}, {"lon": -77.03339483333333, "bike_id": "aab2301554c5c231afebf21ee87a4b9b", "lat": 38.917111, "fusion_lon": 0.0, "fusion_lat": 0.0, "type": "electric_scooter", "name": "aab2301554c5c231afebf21ee87a4b9b", "is_disabled": 0, "rental_uris": {"ios": "https://dc.lft.to/lastmile_qr_scan", "android": "https://dc.lft.to/lastmile_qr_scan"}, "is_reserved": 0}, {"lon": -77.024763, "bike_id": "d05a43398fc8333700230f1b287a0d1a", "lat": 38.901041166666666, "fusion_lon": 0.0, "fusion_lat": 0.0, "type": "electric_scooter", "name": "d05a43398fc8333700230f1b287a0d1a", "is_disabled": 0, "rental_uris": {"ios": "https://dc.lft.to/lastmile_qr_scan", "android": "https://dc.lft.to/lastmile_qr_scan"}, "is_reserved": 0}, {"lon": -76.98592483333333, "bike_id": "155fa7472464d740b7e536c7a00f76c7", "lat": 38.8606085, "fusion_lon": 0.0, "fusion_lat": 0.0, "type": "electric_scooter", "name": "155fa7472464d740b7e536c7a00f76c7", "is_disabled": 0, "rental_uris": {"ios": "https://dc.lft.to/lastmile_qr_scan", "android": "https://dc.lft.to/lastmile_qr_scan"}, "is_reserved": 0}, {"lon": -77.04058666666667, "bike_id": "ac87be890715c111f4cb33015904225f", "lat": 38.903875166666666, "fusion_lon": 0.0, "fusion_lat": 0.0, "type": "electric_scooter", "name": "ac87be890715c111f4cb33015904225f", "is_disabled": 0, "rental_uris": {"ios": "https://dc.lft.to/lastmile_qr_scan", "android": "https://dc.lft.to/lastmile_qr_scan"}, "is_reserved": 0}, {"lon": -77.04409233333334, "bike_id": "5dd4308498f7f204592718a6f7dbe298", "lat": 38.934226, "fusion_lon": 0.0, "fusion_lat": 0.0, "type": "electric_scooter", "name": "5dd4308498f7f204592718a6f7dbe298", "is_disabled": 0, "rental_uris": {"ios": "https://dc.lft.to/lastmile_qr_scan", "android": "https://dc.lft.to/lastmile_qr_scan"}, "is_reserved": 0}, {"lon": -76.96152933333333, "bike_id": "131be79c1638eff948b6727511cadc48", "lat": 38.883627833333335, "fusion_lon": 0.0, "fusion_lat": 0.0, "type": "electric_scooter", "name": "131be79c1638eff948b6727511cadc48", "is_disabled": 0, "rental_uris": {"ios": "https://dc.lft.to/lastmile_qr_scan", "android": "https://dc.lft.to/lastmile_qr_scan"}, "is_reserved": 0}, {"lon": -76.98535483333333, "bike_id": "5e21a192e0d17864931660c9fb625227", "lat": 38.910248833333334, "fusion_lon": 0.0, "fusion_lat": 0.0, "type": "electric_scooter", "name": "5e21a192e0d17864931660c9fb625227", "is_disabled": 0, "rental_uris": {"ios": "https://dc.lft.to/lastmile_qr_scan", "android": "https://dc.lft.to/lastmile_qr_scan"}, "is_reserved": 0}, {"lon": -77.0295995, "bike_id": "24943c926476fc5046f72d7de5ab96f6", "lat": 38.93198483333333, "fusion_lon": 0.0, "fusion_lat": 0.0, "type": "electric_scooter", "name": "24943c926476fc5046f72d7de5ab96f6", "is_disabled": 0, "rental_uris": {"ios": "https://dc.lft.to/lastmile_qr_scan", "android": "https://dc.lft.to/lastmile_qr_scan"}, "is_reserved": 0}, {"lon": -77.0312025, "bike_id": "6c1a523cd5b15123a4ada6db0f2e9726", "lat": 38.917032, "fusion_lon": 0.0, "fusion_lat": 0.0, "type": "electric_scooter", "name": "6c1a523cd5b15123a4ada6db0f2e9726", "is_disabled": 0, "rental_uris": {"ios": "https://dc.lft.to/lastmile_qr_scan", "android": "https://dc.lft.to/lastmile_qr_scan"}, "is_reserved": 0}, {"lon": -76.987266, "bike_id": "9bbf3cee85766ff6d60cf97cc1a3723c", "lat": 38.867134, "fusion_lon": 0.0, "fusion_lat": 0.0, "type": "electric_scooter", "name": "9bbf3cee85766ff6d60cf97cc1a3723c", "is_disabled": 0, "rental_uris": {"ios": "https://dc.lft.to/lastmile_qr_scan", "android": "https://dc.lft.to/lastmile_qr_scan"}, "is_reserved": 0}, {"lon": -77.1059745, "bike_id": "7636b4a3f94aefc16cd84b273957124e", "lat": 38.92897416666667, "fusion_lon": 0.0, "fusion_lat": 0.0, "type": "electric_bike", "name": "7636b4a3f94aefc16cd84b273957124e", "is_disabled": 0, "rental_uris": {"ios": "https://dc.lft.to/lastmile_qr_scan", "android": "https://dc.lft.to/lastmile_qr_scan"}, "is_reserved": 0}, {"lon": -77.025833, "bike_id": "5f5b533707be1a698db3e8b05f8a0334", "lat": 38.892343, "fusion_lon": 0.0, "fusion_lat": 0.0, "type": "electric_scooter", "name": "5f5b533707be1a698db3e8b05f8a0334", "is_disabled": 0, "rental_uris": {"ios": "https://dc.lft.to/lastmile_qr_scan", "android": "https://dc.lft.to/lastmile_qr_scan"}, "is_reserved": 0}, {"lon": -76.981595, "bike_id": "f1f3fb8d52e9b2725ec17ffd4a5eb8c5", "lat": 38.925732833333335, "fusion_lon": 0.0, "fusion_lat": 0.0, "type": "electric_scooter", "name": "f1f3fb8d52e9b2725ec17ffd4a5eb8c5", "is_disabled": 0, "rental_uris": {"ios": "https://dc.lft.to/lastmile_qr_scan", "android": "https://dc.lft.to/lastmile_qr_scan"}, "is_reserved": 0}, {"lon": -77.03261316666666, "bike_id": "332ab81d18a74ae9b2c007b7a26d3779", "lat": 38.9140515, "fusion_lon": 0.0, "fusion_lat": 0.0, "type": "electric_scooter", "name": "332ab81d18a74ae9b2c007b7a26d3779", "is_disabled": 0, "rental_uris": {"ios": "https://dc.lft.to/lastmile_qr_scan", "android": "https://dc.lft.to/lastmile_qr_scan"}, "is_reserved": 0}, {"lon": -77.04980233333333, "bike_id": "0b8364454e76703a04a9bb6690d1e3e9", "lat": 38.896102666666664, "fusion_lon": 0.0, "fusion_lat": 0.0, "type": "electric_scooter", "name": "0b8364454e76703a04a9bb6690d1e3e9", "is_disabled": 0, "rental_uris": {"ios": "https://dc.lft.to/lastmile_qr_scan", "android": "https://dc.lft.to/lastmile_qr_scan"}, "is_reserved": 0}, {"lon": -76.99646766666666, "bike_id": "16768c37fdf4f57feb81779c7228f772", "lat": 38.988284166666666, "fusion_lon": 0.0, "fusion_lat": 0.0, "type": "electric_bike", "name": "16768c37fdf4f57feb81779c7228f772", "is_disabled": 0, "rental_uris": {"ios": "https://dc.lft.to/lastmile_qr_scan", "android": "https://dc.lft.to/lastmile_qr_scan"}, "is_reserved": 0}, {"lon": -76.99174433333333, "bike_id": "237fcfba5ad9955ad268299d165755bc", "lat": 38.889898333333335, "fusion_lon": 0.0, "fusion_lat": 0.0, "type": "electric_scooter", "name": "237fcfba5ad9955ad268299d165755bc", "is_disabled": 0, "rental_uris": {"ios": "https://dc.lft.to/lastmile_qr_scan", "android": "https://dc.lft.to/lastmile_qr_scan"}, "is_reserved": 0}, {"lon": -77.02717283333334, "bike_id": "6f3879512f459f29181d922de26c0bef", "lat": 38.90479283333333, "fusion_lon": 0.0, "fusion_lat": 0.0, "type": "electric_scooter", "name": "6f3879512f459f29181d922de26c0bef", "is_disabled": 0, "rental_uris": {"ios": "https://dc.lft.to/lastmile_qr_scan", "android": "https://dc.lft.to/lastmile_qr_scan"}, "is_reserved": 0}, {"lon": -77.009713, "bike_id": "d94bfc4b32219b72362a2c5480107f51", "lat": 38.9118145, "fusion_lon": 0.0, "fusion_lat": 0.0, "type": "electric_scooter", "name": "d94bfc4b32219b72362a2c5480107f51", "is_disabled": 0, "rental_uris": {"ios": "https://dc.lft.to/lastmile_qr_scan", "android": "https://dc.lft.to/lastmile_qr_scan"}, "is_reserved": 0}, {"lon": -77.04014, "bike_id": "7602f36f6bfe19eaa1a87ecd83e9d839", "lat": 38.903566833333336, "fusion_lon": 0.0, "fusion_lat": 0.0, "type": "electric_scooter", "name": "7602f36f6bfe19eaa1a87ecd83e9d839", "is_disabled": 0, "rental_uris": {"ios": "https://dc.lft.to/lastmile_qr_scan", "android": "https://dc.lft.to/lastmile_qr_scan"}, "is_reserved": 0}, {"lon": -77.01931983333333, "bike_id": "e4ec3a6afe18f5e972aeccd4e71cede3", "lat": 38.89831983333333, "fusion_lon": 0.0, "fusion_lat": 0.0, "type": "electric_scooter", "name": "e4ec3a6afe18f5e972aeccd4e71cede3", "is_disabled": 0, "rental_uris": {"ios": "https://dc.lft.to/lastmile_qr_scan", "android": "https://dc.lft.to/lastmile_qr_scan"}, "is_reserved": 0}, {"lon": -77.02278766666667, "bike_id": "b210e990a41f099a20b7152fbc363c36", "lat": 38.926897, "fusion_lon": 0.0, "fusion_lat": 0.0, "type": "electric_scooter", "name": "b210e990a41f099a20b7152fbc363c36", "is_disabled": 0, "rental_uris": {"ios": "https://dc.lft.to/lastmile_qr_scan", "android": "https://dc.lft.to/lastmile_qr_scan"}, "is_reserved": 0}, {"lon": -77.03536416666667, "bike_id": "3ffbe58eab3e4f36d5931ea3a300be04", "lat": 38.92411333333333, "fusion_lon": 0.0, "fusion_lat": 0.0, "type": "electric_scooter", "name": "3ffbe58eab3e4f36d5931ea3a300be04", "is_disabled": 0, "rental_uris": {"ios": "https://dc.lft.to/lastmile_qr_scan", "android": "https://dc.lft.to/lastmile_qr_scan"}, "is_reserved": 0}, {"lon": -77.00747983333333, "bike_id": "1e6dee057b9678d0427cc48f9ef6be91", "lat": 38.90066733333333, "fusion_lon": 0.0, "fusion_lat": 0.0, "type": "electric_scooter", "name": "1e6dee057b9678d0427cc48f9ef6be91", "is_disabled": 0, "rental_uris": {"ios": "https://dc.lft.to/lastmile_qr_scan", "android": "https://dc.lft.to/lastmile_qr_scan"}, "is_reserved": 0}, {"lon": -77.02463266666666, "bike_id": "74b5441cce8fea985e7aaf9083c128a7", "lat": 38.93881966666667, "fusion_lon": 0.0, "fusion_lat": 0.0, "type": "electric_scooter", "name": "74b5441cce8fea985e7aaf9083c128a7", "is_disabled": 0, "rental_uris": {"ios": "https://dc.lft.to/lastmile_qr_scan", "android": "https://dc.lft.to/lastmile_qr_scan"}, "is_reserved": 0}, {"lon": -77.04392133333333, "bike_id": "78c02142d4950dfe4920375ae95a4aae", "lat": 38.92440533333333, "fusion_lon": 0.0, "fusion_lat": 0.0, "type": "electric_scooter", "name": "78c02142d4950dfe4920375ae95a4aae", "is_disabled": 0, "rental_uris": {"ios": "https://dc.lft.to/lastmile_qr_scan", "android": "https://dc.lft.to/lastmile_qr_scan"}, "is_reserved": 0}, {"lon": -77.04888733333334, "bike_id": "c77508276c356c2a26dee2f0a16af3db", "lat": 38.8923515, "fusion_lon": 0.0, "fusion_lat": 0.0, "type": "electric_scooter", "name": "c77508276c356c2a26dee2f0a16af3db", "is_disabled": 0, "rental_uris": {"ios": "https://dc.lft.to/lastmile_qr_scan", "android": "https://dc.lft.to/lastmile_qr_scan"}, "is_reserved": 0}, {"lon": -77.05578266666667, "bike_id": "fd632bb16485e4e54df4f772f4384e28", "lat": 38.923271, "fusion_lon": 0.0, "fusion_lat": 0.0, "type": "electric_scooter", "name": "fd632bb16485e4e54df4f772f4384e28", "is_disabled": 0, "rental_uris": {"ios": "https://dc.lft.to/lastmile_qr_scan", "android": "https://dc.lft.to/lastmile_qr_scan"}, "is_reserved": 0}, {"lon": -77.04667933333333, "bike_id": "503965b2f3892fe88feb682e371a6fac", "lat": 38.906106, "fusion_lon": 0.0, "fusion_lat": 0.0, "type": "electric_scooter", "name": "503965b2f3892fe88feb682e371a6fac", "is_disabled": 0, "rental_uris": {"ios": "https://dc.lft.to/lastmile_qr_scan", "android": "https://dc.lft.to/lastmile_qr_scan"}, "is_reserved": 0}, {"lon": -76.9892145, "bike_id": "ae07ef726af19047694088c157383bdf", "lat": 38.858093333333336, "fusion_lon": 0.0, "fusion_lat": 0.0, "type": "electric_scooter", "name": "ae07ef726af19047694088c157383bdf", "is_disabled": 0, "rental_uris": {"ios": "https://dc.lft.to/lastmile_qr_scan", "android": "https://dc.lft.to/lastmile_qr_scan"}, "is_reserved": 0}, {"lon": -77.05806733333333, "bike_id": "6ed08dccbf097d7d7118d84b960f38ec", "lat": 38.935299666666666, "fusion_lon": 0.0, "fusion_lat": 0.0, "type": "electric_bike", "name": "6ed08dccbf097d7d7118d84b960f38ec", "is_disabled": 0, "rental_uris": {"ios": "https://dc.lft.to/lastmile_qr_scan", "android": "https://dc.lft.to/lastmile_qr_scan"}, "is_reserved": 0}, {"lon": -77.02309016666666, "bike_id": "8d841aa118dc75679aed8a82453a22b7", "lat": 38.91703183333333, "fusion_lon": 0.0, "fusion_lat": 0.0, "type": "electric_scooter", "name": "8d841aa118dc75679aed8a82453a22b7", "is_disabled": 0, "rental_uris": {"ios": "https://dc.lft.to/lastmile_qr_scan", "android": "https://dc.lft.to/lastmile_qr_scan"}, "is_reserved": 0}, {"lon": -77.026041, "bike_id": "b7af65b1f02df3b06605ea94422d9a7a", "lat": 38.9826855, "fusion_lon": 0.0, "fusion_lat": 0.0, "type": "electric_bike", "name": "b7af65b1f02df3b06605ea94422d9a7a", "is_disabled": 0, "rental_uris": {"ios": "https://dc.lft.to/lastmile_qr_scan", "android": "https://dc.lft.to/lastmile_qr_scan"}, "is_reserved": 0}, {"lon": -77.02210283333334, "bike_id": "dbdbd35570ff2e1d7fb356b20af722ae", "lat": 38.91415216666667, "fusion_lon": 0.0, "fusion_lat": 0.0, "type": "electric_scooter", "name": "dbdbd35570ff2e1d7fb356b20af722ae", "is_disabled": 0, "rental_uris": {"ios": "https://dc.lft.to/lastmile_qr_scan", "android": "https://dc.lft.to/lastmile_qr_scan"}, "is_reserved": 0}, {"lon": -77.022099, "bike_id": "506c19fecbc5f6581dd49042e6182aa1", "lat": 38.926147, "fusion_lon": 0.0, "fusion_lat": 0.0, "type": "electric_scooter", "name": "506c19fecbc5f6581dd49042e6182aa1", "is_disabled": 0, "rental_uris": {"ios": "https://dc.lft.to/lastmile_qr_scan", "android": "https://dc.lft.to/lastmile_qr_scan"}, "is_reserved": 0}, {"lon": -77.021866, "bike_id": "a77652be72fdc9e1adc96e7bc12616cf", "lat": 38.9395185, "fusion_lon": 0.0, "fusion_lat": 0.0, "type": "electric_scooter", "name": "a77652be72fdc9e1adc96e7bc12616cf", "is_disabled": 0, "rental_uris": {"ios": "https://dc.lft.to/lastmile_qr_scan", "android": "https://dc.lft.to/lastmile_qr_scan"}, "is_reserved": 0}, {"lon": -77.079211, "bike_id": "8bb7148e9fe5aa50837052611964fb6d", "lat": 38.94812, "fusion_lon": 0.0, "fusion_lat": 0.0, "type": "electric_scooter", "name": "8bb7148e9fe5aa50837052611964fb6d", "is_disabled": 0, "rental_uris": {"ios": "https://dc.lft.to/lastmile_qr_scan", "android": "https://dc.lft.to/lastmile_qr_scan"}, "is_reserved": 0}, {"lon": -77.01267283333334, "bike_id": "37275d878abe40af9845fdbd388100f3", "lat": 38.915419, "fusion_lon": 0.0, "fusion_lat": 0.0, "type": "electric_scooter", "name": "37275d878abe40af9845fdbd388100f3", "is_disabled": 0, "rental_uris": {"ios": "https://dc.lft.to/lastmile_qr_scan", "android": "https://dc.lft.to/lastmile_qr_scan"}, "is_reserved": 0}, {"lon": -76.97972233333333, "bike_id": "845849eaba20c121371ae5272233fbdf", "lat": 38.953711, "fusion_lon": 0.0, "fusion_lat": 0.0, "type": "electric_bike", "name": "845849eaba20c121371ae5272233fbdf", "is_disabled": 0, "rental_uris": {"ios": "https://dc.lft.to/lastmile_qr_scan", "android": "https://dc.lft.to/lastmile_qr_scan"}, "is_reserved": 0}, {"lon": -77.0439075, "bike_id": "5dc7017603c0a185cc4be9904bcc46fb", "lat": 39.047193166666666, "fusion_lon": 0.0, "fusion_lat": 0.0, "type": "electric_bike", "name": "5dc7017603c0a185cc4be9904bcc46fb", "is_disabled": 0, "rental_uris": {"ios": "https://dc.lft.to/lastmile_qr_scan", "android": "https://dc.lft.to/lastmile_qr_scan"}, "is_reserved": 0}, {"lon": -77.02111933333333, "bike_id": "b1dc9f169d47a3e7e7f34392fe756323", "lat": 38.90606283333334, "fusion_lon": 0.0, "fusion_lat": 0.0, "type": "electric_scooter", "name": "b1dc9f169d47a3e7e7f34392fe756323", "is_disabled": 0, "rental_uris": {"ios": "https://dc.lft.to/lastmile_qr_scan", "android": "https://dc.lft.to/lastmile_qr_scan"}, "is_reserved": 0}, {"lon": -77.054634, "bike_id": "817aa88962fb576efaec9eb494bf2458", "lat": 38.90439933333333, "fusion_lon": 0.0, "fusion_lat": 0.0, "type": "electric_scooter", "name": "817aa88962fb576efaec9eb494bf2458", "is_disabled": 0, "rental_uris": {"ios": "https://dc.lft.to/lastmile_qr_scan", "android": "https://dc.lft.to/lastmile_qr_scan"}, "is_reserved": 0}, {"lon": -77.04860916666667, "bike_id": "738f376478cfdc53cc6eb55cd5d3dd22", "lat": 38.89223616666666, "fusion_lon": 0.0, "fusion_lat": 0.0, "type": "electric_scooter", "name": "738f376478cfdc53cc6eb55cd5d3dd22", "is_disabled": 0, "rental_uris": {"ios": "https://dc.lft.to/lastmile_qr_scan", "android": "https://dc.lft.to/lastmile_qr_scan"}, "is_reserved": 0}, {"lon": -77.019603, "bike_id": "869abc78300aecd591c1006a2dabdaaa", "lat": 38.901065833333334, "fusion_lon": 0.0, "fusion_lat": 0.0, "type": "electric_scooter", "name": "869abc78300aecd591c1006a2dabdaaa", "is_disabled": 0, "rental_uris": {"ios": "https://dc.lft.to/lastmile_qr_scan", "android": "https://dc.lft.to/lastmile_qr_scan"}, "is_reserved": 0}, {"lon": -76.97912283333334, "bike_id": "dcbd01dac07434abc04c78065c3a49cb", "lat": 38.8634875, "fusion_lon": 0.0, "fusion_lat": 0.0, "type": "electric_scooter", "name": "dcbd01dac07434abc04c78065c3a49cb", "is_disabled": 0, "rental_uris": {"ios": "https://dc.lft.to/lastmile_qr_scan", "android": "https://dc.lft.to/lastmile_qr_scan"}, "is_reserved": 0}, {"lon": -77.019965, "bike_id": "ac387dc35d43901cb59bd1e9dde9a3e2", "lat": 38.966314, "fusion_lon": 0.0, "fusion_lat": 0.0, "type": "electric_scooter", "name": "ac387dc35d43901cb59bd1e9dde9a3e2", "is_disabled": 0, "rental_uris": {"ios": "https://dc.lft.to/lastmile_qr_scan", "android": "https://dc.lft.to/lastmile_qr_scan"}, "is_reserved": 0}, {"lon": -76.98464466666667, "bike_id": "5257edf420b40eb512e2d81df967482f", "lat": 38.90398733333333, "fusion_lon": 0.0, "fusion_lat": 0.0, "type": "electric_scooter", "name": "5257edf420b40eb512e2d81df967482f", "is_disabled": 0, "rental_uris": {"ios": "https://dc.lft.to/lastmile_qr_scan", "android": "https://dc.lft.to/lastmile_qr_scan"}, "is_reserved": 0}, {"lon": -77.02721366666667, "bike_id": "506aede0a8c89bd9cb6dd21a43d94354", "lat": 38.901137, "fusion_lon": 0.0, "fusion_lat": 0.0, "type": "electric_scooter", "name": "506aede0a8c89bd9cb6dd21a43d94354", "is_disabled": 0, "rental_uris": {"ios": "https://dc.lft.to/lastmile_qr_scan", "android": "https://dc.lft.to/lastmile_qr_scan"}, "is_reserved": 0}, {"lon": -77.0362655, "bike_id": "5b3ba49238fec21109d0f902b1af41ad", "lat": 38.93676583333333, "fusion_lon": 0.0, "fusion_lat": 0.0, "type": "electric_scooter", "name": "5b3ba49238fec21109d0f902b1af41ad", "is_disabled": 0, "rental_uris": {"ios": "https://dc.lft.to/lastmile_qr_scan", "android": "https://dc.lft.to/lastmile_qr_scan"}, "is_reserved": 0}, {"lon": -77.0187085, "bike_id": "93d6251750d650bd99da2fd2a98b8353", "lat": 38.898497, "fusion_lon": 0.0, "fusion_lat": 0.0, "type": "electric_scooter", "name": "93d6251750d650bd99da2fd2a98b8353", "is_disabled": 0, "rental_uris": {"ios": "https://dc.lft.to/lastmile_qr_scan", "android": "https://dc.lft.to/lastmile_qr_scan"}, "is_reserved": 0}, {"lon": -77.02810133333334, "bike_id": "f937ea55c7012e4c8cf94143eb99656e", "lat": 38.8817765, "fusion_lon": 0.0, "fusion_lat": 0.0, "type": "electric_scooter", "name": "f937ea55c7012e4c8cf94143eb99656e", "is_disabled": 0, "rental_uris": {"ios": "https://dc.lft.to/lastmile_qr_scan", "android": "https://dc.lft.to/lastmile_qr_scan"}, "is_reserved": 0}, {"lon": -77.02191433333333, "bike_id": "4b6fa532bb4a12d00232be15725e089e", "lat": 38.90535233333333, "fusion_lon": 0.0, "fusion_lat": 0.0, "type": "electric_scooter", "name": "4b6fa532bb4a12d00232be15725e089e", "is_disabled": 0, "rental_uris": {"ios": "https://dc.lft.to/lastmile_qr_scan", "android": "https://dc.lft.to/lastmile_qr_scan"}, "is_reserved": 0}, {"lon": -76.99455683333333, "bike_id": "b614fb94f81babf89dad330f6ff2d616", "lat": 38.86218366666667, "fusion_lon": 0.0, "fusion_lat": 0.0, "type": "electric_scooter", "name": "b614fb94f81babf89dad330f6ff2d616", "is_disabled": 0, "rental_uris": {"ios": "https://dc.lft.to/lastmile_qr_scan", "android": "https://dc.lft.to/lastmile_qr_scan"}, "is_reserved": 0}, {"lon": -77.01655466666666, "bike_id": "8c707ca0e8545e5e15d807ef21397434", "lat": 38.8771285, "fusion_lon": 0.0, "fusion_lat": 0.0, "type": "electric_scooter", "name": "8c707ca0e8545e5e15d807ef21397434", "is_disabled": 0, "rental_uris": {"ios": "https://dc.lft.to/lastmile_qr_scan", "android": "https://dc.lft.to/lastmile_qr_scan"}, "is_reserved": 0}, {"lon": -77.0276265, "bike_id": "e99daac6563b1734bec34c9fec791307", "lat": 38.95427516666667, "fusion_lon": 0.0, "fusion_lat": 0.0, "type": "electric_scooter", "name": "e99daac6563b1734bec34c9fec791307", "is_disabled": 0, "rental_uris": {"ios": "https://dc.lft.to/lastmile_qr_scan", "android": "https://dc.lft.to/lastmile_qr_scan"}, "is_reserved": 0}, {"lon": -77.01412333333333, "bike_id": "77c13b0b471ebf6efdb3ca84262dddba", "lat": 38.92870933333333, "fusion_lon": 0.0, "fusion_lat": 0.0, "type": "electric_scooter", "name": "77c13b0b471ebf6efdb3ca84262dddba", "is_disabled": 0, "rental_uris": {"ios": "https://dc.lft.to/lastmile_qr_scan", "android": "https://dc.lft.to/lastmile_qr_scan"}, "is_reserved": 0}, {"lon": -77.03869316666666, "bike_id": "444e5d92750ff390b92b8ec3edeb9716", "lat": 38.908901666666665, "fusion_lon": 0.0, "fusion_lat": 0.0, "type": "electric_scooter", "name": "444e5d92750ff390b92b8ec3edeb9716", "is_disabled": 0, "rental_uris": {"ios": "https://dc.lft.to/lastmile_qr_scan", "android": "https://dc.lft.to/lastmile_qr_scan"}, "is_reserved": 0}, {"lon": -77.02113466666667, "bike_id": "ee379a3100699e902489fbdd2276e355", "lat": 38.917401166666664, "fusion_lon": 0.0, "fusion_lat": 0.0, "type": "electric_scooter", "name": "ee379a3100699e902489fbdd2276e355", "is_disabled": 0, "rental_uris": {"ios": "https://dc.lft.to/lastmile_qr_scan", "android": "https://dc.lft.to/lastmile_qr_scan"}, "is_reserved": 0}, {"lon": -77.04579016666666, "bike_id": "84efdecd3eed76cf1584af7c9f783261", "lat": 38.90373666666667, "fusion_lon": 0.0, "fusion_lat": 0.0, "type": "electric_scooter", "name": "84efdecd3eed76cf1584af7c9f783261", "is_disabled": 0, "rental_uris": {"ios": "https://dc.lft.to/lastmile_qr_scan", "android": "https://dc.lft.to/lastmile_qr_scan"}, "is_reserved": 0}, {"lon": -76.99714216666666, "bike_id": "a63b17eaac4815a8a0a44605304ea6fb", "lat": 38.911024, "fusion_lon": 0.0, "fusion_lat": 0.0, "type": "electric_scooter", "name": "a63b17eaac4815a8a0a44605304ea6fb", "is_disabled": 0, "rental_uris": {"ios": "https://dc.lft.to/lastmile_qr_scan", "android": "https://dc.lft.to/lastmile_qr_scan"}, "is_reserved": 0}, {"lon": -76.92999683333333, "bike_id": "46c7740ca6ecc4df0c478163292a6a6e", "lat": 38.901872833333336, "fusion_lon": 0.0, "fusion_lat": 0.0, "type": "electric_scooter", "name": "46c7740ca6ecc4df0c478163292a6a6e", "is_disabled": 0, "rental_uris": {"ios": "https://dc.lft.to/lastmile_qr_scan", "android": "https://dc.lft.to/lastmile_qr_scan"}, "is_reserved": 0}, {"lon": -77.0963395, "bike_id": "04eef14eda1fc2838fab434cfbaee438", "lat": 38.867613166666665, "fusion_lon": 0.0, "fusion_lat": 0.0, "type": "electric_bike", "name": "04eef14eda1fc2838fab434cfbaee438", "is_disabled": 0, "rental_uris": {"ios": "https://dc.lft.to/lastmile_qr_scan", "android": "https://dc.lft.to/lastmile_qr_scan"}, "is_reserved": 0}, {"lon": -77.0111625, "bike_id": "363a62f4dd58051e1ee1877e7aa3627e", "lat": 38.885510333333336, "fusion_lon": 0.0, "fusion_lat": 0.0, "type": "electric_scooter", "name": "363a62f4dd58051e1ee1877e7aa3627e", "is_disabled": 0, "rental_uris": {"ios": "https://dc.lft.to/lastmile_qr_scan", "android": "https://dc.lft.to/lastmile_qr_scan"}, "is_reserved": 0}, {"lon": -77.10907866666666, "bike_id": "239268f68ad01b890f9ab2c18c10b87e", "lat": 39.0520605, "fusion_lon": 0.0, "fusion_lat": 0.0, "type": "electric_bike", "name": "239268f68ad01b890f9ab2c18c10b87e", "is_disabled": 0, "rental_uris": {"ios": "https://dc.lft.to/lastmile_qr_scan", "android": "https://dc.lft.to/lastmile_qr_scan"}, "is_reserved": 0}, {"lon": -77.028074, "bike_id": "3f99b6a6ccb1bc7055d9ab2c4c342c97", "lat": 38.88177116666667, "fusion_lon": 0.0, "fusion_lat": 0.0, "type": "electric_scooter", "name": "3f99b6a6ccb1bc7055d9ab2c4c342c97", "is_disabled": 0, "rental_uris": {"ios": "https://dc.lft.to/lastmile_qr_scan", "android": "https://dc.lft.to/lastmile_qr_scan"}, "is_reserved": 0}, {"lon": -77.08575316666666, "bike_id": "a3f30ab4f3e004250be0e8bd8b6f3e7a", "lat": 38.9335695, "fusion_lon": 0.0, "fusion_lat": 0.0, "type": "electric_scooter", "name": "a3f30ab4f3e004250be0e8bd8b6f3e7a", "is_disabled": 0, "rental_uris": {"ios": "https://dc.lft.to/lastmile_qr_scan", "android": "https://dc.lft.to/lastmile_qr_scan"}, "is_reserved": 0}, {"lon": -77.00833983333334, "bike_id": "7e2ce797b7472715c8aac53dbe902a4c", "lat": 38.91309583333334, "fusion_lon": 0.0, "fusion_lat": 0.0, "type": "electric_scooter", "name": "7e2ce797b7472715c8aac53dbe902a4c", "is_disabled": 0, "rental_uris": {"ios": "https://dc.lft.to/lastmile_qr_scan", "android": "https://dc.lft.to/lastmile_qr_scan"}, "is_reserved": 0}, {"lon": -77.05934766666667, "bike_id": "c86bc416e8695c2a8661285e444b5b5a", "lat": 38.912396333333334, "fusion_lon": 0.0, "fusion_lat": 0.0, "type": "electric_scooter", "name": "c86bc416e8695c2a8661285e444b5b5a", "is_disabled": 0, "rental_uris": {"ios": "https://dc.lft.to/lastmile_qr_scan", "android": "https://dc.lft.to/lastmile_qr_scan"}, "is_reserved": 0}, {"lon": -77.03875016666667, "bike_id": "b0b32cf03f8be9e6eb2f9340679ba05a", "lat": 38.90973266666666, "fusion_lon": 0.0, "fusion_lat": 0.0, "type": "electric_scooter", "name": "b0b32cf03f8be9e6eb2f9340679ba05a", "is_disabled": 0, "rental_uris": {"ios": "https://dc.lft.to/lastmile_qr_scan", "android": "https://dc.lft.to/lastmile_qr_scan"}, "is_reserved": 0}, {"lon": -77.02602883333333, "bike_id": "15b7acf05411300344414f8a9cb52ed9", "lat": 38.9265865, "fusion_lon": 0.0, "fusion_lat": 0.0, "type": "electric_scooter", "name": "15b7acf05411300344414f8a9cb52ed9", "is_disabled": 0, "rental_uris": {"ios": "https://dc.lft.to/lastmile_qr_scan", "android": "https://dc.lft.to/lastmile_qr_scan"}, "is_reserved": 0}, {"lon": -77.00408066666667, "bike_id": "770623624a07fe8fc3ae0c89124206cb", "lat": 38.90626316666667, "fusion_lon": 0.0, "fusion_lat": 0.0, "type": "electric_scooter", "name": "770623624a07fe8fc3ae0c89124206cb", "is_disabled": 0, "rental_uris": {"ios": "https://dc.lft.to/lastmile_qr_scan", "android": "https://dc.lft.to/lastmile_qr_scan"}, "is_reserved": 0}, {"lon": -77.028037, "bike_id": "036c21a5d510cf5a7775783834c65eaa", "lat": 38.909783833333336, "fusion_lon": 0.0, "fusion_lat": 0.0, "type": "electric_scooter", "name": "036c21a5d510cf5a7775783834c65eaa", "is_disabled": 0, "rental_uris": {"ios": "https://dc.lft.to/lastmile_qr_scan", "android": "https://dc.lft.to/lastmile_qr_scan"}, "is_reserved": 0}, {"lon": -77.0481815, "bike_id": "31776504a08dc0c521c98c9c2bfce970", "lat": 38.91334166666667, "fusion_lon": 0.0, "fusion_lat": 0.0, "type": "electric_scooter", "name": "31776504a08dc0c521c98c9c2bfce970", "is_disabled": 0, "rental_uris": {"ios": "https://dc.lft.to/lastmile_qr_scan", "android": "https://dc.lft.to/lastmile_qr_scan"}, "is_reserved": 0}, {"lon": -77.04923833333334, "bike_id": "74f5ef8419a918c42f7384ccee4c8224", "lat": 39.02934183333333, "fusion_lon": 0.0, "fusion_lat": 0.0, "type": "electric_bike", "name": "74f5ef8419a918c42f7384ccee4c8224", "is_disabled": 0, "rental_uris": {"ios": "https://dc.lft.to/lastmile_qr_scan", "android": "https://dc.lft.to/lastmile_qr_scan"}, "is_reserved": 0}, {"lon": -77.04653566666667, "bike_id": "6fb5bdb175a1f2d6f3a20c320d729850", "lat": 38.90334133333333, "fusion_lon": 0.0, "fusion_lat": 0.0, "type": "electric_scooter", "name": "6fb5bdb175a1f2d6f3a20c320d729850", "is_disabled": 0, "rental_uris": {"ios": "https://dc.lft.to/lastmile_qr_scan", "android": "https://dc.lft.to/lastmile_qr_scan"}, "is_reserved": 0}, {"lon": -77.02426983333334, "bike_id": "215e9fa58ff2a2704318cd1d74d2e090", "lat": 38.914001666666664, "fusion_lon": 0.0, "fusion_lat": 0.0, "type": "electric_scooter", "name": "215e9fa58ff2a2704318cd1d74d2e090", "is_disabled": 0, "rental_uris": {"ios": "https://dc.lft.to/lastmile_qr_scan", "android": "https://dc.lft.to/lastmile_qr_scan"}, "is_reserved": 0}, {"lon": -77.0344395, "bike_id": "27581f0d3447db05ed839cf7524d0abf", "lat": 38.928693833333334, "fusion_lon": 0.0, "fusion_lat": 0.0, "type": "electric_scooter", "name": "27581f0d3447db05ed839cf7524d0abf", "is_disabled": 0, "rental_uris": {"ios": "https://dc.lft.to/lastmile_qr_scan", "android": "https://dc.lft.to/lastmile_qr_scan"}, "is_reserved": 0}, {"lon": -77.03383466666666, "bike_id": "19c813d6f7b319aad55a572392d3e878", "lat": 38.93839033333333, "fusion_lon": 0.0, "fusion_lat": 0.0, "type": "electric_scooter", "name": "19c813d6f7b319aad55a572392d3e878", "is_disabled": 0, "rental_uris": {"ios": "https://dc.lft.to/lastmile_qr_scan", "android": "https://dc.lft.to/lastmile_qr_scan"}, "is_reserved": 0}, {"lon": -77.02167333333334, "bike_id": "6ab5dd48d42173e7e598c1317864ced4", "lat": 38.88749283333333, "fusion_lon": 0.0, "fusion_lat": 0.0, "type": "electric_scooter", "name": "6ab5dd48d42173e7e598c1317864ced4", "is_disabled": 0, "rental_uris": {"ios": "https://dc.lft.to/lastmile_qr_scan", "android": "https://dc.lft.to/lastmile_qr_scan"}, "is_reserved": 0}, {"lon": -77.02073766666666, "bike_id": "abbc6d8e42e0a0ca7f211c208ceba7b9", "lat": 38.935342166666665, "fusion_lon": 0.0, "fusion_lat": 0.0, "type": "electric_scooter", "name": "abbc6d8e42e0a0ca7f211c208ceba7b9", "is_disabled": 0, "rental_uris": {"ios": "https://dc.lft.to/lastmile_qr_scan", "android": "https://dc.lft.to/lastmile_qr_scan"}, "is_reserved": 0}, {"lon": -77.0406905, "bike_id": "7aee0ad1387d244f7ef07eb3210d50f5", "lat": 38.9239235, "fusion_lon": 0.0, "fusion_lat": 0.0, "type": "electric_scooter", "name": "7aee0ad1387d244f7ef07eb3210d50f5", "is_disabled": 0, "rental_uris": {"ios": "https://dc.lft.to/lastmile_qr_scan", "android": "https://dc.lft.to/lastmile_qr_scan"}, "is_reserved": 0}, {"lon": -77.0239555, "bike_id": "d52a1f38638e9f52d66a8a5b2bac53c5", "lat": 38.91993516666667, "fusion_lon": 0.0, "fusion_lat": 0.0, "type": "electric_scooter", "name": "d52a1f38638e9f52d66a8a5b2bac53c5", "is_disabled": 0, "rental_uris": {"ios": "https://dc.lft.to/lastmile_qr_scan", "android": "https://dc.lft.to/lastmile_qr_scan"}, "is_reserved": 0}, {"lon": -77.02158833333333, "bike_id": "e09a8aa9ffafabba426d56257c56cd3a", "lat": 38.892195666666666, "fusion_lon": 0.0, "fusion_lat": 0.0, "type": "electric_scooter", "name": "e09a8aa9ffafabba426d56257c56cd3a", "is_disabled": 0, "rental_uris": {"ios": "https://dc.lft.to/lastmile_qr_scan", "android": "https://dc.lft.to/lastmile_qr_scan"}, "is_reserved": 0}, {"lon": -77.01217916666667, "bike_id": "058427dc264e963a94275965ecf19595", "lat": 38.890288, "fusion_lon": 0.0, "fusion_lat": 0.0, "type": "electric_scooter", "name": "058427dc264e963a94275965ecf19595", "is_disabled": 0, "rental_uris": {"ios": "https://dc.lft.to/lastmile_qr_scan", "android": "https://dc.lft.to/lastmile_qr_scan"}, "is_reserved": 0}, {"lon": -77.03987783333334, "bike_id": "60e24b03518e46e14ececccf063a0219", "lat": 38.924615833333334, "fusion_lon": 0.0, "fusion_lat": 0.0, "type": "electric_scooter", "name": "60e24b03518e46e14ececccf063a0219", "is_disabled": 0, "rental_uris": {"ios": "https://dc.lft.to/lastmile_qr_scan", "android": "https://dc.lft.to/lastmile_qr_scan"}, "is_reserved": 0}, {"lon": -76.98889316666667, "bike_id": "6189514ec6077925a60b5a1f8bf0a78c", "lat": 38.86656966666666, "fusion_lon": 0.0, "fusion_lat": 0.0, "type": "electric_scooter", "name": "6189514ec6077925a60b5a1f8bf0a78c", "is_disabled": 0, "rental_uris": {"ios": "https://dc.lft.to/lastmile_qr_scan", "android": "https://dc.lft.to/lastmile_qr_scan"}, "is_reserved": 0}, {"lon": -77.02434783333334, "bike_id": "e1bfb941eb908f375bb1fbac58006ff4", "lat": 38.9169615, "fusion_lon": 0.0, "fusion_lat": 0.0, "type": "electric_scooter", "name": "e1bfb941eb908f375bb1fbac58006ff4", "is_disabled": 0, "rental_uris": {"ios": "https://dc.lft.to/lastmile_qr_scan", "android": "https://dc.lft.to/lastmile_qr_scan"}, "is_reserved": 0}, {"lon": -77.04779183333333, "bike_id": "e1002a6861873968dc8d3dd58c71512b", "lat": 38.91230083333333, "fusion_lon": 0.0, "fusion_lat": 0.0, "type": "electric_scooter", "name": "e1002a6861873968dc8d3dd58c71512b", "is_disabled": 0, "rental_uris": {"ios": "https://dc.lft.to/lastmile_qr_scan", "android": "https://dc.lft.to/lastmile_qr_scan"}, "is_reserved": 0}, {"lon": -77.07414266666666, "bike_id": "64f199f2dc9083bb1252e0b04fc5b2fe", "lat": 38.96278083333333, "fusion_lon": 0.0, "fusion_lat": 0.0, "type": "electric_scooter", "name": "64f199f2dc9083bb1252e0b04fc5b2fe", "is_disabled": 0, "rental_uris": {"ios": "https://dc.lft.to/lastmile_qr_scan", "android": "https://dc.lft.to/lastmile_qr_scan"}, "is_reserved": 0}, {"lon": -77.025848, "bike_id": "e3acbd40f78261e14e0cbdfe9a921a9b", "lat": 38.892359666666664, "fusion_lon": 0.0, "fusion_lat": 0.0, "type": "electric_scooter", "name": "e3acbd40f78261e14e0cbdfe9a921a9b", "is_disabled": 0, "rental_uris": {"ios": "https://dc.lft.to/lastmile_qr_scan", "android": "https://dc.lft.to/lastmile_qr_scan"}, "is_reserved": 0}, {"lon": -77.02730383333333, "bike_id": "462b3ee4f8bba9574d5caa549804aaad", "lat": 38.94382016666667, "fusion_lon": 0.0, "fusion_lat": 0.0, "type": "electric_scooter", "name": "462b3ee4f8bba9574d5caa549804aaad", "is_disabled": 0, "rental_uris": {"ios": "https://dc.lft.to/lastmile_qr_scan", "android": "https://dc.lft.to/lastmile_qr_scan"}, "is_reserved": 0}, {"lon": -77.0240585, "bike_id": "db2ab8a1439c6f42b408600b5542ae43", "lat": 38.904236166666664, "fusion_lon": 0.0, "fusion_lat": 0.0, "type": "electric_scooter", "name": "db2ab8a1439c6f42b408600b5542ae43", "is_disabled": 0, "rental_uris": {"ios": "https://dc.lft.to/lastmile_qr_scan", "android": "https://dc.lft.to/lastmile_qr_scan"}, "is_reserved": 0}, {"lon": -77.041229, "bike_id": "ebf46e457739fddf445841891b099517", "lat": 38.9060865, "fusion_lon": 0.0, "fusion_lat": 0.0, "type": "electric_scooter", "name": "ebf46e457739fddf445841891b099517", "is_disabled": 0, "rental_uris": {"ios": "https://dc.lft.to/lastmile_qr_scan", "android": "https://dc.lft.to/lastmile_qr_scan"}, "is_reserved": 0}, {"lon": -77.04957066666667, "bike_id": "d2a98da45dd0284810d6e5a858027922", "lat": 38.898289166666665, "fusion_lon": 0.0, "fusion_lat": 0.0, "type": "electric_scooter", "name": "d2a98da45dd0284810d6e5a858027922", "is_disabled": 0, "rental_uris": {"ios": "https://dc.lft.to/lastmile_qr_scan", "android": "https://dc.lft.to/lastmile_qr_scan"}, "is_reserved": 0}, {"lon": -77.10591083333334, "bike_id": "ed00c8b1737612ead316880e4c4032c5", "lat": 38.903885333333335, "fusion_lon": 0.0, "fusion_lat": 0.0, "type": "electric_bike", "name": "ed00c8b1737612ead316880e4c4032c5", "is_disabled": 0, "rental_uris": {"ios": "https://dc.lft.to/lastmile_qr_scan", "android": "https://dc.lft.to/lastmile_qr_scan"}, "is_reserved": 0}, {"lon": -76.97327433333334, "bike_id": "67d50163d60e713b2d111a97c55ed432", "lat": 38.9041145, "fusion_lon": 0.0, "fusion_lat": 0.0, "type": "electric_scooter", "name": "67d50163d60e713b2d111a97c55ed432", "is_disabled": 0, "rental_uris": {"ios": "https://dc.lft.to/lastmile_qr_scan", "android": "https://dc.lft.to/lastmile_qr_scan"}, "is_reserved": 0}, {"lon": -77.02420133333334, "bike_id": "39ed7144c8dd9ddd668094455d682a6c", "lat": 38.92652866666667, "fusion_lon": 0.0, "fusion_lat": 0.0, "type": "electric_scooter", "name": "39ed7144c8dd9ddd668094455d682a6c", "is_disabled": 0, "rental_uris": {"ios": "https://dc.lft.to/lastmile_qr_scan", "android": "https://dc.lft.to/lastmile_qr_scan"}, "is_reserved": 0}, {"lon": -77.022141, "bike_id": "d93c45d268694f06f19e1388b0508429", "lat": 38.9004715, "fusion_lon": 0.0, "fusion_lat": 0.0, "type": "electric_scooter", "name": "d93c45d268694f06f19e1388b0508429", "is_disabled": 0, "rental_uris": {"ios": "https://dc.lft.to/lastmile_qr_scan", "android": "https://dc.lft.to/lastmile_qr_scan"}, "is_reserved": 0}, {"lon": -77.0351485, "bike_id": "98d0d6c624ff1bd836416b7626d48663", "lat": 38.92342283333333, "fusion_lon": 0.0, "fusion_lat": 0.0, "type": "electric_scooter", "name": "98d0d6c624ff1bd836416b7626d48663", "is_disabled": 0, "rental_uris": {"ios": "https://dc.lft.to/lastmile_qr_scan", "android": "https://dc.lft.to/lastmile_qr_scan"}, "is_reserved": 0}, {"lon": -77.01199, "bike_id": "d9f7ee23c0c86f31e91a9b0bbdeba644", "lat": 38.91919716666666, "fusion_lon": 0.0, "fusion_lat": 0.0, "type": "electric_scooter", "name": "d9f7ee23c0c86f31e91a9b0bbdeba644", "is_disabled": 0, "rental_uris": {"ios": "https://dc.lft.to/lastmile_qr_scan", "android": "https://dc.lft.to/lastmile_qr_scan"}, "is_reserved": 0}, {"lon": -77.0128745, "bike_id": "2403ef2822034caf71b473c143a2b6d9", "lat": 38.910357, "fusion_lon": 0.0, "fusion_lat": 0.0, "type": "electric_scooter", "name": "2403ef2822034caf71b473c143a2b6d9", "is_disabled": 0, "rental_uris": {"ios": "https://dc.lft.to/lastmile_qr_scan", "android": "https://dc.lft.to/lastmile_qr_scan"}, "is_reserved": 0}, {"lon": -77.036672, "bike_id": "02ad1c07993d173c737d7c2b93e226e2", "lat": 38.918691333333335, "fusion_lon": 0.0, "fusion_lat": 0.0, "type": "electric_scooter", "name": "02ad1c07993d173c737d7c2b93e226e2", "is_disabled": 0, "rental_uris": {"ios": "https://dc.lft.to/lastmile_qr_scan", "android": "https://dc.lft.to/lastmile_qr_scan"}, "is_reserved": 0}, {"lon": -77.05008133333334, "bike_id": "29a86d193b172032f5cc0b21dbfc40b2", "lat": 38.89467283333333, "fusion_lon": 0.0, "fusion_lat": 0.0, "type": "electric_scooter", "name": "29a86d193b172032f5cc0b21dbfc40b2", "is_disabled": 0, "rental_uris": {"ios": "https://dc.lft.to/lastmile_qr_scan", "android": "https://dc.lft.to/lastmile_qr_scan"}, "is_reserved": 0}, {"lon": -77.04504183333333, "bike_id": "24d1fe8c3915e5fd9f5469fff19cd5de", "lat": 38.9193235, "fusion_lon": 0.0, "fusion_lat": 0.0, "type": "electric_scooter", "name": "24d1fe8c3915e5fd9f5469fff19cd5de", "is_disabled": 0, "rental_uris": {"ios": "https://dc.lft.to/lastmile_qr_scan", "android": "https://dc.lft.to/lastmile_qr_scan"}, "is_reserved": 0}, {"lon": -77.051488, "bike_id": "da1f5021e9257b4275132f574cc4c09d", "lat": 38.89865483333333, "fusion_lon": 0.0, "fusion_lat": 0.0, "type": "electric_scooter", "name": "da1f5021e9257b4275132f574cc4c09d", "is_disabled": 0, "rental_uris": {"ios": "https://dc.lft.to/lastmile_qr_scan", "android": "https://dc.lft.to/lastmile_qr_scan"}, "is_reserved": 0}, {"lon": -77.02594883333333, "bike_id": "26e6b581e2e581d49d7978c22f9e10c1", "lat": 38.90501616666667, "fusion_lon": 0.0, "fusion_lat": 0.0, "type": "electric_scooter", "name": "26e6b581e2e581d49d7978c22f9e10c1", "is_disabled": 0, "rental_uris": {"ios": "https://dc.lft.to/lastmile_qr_scan", "android": "https://dc.lft.to/lastmile_qr_scan"}, "is_reserved": 0}, {"lon": -77.02701133333333, "bike_id": "6553e1c9e11e493115d50ddc019b81fc", "lat": 38.89937716666667, "fusion_lon": 0.0, "fusion_lat": 0.0, "type": "electric_scooter", "name": "6553e1c9e11e493115d50ddc019b81fc", "is_disabled": 0, "rental_uris": {"ios": "https://dc.lft.to/lastmile_qr_scan", "android": "https://dc.lft.to/lastmile_qr_scan"}, "is_reserved": 0}, {"lon": -77.02143533333333, "bike_id": "e97a748835e55a1de97d85b2be5b10a5", "lat": 38.894166166666665, "fusion_lon": 0.0, "fusion_lat": 0.0, "type": "electric_scooter", "name": "e97a748835e55a1de97d85b2be5b10a5", "is_disabled": 0, "rental_uris": {"ios": "https://dc.lft.to/lastmile_qr_scan", "android": "https://dc.lft.to/lastmile_qr_scan"}, "is_reserved": 0}, {"lon": -76.98931733333333, "bike_id": "87c59f657b1e1b807a709f31c831b9d3", "lat": 38.91832, "fusion_lon": 0.0, "fusion_lat": 0.0, "type": "electric_scooter", "name": "87c59f657b1e1b807a709f31c831b9d3", "is_disabled": 0, "rental_uris": {"ios": "https://dc.lft.to/lastmile_qr_scan", "android": "https://dc.lft.to/lastmile_qr_scan"}, "is_reserved": 0}, {"lon": -76.99773466666667, "bike_id": "134e4f55052e4bc0d575adfb5b16e8ac", "lat": 38.843056, "fusion_lon": 0.0, "fusion_lat": 0.0, "type": "electric_scooter", "name": "134e4f55052e4bc0d575adfb5b16e8ac", "is_disabled": 0, "rental_uris": {"ios": "https://dc.lft.to/lastmile_qr_scan", "android": "https://dc.lft.to/lastmile_qr_scan"}, "is_reserved": 0}, {"lon": -76.93750133333333, "bike_id": "108b730194090decf47260f8d31c45d7", "lat": 38.89046583333333, "fusion_lon": 0.0, "fusion_lat": 0.0, "type": "electric_scooter", "name": "108b730194090decf47260f8d31c45d7", "is_disabled": 0, "rental_uris": {"ios": "https://dc.lft.to/lastmile_qr_scan", "android": "https://dc.lft.to/lastmile_qr_scan"}, "is_reserved": 0}, {"lon": -77.04519683333334, "bike_id": "c980730b7d946a00cc6da1fd3bba0ba2", "lat": 38.941998, "fusion_lon": 0.0, "fusion_lat": 0.0, "type": "electric_bike", "name": "c980730b7d946a00cc6da1fd3bba0ba2", "is_disabled": 0, "rental_uris": {"ios": "https://dc.lft.to/lastmile_qr_scan", "android": "https://dc.lft.to/lastmile_qr_scan"}, "is_reserved": 0}, {"lon": -77.04655666666666, "bike_id": "64d351049644e0998d6ee4da2c67fcaa", "lat": 38.90896583333333, "fusion_lon": 0.0, "fusion_lat": 0.0, "type": "electric_scooter", "name": "64d351049644e0998d6ee4da2c67fcaa", "is_disabled": 0, "rental_uris": {"ios": "https://dc.lft.to/lastmile_qr_scan", "android": "https://dc.lft.to/lastmile_qr_scan"}, "is_reserved": 0}, {"lon": -77.0410565, "bike_id": "586e8acf56a625f524a82a7a8c30f7ae", "lat": 38.89858066666667, "fusion_lon": 0.0, "fusion_lat": 0.0, "type": "electric_scooter", "name": "586e8acf56a625f524a82a7a8c30f7ae", "is_disabled": 0, "rental_uris": {"ios": "https://dc.lft.to/lastmile_qr_scan", "android": "https://dc.lft.to/lastmile_qr_scan"}, "is_reserved": 0}, {"lon": -76.98836733333333, "bike_id": "86ef80c32899a583cf4eac6018b2dbda", "lat": 38.900794, "fusion_lon": 0.0, "fusion_lat": 0.0, "type": "electric_scooter", "name": "86ef80c32899a583cf4eac6018b2dbda", "is_disabled": 0, "rental_uris": {"ios": "https://dc.lft.to/lastmile_qr_scan", "android": "https://dc.lft.to/lastmile_qr_scan"}, "is_reserved": 0}, {"lon": -77.02300716666667, "bike_id": "70a25aa094498f0e3197e7a488f35f05", "lat": 38.926733666666664, "fusion_lon": 0.0, "fusion_lat": 0.0, "type": "electric_scooter", "name": "70a25aa094498f0e3197e7a488f35f05", "is_disabled": 0, "rental_uris": {"ios": "https://dc.lft.to/lastmile_qr_scan", "android": "https://dc.lft.to/lastmile_qr_scan"}, "is_reserved": 0}, {"lon": -77.04214216666666, "bike_id": "941021659c538fb8b169d06aa70cd277", "lat": 38.892735, "fusion_lon": 0.0, "fusion_lat": 0.0, "type": "electric_scooter", "name": "941021659c538fb8b169d06aa70cd277", "is_disabled": 0, "rental_uris": {"ios": "https://dc.lft.to/lastmile_qr_scan", "android": "https://dc.lft.to/lastmile_qr_scan"}, "is_reserved": 0}, {"lon": -77.03383716666667, "bike_id": "1aa76a839c08cdbc620b47978a54773b", "lat": 38.93869083333333, "fusion_lon": 0.0, "fusion_lat": 0.0, "type": "electric_scooter", "name": "1aa76a839c08cdbc620b47978a54773b", "is_disabled": 0, "rental_uris": {"ios": "https://dc.lft.to/lastmile_qr_scan", "android": "https://dc.lft.to/lastmile_qr_scan"}, "is_reserved": 0}, {"lon": -77.03181566666666, "bike_id": "b9a7d3dc30208425c1ffac2ca9155608", "lat": 38.91430166666667, "fusion_lon": 0.0, "fusion_lat": 0.0, "type": "electric_scooter", "name": "b9a7d3dc30208425c1ffac2ca9155608", "is_disabled": 0, "rental_uris": {"ios": "https://dc.lft.to/lastmile_qr_scan", "android": "https://dc.lft.to/lastmile_qr_scan"}, "is_reserved": 0}, {"lon": -77.011499, "bike_id": "151a5f6396b93302fcb15ac68834f96a", "lat": 38.911084833333334, "fusion_lon": 0.0, "fusion_lat": 0.0, "type": "electric_scooter", "name": "151a5f6396b93302fcb15ac68834f96a", "is_disabled": 0, "rental_uris": {"ios": "https://dc.lft.to/lastmile_qr_scan", "android": "https://dc.lft.to/lastmile_qr_scan"}, "is_reserved": 0}, {"lon": -76.94801783333334, "bike_id": "ab95f8dde6e2fd63083fb0f9eb77e1d6", "lat": 38.862023, "fusion_lon": 0.0, "fusion_lat": 0.0, "type": "electric_bike", "name": "ab95f8dde6e2fd63083fb0f9eb77e1d6", "is_disabled": 0, "rental_uris": {"ios": "https://dc.lft.to/lastmile_qr_scan", "android": "https://dc.lft.to/lastmile_qr_scan"}, "is_reserved": 0}, {"lon": -77.002249, "bike_id": "9c5fc60d1720537375bb228061ab67f2", "lat": 38.90840333333333, "fusion_lon": 0.0, "fusion_lat": 0.0, "type": "electric_scooter", "name": "9c5fc60d1720537375bb228061ab67f2", "is_disabled": 0, "rental_uris": {"ios": "https://dc.lft.to/lastmile_qr_scan", "android": "https://dc.lft.to/lastmile_qr_scan"}, "is_reserved": 0}, {"lon": -77.01550766666666, "bike_id": "22209ae4a9c121810145d62cc34df1f4", "lat": 38.8922045, "fusion_lon": 0.0, "fusion_lat": 0.0, "type": "electric_scooter", "name": "22209ae4a9c121810145d62cc34df1f4", "is_disabled": 0, "rental_uris": {"ios": "https://dc.lft.to/lastmile_qr_scan", "android": "https://dc.lft.to/lastmile_qr_scan"}, "is_reserved": 0}, {"lon": -77.0327865, "bike_id": "6232360d92919fdc74ba90efd5e2b254", "lat": 38.934565, "fusion_lon": 0.0, "fusion_lat": 0.0, "type": "electric_scooter", "name": "6232360d92919fdc74ba90efd5e2b254", "is_disabled": 0, "rental_uris": {"ios": "https://dc.lft.to/lastmile_qr_scan", "android": "https://dc.lft.to/lastmile_qr_scan"}, "is_reserved": 0}, {"lon": -77.01774633333333, "bike_id": "b1927dd34c928176e8635c8833a64a6b", "lat": 38.883185166666664, "fusion_lon": 0.0, "fusion_lat": 0.0, "type": "electric_scooter", "name": "b1927dd34c928176e8635c8833a64a6b", "is_disabled": 0, "rental_uris": {"ios": "https://dc.lft.to/lastmile_qr_scan", "android": "https://dc.lft.to/lastmile_qr_scan"}, "is_reserved": 0}, {"lon": -76.99518783333333, "bike_id": "eeb51aaa6c91f321d571c69f7f5e784a", "lat": 38.89614366666667, "fusion_lon": 0.0, "fusion_lat": 0.0, "type": "electric_scooter", "name": "eeb51aaa6c91f321d571c69f7f5e784a", "is_disabled": 0, "rental_uris": {"ios": "https://dc.lft.to/lastmile_qr_scan", "android": "https://dc.lft.to/lastmile_qr_scan"}, "is_reserved": 0}, {"lon": -77.01302616666666, "bike_id": "42b86df22655084b2ab11a4c32809f68", "lat": 38.93002383333334, "fusion_lon": 0.0, "fusion_lat": 0.0, "type": "electric_scooter", "name": "42b86df22655084b2ab11a4c32809f68", "is_disabled": 0, "rental_uris": {"ios": "https://dc.lft.to/lastmile_qr_scan", "android": "https://dc.lft.to/lastmile_qr_scan"}, "is_reserved": 0}, {"lon": -77.03350833333333, "bike_id": "53c9b4467509856a7031a3c135bb28e5", "lat": 38.8997555, "fusion_lon": 0.0, "fusion_lat": 0.0, "type": "electric_scooter", "name": "53c9b4467509856a7031a3c135bb28e5", "is_disabled": 0, "rental_uris": {"ios": "https://dc.lft.to/lastmile_qr_scan", "android": "https://dc.lft.to/lastmile_qr_scan"}, "is_reserved": 0}, {"lon": -77.04900533333333, "bike_id": "c5dfb4c7bf8a51e66d39bff4ba6a92ac", "lat": 38.8900155, "fusion_lon": 0.0, "fusion_lat": 0.0, "type": "electric_scooter", "name": "c5dfb4c7bf8a51e66d39bff4ba6a92ac", "is_disabled": 0, "rental_uris": {"ios": "https://dc.lft.to/lastmile_qr_scan", "android": "https://dc.lft.to/lastmile_qr_scan"}, "is_reserved": 0}, {"lon": -77.00632716666667, "bike_id": "fc6950ae9a03d2697083a0fb7cd156e3", "lat": 38.95599333333333, "fusion_lon": 0.0, "fusion_lat": 0.0, "type": "electric_scooter", "name": "fc6950ae9a03d2697083a0fb7cd156e3", "is_disabled": 0, "rental_uris": {"ios": "https://dc.lft.to/lastmile_qr_scan", "android": "https://dc.lft.to/lastmile_qr_scan"}, "is_reserved": 0}, {"lon": -77.0217405, "bike_id": "c36d75b729b02d453e8f83040608b453", "lat": 38.90013183333333, "fusion_lon": 0.0, "fusion_lat": 0.0, "type": "electric_scooter", "name": "c36d75b729b02d453e8f83040608b453", "is_disabled": 0, "rental_uris": {"ios": "https://dc.lft.to/lastmile_qr_scan", "android": "https://dc.lft.to/lastmile_qr_scan"}, "is_reserved": 0}, {"lon": -77.03181683333334, "bike_id": "f52c9e4bf0f56f5a644247fb4229085d", "lat": 38.916274666666666, "fusion_lon": 0.0, "fusion_lat": 0.0, "type": "electric_scooter", "name": "f52c9e4bf0f56f5a644247fb4229085d", "is_disabled": 0, "rental_uris": {"ios": "https://dc.lft.to/lastmile_qr_scan", "android": "https://dc.lft.to/lastmile_qr_scan"}, "is_reserved": 0}, {"lon": -77.01100366666667, "bike_id": "da359f41e126932dfb03d16f641ddd4c", "lat": 38.903839833333336, "fusion_lon": 0.0, "fusion_lat": 0.0, "type": "electric_scooter", "name": "da359f41e126932dfb03d16f641ddd4c", "is_disabled": 0, "rental_uris": {"ios": "https://dc.lft.to/lastmile_qr_scan", "android": "https://dc.lft.to/lastmile_qr_scan"}, "is_reserved": 0}, {"lon": -76.996089, "bike_id": "300e32f541cdb4580438b1f6b21efdae", "lat": 38.92549833333333, "fusion_lon": 0.0, "fusion_lat": 0.0, "type": "electric_scooter", "name": "300e32f541cdb4580438b1f6b21efdae", "is_disabled": 0, "rental_uris": {"ios": "https://dc.lft.to/lastmile_qr_scan", "android": "https://dc.lft.to/lastmile_qr_scan"}, "is_reserved": 0}, {"lon": -77.0271755, "bike_id": "12cb908e0e6fd42f9f8aab3b7c93b928", "lat": 38.91185183333333, "fusion_lon": 0.0, "fusion_lat": 0.0, "type": "electric_scooter", "name": "12cb908e0e6fd42f9f8aab3b7c93b928", "is_disabled": 0, "rental_uris": {"ios": "https://dc.lft.to/lastmile_qr_scan", "android": "https://dc.lft.to/lastmile_qr_scan"}, "is_reserved": 0}, {"lon": -76.98464016666667, "bike_id": "e3370b09b41d017f3daa14a864ed3344", "lat": 38.9097325, "fusion_lon": 0.0, "fusion_lat": 0.0, "type": "electric_bike", "name": "e3370b09b41d017f3daa14a864ed3344", "is_disabled": 0, "rental_uris": {"ios": "https://dc.lft.to/lastmile_qr_scan", "android": "https://dc.lft.to/lastmile_qr_scan"}, "is_reserved": 0}, {"lon": -77.02374533333334, "bike_id": "75055d06ac56bf52978b28d572b89fe4", "lat": 38.92662633333333, "fusion_lon": 0.0, "fusion_lat": 0.0, "type": "electric_scooter", "name": "75055d06ac56bf52978b28d572b89fe4", "is_disabled": 0, "rental_uris": {"ios": "https://dc.lft.to/lastmile_qr_scan", "android": "https://dc.lft.to/lastmile_qr_scan"}, "is_reserved": 0}, {"lon": -77.03343966666667, "bike_id": "5489cce8a355222d80e915f458379f78", "lat": 38.91711383333333, "fusion_lon": 0.0, "fusion_lat": 0.0, "type": "electric_scooter", "name": "5489cce8a355222d80e915f458379f78", "is_disabled": 0, "rental_uris": {"ios": "https://dc.lft.to/lastmile_qr_scan", "android": "https://dc.lft.to/lastmile_qr_scan"}, "is_reserved": 0}, {"lon": -77.05038766666667, "bike_id": "ea1000f243dedfc255d9b2fd84a478ab", "lat": 38.923888833333336, "fusion_lon": 0.0, "fusion_lat": 0.0, "type": "electric_scooter", "name": "ea1000f243dedfc255d9b2fd84a478ab", "is_disabled": 0, "rental_uris": {"ios": "https://dc.lft.to/lastmile_qr_scan", "android": "https://dc.lft.to/lastmile_qr_scan"}, "is_reserved": 0}, {"lon": -77.04118233333334, "bike_id": "7835e27808234429cd0805353ace7281", "lat": 38.944075833333336, "fusion_lon": 0.0, "fusion_lat": 0.0, "type": "electric_bike", "name": "7835e27808234429cd0805353ace7281", "is_disabled": 0, "rental_uris": {"ios": "https://dc.lft.to/lastmile_qr_scan", "android": "https://dc.lft.to/lastmile_qr_scan"}, "is_reserved": 0}, {"lon": -77.05214466666666, "bike_id": "1492047214ba728214d5428fbfb1b9fc", "lat": 38.92478583333333, "fusion_lon": 0.0, "fusion_lat": 0.0, "type": "electric_scooter", "name": "1492047214ba728214d5428fbfb1b9fc", "is_disabled": 0, "rental_uris": {"ios": "https://dc.lft.to/lastmile_qr_scan", "android": "https://dc.lft.to/lastmile_qr_scan"}, "is_reserved": 0}, {"lon": -77.027847, "bike_id": "ff7895997b2ddcf94587b78e576e0ac8", "lat": 38.9277315, "fusion_lon": 0.0, "fusion_lat": 0.0, "type": "electric_scooter", "name": "ff7895997b2ddcf94587b78e576e0ac8", "is_disabled": 0, "rental_uris": {"ios": "https://dc.lft.to/lastmile_qr_scan", "android": "https://dc.lft.to/lastmile_qr_scan"}, "is_reserved": 0}, {"lon": -77.02507266666667, "bike_id": "5ceea66f37efedbe93bfb8c4e3934b52", "lat": 38.93414416666667, "fusion_lon": 0.0, "fusion_lat": 0.0, "type": "electric_bike", "name": "5ceea66f37efedbe93bfb8c4e3934b52", "is_disabled": 0, "rental_uris": {"ios": "https://dc.lft.to/lastmile_qr_scan", "android": "https://dc.lft.to/lastmile_qr_scan"}, "is_reserved": 0}, {"lon": -76.98524566666667, "bike_id": "1edc6caefc826fa70b85db8e25dd8eff", "lat": 38.866539, "fusion_lon": 0.0, "fusion_lat": 0.0, "type": "electric_scooter", "name": "1edc6caefc826fa70b85db8e25dd8eff", "is_disabled": 0, "rental_uris": {"ios": "https://dc.lft.to/lastmile_qr_scan", "android": "https://dc.lft.to/lastmile_qr_scan"}, "is_reserved": 0}, {"lon": -76.925276, "bike_id": "b0f2f8e08a39f4cc8618ef3390d7d6da", "lat": 38.883412166666666, "fusion_lon": 0.0, "fusion_lat": 0.0, "type": "electric_bike", "name": "b0f2f8e08a39f4cc8618ef3390d7d6da", "is_disabled": 0, "rental_uris": {"ios": "https://dc.lft.to/lastmile_qr_scan", "android": "https://dc.lft.to/lastmile_qr_scan"}, "is_reserved": 0}, {"lon": -76.935391, "bike_id": "704f1a5a6dab8db2dd8035a0c01fb07a", "lat": 38.95554033333333, "fusion_lon": 0.0, "fusion_lat": 0.0, "type": "electric_bike", "name": "704f1a5a6dab8db2dd8035a0c01fb07a", "is_disabled": 0, "rental_uris": {"ios": "https://dc.lft.to/lastmile_qr_scan", "android": "https://dc.lft.to/lastmile_qr_scan"}, "is_reserved": 0}, {"lon": -76.98558183333333, "bike_id": "3a0db5abbafb58468363919d22b220cb", "lat": 38.91032633333333, "fusion_lon": 0.0, "fusion_lat": 0.0, "type": "electric_scooter", "name": "3a0db5abbafb58468363919d22b220cb", "is_disabled": 0, "rental_uris": {"ios": "https://dc.lft.to/lastmile_qr_scan", "android": "https://dc.lft.to/lastmile_qr_scan"}, "is_reserved": 0}, {"lon": -77.03804583333333, "bike_id": "70f716ba0a4f608b17a6ede24c5882f1", "lat": 38.920603, "fusion_lon": 0.0, "fusion_lat": 0.0, "type": "electric_scooter", "name": "70f716ba0a4f608b17a6ede24c5882f1", "is_disabled": 0, "rental_uris": {"ios": "https://dc.lft.to/lastmile_qr_scan", "android": "https://dc.lft.to/lastmile_qr_scan"}, "is_reserved": 0}, {"lon": -77.04468, "bike_id": "83e0da1000405123e2e6b73593806bc9", "lat": 38.9146055, "fusion_lon": 0.0, "fusion_lat": 0.0, "type": "electric_scooter", "name": "83e0da1000405123e2e6b73593806bc9", "is_disabled": 0, "rental_uris": {"ios": "https://dc.lft.to/lastmile_qr_scan", "android": "https://dc.lft.to/lastmile_qr_scan"}, "is_reserved": 0}, {"lon": -77.08049533333333, "bike_id": "bc7d85572ad5b9c5ef9718e991da0c3c", "lat": 38.9207065, "fusion_lon": 0.0, "fusion_lat": 0.0, "type": "electric_bike", "name": "bc7d85572ad5b9c5ef9718e991da0c3c", "is_disabled": 0, "rental_uris": {"ios": "https://dc.lft.to/lastmile_qr_scan", "android": "https://dc.lft.to/lastmile_qr_scan"}, "is_reserved": 0}, {"lon": -76.98286583333334, "bike_id": "53faa3b6bf0591075e3344388b97568a", "lat": 38.900461, "fusion_lon": 0.0, "fusion_lat": 0.0, "type": "electric_scooter", "name": "53faa3b6bf0591075e3344388b97568a", "is_disabled": 0, "rental_uris": {"ios": "https://dc.lft.to/lastmile_qr_scan", "android": "https://dc.lft.to/lastmile_qr_scan"}, "is_reserved": 0}, {"lon": -77.03654816666666, "bike_id": "2f3d212d966160835c1987f57c2552ad", "lat": 38.9211795, "fusion_lon": 0.0, "fusion_lat": 0.0, "type": "electric_scooter", "name": "2f3d212d966160835c1987f57c2552ad", "is_disabled": 0, "rental_uris": {"ios": "https://dc.lft.to/lastmile_qr_scan", "android": "https://dc.lft.to/lastmile_qr_scan"}, "is_reserved": 0}, {"lon": -76.92733083333333, "bike_id": "f4bbc6f838326209a18bdf069a559ae1", "lat": 38.88967783333333, "fusion_lon": 0.0, "fusion_lat": 0.0, "type": "electric_scooter", "name": "f4bbc6f838326209a18bdf069a559ae1", "is_disabled": 0, "rental_uris": {"ios": "https://dc.lft.to/lastmile_qr_scan", "android": "https://dc.lft.to/lastmile_qr_scan"}, "is_reserved": 0}, {"lon": -77.01890766666666, "bike_id": "ec7c3c67149ec7f13dd965016f383cd3", "lat": 38.904981166666666, "fusion_lon": 0.0, "fusion_lat": 0.0, "type": "electric_scooter", "name": "ec7c3c67149ec7f13dd965016f383cd3", "is_disabled": 0, "rental_uris": {"ios": "https://dc.lft.to/lastmile_qr_scan", "android": "https://dc.lft.to/lastmile_qr_scan"}, "is_reserved": 0}, {"lon": -76.98550583333333, "bike_id": "55d4a76f490b8542b0abecf023130ef4", "lat": 38.92008583333333, "fusion_lon": 0.0, "fusion_lat": 0.0, "type": "electric_scooter", "name": "55d4a76f490b8542b0abecf023130ef4", "is_disabled": 0, "rental_uris": {"ios": "https://dc.lft.to/lastmile_qr_scan", "android": "https://dc.lft.to/lastmile_qr_scan"}, "is_reserved": 0}, {"lon": -76.933463, "bike_id": "e8d411eed080a180df4f30fb6775a55c", "lat": 38.8991, "fusion_lon": 0.0, "fusion_lat": 0.0, "type": "electric_scooter", "name": "e8d411eed080a180df4f30fb6775a55c", "is_disabled": 0, "rental_uris": {"ios": "https://dc.lft.to/lastmile_qr_scan", "android": "https://dc.lft.to/lastmile_qr_scan"}, "is_reserved": 0}, {"lon": -77.03451583333333, "bike_id": "fe4b6410bdf8c669be519ab065644bcc", "lat": 38.90903316666667, "fusion_lon": 0.0, "fusion_lat": 0.0, "type": "electric_scooter", "name": "fe4b6410bdf8c669be519ab065644bcc", "is_disabled": 0, "rental_uris": {"ios": "https://dc.lft.to/lastmile_qr_scan", "android": "https://dc.lft.to/lastmile_qr_scan"}, "is_reserved": 0}, {"lon": -77.05170333333334, "bike_id": "6ddebac70abe7914836cb413e20ecc66", "lat": 38.9234025, "fusion_lon": 0.0, "fusion_lat": 0.0, "type": "electric_scooter", "name": "6ddebac70abe7914836cb413e20ecc66", "is_disabled": 0, "rental_uris": {"ios": "https://dc.lft.to/lastmile_qr_scan", "android": "https://dc.lft.to/lastmile_qr_scan"}, "is_reserved": 0}, {"lon": -77.1265585, "bike_id": "7f68c195f9be7d462b0bdb0d1352eef7", "lat": 38.815169, "fusion_lon": 0.0, "fusion_lat": 0.0, "type": "electric_bike", "name": "7f68c195f9be7d462b0bdb0d1352eef7", "is_disabled": 0, "rental_uris": {"ios": "https://dc.lft.to/lastmile_qr_scan", "android": "https://dc.lft.to/lastmile_qr_scan"}, "is_reserved": 0}, {"lon": -77.08345016666667, "bike_id": "7aacef5394f252611fe10ac99aee3fc1", "lat": 38.92981616666667, "fusion_lon": 0.0, "fusion_lat": 0.0, "type": "electric_scooter", "name": "7aacef5394f252611fe10ac99aee3fc1", "is_disabled": 0, "rental_uris": {"ios": "https://dc.lft.to/lastmile_qr_scan", "android": "https://dc.lft.to/lastmile_qr_scan"}, "is_reserved": 0}, {"lon": -77.00656966666666, "bike_id": "401b9811c072516f6928699500ab2894", "lat": 38.87645333333333, "fusion_lon": 0.0, "fusion_lat": 0.0, "type": "electric_scooter", "name": "401b9811c072516f6928699500ab2894", "is_disabled": 0, "rental_uris": {"ios": "https://dc.lft.to/lastmile_qr_scan", "android": "https://dc.lft.to/lastmile_qr_scan"}, "is_reserved": 0}, {"lon": -77.04474116666667, "bike_id": "4a48958085a5f6bd1069375cab4dc3d9", "lat": 38.915735, "fusion_lon": 0.0, "fusion_lat": 0.0, "type": "electric_scooter", "name": "4a48958085a5f6bd1069375cab4dc3d9", "is_disabled": 0, "rental_uris": {"ios": "https://dc.lft.to/lastmile_qr_scan", "android": "https://dc.lft.to/lastmile_qr_scan"}, "is_reserved": 0}, {"lon": -77.04254083333333, "bike_id": "eb312f3aef26499e19ff3908e825daec", "lat": 38.92544866666667, "fusion_lon": 0.0, "fusion_lat": 0.0, "type": "electric_scooter", "name": "eb312f3aef26499e19ff3908e825daec", "is_disabled": 0, "rental_uris": {"ios": "https://dc.lft.to/lastmile_qr_scan", "android": "https://dc.lft.to/lastmile_qr_scan"}, "is_reserved": 0}, {"lon": -77.0399385, "bike_id": "f2f34bcd17d394d053efd02c416a1f17", "lat": 38.92460966666667, "fusion_lon": 0.0, "fusion_lat": 0.0, "type": "electric_scooter", "name": "f2f34bcd17d394d053efd02c416a1f17", "is_disabled": 0, "rental_uris": {"ios": "https://dc.lft.to/lastmile_qr_scan", "android": "https://dc.lft.to/lastmile_qr_scan"}, "is_reserved": 0}, {"lon": -77.02149916666667, "bike_id": "6d9524679287adfbfcb32853e0c13483", "lat": 38.926007166666665, "fusion_lon": 0.0, "fusion_lat": 0.0, "type": "electric_bike", "name": "6d9524679287adfbfcb32853e0c13483", "is_disabled": 0, "rental_uris": {"ios": "https://dc.lft.to/lastmile_qr_scan", "android": "https://dc.lft.to/lastmile_qr_scan"}, "is_reserved": 0}, {"lon": -77.00358516666667, "bike_id": "f0e42a72e04e57fef9faf315bbaea05b", "lat": 38.9155345, "fusion_lon": 0.0, "fusion_lat": 0.0, "type": "electric_scooter", "name": "f0e42a72e04e57fef9faf315bbaea05b", "is_disabled": 0, "rental_uris": {"ios": "https://dc.lft.to/lastmile_qr_scan", "android": "https://dc.lft.to/lastmile_qr_scan"}, "is_reserved": 0}, {"lon": -77.02735, "bike_id": "da5e1daea3cd1eb44ec29d61043cafcb", "lat": 38.899957, "fusion_lon": 0.0, "fusion_lat": 0.0, "type": "electric_scooter", "name": "da5e1daea3cd1eb44ec29d61043cafcb", "is_disabled": 0, "rental_uris": {"ios": "https://dc.lft.to/lastmile_qr_scan", "android": "https://dc.lft.to/lastmile_qr_scan"}, "is_reserved": 0}, {"lon": -77.0432025, "bike_id": "5eb64815a9624243b5a06bd665d347c4", "lat": 38.918782666666665, "fusion_lon": 0.0, "fusion_lat": 0.0, "type": "electric_scooter", "name": "5eb64815a9624243b5a06bd665d347c4", "is_disabled": 0, "rental_uris": {"ios": "https://dc.lft.to/lastmile_qr_scan", "android": "https://dc.lft.to/lastmile_qr_scan"}, "is_reserved": 0}, {"lon": -77.00088283333334, "bike_id": "f39064dcb6ceaa2fa6497ef24983aa25", "lat": 38.894864, "fusion_lon": 0.0, "fusion_lat": 0.0, "type": "electric_scooter", "name": "f39064dcb6ceaa2fa6497ef24983aa25", "is_disabled": 0, "rental_uris": {"ios": "https://dc.lft.to/lastmile_qr_scan", "android": "https://dc.lft.to/lastmile_qr_scan"}, "is_reserved": 0}, {"lon": -77.0366695, "bike_id": "bf0d7c26ef45bd5424aa1837449afd5a", "lat": 38.91293983333333, "fusion_lon": 0.0, "fusion_lat": 0.0, "type": "electric_scooter", "name": "bf0d7c26ef45bd5424aa1837449afd5a", "is_disabled": 0, "rental_uris": {"ios": "https://dc.lft.to/lastmile_qr_scan", "android": "https://dc.lft.to/lastmile_qr_scan"}, "is_reserved": 0}, {"lon": -77.02415066666667, "bike_id": "753539cdaf7f8dc64a480c4fadb6c7bd", "lat": 38.91775916666667, "fusion_lon": 0.0, "fusion_lat": 0.0, "type": "electric_scooter", "name": "753539cdaf7f8dc64a480c4fadb6c7bd", "is_disabled": 0, "rental_uris": {"ios": "https://dc.lft.to/lastmile_qr_scan", "android": "https://dc.lft.to/lastmile_qr_scan"}, "is_reserved": 0}, {"lon": -77.0217455, "bike_id": "29cf7ecc340c8cbc4a80752f3baf7c39", "lat": 38.90025083333333, "fusion_lon": 0.0, "fusion_lat": 0.0, "type": "electric_scooter", "name": "29cf7ecc340c8cbc4a80752f3baf7c39", "is_disabled": 0, "rental_uris": {"ios": "https://dc.lft.to/lastmile_qr_scan", "android": "https://dc.lft.to/lastmile_qr_scan"}, "is_reserved": 0}, {"lon": -77.052169, "bike_id": "4f7e1e077ad9fe8cefe18c26826ced4a", "lat": 38.899882, "fusion_lon": 0.0, "fusion_lat": 0.0, "type": "electric_scooter", "name": "4f7e1e077ad9fe8cefe18c26826ced4a", "is_disabled": 0, "rental_uris": {"ios": "https://dc.lft.to/lastmile_qr_scan", "android": "https://dc.lft.to/lastmile_qr_scan"}, "is_reserved": 0}, {"lon": -77.06526216666667, "bike_id": "66f8764bff831af473e1ce5149b3970b", "lat": 38.947508166666665, "fusion_lon": 0.0, "fusion_lat": 0.0, "type": "electric_scooter", "name": "66f8764bff831af473e1ce5149b3970b", "is_disabled": 0, "rental_uris": {"ios": "https://dc.lft.to/lastmile_qr_scan", "android": "https://dc.lft.to/lastmile_qr_scan"}, "is_reserved": 0}, {"lon": -77.00916433333333, "bike_id": "f740ffd79bfdcd790d434273303d855b", "lat": 38.89553166666666, "fusion_lon": 0.0, "fusion_lat": 0.0, "type": "electric_scooter", "name": "f740ffd79bfdcd790d434273303d855b", "is_disabled": 0, "rental_uris": {"ios": "https://dc.lft.to/lastmile_qr_scan", "android": "https://dc.lft.to/lastmile_qr_scan"}, "is_reserved": 0}, {"lon": -77.00287483333334, "bike_id": "b67208321c5e3416cb1f452b88c43a1f", "lat": 38.956995, "fusion_lon": 0.0, "fusion_lat": 0.0, "type": "electric_bike", "name": "b67208321c5e3416cb1f452b88c43a1f", "is_disabled": 0, "rental_uris": {"ios": "https://dc.lft.to/lastmile_qr_scan", "android": "https://dc.lft.to/lastmile_qr_scan"}, "is_reserved": 0}, {"lon": -77.03392916666667, "bike_id": "a7e49f2af5aa160ab66e223ebf6e0431", "lat": 38.96033333333333, "fusion_lon": 0.0, "fusion_lat": 0.0, "type": "electric_bike", "name": "a7e49f2af5aa160ab66e223ebf6e0431", "is_disabled": 0, "rental_uris": {"ios": "https://dc.lft.to/lastmile_qr_scan", "android": "https://dc.lft.to/lastmile_qr_scan"}, "is_reserved": 0}, {"lon": -76.99880233333333, "bike_id": "41894508ef705de9abf958139ccd5b7c", "lat": 38.92056133333333, "fusion_lon": 0.0, "fusion_lat": 0.0, "type": "electric_scooter", "name": "41894508ef705de9abf958139ccd5b7c", "is_disabled": 0, "rental_uris": {"ios": "https://dc.lft.to/lastmile_qr_scan", "android": "https://dc.lft.to/lastmile_qr_scan"}, "is_reserved": 0}, {"lon": -76.98486083333333, "bike_id": "f888ed7c6844b86b7d35aeb4374a9323", "lat": 38.898961666666665, "fusion_lon": 0.0, "fusion_lat": 0.0, "type": "electric_scooter", "name": "f888ed7c6844b86b7d35aeb4374a9323", "is_disabled": 0, "rental_uris": {"ios": "https://dc.lft.to/lastmile_qr_scan", "android": "https://dc.lft.to/lastmile_qr_scan"}, "is_reserved": 0}, {"lon": -76.99778283333333, "bike_id": "7907ff0241acbb6ce2eaf51e66036c4b", "lat": 38.844295833333334, "fusion_lon": 0.0, "fusion_lat": 0.0, "type": "electric_scooter", "name": "7907ff0241acbb6ce2eaf51e66036c4b", "is_disabled": 0, "rental_uris": {"ios": "https://dc.lft.to/lastmile_qr_scan", "android": "https://dc.lft.to/lastmile_qr_scan"}, "is_reserved": 0}, {"lon": -77.054033, "bike_id": "958854547996cdf242cd5d2693f475cb", "lat": 38.90154416666667, "fusion_lon": 0.0, "fusion_lat": 0.0, "type": "electric_scooter", "name": "958854547996cdf242cd5d2693f475cb", "is_disabled": 0, "rental_uris": {"ios": "https://dc.lft.to/lastmile_qr_scan", "android": "https://dc.lft.to/lastmile_qr_scan"}, "is_reserved": 0}, {"lon": -77.02650366666667, "bike_id": "54a90080fbd2314dd42cf820f1c911b9", "lat": 38.92984333333333, "fusion_lon": 0.0, "fusion_lat": 0.0, "type": "electric_scooter", "name": "54a90080fbd2314dd42cf820f1c911b9", "is_disabled": 0, "rental_uris": {"ios": "https://dc.lft.to/lastmile_qr_scan", "android": "https://dc.lft.to/lastmile_qr_scan"}, "is_reserved": 0}, {"lon": -76.98878566666667, "bike_id": "3da647d531fc51b4c9d2340696bcf4f3", "lat": 38.866651, "fusion_lon": 0.0, "fusion_lat": 0.0, "type": "electric_scooter", "name": "3da647d531fc51b4c9d2340696bcf4f3", "is_disabled": 0, "rental_uris": {"ios": "https://dc.lft.to/lastmile_qr_scan", "android": "https://dc.lft.to/lastmile_qr_scan"}, "is_reserved": 0}, {"lon": -77.0382495, "bike_id": "cd92bb7a3f56ce779b1792403cabd60e", "lat": 38.916927666666666, "fusion_lon": 0.0, "fusion_lat": 0.0, "type": "electric_scooter", "name": "cd92bb7a3f56ce779b1792403cabd60e", "is_disabled": 0, "rental_uris": {"ios": "https://dc.lft.to/lastmile_qr_scan", "android": "https://dc.lft.to/lastmile_qr_scan"}, "is_reserved": 0}, {"lon": -77.02076283333334, "bike_id": "d87a7f13710cf848f002b9f5419fee1a", "lat": 38.93635533333333, "fusion_lon": 0.0, "fusion_lat": 0.0, "type": "electric_scooter", "name": "d87a7f13710cf848f002b9f5419fee1a", "is_disabled": 0, "rental_uris": {"ios": "https://dc.lft.to/lastmile_qr_scan", "android": "https://dc.lft.to/lastmile_qr_scan"}, "is_reserved": 0}, {"lon": -77.02982716666666, "bike_id": "118fca24323160b5917f1b36ca200c71", "lat": 38.90737083333333, "fusion_lon": 0.0, "fusion_lat": 0.0, "type": "electric_scooter", "name": "118fca24323160b5917f1b36ca200c71", "is_disabled": 0, "rental_uris": {"ios": "https://dc.lft.to/lastmile_qr_scan", "android": "https://dc.lft.to/lastmile_qr_scan"}, "is_reserved": 0}, {"lon": -77.02398583333333, "bike_id": "a7e5f8245044e012fbf55b26e4248242", "lat": 38.90951033333333, "fusion_lon": 0.0, "fusion_lat": 0.0, "type": "electric_scooter", "name": "a7e5f8245044e012fbf55b26e4248242", "is_disabled": 0, "rental_uris": {"ios": "https://dc.lft.to/lastmile_qr_scan", "android": "https://dc.lft.to/lastmile_qr_scan"}, "is_reserved": 0}, {"lon": -77.00030466666666, "bike_id": "39242ee4999990babad8d63c2fc7b452", "lat": 38.96770683333333, "fusion_lon": 0.0, "fusion_lat": 0.0, "type": "electric_bike", "name": "39242ee4999990babad8d63c2fc7b452", "is_disabled": 0, "rental_uris": {"ios": "https://dc.lft.to/lastmile_qr_scan", "android": "https://dc.lft.to/lastmile_qr_scan"}, "is_reserved": 0}, {"lon": -77.03696983333333, "bike_id": "321b96b12c08363bf6666f314094e9da", "lat": 38.930629833333334, "fusion_lon": 0.0, "fusion_lat": 0.0, "type": "electric_bike", "name": "321b96b12c08363bf6666f314094e9da", "is_disabled": 0, "rental_uris": {"ios": "https://dc.lft.to/lastmile_qr_scan", "android": "https://dc.lft.to/lastmile_qr_scan"}, "is_reserved": 0}, {"lon": -77.019949, "bike_id": "00cee99dba8f1fe87ed78d295511a7f7", "lat": 38.87592033333333, "fusion_lon": 0.0, "fusion_lat": 0.0, "type": "electric_scooter", "name": "00cee99dba8f1fe87ed78d295511a7f7", "is_disabled": 0, "rental_uris": {"ios": "https://dc.lft.to/lastmile_qr_scan", "android": "https://dc.lft.to/lastmile_qr_scan"}, "is_reserved": 0}, {"lon": -77.03474883333334, "bike_id": "da7fa086726a8cf6751892bf512a723a", "lat": 38.88493016666666, "fusion_lon": 0.0, "fusion_lat": 0.0, "type": "electric_scooter", "name": "da7fa086726a8cf6751892bf512a723a", "is_disabled": 0, "rental_uris": {"ios": "https://dc.lft.to/lastmile_qr_scan", "android": "https://dc.lft.to/lastmile_qr_scan"}, "is_reserved": 0}, {"lon": -76.98747366666667, "bike_id": "1e7daa676e61c5b064d44db086d50e88", "lat": 38.886166, "fusion_lon": 0.0, "fusion_lat": 0.0, "type": "electric_scooter", "name": "1e7daa676e61c5b064d44db086d50e88", "is_disabled": 0, "rental_uris": {"ios": "https://dc.lft.to/lastmile_qr_scan", "android": "https://dc.lft.to/lastmile_qr_scan"}, "is_reserved": 0}, {"lon": -77.03200266666667, "bike_id": "1f22000bf1bac31fba302cf4285455a6", "lat": 38.905146333333334, "fusion_lon": 0.0, "fusion_lat": 0.0, "type": "electric_scooter", "name": "1f22000bf1bac31fba302cf4285455a6", "is_disabled": 0, "rental_uris": {"ios": "https://dc.lft.to/lastmile_qr_scan", "android": "https://dc.lft.to/lastmile_qr_scan"}, "is_reserved": 0}, {"lon": -77.02167583333333, "bike_id": "63fa6d93ef66390596b55d4702a14c30", "lat": 38.9429515, "fusion_lon": 0.0, "fusion_lat": 0.0, "type": "electric_scooter", "name": "63fa6d93ef66390596b55d4702a14c30", "is_disabled": 0, "rental_uris": {"ios": "https://dc.lft.to/lastmile_qr_scan", "android": "https://dc.lft.to/lastmile_qr_scan"}, "is_reserved": 0}, {"lon": -77.04282016666667, "bike_id": "3d07febb0ab05242d167684d5cddf703", "lat": 38.907467, "fusion_lon": 0.0, "fusion_lat": 0.0, "type": "electric_scooter", "name": "3d07febb0ab05242d167684d5cddf703", "is_disabled": 0, "rental_uris": {"ios": "https://dc.lft.to/lastmile_qr_scan", "android": "https://dc.lft.to/lastmile_qr_scan"}, "is_reserved": 0}, {"lon": -77.02979566666667, "bike_id": "fd9a1b6fd9ff7f442e59d1cf90a3e675", "lat": 38.93064666666667, "fusion_lon": 0.0, "fusion_lat": 0.0, "type": "electric_scooter", "name": "fd9a1b6fd9ff7f442e59d1cf90a3e675", "is_disabled": 0, "rental_uris": {"ios": "https://dc.lft.to/lastmile_qr_scan", "android": "https://dc.lft.to/lastmile_qr_scan"}, "is_reserved": 0}, {"lon": -77.04809633333333, "bike_id": "416f23ed878aace4fb4a8112c2064dbb", "lat": 38.916392333333334, "fusion_lon": 0.0, "fusion_lat": 0.0, "type": "electric_scooter", "name": "416f23ed878aace4fb4a8112c2064dbb", "is_disabled": 0, "rental_uris": {"ios": "https://dc.lft.to/lastmile_qr_scan", "android": "https://dc.lft.to/lastmile_qr_scan"}, "is_reserved": 0}, {"lon": -76.98708683333334, "bike_id": "a15e8d4196982a427fe8a76e8cf1b650", "lat": 38.900301, "fusion_lon": 0.0, "fusion_lat": 0.0, "type": "electric_scooter", "name": "a15e8d4196982a427fe8a76e8cf1b650", "is_disabled": 0, "rental_uris": {"ios": "https://dc.lft.to/lastmile_qr_scan", "android": "https://dc.lft.to/lastmile_qr_scan"}, "is_reserved": 0}, {"lon": -76.99541833333333, "bike_id": "adc65c7fa4b5fdb9e3fa5a30e17c47e1", "lat": 38.8626205, "fusion_lon": 0.0, "fusion_lat": 0.0, "type": "electric_scooter", "name": "adc65c7fa4b5fdb9e3fa5a30e17c47e1", "is_disabled": 0, "rental_uris": {"ios": "https://dc.lft.to/lastmile_qr_scan", "android": "https://dc.lft.to/lastmile_qr_scan"}, "is_reserved": 0}, {"lon": -77.0366805, "bike_id": "32a0d2ad311ec73a227cd9a7ee899030", "lat": 38.9363235, "fusion_lon": 0.0, "fusion_lat": 0.0, "type": "electric_bike", "name": "32a0d2ad311ec73a227cd9a7ee899030", "is_disabled": 0, "rental_uris": {"ios": "https://dc.lft.to/lastmile_qr_scan", "android": "https://dc.lft.to/lastmile_qr_scan"}, "is_reserved": 0}, {"lon": -77.02682766666666, "bike_id": "4b2d195d7ef1d5247451910be6ec0a4e", "lat": 38.9845775, "fusion_lon": 0.0, "fusion_lat": 0.0, "type": "electric_scooter", "name": "4b2d195d7ef1d5247451910be6ec0a4e", "is_disabled": 0, "rental_uris": {"ios": "https://dc.lft.to/lastmile_qr_scan", "android": "https://dc.lft.to/lastmile_qr_scan"}, "is_reserved": 0}, {"lon": -77.03252033333334, "bike_id": "d2986d4bc2aa9fac453e127815839a9e", "lat": 38.94277616666667, "fusion_lon": 0.0, "fusion_lat": 0.0, "type": "electric_scooter", "name": "d2986d4bc2aa9fac453e127815839a9e", "is_disabled": 0, "rental_uris": {"ios": "https://dc.lft.to/lastmile_qr_scan", "android": "https://dc.lft.to/lastmile_qr_scan"}, "is_reserved": 0}, {"lon": -77.02812233333333, "bike_id": "66bde2e5bcacb026939ed9b639902f92", "lat": 38.88184066666667, "fusion_lon": 0.0, "fusion_lat": 0.0, "type": "electric_scooter", "name": "66bde2e5bcacb026939ed9b639902f92", "is_disabled": 0, "rental_uris": {"ios": "https://dc.lft.to/lastmile_qr_scan", "android": "https://dc.lft.to/lastmile_qr_scan"}, "is_reserved": 0}, {"lon": -77.02374233333333, "bike_id": "538db4012fc568d7838ee76958d6101a", "lat": 38.9019145, "fusion_lon": 0.0, "fusion_lat": 0.0, "type": "electric_scooter", "name": "538db4012fc568d7838ee76958d6101a", "is_disabled": 0, "rental_uris": {"ios": "https://dc.lft.to/lastmile_qr_scan", "android": "https://dc.lft.to/lastmile_qr_scan"}, "is_reserved": 0}, {"lon": -77.01220883333333, "bike_id": "41a7878c2bbcb2c16f9d03ba3cb4fa3f", "lat": 38.91436683333333, "fusion_lon": 0.0, "fusion_lat": 0.0, "type": "electric_scooter", "name": "41a7878c2bbcb2c16f9d03ba3cb4fa3f", "is_disabled": 0, "rental_uris": {"ios": "https://dc.lft.to/lastmile_qr_scan", "android": "https://dc.lft.to/lastmile_qr_scan"}, "is_reserved": 0}, {"lon": -76.96380666666667, "bike_id": "7570a09b458b1d8801e3345541f8bdc4", "lat": 38.951793333333335, "fusion_lon": 0.0, "fusion_lat": 0.0, "type": "electric_bike", "name": "7570a09b458b1d8801e3345541f8bdc4", "is_disabled": 0, "rental_uris": {"ios": "https://dc.lft.to/lastmile_qr_scan", "android": "https://dc.lft.to/lastmile_qr_scan"}, "is_reserved": 0}, {"lon": -77.02177366666666, "bike_id": "753bc8a6b531246c77c3960f2f91c0e3", "lat": 38.90015016666667, "fusion_lon": 0.0, "fusion_lat": 0.0, "type": "electric_scooter", "name": "753bc8a6b531246c77c3960f2f91c0e3", "is_disabled": 0, "rental_uris": {"ios": "https://dc.lft.to/lastmile_qr_scan", "android": "https://dc.lft.to/lastmile_qr_scan"}, "is_reserved": 0}, {"lon": -77.0297335, "bike_id": "8fa7266571066a2ea7c9e26500b7e4c0", "lat": 38.92193483333333, "fusion_lon": 0.0, "fusion_lat": 0.0, "type": "electric_scooter", "name": "8fa7266571066a2ea7c9e26500b7e4c0", "is_disabled": 0, "rental_uris": {"ios": "https://dc.lft.to/lastmile_qr_scan", "android": "https://dc.lft.to/lastmile_qr_scan"}, "is_reserved": 0}, {"lon": -77.01998233333333, "bike_id": "2fdc64150ea99d8b8c379980b47ed8a0", "lat": 38.90448966666666, "fusion_lon": 0.0, "fusion_lat": 0.0, "type": "electric_scooter", "name": "2fdc64150ea99d8b8c379980b47ed8a0", "is_disabled": 0, "rental_uris": {"ios": "https://dc.lft.to/lastmile_qr_scan", "android": "https://dc.lft.to/lastmile_qr_scan"}, "is_reserved": 0}, {"lon": -77.0243805, "bike_id": "eade6877fac952c3c7ec135c7f0261a1", "lat": 38.924958333333336, "fusion_lon": 0.0, "fusion_lat": 0.0, "type": "electric_scooter", "name": "eade6877fac952c3c7ec135c7f0261a1", "is_disabled": 0, "rental_uris": {"ios": "https://dc.lft.to/lastmile_qr_scan", "android": "https://dc.lft.to/lastmile_qr_scan"}, "is_reserved": 0}, {"lon": -77.03436716666667, "bike_id": "9a1177ef11486ddb9f11e097f2267a82", "lat": 38.902794166666666, "fusion_lon": 0.0, "fusion_lat": 0.0, "type": "electric_scooter", "name": "9a1177ef11486ddb9f11e097f2267a82", "is_disabled": 0, "rental_uris": {"ios": "https://dc.lft.to/lastmile_qr_scan", "android": "https://dc.lft.to/lastmile_qr_scan"}, "is_reserved": 0}, {"lon": -77.00372833333333, "bike_id": "81274d75b92da9a4a1b8e823cb1a29b7", "lat": 38.8973245, "fusion_lon": 0.0, "fusion_lat": 0.0, "type": "electric_scooter", "name": "81274d75b92da9a4a1b8e823cb1a29b7", "is_disabled": 0, "rental_uris": {"ios": "https://dc.lft.to/lastmile_qr_scan", "android": "https://dc.lft.to/lastmile_qr_scan"}, "is_reserved": 0}, {"lon": -77.03435166666667, "bike_id": "51e3b74f84d683002a67dff13c178089", "lat": 38.91034833333333, "fusion_lon": 0.0, "fusion_lat": 0.0, "type": "electric_scooter", "name": "51e3b74f84d683002a67dff13c178089", "is_disabled": 0, "rental_uris": {"ios": "https://dc.lft.to/lastmile_qr_scan", "android": "https://dc.lft.to/lastmile_qr_scan"}, "is_reserved": 0}, {"lon": -77.0005445, "bike_id": "46cabac9dcdbec321fa0dc0f3414d19d", "lat": 38.89652983333333, "fusion_lon": 0.0, "fusion_lat": 0.0, "type": "electric_scooter", "name": "46cabac9dcdbec321fa0dc0f3414d19d", "is_disabled": 0, "rental_uris": {"ios": "https://dc.lft.to/lastmile_qr_scan", "android": "https://dc.lft.to/lastmile_qr_scan"}, "is_reserved": 0}, {"lon": -77.035426, "bike_id": "fae9735453d9963d416190fa9e12fbae", "lat": 38.917205333333335, "fusion_lon": 0.0, "fusion_lat": 0.0, "type": "electric_scooter", "name": "fae9735453d9963d416190fa9e12fbae", "is_disabled": 0, "rental_uris": {"ios": "https://dc.lft.to/lastmile_qr_scan", "android": "https://dc.lft.to/lastmile_qr_scan"}, "is_reserved": 0}, {"lon": -77.013109, "bike_id": "8f2f36cf48b691c47b24c4b29c275cf8", "lat": 38.871618833333336, "fusion_lon": 0.0, "fusion_lat": 0.0, "type": "electric_scooter", "name": "8f2f36cf48b691c47b24c4b29c275cf8", "is_disabled": 0, "rental_uris": {"ios": "https://dc.lft.to/lastmile_qr_scan", "android": "https://dc.lft.to/lastmile_qr_scan"}, "is_reserved": 0}, {"lon": -77.0087795, "bike_id": "b6fcdcddabe222a10d4d4e9924e75a85", "lat": 38.9070005, "fusion_lon": 0.0, "fusion_lat": 0.0, "type": "electric_scooter", "name": "b6fcdcddabe222a10d4d4e9924e75a85", "is_disabled": 0, "rental_uris": {"ios": "https://dc.lft.to/lastmile_qr_scan", "android": "https://dc.lft.to/lastmile_qr_scan"}, "is_reserved": 0}, {"lon": -77.09870916666667, "bike_id": "fcceccbb6144d059cf9e614765b753de", "lat": 38.94966566666667, "fusion_lon": 0.0, "fusion_lat": 0.0, "type": "electric_scooter", "name": "fcceccbb6144d059cf9e614765b753de", "is_disabled": 0, "rental_uris": {"ios": "https://dc.lft.to/lastmile_qr_scan", "android": "https://dc.lft.to/lastmile_qr_scan"}, "is_reserved": 0}, {"lon": -77.00831333333333, "bike_id": "8a7deb90f69ac604a63aec4226fb107c", "lat": 38.91565966666667, "fusion_lon": 0.0, "fusion_lat": 0.0, "type": "electric_scooter", "name": "8a7deb90f69ac604a63aec4226fb107c", "is_disabled": 0, "rental_uris": {"ios": "https://dc.lft.to/lastmile_qr_scan", "android": "https://dc.lft.to/lastmile_qr_scan"}, "is_reserved": 0}, {"lon": -77.04581866666666, "bike_id": "36055a1ed0fed2187974f7a5b88f8843", "lat": 38.92124416666667, "fusion_lon": 0.0, "fusion_lat": 0.0, "type": "electric_scooter", "name": "36055a1ed0fed2187974f7a5b88f8843", "is_disabled": 0, "rental_uris": {"ios": "https://dc.lft.to/lastmile_qr_scan", "android": "https://dc.lft.to/lastmile_qr_scan"}, "is_reserved": 0}, {"lon": -77.057353, "bike_id": "c5e1e5f68db6070b0f56ccdd19b07b45", "lat": 38.90495966666667, "fusion_lon": 0.0, "fusion_lat": 0.0, "type": "electric_scooter", "name": "c5e1e5f68db6070b0f56ccdd19b07b45", "is_disabled": 0, "rental_uris": {"ios": "https://dc.lft.to/lastmile_qr_scan", "android": "https://dc.lft.to/lastmile_qr_scan"}, "is_reserved": 0}, {"lon": -76.99001633333333, "bike_id": "2061abf618f9f56caa89aefd07570235", "lat": 38.865074666666665, "fusion_lon": 0.0, "fusion_lat": 0.0, "type": "electric_scooter", "name": "2061abf618f9f56caa89aefd07570235", "is_disabled": 0, "rental_uris": {"ios": "https://dc.lft.to/lastmile_qr_scan", "android": "https://dc.lft.to/lastmile_qr_scan"}, "is_reserved": 0}, {"lon": -77.00586716666666, "bike_id": "ae41059ceea7855c93c19ef531c13ce1", "lat": 38.87620483333333, "fusion_lon": 0.0, "fusion_lat": 0.0, "type": "electric_scooter", "name": "ae41059ceea7855c93c19ef531c13ce1", "is_disabled": 0, "rental_uris": {"ios": "https://dc.lft.to/lastmile_qr_scan", "android": "https://dc.lft.to/lastmile_qr_scan"}, "is_reserved": 0}, {"lon": -77.03169533333333, "bike_id": "4d17300a640d1e9460c6fe4961216c9c", "lat": 38.91405616666667, "fusion_lon": 0.0, "fusion_lat": 0.0, "type": "electric_scooter", "name": "4d17300a640d1e9460c6fe4961216c9c", "is_disabled": 0, "rental_uris": {"ios": "https://dc.lft.to/lastmile_qr_scan", "android": "https://dc.lft.to/lastmile_qr_scan"}, "is_reserved": 0}, {"lon": -76.9954465, "bike_id": "2c647d88625f0b4c66a6d2de22bd4136", "lat": 38.8625735, "fusion_lon": 0.0, "fusion_lat": 0.0, "type": "electric_scooter", "name": "2c647d88625f0b4c66a6d2de22bd4136", "is_disabled": 0, "rental_uris": {"ios": "https://dc.lft.to/lastmile_qr_scan", "android": "https://dc.lft.to/lastmile_qr_scan"}, "is_reserved": 0}, {"lon": -77.04159033333333, "bike_id": "7215eb98b6f515fc896fbdedbd3e8e96", "lat": 38.915517666666666, "fusion_lon": 0.0, "fusion_lat": 0.0, "type": "electric_scooter", "name": "7215eb98b6f515fc896fbdedbd3e8e96", "is_disabled": 0, "rental_uris": {"ios": "https://dc.lft.to/lastmile_qr_scan", "android": "https://dc.lft.to/lastmile_qr_scan"}, "is_reserved": 0}, {"lon": -76.99457283333334, "bike_id": "fd6e298163e6ac814ff597b9d819a9b7", "lat": 38.966165333333336, "fusion_lon": 0.0, "fusion_lat": 0.0, "type": "electric_bike", "name": "fd6e298163e6ac814ff597b9d819a9b7", "is_disabled": 0, "rental_uris": {"ios": "https://dc.lft.to/lastmile_qr_scan", "android": "https://dc.lft.to/lastmile_qr_scan"}, "is_reserved": 0}, {"lon": -77.02400133333333, "bike_id": "5f904ec5baaa946074a17a440d644fe1", "lat": 38.916501833333335, "fusion_lon": 0.0, "fusion_lat": 0.0, "type": "electric_scooter", "name": "5f904ec5baaa946074a17a440d644fe1", "is_disabled": 0, "rental_uris": {"ios": "https://dc.lft.to/lastmile_qr_scan", "android": "https://dc.lft.to/lastmile_qr_scan"}, "is_reserved": 0}, {"lon": -77.00660466666666, "bike_id": "9388df2d86dece02c9e38ad1893f03b9", "lat": 38.87647483333333, "fusion_lon": 0.0, "fusion_lat": 0.0, "type": "electric_scooter", "name": "9388df2d86dece02c9e38ad1893f03b9", "is_disabled": 0, "rental_uris": {"ios": "https://dc.lft.to/lastmile_qr_scan", "android": "https://dc.lft.to/lastmile_qr_scan"}, "is_reserved": 0}, {"lon": -77.03291466666667, "bike_id": "b16e4b4b194709df32c4aaac465ad37f", "lat": 38.956517166666664, "fusion_lon": 0.0, "fusion_lat": 0.0, "type": "electric_scooter", "name": "b16e4b4b194709df32c4aaac465ad37f", "is_disabled": 0, "rental_uris": {"ios": "https://dc.lft.to/lastmile_qr_scan", "android": "https://dc.lft.to/lastmile_qr_scan"}, "is_reserved": 0}, {"lon": -77.05168866666666, "bike_id": "756d51f3df587bcbc0af132f64390f10", "lat": 38.84285916666666, "fusion_lon": 0.0, "fusion_lat": 0.0, "type": "electric_bike", "name": "756d51f3df587bcbc0af132f64390f10", "is_disabled": 0, "rental_uris": {"ios": "https://dc.lft.to/lastmile_qr_scan", "android": "https://dc.lft.to/lastmile_qr_scan"}, "is_reserved": 0}, {"lon": -77.03280016666666, "bike_id": "ff77b2d75323853f6a1e81498ca05ae9", "lat": 38.93641516666667, "fusion_lon": 0.0, "fusion_lat": 0.0, "type": "electric_scooter", "name": "ff77b2d75323853f6a1e81498ca05ae9", "is_disabled": 0, "rental_uris": {"ios": "https://dc.lft.to/lastmile_qr_scan", "android": "https://dc.lft.to/lastmile_qr_scan"}, "is_reserved": 0}, {"lon": -77.02615983333334, "bike_id": "b9735f4e5091b4afbd516bc7ea5527be", "lat": 38.902522, "fusion_lon": 0.0, "fusion_lat": 0.0, "type": "electric_scooter", "name": "b9735f4e5091b4afbd516bc7ea5527be", "is_disabled": 0, "rental_uris": {"ios": "https://dc.lft.to/lastmile_qr_scan", "android": "https://dc.lft.to/lastmile_qr_scan"}, "is_reserved": 0}, {"lon": -76.99173583333334, "bike_id": "fa79b3ece65a491f9f478d35facb441d", "lat": 38.909722333333335, "fusion_lon": 0.0, "fusion_lat": 0.0, "type": "electric_scooter", "name": "fa79b3ece65a491f9f478d35facb441d", "is_disabled": 0, "rental_uris": {"ios": "https://dc.lft.to/lastmile_qr_scan", "android": "https://dc.lft.to/lastmile_qr_scan"}, "is_reserved": 0}, {"lon": -77.059435, "bike_id": "d4bf5a7d795cf54b947a55aad865e0eb", "lat": 38.91190516666666, "fusion_lon": 0.0, "fusion_lat": 0.0, "type": "electric_bike", "name": "d4bf5a7d795cf54b947a55aad865e0eb", "is_disabled": 0, "rental_uris": {"ios": "https://dc.lft.to/lastmile_qr_scan", "android": "https://dc.lft.to/lastmile_qr_scan"}, "is_reserved": 0}, {"lon": -77.07342866666667, "bike_id": "e1523e029f66468f555b82f77225a59f", "lat": 38.93487966666667, "fusion_lon": 0.0, "fusion_lat": 0.0, "type": "electric_scooter", "name": "e1523e029f66468f555b82f77225a59f", "is_disabled": 0, "rental_uris": {"ios": "https://dc.lft.to/lastmile_qr_scan", "android": "https://dc.lft.to/lastmile_qr_scan"}, "is_reserved": 0}, {"lon": -77.17837633333333, "bike_id": "b14c9f071638ea5b9a0a61332feab115", "lat": 39.08860883333333, "fusion_lon": 0.0, "fusion_lat": 0.0, "type": "electric_bike", "name": "b14c9f071638ea5b9a0a61332feab115", "is_disabled": 0, "rental_uris": {"ios": "https://dc.lft.to/lastmile_qr_scan", "android": "https://dc.lft.to/lastmile_qr_scan"}, "is_reserved": 0}, {"lon": -76.9565635, "bike_id": "73ab5147b9628b1de720919c6b60b712", "lat": 38.8955485, "fusion_lon": 0.0, "fusion_lat": 0.0, "type": "electric_scooter", "name": "73ab5147b9628b1de720919c6b60b712", "is_disabled": 0, "rental_uris": {"ios": "https://dc.lft.to/lastmile_qr_scan", "android": "https://dc.lft.to/lastmile_qr_scan"}, "is_reserved": 0}, {"lon": -77.00059966666667, "bike_id": "22bb2b85f6149b11d9d6e34b92e7c1a1", "lat": 38.89658133333333, "fusion_lon": 0.0, "fusion_lat": 0.0, "type": "electric_scooter", "name": "22bb2b85f6149b11d9d6e34b92e7c1a1", "is_disabled": 0, "rental_uris": {"ios": "https://dc.lft.to/lastmile_qr_scan", "android": "https://dc.lft.to/lastmile_qr_scan"}, "is_reserved": 0}, {"lon": -77.0201095, "bike_id": "2a2413e006c6fa6b842c86ffeadbb5d8", "lat": 38.9311705, "fusion_lon": 0.0, "fusion_lat": 0.0, "type": "electric_scooter", "name": "2a2413e006c6fa6b842c86ffeadbb5d8", "is_disabled": 0, "rental_uris": {"ios": "https://dc.lft.to/lastmile_qr_scan", "android": "https://dc.lft.to/lastmile_qr_scan"}, "is_reserved": 0}, {"lon": -76.99138066666667, "bike_id": "04954a549ea26dde26cd08ff955e4464", "lat": 38.882288833333334, "fusion_lon": 0.0, "fusion_lat": 0.0, "type": "electric_scooter", "name": "04954a549ea26dde26cd08ff955e4464", "is_disabled": 0, "rental_uris": {"ios": "https://dc.lft.to/lastmile_qr_scan", "android": "https://dc.lft.to/lastmile_qr_scan"}, "is_reserved": 0}, {"lon": -77.02990683333333, "bike_id": "90b7b19296eca1de6f2381675635f949", "lat": 38.89693033333333, "fusion_lon": 0.0, "fusion_lat": 0.0, "type": "electric_scooter", "name": "90b7b19296eca1de6f2381675635f949", "is_disabled": 0, "rental_uris": {"ios": "https://dc.lft.to/lastmile_qr_scan", "android": "https://dc.lft.to/lastmile_qr_scan"}, "is_reserved": 0}, {"lon": -77.032784, "bike_id": "c823a5a57a22a9da1f36dd894385f61e", "lat": 38.92829116666667, "fusion_lon": 0.0, "fusion_lat": 0.0, "type": "electric_scooter", "name": "c823a5a57a22a9da1f36dd894385f61e", "is_disabled": 0, "rental_uris": {"ios": "https://dc.lft.to/lastmile_qr_scan", "android": "https://dc.lft.to/lastmile_qr_scan"}, "is_reserved": 0}, {"lon": -77.04276066666667, "bike_id": "32c25a9ef6a38dedd4d4d2157d8b6262", "lat": 38.92243633333333, "fusion_lon": 0.0, "fusion_lat": 0.0, "type": "electric_scooter", "name": "32c25a9ef6a38dedd4d4d2157d8b6262", "is_disabled": 0, "rental_uris": {"ios": "https://dc.lft.to/lastmile_qr_scan", "android": "https://dc.lft.to/lastmile_qr_scan"}, "is_reserved": 0}, {"lon": -77.08979683333334, "bike_id": "39cc0448766a579742c73da3ce41d6bf", "lat": 38.87477033333333, "fusion_lon": 0.0, "fusion_lat": 0.0, "type": "electric_bike", "name": "39cc0448766a579742c73da3ce41d6bf", "is_disabled": 0, "rental_uris": {"ios": "https://dc.lft.to/lastmile_qr_scan", "android": "https://dc.lft.to/lastmile_qr_scan"}, "is_reserved": 0}, {"lon": -77.0298255, "bike_id": "9488c3f5e5fb57daaf7e42ab6d5aa12e", "lat": 38.9074035, "fusion_lon": 0.0, "fusion_lat": 0.0, "type": "electric_scooter", "name": "9488c3f5e5fb57daaf7e42ab6d5aa12e", "is_disabled": 0, "rental_uris": {"ios": "https://dc.lft.to/lastmile_qr_scan", "android": "https://dc.lft.to/lastmile_qr_scan"}, "is_reserved": 0}, {"lon": -77.01524716666667, "bike_id": "bfbf28377586b7f0f7f4be38ab6cf68a", "lat": 38.917653, "fusion_lon": 0.0, "fusion_lat": 0.0, "type": "electric_scooter", "name": "bfbf28377586b7f0f7f4be38ab6cf68a", "is_disabled": 0, "rental_uris": {"ios": "https://dc.lft.to/lastmile_qr_scan", "android": "https://dc.lft.to/lastmile_qr_scan"}, "is_reserved": 0}, {"lon": -77.021811, "bike_id": "caa1e9f7be96ae3064087e5768435442", "lat": 38.91983966666667, "fusion_lon": 0.0, "fusion_lat": 0.0, "type": "electric_scooter", "name": "caa1e9f7be96ae3064087e5768435442", "is_disabled": 0, "rental_uris": {"ios": "https://dc.lft.to/lastmile_qr_scan", "android": "https://dc.lft.to/lastmile_qr_scan"}, "is_reserved": 0}, {"lon": -76.98531183333333, "bike_id": "6304eb85d9c03ea391c502daf2b53b3f", "lat": 38.90463416666667, "fusion_lon": 0.0, "fusion_lat": 0.0, "type": "electric_scooter", "name": "6304eb85d9c03ea391c502daf2b53b3f", "is_disabled": 0, "rental_uris": {"ios": "https://dc.lft.to/lastmile_qr_scan", "android": "https://dc.lft.to/lastmile_qr_scan"}, "is_reserved": 0}, {"lon": -77.015014, "bike_id": "3184b4ca393f147991eb4a65fd3a77cf", "lat": 38.89932866666667, "fusion_lon": 0.0, "fusion_lat": 0.0, "type": "electric_scooter", "name": "3184b4ca393f147991eb4a65fd3a77cf", "is_disabled": 0, "rental_uris": {"ios": "https://dc.lft.to/lastmile_qr_scan", "android": "https://dc.lft.to/lastmile_qr_scan"}, "is_reserved": 0}, {"lon": -77.017954, "bike_id": "bda642a1f2ef370de73c6e4e34f56bcb", "lat": 38.921325333333336, "fusion_lon": 0.0, "fusion_lat": 0.0, "type": "electric_scooter", "name": "bda642a1f2ef370de73c6e4e34f56bcb", "is_disabled": 0, "rental_uris": {"ios": "https://dc.lft.to/lastmile_qr_scan", "android": "https://dc.lft.to/lastmile_qr_scan"}, "is_reserved": 0}, {"lon": -77.04741616666666, "bike_id": "7dccc708a0f48159f194124fcdc13825", "lat": 38.91780633333333, "fusion_lon": 0.0, "fusion_lat": 0.0, "type": "electric_scooter", "name": "7dccc708a0f48159f194124fcdc13825", "is_disabled": 0, "rental_uris": {"ios": "https://dc.lft.to/lastmile_qr_scan", "android": "https://dc.lft.to/lastmile_qr_scan"}, "is_reserved": 0}, {"lon": -77.04824133333334, "bike_id": "86ef5fa1ee34ac0487099ee23ca99d1f", "lat": 38.90732783333333, "fusion_lon": 0.0, "fusion_lat": 0.0, "type": "electric_scooter", "name": "86ef5fa1ee34ac0487099ee23ca99d1f", "is_disabled": 0, "rental_uris": {"ios": "https://dc.lft.to/lastmile_qr_scan", "android": "https://dc.lft.to/lastmile_qr_scan"}, "is_reserved": 0}, {"lon": -77.02238183333333, "bike_id": "82235181868c17f7602e0caf1427c25c", "lat": 38.89740583333333, "fusion_lon": 0.0, "fusion_lat": 0.0, "type": "electric_scooter", "name": "82235181868c17f7602e0caf1427c25c", "is_disabled": 0, "rental_uris": {"ios": "https://dc.lft.to/lastmile_qr_scan", "android": "https://dc.lft.to/lastmile_qr_scan"}, "is_reserved": 0}, {"lon": -77.11710266666667, "bike_id": "d7d4c22e33d4b99f3bf08534cfbd5f7c", "lat": 38.867489166666665, "fusion_lon": 0.0, "fusion_lat": 0.0, "type": "electric_bike", "name": "d7d4c22e33d4b99f3bf08534cfbd5f7c", "is_disabled": 0, "rental_uris": {"ios": "https://dc.lft.to/lastmile_qr_scan", "android": "https://dc.lft.to/lastmile_qr_scan"}, "is_reserved": 0}, {"lon": -77.01343833333334, "bike_id": "377fb7c998e924f6bd2eff4f40177375", "lat": 38.878167, "fusion_lon": 0.0, "fusion_lat": 0.0, "type": "electric_scooter", "name": "377fb7c998e924f6bd2eff4f40177375", "is_disabled": 0, "rental_uris": {"ios": "https://dc.lft.to/lastmile_qr_scan", "android": "https://dc.lft.to/lastmile_qr_scan"}, "is_reserved": 0}, {"lon": -77.02722766666666, "bike_id": "f59277054bfea6370e10a1ac3060ce06", "lat": 38.90668566666667, "fusion_lon": 0.0, "fusion_lat": 0.0, "type": "electric_scooter", "name": "f59277054bfea6370e10a1ac3060ce06", "is_disabled": 0, "rental_uris": {"ios": "https://dc.lft.to/lastmile_qr_scan", "android": "https://dc.lft.to/lastmile_qr_scan"}, "is_reserved": 0}, {"lon": -77.05045166666666, "bike_id": "0b6be418f98152ae9a23f16faa7dd279", "lat": 38.92363483333333, "fusion_lon": 0.0, "fusion_lat": 0.0, "type": "electric_scooter", "name": "0b6be418f98152ae9a23f16faa7dd279", "is_disabled": 0, "rental_uris": {"ios": "https://dc.lft.to/lastmile_qr_scan", "android": "https://dc.lft.to/lastmile_qr_scan"}, "is_reserved": 0}, {"lon": -77.03160866666667, "bike_id": "a432274b6d897362ace8ca3819240fc4", "lat": 38.892214, "fusion_lon": 0.0, "fusion_lat": 0.0, "type": "electric_scooter", "name": "a432274b6d897362ace8ca3819240fc4", "is_disabled": 0, "rental_uris": {"ios": "https://dc.lft.to/lastmile_qr_scan", "android": "https://dc.lft.to/lastmile_qr_scan"}, "is_reserved": 0}, {"lon": -76.9871625, "bike_id": "77c0aca2637dfbcb0fec93d3ce85e5c1", "lat": 38.8662715, "fusion_lon": 0.0, "fusion_lat": 0.0, "type": "electric_scooter", "name": "77c0aca2637dfbcb0fec93d3ce85e5c1", "is_disabled": 0, "rental_uris": {"ios": "https://dc.lft.to/lastmile_qr_scan", "android": "https://dc.lft.to/lastmile_qr_scan"}, "is_reserved": 0}, {"lon": -76.98955416666666, "bike_id": "ce6bda3f303177534ff6d7328b78821f", "lat": 38.856939833333335, "fusion_lon": 0.0, "fusion_lat": 0.0, "type": "electric_scooter", "name": "ce6bda3f303177534ff6d7328b78821f", "is_disabled": 0, "rental_uris": {"ios": "https://dc.lft.to/lastmile_qr_scan", "android": "https://dc.lft.to/lastmile_qr_scan"}, "is_reserved": 0}, {"lon": -77.044733, "bike_id": "ce7bd4f4e89fb1323d9db7be5027f115", "lat": 38.90930916666667, "fusion_lon": 0.0, "fusion_lat": 0.0, "type": "electric_scooter", "name": "ce7bd4f4e89fb1323d9db7be5027f115", "is_disabled": 0, "rental_uris": {"ios": "https://dc.lft.to/lastmile_qr_scan", "android": "https://dc.lft.to/lastmile_qr_scan"}, "is_reserved": 0},