{"data": {"bikes": [{"bike_id": "c618bb2dcf039c628ab22c9a0b8778cc", "is_reserved": 0, "fusion_lon": 0.0, "lat": 38.908394666666666, "is_disabled": 0, "name": "c618bb2dcf039c628ab22c9a0b8778cc", "fusion_lat": 0.0, "rental_uris": {"ios": "https://dc.lft.to/lastmile_qr_scan", "android": "https://dc.lft.to/lastmile_qr_scan"}, "lon": -76.99712116666667, "type": "electric_scooter"}, {"bike_id": "9f6ea174d07ae3ac9512311366fee031", "is_reserved": 0, "fusion_lon": 0.0, "lat": 38.92563466666667, "is_disabled": 0, "name": "9f6ea174d07ae3ac9512311366fee031", "fusion_lat": 0.0, "rental_uris": {"ios": "https://dc.lft.to/lastmile_qr_scan", "android": "https://dc.lft.to/lastmile_qr_scan"}, "lon": -77.037969, "type": "electric_scooter"}, {"bike_id": "12bc5dbf3010800f36086636a9521f70", "is_reserved": 0, "fusion_lon": 0.0, "lat": 38.8922385, "is_disabled": 0, "name": "12bc5dbf3010800f36086636a9521f70", "fusion_lat": 0.0, "rental_uris": {"ios": "https://dc.lft.to/lastmile_qr_scan", "android": "https://dc.lft.to/lastmile_qr_scan"}, "lon": -77.031661, "type": "electric_scooter"}, {"bike_id": "98331582c281b6ffe4789bc0273377f0", "is_reserved": 0, "fusion_lon": 0.0, "lat": 38.928640333333334, "is_disabled": 0, "name": "98331582c281b6ffe4789bc0273377f0", "fusion_lat": 0.0, "rental_uris": {"ios": "https://dc.lft.to/lastmile_qr_scan", "android": "https://dc.lft.to/lastmile_qr_scan"}, "lon": -77.03236166666667, "type": "electric_scooter"}, {"bike_id": "b76d0d171687e750766d16d03aee9d19", "is_reserved": 0, "fusion_lon": 0.0, "lat": 38.92216416666667, "is_disabled": 0, "name": "b76d0d171687e750766d16d03aee9d19", "fusion_lat": 0.0, "rental_uris": {"ios": "https://dc.lft.to/lastmile_qr_scan", "android": "https://dc.lft.to/lastmile_qr_scan"}, "lon": -77.04258683333333, "type": "electric_scooter"}, {"bike_id": "fdcc95ddcae35719dc13604ddd3cf5da", "is_reserved": 0, "fusion_lon": 0.0, "lat": 38.9038575, "is_disabled": 0, "name": "fdcc95ddcae35719dc13604ddd3cf5da", "fusion_lat": 0.0, "rental_uris": {"ios": "https://dc.lft.to/lastmile_qr_scan", "android": "https://dc.lft.to/lastmile_qr_scan"}, "lon": -77.03636883333333, "type": "electric_scooter"}, {"bike_id": "ea6bca6c87ac217fde81db92f836086a", "is_reserved": 0, "fusion_lon": 0.0, "lat": 38.90517666666667, "is_disabled": 0, "name": "ea6bca6c87ac217fde81db92f836086a", "fusion_lat": 0.0, "rental_uris": {"ios": "https://dc.lft.to/lastmile_qr_scan", "android": "https://dc.lft.to/lastmile_qr_scan"}, "lon": -77.0646035, "type": "electric_scooter"}, {"bike_id": "6e9b47b987a88b586ff6e7f15688aa25", "is_reserved": 0, "fusion_lon": 0.0, "lat": 38.89220516666666, "is_disabled": 0, "name": "6e9b47b987a88b586ff6e7f15688aa25", "fusion_lat": 0.0, "rental_uris": {"ios": "https://dc.lft.to/lastmile_qr_scan", "android": "https://dc.lft.to/lastmile_qr_scan"}, "lon": -77.04195466666667, "type": "electric_scooter"}, {"bike_id": "516edfe981e987b46c77553c940005f2", "is_reserved": 0, "fusion_lon": 0.0, "lat": 38.89983633333333, "is_disabled": 0, "name": "516edfe981e987b46c77553c940005f2", "fusion_lat": 0.0, "rental_uris": {"ios": "https://dc.lft.to/lastmile_qr_scan", "android": "https://dc.lft.to/lastmile_qr_scan"}, "lon": -77.02247916666667, "type": "electric_scooter"}, {"bike_id": "2594e80266989f636bf2cac1fac46f62", "is_reserved": 0, "fusion_lon": 0.0, "lat": 38.8960985, "is_disabled": 0, "name": "2594e80266989f636bf2cac1fac46f62", "fusion_lat": 0.0, "rental_uris": {"ios": "https://dc.lft.to/lastmile_qr_scan", "android": "https://dc.lft.to/lastmile_qr_scan"}, "lon": -77.0092875, "type": "electric_scooter"}, {"bike_id": "9c75321e5ace8e45225c7a4d97025b8b", "is_reserved": 0, "fusion_lon": 0.0, "lat": 38.924124, "is_disabled": 0, "name": "9c75321e5ace8e45225c7a4d97025b8b", "fusion_lat": 0.0, "rental_uris": {"ios": "https://dc.lft.to/lastmile_qr_scan", "android": "https://dc.lft.to/lastmile_qr_scan"}, "lon": -77.03642533333333, "type": "electric_scooter"}, {"bike_id": "a570d53a36c1e423cb83bfc9826129ac", "is_reserved": 0, "fusion_lon": 0.0, "lat": 38.891045166666665, "is_disabled": 0, "name": "a570d53a36c1e423cb83bfc9826129ac", "fusion_lat": 0.0, "rental_uris": {"ios": "https://dc.lft.to/lastmile_qr_scan", "android": "https://dc.lft.to/lastmile_qr_scan"}, "lon": -76.98707216666666, "type": "electric_scooter"}, {"bike_id": "4b6c96e792f305914a926b1f50c0b5b5", "is_reserved": 0, "fusion_lon": 0.0, "lat": 38.9113985, "is_disabled": 0, "name": "4b6c96e792f305914a926b1f50c0b5b5", "fusion_lat": 0.0, "rental_uris": {"ios": "https://dc.lft.to/lastmile_qr_scan", "android": "https://dc.lft.to/lastmile_qr_scan"}, "lon": -77.03835616666667, "type": "electric_scooter"}, {"bike_id": "ae6c120f9c77bde4ba763293ff011688", "is_reserved": 0, "fusion_lon": 0.0, "lat": 38.87917483333333, "is_disabled": 0, "name": "ae6c120f9c77bde4ba763293ff011688", "fusion_lat": 0.0, "rental_uris": {"ios": "https://dc.lft.to/lastmile_qr_scan", "android": "https://dc.lft.to/lastmile_qr_scan"}, "lon": -76.995072, "type": "electric_scooter"}, {"bike_id": "877ccf086c731d63ef47579f193ce140", "is_reserved": 0, "fusion_lon": 0.0, "lat": 38.91861383333333, "is_disabled": 0, "name": "877ccf086c731d63ef47579f193ce140", "fusion_lat": 0.0, "rental_uris": {"ios": "https://dc.lft.to/lastmile_qr_scan", "android": "https://dc.lft.to/lastmile_qr_scan"}, "lon": -77.041812, "type": "electric_scooter"}, {"bike_id": "94ec132cc0166ae00f9c9ec3dd5e7c09", "is_reserved": 0, "fusion_lon": 0.0, "lat": 38.9255025, "is_disabled": 0, "name": "94ec132cc0166ae00f9c9ec3dd5e7c09", "fusion_lat": 0.0, "rental_uris": {"ios": "https://dc.lft.to/lastmile_qr_scan", "android": "https://dc.lft.to/lastmile_qr_scan"}, "lon": -77.0258405, "type": "electric_scooter"}, {"bike_id": "4e8443652e3964a8f0752ff81001bc08", "is_reserved": 0, "fusion_lon": 0.0, "lat": 38.87082633333333, "is_disabled": 0, "name": "4e8443652e3964a8f0752ff81001bc08", "fusion_lat": 0.0, "rental_uris": {"ios": "https://dc.lft.to/lastmile_qr_scan", "android": "https://dc.lft.to/lastmile_qr_scan"}, "lon": -77.01213566666667, "type": "electric_bike"}, {"bike_id": "117ff0e9d21bc4ba907ddf213aa868ee", "is_reserved": 0, "fusion_lon": 0.0, "lat": 38.9286565, "is_disabled": 0, "name": "117ff0e9d21bc4ba907ddf213aa868ee", "fusion_lat": 0.0, "rental_uris": {"ios": "https://dc.lft.to/lastmile_qr_scan", "android": "https://dc.lft.to/lastmile_qr_scan"}, "lon": -77.013731, "type": "electric_scooter"}, {"bike_id": "2264d2e534508380d40f45ed8ce71a3c", "is_reserved": 0, "fusion_lon": 0.0, "lat": 38.89684866666666, "is_disabled": 0, "name": "2264d2e534508380d40f45ed8ce71a3c", "fusion_lat": 0.0, "rental_uris": {"ios": "https://dc.lft.to/lastmile_qr_scan", "android": "https://dc.lft.to/lastmile_qr_scan"}, "lon": -76.9962745, "type": "electric_scooter"}, {"bike_id": "8e2db0bad429efd5f0856b4cf3fa9a33", "is_reserved": 0, "fusion_lon": 0.0, "lat": 38.868289, "is_disabled": 0, "name": "8e2db0bad429efd5f0856b4cf3fa9a33", "fusion_lat": 0.0, "rental_uris": {"ios": "https://dc.lft.to/lastmile_qr_scan", "android": "https://dc.lft.to/lastmile_qr_scan"}, "lon": -76.9802695, "type": "electric_bike"}, {"bike_id": "328a60915368aa95d8f51c4d7ac53f9c", "is_reserved": 0, "fusion_lon": 0.0, "lat": 38.924181833333336, "is_disabled": 0, "name": "328a60915368aa95d8f51c4d7ac53f9c", "fusion_lat": 0.0, "rental_uris": {"ios": "https://dc.lft.to/lastmile_qr_scan", "android": "https://dc.lft.to/lastmile_qr_scan"}, "lon": -77.02266283333333, "type": "electric_scooter"}, {"bike_id": "263df451b5ea4903e817a0d97b590850", "is_reserved": 0, "fusion_lon": 0.0, "lat": 38.898257666666666, "is_disabled": 0, "name": "263df451b5ea4903e817a0d97b590850", "fusion_lat": 0.0, "rental_uris": {"ios": "https://dc.lft.to/lastmile_qr_scan", "android": "https://dc.lft.to/lastmile_qr_scan"}, "lon": -77.0093445, "type": "electric_scooter"}, {"bike_id": "39b6f48a663d3565bbbfae8e721af7f0", "is_reserved": 0, "fusion_lon": 0.0, "lat": 38.91799283333334, "is_disabled": 0, "name": "39b6f48a663d3565bbbfae8e721af7f0", "fusion_lat": 0.0, "rental_uris": {"ios": "https://dc.lft.to/lastmile_qr_scan", "android": "https://dc.lft.to/lastmile_qr_scan"}, "lon": -77.03439616666667, "type": "electric_scooter"}, {"bike_id": "eb9853eb293ceac357a836433572edb5", "is_reserved": 0, "fusion_lon": 0.0, "lat": 38.884894833333334, "is_disabled": 0, "name": "eb9853eb293ceac357a836433572edb5", "fusion_lat": 0.0, "rental_uris": {"ios": "https://dc.lft.to/lastmile_qr_scan", "android": "https://dc.lft.to/lastmile_qr_scan"}, "lon": -77.00726766666666, "type": "electric_scooter"}, {"bike_id": "32b9914332de72d99ae7ca824de08438", "is_reserved": 0, "fusion_lon": 0.0, "lat": 38.9339945, "is_disabled": 0, "name": "32b9914332de72d99ae7ca824de08438", "fusion_lat": 0.0, "rental_uris": {"ios": "https://dc.lft.to/lastmile_qr_scan", "android": "https://dc.lft.to/lastmile_qr_scan"}, "lon": -77.03890166666666, "type": "electric_scooter"}, {"bike_id": "ce039aab75fca08e3d66d9086eca89d8", "is_reserved": 0, "fusion_lon": 0.0, "lat": 38.92063783333333, "is_disabled": 0, "name": "ce039aab75fca08e3d66d9086eca89d8", "fusion_lat": 0.0, "rental_uris": {"ios": "https://dc.lft.to/lastmile_qr_scan", "android": "https://dc.lft.to/lastmile_qr_scan"}, "lon": -77.0419275, "type": "electric_scooter"}, {"bike_id": "9250fec9ea5c790f33037c70c7d3bcee", "is_reserved": 0, "fusion_lon": 0.0, "lat": 38.90963283333333, "is_disabled": 0, "name": "9250fec9ea5c790f33037c70c7d3bcee", "fusion_lat": 0.0, "rental_uris": {"ios": "https://dc.lft.to/lastmile_qr_scan", "android": "https://dc.lft.to/lastmile_qr_scan"}, "lon": -77.04806133333334, "type": "electric_scooter"}, {"bike_id": "11852e28f6ffd8dae982f157757376d6", "is_reserved": 0, "fusion_lon": 0.0, "lat": 38.861871666666666, "is_disabled": 0, "name": "11852e28f6ffd8dae982f157757376d6", "fusion_lat": 0.0, "rental_uris": {"ios": "https://dc.lft.to/lastmile_qr_scan", "android": "https://dc.lft.to/lastmile_qr_scan"}, "lon": -76.9945195, "type": "electric_scooter"}, {"bike_id": "32909d751c7974aa392fd5bf1c3e9969", "is_reserved": 0, "fusion_lon": 0.0, "lat": 38.914180333333334, "is_disabled": 0, "name": "32909d751c7974aa392fd5bf1c3e9969", "fusion_lat": 0.0, "rental_uris": {"ios": "https://dc.lft.to/lastmile_qr_scan", "android": "https://dc.lft.to/lastmile_qr_scan"}, "lon": -77.031518, "type": "electric_scooter"}, {"bike_id": "1a10a3da5adfde4ad8b1b6eb6c07ef32", "is_reserved": 0, "fusion_lon": 0.0, "lat": 38.91109566666667, "is_disabled": 0, "name": "1a10a3da5adfde4ad8b1b6eb6c07ef32", "fusion_lat": 0.0, "rental_uris": {"ios": "https://dc.lft.to/lastmile_qr_scan", "android": "https://dc.lft.to/lastmile_qr_scan"}, "lon": -77.00357266666667, "type": "electric_scooter"}, {"bike_id": "ac6c826011d435c0837d3a324b99a54d", "is_reserved": 0, "fusion_lon": 0.0, "lat": 38.8922145, "is_disabled": 0, "name": "ac6c826011d435c0837d3a324b99a54d", "fusion_lat": 0.0, "rental_uris": {"ios": "https://dc.lft.to/lastmile_qr_scan", "android": "https://dc.lft.to/lastmile_qr_scan"}, "lon": -77.0487195, "type": "electric_scooter"}, {"bike_id": "fd698a62d196a520fe0d2c098fb2bc36", "is_reserved": 0, "fusion_lon": 0.0, "lat": 38.9590655, "is_disabled": 0, "name": "fd698a62d196a520fe0d2c098fb2bc36", "fusion_lat": 0.0, "rental_uris": {"ios": "https://dc.lft.to/lastmile_qr_scan", "android": "https://dc.lft.to/lastmile_qr_scan"}, "lon": -76.92487833333334, "type": "electric_bike"}, {"bike_id": "747675ce041ba4d74fc6d7c6865a1b1c", "is_reserved": 0, "fusion_lon": 0.0, "lat": 38.97325383333333, "is_disabled": 0, "name": "747675ce041ba4d74fc6d7c6865a1b1c", "fusion_lat": 0.0, "rental_uris": {"ios": "https://dc.lft.to/lastmile_qr_scan", "android": "https://dc.lft.to/lastmile_qr_scan"}, "lon": -77.02146333333333, "type": "electric_bike"}, {"bike_id": "52ad8d80a31e3cad04f118cf745eefda", "is_reserved": 0, "fusion_lon": 0.0, "lat": 38.90305583333333, "is_disabled": 0, "name": "52ad8d80a31e3cad04f118cf745eefda", "fusion_lat": 0.0, "rental_uris": {"ios": "https://dc.lft.to/lastmile_qr_scan", "android": "https://dc.lft.to/lastmile_qr_scan"}, "lon": -77.0384815, "type": "electric_scooter"}, {"bike_id": "85428cc439edaf41ffd3c795a9cf9598", "is_reserved": 0, "fusion_lon": 0.0, "lat": 38.900616, "is_disabled": 0, "name": "85428cc439edaf41ffd3c795a9cf9598", "fusion_lat": 0.0, "rental_uris": {"ios": "https://dc.lft.to/lastmile_qr_scan", "android": "https://dc.lft.to/lastmile_qr_scan"}, "lon": -76.998378, "type": "electric_scooter"}, {"bike_id": "a002c27ab439c9c6e460dc50d6ea1d09", "is_reserved": 0, "fusion_lon": 0.0, "lat": 38.918159, "is_disabled": 0, "name": "a002c27ab439c9c6e460dc50d6ea1d09", "fusion_lat": 0.0, "rental_uris": {"ios": "https://dc.lft.to/lastmile_qr_scan", "android": "https://dc.lft.to/lastmile_qr_scan"}, "lon": -77.01016333333334, "type": "electric_scooter"}, {"bike_id": "30c6db3e379fb21e48e8870978aca622", "is_reserved": 0, "fusion_lon": 0.0, "lat": 38.925476833333335, "is_disabled": 0, "name": "30c6db3e379fb21e48e8870978aca622", "fusion_lat": 0.0, "rental_uris": {"ios": "https://dc.lft.to/lastmile_qr_scan", "android": "https://dc.lft.to/lastmile_qr_scan"}, "lon": -77.04252233333334, "type": "electric_scooter"}, {"bike_id": "29567e5a70a9f28f9308ddbff0818917", "is_reserved": 0, "fusion_lon": 0.0, "lat": 38.92548033333333, "is_disabled": 0, "name": "29567e5a70a9f28f9308ddbff0818917", "fusion_lat": 0.0, "rental_uris": {"ios": "https://dc.lft.to/lastmile_qr_scan", "android": "https://dc.lft.to/lastmile_qr_scan"}, "lon": -76.98136233333334, "type": "electric_scooter"}, {"bike_id": "b22d1fd6da9a7f20d02ddba46d371a93", "is_reserved": 0, "fusion_lon": 0.0, "lat": 38.91101916666667, "is_disabled": 0, "name": "b22d1fd6da9a7f20d02ddba46d371a93", "fusion_lat": 0.0, "rental_uris": {"ios": "https://dc.lft.to/lastmile_qr_scan", "android": "https://dc.lft.to/lastmile_qr_scan"}, "lon": -77.02201966666667, "type": "electric_scooter"}, {"bike_id": "fc2d554cf4a1e5f69a0677d58e0dda2a", "is_reserved": 0, "fusion_lon": 0.0, "lat": 38.91049816666667, "is_disabled": 0, "name": "fc2d554cf4a1e5f69a0677d58e0dda2a", "fusion_lat": 0.0, "rental_uris": {"ios": "https://dc.lft.to/lastmile_qr_scan", "android": "https://dc.lft.to/lastmile_qr_scan"}, "lon": -77.01510566666667, "type": "electric_scooter"}, {"bike_id": "87f989e52196884cad605c71efb8f9bf", "is_reserved": 0, "fusion_lon": 0.0, "lat": 38.90793816666667, "is_disabled": 0, "name": "87f989e52196884cad605c71efb8f9bf", "fusion_lat": 0.0, "rental_uris": {"ios": "https://dc.lft.to/lastmile_qr_scan", "android": "https://dc.lft.to/lastmile_qr_scan"}, "lon": -77.04875566666666, "type": "electric_scooter"}, {"bike_id": "18c1386f04e6126fae9e2888e79d45e9", "is_reserved": 0, "fusion_lon": 0.0, "lat": 38.945147666666664, "is_disabled": 0, "name": "18c1386f04e6126fae9e2888e79d45e9", "fusion_lat": 0.0, "rental_uris": {"ios": "https://dc.lft.to/lastmile_qr_scan", "android": "https://dc.lft.to/lastmile_qr_scan"}, "lon": -77.0336535, "type": "electric_scooter"}, {"bike_id": "987522f7d3a8457c9dfa822c0732b4bf", "is_reserved": 0, "fusion_lon": 0.0, "lat": 38.92547183333333, "is_disabled": 0, "name": "987522f7d3a8457c9dfa822c0732b4bf", "fusion_lat": 0.0, "rental_uris": {"ios": "https://dc.lft.to/lastmile_qr_scan", "android": "https://dc.lft.to/lastmile_qr_scan"}, "lon": -77.03353933333334, "type": "electric_scooter"}, {"bike_id": "c6855eb1505ae7f313cb4ddd009ba184", "is_reserved": 0, "fusion_lon": 0.0, "lat": 38.91573533333333, "is_disabled": 0, "name": "c6855eb1505ae7f313cb4ddd009ba184", "fusion_lat": 0.0, "rental_uris": {"ios": "https://dc.lft.to/lastmile_qr_scan", "android": "https://dc.lft.to/lastmile_qr_scan"}, "lon": -77.04698766666667, "type": "electric_scooter"}, {"bike_id": "cc143ccce9e1367cc8dd404a53035095", "is_reserved": 0, "fusion_lon": 0.0, "lat": 38.97877883333334, "is_disabled": 0, "name": "cc143ccce9e1367cc8dd404a53035095", "fusion_lat": 0.0, "rental_uris": {"ios": "https://dc.lft.to/lastmile_qr_scan", "android": "https://dc.lft.to/lastmile_qr_scan"}, "lon": -77.02552233333333, "type": "electric_scooter"}, {"bike_id": "9de1d11daaeccf5f4a227937c655735c", "is_reserved": 0, "fusion_lon": 0.0, "lat": 38.889938, "is_disabled": 0, "name": "9de1d11daaeccf5f4a227937c655735c", "fusion_lat": 0.0, "rental_uris": {"ios": "https://dc.lft.to/lastmile_qr_scan", "android": "https://dc.lft.to/lastmile_qr_scan"}, "lon": -76.94704933333334, "type": "electric_scooter"}, {"bike_id": "696bcb341a98d7bea3132969ca3b1c4a", "is_reserved": 0, "fusion_lon": 0.0, "lat": 38.89966866666666, "is_disabled": 0, "name": "696bcb341a98d7bea3132969ca3b1c4a", "fusion_lat": 0.0, "rental_uris": {"ios": "https://dc.lft.to/lastmile_qr_scan", "android": "https://dc.lft.to/lastmile_qr_scan"}, "lon": -76.98674383333334, "type": "electric_bike"}, {"bike_id": "d0dce499f07800bac934c3575b40da10", "is_reserved": 0, "fusion_lon": 0.0, "lat": 38.924534, "is_disabled": 0, "name": "d0dce499f07800bac934c3575b40da10", "fusion_lat": 0.0, "rental_uris": {"ios": "https://dc.lft.to/lastmile_qr_scan", "android": "https://dc.lft.to/lastmile_qr_scan"}, "lon": -77.02030116666667, "type": "electric_scooter"}, {"bike_id": "9d8c8628eb97270d762dc1825e058bc3", "is_reserved": 0, "fusion_lon": 0.0, "lat": 38.864613166666665, "is_disabled": 0, "name": "9d8c8628eb97270d762dc1825e058bc3", "fusion_lat": 0.0, "rental_uris": {"ios": "https://dc.lft.to/lastmile_qr_scan", "android": "https://dc.lft.to/lastmile_qr_scan"}, "lon": -76.98265, "type": "electric_scooter"}, {"bike_id": "53fb8ac5806a424b5ccf3ed64b75e803", "is_reserved": 0, "fusion_lon": 0.0, "lat": 38.91195416666667, "is_disabled": 0, "name": "53fb8ac5806a424b5ccf3ed64b75e803", "fusion_lat": 0.0, "rental_uris": {"ios": "https://dc.lft.to/lastmile_qr_scan", "android": "https://dc.lft.to/lastmile_qr_scan"}, "lon": -77.01210766666667, "type": "electric_scooter"}, {"bike_id": "54ab60e022239533ea0b77fdae46b3c8", "is_reserved": 0, "fusion_lon": 0.0, "lat": 38.93654, "is_disabled": 0, "name": "54ab60e022239533ea0b77fdae46b3c8", "fusion_lat": 0.0, "rental_uris": {"ios": "https://dc.lft.to/lastmile_qr_scan", "android": "https://dc.lft.to/lastmile_qr_scan"}, "lon": -77.03671933333334, "type": "electric_scooter"}, {"bike_id": "a64040d297b4d5fc1b30a5eda5e1c4cf", "is_reserved": 0, "fusion_lon": 0.0, "lat": 38.91695816666667, "is_disabled": 0, "name": "a64040d297b4d5fc1b30a5eda5e1c4cf", "fusion_lat": 0.0, "rental_uris": {"ios": "https://dc.lft.to/lastmile_qr_scan", "android": "https://dc.lft.to/lastmile_qr_scan"}, "lon": -77.03487366666667, "type": "electric_scooter"}, {"bike_id": "2275d1b16fc83ab9f805b06a61c4c264", "is_reserved": 0, "fusion_lon": 0.0, "lat": 38.94205316666667, "is_disabled": 0, "name": "2275d1b16fc83ab9f805b06a61c4c264", "fusion_lat": 0.0, "rental_uris": {"ios": "https://dc.lft.to/lastmile_qr_scan", "android": "https://dc.lft.to/lastmile_qr_scan"}, "lon": -77.0182875, "type": "electric_bike"}, {"bike_id": "0d12b87b36ce6cd70ef6905fd469cb91", "is_reserved": 0, "fusion_lon": 0.0, "lat": 38.832398833333336, "is_disabled": 0, "name": "0d12b87b36ce6cd70ef6905fd469cb91", "fusion_lat": 0.0, "rental_uris": {"ios": "https://dc.lft.to/lastmile_qr_scan", "android": "https://dc.lft.to/lastmile_qr_scan"}, "lon": -76.94622466666667, "type": "electric_bike"}, {"bike_id": "86448754709cab0d4d4e656f56714832", "is_reserved": 0, "fusion_lon": 0.0, "lat": 38.909176, "is_disabled": 0, "name": "86448754709cab0d4d4e656f56714832", "fusion_lat": 0.0, "rental_uris": {"ios": "https://dc.lft.to/lastmile_qr_scan", "android": "https://dc.lft.to/lastmile_qr_scan"}, "lon": -77.04408066666667, "type": "electric_scooter"}, {"bike_id": "e859d248dfc7309bce4c46112774ff1e", "is_reserved": 0, "fusion_lon": 0.0, "lat": 38.8984695, "is_disabled": 0, "name": "e859d248dfc7309bce4c46112774ff1e", "fusion_lat": 0.0, "rental_uris": {"ios": "https://dc.lft.to/lastmile_qr_scan", "android": "https://dc.lft.to/lastmile_qr_scan"}, "lon": -77.0073975, "type": "electric_scooter"}, {"bike_id": "c17d386dd66553334c779272a1ec1e59", "is_reserved": 0, "fusion_lon": 0.0, "lat": 38.873856, "is_disabled": 0, "name": "c17d386dd66553334c779272a1ec1e59", "fusion_lat": 0.0, "rental_uris": {"ios": "https://dc.lft.to/lastmile_qr_scan", "android": "https://dc.lft.to/lastmile_qr_scan"}, "lon": -77.0009125, "type": "electric_scooter"}, {"bike_id": "e021591154ddb75a356d1e79db7d122d", "is_reserved": 0, "fusion_lon": 0.0, "lat": 38.893263833333336, "is_disabled": 0, "name": "e021591154ddb75a356d1e79db7d122d", "fusion_lat": 0.0, "rental_uris": {"ios": "https://dc.lft.to/lastmile_qr_scan", "android": "https://dc.lft.to/lastmile_qr_scan"}, "lon": -76.929909, "type": "electric_scooter"}, {"bike_id": "2ae1431da63eacdcad9cdcd1512cd798", "is_reserved": 0, "fusion_lon": 0.0, "lat": 38.90861916666667, "is_disabled": 0, "name": "2ae1431da63eacdcad9cdcd1512cd798", "fusion_lat": 0.0, "rental_uris": {"ios": "https://dc.lft.to/lastmile_qr_scan", "android": "https://dc.lft.to/lastmile_qr_scan"}, "lon": -77.05536783333334, "type": "electric_bike"}, {"bike_id": "770c52779c5a260de78886f5d5e9768c", "is_reserved": 0, "fusion_lon": 0.0, "lat": 38.9050775, "is_disabled": 0, "name": "770c52779c5a260de78886f5d5e9768c", "fusion_lat": 0.0, "rental_uris": {"ios": "https://dc.lft.to/lastmile_qr_scan", "android": "https://dc.lft.to/lastmile_qr_scan"}, "lon": -77.0513165, "type": "electric_scooter"}, {"bike_id": "a1f5b3317d302f52c78ec75a86e5c84f", "is_reserved": 0, "fusion_lon": 0.0, "lat": 38.9172045, "is_disabled": 0, "name": "a1f5b3317d302f52c78ec75a86e5c84f", "fusion_lat": 0.0, "rental_uris": {"ios": "https://dc.lft.to/lastmile_qr_scan", "android": "https://dc.lft.to/lastmile_qr_scan"}, "lon": -77.03175, "type": "electric_scooter"}, {"bike_id": "000b3173d6b8f066a5a4992a774b1dbd", "is_reserved": 0, "fusion_lon": 0.0, "lat": 38.915659, "is_disabled": 0, "name": "000b3173d6b8f066a5a4992a774b1dbd", "fusion_lat": 0.0, "rental_uris": {"ios": "https://dc.lft.to/lastmile_qr_scan", "android": "https://dc.lft.to/lastmile_qr_scan"}, "lon": -77.02154816666666, "type": "electric_scooter"}, {"bike_id": "5c27f592bab04d910c9ff7342a45c701", "is_reserved": 0, "fusion_lon": 0.0, "lat": 38.89841966666667, "is_disabled": 0, "name": "5c27f592bab04d910c9ff7342a45c701", "fusion_lat": 0.0, "rental_uris": {"ios": "https://dc.lft.to/lastmile_qr_scan", "android": "https://dc.lft.to/lastmile_qr_scan"}, "lon": -77.03270433333333, "type": "electric_scooter"}, {"bike_id": "9a45ea79119b62dd708fa29f08598e33", "is_reserved": 0, "fusion_lon": 0.0, "lat": 38.8973255, "is_disabled": 0, "name": "9a45ea79119b62dd708fa29f08598e33", "fusion_lat": 0.0, "rental_uris": {"ios": "https://dc.lft.to/lastmile_qr_scan", "android": "https://dc.lft.to/lastmile_qr_scan"}, "lon": -77.05575716666667, "type": "electric_scooter"}, {"bike_id": "e497369e4758c9e32285572d15154128", "is_reserved": 0, "fusion_lon": 0.0, "lat": 38.903679, "is_disabled": 0, "name": "e497369e4758c9e32285572d15154128", "fusion_lat": 0.0, "rental_uris": {"ios": "https://dc.lft.to/lastmile_qr_scan", "android": "https://dc.lft.to/lastmile_qr_scan"}, "lon": -77.043425, "type": "electric_scooter"}, {"bike_id": "82693c7084df051b45cd43a192446318", "is_reserved": 0, "fusion_lon": 0.0, "lat": 38.914601, "is_disabled": 0, "name": "82693c7084df051b45cd43a192446318", "fusion_lat": 0.0, "rental_uris": {"ios": "https://dc.lft.to/lastmile_qr_scan", "android": "https://dc.lft.to/lastmile_qr_scan"}, "lon": -77.0220275, "type": "electric_scooter"}, {"bike_id": "7756c86698d9fe52b14d194c74f0d0ee", "is_reserved": 0, "fusion_lon": 0.0, "lat": 38.926572666666665, "is_disabled": 0, "name": "7756c86698d9fe52b14d194c74f0d0ee", "fusion_lat": 0.0, "rental_uris": {"ios": "https://dc.lft.to/lastmile_qr_scan", "android": "https://dc.lft.to/lastmile_qr_scan"}, "lon": -76.99553733333333, "type": "electric_scooter"}, {"bike_id": "5a417e7066b0650b86ff63c40873b656", "is_reserved": 0, "fusion_lon": 0.0, "lat": 38.8763105, "is_disabled": 0, "name": "5a417e7066b0650b86ff63c40873b656", "fusion_lat": 0.0, "rental_uris": {"ios": "https://dc.lft.to/lastmile_qr_scan", "android": "https://dc.lft.to/lastmile_qr_scan"}, "lon": -76.96526533333333, "type": "electric_scooter"}, {"bike_id": "c154c2895a5f4385c67520ea316e5657", "is_reserved": 0, "fusion_lon": 0.0, "lat": 38.900235, "is_disabled": 0, "name": "c154c2895a5f4385c67520ea316e5657", "fusion_lat": 0.0, "rental_uris": {"ios": "https://dc.lft.to/lastmile_qr_scan", "android": "https://dc.lft.to/lastmile_qr_scan"}, "lon": -77.000447, "type": "electric_scooter"}, {"bike_id": "ecfe720782104348232f0827d801ebd3", "is_reserved": 0, "fusion_lon": 0.0, "lat": 38.930919833333334, "is_disabled": 0, "name": "ecfe720782104348232f0827d801ebd3", "fusion_lat": 0.0, "rental_uris": {"ios": "https://dc.lft.to/lastmile_qr_scan", "android": "https://dc.lft.to/lastmile_qr_scan"}, "lon": -76.96718416666667, "type": "electric_scooter"}, {"bike_id": "1d0056cefce3604235206b9b0428662b", "is_reserved": 0, "fusion_lon": 0.0, "lat": 38.92186433333333, "is_disabled": 0, "name": "1d0056cefce3604235206b9b0428662b", "fusion_lat": 0.0, "rental_uris": {"ios": "https://dc.lft.to/lastmile_qr_scan", "android": "https://dc.lft.to/lastmile_qr_scan"}, "lon": -77.01835216666667, "type": "electric_scooter"}, {"bike_id": "d4de720ea8869850730bc089ce1e4432", "is_reserved": 0, "fusion_lon": 0.0, "lat": 38.904738333333334, "is_disabled": 0, "name": "d4de720ea8869850730bc089ce1e4432", "fusion_lat": 0.0, "rental_uris": {"ios": "https://dc.lft.to/lastmile_qr_scan", "android": "https://dc.lft.to/lastmile_qr_scan"}, "lon": -77.06004216666666, "type": "electric_scooter"}, {"bike_id": "b66e75f2e4853e164a077393898ec053", "is_reserved": 0, "fusion_lon": 0.0, "lat": 38.90141416666667, "is_disabled": 0, "name": "b66e75f2e4853e164a077393898ec053", "fusion_lat": 0.0, "rental_uris": {"ios": "https://dc.lft.to/lastmile_qr_scan", "android": "https://dc.lft.to/lastmile_qr_scan"}, "lon": -76.99792333333333, "type": "electric_scooter"}, {"bike_id": "b418094eb1451f11ffcf0ddc1b83e7d1", "is_reserved": 0, "fusion_lon": 0.0, "lat": 38.99088066666667, "is_disabled": 0, "name": "b418094eb1451f11ffcf0ddc1b83e7d1", "fusion_lat": 0.0, "rental_uris": {"ios": "https://dc.lft.to/lastmile_qr_scan", "android": "https://dc.lft.to/lastmile_qr_scan"}, "lon": -76.87497783333333, "type": "electric_bike"}, {"bike_id": "52f6df23d9e9b1d31d7e8de75907564d", "is_reserved": 0, "fusion_lon": 0.0, "lat": 38.92477483333333, "is_disabled": 0, "name": "52f6df23d9e9b1d31d7e8de75907564d", "fusion_lat": 0.0, "rental_uris": {"ios": "https://dc.lft.to/lastmile_qr_scan", "android": "https://dc.lft.to/lastmile_qr_scan"}, "lon": -77.0521235, "type": "electric_scooter"}, {"bike_id": "b0fa112021cfd8579826fc07ebfc01eb", "is_reserved": 0, "fusion_lon": 0.0, "lat": 39.030417, "is_disabled": 0, "name": "b0fa112021cfd8579826fc07ebfc01eb", "fusion_lat": 0.0, "rental_uris": {"ios": "https://dc.lft.to/lastmile_qr_scan", "android": "https://dc.lft.to/lastmile_qr_scan"}, "lon": -77.09479966666666, "type": "electric_bike"}, {"bike_id": "fb5aafb8d5c58f5dbe7bcc528cdd42ec", "is_reserved": 0, "fusion_lon": 0.0, "lat": 38.9098115, "is_disabled": 0, "name": "fb5aafb8d5c58f5dbe7bcc528cdd42ec", "fusion_lat": 0.0, "rental_uris": {"ios": "https://dc.lft.to/lastmile_qr_scan", "android": "https://dc.lft.to/lastmile_qr_scan"}, "lon": -77.06714333333333, "type": "electric_scooter"}, {"bike_id": "31a97ed7e6b0d2d64291e4af0cc36537", "is_reserved": 0, "fusion_lon": 0.0, "lat": 38.87483666666667, "is_disabled": 0, "name": "31a97ed7e6b0d2d64291e4af0cc36537", "fusion_lat": 0.0, "rental_uris": {"ios": "https://dc.lft.to/lastmile_qr_scan", "android": "https://dc.lft.to/lastmile_qr_scan"}, "lon": -77.00184116666667, "type": "electric_scooter"}, {"bike_id": "da698efdca859ded977befc6f7801191", "is_reserved": 0, "fusion_lon": 0.0, "lat": 38.91884816666666, "is_disabled": 0, "name": "da698efdca859ded977befc6f7801191", "fusion_lat": 0.0, "rental_uris": {"ios": "https://dc.lft.to/lastmile_qr_scan", "android": "https://dc.lft.to/lastmile_qr_scan"}, "lon": -76.97165933333333, "type": "electric_scooter"}, {"bike_id": "cbc0625930fd513fc79ea74f561fa24c", "is_reserved": 0, "fusion_lon": 0.0, "lat": 38.88283583333333, "is_disabled": 0, "name": "cbc0625930fd513fc79ea74f561fa24c", "fusion_lat": 0.0, "rental_uris": {"ios": "https://dc.lft.to/lastmile_qr_scan", "android": "https://dc.lft.to/lastmile_qr_scan"}, "lon": -77.0415895, "type": "electric_scooter"}, {"bike_id": "2b6e97c87111e7bac6a805c4f0189989", "is_reserved": 0, "fusion_lon": 0.0, "lat": 38.90265933333333, "is_disabled": 0, "name": "2b6e97c87111e7bac6a805c4f0189989", "fusion_lat": 0.0, "rental_uris": {"ios": "https://dc.lft.to/lastmile_qr_scan", "android": "https://dc.lft.to/lastmile_qr_scan"}, "lon": -77.03849383333333, "type": "electric_scooter"}, {"bike_id": "e5e0de4ba8b03d24129150de51794f9b", "is_reserved": 0, "fusion_lon": 0.0, "lat": 38.92620683333333, "is_disabled": 0, "name": "e5e0de4ba8b03d24129150de51794f9b", "fusion_lat": 0.0, "rental_uris": {"ios": "https://dc.lft.to/lastmile_qr_scan", "android": "https://dc.lft.to/lastmile_qr_scan"}, "lon": -77.00565, "type": "electric_scooter"}, {"bike_id": "f85b9b499f88fea2ba484833fcf9fd25", "is_reserved": 0, "fusion_lon": 0.0, "lat": 38.8636375, "is_disabled": 0, "name": "f85b9b499f88fea2ba484833fcf9fd25", "fusion_lat": 0.0, "rental_uris": {"ios": "https://dc.lft.to/lastmile_qr_scan", "android": "https://dc.lft.to/lastmile_qr_scan"}, "lon": -76.990322, "type": "electric_scooter"}, {"bike_id": "c41fb7cd04f06c8e00f454a7df3eadcd", "is_reserved": 0, "fusion_lon": 0.0, "lat": 38.8991995, "is_disabled": 0, "name": "c41fb7cd04f06c8e00f454a7df3eadcd", "fusion_lat": 0.0, "rental_uris": {"ios": "https://dc.lft.to/lastmile_qr_scan", "android": "https://dc.lft.to/lastmile_qr_scan"}, "lon": -77.05433733333334, "type": "electric_scooter"}, {"bike_id": "68cc0d1d29a558e7fa7527ee19518caa", "is_reserved": 0, "fusion_lon": 0.0, "lat": 38.94614583333333, "is_disabled": 0, "name": "68cc0d1d29a558e7fa7527ee19518caa", "fusion_lat": 0.0, "rental_uris": {"ios": "https://dc.lft.to/lastmile_qr_scan", "android": "https://dc.lft.to/lastmile_qr_scan"}, "lon": -77.03512216666667, "type": "electric_scooter"}, {"bike_id": "a96425b3945a244a35c532d83371be4f", "is_reserved": 0, "fusion_lon": 0.0, "lat": 38.908588, "is_disabled": 0, "name": "a96425b3945a244a35c532d83371be4f", "fusion_lat": 0.0, "rental_uris": {"ios": "https://dc.lft.to/lastmile_qr_scan", "android": "https://dc.lft.to/lastmile_qr_scan"}, "lon": -77.02452583333333, "type": "electric_scooter"}, {"bike_id": "0d8404dacb97fb4ef940d94b2e261d0d", "is_reserved": 0, "fusion_lon": 0.0, "lat": 38.8883705, "is_disabled": 0, "name": "0d8404dacb97fb4ef940d94b2e261d0d", "fusion_lat": 0.0, "rental_uris": {"ios": "https://dc.lft.to/lastmile_qr_scan", "android": "https://dc.lft.to/lastmile_qr_scan"}, "lon": -77.0491195, "type": "electric_scooter"}, {"bike_id": "f3934ab72f16babaf9f8936d0c3b1f50", "is_reserved": 0, "fusion_lon": 0.0, "lat": 38.922493, "is_disabled": 0, "name": "f3934ab72f16babaf9f8936d0c3b1f50", "fusion_lat": 0.0, "rental_uris": {"ios": "https://dc.lft.to/lastmile_qr_scan", "android": "https://dc.lft.to/lastmile_qr_scan"}, "lon": -77.03071433333334, "type": "electric_scooter"}, {"bike_id": "e817262fe49d578c12b217b0eb77d185", "is_reserved": 0, "fusion_lon": 0.0, "lat": 38.943246, "is_disabled": 0, "name": "e817262fe49d578c12b217b0eb77d185", "fusion_lat": 0.0, "rental_uris": {"ios": "https://dc.lft.to/lastmile_qr_scan", "android": "https://dc.lft.to/lastmile_qr_scan"}, "lon": -77.073912, "type": "electric_scooter"}, {"bike_id": "4001aa665b75b221f6af10037d6a0a47", "is_reserved": 0, "fusion_lon": 0.0, "lat": 38.9364275, "is_disabled": 0, "name": "4001aa665b75b221f6af10037d6a0a47", "fusion_lat": 0.0, "rental_uris": {"ios": "https://dc.lft.to/lastmile_qr_scan", "android": "https://dc.lft.to/lastmile_qr_scan"}, "lon": -77.02086133333333, "type": "electric_scooter"}, {"bike_id": "bca577f5035d673e5fe2f79ae05414ad", "is_reserved": 0, "fusion_lon": 0.0, "lat": 38.923205333333335, "is_disabled": 0, "name": "bca577f5035d673e5fe2f79ae05414ad", "fusion_lat": 0.0, "rental_uris": {"ios": "https://dc.lft.to/lastmile_qr_scan", "android": "https://dc.lft.to/lastmile_qr_scan"}, "lon": -77.0412875, "type": "electric_scooter"}, {"bike_id": "21cf2a54f546485656a2b7c34556aa2e", "is_reserved": 0, "fusion_lon": 0.0, "lat": 38.900508, "is_disabled": 0, "name": "21cf2a54f546485656a2b7c34556aa2e", "fusion_lat": 0.0, "rental_uris": {"ios": "https://dc.lft.to/lastmile_qr_scan", "android": "https://dc.lft.to/lastmile_qr_scan"}, "lon": -77.00202, "type": "electric_scooter"}, {"bike_id": "739618aa5eaef60ae503343d03734507", "is_reserved": 0, "fusion_lon": 0.0, "lat": 38.87922116666667, "is_disabled": 0, "name": "739618aa5eaef60ae503343d03734507", "fusion_lat": 0.0, "rental_uris": {"ios": "https://dc.lft.to/lastmile_qr_scan", "android": "https://dc.lft.to/lastmile_qr_scan"}, "lon": -76.99254133333334, "type": "electric_scooter"}, {"bike_id": "7103859d7bc7cbeec5cc9e4701322a6f", "is_reserved": 0, "fusion_lon": 0.0, "lat": 38.93554916666667, "is_disabled": 0, "name": "7103859d7bc7cbeec5cc9e4701322a6f", "fusion_lat": 0.0, "rental_uris": {"ios": "https://dc.lft.to/lastmile_qr_scan", "android": "https://dc.lft.to/lastmile_qr_scan"}, "lon": -77.0271885, "type": "electric_scooter"}, {"bike_id": "fa872874d81c9f7673797d0705eb7607", "is_reserved": 0, "fusion_lon": 0.0, "lat": 38.9443775, "is_disabled": 0, "name": "fa872874d81c9f7673797d0705eb7607", "fusion_lat": 0.0, "rental_uris": {"ios": "https://dc.lft.to/lastmile_qr_scan", "android": "https://dc.lft.to/lastmile_qr_scan"}, "lon": -77.06349916666667, "type": "electric_scooter"}, {"bike_id": "23e4ded04d3557ee9de03ddac33d956b", "is_reserved": 0, "fusion_lon": 0.0, "lat": 38.925497, "is_disabled": 0, "name": "23e4ded04d3557ee9de03ddac33d956b", "fusion_lat": 0.0, "rental_uris": {"ios": "https://dc.lft.to/lastmile_qr_scan", "android": "https://dc.lft.to/lastmile_qr_scan"}, "lon": -77.05765283333334, "type": "electric_bike"}, {"bike_id": "75ba8428908be52a30787bc2b3f95353", "is_reserved": 0, "fusion_lon": 0.0, "lat": 38.912973, "is_disabled": 0, "name": "75ba8428908be52a30787bc2b3f95353", "fusion_lat": 0.0, "rental_uris": {"ios": "https://dc.lft.to/lastmile_qr_scan", "android": "https://dc.lft.to/lastmile_qr_scan"}, "lon": -77.08296216666666, "type": "electric_bike"}, {"bike_id": "4c40e29a761aab071cb54f595cb68fdb", "is_reserved": 0, "fusion_lon": 0.0, "lat": 38.919224166666666, "is_disabled": 0, "name": "4c40e29a761aab071cb54f595cb68fdb", "fusion_lat": 0.0, "rental_uris": {"ios": "https://dc.lft.to/lastmile_qr_scan", "android": "https://dc.lft.to/lastmile_qr_scan"}, "lon": -77.03429216666666, "type": "electric_scooter"}, {"bike_id": "ce1e3a1afeec647c58d44080edb2e681", "is_reserved": 0, "fusion_lon": 0.0, "lat": 38.91334833333333, "is_disabled": 0, "name": "ce1e3a1afeec647c58d44080edb2e681", "fusion_lat": 0.0, "rental_uris": {"ios": "https://dc.lft.to/lastmile_qr_scan", "android": "https://dc.lft.to/lastmile_qr_scan"}, "lon": -77.04815616666667, "type": "electric_scooter"}, {"bike_id": "efbd35f5cf6f848d343e33589d5f726b", "is_reserved": 0, "fusion_lon": 0.0, "lat": 38.93855633333333, "is_disabled": 0, "name": "efbd35f5cf6f848d343e33589d5f726b", "fusion_lat": 0.0, "rental_uris": {"ios": "https://dc.lft.to/lastmile_qr_scan", "android": "https://dc.lft.to/lastmile_qr_scan"}, "lon": -77.02452366666667, "type": "electric_scooter"}, {"bike_id": "31a9ae145a0c634880ada7281a87489f", "is_reserved": 0, "fusion_lon": 0.0, "lat": 38.916897666666664, "is_disabled": 0, "name": "31a9ae145a0c634880ada7281a87489f", "fusion_lat": 0.0, "rental_uris": {"ios": "https://dc.lft.to/lastmile_qr_scan", "android": "https://dc.lft.to/lastmile_qr_scan"}, "lon": -77.02690483333333, "type": "electric_bike"}, {"bike_id": "c8bda25fbae3dbb534af8b459b36e045", "is_reserved": 0, "fusion_lon": 0.0, "lat": 38.91218333333333, "is_disabled": 0, "name": "c8bda25fbae3dbb534af8b459b36e045", "fusion_lat": 0.0, "rental_uris": {"ios": "https://dc.lft.to/lastmile_qr_scan", "android": "https://dc.lft.to/lastmile_qr_scan"}, "lon": -77.02797166666667, "type": "electric_scooter"}, {"bike_id": "7a16e0606312562332061e21796c1c76", "is_reserved": 0, "fusion_lon": 0.0, "lat": 38.903421333333334, "is_disabled": 0, "name": "7a16e0606312562332061e21796c1c76", "fusion_lat": 0.0, "rental_uris": {"ios": "https://dc.lft.to/lastmile_qr_scan", "android": "https://dc.lft.to/lastmile_qr_scan"}, "lon": -77.02992316666666, "type": "electric_scooter"}, {"bike_id": "ca9ac2373db468826cb9effb7eeda856", "is_reserved": 0, "fusion_lon": 0.0, "lat": 38.92860016666667, "is_disabled": 0, "name": "ca9ac2373db468826cb9effb7eeda856", "fusion_lat": 0.0, "rental_uris": {"ios": "https://dc.lft.to/lastmile_qr_scan", "android": "https://dc.lft.to/lastmile_qr_scan"}, "lon": -77.03711933333334, "type": "electric_scooter"}, {"bike_id": "47c0efc6692804f761734ee7acf27cdd", "is_reserved": 0, "fusion_lon": 0.0, "lat": 38.917481, "is_disabled": 0, "name": "47c0efc6692804f761734ee7acf27cdd", "fusion_lat": 0.0, "rental_uris": {"ios": "https://dc.lft.to/lastmile_qr_scan", "android": "https://dc.lft.to/lastmile_qr_scan"}, "lon": -77.01717433333333, "type": "electric_scooter"}, {"bike_id": "e1fe9ff728115b2e770775bc76d10bd0", "is_reserved": 0, "fusion_lon": 0.0, "lat": 38.9097035, "is_disabled": 0, "name": "e1fe9ff728115b2e770775bc76d10bd0", "fusion_lat": 0.0, "rental_uris": {"ios": "https://dc.lft.to/lastmile_qr_scan", "android": "https://dc.lft.to/lastmile_qr_scan"}, "lon": -77.034717, "type": "electric_scooter"}, {"bike_id": "5b78256a0a421581cc8583096a546093", "is_reserved": 0, "fusion_lon": 0.0, "lat": 38.90614516666667, "is_disabled": 0, "name": "5b78256a0a421581cc8583096a546093", "fusion_lat": 0.0, "rental_uris": {"ios": "https://dc.lft.to/lastmile_qr_scan", "android": "https://dc.lft.to/lastmile_qr_scan"}, "lon": -77.03884683333334, "type": "electric_scooter"}, {"bike_id": "23b0da5e69b182f9b13a80720097315d", "is_reserved": 0, "fusion_lon": 0.0, "lat": 38.9096735, "is_disabled": 0, "name": "23b0da5e69b182f9b13a80720097315d", "fusion_lat": 0.0, "rental_uris": {"ios": "https://dc.lft.to/lastmile_qr_scan", "android": "https://dc.lft.to/lastmile_qr_scan"}, "lon": -77.04028166666667, "type": "electric_scooter"}, {"bike_id": "c0d53cfc3d1a842386f48be736954cee", "is_reserved": 0, "fusion_lon": 0.0, "lat": 38.957327166666666, "is_disabled": 0, "name": "c0d53cfc3d1a842386f48be736954cee", "fusion_lat": 0.0, "rental_uris": {"ios": "https://dc.lft.to/lastmile_qr_scan", "android": "https://dc.lft.to/lastmile_qr_scan"}, "lon": -77.0239335, "type": "electric_scooter"}, {"bike_id": "2a51ae521b4eb57d5f6f1ffb47a54de0", "is_reserved": 0, "fusion_lon": 0.0, "lat": 38.90678233333333, "is_disabled": 0, "name": "2a51ae521b4eb57d5f6f1ffb47a54de0", "fusion_lat": 0.0, "rental_uris": {"ios": "https://dc.lft.to/lastmile_qr_scan", "android": "https://dc.lft.to/lastmile_qr_scan"}, "lon": -77.06281633333333, "type": "electric_bike"}, {"bike_id": "d5527dd8de8aff2ebe6396d7bd3fb696", "is_reserved": 0, "fusion_lon": 0.0, "lat": 38.91718266666667, "is_disabled": 0, "name": "d5527dd8de8aff2ebe6396d7bd3fb696", "fusion_lat": 0.0, "rental_uris": {"ios": "https://dc.lft.to/lastmile_qr_scan", "android": "https://dc.lft.to/lastmile_qr_scan"}, "lon": -77.02384583333334, "type": "electric_scooter"}, {"bike_id": "c9f4e1c40c1c5ec8cdfd02b5bbd6345c", "is_reserved": 0, "fusion_lon": 0.0, "lat": 38.9034835, "is_disabled": 0, "name": "c9f4e1c40c1c5ec8cdfd02b5bbd6345c", "fusion_lat": 0.0, "rental_uris": {"ios": "https://dc.lft.to/lastmile_qr_scan", "android": "https://dc.lft.to/lastmile_qr_scan"}, "lon": -77.0389905, "type": "electric_scooter"}, {"bike_id": "a6c9490a0cc4f972d036510af5c9f8b1", "is_reserved": 0, "fusion_lon": 0.0, "lat": 38.900798, "is_disabled": 0, "name": "a6c9490a0cc4f972d036510af5c9f8b1", "fusion_lat": 0.0, "rental_uris": {"ios": "https://dc.lft.to/lastmile_qr_scan", "android": "https://dc.lft.to/lastmile_qr_scan"}, "lon": -77.05063016666666, "type": "electric_scooter"}, {"bike_id": "1cf7123d23e1b0e4c58b797688a419f3", "is_reserved": 0, "fusion_lon": 0.0, "lat": 38.91996816666666, "is_disabled": 0, "name": "1cf7123d23e1b0e4c58b797688a419f3", "fusion_lat": 0.0, "rental_uris": {"ios": "https://dc.lft.to/lastmile_qr_scan", "android": "https://dc.lft.to/lastmile_qr_scan"}, "lon": -76.97302516666667, "type": "electric_scooter"}, {"bike_id": "0c04e5c0cd22ba7bb54a8375d48ef5f1", "is_reserved": 0, "fusion_lon": 0.0, "lat": 38.8864535, "is_disabled": 0, "name": "0c04e5c0cd22ba7bb54a8375d48ef5f1", "fusion_lat": 0.0, "rental_uris": {"ios": "https://dc.lft.to/lastmile_qr_scan", "android": "https://dc.lft.to/lastmile_qr_scan"}, "lon": -77.02137666666667, "type": "electric_scooter"}, {"bike_id": "d519f47ca2fb4223f884fea5c01437db", "is_reserved": 0, "fusion_lon": 0.0, "lat": 38.91030416666667, "is_disabled": 0, "name": "d519f47ca2fb4223f884fea5c01437db", "fusion_lat": 0.0, "rental_uris": {"ios": "https://dc.lft.to/lastmile_qr_scan", "android": "https://dc.lft.to/lastmile_qr_scan"}, "lon": -77.02208383333334, "type": "electric_scooter"}, {"bike_id": "e9ea0ab9267aa6c14bc7cc4d55c34ad3", "is_reserved": 0, "fusion_lon": 0.0, "lat": 38.919802, "is_disabled": 0, "name": "e9ea0ab9267aa6c14bc7cc4d55c34ad3", "fusion_lat": 0.0, "rental_uris": {"ios": "https://dc.lft.to/lastmile_qr_scan", "android": "https://dc.lft.to/lastmile_qr_scan"}, "lon": -77.04166383333333, "type": "electric_scooter"}, {"bike_id": "64dbd68228c515e39d661abea4e1a933", "is_reserved": 0, "fusion_lon": 0.0, "lat": 38.91106416666667, "is_disabled": 0, "name": "64dbd68228c515e39d661abea4e1a933", "fusion_lat": 0.0, "rental_uris": {"ios": "https://dc.lft.to/lastmile_qr_scan", "android": "https://dc.lft.to/lastmile_qr_scan"}, "lon": -76.99714766666666, "type": "electric_scooter"}, {"bike_id": "1609ddb3f1b33ef676b4c94158411635", "is_reserved": 0, "fusion_lon": 0.0, "lat": 38.8204405, "is_disabled": 0, "name": "1609ddb3f1b33ef676b4c94158411635", "fusion_lat": 0.0, "rental_uris": {"ios": "https://dc.lft.to/lastmile_qr_scan", "android": "https://dc.lft.to/lastmile_qr_scan"}, "lon": -77.05318, "type": "electric_bike"}, {"bike_id": "5381a8ecf2026d6fd57084add301ac5d", "is_reserved": 0, "fusion_lon": 0.0, "lat": 38.95074966666667, "is_disabled": 0, "name": "5381a8ecf2026d6fd57084add301ac5d", "fusion_lat": 0.0, "rental_uris": {"ios": "https://dc.lft.to/lastmile_qr_scan", "android": "https://dc.lft.to/lastmile_qr_scan"}, "lon": -77.01198533333333, "type": "electric_bike"}, {"bike_id": "673e8b8cb35ecb6c2879e8bdb9419c63", "is_reserved": 0, "fusion_lon": 0.0, "lat": 38.892314999999996, "is_disabled": 0, "name": "673e8b8cb35ecb6c2879e8bdb9419c63", "fusion_lat": 0.0, "rental_uris": {"ios": "https://dc.lft.to/lastmile_qr_scan", "android": "https://dc.lft.to/lastmile_qr_scan"}, "lon": -77.03978066666667, "type": "electric_scooter"}, {"bike_id": "93a6ca7c5441549e700e16283dbb2a58", "is_reserved": 0, "fusion_lon": 0.0, "lat": 38.90507616666667, "is_disabled": 0, "name": "93a6ca7c5441549e700e16283dbb2a58", "fusion_lat": 0.0, "rental_uris": {"ios": "https://dc.lft.to/lastmile_qr_scan", "android": "https://dc.lft.to/lastmile_qr_scan"}, "lon": -77.06664233333333, "type": "electric_scooter"}, {"bike_id": "4952d849b627bd5d54b3ee9fcb5b44e7", "is_reserved": 0, "fusion_lon": 0.0, "lat": 38.9037185, "is_disabled": 0, "name": "4952d849b627bd5d54b3ee9fcb5b44e7", "fusion_lat": 0.0, "rental_uris": {"ios": "https://dc.lft.to/lastmile_qr_scan", "android": "https://dc.lft.to/lastmile_qr_scan"}, "lon": -77.04339983333334, "type": "electric_scooter"}, {"bike_id": "c846a43da81bc71ada8263a8a1e60de4", "is_reserved": 0, "fusion_lon": 0.0, "lat": 38.90493333333333, "is_disabled": 0, "name": "c846a43da81bc71ada8263a8a1e60de4", "fusion_lat": 0.0, "rental_uris": {"ios": "https://dc.lft.to/lastmile_qr_scan", "android": "https://dc.lft.to/lastmile_qr_scan"}, "lon": -77.06791966666667, "type": "electric_scooter"}, {"bike_id": "88da708cf1ff1901ca2f6d933e7b6bce", "is_reserved": 0, "fusion_lon": 0.0, "lat": 38.90229933333333, "is_disabled": 0, "name": "88da708cf1ff1901ca2f6d933e7b6bce", "fusion_lat": 0.0, "rental_uris": {"ios": "https://dc.lft.to/lastmile_qr_scan", "android": "https://dc.lft.to/lastmile_qr_scan"}, "lon": -77.0607555, "type": "electric_scooter"}, {"bike_id": "95359cca4963c7b54ac6203d771adc5a", "is_reserved": 0, "fusion_lon": 0.0, "lat": 38.90089016666667, "is_disabled": 0, "name": "95359cca4963c7b54ac6203d771adc5a", "fusion_lat": 0.0, "rental_uris": {"ios": "https://dc.lft.to/lastmile_qr_scan", "android": "https://dc.lft.to/lastmile_qr_scan"}, "lon": -77.05006516666667, "type": "electric_scooter"}, {"bike_id": "949eb660c502e40989d7fe599eac4c57", "is_reserved": 0, "fusion_lon": 0.0, "lat": 38.903387, "is_disabled": 0, "name": "949eb660c502e40989d7fe599eac4c57", "fusion_lat": 0.0, "rental_uris": {"ios": "https://dc.lft.to/lastmile_qr_scan", "android": "https://dc.lft.to/lastmile_qr_scan"}, "lon": -77.05198616666667, "type": "electric_scooter"}, {"bike_id": "c97173668e7e336ce56685e53981a55d", "is_reserved": 0, "fusion_lon": 0.0, "lat": 38.933619166666666, "is_disabled": 0, "name": "c97173668e7e336ce56685e53981a55d", "fusion_lat": 0.0, "rental_uris": {"ios": "https://dc.lft.to/lastmile_qr_scan", "android": "https://dc.lft.to/lastmile_qr_scan"}, "lon": -77.05719116666667, "type": "electric_scooter"}, {"bike_id": "4fd1575cf26c0190dd615b4cedf05a16", "is_reserved": 0, "fusion_lon": 0.0, "lat": 38.9370445, "is_disabled": 0, "name": "4fd1575cf26c0190dd615b4cedf05a16", "fusion_lat": 0.0, "rental_uris": {"ios": "https://dc.lft.to/lastmile_qr_scan", "android": "https://dc.lft.to/lastmile_qr_scan"}, "lon": -77.06860933333333, "type": "electric_bike"}, {"bike_id": "d8f33347bcef3f69d012ac2cdc157846", "is_reserved": 0, "fusion_lon": 0.0, "lat": 38.88023733333333, "is_disabled": 0, "name": "d8f33347bcef3f69d012ac2cdc157846", "fusion_lat": 0.0, "rental_uris": {"ios": "https://dc.lft.to/lastmile_qr_scan", "android": "https://dc.lft.to/lastmile_qr_scan"}, "lon": -76.995082, "type": "electric_scooter"}, {"bike_id": "fbc77093abf736d5cee89e7b79654351", "is_reserved": 0, "fusion_lon": 0.0, "lat": 38.8768065, "is_disabled": 0, "name": "fbc77093abf736d5cee89e7b79654351", "fusion_lat": 0.0, "rental_uris": {"ios": "https://dc.lft.to/lastmile_qr_scan", "android": "https://dc.lft.to/lastmile_qr_scan"}, "lon": -77.017915, "type": "electric_scooter"}, {"bike_id": "d23608a889c8a93b06ed2136c86b3927", "is_reserved": 0, "fusion_lon": 0.0, "lat": 38.93121466666667, "is_disabled": 0, "name": "d23608a889c8a93b06ed2136c86b3927", "fusion_lat": 0.0, "rental_uris": {"ios": "https://dc.lft.to/lastmile_qr_scan", "android": "https://dc.lft.to/lastmile_qr_scan"}, "lon": -77.02802783333334, "type": "electric_scooter"}, {"bike_id": "22b42b8510a7c2a2d7782a9a35a4da93", "is_reserved": 0, "fusion_lon": 0.0, "lat": 38.923819, "is_disabled": 0, "name": "22b42b8510a7c2a2d7782a9a35a4da93", "fusion_lat": 0.0, "rental_uris": {"ios": "https://dc.lft.to/lastmile_qr_scan", "android": "https://dc.lft.to/lastmile_qr_scan"}, "lon": -77.03525533333334, "type": "electric_scooter"}, {"bike_id": "9869309c4e7b70a407faa94042d9085f", "is_reserved": 0, "fusion_lon": 0.0, "lat": 38.90469933333333, "is_disabled": 0, "name": "9869309c4e7b70a407faa94042d9085f", "fusion_lat": 0.0, "rental_uris": {"ios": "https://dc.lft.to/lastmile_qr_scan", "android": "https://dc.lft.to/lastmile_qr_scan"}, "lon": -76.98916333333334, "type": "electric_scooter"}, {"bike_id": "d3c20a696575db6c7e1b95767a9dd90d", "is_reserved": 0, "fusion_lon": 0.0, "lat": 38.874818166666664, "is_disabled": 0, "name": "d3c20a696575db6c7e1b95767a9dd90d", "fusion_lat": 0.0, "rental_uris": {"ios": "https://dc.lft.to/lastmile_qr_scan", "android": "https://dc.lft.to/lastmile_qr_scan"}, "lon": -76.96530766666666, "type": "electric_bike"}, {"bike_id": "dc1ab2871b9fb1a56e54412a3b970b4f", "is_reserved": 0, "fusion_lon": 0.0, "lat": 38.897353333333335, "is_disabled": 0, "name": "dc1ab2871b9fb1a56e54412a3b970b4f", "fusion_lat": 0.0, "rental_uris": {"ios": "https://dc.lft.to/lastmile_qr_scan", "android": "https://dc.lft.to/lastmile_qr_scan"}, "lon": -76.94722416666667, "type": "electric_scooter"}, {"bike_id": "509a014dd827a49835045c978ba3802a", "is_reserved": 0, "fusion_lon": 0.0, "lat": 38.92151583333333, "is_disabled": 0, "name": "509a014dd827a49835045c978ba3802a", "fusion_lat": 0.0, "rental_uris": {"ios": "https://dc.lft.to/lastmile_qr_scan", "android": "https://dc.lft.to/lastmile_qr_scan"}, "lon": -77.0387285, "type": "electric_scooter"}, {"bike_id": "8d4cd4b770a32bbd90c2fd55478e7c2f", "is_reserved": 0, "fusion_lon": 0.0, "lat": 38.90405483333333, "is_disabled": 0, "name": "8d4cd4b770a32bbd90c2fd55478e7c2f", "fusion_lat": 0.0, "rental_uris": {"ios": "https://dc.lft.to/lastmile_qr_scan", "android": "https://dc.lft.to/lastmile_qr_scan"}, "lon": -77.040529, "type": "electric_scooter"}, {"bike_id": "18b4463063ae9719879005fad8ee1ee1", "is_reserved": 0, "fusion_lon": 0.0, "lat": 38.88738, "is_disabled": 0, "name": "18b4463063ae9719879005fad8ee1ee1", "fusion_lat": 0.0, "rental_uris": {"ios": "https://dc.lft.to/lastmile_qr_scan", "android": "https://dc.lft.to/lastmile_qr_scan"}, "lon": -77.02212733333333, "type": "electric_scooter"}, {"bike_id": "27309b7a4163516666f24f0bccac1b6b", "is_reserved": 0, "fusion_lon": 0.0, "lat": 38.9040995, "is_disabled": 0, "name": "27309b7a4163516666f24f0bccac1b6b", "fusion_lat": 0.0, "rental_uris": {"ios": "https://dc.lft.to/lastmile_qr_scan", "android": "https://dc.lft.to/lastmile_qr_scan"}, "lon": -77.04669033333333, "type": "electric_scooter"}, {"bike_id": "237f0886d6ea71bd4f93baf2b90a685f", "is_reserved": 0, "fusion_lon": 0.0, "lat": 38.917006, "is_disabled": 0, "name": "237f0886d6ea71bd4f93baf2b90a685f", "fusion_lat": 0.0, "rental_uris": {"ios": "https://dc.lft.to/lastmile_qr_scan", "android": "https://dc.lft.to/lastmile_qr_scan"}, "lon": -77.03489533333334, "type": "electric_scooter"}, {"bike_id": "4e28d9dfd09931b7221a094ac18a21e2", "is_reserved": 0, "fusion_lon": 0.0, "lat": 38.90191166666666, "is_disabled": 0, "name": "4e28d9dfd09931b7221a094ac18a21e2", "fusion_lat": 0.0, "rental_uris": {"ios": "https://dc.lft.to/lastmile_qr_scan", "android": "https://dc.lft.to/lastmile_qr_scan"}, "lon": -77.03967516666667, "type": "electric_scooter"}, {"bike_id": "d8becfd28084ceac03c01864bd5b9f62", "is_reserved": 0, "fusion_lon": 0.0, "lat": 38.94405033333334, "is_disabled": 0, "name": "d8becfd28084ceac03c01864bd5b9f62", "fusion_lat": 0.0, "rental_uris": {"ios": "https://dc.lft.to/lastmile_qr_scan", "android": "https://dc.lft.to/lastmile_qr_scan"}, "lon": -77.03206116666667, "type": "electric_bike"}, {"bike_id": "193ee4183625804321ea4e1c221c7f80", "is_reserved": 0, "fusion_lon": 0.0, "lat": 38.907804, "is_disabled": 0, "name": "193ee4183625804321ea4e1c221c7f80", "fusion_lat": 0.0, "rental_uris": {"ios": "https://dc.lft.to/lastmile_qr_scan", "android": "https://dc.lft.to/lastmile_qr_scan"}, "lon": -77.011061, "type": "electric_scooter"}, {"bike_id": "feff94741f13669e28258f7aee33a11d", "is_reserved": 0, "fusion_lon": 0.0, "lat": 38.904843666666665, "is_disabled": 0, "name": "feff94741f13669e28258f7aee33a11d", "fusion_lat": 0.0, "rental_uris": {"ios": "https://dc.lft.to/lastmile_qr_scan", "android": "https://dc.lft.to/lastmile_qr_scan"}, "lon": -77.060206, "type": "electric_scooter"}, {"bike_id": "4ae3419b6abaafdfa628ebf95c5b30f8", "is_reserved": 0, "fusion_lon": 0.0, "lat": 38.9225725, "is_disabled": 0, "name": "4ae3419b6abaafdfa628ebf95c5b30f8", "fusion_lat": 0.0, "rental_uris": {"ios": "https://dc.lft.to/lastmile_qr_scan", "android": "https://dc.lft.to/lastmile_qr_scan"}, "lon": -77.02985866666667, "type": "electric_scooter"}, {"bike_id": "a1f0eaab86ac18e9365e94d9c5909cdd", "is_reserved": 0, "fusion_lon": 0.0, "lat": 38.9100095, "is_disabled": 0, "name": "a1f0eaab86ac18e9365e94d9c5909cdd", "fusion_lat": 0.0, "rental_uris": {"ios": "https://dc.lft.to/lastmile_qr_scan", "android": "https://dc.lft.to/lastmile_qr_scan"}, "lon": -77.02102516666666, "type": "electric_scooter"}, {"bike_id": "5a376d699525b4d4c4e4653c125694bb", "is_reserved": 0, "fusion_lon": 0.0, "lat": 38.923809, "is_disabled": 0, "name": "5a376d699525b4d4c4e4653c125694bb", "fusion_lat": 0.0, "rental_uris": {"ios": "https://dc.lft.to/lastmile_qr_scan", "android": "https://dc.lft.to/lastmile_qr_scan"}, "lon": -77.02761583333333, "type": "electric_scooter"}, {"bike_id": "061502483eed194b8dd5cd7586ade7d8", "is_reserved": 0, "fusion_lon": 0.0, "lat": 38.964721, "is_disabled": 0, "name": "061502483eed194b8dd5cd7586ade7d8", "fusion_lat": 0.0, "rental_uris": {"ios": "https://dc.lft.to/lastmile_qr_scan", "android": "https://dc.lft.to/lastmile_qr_scan"}, "lon": -77.0357155, "type": "electric_bike"}, {"bike_id": "5b520d1b704f1ee8df8007683c89f12e", "is_reserved": 0, "fusion_lon": 0.0, "lat": 38.864195333333335, "is_disabled": 0, "name": "5b520d1b704f1ee8df8007683c89f12e", "fusion_lat": 0.0, "rental_uris": {"ios": "https://dc.lft.to/lastmile_qr_scan", "android": "https://dc.lft.to/lastmile_qr_scan"}, "lon": -77.0133995, "type": "electric_scooter"}, {"bike_id": "0bb428c78951cf7d17028f51aed753cf", "is_reserved": 0, "fusion_lon": 0.0, "lat": 38.9041575, "is_disabled": 0, "name": "0bb428c78951cf7d17028f51aed753cf", "fusion_lat": 0.0, "rental_uris": {"ios": "https://dc.lft.to/lastmile_qr_scan", "android": "https://dc.lft.to/lastmile_qr_scan"}, "lon": -77.04343016666667, "type": "electric_scooter"}, {"bike_id": "2f631ba5fe39992097d6483b3a82d3aa", "is_reserved": 0, "fusion_lon": 0.0, "lat": 38.892273333333335, "is_disabled": 0, "name": "2f631ba5fe39992097d6483b3a82d3aa", "fusion_lat": 0.0, "rental_uris": {"ios": "https://dc.lft.to/lastmile_qr_scan", "android": "https://dc.lft.to/lastmile_qr_scan"}, "lon": -77.0465265, "type": "electric_scooter"}, {"bike_id": "b55257ef53bf823935597778dab57a07", "is_reserved": 0, "fusion_lon": 0.0, "lat": 38.89465533333333, "is_disabled": 0, "name": "b55257ef53bf823935597778dab57a07", "fusion_lat": 0.0, "rental_uris": {"ios": "https://dc.lft.to/lastmile_qr_scan", "android": "https://dc.lft.to/lastmile_qr_scan"}, "lon": -77.00065916666667, "type": "electric_scooter"}, {"bike_id": "8f434c060dae9e7e15ed2efa4c1471e9", "is_reserved": 0, "fusion_lon": 0.0, "lat": 38.9170735, "is_disabled": 0, "name": "8f434c060dae9e7e15ed2efa4c1471e9", "fusion_lat": 0.0, "rental_uris": {"ios": "https://dc.lft.to/lastmile_qr_scan", "android": "https://dc.lft.to/lastmile_qr_scan"}, "lon": -77.03493733333333, "type": "electric_scooter"}, {"bike_id": "9884258062e7a7f45fc34a5c322bcb69", "is_reserved": 0, "fusion_lon": 0.0, "lat": 38.925842833333334, "is_disabled": 0, "name": "9884258062e7a7f45fc34a5c322bcb69", "fusion_lat": 0.0, "rental_uris": {"ios": "https://dc.lft.to/lastmile_qr_scan", "android": "https://dc.lft.to/lastmile_qr_scan"}, "lon": -77.05761916666667, "type": "electric_scooter"}, {"bike_id": "2ddfe812024ee5abf08b327d794d737d", "is_reserved": 0, "fusion_lon": 0.0, "lat": 38.884369, "is_disabled": 0, "name": "2ddfe812024ee5abf08b327d794d737d", "fusion_lat": 0.0, "rental_uris": {"ios": "https://dc.lft.to/lastmile_qr_scan", "android": "https://dc.lft.to/lastmile_qr_scan"}, "lon": -77.030476, "type": "electric_scooter"}, {"bike_id": "bd1dbfe9725df70880c0eb88cacbfe34", "is_reserved": 0, "fusion_lon": 0.0, "lat": 38.91919816666667, "is_disabled": 0, "name": "bd1dbfe9725df70880c0eb88cacbfe34", "fusion_lat": 0.0, "rental_uris": {"ios": "https://dc.lft.to/lastmile_qr_scan", "android": "https://dc.lft.to/lastmile_qr_scan"}, "lon": -77.03391283333333, "type": "electric_scooter"}, {"bike_id": "780e60bf0f4672c32144289efaafa257", "is_reserved": 0, "fusion_lon": 0.0, "lat": 38.9017145, "is_disabled": 0, "name": "780e60bf0f4672c32144289efaafa257", "fusion_lat": 0.0, "rental_uris": {"ios": "https://dc.lft.to/lastmile_qr_scan", "android": "https://dc.lft.to/lastmile_qr_scan"}, "lon": -77.00009983333334, "type": "electric_scooter"}, {"bike_id": "2631c305f31965931c220c4c937ec793", "is_reserved": 0, "fusion_lon": 0.0, "lat": 38.9846355, "is_disabled": 0, "name": "2631c305f31965931c220c4c937ec793", "fusion_lat": 0.0, "rental_uris": {"ios": "https://dc.lft.to/lastmile_qr_scan", "android": "https://dc.lft.to/lastmile_qr_scan"}, "lon": -76.95529466666666, "type": "electric_bike"}, {"bike_id": "55947f5ca1d926ee4421dd5d52dbe73a", "is_reserved": 0, "fusion_lon": 0.0, "lat": 38.86558516666667, "is_disabled": 0, "name": "55947f5ca1d926ee4421dd5d52dbe73a", "fusion_lat": 0.0, "rental_uris": {"ios": "https://dc.lft.to/lastmile_qr_scan", "android": "https://dc.lft.to/lastmile_qr_scan"}, "lon": -76.989489, "type": "electric_scooter"}, {"bike_id": "6f9a414bab00d24d52f73408682e6a77", "is_reserved": 0, "fusion_lon": 0.0, "lat": 38.90039866666667, "is_disabled": 0, "name": "6f9a414bab00d24d52f73408682e6a77", "fusion_lat": 0.0, "rental_uris": {"ios": "https://dc.lft.to/lastmile_qr_scan", "android": "https://dc.lft.to/lastmile_qr_scan"}, "lon": -77.0076665, "type": "electric_scooter"}, {"bike_id": "59b056402f34f6f33d93dcfbc7df080c", "is_reserved": 0, "fusion_lon": 0.0, "lat": 38.85224, "is_disabled": 0, "name": "59b056402f34f6f33d93dcfbc7df080c", "fusion_lat": 0.0, "rental_uris": {"ios": "https://dc.lft.to/lastmile_qr_scan", "android": "https://dc.lft.to/lastmile_qr_scan"}, "lon": -77.1296175, "type": "electric_bike"}, {"bike_id": "7325b32a81d54870de28ee0f09342923", "is_reserved": 0, "fusion_lon": 0.0, "lat": 38.865951333333335, "is_disabled": 0, "name": "7325b32a81d54870de28ee0f09342923", "fusion_lat": 0.0, "rental_uris": {"ios": "https://dc.lft.to/lastmile_qr_scan", "android": "https://dc.lft.to/lastmile_qr_scan"}, "lon": -76.9322765, "type": "electric_bike"}, {"bike_id": "e622280542c37d00e8474f71919947a3", "is_reserved": 0, "fusion_lon": 0.0, "lat": 38.92115183333333, "is_disabled": 0, "name": "e622280542c37d00e8474f71919947a3", "fusion_lat": 0.0, "rental_uris": {"ios": "https://dc.lft.to/lastmile_qr_scan", "android": "https://dc.lft.to/lastmile_qr_scan"}, "lon": -77.042048, "type": "electric_scooter"}, {"bike_id": "a9eb90d0cba91a73e06dee5d4c9a2f53", "is_reserved": 0, "fusion_lon": 0.0, "lat": 38.927935833333336, "is_disabled": 0, "name": "a9eb90d0cba91a73e06dee5d4c9a2f53", "fusion_lat": 0.0, "rental_uris": {"ios": "https://dc.lft.to/lastmile_qr_scan", "android": "https://dc.lft.to/lastmile_qr_scan"}, "lon": -77.03149616666667, "type": "electric_scooter"}, {"bike_id": "c7b669466bd07017d0ffb1cae19cd439", "is_reserved": 0, "fusion_lon": 0.0, "lat": 38.89254966666667, "is_disabled": 0, "name": "c7b669466bd07017d0ffb1cae19cd439", "fusion_lat": 0.0, "rental_uris": {"ios": "https://dc.lft.to/lastmile_qr_scan", "android": "https://dc.lft.to/lastmile_qr_scan"}, "lon": -77.0258575, "type": "electric_scooter"}, {"bike_id": "c0eb946a3cb1010bc9f2337ccdc61f0f", "is_reserved": 0, "fusion_lon": 0.0, "lat": 38.896214666666665, "is_disabled": 0, "name": "c0eb946a3cb1010bc9f2337ccdc61f0f", "fusion_lat": 0.0, "rental_uris": {"ios": "https://dc.lft.to/lastmile_qr_scan", "android": "https://dc.lft.to/lastmile_qr_scan"}, "lon": -76.99066683333334, "type": "electric_scooter"}, {"bike_id": "d1c55ba4550011d5dc048bcae21bc899", "is_reserved": 0, "fusion_lon": 0.0, "lat": 38.92133066666667, "is_disabled": 0, "name": "d1c55ba4550011d5dc048bcae21bc899", "fusion_lat": 0.0, "rental_uris": {"ios": "https://dc.lft.to/lastmile_qr_scan", "android": "https://dc.lft.to/lastmile_qr_scan"}, "lon": -77.01791016666667, "type": "electric_scooter"}, {"bike_id": "8ef164310a0eb945e7359593bc4653aa", "is_reserved": 0, "fusion_lon": 0.0, "lat": 38.892217, "is_disabled": 0, "name": "8ef164310a0eb945e7359593bc4653aa", "fusion_lat": 0.0, "rental_uris": {"ios": "https://dc.lft.to/lastmile_qr_scan", "android": "https://dc.lft.to/lastmile_qr_scan"}, "lon": -77.02778833333333, "type": "electric_scooter"}, {"bike_id": "d1e4e96868bdb4a5858f8fbb6ef9aed3", "is_reserved": 0, "fusion_lon": 0.0, "lat": 38.9264985, "is_disabled": 0, "name": "d1e4e96868bdb4a5858f8fbb6ef9aed3", "fusion_lat": 0.0, "rental_uris": {"ios": "https://dc.lft.to/lastmile_qr_scan", "android": "https://dc.lft.to/lastmile_qr_scan"}, "lon": -77.03710916666667, "type": "electric_scooter"}, {"bike_id": "ea6b51452eb41dd95cb6ea85d51ecfb7", "is_reserved": 0, "fusion_lon": 0.0, "lat": 38.921706666666665, "is_disabled": 0, "name": "ea6b51452eb41dd95cb6ea85d51ecfb7", "fusion_lat": 0.0, "rental_uris": {"ios": "https://dc.lft.to/lastmile_qr_scan", "android": "https://dc.lft.to/lastmile_qr_scan"}, "lon": -77.05137666666667, "type": "electric_scooter"}, {"bike_id": "c2b96e4a018edefd2a97968cbad00681", "is_reserved": 0, "fusion_lon": 0.0, "lat": 38.938812, "is_disabled": 0, "name": "c2b96e4a018edefd2a97968cbad00681", "fusion_lat": 0.0, "rental_uris": {"ios": "https://dc.lft.to/lastmile_qr_scan", "android": "https://dc.lft.to/lastmile_qr_scan"}, "lon": -77.03284866666667, "type": "electric_scooter"}, {"bike_id": "c1b641fdaab33fe76c5e0bc9fbfc312f", "is_reserved": 0, "fusion_lon": 0.0, "lat": 38.902929666666665, "is_disabled": 0, "name": "c1b641fdaab33fe76c5e0bc9fbfc312f", "fusion_lat": 0.0, "rental_uris": {"ios": "https://dc.lft.to/lastmile_qr_scan", "android": "https://dc.lft.to/lastmile_qr_scan"}, "lon": -77.04060633333333, "type": "electric_scooter"}, {"bike_id": "2525fcdab58ae5cfa031a5e5d315dc5e", "is_reserved": 0, "fusion_lon": 0.0, "lat": 38.98600033333334, "is_disabled": 0, "name": "2525fcdab58ae5cfa031a5e5d315dc5e", "fusion_lat": 0.0, "rental_uris": {"ios": "https://dc.lft.to/lastmile_qr_scan", "android": "https://dc.lft.to/lastmile_qr_scan"}, "lon": -77.03758266666667, "type": "electric_bike"}, {"bike_id": "14d1c841245b49e8e34253148b8a934f", "is_reserved": 0, "fusion_lon": 0.0, "lat": 38.903692166666666, "is_disabled": 0, "name": "14d1c841245b49e8e34253148b8a934f", "fusion_lat": 0.0, "rental_uris": {"ios": "https://dc.lft.to/lastmile_qr_scan", "android": "https://dc.lft.to/lastmile_qr_scan"}, "lon": -77.044424, "type": "electric_scooter"}, {"bike_id": "117cd014309c29302ebecc4a75c13911", "is_reserved": 0, "fusion_lon": 0.0, "lat": 38.92258783333333, "is_disabled": 0, "name": "117cd014309c29302ebecc4a75c13911", "fusion_lat": 0.0, "rental_uris": {"ios": "https://dc.lft.to/lastmile_qr_scan", "android": "https://dc.lft.to/lastmile_qr_scan"}, "lon": -77.0298275, "type": "electric_scooter"}, {"bike_id": "1a5ab493eee87ebd530f6c954b269421", "is_reserved": 0, "fusion_lon": 0.0, "lat": 38.8999255, "is_disabled": 0, "name": "1a5ab493eee87ebd530f6c954b269421", "fusion_lat": 0.0, "rental_uris": {"ios": "https://dc.lft.to/lastmile_qr_scan", "android": "https://dc.lft.to/lastmile_qr_scan"}, "lon": -77.052315, "type": "electric_scooter"}, {"bike_id": "7717a211497791425a9e2dd05a08fcd6", "is_reserved": 0, "fusion_lon": 0.0, "lat": 38.91689316666667, "is_disabled": 0, "name": "7717a211497791425a9e2dd05a08fcd6", "fusion_lat": 0.0, "rental_uris": {"ios": "https://dc.lft.to/lastmile_qr_scan", "android": "https://dc.lft.to/lastmile_qr_scan"}, "lon": -77.029717, "type": "electric_scooter"}, {"bike_id": "8591280b0d2e6d10597f59cbee75d300", "is_reserved": 0, "fusion_lon": 0.0, "lat": 38.89043566666667, "is_disabled": 0, "name": "8591280b0d2e6d10597f59cbee75d300", "fusion_lat": 0.0, "rental_uris": {"ios": "https://dc.lft.to/lastmile_qr_scan", "android": "https://dc.lft.to/lastmile_qr_scan"}, "lon": -76.940632, "type": "electric_scooter"}, {"bike_id": "ea1a1c800551b4743ea89cea0b871385", "is_reserved": 0, "fusion_lon": 0.0, "lat": 38.9053065, "is_disabled": 0, "name": "ea1a1c800551b4743ea89cea0b871385", "fusion_lat": 0.0, "rental_uris": {"ios": "https://dc.lft.to/lastmile_qr_scan", "android": "https://dc.lft.to/lastmile_qr_scan"}, "lon": -77.0599615, "type": "electric_scooter"}, {"bike_id": "84810d42a5856618d533d821c7e18dd2", "is_reserved": 0, "fusion_lon": 0.0, "lat": 38.895345666666664, "is_disabled": 0, "name": "84810d42a5856618d533d821c7e18dd2", "fusion_lat": 0.0, "rental_uris": {"ios": "https://dc.lft.to/lastmile_qr_scan", "android": "https://dc.lft.to/lastmile_qr_scan"}, "lon": -77.04844783333333, "type": "electric_scooter"}, {"bike_id": "99a8b5d973c7c777f424799caddeb8ff", "is_reserved": 0, "fusion_lon": 0.0, "lat": 38.8922775, "is_disabled": 0, "name": "99a8b5d973c7c777f424799caddeb8ff", "fusion_lat": 0.0, "rental_uris": {"ios": "https://dc.lft.to/lastmile_qr_scan", "android": "https://dc.lft.to/lastmile_qr_scan"}, "lon": -77.04367283333333, "type": "electric_scooter"}, {"bike_id": "1cff751a2a0240031684f3ae09b661e8", "is_reserved": 0, "fusion_lon": 0.0, "lat": 38.93200616666667, "is_disabled": 0, "name": "1cff751a2a0240031684f3ae09b661e8", "fusion_lat": 0.0, "rental_uris": {"ios": "https://dc.lft.to/lastmile_qr_scan", "android": "https://dc.lft.to/lastmile_qr_scan"}, "lon": -77.03874333333333, "type": "electric_scooter"}, {"bike_id": "33eb759e55b85bd73f52d1b034bd1303", "is_reserved": 0, "fusion_lon": 0.0, "lat": 38.904100166666666, "is_disabled": 0, "name": "33eb759e55b85bd73f52d1b034bd1303", "fusion_lat": 0.0, "rental_uris": {"ios": "https://dc.lft.to/lastmile_qr_scan", "android": "https://dc.lft.to/lastmile_qr_scan"}, "lon": -76.980996, "type": "electric_scooter"}, {"bike_id": "f1656d84bf7466ab0211cec314ecae62", "is_reserved": 0, "fusion_lon": 0.0, "lat": 38.875531333333335, "is_disabled": 0, "name": "f1656d84bf7466ab0211cec314ecae62", "fusion_lat": 0.0, "rental_uris": {"ios": "https://dc.lft.to/lastmile_qr_scan", "android": "https://dc.lft.to/lastmile_qr_scan"}, "lon": -76.964925, "type": "electric_scooter"}, {"bike_id": "e7120b497f34a53bd3e98b2cea0300c2", "is_reserved": 0, "fusion_lon": 0.0, "lat": 38.910355333333335, "is_disabled": 0, "name": "e7120b497f34a53bd3e98b2cea0300c2", "fusion_lat": 0.0, "rental_uris": {"ios": "https://dc.lft.to/lastmile_qr_scan", "android": "https://dc.lft.to/lastmile_qr_scan"}, "lon": -77.04393733333333, "type": "electric_scooter"}, {"bike_id": "75a92f05b4456ae40ed83860feb88294", "is_reserved": 0, "fusion_lon": 0.0, "lat": 38.92886816666667, "is_disabled": 0, "name": "75a92f05b4456ae40ed83860feb88294", "fusion_lat": 0.0, "rental_uris": {"ios": "https://dc.lft.to/lastmile_qr_scan", "android": "https://dc.lft.to/lastmile_qr_scan"}, "lon": -77.03330766666667, "type": "electric_scooter"}, {"bike_id": "104f22d2c16e0e82f204b755f6fcad28", "is_reserved": 0, "fusion_lon": 0.0, "lat": 38.8921965, "is_disabled": 0, "name": "104f22d2c16e0e82f204b755f6fcad28", "fusion_lat": 0.0, "rental_uris": {"ios": "https://dc.lft.to/lastmile_qr_scan", "android": "https://dc.lft.to/lastmile_qr_scan"}, "lon": -77.02625983333333, "type": "electric_scooter"}, {"bike_id": "99623dddea25028e1e1ab8a05a7852a5", "is_reserved": 0, "fusion_lon": 0.0, "lat": 38.95903233333333, "is_disabled": 0, "name": "99623dddea25028e1e1ab8a05a7852a5", "fusion_lat": 0.0, "rental_uris": {"ios": "https://dc.lft.to/lastmile_qr_scan", "android": "https://dc.lft.to/lastmile_qr_scan"}, "lon": -76.92503516666666, "type": "electric_bike"}, {"bike_id": "4832fc80f1efa685c4c2da3bbd5a1311", "is_reserved": 0, "fusion_lon": 0.0, "lat": 38.862031333333334, "is_disabled": 0, "name": "4832fc80f1efa685c4c2da3bbd5a1311", "fusion_lat": 0.0, "rental_uris": {"ios": "https://dc.lft.to/lastmile_qr_scan", "android": "https://dc.lft.to/lastmile_qr_scan"}, "lon": -76.99467983333334, "type": "electric_scooter"}, {"bike_id": "911d8455c6346511245edd15dc9eb3ea", "is_reserved": 0, "fusion_lon": 0.0, "lat": 38.90672633333333, "is_disabled": 0, "name": "911d8455c6346511245edd15dc9eb3ea", "fusion_lat": 0.0, "rental_uris": {"ios": "https://dc.lft.to/lastmile_qr_scan", "android": "https://dc.lft.to/lastmile_qr_scan"}, "lon": -76.987879, "type": "electric_scooter"}, {"bike_id": "71c1f468a9527eb5e154a75b6c8d2525", "is_reserved": 0, "fusion_lon": 0.0, "lat": 38.902802, "is_disabled": 0, "name": "71c1f468a9527eb5e154a75b6c8d2525", "fusion_lat": 0.0, "rental_uris": {"ios": "https://dc.lft.to/lastmile_qr_scan", "android": "https://dc.lft.to/lastmile_qr_scan"}, "lon": -77.03267316666667, "type": "electric_scooter"}, {"bike_id": "16efaae15bfa736333f0ee5e141f5be8", "is_reserved": 0, "fusion_lon": 0.0, "lat": 38.9300955, "is_disabled": 0, "name": "16efaae15bfa736333f0ee5e141f5be8", "fusion_lat": 0.0, "rental_uris": {"ios": "https://dc.lft.to/lastmile_qr_scan", "android": "https://dc.lft.to/lastmile_qr_scan"}, "lon": -77.0619155, "type": "electric_scooter"}, {"bike_id": "cad117930f44312ce182ef65583eab82", "is_reserved": 0, "fusion_lon": 0.0, "lat": 38.895565, "is_disabled": 0, "name": "cad117930f44312ce182ef65583eab82", "fusion_lat": 0.0, "rental_uris": {"ios": "https://dc.lft.to/lastmile_qr_scan", "android": "https://dc.lft.to/lastmile_qr_scan"}, "lon": -76.93384166666667, "type": "electric_scooter"}, {"bike_id": "99121e272e7140a4d01ffbb73ac94099", "is_reserved": 0, "fusion_lon": 0.0, "lat": 38.87114033333334, "is_disabled": 0, "name": "99121e272e7140a4d01ffbb73ac94099", "fusion_lat": 0.0, "rental_uris": {"ios": "https://dc.lft.to/lastmile_qr_scan", "android": "https://dc.lft.to/lastmile_qr_scan"}, "lon": -77.007604, "type": "electric_scooter"}, {"bike_id": "570200e6d41986e05e64de805e023289", "is_reserved": 0, "fusion_lon": 0.0, "lat": 38.920756, "is_disabled": 0, "name": "570200e6d41986e05e64de805e023289", "fusion_lat": 0.0, "rental_uris": {"ios": "https://dc.lft.to/lastmile_qr_scan", "android": "https://dc.lft.to/lastmile_qr_scan"}, "lon": -77.046905, "type": "electric_scooter"}, {"bike_id": "7717c147be94d6fa0b782e587424cece", "is_reserved": 0, "fusion_lon": 0.0, "lat": 38.908460833333336, "is_disabled": 0, "name": "7717c147be94d6fa0b782e587424cece", "fusion_lat": 0.0, "rental_uris": {"ios": "https://dc.lft.to/lastmile_qr_scan", "android": "https://dc.lft.to/lastmile_qr_scan"}, "lon": -77.03352683333334, "type": "electric_scooter"}, {"bike_id": "a28cf9eb42aa6bca2f245f3bf3c946c0", "is_reserved": 0, "fusion_lon": 0.0, "lat": 38.88017, "is_disabled": 0, "name": "a28cf9eb42aa6bca2f245f3bf3c946c0", "fusion_lat": 0.0, "rental_uris": {"ios": "https://dc.lft.to/lastmile_qr_scan", "android": "https://dc.lft.to/lastmile_qr_scan"}, "lon": -76.93131366666667, "type": "electric_scooter"}, {"bike_id": "4c2d97bcfe02c0825dae8bff17631e96", "is_reserved": 0, "fusion_lon": 0.0, "lat": 38.90113633333333, "is_disabled": 0, "name": "4c2d97bcfe02c0825dae8bff17631e96", "fusion_lat": 0.0, "rental_uris": {"ios": "https://dc.lft.to/lastmile_qr_scan", "android": "https://dc.lft.to/lastmile_qr_scan"}, "lon": -77.043595, "type": "electric_scooter"}, {"bike_id": "d819982e262bf20bf17f05a04b703f13", "is_reserved": 0, "fusion_lon": 0.0, "lat": 38.9043895, "is_disabled": 0, "name": "d819982e262bf20bf17f05a04b703f13", "fusion_lat": 0.0, "rental_uris": {"ios": "https://dc.lft.to/lastmile_qr_scan", "android": "https://dc.lft.to/lastmile_qr_scan"}, "lon": -77.04352083333333, "type": "electric_scooter"}, {"bike_id": "d819bde920b5a312d645448efd3ce38b", "is_reserved": 0, "fusion_lon": 0.0, "lat": 38.89712016666667, "is_disabled": 0, "name": "d819bde920b5a312d645448efd3ce38b", "fusion_lat": 0.0, "rental_uris": {"ios": "https://dc.lft.to/lastmile_qr_scan", "android": "https://dc.lft.to/lastmile_qr_scan"}, "lon": -76.91771916666667, "type": "electric_scooter"}, {"bike_id": "64105ccf7d7ff2eb193f4b73b611ed8c", "is_reserved": 0, "fusion_lon": 0.0, "lat": 38.88481433333333, "is_disabled": 0, "name": "64105ccf7d7ff2eb193f4b73b611ed8c", "fusion_lat": 0.0, "rental_uris": {"ios": "https://dc.lft.to/lastmile_qr_scan", "android": "https://dc.lft.to/lastmile_qr_scan"}, "lon": -77.03350466666667, "type": "electric_scooter"}, {"bike_id": "9c2971b27d04fd65b08cddb831442f6f", "is_reserved": 0, "fusion_lon": 0.0, "lat": 38.881207833333335, "is_disabled": 0, "name": "9c2971b27d04fd65b08cddb831442f6f", "fusion_lat": 0.0, "rental_uris": {"ios": "https://dc.lft.to/lastmile_qr_scan", "android": "https://dc.lft.to/lastmile_qr_scan"}, "lon": -77.02638566666667, "type": "electric_scooter"}, {"bike_id": "735083d37fe7edc352e6a1f561acf616", "is_reserved": 0, "fusion_lon": 0.0, "lat": 38.82728983333333, "is_disabled": 0, "name": "735083d37fe7edc352e6a1f561acf616", "fusion_lat": 0.0, "rental_uris": {"ios": "https://dc.lft.to/lastmile_qr_scan", "android": "https://dc.lft.to/lastmile_qr_scan"}, "lon": -77.00868283333334, "type": "electric_bike"}, {"bike_id": "f9def298a3ce0f0e3ebbc3009b142990", "is_reserved": 0, "fusion_lon": 0.0, "lat": 38.925192333333335, "is_disabled": 0, "name": "f9def298a3ce0f0e3ebbc3009b142990", "fusion_lat": 0.0, "rental_uris": {"ios": "https://dc.lft.to/lastmile_qr_scan", "android": "https://dc.lft.to/lastmile_qr_scan"}, "lon": -77.05137633333334, "type": "electric_scooter"}, {"bike_id": "3b20a1d96ac66d2fd6af8674b8ff95ea", "is_reserved": 0, "fusion_lon": 0.0, "lat": 38.90487733333333, "is_disabled": 0, "name": "3b20a1d96ac66d2fd6af8674b8ff95ea", "fusion_lat": 0.0, "rental_uris": {"ios": "https://dc.lft.to/lastmile_qr_scan", "android": "https://dc.lft.to/lastmile_qr_scan"}, "lon": -77.04368416666667, "type": "electric_scooter"}, {"bike_id": "683f8e326b4cd210536e7383ed1d5a0b", "is_reserved": 0, "fusion_lon": 0.0, "lat": 38.892397, "is_disabled": 0, "name": "683f8e326b4cd210536e7383ed1d5a0b", "fusion_lat": 0.0, "rental_uris": {"ios": "https://dc.lft.to/lastmile_qr_scan", "android": "https://dc.lft.to/lastmile_qr_scan"}, "lon": -77.0396155, "type": "electric_scooter"}, {"bike_id": "7e4ad6dfcc9ea905e7799dd1c34f0fc2", "is_reserved": 0, "fusion_lon": 0.0, "lat": 38.88440633333333, "is_disabled": 0, "name": "7e4ad6dfcc9ea905e7799dd1c34f0fc2", "fusion_lat": 0.0, "rental_uris": {"ios": "https://dc.lft.to/lastmile_qr_scan", "android": "https://dc.lft.to/lastmile_qr_scan"}, "lon": -77.02368216666666, "type": "electric_scooter"}, {"bike_id": "eb23d59fe970c5702cf97955eeaca07d", "is_reserved": 0, "fusion_lon": 0.0, "lat": 38.918846333333335, "is_disabled": 0, "name": "eb23d59fe970c5702cf97955eeaca07d", "fusion_lat": 0.0, "rental_uris": {"ios": "https://dc.lft.to/lastmile_qr_scan", "android": "https://dc.lft.to/lastmile_qr_scan"}, "lon": -77.01594083333333, "type": "electric_scooter"}, {"bike_id": "62a9cc3092a6862817da22d5eba4ea1d", "is_reserved": 0, "fusion_lon": 0.0, "lat": 38.903964333333334, "is_disabled": 0, "name": "62a9cc3092a6862817da22d5eba4ea1d", "fusion_lat": 0.0, "rental_uris": {"ios": "https://dc.lft.to/lastmile_qr_scan", "android": "https://dc.lft.to/lastmile_qr_scan"}, "lon": -77.04045066666667, "type": "electric_scooter"}, {"bike_id": "552a8f0c2a6b70ce623e346993c36d2e", "is_reserved": 0, "fusion_lon": 0.0, "lat": 38.924172, "is_disabled": 0, "name": "552a8f0c2a6b70ce623e346993c36d2e", "fusion_lat": 0.0, "rental_uris": {"ios": "https://dc.lft.to/lastmile_qr_scan", "android": "https://dc.lft.to/lastmile_qr_scan"}, "lon": -77.022376, "type": "electric_scooter"}, {"bike_id": "8f3de6d9625903dc5492acf61bf5c2e8", "is_reserved": 0, "fusion_lon": 0.0, "lat": 38.9401545, "is_disabled": 0, "name": "8f3de6d9625903dc5492acf61bf5c2e8", "fusion_lat": 0.0, "rental_uris": {"ios": "https://dc.lft.to/lastmile_qr_scan", "android": "https://dc.lft.to/lastmile_qr_scan"}, "lon": -77.07169416666666, "type": "electric_scooter"}, {"bike_id": "009f5d9432eddf570c2e7b47ac872ea0", "is_reserved": 0, "fusion_lon": 0.0, "lat": 38.88516, "is_disabled": 0, "name": "009f5d9432eddf570c2e7b47ac872ea0", "fusion_lat": 0.0, "rental_uris": {"ios": "https://dc.lft.to/lastmile_qr_scan", "android": "https://dc.lft.to/lastmile_qr_scan"}, "lon": -77.0333875, "type": "electric_scooter"}, {"bike_id": "5242c3cfcb6ad9301959436f3ae8c405", "is_reserved": 0, "fusion_lon": 0.0, "lat": 38.891925, "is_disabled": 0, "name": "5242c3cfcb6ad9301959436f3ae8c405", "fusion_lat": 0.0, "rental_uris": {"ios": "https://dc.lft.to/lastmile_qr_scan", "android": "https://dc.lft.to/lastmile_qr_scan"}, "lon": -77.02386916666667, "type": "electric_scooter"}, {"bike_id": "6f1ed9a5349b6588143d18ee9f4bec8e", "is_reserved": 0, "fusion_lon": 0.0, "lat": 38.9048925, "is_disabled": 0, "name": "6f1ed9a5349b6588143d18ee9f4bec8e", "fusion_lat": 0.0, "rental_uris": {"ios": "https://dc.lft.to/lastmile_qr_scan", "android": "https://dc.lft.to/lastmile_qr_scan"}, "lon": -77.06029, "type": "electric_scooter"}, {"bike_id": "64a96006ced9912624154dc06ee6193a", "is_reserved": 0, "fusion_lon": 0.0, "lat": 38.899038166666664, "is_disabled": 0, "name": "64a96006ced9912624154dc06ee6193a", "fusion_lat": 0.0, "rental_uris": {"ios": "https://dc.lft.to/lastmile_qr_scan", "android": "https://dc.lft.to/lastmile_qr_scan"}, "lon": -76.93356483333334, "type": "electric_scooter"}, {"bike_id": "02a6e6f29e40770ab1bfefe892990fec", "is_reserved": 0, "fusion_lon": 0.0, "lat": 38.90968983333333, "is_disabled": 0, "name": "02a6e6f29e40770ab1bfefe892990fec", "fusion_lat": 0.0, "rental_uris": {"ios": "https://dc.lft.to/lastmile_qr_scan", "android": "https://dc.lft.to/lastmile_qr_scan"}, "lon": -77.01532416666667, "type": "electric_scooter"}, {"bike_id": "710602e9b7b3ec427ac1b6e0ef751d38", "is_reserved": 0, "fusion_lon": 0.0, "lat": 38.85811483333333, "is_disabled": 0, "name": "710602e9b7b3ec427ac1b6e0ef751d38", "fusion_lat": 0.0, "rental_uris": {"ios": "https://dc.lft.to/lastmile_qr_scan", "android": "https://dc.lft.to/lastmile_qr_scan"}, "lon": -76.989943, "type": "electric_scooter"}, {"bike_id": "7a62d610269af72c9b6da5afe1c46197", "is_reserved": 0, "fusion_lon": 0.0, "lat": 38.87494816666667, "is_disabled": 0, "name": "7a62d610269af72c9b6da5afe1c46197", "fusion_lat": 0.0, "rental_uris": {"ios": "https://dc.lft.to/lastmile_qr_scan", "android": "https://dc.lft.to/lastmile_qr_scan"}, "lon": -76.9980265, "type": "electric_scooter"}, {"bike_id": "68c185107bef59e0eb84bdf941168487", "is_reserved": 0, "fusion_lon": 0.0, "lat": 38.90376283333333, "is_disabled": 0, "name": "68c185107bef59e0eb84bdf941168487", "fusion_lat": 0.0, "rental_uris": {"ios": "https://dc.lft.to/lastmile_qr_scan", "android": "https://dc.lft.to/lastmile_qr_scan"}, "lon": -77.04515366666666, "type": "electric_scooter"}, {"bike_id": "45fe41ca9cc7f9f26de197f4b726488a", "is_reserved": 0, "fusion_lon": 0.0, "lat": 38.90395866666667, "is_disabled": 0, "name": "45fe41ca9cc7f9f26de197f4b726488a", "fusion_lat": 0.0, "rental_uris": {"ios": "https://dc.lft.to/lastmile_qr_scan", "android": "https://dc.lft.to/lastmile_qr_scan"}, "lon": -77.04202283333333, "type": "electric_scooter"}, {"bike_id": "ed07c408d1dacaad1c525a9cb4ffc049", "is_reserved": 0, "fusion_lon": 0.0, "lat": 38.90770633333333, "is_disabled": 0, "name": "ed07c408d1dacaad1c525a9cb4ffc049", "fusion_lat": 0.0, "rental_uris": {"ios": "https://dc.lft.to/lastmile_qr_scan", "android": "https://dc.lft.to/lastmile_qr_scan"}, "lon": -77.06915866666667, "type": "electric_scooter"}, {"bike_id": "a66df71a03e242713ab005f2e373566c", "is_reserved": 0, "fusion_lon": 0.0, "lat": 38.9180335, "is_disabled": 0, "name": "a66df71a03e242713ab005f2e373566c", "fusion_lat": 0.0, "rental_uris": {"ios": "https://dc.lft.to/lastmile_qr_scan", "android": "https://dc.lft.to/lastmile_qr_scan"}, "lon": -77.03439383333334, "type": "electric_scooter"}, {"bike_id": "d7335f5ddb96d6e5b0dab0c9015eb1b6", "is_reserved": 0, "fusion_lon": 0.0, "lat": 38.9027455, "is_disabled": 0, "name": "d7335f5ddb96d6e5b0dab0c9015eb1b6", "fusion_lat": 0.0, "rental_uris": {"ios": "https://dc.lft.to/lastmile_qr_scan", "android": "https://dc.lft.to/lastmile_qr_scan"}, "lon": -77.0413725, "type": "electric_scooter"}, {"bike_id": "b16bcb6450d058c29423d472acc87119", "is_reserved": 0, "fusion_lon": 0.0, "lat": 38.90159766666667, "is_disabled": 0, "name": "b16bcb6450d058c29423d472acc87119", "fusion_lat": 0.0, "rental_uris": {"ios": "https://dc.lft.to/lastmile_qr_scan", "android": "https://dc.lft.to/lastmile_qr_scan"}, "lon": -77.02609316666667, "type": "electric_scooter"}, {"bike_id": "3f50f0183060da96159decef02d363ec", "is_reserved": 0, "fusion_lon": 0.0, "lat": 38.899357333333334, "is_disabled": 0, "name": "3f50f0183060da96159decef02d363ec", "fusion_lat": 0.0, "rental_uris": {"ios": "https://dc.lft.to/lastmile_qr_scan", "android": "https://dc.lft.to/lastmile_qr_scan"}, "lon": -77.03178116666666, "type": "electric_scooter"}, {"bike_id": "d9569cafca7a14332e1d6f4f96f420c9", "is_reserved": 0, "fusion_lon": 0.0, "lat": 38.99938683333333, "is_disabled": 0, "name": "d9569cafca7a14332e1d6f4f96f420c9", "fusion_lat": 0.0, "rental_uris": {"ios": "https://dc.lft.to/lastmile_qr_scan", "android": "https://dc.lft.to/lastmile_qr_scan"}, "lon": -77.01768116666666, "type": "electric_bike"}, {"bike_id": "1775c5bbe2ff98c7a906d4b53f24bc97", "is_reserved": 0, "fusion_lon": 0.0, "lat": 38.924442666666664, "is_disabled": 0, "name": "1775c5bbe2ff98c7a906d4b53f24bc97", "fusion_lat": 0.0, "rental_uris": {"ios": "https://dc.lft.to/lastmile_qr_scan", "android": "https://dc.lft.to/lastmile_qr_scan"}, "lon": -77.03404633333334, "type": "electric_scooter"}, {"bike_id": "af7a1e1e9b76396ff131c71957c2f4cf", "is_reserved": 0, "fusion_lon": 0.0, "lat": 38.91999766666667, "is_disabled": 0, "name": "af7a1e1e9b76396ff131c71957c2f4cf", "fusion_lat": 0.0, "rental_uris": {"ios": "https://dc.lft.to/lastmile_qr_scan", "android": "https://dc.lft.to/lastmile_qr_scan"}, "lon": -77.03228833333333, "type": "electric_scooter"}, {"bike_id": "c313eb7065ae7c7eb366067193505995", "is_reserved": 0, "fusion_lon": 0.0, "lat": 38.896257166666665, "is_disabled": 0, "name": "c313eb7065ae7c7eb366067193505995", "fusion_lat": 0.0, "rental_uris": {"ios": "https://dc.lft.to/lastmile_qr_scan", "android": "https://dc.lft.to/lastmile_qr_scan"}, "lon": -76.95584566666666, "type": "electric_scooter"}, {"bike_id": "24dd5f9b713915ec08d1336373bba276", "is_reserved": 0, "fusion_lon": 0.0, "lat": 38.91596233333333, "is_disabled": 0, "name": "24dd5f9b713915ec08d1336373bba276", "fusion_lat": 0.0, "rental_uris": {"ios": "https://dc.lft.to/lastmile_qr_scan", "android": "https://dc.lft.to/lastmile_qr_scan"}, "lon": -77.04033783333334, "type": "electric_scooter"}, {"bike_id": "85f319cf94829471630cdd498e9a59ac", "is_reserved": 0, "fusion_lon": 0.0, "lat": 38.92397116666667, "is_disabled": 0, "name": "85f319cf94829471630cdd498e9a59ac", "fusion_lat": 0.0, "rental_uris": {"ios": "https://dc.lft.to/lastmile_qr_scan", "android": "https://dc.lft.to/lastmile_qr_scan"}, "lon": -77.02261033333333, "type": "electric_scooter"}, {"bike_id": "01be8ad02bafde5380660fe66f27438a", "is_reserved": 0, "fusion_lon": 0.0, "lat": 38.923418833333336, "is_disabled": 0, "name": "01be8ad02bafde5380660fe66f27438a", "fusion_lat": 0.0, "rental_uris": {"ios": "https://dc.lft.to/lastmile_qr_scan", "android": "https://dc.lft.to/lastmile_qr_scan"}, "lon": -77.03777483333333, "type": "electric_scooter"}, {"bike_id": "34422123e0a5fc498eb8e9d960f9bc38", "is_reserved": 0, "fusion_lon": 0.0, "lat": 38.900377666666664, "is_disabled": 0, "name": "34422123e0a5fc498eb8e9d960f9bc38", "fusion_lat": 0.0, "rental_uris": {"ios": "https://dc.lft.to/lastmile_qr_scan", "android": "https://dc.lft.to/lastmile_qr_scan"}, "lon": -77.001933, "type": "electric_scooter"}, {"bike_id": "c1ddcf6dcb9a974747be338b967d7a28", "is_reserved": 0, "fusion_lon": 0.0, "lat": 38.90388733333333, "is_disabled": 0, "name": "c1ddcf6dcb9a974747be338b967d7a28", "fusion_lat": 0.0, "rental_uris": {"ios": "https://dc.lft.to/lastmile_qr_scan", "android": "https://dc.lft.to/lastmile_qr_scan"}, "lon": -77.04464666666667, "type": "electric_scooter"}, {"bike_id": "a024df81def301007a7e15e4d223bd57", "is_reserved": 0, "fusion_lon": 0.0, "lat": 38.918890166666664, "is_disabled": 0, "name": "a024df81def301007a7e15e4d223bd57", "fusion_lat": 0.0, "rental_uris": {"ios": "https://dc.lft.to/lastmile_qr_scan", "android": "https://dc.lft.to/lastmile_qr_scan"}, "lon": -77.039116, "type": "electric_scooter"}, {"bike_id": "84506d619db606252bdf71e26b2ceb57", "is_reserved": 0, "fusion_lon": 0.0, "lat": 38.8737295, "is_disabled": 0, "name": "84506d619db606252bdf71e26b2ceb57", "fusion_lat": 0.0, "rental_uris": {"ios": "https://dc.lft.to/lastmile_qr_scan", "android": "https://dc.lft.to/lastmile_qr_scan"}, "lon": -77.00003883333333, "type": "electric_scooter"}, {"bike_id": "ecadd3a852aedb708c6264eaf4cf1845", "is_reserved": 0, "fusion_lon": 0.0, "lat": 38.90397883333333, "is_disabled": 0, "name": "ecadd3a852aedb708c6264eaf4cf1845", "fusion_lat": 0.0, "rental_uris": {"ios": "https://dc.lft.to/lastmile_qr_scan", "android": "https://dc.lft.to/lastmile_qr_scan"}, "lon": -77.06297016666667, "type": "electric_scooter"}, {"bike_id": "ca53d28ac5499311cb51e043f9ea355f", "is_reserved": 0, "fusion_lon": 0.0, "lat": 38.905556833333335, "is_disabled": 0, "name": "ca53d28ac5499311cb51e043f9ea355f", "fusion_lat": 0.0, "rental_uris": {"ios": "https://dc.lft.to/lastmile_qr_scan", "android": "https://dc.lft.to/lastmile_qr_scan"}, "lon": -77.02434166666667, "type": "electric_scooter"}, {"bike_id": "8a72c347ea0b8716ca8dd26b3abb65f1", "is_reserved": 0, "fusion_lon": 0.0, "lat": 38.872557666666665, "is_disabled": 0, "name": "8a72c347ea0b8716ca8dd26b3abb65f1", "fusion_lat": 0.0, "rental_uris": {"ios": "https://dc.lft.to/lastmile_qr_scan", "android": "https://dc.lft.to/lastmile_qr_scan"}, "lon": -76.979094, "type": "electric_bike"}, {"bike_id": "ed49ebb895214231aa2b54b4b9e1fe52", "is_reserved": 0, "fusion_lon": 0.0, "lat": 38.892359, "is_disabled": 0, "name": "ed49ebb895214231aa2b54b4b9e1fe52", "fusion_lat": 0.0, "rental_uris": {"ios": "https://dc.lft.to/lastmile_qr_scan", "android": "https://dc.lft.to/lastmile_qr_scan"}, "lon": -77.02383516666667, "type": "electric_scooter"}, {"bike_id": "cd3154987d3e30d8a5a6f37a5b974793", "is_reserved": 0, "fusion_lon": 0.0, "lat": 39.09437616666666, "is_disabled": 0, "name": "cd3154987d3e30d8a5a6f37a5b974793", "fusion_lat": 0.0, "rental_uris": {"ios": "https://dc.lft.to/lastmile_qr_scan", "android": "https://dc.lft.to/lastmile_qr_scan"}, "lon": -77.1346175, "type": "electric_bike"}, {"bike_id": "0d314247f037802d08e6606ef95e1f37", "is_reserved": 0, "fusion_lon": 0.0, "lat": 38.827923, "is_disabled": 0, "name": "0d314247f037802d08e6606ef95e1f37", "fusion_lat": 0.0, "rental_uris": {"ios": "https://dc.lft.to/lastmile_qr_scan", "android": "https://dc.lft.to/lastmile_qr_scan"}, "lon": -77.00908783333334, "type": "electric_bike"}, {"bike_id": "1deaf7214a9e4de1210a64fb488f73d9", "is_reserved": 0, "fusion_lon": 0.0, "lat": 38.921503666666666, "is_disabled": 0, "name": "1deaf7214a9e4de1210a64fb488f73d9", "fusion_lat": 0.0, "rental_uris": {"ios": "https://dc.lft.to/lastmile_qr_scan", "android": "https://dc.lft.to/lastmile_qr_scan"}, "lon": -77.04216083333333, "type": "electric_scooter"}, {"bike_id": "e5dd14051fc4aab7fd560ea69f2d9e56", "is_reserved": 0, "fusion_lon": 0.0, "lat": 38.92694216666666, "is_disabled": 0, "name": "e5dd14051fc4aab7fd560ea69f2d9e56", "fusion_lat": 0.0, "rental_uris": {"ios": "https://dc.lft.to/lastmile_qr_scan", "android": "https://dc.lft.to/lastmile_qr_scan"}, "lon": -77.03635233333334, "type": "electric_scooter"}, {"bike_id": "fcf092ebc605231f47cf76ca9d004a1a", "is_reserved": 0, "fusion_lon": 0.0, "lat": 38.888903166666665, "is_disabled": 0, "name": "fcf092ebc605231f47cf76ca9d004a1a", "fusion_lat": 0.0, "rental_uris": {"ios": "https://dc.lft.to/lastmile_qr_scan", "android": "https://dc.lft.to/lastmile_qr_scan"}, "lon": -77.01567533333333, "type": "electric_scooter"}, {"bike_id": "4eb59281a206ffed33925d6c6fda343a", "is_reserved": 0, "fusion_lon": 0.0, "lat": 38.89844816666667, "is_disabled": 0, "name": "4eb59281a206ffed33925d6c6fda343a", "fusion_lat": 0.0, "rental_uris": {"ios": "https://dc.lft.to/lastmile_qr_scan", "android": "https://dc.lft.to/lastmile_qr_scan"}, "lon": -76.94480266666666, "type": "electric_scooter"}, {"bike_id": "d2dd5afb8e0ad6cd874fd1fe61cbd72e", "is_reserved": 0, "fusion_lon": 0.0, "lat": 38.9468535, "is_disabled": 0, "name": "d2dd5afb8e0ad6cd874fd1fe61cbd72e", "fusion_lat": 0.0, "rental_uris": {"ios": "https://dc.lft.to/lastmile_qr_scan", "android": "https://dc.lft.to/lastmile_qr_scan"}, "lon": -77.02056766666666, "type": "electric_bike"}, {"bike_id": "21505fb4db08a2df112f5739ad7dd0dc", "is_reserved": 0, "fusion_lon": 0.0, "lat": 38.9032905, "is_disabled": 0, "name": "21505fb4db08a2df112f5739ad7dd0dc", "fusion_lat": 0.0, "rental_uris": {"ios": "https://dc.lft.to/lastmile_qr_scan", "android": "https://dc.lft.to/lastmile_qr_scan"}, "lon": -77.04535916666667, "type": "electric_scooter"}, {"bike_id": "537d39f6601612b6a4c8f6626ae3e749", "is_reserved": 0, "fusion_lon": 0.0, "lat": 38.916414833333334, "is_disabled": 0, "name": "537d39f6601612b6a4c8f6626ae3e749", "fusion_lat": 0.0, "rental_uris": {"ios": "https://dc.lft.to/lastmile_qr_scan", "android": "https://dc.lft.to/lastmile_qr_scan"}, "lon": -77.0477875, "type": "electric_scooter"}, {"bike_id": "d8bb578cb5ce21dd4d0d867f8646f364", "is_reserved": 0, "fusion_lon": 0.0, "lat": 38.8945625, "is_disabled": 0, "name": "d8bb578cb5ce21dd4d0d867f8646f364", "fusion_lat": 0.0, "rental_uris": {"ios": "https://dc.lft.to/lastmile_qr_scan", "android": "https://dc.lft.to/lastmile_qr_scan"}, "lon": -76.9703735, "type": "electric_bike"}, {"bike_id": "3aa3b3de391c5cae7343f1657266d049", "is_reserved": 0, "fusion_lon": 0.0, "lat": 38.87705283333333, "is_disabled": 0, "name": "3aa3b3de391c5cae7343f1657266d049", "fusion_lat": 0.0, "rental_uris": {"ios": "https://dc.lft.to/lastmile_qr_scan", "android": "https://dc.lft.to/lastmile_qr_scan"}, "lon": -77.01739916666666, "type": "electric_scooter"}, {"bike_id": "743b0334d9084a529816204f4d8928f6", "is_reserved": 0, "fusion_lon": 0.0, "lat": 38.907423666666666, "is_disabled": 0, "name": "743b0334d9084a529816204f4d8928f6", "fusion_lat": 0.0, "rental_uris": {"ios": "https://dc.lft.to/lastmile_qr_scan", "android": "https://dc.lft.to/lastmile_qr_scan"}, "lon": -76.986452, "type": "electric_scooter"}, {"bike_id": "a208047eaa2b45d1ff67ad065c37dfab", "is_reserved": 0, "fusion_lon": 0.0, "lat": 38.930766166666665, "is_disabled": 0, "name": "a208047eaa2b45d1ff67ad065c37dfab", "fusion_lat": 0.0, "rental_uris": {"ios": "https://dc.lft.to/lastmile_qr_scan", "android": "https://dc.lft.to/lastmile_qr_scan"}, "lon": -77.03422633333334, "type": "electric_scooter"}, {"bike_id": "d2589aee8ee3c55203c922c6fe60b416", "is_reserved": 0, "fusion_lon": 0.0, "lat": 38.864341, "is_disabled": 0, "name": "d2589aee8ee3c55203c922c6fe60b416", "fusion_lat": 0.0, "rental_uris": {"ios": "https://dc.lft.to/lastmile_qr_scan", "android": "https://dc.lft.to/lastmile_qr_scan"}, "lon": -76.97351783333333, "type": "electric_scooter"}, {"bike_id": "b4a3ace7ad5ecfcb57c88793bb8ff4f4", "is_reserved": 0, "fusion_lon": 0.0, "lat": 38.93364416666667, "is_disabled": 0, "name": "b4a3ace7ad5ecfcb57c88793bb8ff4f4", "fusion_lat": 0.0, "rental_uris": {"ios": "https://dc.lft.to/lastmile_qr_scan", "android": "https://dc.lft.to/lastmile_qr_scan"}, "lon": -77.05728033333334, "type": "electric_scooter"}, {"bike_id": "0d59962e5522015159aed39456fad562", "is_reserved": 0, "fusion_lon": 0.0, "lat": 38.892238, "is_disabled": 0, "name": "0d59962e5522015159aed39456fad562", "fusion_lat": 0.0, "rental_uris": {"ios": "https://dc.lft.to/lastmile_qr_scan", "android": "https://dc.lft.to/lastmile_qr_scan"}, "lon": -77.026467, "type": "electric_scooter"}, {"bike_id": "1a006c54e5c75afafbb8ab658bb34e7e", "is_reserved": 0, "fusion_lon": 0.0, "lat": 38.8926105, "is_disabled": 0, "name": "1a006c54e5c75afafbb8ab658bb34e7e", "fusion_lat": 0.0, "rental_uris": {"ios": "https://dc.lft.to/lastmile_qr_scan", "android": "https://dc.lft.to/lastmile_qr_scan"}, "lon": -76.94159683333334, "type": "electric_scooter"}, {"bike_id": "ce445d2f69d3187967159ef3a8838816", "is_reserved": 0, "fusion_lon": 0.0, "lat": 38.91568083333333, "is_disabled": 0, "name": "ce445d2f69d3187967159ef3a8838816", "fusion_lat": 0.0, "rental_uris": {"ios": "https://dc.lft.to/lastmile_qr_scan", "android": "https://dc.lft.to/lastmile_qr_scan"}, "lon": -77.0315765, "type": "electric_scooter"}, {"bike_id": "a3395f748ebc026a080ed61dd976ad8f", "is_reserved": 0, "fusion_lon": 0.0, "lat": 38.926277, "is_disabled": 0, "name": "a3395f748ebc026a080ed61dd976ad8f", "fusion_lat": 0.0, "rental_uris": {"ios": "https://dc.lft.to/lastmile_qr_scan", "android": "https://dc.lft.to/lastmile_qr_scan"}, "lon": -77.03784266666666, "type": "electric_scooter"}, {"bike_id": "743693a13d143bc355f83082c22bfead", "is_reserved": 0, "fusion_lon": 0.0, "lat": 38.89774583333333, "is_disabled": 0, "name": "743693a13d143bc355f83082c22bfead", "fusion_lat": 0.0, "rental_uris": {"ios": "https://dc.lft.to/lastmile_qr_scan", "android": "https://dc.lft.to/lastmile_qr_scan"}, "lon": -77.03168966666667, "type": "electric_scooter"}, {"bike_id": "a1b36aef07aafdcb324f364c4d286488", "is_reserved": 0, "fusion_lon": 0.0, "lat": 38.9218285, "is_disabled": 0, "name": "a1b36aef07aafdcb324f364c4d286488", "fusion_lat": 0.0, "rental_uris": {"ios": "https://dc.lft.to/lastmile_qr_scan", "android": "https://dc.lft.to/lastmile_qr_scan"}, "lon": -76.99792633333334, "type": "electric_scooter"}, {"bike_id": "19c9c1dd6d623d29301c8c6b69f62963", "is_reserved": 0, "fusion_lon": 0.0, "lat": 38.916745166666665, "is_disabled": 0, "name": "19c9c1dd6d623d29301c8c6b69f62963", "fusion_lat": 0.0, "rental_uris": {"ios": "https://dc.lft.to/lastmile_qr_scan", "android": "https://dc.lft.to/lastmile_qr_scan"}, "lon": -77.02956266666666, "type": "electric_scooter"}, {"bike_id": "f974a0b875fcde18035bc43b1a86691b", "is_reserved": 0, "fusion_lon": 0.0, "lat": 38.82258983333333, "is_disabled": 0, "name": "f974a0b875fcde18035bc43b1a86691b", "fusion_lat": 0.0, "rental_uris": {"ios": "https://dc.lft.to/lastmile_qr_scan", "android": "https://dc.lft.to/lastmile_qr_scan"}, "lon": -77.00558666666667, "type": "electric_bike"}, {"bike_id": "241e13f6f80ea82eb6882188cdf36996", "is_reserved": 0, "fusion_lon": 0.0, "lat": 38.9111415, "is_disabled": 0, "name": "241e13f6f80ea82eb6882188cdf36996", "fusion_lat": 0.0, "rental_uris": {"ios": "https://dc.lft.to/lastmile_qr_scan", "android": "https://dc.lft.to/lastmile_qr_scan"}, "lon": -77.02420316666667, "type": "electric_scooter"}, {"bike_id": "3e0c28b1a13117754fb7beebf2e9d23e", "is_reserved": 0, "fusion_lon": 0.0, "lat": 38.90609383333334, "is_disabled": 0, "name": "3e0c28b1a13117754fb7beebf2e9d23e", "fusion_lat": 0.0, "rental_uris": {"ios": "https://dc.lft.to/lastmile_qr_scan", "android": "https://dc.lft.to/lastmile_qr_scan"}, "lon": -77.0404325, "type": "electric_scooter"}, {"bike_id": "2660560a930b32cec8e355f8e764f9f5", "is_reserved": 0, "fusion_lon": 0.0, "lat": 38.9312255, "is_disabled": 0, "name": "2660560a930b32cec8e355f8e764f9f5", "fusion_lat": 0.0, "rental_uris": {"ios": "https://dc.lft.to/lastmile_qr_scan", "android": "https://dc.lft.to/lastmile_qr_scan"}, "lon": -77.02088983333333, "type": "electric_scooter"}, {"bike_id": "f09f390a8aff0cebc40570c077ce8d7d", "is_reserved": 0, "fusion_lon": 0.0, "lat": 38.897572833333335, "is_disabled": 0, "name": "f09f390a8aff0cebc40570c077ce8d7d", "fusion_lat": 0.0, "rental_uris": {"ios": "https://dc.lft.to/lastmile_qr_scan", "android": "https://dc.lft.to/lastmile_qr_scan"}, "lon": -76.94185416666667, "type": "electric_scooter"}, {"bike_id": "637b92e6ffb03f896555a88202928954", "is_reserved": 0, "fusion_lon": 0.0, "lat": 38.924645, "is_disabled": 0, "name": "637b92e6ffb03f896555a88202928954", "fusion_lat": 0.0, "rental_uris": {"ios": "https://dc.lft.to/lastmile_qr_scan", "android": "https://dc.lft.to/lastmile_qr_scan"}, "lon": -77.02155533333334, "type": "electric_scooter"}, {"bike_id": "01d870a4f671c33f1fda1929cb6d1d9a", "is_reserved": 0, "fusion_lon": 0.0, "lat": 38.8843115, "is_disabled": 0, "name": "01d870a4f671c33f1fda1929cb6d1d9a", "fusion_lat": 0.0, "rental_uris": {"ios": "https://dc.lft.to/lastmile_qr_scan", "android": "https://dc.lft.to/lastmile_qr_scan"}, "lon": -76.95758766666667, "type": "electric_scooter"}, {"bike_id": "fe2b33f5bea7cd619ad576bfa046165b", "is_reserved": 0, "fusion_lon": 0.0, "lat": 38.90041733333333, "is_disabled": 0, "name": "fe2b33f5bea7cd619ad576bfa046165b", "fusion_lat": 0.0, "rental_uris": {"ios": "https://dc.lft.to/lastmile_qr_scan", "android": "https://dc.lft.to/lastmile_qr_scan"}, "lon": -76.92472133333334, "type": "electric_scooter"}, {"bike_id": "50caf72a64a95db99e80d82a5b4f1a44", "is_reserved": 0, "fusion_lon": 0.0, "lat": 38.900032333333336, "is_disabled": 0, "name": "50caf72a64a95db99e80d82a5b4f1a44", "fusion_lat": 0.0, "rental_uris": {"ios": "https://dc.lft.to/lastmile_qr_scan", "android": "https://dc.lft.to/lastmile_qr_scan"}, "lon": -77.0403305, "type": "electric_scooter"}, {"bike_id": "f3cc08c66dc2b0fef02b55d4a972e077", "is_reserved": 0, "fusion_lon": 0.0, "lat": 38.91670216666667, "is_disabled": 0, "name": "f3cc08c66dc2b0fef02b55d4a972e077", "fusion_lat": 0.0, "rental_uris": {"ios": "https://dc.lft.to/lastmile_qr_scan", "android": "https://dc.lft.to/lastmile_qr_scan"}, "lon": -77.03196316666667, "type": "electric_scooter"}, {"bike_id": "108f4042098132e14bf04b2aed1bed0d", "is_reserved": 0, "fusion_lon": 0.0, "lat": 38.903626333333335, "is_disabled": 0, "name": "108f4042098132e14bf04b2aed1bed0d", "fusion_lat": 0.0, "rental_uris": {"ios": "https://dc.lft.to/lastmile_qr_scan", "android": "https://dc.lft.to/lastmile_qr_scan"}, "lon": -77.04008333333333, "type": "electric_scooter"}, {"bike_id": "1ba3d5a6b719e37ce08f6ae07a701998", "is_reserved": 0, "fusion_lon": 0.0, "lat": 38.91663166666667, "is_disabled": 0, "name": "1ba3d5a6b719e37ce08f6ae07a701998", "fusion_lat": 0.0, "rental_uris": {"ios": "https://dc.lft.to/lastmile_qr_scan", "android": "https://dc.lft.to/lastmile_qr_scan"}, "lon": -77.02698633333333, "type": "electric_scooter"}, {"bike_id": "82671a3e8e9cc9de277a6a5ddf9f17c5", "is_reserved": 0, "fusion_lon": 0.0, "lat": 38.88736133333333, "is_disabled": 0, "name": "82671a3e8e9cc9de277a6a5ddf9f17c5", "fusion_lat": 0.0, "rental_uris": {"ios": "https://dc.lft.to/lastmile_qr_scan", "android": "https://dc.lft.to/lastmile_qr_scan"}, "lon": -77.02584266666666, "type": "electric_scooter"}, {"bike_id": "67f9fa34b7d0cf6df2a3085047a7351e", "is_reserved": 0, "fusion_lon": 0.0, "lat": 38.925838166666665, "is_disabled": 0, "name": "67f9fa34b7d0cf6df2a3085047a7351e", "fusion_lat": 0.0, "rental_uris": {"ios": "https://dc.lft.to/lastmile_qr_scan", "android": "https://dc.lft.to/lastmile_qr_scan"}, "lon": -77.05066166666667, "type": "electric_scooter"}, {"bike_id": "70b487727f7b2a902b4d0fa64eeac3b2", "is_reserved": 0, "fusion_lon": 0.0, "lat": 38.92381683333333, "is_disabled": 0, "name": "70b487727f7b2a902b4d0fa64eeac3b2", "fusion_lat": 0.0, "rental_uris": {"ios": "https://dc.lft.to/lastmile_qr_scan", "android": "https://dc.lft.to/lastmile_qr_scan"}, "lon": -77.00066116666666, "type": "electric_scooter"}, {"bike_id": "acb20f97cd6ad0a1ac2b730f2ebd9fce", "is_reserved": 0, "fusion_lon": 0.0, "lat": 38.91631433333333, "is_disabled": 0, "name": "acb20f97cd6ad0a1ac2b730f2ebd9fce", "fusion_lat": 0.0, "rental_uris": {"ios": "https://dc.lft.to/lastmile_qr_scan", "android": "https://dc.lft.to/lastmile_qr_scan"}, "lon": -77.04621633333333, "type": "electric_scooter"}, {"bike_id": "ccf9ab094dc49720f3f83624e4a06df9", "is_reserved": 0, "fusion_lon": 0.0, "lat": 38.923741166666666, "is_disabled": 0, "name": "ccf9ab094dc49720f3f83624e4a06df9", "fusion_lat": 0.0, "rental_uris": {"ios": "https://dc.lft.to/lastmile_qr_scan", "android": "https://dc.lft.to/lastmile_qr_scan"}, "lon": -77.01914483333333, "type": "electric_scooter"}, {"bike_id": "4970b1e6a75aa4ea93af943901160737", "is_reserved": 0, "fusion_lon": 0.0, "lat": 38.87147016666667, "is_disabled": 0, "name": "4970b1e6a75aa4ea93af943901160737", "fusion_lat": 0.0, "rental_uris": {"ios": "https://dc.lft.to/lastmile_qr_scan", "android": "https://dc.lft.to/lastmile_qr_scan"}, "lon": -76.93707033333334, "type": "electric_bike"}, {"bike_id": "bb0d4d4a98bf81519eb860ec04cfde8c", "is_reserved": 0, "fusion_lon": 0.0, "lat": 38.917055500000004, "is_disabled": 0, "name": "bb0d4d4a98bf81519eb860ec04cfde8c", "fusion_lat": 0.0, "rental_uris": {"ios": "https://dc.lft.to/lastmile_qr_scan", "android": "https://dc.lft.to/lastmile_qr_scan"}, "lon": -77.007146, "type": "electric_scooter"},