{"data": {"bikes": [{"name": "bde732dfda605932d06ef475c17482aa", "fusion_lat": 0.0, "type": "electric_scooter", "lat": 38.87483983333333, "is_reserved": 0, "is_disabled": 0, "fusion_lon": 0.0, "bike_id": "bde732dfda605932d06ef475c17482aa", "lon": -77.00175916666667, "rental_uris": {"ios": "https://dc.lft.to/lastmile_qr_scan", "android": "https://dc.lft.to/lastmile_qr_scan"}}, {"name": "d06ac6b732f25a9d68eb10da18304df6", "fusion_lat": 0.0, "type": "electric_scooter", "lat": 38.91485983333333, "is_reserved": 0, "is_disabled": 0, "fusion_lon": 0.0, "bike_id": "d06ac6b732f25a9d68eb10da18304df6", "lon": -77.0325535, "rental_uris": {"ios": "https://dc.lft.to/lastmile_qr_scan", "android": "https://dc.lft.to/lastmile_qr_scan"}}, {"name": "6108f38830fb045b1d092b87cec55cdf", "fusion_lat": 0.0, "type": "electric_scooter", "lat": 38.932014333333335, "is_reserved": 0, "is_disabled": 0, "fusion_lon": 0.0, "bike_id": "6108f38830fb045b1d092b87cec55cdf", "lon": -77.02731216666666, "rental_uris": {"ios": "https://dc.lft.to/lastmile_qr_scan", "android": "https://dc.lft.to/lastmile_qr_scan"}}, {"name": "04047266fea058154f488d560194d653", "fusion_lat": 0.0, "type": "electric_scooter", "lat": 38.90296583333333, "is_reserved": 0, "is_disabled": 0, "fusion_lon": 0.0, "bike_id": "04047266fea058154f488d560194d653", "lon": -77.04183783333333, "rental_uris": {"ios": "https://dc.lft.to/lastmile_qr_scan", "android": "https://dc.lft.to/lastmile_qr_scan"}}, {"name": "42ded66d588a377094448a6ee7f685fd", "fusion_lat": 0.0, "type": "electric_scooter", "lat": 38.91335983333333, "is_reserved": 0, "is_disabled": 0, "fusion_lon": 0.0, "bike_id": "42ded66d588a377094448a6ee7f685fd", "lon": -77.03127866666667, "rental_uris": {"ios": "https://dc.lft.to/lastmile_qr_scan", "android": "https://dc.lft.to/lastmile_qr_scan"}}, {"name": "134f797f5030ec724374a58102738527", "fusion_lat": 0.0, "type": "electric_scooter", "lat": 38.91923333333333, "is_reserved": 0, "is_disabled": 0, "fusion_lon": 0.0, "bike_id": "134f797f5030ec724374a58102738527", "lon": -77.03101883333333, "rental_uris": {"ios": "https://dc.lft.to/lastmile_qr_scan", "android": "https://dc.lft.to/lastmile_qr_scan"}}, {"name": "3a6ea5930f105f5d1dfadfbc70735a92", "fusion_lat": 0.0, "type": "electric_scooter", "lat": 38.918617166666664, "is_reserved": 0, "is_disabled": 0, "fusion_lon": 0.0, "bike_id": "3a6ea5930f105f5d1dfadfbc70735a92", "lon": -77.04355033333333, "rental_uris": {"ios": "https://dc.lft.to/lastmile_qr_scan", "android": "https://dc.lft.to/lastmile_qr_scan"}}, {"name": "804134ab632a433434b5468c7b80b508", "fusion_lat": 0.0, "type": "electric_scooter", "lat": 38.93065133333333, "is_reserved": 0, "is_disabled": 0, "fusion_lon": 0.0, "bike_id": "804134ab632a433434b5468c7b80b508", "lon": -77.03964366666666, "rental_uris": {"ios": "https://dc.lft.to/lastmile_qr_scan", "android": "https://dc.lft.to/lastmile_qr_scan"}}, {"name": "17dcabbd2bc782d77e4c2e3a45f5aee5", "fusion_lat": 0.0, "type": "electric_scooter", "lat": 38.89959483333333, "is_reserved": 0, "is_disabled": 0, "fusion_lon": 0.0, "bike_id": "17dcabbd2bc782d77e4c2e3a45f5aee5", "lon": -77.03113983333333, "rental_uris": {"ios": "https://dc.lft.to/lastmile_qr_scan", "android": "https://dc.lft.to/lastmile_qr_scan"}}, {"name": "9436f72f1a6ef06eabb08425bc604b5b", "fusion_lat": 0.0, "type": "electric_bike", "lat": 38.96416516666667, "is_reserved": 0, "is_disabled": 0, "fusion_lon": 0.0, "bike_id": "9436f72f1a6ef06eabb08425bc604b5b", "lon": -77.033523, "rental_uris": {"ios": "https://dc.lft.to/lastmile_qr_scan", "android": "https://dc.lft.to/lastmile_qr_scan"}}, {"name": "a90b6b2df649cc998721b508f09aef69", "fusion_lat": 0.0, "type": "electric_scooter", "lat": 38.89682233333333, "is_reserved": 0, "is_disabled": 0, "fusion_lon": 0.0, "bike_id": "a90b6b2df649cc998721b508f09aef69", "lon": -77.03256183333333, "rental_uris": {"ios": "https://dc.lft.to/lastmile_qr_scan", "android": "https://dc.lft.to/lastmile_qr_scan"}}, {"name": "b0b30ee48fa16f4430eb38e735a8345a", "fusion_lat": 0.0, "type": "electric_scooter", "lat": 38.896067333333335, "is_reserved": 0, "is_disabled": 0, "fusion_lon": 0.0, "bike_id": "b0b30ee48fa16f4430eb38e735a8345a", "lon": -77.0468635, "rental_uris": {"ios": "https://dc.lft.to/lastmile_qr_scan", "android": "https://dc.lft.to/lastmile_qr_scan"}}, {"name": "e49d1bff74d1fc7409b5dd83dac29c1b", "fusion_lat": 0.0, "type": "electric_bike", "lat": 38.968574833333335, "is_reserved": 0, "is_disabled": 0, "fusion_lon": 0.0, "bike_id": "e49d1bff74d1fc7409b5dd83dac29c1b", "lon": -77.0333715, "rental_uris": {"ios": "https://dc.lft.to/lastmile_qr_scan", "android": "https://dc.lft.to/lastmile_qr_scan"}}, {"name": "813e7448aeeca2b76019642de0e76741", "fusion_lat": 0.0, "type": "electric_scooter", "lat": 38.9262895, "is_reserved": 0, "is_disabled": 0, "fusion_lon": 0.0, "bike_id": "813e7448aeeca2b76019642de0e76741", "lon": -77.03793766666666, "rental_uris": {"ios": "https://dc.lft.to/lastmile_qr_scan", "android": "https://dc.lft.to/lastmile_qr_scan"}}, {"name": "a94af8a031dc633566439308a4061e35", "fusion_lat": 0.0, "type": "electric_scooter", "lat": 38.926914, "is_reserved": 0, "is_disabled": 0, "fusion_lon": 0.0, "bike_id": "a94af8a031dc633566439308a4061e35", "lon": -77.02426266666667, "rental_uris": {"ios": "https://dc.lft.to/lastmile_qr_scan", "android": "https://dc.lft.to/lastmile_qr_scan"}}, {"name": "44e30482f24a777a1c40669c83fa5a16", "fusion_lat": 0.0, "type": "electric_scooter", "lat": 38.89749183333333, "is_reserved": 0, "is_disabled": 0, "fusion_lon": 0.0, "bike_id": "44e30482f24a777a1c40669c83fa5a16", "lon": -77.0270915, "rental_uris": {"ios": "https://dc.lft.to/lastmile_qr_scan", "android": "https://dc.lft.to/lastmile_qr_scan"}}, {"name": "48891300aa89a89b40966152418b6cc6", "fusion_lat": 0.0, "type": "electric_scooter", "lat": 38.91738733333333, "is_reserved": 0, "is_disabled": 0, "fusion_lon": 0.0, "bike_id": "48891300aa89a89b40966152418b6cc6", "lon": -77.034504, "rental_uris": {"ios": "https://dc.lft.to/lastmile_qr_scan", "android": "https://dc.lft.to/lastmile_qr_scan"}}, {"name": "447af1e96208744e53fa47c89313e1fa", "fusion_lat": 0.0, "type": "electric_scooter", "lat": 38.91568933333333, "is_reserved": 0, "is_disabled": 0, "fusion_lon": 0.0, "bike_id": "447af1e96208744e53fa47c89313e1fa", "lon": -77.0120265, "rental_uris": {"ios": "https://dc.lft.to/lastmile_qr_scan", "android": "https://dc.lft.to/lastmile_qr_scan"}}, {"name": "c22af26fd286b790da885414f61aefe1", "fusion_lat": 0.0, "type": "electric_scooter", "lat": 38.913329833333336, "is_reserved": 0, "is_disabled": 0, "fusion_lon": 0.0, "bike_id": "c22af26fd286b790da885414f61aefe1", "lon": -77.04871233333333, "rental_uris": {"ios": "https://dc.lft.to/lastmile_qr_scan", "android": "https://dc.lft.to/lastmile_qr_scan"}}, {"name": "10dc7319bc372189a5a8d4e76e233f07", "fusion_lat": 0.0, "type": "electric_scooter", "lat": 38.892456, "is_reserved": 0, "is_disabled": 0, "fusion_lon": 0.0, "bike_id": "10dc7319bc372189a5a8d4e76e233f07", "lon": -77.01523316666666, "rental_uris": {"ios": "https://dc.lft.to/lastmile_qr_scan", "android": "https://dc.lft.to/lastmile_qr_scan"}}, {"name": "dfd0c755356524426c20e98e100c1a4d", "fusion_lat": 0.0, "type": "electric_scooter", "lat": 38.906129666666665, "is_reserved": 0, "is_disabled": 0, "fusion_lon": 0.0, "bike_id": "dfd0c755356524426c20e98e100c1a4d", "lon": -76.97680366666667, "rental_uris": {"ios": "https://dc.lft.to/lastmile_qr_scan", "android": "https://dc.lft.to/lastmile_qr_scan"}}, {"name": "92459e316beb2c5929605a4fab768274", "fusion_lat": 0.0, "type": "electric_scooter", "lat": 38.87648983333333, "is_reserved": 0, "is_disabled": 0, "fusion_lon": 0.0, "bike_id": "92459e316beb2c5929605a4fab768274", "lon": -77.00419883333333, "rental_uris": {"ios": "https://dc.lft.to/lastmile_qr_scan", "android": "https://dc.lft.to/lastmile_qr_scan"}}, {"name": "cd3fcd35cffc263cf4de5befa54b9890", "fusion_lat": 0.0, "type": "electric_scooter", "lat": 38.9166335, "is_reserved": 0, "is_disabled": 0, "fusion_lon": 0.0, "bike_id": "cd3fcd35cffc263cf4de5befa54b9890", "lon": -77.0237225, "rental_uris": {"ios": "https://dc.lft.to/lastmile_qr_scan", "android": "https://dc.lft.to/lastmile_qr_scan"}}, {"name": "a03f6234298a72a17c744eeac981a295", "fusion_lat": 0.0, "type": "electric_scooter", "lat": 38.9102525, "is_reserved": 0, "is_disabled": 0, "fusion_lon": 0.0, "bike_id": "a03f6234298a72a17c744eeac981a295", "lon": -77.007621, "rental_uris": {"ios": "https://dc.lft.to/lastmile_qr_scan", "android": "https://dc.lft.to/lastmile_qr_scan"}}, {"name": "35104e23a5d02a1e588ed2ed9b6eed52", "fusion_lat": 0.0, "type": "electric_scooter", "lat": 38.902365333333336, "is_reserved": 0, "is_disabled": 0, "fusion_lon": 0.0, "bike_id": "35104e23a5d02a1e588ed2ed9b6eed52", "lon": -77.04588333333334, "rental_uris": {"ios": "https://dc.lft.to/lastmile_qr_scan", "android": "https://dc.lft.to/lastmile_qr_scan"}}, {"name": "f90768df85afa4f79d586930b4fb62c8", "fusion_lat": 0.0, "type": "electric_bike", "lat": 38.863772833333336, "is_reserved": 0, "is_disabled": 0, "fusion_lon": 0.0, "bike_id": "f90768df85afa4f79d586930b4fb62c8", "lon": -77.1290005, "rental_uris": {"ios": "https://dc.lft.to/lastmile_qr_scan", "android": "https://dc.lft.to/lastmile_qr_scan"}}, {"name": "5c110d817ebae7f03691cfd6a405f074", "fusion_lat": 0.0, "type": "electric_scooter", "lat": 38.911917333333335, "is_reserved": 0, "is_disabled": 0, "fusion_lon": 0.0, "bike_id": "5c110d817ebae7f03691cfd6a405f074", "lon": -77.04535166666666, "rental_uris": {"ios": "https://dc.lft.to/lastmile_qr_scan", "android": "https://dc.lft.to/lastmile_qr_scan"}}, {"name": "96fbf28487dda9a2d0eca6e7d73cab60", "fusion_lat": 0.0, "type": "electric_scooter", "lat": 38.857084666666665, "is_reserved": 0, "is_disabled": 0, "fusion_lon": 0.0, "bike_id": "96fbf28487dda9a2d0eca6e7d73cab60", "lon": -76.98127816666667, "rental_uris": {"ios": "https://dc.lft.to/lastmile_qr_scan", "android": "https://dc.lft.to/lastmile_qr_scan"}}, {"name": "8834e5900695f69eed9b381f9388b213", "fusion_lat": 0.0, "type": "electric_scooter", "lat": 38.905307666666666, "is_reserved": 0, "is_disabled": 0, "fusion_lon": 0.0, "bike_id": "8834e5900695f69eed9b381f9388b213", "lon": -77.05763966666666, "rental_uris": {"ios": "https://dc.lft.to/lastmile_qr_scan", "android": "https://dc.lft.to/lastmile_qr_scan"}}, {"name": "a950476161a9b402bfab540c97790254", "fusion_lat": 0.0, "type": "electric_scooter", "lat": 38.9309225, "is_reserved": 0, "is_disabled": 0, "fusion_lon": 0.0, "bike_id": "a950476161a9b402bfab540c97790254", "lon": -77.02502533333333, "rental_uris": {"ios": "https://dc.lft.to/lastmile_qr_scan", "android": "https://dc.lft.to/lastmile_qr_scan"}}, {"name": "a35f9afc7d47cfe054cab0554419c823", "fusion_lat": 0.0, "type": "electric_scooter", "lat": 38.88736383333333, "is_reserved": 0, "is_disabled": 0, "fusion_lon": 0.0, "bike_id": "a35f9afc7d47cfe054cab0554419c823", "lon": -77.02127966666667, "rental_uris": {"ios": "https://dc.lft.to/lastmile_qr_scan", "android": "https://dc.lft.to/lastmile_qr_scan"}}, {"name": "9f676992136ce93ea9e135163b255ab6", "fusion_lat": 0.0, "type": "electric_scooter", "lat": 38.90062283333334, "is_reserved": 0, "is_disabled": 0, "fusion_lon": 0.0, "bike_id": "9f676992136ce93ea9e135163b255ab6", "lon": -77.05041016666667, "rental_uris": {"ios": "https://dc.lft.to/lastmile_qr_scan", "android": "https://dc.lft.to/lastmile_qr_scan"}}, {"name": "615ca67b65ca40c67be41a2940394bfa", "fusion_lat": 0.0, "type": "electric_scooter", "lat": 38.939704166666665, "is_reserved": 0, "is_disabled": 0, "fusion_lon": 0.0, "bike_id": "615ca67b65ca40c67be41a2940394bfa", "lon": -77.03556016666667, "rental_uris": {"ios": "https://dc.lft.to/lastmile_qr_scan", "android": "https://dc.lft.to/lastmile_qr_scan"}}, {"name": "5fcddaab640a0f7baa0295b7a1239d7f", "fusion_lat": 0.0, "type": "electric_scooter", "lat": 38.898770666666664, "is_reserved": 0, "is_disabled": 0, "fusion_lon": 0.0, "bike_id": "5fcddaab640a0f7baa0295b7a1239d7f", "lon": -76.93159016666667, "rental_uris": {"ios": "https://dc.lft.to/lastmile_qr_scan", "android": "https://dc.lft.to/lastmile_qr_scan"}}, {"name": "c6a4795a06c74aa5c762a31946d134de", "fusion_lat": 0.0, "type": "electric_scooter", "lat": 38.92519983333333, "is_reserved": 0, "is_disabled": 0, "fusion_lon": 0.0, "bike_id": "c6a4795a06c74aa5c762a31946d134de", "lon": -77.05538633333333, "rental_uris": {"ios": "https://dc.lft.to/lastmile_qr_scan", "android": "https://dc.lft.to/lastmile_qr_scan"}}, {"name": "0e4330ea417012fcfb5d74c102495e54", "fusion_lat": 0.0, "type": "electric_scooter", "lat": 38.9082835, "is_reserved": 0, "is_disabled": 0, "fusion_lon": 0.0, "bike_id": "0e4330ea417012fcfb5d74c102495e54", "lon": -76.99686166666666, "rental_uris": {"ios": "https://dc.lft.to/lastmile_qr_scan", "android": "https://dc.lft.to/lastmile_qr_scan"}}, {"name": "c5d192f0409cd6b963ccbae5d16f0626", "fusion_lat": 0.0, "type": "electric_bike", "lat": 38.838091, "is_reserved": 0, "is_disabled": 0, "fusion_lon": 0.0, "bike_id": "c5d192f0409cd6b963ccbae5d16f0626", "lon": -77.09523816666666, "rental_uris": {"ios": "https://dc.lft.to/lastmile_qr_scan", "android": "https://dc.lft.to/lastmile_qr_scan"}}, {"name": "8e3ad189f4431becace2e75850bc59fd", "fusion_lat": 0.0, "type": "electric_scooter", "lat": 38.8842635, "is_reserved": 0, "is_disabled": 0, "fusion_lon": 0.0, "bike_id": "8e3ad189f4431becace2e75850bc59fd", "lon": -76.9575595, "rental_uris": {"ios": "https://dc.lft.to/lastmile_qr_scan", "android": "https://dc.lft.to/lastmile_qr_scan"}}, {"name": "e1876be1f306cb8281c9972f492183b6", "fusion_lat": 0.0, "type": "electric_scooter", "lat": 38.8718295, "is_reserved": 0, "is_disabled": 0, "fusion_lon": 0.0, "bike_id": "e1876be1f306cb8281c9972f492183b6", "lon": -77.0059705, "rental_uris": {"ios": "https://dc.lft.to/lastmile_qr_scan", "android": "https://dc.lft.to/lastmile_qr_scan"}}, {"name": "d8d4286010743a6baaff746abeb92704", "fusion_lat": 0.0, "type": "electric_scooter", "lat": 38.89727216666667, "is_reserved": 0, "is_disabled": 0, "fusion_lon": 0.0, "bike_id": "d8d4286010743a6baaff746abeb92704", "lon": -77.04683216666666, "rental_uris": {"ios": "https://dc.lft.to/lastmile_qr_scan", "android": "https://dc.lft.to/lastmile_qr_scan"}}, {"name": "8a3c3850ecfd9de340b907ee4ef1a373", "fusion_lat": 0.0, "type": "electric_scooter", "lat": 38.89404716666667, "is_reserved": 0, "is_disabled": 0, "fusion_lon": 0.0, "bike_id": "8a3c3850ecfd9de340b907ee4ef1a373", "lon": -76.947997, "rental_uris": {"ios": "https://dc.lft.to/lastmile_qr_scan", "android": "https://dc.lft.to/lastmile_qr_scan"}}, {"name": "2d5b306aba40277745e0591c94fed247", "fusion_lat": 0.0, "type": "electric_scooter", "lat": 38.904113, "is_reserved": 0, "is_disabled": 0, "fusion_lon": 0.0, "bike_id": "2d5b306aba40277745e0591c94fed247", "lon": -77.0187215, "rental_uris": {"ios": "https://dc.lft.to/lastmile_qr_scan", "android": "https://dc.lft.to/lastmile_qr_scan"}}, {"name": "24817c4ad2f6de09a20154550676f53e", "fusion_lat": 0.0, "type": "electric_scooter", "lat": 38.887376833333335, "is_reserved": 0, "is_disabled": 0, "fusion_lon": 0.0, "bike_id": "24817c4ad2f6de09a20154550676f53e", "lon": -77.01534116666667, "rental_uris": {"ios": "https://dc.lft.to/lastmile_qr_scan", "android": "https://dc.lft.to/lastmile_qr_scan"}}, {"name": "ed6cfe129804cc2cbad8440ad05d0e51", "fusion_lat": 0.0, "type": "electric_scooter", "lat": 38.931905, "is_reserved": 0, "is_disabled": 0, "fusion_lon": 0.0, "bike_id": "ed6cfe129804cc2cbad8440ad05d0e51", "lon": -77.02761766666667, "rental_uris": {"ios": "https://dc.lft.to/lastmile_qr_scan", "android": "https://dc.lft.to/lastmile_qr_scan"}}, {"name": "34c764ecfea9f56476fa40977db5f760", "fusion_lat": 0.0, "type": "electric_bike", "lat": 38.88633766666667, "is_reserved": 0, "is_disabled": 0, "fusion_lon": 0.0, "bike_id": "34c764ecfea9f56476fa40977db5f760", "lon": -76.95459766666667, "rental_uris": {"ios": "https://dc.lft.to/lastmile_qr_scan", "android": "https://dc.lft.to/lastmile_qr_scan"}}, {"name": "5e7703e07259b75a139629423af515f9", "fusion_lat": 0.0, "type": "electric_bike", "lat": 38.898363, "is_reserved": 0, "is_disabled": 0, "fusion_lon": 0.0, "bike_id": "5e7703e07259b75a139629423af515f9", "lon": -77.11800383333333, "rental_uris": {"ios": "https://dc.lft.to/lastmile_qr_scan", "android": "https://dc.lft.to/lastmile_qr_scan"}}, {"name": "5e2d85d65d8fa185d36cdd7eeb798a5b", "fusion_lat": 0.0, "type": "electric_scooter", "lat": 38.90049716666667, "is_reserved": 0, "is_disabled": 0, "fusion_lon": 0.0, "bike_id": "5e2d85d65d8fa185d36cdd7eeb798a5b", "lon": -76.99022383333333, "rental_uris": {"ios": "https://dc.lft.to/lastmile_qr_scan", "android": "https://dc.lft.to/lastmile_qr_scan"}}, {"name": "b3ac8cf71e5e709390e1e0e2c7164803", "fusion_lat": 0.0, "type": "electric_scooter", "lat": 38.93548783333333, "is_reserved": 0, "is_disabled": 0, "fusion_lon": 0.0, "bike_id": "b3ac8cf71e5e709390e1e0e2c7164803", "lon": -77.05984366666667, "rental_uris": {"ios": "https://dc.lft.to/lastmile_qr_scan", "android": "https://dc.lft.to/lastmile_qr_scan"}}, {"name": "ee37f282f934625e25069e3bc3de2472", "fusion_lat": 0.0, "type": "electric_scooter", "lat": 38.9053605, "is_reserved": 0, "is_disabled": 0, "fusion_lon": 0.0, "bike_id": "ee37f282f934625e25069e3bc3de2472", "lon": -77.06289383333333, "rental_uris": {"ios": "https://dc.lft.to/lastmile_qr_scan", "android": "https://dc.lft.to/lastmile_qr_scan"}}, {"name": "422ae955e3d0f7a5c871e593142d9df5", "fusion_lat": 0.0, "type": "electric_scooter", "lat": 38.936403166666665, "is_reserved": 0, "is_disabled": 0, "fusion_lon": 0.0, "bike_id": "422ae955e3d0f7a5c871e593142d9df5", "lon": -77.03457616666667, "rental_uris": {"ios": "https://dc.lft.to/lastmile_qr_scan", "android": "https://dc.lft.to/lastmile_qr_scan"}}, {"name": "589b28a7470522588998cb7e79892b0f", "fusion_lat": 0.0, "type": "electric_scooter", "lat": 38.90646533333334, "is_reserved": 0, "is_disabled": 0, "fusion_lon": 0.0, "bike_id": "589b28a7470522588998cb7e79892b0f", "lon": -76.9838115, "rental_uris": {"ios": "https://dc.lft.to/lastmile_qr_scan", "android": "https://dc.lft.to/lastmile_qr_scan"}}, {"name": "d72ca8989a30538bcc169a7a7c646eb3", "fusion_lat": 0.0, "type": "electric_scooter", "lat": 38.97500216666667, "is_reserved": 0, "is_disabled": 0, "fusion_lon": 0.0, "bike_id": "d72ca8989a30538bcc169a7a7c646eb3", "lon": -77.01726716666667, "rental_uris": {"ios": "https://dc.lft.to/lastmile_qr_scan", "android": "https://dc.lft.to/lastmile_qr_scan"}}, {"name": "a68d07878790ccd6b09721e65af8a6b1", "fusion_lat": 0.0, "type": "electric_scooter", "lat": 38.8861715, "is_reserved": 0, "is_disabled": 0, "fusion_lon": 0.0, "bike_id": "a68d07878790ccd6b09721e65af8a6b1", "lon": -76.97814083333333, "rental_uris": {"ios": "https://dc.lft.to/lastmile_qr_scan", "android": "https://dc.lft.to/lastmile_qr_scan"}}, {"name": "f405761109387da7e4f0c0f63e4a9a5c", "fusion_lat": 0.0, "type": "electric_scooter", "lat": 38.90389783333333, "is_reserved": 0, "is_disabled": 0, "fusion_lon": 0.0, "bike_id": "f405761109387da7e4f0c0f63e4a9a5c", "lon": -77.01746583333333, "rental_uris": {"ios": "https://dc.lft.to/lastmile_qr_scan", "android": "https://dc.lft.to/lastmile_qr_scan"}}, {"name": "3e3cdc552213af386c4bad34712c96e6", "fusion_lat": 0.0, "type": "electric_bike", "lat": 38.93277033333333, "is_reserved": 0, "is_disabled": 0, "fusion_lon": 0.0, "bike_id": "3e3cdc552213af386c4bad34712c96e6", "lon": -76.99497916666667, "rental_uris": {"ios": "https://dc.lft.to/lastmile_qr_scan", "android": "https://dc.lft.to/lastmile_qr_scan"}}, {"name": "39fb6aa35c674c81673845c19dec522c", "fusion_lat": 0.0, "type": "electric_scooter", "lat": 38.92563066666666, "is_reserved": 0, "is_disabled": 0, "fusion_lon": 0.0, "bike_id": "39fb6aa35c674c81673845c19dec522c", "lon": -77.029631, "rental_uris": {"ios": "https://dc.lft.to/lastmile_qr_scan", "android": "https://dc.lft.to/lastmile_qr_scan"}}, {"name": "d52d3aff49ac65fc9d8b2b03c5d349a5", "fusion_lat": 0.0, "type": "electric_scooter", "lat": 38.908647333333334, "is_reserved": 0, "is_disabled": 0, "fusion_lon": 0.0, "bike_id": "d52d3aff49ac65fc9d8b2b03c5d349a5", "lon": -76.9994255, "rental_uris": {"ios": "https://dc.lft.to/lastmile_qr_scan", "android": "https://dc.lft.to/lastmile_qr_scan"}}, {"name": "6c00f87d9c1efcbd9d050b30cf9c4c27", "fusion_lat": 0.0, "type": "electric_scooter", "lat": 38.933899833333335, "is_reserved": 0, "is_disabled": 0, "fusion_lon": 0.0, "bike_id": "6c00f87d9c1efcbd9d050b30cf9c4c27", "lon": -77.0315515, "rental_uris": {"ios": "https://dc.lft.to/lastmile_qr_scan", "android": "https://dc.lft.to/lastmile_qr_scan"}}, {"name": "20bee3f50def24f027c47896039b3f2b", "fusion_lat": 0.0, "type": "electric_scooter", "lat": 38.9033125, "is_reserved": 0, "is_disabled": 0, "fusion_lon": 0.0, "bike_id": "20bee3f50def24f027c47896039b3f2b", "lon": -77.03833516666667, "rental_uris": {"ios": "https://dc.lft.to/lastmile_qr_scan", "android": "https://dc.lft.to/lastmile_qr_scan"}}, {"name": "7926d737e72aa3a6aa28b12b1408f500", "fusion_lat": 0.0, "type": "electric_scooter", "lat": 38.876485333333335, "is_reserved": 0, "is_disabled": 0, "fusion_lon": 0.0, "bike_id": "7926d737e72aa3a6aa28b12b1408f500", "lon": -76.96507766666667, "rental_uris": {"ios": "https://dc.lft.to/lastmile_qr_scan", "android": "https://dc.lft.to/lastmile_qr_scan"}}, {"name": "ca7fd2f5bc79feda27aa1258942f7209", "fusion_lat": 0.0, "type": "electric_scooter", "lat": 38.890182333333335, "is_reserved": 0, "is_disabled": 0, "fusion_lon": 0.0, "bike_id": "ca7fd2f5bc79feda27aa1258942f7209", "lon": -76.93506683333334, "rental_uris": {"ios": "https://dc.lft.to/lastmile_qr_scan", "android": "https://dc.lft.to/lastmile_qr_scan"}}, {"name": "d97947f41654ef6a4be01fe201e30697", "fusion_lat": 0.0, "type": "electric_bike", "lat": 38.93771066666667, "is_reserved": 0, "is_disabled": 0, "fusion_lon": 0.0, "bike_id": "d97947f41654ef6a4be01fe201e30697", "lon": -77.01912583333333, "rental_uris": {"ios": "https://dc.lft.to/lastmile_qr_scan", "android": "https://dc.lft.to/lastmile_qr_scan"}}, {"name": "bb8d3e02ef583624feafcd5d11a5bfbc", "fusion_lat": 0.0, "type": "electric_scooter", "lat": 38.901098833333336, "is_reserved": 0, "is_disabled": 0, "fusion_lon": 0.0, "bike_id": "bb8d3e02ef583624feafcd5d11a5bfbc", "lon": -77.04992366666667, "rental_uris": {"ios": "https://dc.lft.to/lastmile_qr_scan", "android": "https://dc.lft.to/lastmile_qr_scan"}}, {"name": "558801c2c3cff1223f51a0b77cd58595", "fusion_lat": 0.0, "type": "electric_scooter", "lat": 38.8927175, "is_reserved": 0, "is_disabled": 0, "fusion_lon": 0.0, "bike_id": "558801c2c3cff1223f51a0b77cd58595", "lon": -77.01367216666667, "rental_uris": {"ios": "https://dc.lft.to/lastmile_qr_scan", "android": "https://dc.lft.to/lastmile_qr_scan"}}, {"name": "f69fce352f4b068c5909e7f1a0cc1b59", "fusion_lat": 0.0, "type": "electric_scooter", "lat": 38.910035666666666, "is_reserved": 0, "is_disabled": 0, "fusion_lon": 0.0, "bike_id": "f69fce352f4b068c5909e7f1a0cc1b59", "lon": -77.0346985, "rental_uris": {"ios": "https://dc.lft.to/lastmile_qr_scan", "android": "https://dc.lft.to/lastmile_qr_scan"}}, {"name": "5b78a9f25e355fb18ae3083d478ecebe", "fusion_lat": 0.0, "type": "electric_bike", "lat": 38.9269165, "is_reserved": 0, "is_disabled": 0, "fusion_lon": 0.0, "bike_id": "5b78a9f25e355fb18ae3083d478ecebe", "lon": -77.00791483333333, "rental_uris": {"ios": "https://dc.lft.to/lastmile_qr_scan", "android": "https://dc.lft.to/lastmile_qr_scan"}}, {"name": "a9947409e910f94f337d916ceb53bf1b", "fusion_lat": 0.0, "type": "electric_bike", "lat": 38.84592683333333, "is_reserved": 0, "is_disabled": 0, "fusion_lon": 0.0, "bike_id": "a9947409e910f94f337d916ceb53bf1b", "lon": -76.96877983333333, "rental_uris": {"ios": "https://dc.lft.to/lastmile_qr_scan", "android": "https://dc.lft.to/lastmile_qr_scan"}}, {"name": "220969c7abf56cc3de3ebd15123a5cbb", "fusion_lat": 0.0, "type": "electric_scooter", "lat": 38.9035545, "is_reserved": 0, "is_disabled": 0, "fusion_lon": 0.0, "bike_id": "220969c7abf56cc3de3ebd15123a5cbb", "lon": -77.01764833333333, "rental_uris": {"ios": "https://dc.lft.to/lastmile_qr_scan", "android": "https://dc.lft.to/lastmile_qr_scan"}}, {"name": "6a5afa2ebf7ad77b1e1a045e0be0e90e", "fusion_lat": 0.0, "type": "electric_scooter", "lat": 38.90814866666667, "is_reserved": 0, "is_disabled": 0, "fusion_lon": 0.0, "bike_id": "6a5afa2ebf7ad77b1e1a045e0be0e90e", "lon": -77.03950866666666, "rental_uris": {"ios": "https://dc.lft.to/lastmile_qr_scan", "android": "https://dc.lft.to/lastmile_qr_scan"}}, {"name": "895fe72c96f0886e027d9594374a8dbd", "fusion_lat": 0.0, "type": "electric_bike", "lat": 38.877600666666666, "is_reserved": 0, "is_disabled": 0, "fusion_lon": 0.0, "bike_id": "895fe72c96f0886e027d9594374a8dbd", "lon": -76.97981216666666, "rental_uris": {"ios": "https://dc.lft.to/lastmile_qr_scan", "android": "https://dc.lft.to/lastmile_qr_scan"}}, {"name": "36f0f76f0f7323aac1c2db32007448ed", "fusion_lat": 0.0, "type": "electric_scooter", "lat": 38.926453333333335, "is_reserved": 0, "is_disabled": 0, "fusion_lon": 0.0, "bike_id": "36f0f76f0f7323aac1c2db32007448ed", "lon": -77.03725333333334, "rental_uris": {"ios": "https://dc.lft.to/lastmile_qr_scan", "android": "https://dc.lft.to/lastmile_qr_scan"}}, {"name": "ed6a14c1b5a1e150898291534524a87b", "fusion_lat": 0.0, "type": "electric_scooter", "lat": 38.869595833333335, "is_reserved": 0, "is_disabled": 0, "fusion_lon": 0.0, "bike_id": "ed6a14c1b5a1e150898291534524a87b", "lon": -77.01373266666667, "rental_uris": {"ios": "https://dc.lft.to/lastmile_qr_scan", "android": "https://dc.lft.to/lastmile_qr_scan"}}, {"name": "22e672d3e3414c9a7866cba33034041e", "fusion_lat": 0.0, "type": "electric_scooter", "lat": 38.909754166666666, "is_reserved": 0, "is_disabled": 0, "fusion_lon": 0.0, "bike_id": "22e672d3e3414c9a7866cba33034041e", "lon": -77.03415883333334, "rental_uris": {"ios": "https://dc.lft.to/lastmile_qr_scan", "android": "https://dc.lft.to/lastmile_qr_scan"}}, {"name": "a0403aaeb33345f4e3dd68cecd03d959", "fusion_lat": 0.0, "type": "electric_scooter", "lat": 38.92826566666667, "is_reserved": 0, "is_disabled": 0, "fusion_lon": 0.0, "bike_id": "a0403aaeb33345f4e3dd68cecd03d959", "lon": -77.022551, "rental_uris": {"ios": "https://dc.lft.to/lastmile_qr_scan", "android": "https://dc.lft.to/lastmile_qr_scan"}}, {"name": "edb071bce8bb312c2f02b5cd603eb911", "fusion_lat": 0.0, "type": "electric_scooter", "lat": 38.89999683333333, "is_reserved": 0, "is_disabled": 0, "fusion_lon": 0.0, "bike_id": "edb071bce8bb312c2f02b5cd603eb911", "lon": -77.05341283333334, "rental_uris": {"ios": "https://dc.lft.to/lastmile_qr_scan", "android": "https://dc.lft.to/lastmile_qr_scan"}}, {"name": "2f62b48a71d37989e60b49ba509e98ff", "fusion_lat": 0.0, "type": "electric_scooter", "lat": 38.9077455, "is_reserved": 0, "is_disabled": 0, "fusion_lon": 0.0, "bike_id": "2f62b48a71d37989e60b49ba509e98ff", "lon": -77.072517, "rental_uris": {"ios": "https://dc.lft.to/lastmile_qr_scan", "android": "https://dc.lft.to/lastmile_qr_scan"}}, {"name": "cfb2ae859c167e693c51c8bb39e1322c", "fusion_lat": 0.0, "type": "electric_scooter", "lat": 38.928686666666664, "is_reserved": 0, "is_disabled": 0, "fusion_lon": 0.0, "bike_id": "cfb2ae859c167e693c51c8bb39e1322c", "lon": -77.03437466666666, "rental_uris": {"ios": "https://dc.lft.to/lastmile_qr_scan", "android": "https://dc.lft.to/lastmile_qr_scan"}}, {"name": "1379d29a58a8f9d4c51fcff882c00b8d", "fusion_lat": 0.0, "type": "electric_scooter", "lat": 38.895511, "is_reserved": 0, "is_disabled": 0, "fusion_lon": 0.0, "bike_id": "1379d29a58a8f9d4c51fcff882c00b8d", "lon": -76.94871366666666, "rental_uris": {"ios": "https://dc.lft.to/lastmile_qr_scan", "android": "https://dc.lft.to/lastmile_qr_scan"}}, {"name": "20e584681cb9236cc0abbf9cf7da04d8", "fusion_lat": 0.0, "type": "electric_scooter", "lat": 38.903951166666666, "is_reserved": 0, "is_disabled": 0, "fusion_lon": 0.0, "bike_id": "20e584681cb9236cc0abbf9cf7da04d8", "lon": -77.00695233333333, "rental_uris": {"ios": "https://dc.lft.to/lastmile_qr_scan", "android": "https://dc.lft.to/lastmile_qr_scan"}}, {"name": "ad09d846484dd021a47e513d5562917e", "fusion_lat": 0.0, "type": "electric_scooter", "lat": 38.9096935, "is_reserved": 0, "is_disabled": 0, "fusion_lon": 0.0, "bike_id": "ad09d846484dd021a47e513d5562917e", "lon": -77.011167, "rental_uris": {"ios": "https://dc.lft.to/lastmile_qr_scan", "android": "https://dc.lft.to/lastmile_qr_scan"}}, {"name": "a9a064bddc22e84aab8a72388beb717c", "fusion_lat": 0.0, "type": "electric_bike", "lat": 38.95925666666667, "is_reserved": 0, "is_disabled": 0, "fusion_lon": 0.0, "bike_id": "a9a064bddc22e84aab8a72388beb717c", "lon": -76.92534383333333, "rental_uris": {"ios": "https://dc.lft.to/lastmile_qr_scan", "android": "https://dc.lft.to/lastmile_qr_scan"}}, {"name": "7f98b610cc3749176f1b6128a4a95151", "fusion_lat": 0.0, "type": "electric_scooter", "lat": 38.912299, "is_reserved": 0, "is_disabled": 0, "fusion_lon": 0.0, "bike_id": "7f98b610cc3749176f1b6128a4a95151", "lon": -77.048804, "rental_uris": {"ios": "https://dc.lft.to/lastmile_qr_scan", "android": "https://dc.lft.to/lastmile_qr_scan"}}, {"name": "e406bc16ce6a687e669fabdc583681c3", "fusion_lat": 0.0, "type": "electric_scooter", "lat": 38.90321633333333, "is_reserved": 0, "is_disabled": 0, "fusion_lon": 0.0, "bike_id": "e406bc16ce6a687e669fabdc583681c3", "lon": -77.05018533333333, "rental_uris": {"ios": "https://dc.lft.to/lastmile_qr_scan", "android": "https://dc.lft.to/lastmile_qr_scan"}}, {"name": "338409139cec6ebda406f35768245d53", "fusion_lat": 0.0, "type": "electric_bike", "lat": 38.93946066666667, "is_reserved": 0, "is_disabled": 0, "fusion_lon": 0.0, "bike_id": "338409139cec6ebda406f35768245d53", "lon": -77.36089816666667, "rental_uris": {"ios": "https://dc.lft.to/lastmile_qr_scan", "android": "https://dc.lft.to/lastmile_qr_scan"}}, {"name": "f9be64fc52bca884a79a05db1ddb4ef3", "fusion_lat": 0.0, "type": "electric_scooter", "lat": 38.90110333333333, "is_reserved": 0, "is_disabled": 0, "fusion_lon": 0.0, "bike_id": "f9be64fc52bca884a79a05db1ddb4ef3", "lon": -77.02011, "rental_uris": {"ios": "https://dc.lft.to/lastmile_qr_scan", "android": "https://dc.lft.to/lastmile_qr_scan"}}, {"name": "04ceffdb2b20df183b975f715b8dad8e", "fusion_lat": 0.0, "type": "electric_scooter", "lat": 38.90244333333333, "is_reserved": 0, "is_disabled": 0, "fusion_lon": 0.0, "bike_id": "04ceffdb2b20df183b975f715b8dad8e", "lon": -77.00200166666667, "rental_uris": {"ios": "https://dc.lft.to/lastmile_qr_scan", "android": "https://dc.lft.to/lastmile_qr_scan"}}, {"name": "8ce08dfd84511b51b7a88d193a7affe4", "fusion_lat": 0.0, "type": "electric_scooter", "lat": 38.936077166666664, "is_reserved": 0, "is_disabled": 0, "fusion_lon": 0.0, "bike_id": "8ce08dfd84511b51b7a88d193a7affe4", "lon": -77.055884, "rental_uris": {"ios": "https://dc.lft.to/lastmile_qr_scan", "android": "https://dc.lft.to/lastmile_qr_scan"}}, {"name": "d07ab77ad1b3f55a17e5a0be98cc8a7c", "fusion_lat": 0.0, "type": "electric_scooter", "lat": 38.9063785, "is_reserved": 0, "is_disabled": 0, "fusion_lon": 0.0, "bike_id": "d07ab77ad1b3f55a17e5a0be98cc8a7c", "lon": -77.01398183333333, "rental_uris": {"ios": "https://dc.lft.to/lastmile_qr_scan", "android": "https://dc.lft.to/lastmile_qr_scan"}}, {"name": "eacac35bd031d33de5b49bc6a553be4e", "fusion_lat": 0.0, "type": "electric_scooter", "lat": 38.90535, "is_reserved": 0, "is_disabled": 0, "fusion_lon": 0.0, "bike_id": "eacac35bd031d33de5b49bc6a553be4e", "lon": -77.02213566666667, "rental_uris": {"ios": "https://dc.lft.to/lastmile_qr_scan", "android": "https://dc.lft.to/lastmile_qr_scan"}}, {"name": "c4c1cd6d0b0dd8a733349784a69be038", "fusion_lat": 0.0, "type": "electric_scooter", "lat": 38.9241735, "is_reserved": 0, "is_disabled": 0, "fusion_lon": 0.0, "bike_id": "c4c1cd6d0b0dd8a733349784a69be038", "lon": -77.051913, "rental_uris": {"ios": "https://dc.lft.to/lastmile_qr_scan", "android": "https://dc.lft.to/lastmile_qr_scan"}}, {"name": "54895aad99bf80f4143f197c2264e3ff", "fusion_lat": 0.0, "type": "electric_scooter", "lat": 38.931984, "is_reserved": 0, "is_disabled": 0, "fusion_lon": 0.0, "bike_id": "54895aad99bf80f4143f197c2264e3ff", "lon": -77.03655716666667, "rental_uris": {"ios": "https://dc.lft.to/lastmile_qr_scan", "android": "https://dc.lft.to/lastmile_qr_scan"}}, {"name": "1f3553847417a6cce9ee12f06f6226f9", "fusion_lat": 0.0, "type": "electric_scooter", "lat": 38.959049, "is_reserved": 0, "is_disabled": 0, "fusion_lon": 0.0, "bike_id": "1f3553847417a6cce9ee12f06f6226f9", "lon": -77.080786, "rental_uris": {"ios": "https://dc.lft.to/lastmile_qr_scan", "android": "https://dc.lft.to/lastmile_qr_scan"}}, {"name": "71a2c8483ebb4d6e1680c53a002624ce", "fusion_lat": 0.0, "type": "electric_bike", "lat": 38.8078815, "is_reserved": 0, "is_disabled": 0, "fusion_lon": 0.0, "bike_id": "71a2c8483ebb4d6e1680c53a002624ce", "lon": -77.12961666666666, "rental_uris": {"ios": "https://dc.lft.to/lastmile_qr_scan", "android": "https://dc.lft.to/lastmile_qr_scan"}}, {"name": "527f63ac0feb3ec3fcf7c802819c6f6b", "fusion_lat": 0.0, "type": "electric_scooter", "lat": 38.8940515, "is_reserved": 0, "is_disabled": 0, "fusion_lon": 0.0, "bike_id": "527f63ac0feb3ec3fcf7c802819c6f6b", "lon": -76.9324245, "rental_uris": {"ios": "https://dc.lft.to/lastmile_qr_scan", "android": "https://dc.lft.to/lastmile_qr_scan"}}, {"name": "64fa83589ec08175b6bf21df5e9aa684", "fusion_lat": 0.0, "type": "electric_scooter", "lat": 38.902599, "is_reserved": 0, "is_disabled": 0, "fusion_lon": 0.0, "bike_id": "64fa83589ec08175b6bf21df5e9aa684", "lon": -77.04480816666667, "rental_uris": {"ios": "https://dc.lft.to/lastmile_qr_scan", "android": "https://dc.lft.to/lastmile_qr_scan"}}, {"name": "65735ede3de919f11426e5edb3c78569", "fusion_lat": 0.0, "type": "electric_scooter", "lat": 38.94700666666667, "is_reserved": 0, "is_disabled": 0, "fusion_lon": 0.0, "bike_id": "65735ede3de919f11426e5edb3c78569", "lon": -77.01948966666667, "rental_uris": {"ios": "https://dc.lft.to/lastmile_qr_scan", "android": "https://dc.lft.to/lastmile_qr_scan"}}, {"name": "2c36b0f7dfb374533277c6c4b92cd31d", "fusion_lat": 0.0, "type": "electric_scooter", "lat": 38.857959666666666, "is_reserved": 0, "is_disabled": 0, "fusion_lon": 0.0, "bike_id": "2c36b0f7dfb374533277c6c4b92cd31d", "lon": -76.99098816666667, "rental_uris": {"ios": "https://dc.lft.to/lastmile_qr_scan", "android": "https://dc.lft.to/lastmile_qr_scan"}}, {"name": "cfa6aebd119d1ba2d832fb657708395f", "fusion_lat": 0.0, "type": "electric_scooter", "lat": 38.92097966666667, "is_reserved": 0, "is_disabled": 0, "fusion_lon": 0.0, "bike_id": "cfa6aebd119d1ba2d832fb657708395f", "lon": -76.99191583333334, "rental_uris": {"ios": "https://dc.lft.to/lastmile_qr_scan", "android": "https://dc.lft.to/lastmile_qr_scan"}}, {"name": "f079c9c44f056777f01003976ea5089d", "fusion_lat": 0.0, "type": "electric_bike", "lat": 38.95710483333333, "is_reserved": 0, "is_disabled": 0, "fusion_lon": 0.0, "bike_id": "f079c9c44f056777f01003976ea5089d", "lon": -77.01475966666666, "rental_uris": {"ios": "https://dc.lft.to/lastmile_qr_scan", "android": "https://dc.lft.to/lastmile_qr_scan"}}, {"name": "6cbce4e16fb23981ac57a0af898dd1e0", "fusion_lat": 0.0, "type": "electric_scooter", "lat": 38.903165333333334, "is_reserved": 0, "is_disabled": 0, "fusion_lon": 0.0, "bike_id": "6cbce4e16fb23981ac57a0af898dd1e0", "lon": -77.04493366666667, "rental_uris": {"ios": "https://dc.lft.to/lastmile_qr_scan", "android": "https://dc.lft.to/lastmile_qr_scan"}}, {"name": "a1ce4f7651b1fe57b304ff9f3f6494b1", "fusion_lat": 0.0, "type": "electric_scooter", "lat": 38.90414166666667, "is_reserved": 0, "is_disabled": 0, "fusion_lon": 0.0, "bike_id": "a1ce4f7651b1fe57b304ff9f3f6494b1", "lon": -76.99077466666667, "rental_uris": {"ios": "https://dc.lft.to/lastmile_qr_scan", "android": "https://dc.lft.to/lastmile_qr_scan"}}, {"name": "1503388384420a8852629dd512c65f12", "fusion_lat": 0.0, "type": "electric_scooter", "lat": 38.923570833333336, "is_reserved": 0, "is_disabled": 0, "fusion_lon": 0.0, "bike_id": "1503388384420a8852629dd512c65f12", "lon": -77.054366, "rental_uris": {"ios": "https://dc.lft.to/lastmile_qr_scan", "android": "https://dc.lft.to/lastmile_qr_scan"}}, {"name": "a584ced3e9a8ff5898b83b7618f29719", "fusion_lat": 0.0, "type": "electric_bike", "lat": 39.0038465, "is_reserved": 0, "is_disabled": 0, "fusion_lon": 0.0, "bike_id": "a584ced3e9a8ff5898b83b7618f29719", "lon": -77.01287466666666, "rental_uris": {"ios": "https://dc.lft.to/lastmile_qr_scan", "android": "https://dc.lft.to/lastmile_qr_scan"}}, {"name": "31bed6e3e1a2ef117b7cef638c256e0b", "fusion_lat": 0.0, "type": "electric_scooter", "lat": 38.8982485, "is_reserved": 0, "is_disabled": 0, "fusion_lon": 0.0, "bike_id": "31bed6e3e1a2ef117b7cef638c256e0b", "lon": -77.029539, "rental_uris": {"ios": "https://dc.lft.to/lastmile_qr_scan", "android": "https://dc.lft.to/lastmile_qr_scan"}}, {"name": "d0fb1ab8274fe03764cf651cf7cdbc13", "fusion_lat": 0.0, "type": "electric_scooter", "lat": 38.901181666666666, "is_reserved": 0, "is_disabled": 0, "fusion_lon": 0.0, "bike_id": "d0fb1ab8274fe03764cf651cf7cdbc13", "lon": -77.044125, "rental_uris": {"ios": "https://dc.lft.to/lastmile_qr_scan", "android": "https://dc.lft.to/lastmile_qr_scan"}}, {"name": "de8dc3eeed42cbf83ea213b27f6e6de7", "fusion_lat": 0.0, "type": "electric_scooter", "lat": 38.902608, "is_reserved": 0, "is_disabled": 0, "fusion_lon": 0.0, "bike_id": "de8dc3eeed42cbf83ea213b27f6e6de7", "lon": -77.018782, "rental_uris": {"ios": "https://dc.lft.to/lastmile_qr_scan", "android": "https://dc.lft.to/lastmile_qr_scan"}}, {"name": "698f98ffbb13388d6905dcbdeab06bd1", "fusion_lat": 0.0, "type": "electric_scooter", "lat": 38.875764, "is_reserved": 0, "is_disabled": 0, "fusion_lon": 0.0, "bike_id": "698f98ffbb13388d6905dcbdeab06bd1", "lon": -77.01068016666666, "rental_uris": {"ios": "https://dc.lft.to/lastmile_qr_scan", "android": "https://dc.lft.to/lastmile_qr_scan"}}, {"name": "a4e637f5061393080b9206f99d2a1c07", "fusion_lat": 0.0, "type": "electric_scooter", "lat": 38.91105916666667, "is_reserved": 0, "is_disabled": 0, "fusion_lon": 0.0, "bike_id": "a4e637f5061393080b9206f99d2a1c07", "lon": -77.02464083333334, "rental_uris": {"ios": "https://dc.lft.to/lastmile_qr_scan", "android": "https://dc.lft.to/lastmile_qr_scan"}}, {"name": "baa5f49f2fb4cc5172d97fd04c80c6d7", "fusion_lat": 0.0, "type": "electric_scooter", "lat": 38.917657166666665, "is_reserved": 0, "is_disabled": 0, "fusion_lon": 0.0, "bike_id": "baa5f49f2fb4cc5172d97fd04c80c6d7", "lon": -77.096739, "rental_uris": {"ios": "https://dc.lft.to/lastmile_qr_scan", "android": "https://dc.lft.to/lastmile_qr_scan"}}, {"name": "03c123b7ab645a2d855df26efdf0e6ab", "fusion_lat": 0.0, "type": "electric_scooter", "lat": 38.909721, "is_reserved": 0, "is_disabled": 0, "fusion_lon": 0.0, "bike_id": "03c123b7ab645a2d855df26efdf0e6ab", "lon": -77.04279616666666, "rental_uris": {"ios": "https://dc.lft.to/lastmile_qr_scan", "android": "https://dc.lft.to/lastmile_qr_scan"}}, {"name": "eeca9db14d362491589ebae41792f558", "fusion_lat": 0.0, "type": "electric_scooter", "lat": 38.92513683333333, "is_reserved": 0, "is_disabled": 0, "fusion_lon": 0.0, "bike_id": "eeca9db14d362491589ebae41792f558", "lon": -77.00182066666666, "rental_uris": {"ios": "https://dc.lft.to/lastmile_qr_scan", "android": "https://dc.lft.to/lastmile_qr_scan"}}, {"name": "99bf6e14abb4ead7005b4cc08ebf8511", "fusion_lat": 0.0, "type": "electric_scooter", "lat": 38.89505666666667, "is_reserved": 0, "is_disabled": 0, "fusion_lon": 0.0, "bike_id": "99bf6e14abb4ead7005b4cc08ebf8511", "lon": -77.010929, "rental_uris": {"ios": "https://dc.lft.to/lastmile_qr_scan", "android": "https://dc.lft.to/lastmile_qr_scan"}}, {"name": "1c85a2ab79e1588eba9dd96a80b35ddc", "fusion_lat": 0.0, "type": "electric_scooter", "lat": 38.91689383333333, "is_reserved": 0, "is_disabled": 0, "fusion_lon": 0.0, "bike_id": "1c85a2ab79e1588eba9dd96a80b35ddc", "lon": -77.01883083333334, "rental_uris": {"ios": "https://dc.lft.to/lastmile_qr_scan", "android": "https://dc.lft.to/lastmile_qr_scan"}}, {"name": "ba99dc32bce5cb5cfae6c827980d46cf", "fusion_lat": 0.0, "type": "electric_scooter", "lat": 38.924881, "is_reserved": 0, "is_disabled": 0, "fusion_lon": 0.0, "bike_id": "ba99dc32bce5cb5cfae6c827980d46cf", "lon": -77.027106, "rental_uris": {"ios": "https://dc.lft.to/lastmile_qr_scan", "android": "https://dc.lft.to/lastmile_qr_scan"}}, {"name": "6b604b591ac7a0a853ed2574a477a9e5", "fusion_lat": 0.0, "type": "electric_scooter", "lat": 38.895507333333335, "is_reserved": 0, "is_disabled": 0, "fusion_lon": 0.0, "bike_id": "6b604b591ac7a0a853ed2574a477a9e5", "lon": -76.94875316666666, "rental_uris": {"ios": "https://dc.lft.to/lastmile_qr_scan", "android": "https://dc.lft.to/lastmile_qr_scan"}}, {"name": "c3b3e99bd03e1753d65331fcf7df981f", "fusion_lat": 0.0, "type": "electric_scooter", "lat": 38.932385, "is_reserved": 0, "is_disabled": 0, "fusion_lon": 0.0, "bike_id": "c3b3e99bd03e1753d65331fcf7df981f", "lon": -77.03850233333333, "rental_uris": {"ios": "https://dc.lft.to/lastmile_qr_scan", "android": "https://dc.lft.to/lastmile_qr_scan"}}, {"name": "be0aeeb2525cbee4eadee01faad6cc4b", "fusion_lat": 0.0, "type": "electric_scooter", "lat": 38.8961295, "is_reserved": 0, "is_disabled": 0, "fusion_lon": 0.0, "bike_id": "be0aeeb2525cbee4eadee01faad6cc4b", "lon": -77.04465133333333, "rental_uris": {"ios": "https://dc.lft.to/lastmile_qr_scan", "android": "https://dc.lft.to/lastmile_qr_scan"}}, {"name": "331464bde9db9759393f8d413d03df42", "fusion_lat": 0.0, "type": "electric_scooter", "lat": 38.8665725, "is_reserved": 0, "is_disabled": 0, "fusion_lon": 0.0, "bike_id": "331464bde9db9759393f8d413d03df42", "lon": -76.98881733333333, "rental_uris": {"ios": "https://dc.lft.to/lastmile_qr_scan", "android": "https://dc.lft.to/lastmile_qr_scan"}}, {"name": "0a76664a93850a03dbafc4af19da18e1", "fusion_lat": 0.0, "type": "electric_scooter", "lat": 38.90671016666667, "is_reserved": 0, "is_disabled": 0, "fusion_lon": 0.0, "bike_id": "0a76664a93850a03dbafc4af19da18e1", "lon": -77.046599, "rental_uris": {"ios": "https://dc.lft.to/lastmile_qr_scan", "android": "https://dc.lft.to/lastmile_qr_scan"}}, {"name": "815f92fe3b9099c973dda94d521fb3ce", "fusion_lat": 0.0, "type": "electric_scooter", "lat": 38.91984683333333, "is_reserved": 0, "is_disabled": 0, "fusion_lon": 0.0, "bike_id": "815f92fe3b9099c973dda94d521fb3ce", "lon": -77.02494983333334, "rental_uris": {"ios": "https://dc.lft.to/lastmile_qr_scan", "android": "https://dc.lft.to/lastmile_qr_scan"}}, {"name": "99c5e896496336c52de416cbe46fa339", "fusion_lat": 0.0, "type": "electric_scooter", "lat": 38.91294366666666, "is_reserved": 0, "is_disabled": 0, "fusion_lon": 0.0, "bike_id": "99c5e896496336c52de416cbe46fa339", "lon": -76.937422, "rental_uris": {"ios": "https://dc.lft.to/lastmile_qr_scan", "android": "https://dc.lft.to/lastmile_qr_scan"}}, {"name": "e8478faee0c3bad834496be8b09ab11b", "fusion_lat": 0.0, "type": "electric_scooter", "lat": 38.9296725, "is_reserved": 0, "is_disabled": 0, "fusion_lon": 0.0, "bike_id": "e8478faee0c3bad834496be8b09ab11b", "lon": -77.04114, "rental_uris": {"ios": "https://dc.lft.to/lastmile_qr_scan", "android": "https://dc.lft.to/lastmile_qr_scan"}}, {"name": "930751b5f05701fe4900b67406452b0b", "fusion_lat": 0.0, "type": "electric_scooter", "lat": 38.91973866666667, "is_reserved": 0, "is_disabled": 0, "fusion_lon": 0.0, "bike_id": "930751b5f05701fe4900b67406452b0b", "lon": -77.039656, "rental_uris": {"ios": "https://dc.lft.to/lastmile_qr_scan", "android": "https://dc.lft.to/lastmile_qr_scan"}}, {"name": "9f60e70c0b2fcbc407db266bdc5abc99", "fusion_lat": 0.0, "type": "electric_scooter", "lat": 38.928239, "is_reserved": 0, "is_disabled": 0, "fusion_lon": 0.0, "bike_id": "9f60e70c0b2fcbc407db266bdc5abc99", "lon": -77.022566, "rental_uris": {"ios": "https://dc.lft.to/lastmile_qr_scan", "android": "https://dc.lft.to/lastmile_qr_scan"}}, {"name": "7caeb7ebbf1af1d15eaccfd73c38aa1c", "fusion_lat": 0.0, "type": "electric_scooter", "lat": 38.92574533333333, "is_reserved": 0, "is_disabled": 0, "fusion_lon": 0.0, "bike_id": "7caeb7ebbf1af1d15eaccfd73c38aa1c", "lon": -76.99493116666666, "rental_uris": {"ios": "https://dc.lft.to/lastmile_qr_scan", "android": "https://dc.lft.to/lastmile_qr_scan"}}, {"name": "a76b7c77a55b65edc1fb59f7cbce16a6", "fusion_lat": 0.0, "type": "electric_bike", "lat": 38.84272933333333, "is_reserved": 0, "is_disabled": 0, "fusion_lon": 0.0, "bike_id": "a76b7c77a55b65edc1fb59f7cbce16a6", "lon": -76.98840883333334, "rental_uris": {"ios": "https://dc.lft.to/lastmile_qr_scan", "android": "https://dc.lft.to/lastmile_qr_scan"}}, {"name": "bd4f8b5f776355153880e869d7b26705", "fusion_lat": 0.0, "type": "electric_bike", "lat": 38.96010966666667, "is_reserved": 0, "is_disabled": 0, "fusion_lon": 0.0, "bike_id": "bd4f8b5f776355153880e869d7b26705", "lon": -76.9987335, "rental_uris": {"ios": "https://dc.lft.to/lastmile_qr_scan", "android": "https://dc.lft.to/lastmile_qr_scan"}}, {"name": "cc2c282c44f006fa282737525189d7e2", "fusion_lat": 0.0, "type": "electric_scooter", "lat": 38.9056155, "is_reserved": 0, "is_disabled": 0, "fusion_lon": 0.0, "bike_id": "cc2c282c44f006fa282737525189d7e2", "lon": -77.04887516666666, "rental_uris": {"ios": "https://dc.lft.to/lastmile_qr_scan", "android": "https://dc.lft.to/lastmile_qr_scan"}}, {"name": "7853ed5c7860cb3036e4160e79b08568", "fusion_lat": 0.0, "type": "electric_scooter", "lat": 38.90562366666666, "is_reserved": 0, "is_disabled": 0, "fusion_lon": 0.0, "bike_id": "7853ed5c7860cb3036e4160e79b08568", "lon": -77.021893, "rental_uris": {"ios": "https://dc.lft.to/lastmile_qr_scan", "android": "https://dc.lft.to/lastmile_qr_scan"}}, {"name": "043ac311f94ff46c070c835e098b854c", "fusion_lat": 0.0, "type": "electric_scooter", "lat": 38.861517166666665, "is_reserved": 0, "is_disabled": 0, "fusion_lon": 0.0, "bike_id": "043ac311f94ff46c070c835e098b854c", "lon": -76.98925016666666, "rental_uris": {"ios": "https://dc.lft.to/lastmile_qr_scan", "android": "https://dc.lft.to/lastmile_qr_scan"}}, {"name": "c98b99d4884c9ae201a30d0b043162b9", "fusion_lat": 0.0, "type": "electric_scooter", "lat": 38.89992616666667, "is_reserved": 0, "is_disabled": 0, "fusion_lon": 0.0, "bike_id": "c98b99d4884c9ae201a30d0b043162b9", "lon": -77.045849, "rental_uris": {"ios": "https://dc.lft.to/lastmile_qr_scan", "android": "https://dc.lft.to/lastmile_qr_scan"}}, {"name": "5f8aba2d134925b9158e5139f3a78176", "fusion_lat": 0.0, "type": "electric_scooter", "lat": 38.92122033333333, "is_reserved": 0, "is_disabled": 0, "fusion_lon": 0.0, "bike_id": "5f8aba2d134925b9158e5139f3a78176", "lon": -77.02538533333333, "rental_uris": {"ios": "https://dc.lft.to/lastmile_qr_scan", "android": "https://dc.lft.to/lastmile_qr_scan"}}, {"name": "ebdb643a55535baca94da4c09fda7770", "fusion_lat": 0.0, "type": "electric_bike", "lat": 38.904417333333335, "is_reserved": 0, "is_disabled": 0, "fusion_lon": 0.0, "bike_id": "ebdb643a55535baca94da4c09fda7770", "lon": -77.04853083333333, "rental_uris": {"ios": "https://dc.lft.to/lastmile_qr_scan", "android": "https://dc.lft.to/lastmile_qr_scan"}}, {"name": "c17e5de0c4788bc7d8be58d141c6cc85", "fusion_lat": 0.0, "type": "electric_bike", "lat": 38.8522745, "is_reserved": 0, "is_disabled": 0, "fusion_lon": 0.0, "bike_id": "c17e5de0c4788bc7d8be58d141c6cc85", "lon": -77.1033905, "rental_uris": {"ios": "https://dc.lft.to/lastmile_qr_scan", "android": "https://dc.lft.to/lastmile_qr_scan"}}, {"name": "99636dd3c1d1c6fd476159d79cccc70c", "fusion_lat": 0.0, "type": "electric_scooter", "lat": 38.91137616666666, "is_reserved": 0, "is_disabled": 0, "fusion_lon": 0.0, "bike_id": "99636dd3c1d1c6fd476159d79cccc70c", "lon": -77.04191, "rental_uris": {"ios": "https://dc.lft.to/lastmile_qr_scan", "android": "https://dc.lft.to/lastmile_qr_scan"}}, {"name": "e3cb7ba731139fc2b09479482fca1aba", "fusion_lat": 0.0, "type": "electric_scooter", "lat": 38.91708966666667, "is_reserved": 0, "is_disabled": 0, "fusion_lon": 0.0, "bike_id": "e3cb7ba731139fc2b09479482fca1aba", "lon": -77.03349033333333, "rental_uris": {"ios": "https://dc.lft.to/lastmile_qr_scan", "android": "https://dc.lft.to/lastmile_qr_scan"}}, {"name": "9258d3ecee00da636544f77dd6a4d6b8", "fusion_lat": 0.0, "type": "electric_scooter", "lat": 38.88045283333334, "is_reserved": 0, "is_disabled": 0, "fusion_lon": 0.0, "bike_id": "9258d3ecee00da636544f77dd6a4d6b8", "lon": -76.92724983333333, "rental_uris": {"ios": "https://dc.lft.to/lastmile_qr_scan", "android": "https://dc.lft.to/lastmile_qr_scan"}}, {"name": "4258c7ebb2aa58c766c8c7bef4900f23", "fusion_lat": 0.0, "type": "electric_scooter", "lat": 38.9048155, "is_reserved": 0, "is_disabled": 0, "fusion_lon": 0.0, "bike_id": "4258c7ebb2aa58c766c8c7bef4900f23", "lon": -77.04334733333333, "rental_uris": {"ios": "https://dc.lft.to/lastmile_qr_scan", "android": "https://dc.lft.to/lastmile_qr_scan"}}, {"name": "49cfa962b13b5138e8a979e81cfc3097", "fusion_lat": 0.0, "type": "electric_bike", "lat": 38.88039716666667, "is_reserved": 0, "is_disabled": 0, "fusion_lon": 0.0, "bike_id": "49cfa962b13b5138e8a979e81cfc3097", "lon": -77.01325683333333, "rental_uris": {"ios": "https://dc.lft.to/lastmile_qr_scan", "android": "https://dc.lft.to/lastmile_qr_scan"}}, {"name": "f335a75519abb9bcc35676dcb050777c", "fusion_lat": 0.0, "type": "electric_scooter", "lat": 38.90621, "is_reserved": 0, "is_disabled": 0, "fusion_lon": 0.0, "bike_id": "f335a75519abb9bcc35676dcb050777c", "lon": -77.03675783333334, "rental_uris": {"ios": "https://dc.lft.to/lastmile_qr_scan", "android": "https://dc.lft.to/lastmile_qr_scan"}}, {"name": "0b1eeeef822d146eb389590ffa5ce05c", "fusion_lat": 0.0, "type": "electric_scooter", "lat": 38.91403433333333, "is_reserved": 0, "is_disabled": 0, "fusion_lon": 0.0, "bike_id": "0b1eeeef822d146eb389590ffa5ce05c", "lon": -77.04568983333333, "rental_uris": {"ios": "https://dc.lft.to/lastmile_qr_scan", "android": "https://dc.lft.to/lastmile_qr_scan"}}, {"name": "2e66dd0ac6536f16980ac05bf19eef1a", "fusion_lat": 0.0, "type": "electric_scooter", "lat": 38.86664833333333, "is_reserved": 0, "is_disabled": 0, "fusion_lon": 0.0, "bike_id": "2e66dd0ac6536f16980ac05bf19eef1a", "lon": -76.9888575, "rental_uris": {"ios": "https://dc.lft.to/lastmile_qr_scan", "android": "https://dc.lft.to/lastmile_qr_scan"}}, {"name": "199bf6fa7eabb83b72815720c8c73cf8", "fusion_lat": 0.0, "type": "electric_scooter", "lat": 38.905128166666664, "is_reserved": 0, "is_disabled": 0, "fusion_lon": 0.0, "bike_id": "199bf6fa7eabb83b72815720c8c73cf8", "lon": -77.066234, "rental_uris": {"ios": "https://dc.lft.to/lastmile_qr_scan", "android": "https://dc.lft.to/lastmile_qr_scan"}}, {"name": "d85920be76caf83044d189670622639c", "fusion_lat": 0.0, "type": "electric_bike", "lat": 38.942704166666665, "is_reserved": 0, "is_disabled": 0, "fusion_lon": 0.0, "bike_id": "d85920be76caf83044d189670622639c", "lon": -76.98072116666667, "rental_uris": {"ios": "https://dc.lft.to/lastmile_qr_scan", "android": "https://dc.lft.to/lastmile_qr_scan"}}, {"name": "b3df2b61b11c95fcc14c0ea9461b6d91", "fusion_lat": 0.0, "type": "electric_scooter", "lat": 38.906927833333334, "is_reserved": 0, "is_disabled": 0, "fusion_lon": 0.0, "bike_id": "b3df2b61b11c95fcc14c0ea9461b6d91", "lon": -77.024044, "rental_uris": {"ios": "https://dc.lft.to/lastmile_qr_scan", "android": "https://dc.lft.to/lastmile_qr_scan"}}, {"name": "dbe2bae8bbc16e66ef94fff790172ee4", "fusion_lat": 0.0, "type": "electric_scooter", "lat": 38.91803983333333, "is_reserved": 0, "is_disabled": 0, "fusion_lon": 0.0, "bike_id": "dbe2bae8bbc16e66ef94fff790172ee4", "lon": -77.02819, "rental_uris": {"ios": "https://dc.lft.to/lastmile_qr_scan", "android": "https://dc.lft.to/lastmile_qr_scan"}}, {"name": "99420524a2e8dea280eba475716418db", "fusion_lat": 0.0, "type": "electric_scooter", "lat": 38.90252016666667, "is_reserved": 0, "is_disabled": 0, "fusion_lon": 0.0, "bike_id": "99420524a2e8dea280eba475716418db", "lon": -77.01536816666666, "rental_uris": {"ios": "https://dc.lft.to/lastmile_qr_scan", "android": "https://dc.lft.to/lastmile_qr_scan"}}, {"name": "dad9e44b6dd925ef4774be6053fb76e3", "fusion_lat": 0.0, "type": "electric_scooter", "lat": 38.90014816666667, "is_reserved": 0, "is_disabled": 0, "fusion_lon": 0.0, "bike_id": "dad9e44b6dd925ef4774be6053fb76e3", "lon": -77.01109266666667, "rental_uris": {"ios": "https://dc.lft.to/lastmile_qr_scan", "android": "https://dc.lft.to/lastmile_qr_scan"}}, {"name": "33e77001cce22324c6f16a298f3459f0", "fusion_lat": 0.0, "type": "electric_bike", "lat": 38.87472483333333, "is_reserved": 0, "is_disabled": 0, "fusion_lon": 0.0, "bike_id": "33e77001cce22324c6f16a298f3459f0", "lon": -76.965278, "rental_uris": {"ios": "https://dc.lft.to/lastmile_qr_scan", "android": "https://dc.lft.to/lastmile_qr_scan"}}, {"name": "5d745a4bf105d11d2b8b967e33952c1e", "fusion_lat": 0.0, "type": "electric_scooter", "lat": 38.916950666666665, "is_reserved": 0, "is_disabled": 0, "fusion_lon": 0.0, "bike_id": "5d745a4bf105d11d2b8b967e33952c1e", "lon": -77.02308583333334, "rental_uris": {"ios": "https://dc.lft.to/lastmile_qr_scan", "android": "https://dc.lft.to/lastmile_qr_scan"}}, {"name": "25b0f3cd2e463612fff1f60d9f6290c9", "fusion_lat": 0.0, "type": "electric_scooter", "lat": 38.915946166666664, "is_reserved": 0, "is_disabled": 0, "fusion_lon": 0.0, "bike_id": "25b0f3cd2e463612fff1f60d9f6290c9", "lon": -77.03862916666667, "rental_uris": {"ios": "https://dc.lft.to/lastmile_qr_scan", "android": "https://dc.lft.to/lastmile_qr_scan"}}, {"name": "df2ae22365118cc6416a02f4d231bde1", "fusion_lat": 0.0, "type": "electric_scooter", "lat": 38.90036583333333, "is_reserved": 0, "is_disabled": 0, "fusion_lon": 0.0, "bike_id": "df2ae22365118cc6416a02f4d231bde1", "lon": -76.98840866666667, "rental_uris": {"ios": "https://dc.lft.to/lastmile_qr_scan", "android": "https://dc.lft.to/lastmile_qr_scan"}}, {"name": "33e0f2bfa6b6551cca99dca755e18046", "fusion_lat": 0.0, "type": "electric_scooter", "lat": 38.90337533333334, "is_reserved": 0, "is_disabled": 0, "fusion_lon": 0.0, "bike_id": "33e0f2bfa6b6551cca99dca755e18046", "lon": -77.03847433333334, "rental_uris": {"ios": "https://dc.lft.to/lastmile_qr_scan", "android": "https://dc.lft.to/lastmile_qr_scan"}}, {"name": "70aa74feb2996e793b1eede6e53d8053", "fusion_lat": 0.0, "type": "electric_scooter", "lat": 38.90050983333333, "is_reserved": 0, "is_disabled": 0, "fusion_lon": 0.0, "bike_id": "70aa74feb2996e793b1eede6e53d8053", "lon": -77.02602616666667, "rental_uris": {"ios": "https://dc.lft.to/lastmile_qr_scan", "android": "https://dc.lft.to/lastmile_qr_scan"}}, {"name": "2a41409b858dfbc884163ecfb3517045", "fusion_lat": 0.0, "type": "electric_scooter", "lat": 38.87575783333333, "is_reserved": 0, "is_disabled": 0, "fusion_lon": 0.0, "bike_id": "2a41409b858dfbc884163ecfb3517045", "lon": -77.01057816666666, "rental_uris": {"ios": "https://dc.lft.to/lastmile_qr_scan", "android": "https://dc.lft.to/lastmile_qr_scan"}}, {"name": "3a5c13b43b542d63f759e4b858ca79f2", "fusion_lat": 0.0, "type": "electric_bike", "lat": 38.93874266666667, "is_reserved": 0, "is_disabled": 0, "fusion_lon": 0.0, "bike_id": "3a5c13b43b542d63f759e4b858ca79f2", "lon": -77.029249, "rental_uris": {"ios": "https://dc.lft.to/lastmile_qr_scan", "android": "https://dc.lft.to/lastmile_qr_scan"}}, {"name": "636b2c8ba3a96fdde9afcc0782e2e292", "fusion_lat": 0.0, "type": "electric_scooter", "lat": 38.910104, "is_reserved": 0, "is_disabled": 0, "fusion_lon": 0.0, "bike_id": "636b2c8ba3a96fdde9afcc0782e2e292", "lon": -76.9938845, "rental_uris": {"ios": "https://dc.lft.to/lastmile_qr_scan", "android": "https://dc.lft.to/lastmile_qr_scan"}}, {"name": "387475baa30beff26432548d0b0f94ac", "fusion_lat": 0.0, "type": "electric_scooter", "lat": 38.9217695, "is_reserved": 0, "is_disabled": 0, "fusion_lon": 0.0, "bike_id": "387475baa30beff26432548d0b0f94ac", "lon": -77.0266305, "rental_uris": {"ios": "https://dc.lft.to/lastmile_qr_scan", "android": "https://dc.lft.to/lastmile_qr_scan"}}, {"name": "14217c7f5cc44ba6c0435fe7a2746208", "fusion_lat": 0.0, "type": "electric_scooter", "lat": 38.9205675, "is_reserved": 0, "is_disabled": 0, "fusion_lon": 0.0, "bike_id": "14217c7f5cc44ba6c0435fe7a2746208", "lon": -77.04255216666667, "rental_uris": {"ios": "https://dc.lft.to/lastmile_qr_scan", "android": "https://dc.lft.to/lastmile_qr_scan"}}, {"name": "6000762477b69be4792df9835a3b1f29", "fusion_lat": 0.0, "type": "electric_scooter", "lat": 38.91543383333333, "is_reserved": 0, "is_disabled": 0, "fusion_lon": 0.0, "bike_id": "6000762477b69be4792df9835a3b1f29", "lon": -77.031736, "rental_uris": {"ios": "https://dc.lft.to/lastmile_qr_scan", "android": "https://dc.lft.to/lastmile_qr_scan"}}, {"name": "ff30bc8296c6c95d44322b408158b3f7", "fusion_lat": 0.0, "type": "electric_scooter", "lat": 38.8859885, "is_reserved": 0, "is_disabled": 0, "fusion_lon": 0.0, "bike_id": "ff30bc8296c6c95d44322b408158b3f7", "lon": -77.01974683333333, "rental_uris": {"ios": "https://dc.lft.to/lastmile_qr_scan", "android": "https://dc.lft.to/lastmile_qr_scan"}}, {"name": "de3a1c64274bc52581564ef2ab11afef", "fusion_lat": 0.0, "type": "electric_bike", "lat": 38.95186283333334, "is_reserved": 0, "is_disabled": 0, "fusion_lon": 0.0, "bike_id": "de3a1c64274bc52581564ef2ab11afef", "lon": -76.93544333333334, "rental_uris": {"ios": "https://dc.lft.to/lastmile_qr_scan", "android": "https://dc.lft.to/lastmile_qr_scan"}}, {"name": "3ecb770f32640ddbae5db31a95f39fdc", "fusion_lat": 0.0, "type": "electric_bike", "lat": 38.923496, "is_reserved": 0, "is_disabled": 0, "fusion_lon": 0.0, "bike_id": "3ecb770f32640ddbae5db31a95f39fdc", "lon": -76.992488, "rental_uris": {"ios": "https://dc.lft.to/lastmile_qr_scan", "android": "https://dc.lft.to/lastmile_qr_scan"}}, {"name": "b4c8023d475c3b2f69353da3717bad50", "fusion_lat": 0.0, "type": "electric_scooter", "lat": 38.903758333333336, "is_reserved": 0, "is_disabled": 0, "fusion_lon": 0.0, "bike_id": "b4c8023d475c3b2f69353da3717bad50", "lon": -77.0481585, "rental_uris": {"ios": "https://dc.lft.to/lastmile_qr_scan", "android": "https://dc.lft.to/lastmile_qr_scan"}}, {"name": "5bb99735e77ab01e0213dbc9448c8fe6", "fusion_lat": 0.0, "type": "electric_scooter", "lat": 38.873261, "is_reserved": 0, "is_disabled": 0, "fusion_lon": 0.0, "bike_id": "5bb99735e77ab01e0213dbc9448c8fe6", "lon": -77.00122566666667, "rental_uris": {"ios": "https://dc.lft.to/lastmile_qr_scan", "android": "https://dc.lft.to/lastmile_qr_scan"}}, {"name": "5852c2c3c1d7ac92a396f1d4a997671b", "fusion_lat": 0.0, "type": "electric_scooter", "lat": 38.901292833333336, "is_reserved": 0, "is_disabled": 0, "fusion_lon": 0.0, "bike_id": "5852c2c3c1d7ac92a396f1d4a997671b", "lon": -77.00069216666667, "rental_uris": {"ios": "https://dc.lft.to/lastmile_qr_scan", "android": "https://dc.lft.to/lastmile_qr_scan"}}, {"name": "b82bca5419d8ad3fe9b20153e8820dd7", "fusion_lat": 0.0, "type": "electric_scooter", "lat": 38.90954466666667, "is_reserved": 0, "is_disabled": 0, "fusion_lon": 0.0, "bike_id": "b82bca5419d8ad3fe9b20153e8820dd7", "lon": -77.04867833333333, "rental_uris": {"ios": "https://dc.lft.to/lastmile_qr_scan", "android": "https://dc.lft.to/lastmile_qr_scan"}}, {"name": "d848c1a164bb2b4e0e52903381fdd7f3", "fusion_lat": 0.0, "type": "electric_scooter", "lat": 38.91216516666667, "is_reserved": 0, "is_disabled": 0, "fusion_lon": 0.0, "bike_id": "d848c1a164bb2b4e0e52903381fdd7f3", "lon": -77.0295745, "rental_uris": {"ios": "https://dc.lft.to/lastmile_qr_scan", "android": "https://dc.lft.to/lastmile_qr_scan"}}, {"name": "facf66ca7880af0d218bd5e5bb1804b4", "fusion_lat": 0.0, "type": "electric_scooter", "lat": 38.8984725, "is_reserved": 0, "is_disabled": 0, "fusion_lon": 0.0, "bike_id": "facf66ca7880af0d218bd5e5bb1804b4", "lon": -77.04072333333333, "rental_uris": {"ios": "https://dc.lft.to/lastmile_qr_scan", "android": "https://dc.lft.to/lastmile_qr_scan"}}, {"name": "59c259471229db9cdd2399a7ba1ed359", "fusion_lat": 0.0, "type": "electric_scooter", "lat": 38.90477216666667, "is_reserved": 0, "is_disabled": 0, "fusion_lon": 0.0, "bike_id": "59c259471229db9cdd2399a7ba1ed359", "lon": -76.97327916666667, "rental_uris": {"ios": "https://dc.lft.to/lastmile_qr_scan", "android": "https://dc.lft.to/lastmile_qr_scan"}}, {"name": "5de032b5ffcde791cbe2ddd45f0f649c", "fusion_lat": 0.0, "type": "electric_scooter", "lat": 38.93000766666667, "is_reserved": 0, "is_disabled": 0, "fusion_lon": 0.0, "bike_id": "5de032b5ffcde791cbe2ddd45f0f649c", "lon": -77.0230475, "rental_uris": {"ios": "https://dc.lft.to/lastmile_qr_scan", "android": "https://dc.lft.to/lastmile_qr_scan"}}, {"name": "30c976121c1a32261e457c856fae4b1d", "fusion_lat": 0.0, "type": "electric_bike", "lat": 38.9385215, "is_reserved": 0, "is_disabled": 0, "fusion_lon": 0.0, "bike_id": "30c976121c1a32261e457c856fae4b1d", "lon": -77.026524, "rental_uris": {"ios": "https://dc.lft.to/lastmile_qr_scan", "android": "https://dc.lft.to/lastmile_qr_scan"}}, {"name": "ab44160cf46624114d4719e0ffdd3058", "fusion_lat": 0.0, "type": "electric_scooter", "lat": 38.875805666666665, "is_reserved": 0, "is_disabled": 0, "fusion_lon": 0.0, "bike_id": "ab44160cf46624114d4719e0ffdd3058", "lon": -77.00731183333333, "rental_uris": {"ios": "https://dc.lft.to/lastmile_qr_scan", "android": "https://dc.lft.to/lastmile_qr_scan"}}, {"name": "53aff38d4020b34accb71b94fa32504d", "fusion_lat": 0.0, "type": "electric_scooter", "lat": 38.90517366666667, "is_reserved": 0, "is_disabled": 0, "fusion_lon": 0.0, "bike_id": "53aff38d4020b34accb71b94fa32504d", "lon": -77.02947416666666, "rental_uris": {"ios": "https://dc.lft.to/lastmile_qr_scan", "android": "https://dc.lft.to/lastmile_qr_scan"}}, {"name": "76686f70c1af0d8c94d0f284c57719c5", "fusion_lat": 0.0, "type": "electric_scooter", "lat": 38.9084195, "is_reserved": 0, "is_disabled": 0, "fusion_lon": 0.0, "bike_id": "76686f70c1af0d8c94d0f284c57719c5", "lon": -77.0204425, "rental_uris": {"ios": "https://dc.lft.to/lastmile_qr_scan", "android": "https://dc.lft.to/lastmile_qr_scan"}}, {"name": "08add89018a510e9e9ede762c8aaf716", "fusion_lat": 0.0, "type": "electric_scooter", "lat": 38.9198595, "is_reserved": 0, "is_disabled": 0, "fusion_lon": 0.0, "bike_id": "08add89018a510e9e9ede762c8aaf716", "lon": -76.9730195, "rental_uris": {"ios": "https://dc.lft.to/lastmile_qr_scan", "android": "https://dc.lft.to/lastmile_qr_scan"}}, {"name": "9dce533c8689ffe126be5322fe27e065", "fusion_lat": 0.0, "type": "electric_scooter", "lat": 38.912457833333335, "is_reserved": 0, "is_disabled": 0, "fusion_lon": 0.0, "bike_id": "9dce533c8689ffe126be5322fe27e065", "lon": -77.02223983333333, "rental_uris": {"ios": "https://dc.lft.to/lastmile_qr_scan", "android": "https://dc.lft.to/lastmile_qr_scan"}}, {"name": "fb2d63ce62b6e79327ac99a63ebbe2fb", "fusion_lat": 0.0, "type": "electric_scooter", "lat": 38.94293066666667, "is_reserved": 0, "is_disabled": 0, "fusion_lon": 0.0, "bike_id": "fb2d63ce62b6e79327ac99a63ebbe2fb", "lon": -77.02174716666667, "rental_uris": {"ios": "https://dc.lft.to/lastmile_qr_scan", "android": "https://dc.lft.to/lastmile_qr_scan"}}, {"name": "6f7591af956166274e6a48dde4cf698b", "fusion_lat": 0.0, "type": "electric_scooter", "lat": 38.932343, "is_reserved": 0, "is_disabled": 0, "fusion_lon": 0.0, "bike_id": "6f7591af956166274e6a48dde4cf698b", "lon": -77.0358615, "rental_uris": {"ios": "https://dc.lft.to/lastmile_qr_scan", "android": "https://dc.lft.to/lastmile_qr_scan"}}, {"name": "e10fc7115bb4ea5f2dd9ab4de1853754", "fusion_lat": 0.0, "type": "electric_scooter", "lat": 38.89735183333333, "is_reserved": 0, "is_disabled": 0, "fusion_lon": 0.0, "bike_id": "e10fc7115bb4ea5f2dd9ab4de1853754", "lon": -76.9425275, "rental_uris": {"ios": "https://dc.lft.to/lastmile_qr_scan", "android": "https://dc.lft.to/lastmile_qr_scan"}}, {"name": "59547dd832aff2ef1e4e872ae2bbcf5e", "fusion_lat": 0.0, "type": "electric_scooter", "lat": 38.907991, "is_reserved": 0, "is_disabled": 0, "fusion_lon": 0.0, "bike_id": "59547dd832aff2ef1e4e872ae2bbcf5e", "lon": -77.04825716666667, "rental_uris": {"ios": "https://dc.lft.to/lastmile_qr_scan", "android": "https://dc.lft.to/lastmile_qr_scan"}}, {"name": "48f901154bb97db1234edc83bcb6bc05", "fusion_lat": 0.0, "type": "electric_scooter", "lat": 38.909627666666665, "is_reserved": 0, "is_disabled": 0, "fusion_lon": 0.0, "bike_id": "48f901154bb97db1234edc83bcb6bc05", "lon": -77.01130816666667, "rental_uris": {"ios": "https://dc.lft.to/lastmile_qr_scan", "android": "https://dc.lft.to/lastmile_qr_scan"}}, {"name": "c1ce8dd27dc85eee152cb9a03e656e06", "fusion_lat": 0.0, "type": "electric_scooter", "lat": 38.9370675, "is_reserved": 0, "is_disabled": 0, "fusion_lon": 0.0, "bike_id": "c1ce8dd27dc85eee152cb9a03e656e06", "lon": -77.02396933333333, "rental_uris": {"ios": "https://dc.lft.to/lastmile_qr_scan", "android": "https://dc.lft.to/lastmile_qr_scan"}}, {"name": "afb8260857dd9df5426fd32f74f27cae", "fusion_lat": 0.0, "type": "electric_scooter", "lat": 38.876584666666666, "is_reserved": 0, "is_disabled": 0, "fusion_lon": 0.0, "bike_id": "afb8260857dd9df5426fd32f74f27cae", "lon": -77.00443516666667, "rental_uris": {"ios": "https://dc.lft.to/lastmile_qr_scan", "android": "https://dc.lft.to/lastmile_qr_scan"}}, {"name": "db3150384502b84b4957767991505024", "fusion_lat": 0.0, "type": "electric_scooter", "lat": 38.89837966666666, "is_reserved": 0, "is_disabled": 0, "fusion_lon": 0.0, "bike_id": "db3150384502b84b4957767991505024", "lon": -77.02960716666666, "rental_uris": {"ios": "https://dc.lft.to/lastmile_qr_scan", "android": "https://dc.lft.to/lastmile_qr_scan"}}, {"name": "a1825f8a1dc1016935f462b2d9f7804a", "fusion_lat": 0.0, "type": "electric_bike", "lat": 38.94600333333333, "is_reserved": 0, "is_disabled": 0, "fusion_lon": 0.0, "bike_id": "a1825f8a1dc1016935f462b2d9f7804a", "lon": -77.02979233333333, "rental_uris": {"ios": "https://dc.lft.to/lastmile_qr_scan", "android": "https://dc.lft.to/lastmile_qr_scan"}}, {"name": "ab7d9502e7c87ef9d1b15b697170a5d9", "fusion_lat": 0.0, "type": "electric_scooter", "lat": 38.915636166666665, "is_reserved": 0, "is_disabled": 0, "fusion_lon": 0.0, "bike_id": "ab7d9502e7c87ef9d1b15b697170a5d9", "lon": -77.01414666666666, "rental_uris": {"ios": "https://dc.lft.to/lastmile_qr_scan", "android": "https://dc.lft.to/lastmile_qr_scan"}}, {"name": "7f982d373f011d4add68f069f1575f66", "fusion_lat": 0.0, "type": "electric_bike", "lat": 38.8541965, "is_reserved": 0, "is_disabled": 0, "fusion_lon": 0.0, "bike_id": "7f982d373f011d4add68f069f1575f66", "lon": -77.11828116666666, "rental_uris": {"ios": "https://dc.lft.to/lastmile_qr_scan", "android": "https://dc.lft.to/lastmile_qr_scan"}}, {"name": "62d3aeb207a48a7226263a414b9a7621", "fusion_lat": 0.0, "type": "electric_scooter", "lat": 38.916469166666666, "is_reserved": 0, "is_disabled": 0, "fusion_lon": 0.0, "bike_id": "62d3aeb207a48a7226263a414b9a7621", "lon": -77.02294383333333, "rental_uris": {"ios": "https://dc.lft.to/lastmile_qr_scan", "android": "https://dc.lft.to/lastmile_qr_scan"}}, {"name": "f5b0a5d99e450e5a4140c82cc939a5f4", "fusion_lat": 0.0, "type": "electric_scooter", "lat": 38.9104065, "is_reserved": 0, "is_disabled": 0, "fusion_lon": 0.0, "bike_id": "f5b0a5d99e450e5a4140c82cc939a5f4", "lon": -77.02391483333334, "rental_uris": {"ios": "https://dc.lft.to/lastmile_qr_scan", "android": "https://dc.lft.to/lastmile_qr_scan"}}, {"name": "3ad92850f1292419fd23334155a5b214", "fusion_lat": 0.0, "type": "electric_scooter", "lat": 38.91643366666667, "is_reserved": 0, "is_disabled": 0, "fusion_lon": 0.0, "bike_id": "3ad92850f1292419fd23334155a5b214", "lon": -77.015901, "rental_uris": {"ios": "https://dc.lft.to/lastmile_qr_scan", "android": "https://dc.lft.to/lastmile_qr_scan"}}, {"name": "5e48822bfd1b99ef90ab4ec3d0579a15", "fusion_lat": 0.0, "type": "electric_bike", "lat": 38.96546716666667, "is_reserved": 0, "is_disabled": 0, "fusion_lon": 0.0, "bike_id": "5e48822bfd1b99ef90ab4ec3d0579a15", "lon": -77.03517633333334, "rental_uris": {"ios": "https://dc.lft.to/lastmile_qr_scan", "android": "https://dc.lft.to/lastmile_qr_scan"}}, {"name": "a760da687e20a2544209baa389bce0ba", "fusion_lat": 0.0, "type": "electric_scooter", "lat": 38.924365, "is_reserved": 0, "is_disabled": 0, "fusion_lon": 0.0, "bike_id": "a760da687e20a2544209baa389bce0ba", "lon": -77.0414585, "rental_uris": {"ios": "https://dc.lft.to/lastmile_qr_scan", "android": "https://dc.lft.to/lastmile_qr_scan"}}, {"name": "0513096d47a42f2b2341846e58e27a96", "fusion_lat": 0.0, "type": "electric_scooter", "lat": 38.91984583333333, "is_reserved": 0, "is_disabled": 0, "fusion_lon": 0.0, "bike_id": "0513096d47a42f2b2341846e58e27a96", "lon": -77.03317833333334, "rental_uris": {"ios": "https://dc.lft.to/lastmile_qr_scan", "android": "https://dc.lft.to/lastmile_qr_scan"}}, {"name": "665df1982ac762dd123eb50c17073b3e", "fusion_lat": 0.0, "type": "electric_scooter", "lat": 38.931715833333335, "is_reserved": 0, "is_disabled": 0, "fusion_lon": 0.0, "bike_id": "665df1982ac762dd123eb50c17073b3e", "lon": -77.05615583333334, "rental_uris": {"ios": "https://dc.lft.to/lastmile_qr_scan", "android": "https://dc.lft.to/lastmile_qr_scan"}}, {"name": "82a92d414abbacce3a1730651bf37cbe", "fusion_lat": 0.0, "type": "electric_scooter", "lat": 38.87710083333333, "is_reserved": 0, "is_disabled": 0, "fusion_lon": 0.0, "bike_id": "82a92d414abbacce3a1730651bf37cbe", "lon": -76.99380883333333, "rental_uris": {"ios": "https://dc.lft.to/lastmile_qr_scan", "android": "https://dc.lft.to/lastmile_qr_scan"}}, {"name": "69f63fd3a55f91e8cf7e12be4a9955ed", "fusion_lat": 0.0, "type": "electric_scooter", "lat": 38.92056633333333, "is_reserved": 0, "is_disabled": 0, "fusion_lon": 0.0, "bike_id": "69f63fd3a55f91e8cf7e12be4a9955ed", "lon": -77.04697416666667, "rental_uris": {"ios": "https://dc.lft.to/lastmile_qr_scan", "android": "https://dc.lft.to/lastmile_qr_scan"}}, {"name": "59d678c3ab583502bf0a1110cc8aa00c", "fusion_lat": 0.0, "type": "electric_scooter", "lat": 38.89094083333333, "is_reserved": 0, "is_disabled": 0, "fusion_lon": 0.0, "bike_id": "59d678c3ab583502bf0a1110cc8aa00c", "lon": -76.99787866666667, "rental_uris": {"ios": "https://dc.lft.to/lastmile_qr_scan", "android": "https://dc.lft.to/lastmile_qr_scan"}}, {"name": "fe3f1c335739a7bf7c38c603f5469842", "fusion_lat": 0.0, "type": "electric_scooter", "lat": 38.919371166666664, "is_reserved": 0, "is_disabled": 0, "fusion_lon": 0.0, "bike_id": "fe3f1c335739a7bf7c38c603f5469842", "lon": -77.02413483333333, "rental_uris": {"ios": "https://dc.lft.to/lastmile_qr_scan", "android": "https://dc.lft.to/lastmile_qr_scan"}}, {"name": "26834c1c0a6859539676e13a4a38e34d", "fusion_lat": 0.0, "type": "electric_scooter", "lat": 38.9054235, "is_reserved": 0, "is_disabled": 0, "fusion_lon": 0.0, "bike_id": "26834c1c0a6859539676e13a4a38e34d", "lon": -77.02211716666666, "rental_uris": {"ios": "https://dc.lft.to/lastmile_qr_scan", "android": "https://dc.lft.to/lastmile_qr_scan"}}, {"name": "7c54f3221c5b71afc53bf6fcf62b4cca", "fusion_lat": 0.0, "type": "electric_scooter", "lat": 38.904573666666664, "is_reserved": 0, "is_disabled": 0, "fusion_lon": 0.0, "bike_id": "7c54f3221c5b71afc53bf6fcf62b4cca", "lon": -77.0416495, "rental_uris": {"ios": "https://dc.lft.to/lastmile_qr_scan", "android": "https://dc.lft.to/lastmile_qr_scan"}}, {"name": "c900c26e0f909293f6187e1a2cc73be7", "fusion_lat": 0.0, "type": "electric_scooter", "lat": 38.9238605, "is_reserved": 0, "is_disabled": 0, "fusion_lon": 0.0, "bike_id": "c900c26e0f909293f6187e1a2cc73be7", "lon": -77.042897, "rental_uris": {"ios": "https://dc.lft.to/lastmile_qr_scan", "android": "https://dc.lft.to/lastmile_qr_scan"}}, {"name": "f00a3f2a9f6354bdf21d96b34f7b9a4e", "fusion_lat": 0.0, "type": "electric_scooter", "lat": 38.9187825, "is_reserved": 0, "is_disabled": 0, "fusion_lon": 0.0, "bike_id": "f00a3f2a9f6354bdf21d96b34f7b9a4e", "lon": -77.03650566666667, "rental_uris": {"ios": "https://dc.lft.to/lastmile_qr_scan", "android": "https://dc.lft.to/lastmile_qr_scan"}}, {"name": "129eb9f3fd3d0f288c265259e037eef4", "fusion_lat": 0.0, "type": "electric_scooter", "lat": 38.909655666666666, "is_reserved": 0, "is_disabled": 0, "fusion_lon": 0.0, "bike_id": "129eb9f3fd3d0f288c265259e037eef4", "lon": -77.04484116666667, "rental_uris": {"ios": "https://dc.lft.to/lastmile_qr_scan", "android": "https://dc.lft.to/lastmile_qr_scan"}}, {"name": "36a08baf02caa15aeb75faa4ca005891", "fusion_lat": 0.0, "type": "electric_scooter", "lat": 38.924205, "is_reserved": 0, "is_disabled": 0, "fusion_lon": 0.0, "bike_id": "36a08baf02caa15aeb75faa4ca005891", "lon": -77.0194995, "rental_uris": {"ios": "https://dc.lft.to/lastmile_qr_scan", "android": "https://dc.lft.to/lastmile_qr_scan"}}, {"name": "e72ed3e91ce33ff91d9afbd152a0fef5", "fusion_lat": 0.0, "type": "electric_scooter", "lat": 38.90460866666667, "is_reserved": 0, "is_disabled": 0, "fusion_lon": 0.0, "bike_id": "e72ed3e91ce33ff91d9afbd152a0fef5", "lon": -77.04168616666666, "rental_uris": {"ios": "https://dc.lft.to/lastmile_qr_scan", "android": "https://dc.lft.to/lastmile_qr_scan"}}, {"name": "4e12e9a81cb5a7666997fbf11473b597", "fusion_lat": 0.0, "type": "electric_scooter", "lat": 38.89659, "is_reserved": 0, "is_disabled": 0, "fusion_lon": 0.0, "bike_id": "4e12e9a81cb5a7666997fbf11473b597", "lon": -77.04894983333334, "rental_uris": {"ios": "https://dc.lft.to/lastmile_qr_scan", "android": "https://dc.lft.to/lastmile_qr_scan"}}, {"name": "589620fc816222fe5c9f90f0e8d81dbf", "fusion_lat": 0.0, "type": "electric_scooter", "lat": 38.90954583333333, "is_reserved": 0, "is_disabled": 0, "fusion_lon": 0.0, "bike_id": "589620fc816222fe5c9f90f0e8d81dbf", "lon": -77.04135216666667, "rental_uris": {"ios": "https://dc.lft.to/lastmile_qr_scan", "android": "https://dc.lft.to/lastmile_qr_scan"}}, {"name": "0a0b723681107f563c385a47603ed0bc", "fusion_lat": 0.0, "type": "electric_scooter", "lat": 38.918252833333334, "is_reserved": 0, "is_disabled": 0, "fusion_lon": 0.0, "bike_id": "0a0b723681107f563c385a47603ed0bc", "lon": -77.02704383333334, "rental_uris": {"ios": "https://dc.lft.to/lastmile_qr_scan", "android": "https://dc.lft.to/lastmile_qr_scan"}}, {"name": "3a62ac841f821bfa4bbc0c01e4fb4837", "fusion_lat": 0.0, "type": "electric_scooter", "lat": 38.907285333333334, "is_reserved": 0, "is_disabled": 0, "fusion_lon": 0.0, "bike_id": "3a62ac841f821bfa4bbc0c01e4fb4837", "lon": -77.04499466666667, "rental_uris": {"ios": "https://dc.lft.to/lastmile_qr_scan", "android": "https://dc.lft.to/lastmile_qr_scan"}}, {"name": "9e13fd79ce493e30189d489663f60573", "fusion_lat": 0.0, "type": "electric_scooter", "lat": 38.934624166666666, "is_reserved": 0, "is_disabled": 0, "fusion_lon": 0.0, "bike_id": "9e13fd79ce493e30189d489663f60573", "lon": -77.02859733333334, "rental_uris": {"ios": "https://dc.lft.to/lastmile_qr_scan", "android": "https://dc.lft.to/lastmile_qr_scan"}}, {"name": "f30b88cca4dd2267e9270983bd28adc3", "fusion_lat": 0.0, "type": "electric_scooter", "lat": 38.9195815, "is_reserved": 0, "is_disabled": 0, "fusion_lon": 0.0, "bike_id": "f30b88cca4dd2267e9270983bd28adc3", "lon": -77.025075, "rental_uris": {"ios": "https://dc.lft.to/lastmile_qr_scan", "android": "https://dc.lft.to/lastmile_qr_scan"}}, {"name": "5366e6f6dcc79103d50a83fa01271c7f", "fusion_lat": 0.0, "type": "electric_scooter", "lat": 38.9180085, "is_reserved": 0, "is_disabled": 0, "fusion_lon": 0.0, "bike_id": "5366e6f6dcc79103d50a83fa01271c7f", "lon": -77.04019333333333, "rental_uris": {"ios": "https://dc.lft.to/lastmile_qr_scan", "android": "https://dc.lft.to/lastmile_qr_scan"}}, {"name": "bbfcf962fc7382d6f1a287d3e5825cc0", "fusion_lat": 0.0, "type": "electric_scooter", "lat": 38.9182795, "is_reserved": 0, "is_disabled": 0, "fusion_lon": 0.0, "bike_id": "bbfcf962fc7382d6f1a287d3e5825cc0", "lon": -77.03245783333334, "rental_uris": {"ios": "https://dc.lft.to/lastmile_qr_scan", "android": "https://dc.lft.to/lastmile_qr_scan"}}, {"name": "3c1ddf394dad53aa6a13f5415a8bc132", "fusion_lat": 0.0, "type": "electric_bike", "lat": 38.852456333333336, "is_reserved": 0, "is_disabled": 0, "fusion_lon": 0.0, "bike_id": "3c1ddf394dad53aa6a13f5415a8bc132", "lon": -77.1142435, "rental_uris": {"ios": "https://dc.lft.to/lastmile_qr_scan", "android": "https://dc.lft.to/lastmile_qr_scan"}}, {"name": "f30ebf133db30a878c682c396f38e563", "fusion_lat": 0.0, "type": "electric_scooter", "lat": 38.9586785, "is_reserved": 0, "is_disabled": 0, "fusion_lon": 0.0, "bike_id": "f30ebf133db30a878c682c396f38e563", "lon": -77.0205055, "rental_uris": {"ios": "https://dc.lft.to/lastmile_qr_scan", "android": "https://dc.lft.to/lastmile_qr_scan"}}, {"name": "4a1438ac42469cb0ade1c9a721205f84", "fusion_lat": 0.0, "type": "electric_scooter", "lat": 38.9055065, "is_reserved": 0, "is_disabled": 0, "fusion_lon": 0.0, "bike_id": "4a1438ac42469cb0ade1c9a721205f84", "lon": -77.04511416666666, "rental_uris": {"ios": "https://dc.lft.to/lastmile_qr_scan", "android": "https://dc.lft.to/lastmile_qr_scan"}}, {"name": "56b299512b3b4e5d23ca49e00d5bfe75", "fusion_lat": 0.0, "type": "electric_bike", "lat": 38.965341, "is_reserved": 0, "is_disabled": 0, "fusion_lon": 0.0, "bike_id": "56b299512b3b4e5d23ca49e00d5bfe75", "lon": -77.0352215, "rental_uris": {"ios": "https://dc.lft.to/lastmile_qr_scan", "android": "https://dc.lft.to/lastmile_qr_scan"}}, {"name": "06f7f123f70e7e13ecb1701d4441a0c2", "fusion_lat": 0.0, "type": "electric_scooter", "lat": 38.907040333333335, "is_reserved": 0, "is_disabled": 0, "fusion_lon": 0.0, "bike_id": "06f7f123f70e7e13ecb1701d4441a0c2", "lon": -76.98697783333333, "rental_uris": {"ios": "https://dc.lft.to/lastmile_qr_scan", "android": "https://dc.lft.to/lastmile_qr_scan"}}, {"name": "acbb284f1d2a8ea8ca3de0e66c4d3df2", "fusion_lat": 0.0, "type": "electric_scooter", "lat": 38.909549166666665, "is_reserved": 0, "is_disabled": 0, "fusion_lon": 0.0, "bike_id": "acbb284f1d2a8ea8ca3de0e66c4d3df2", "lon": -77.03380716666666, "rental_uris": {"ios": "https://dc.lft.to/lastmile_qr_scan", "android": "https://dc.lft.to/lastmile_qr_scan"}}, {"name": "853214987fff065b0f57c932d4977c5f", "fusion_lat": 0.0, "type": "electric_scooter", "lat": 38.93482483333333, "is_reserved": 0, "is_disabled": 0, "fusion_lon": 0.0, "bike_id": "853214987fff065b0f57c932d4977c5f", "lon": -77.0727415, "rental_uris": {"ios": "https://dc.lft.to/lastmile_qr_scan", "android": "https://dc.lft.to/lastmile_qr_scan"}}, {"name": "0c5d3c0fca049d2f84fb2e36ff05a98a", "fusion_lat": 0.0, "type": "electric_scooter", "lat": 38.9032145, "is_reserved": 0, "is_disabled": 0, "fusion_lon": 0.0, "bike_id": "0c5d3c0fca049d2f84fb2e36ff05a98a", "lon": -77.0533425, "rental_uris": {"ios": "https://dc.lft.to/lastmile_qr_scan", "android": "https://dc.lft.to/lastmile_qr_scan"}}, {"name": "e040af5becf475deb35a0d964ed9c62f", "fusion_lat": 0.0, "type": "electric_scooter", "lat": 38.885032, "is_reserved": 0, "is_disabled": 0, "fusion_lon": 0.0, "bike_id": "e040af5becf475deb35a0d964ed9c62f", "lon": -77.00569, "rental_uris": {"ios": "https://dc.lft.to/lastmile_qr_scan", "android": "https://dc.lft.to/lastmile_qr_scan"}}, {"name": "df8c5901212fcf9531cdbc4a472e4a89", "fusion_lat": 0.0, "type": "electric_scooter", "lat": 38.92105433333333, "is_reserved": 0, "is_disabled": 0, "fusion_lon": 0.0, "bike_id": "df8c5901212fcf9531cdbc4a472e4a89", "lon": -77.01772483333333, "rental_uris": {"ios": "https://dc.lft.to/lastmile_qr_scan", "android": "https://dc.lft.to/lastmile_qr_scan"}}, {"name": "c18addc7ed04e6acaf704b91ffe73dd2", "fusion_lat": 0.0, "type": "electric_scooter", "lat": 38.894674, "is_reserved": 0, "is_disabled": 0, "fusion_lon": 0.0, "bike_id": "c18addc7ed04e6acaf704b91ffe73dd2", "lon": -77.02026966666666, "rental_uris": {"ios": "https://dc.lft.to/lastmile_qr_scan", "android": "https://dc.lft.to/lastmile_qr_scan"}}, {"name": "7fc4ecc455796dac869258c801f2c204", "fusion_lat": 0.0, "type": "electric_bike", "lat": 38.819372666666666, "is_reserved": 0, "is_disabled": 0, "fusion_lon": 0.0, "bike_id": "7fc4ecc455796dac869258c801f2c204", "lon": -77.0020945, "rental_uris": {"ios": "https://dc.lft.to/lastmile_qr_scan", "android": "https://dc.lft.to/lastmile_qr_scan"}}, {"name": "38c04a0a4351a2dafc3a704df322b973", "fusion_lat": 0.0, "type": "electric_bike", "lat": 38.88698633333333, "is_reserved": 0, "is_disabled": 0, "fusion_lon": 0.0, "bike_id": "38c04a0a4351a2dafc3a704df322b973", "lon": -77.002242, "rental_uris": {"ios": "https://dc.lft.to/lastmile_qr_scan", "android": "https://dc.lft.to/lastmile_qr_scan"}}, {"name": "231f5a3c489ecf6de5309b1a50220c45", "fusion_lat": 0.0, "type": "electric_scooter", "lat": 38.920395, "is_reserved": 0, "is_disabled": 0, "fusion_lon": 0.0, "bike_id": "231f5a3c489ecf6de5309b1a50220c45", "lon": -77.0243045, "rental_uris": {"ios": "https://dc.lft.to/lastmile_qr_scan", "android": "https://dc.lft.to/lastmile_qr_scan"}}, {"name": "123abdbdbed04c04b97a0d280870312b", "fusion_lat": 0.0, "type": "electric_bike", "lat": 39.0334335, "is_reserved": 0, "is_disabled": 0, "fusion_lon": 0.0, "bike_id": "123abdbdbed04c04b97a0d280870312b", "lon": -77.04909016666667, "rental_uris": {"ios": "https://dc.lft.to/lastmile_qr_scan", "android": "https://dc.lft.to/lastmile_qr_scan"}}, {"name": "0b5bc8d23043a281769d4b96b8c13413", "fusion_lat": 0.0, "type": "electric_scooter", "lat": 38.939479666666664, "is_reserved": 0, "is_disabled": 0, "fusion_lon": 0.0, "bike_id": "0b5bc8d23043a281769d4b96b8c13413", "lon": -77.0723935, "rental_uris": {"ios": "https://dc.lft.to/lastmile_qr_scan", "android": "https://dc.lft.to/lastmile_qr_scan"}}, {"name": "e123328f87bb918305d02d4a13bbb035", "fusion_lat": 0.0, "type": "electric_scooter", "lat": 38.91135883333333, "is_reserved": 0, "is_disabled": 0, "fusion_lon": 0.0, "bike_id": "e123328f87bb918305d02d4a13bbb035", "lon": -77.04182316666666, "rental_uris": {"ios": "https://dc.lft.to/lastmile_qr_scan", "android": "https://dc.lft.to/lastmile_qr_scan"}}, {"name": "fbb43e44bdba2740a81232effe7f9330", "fusion_lat": 0.0, "type": "electric_scooter", "lat": 38.887146666666666, "is_reserved": 0, "is_disabled": 0, "fusion_lon": 0.0, "bike_id": "fbb43e44bdba2740a81232effe7f9330", "lon": -77.01776716666667, "rental_uris": {"ios": "https://dc.lft.to/lastmile_qr_scan", "android": "https://dc.lft.to/lastmile_qr_scan"}}, {"name": "53eb77885f583b7597414c90fb89ddf7", "fusion_lat": 0.0, "type": "electric_scooter", "lat": 38.8857695, "is_reserved": 0, "is_disabled": 0, "fusion_lon": 0.0, "bike_id": "53eb77885f583b7597414c90fb89ddf7", "lon": -76.99508583333333, "rental_uris": {"ios": "https://dc.lft.to/lastmile_qr_scan", "android": "https://dc.lft.to/lastmile_qr_scan"}}, {"name": "92b063691582069025ef2f2e6423422c", "fusion_lat": 0.0, "type": "electric_scooter", "lat": 38.923755, "is_reserved": 0, "is_disabled": 0, "fusion_lon": 0.0, "bike_id": "92b063691582069025ef2f2e6423422c", "lon": -77.01918883333333, "rental_uris": {"ios": "https://dc.lft.to/lastmile_qr_scan", "android": "https://dc.lft.to/lastmile_qr_scan"}}, {"name": "c51002a10e58590abbda7a47afd00a9a", "fusion_lat": 0.0, "type": "electric_bike", "lat": 38.85789483333333, "is_reserved": 0, "is_disabled": 0, "fusion_lon": 0.0, "bike_id": "c51002a10e58590abbda7a47afd00a9a", "lon": -77.0996265, "rental_uris": {"ios": "https://dc.lft.to/lastmile_qr_scan", "android": "https://dc.lft.to/lastmile_qr_scan"}}, {"name": "385e8eceb9d237d16ba94c3b249ac938", "fusion_lat": 0.0, "type": "electric_scooter", "lat": 38.92365566666667, "is_reserved": 0, "is_disabled": 0, "fusion_lon": 0.0, "bike_id": "385e8eceb9d237d16ba94c3b249ac938", "lon": -77.02991133333333, "rental_uris": {"ios": "https://dc.lft.to/lastmile_qr_scan", "android": "https://dc.lft.to/lastmile_qr_scan"}}, {"name": "6c5a213ceada858469ff2bfad3e6d812", "fusion_lat": 0.0, "type": "electric_bike", "lat": 39.094565833333334, "is_reserved": 0, "is_disabled": 0, "fusion_lon": 0.0, "bike_id": "6c5a213ceada858469ff2bfad3e6d812", "lon": -77.1499255, "rental_uris": {"ios": "https://dc.lft.to/lastmile_qr_scan", "android": "https://dc.lft.to/lastmile_qr_scan"}}, {"name": "3bde3067bd1a6795ac3929027c19c064", "fusion_lat": 0.0, "type": "electric_scooter", "lat": 38.89753, "is_reserved": 0, "is_disabled": 0, "fusion_lon": 0.0, "bike_id": "3bde3067bd1a6795ac3929027c19c064", "lon": -77.02704216666666, "rental_uris": {"ios": "https://dc.lft.to/lastmile_qr_scan", "android": "https://dc.lft.to/lastmile_qr_scan"}}, {"name": "5f6b8b0bea39653ef070c6b0f7538e6c", "fusion_lat": 0.0, "type": "electric_bike", "lat": 38.937449, "is_reserved": 0, "is_disabled": 0, "fusion_lon": 0.0, "bike_id": "5f6b8b0bea39653ef070c6b0f7538e6c", "lon": -77.03284583333334, "rental_uris": {"ios": "https://dc.lft.to/lastmile_qr_scan", "android": "https://dc.lft.to/lastmile_qr_scan"}}, {"name": "ed8ef01ab922f6dfbbd58b59cb37abf5", "fusion_lat": 0.0, "type": "electric_scooter", "lat": 38.9126885, "is_reserved": 0, "is_disabled": 0, "fusion_lon": 0.0, "bike_id": "ed8ef01ab922f6dfbbd58b59cb37abf5", "lon": -77.038068, "rental_uris": {"ios": "https://dc.lft.to/lastmile_qr_scan", "android": "https://dc.lft.to/lastmile_qr_scan"}}, {"name": "2f4f9866a9fa52a10ea16490d0b75fa8", "fusion_lat": 0.0, "type": "electric_scooter", "lat": 38.89902283333333, "is_reserved": 0, "is_disabled": 0, "fusion_lon": 0.0, "bike_id": "2f4f9866a9fa52a10ea16490d0b75fa8", "lon": -76.93369266666667, "rental_uris": {"ios": "https://dc.lft.to/lastmile_qr_scan", "android": "https://dc.lft.to/lastmile_qr_scan"}}, {"name": "e9dc06d7983750d2aa32933654c60ef2", "fusion_lat": 0.0, "type": "electric_bike", "lat": 38.8708465, "is_reserved": 0, "is_disabled": 0, "fusion_lon": 0.0, "bike_id": "e9dc06d7983750d2aa32933654c60ef2", "lon": -77.01213983333334, "rental_uris": {"ios": "https://dc.lft.to/lastmile_qr_scan", "android": "https://dc.lft.to/lastmile_qr_scan"}}, {"name": "ea36e01ce6ae238ec09e8d288cbf62ba", "fusion_lat": 0.0, "type": "electric_scooter", "lat": 38.92714, "is_reserved": 0, "is_disabled": 0, "fusion_lon": 0.0, "bike_id": "ea36e01ce6ae238ec09e8d288cbf62ba", "lon": -77.00571583333333, "rental_uris": {"ios": "https://dc.lft.to/lastmile_qr_scan", "android": "https://dc.lft.to/lastmile_qr_scan"}}, {"name": "6f270ce13ee3030d4113fe99e6b7b4ce", "fusion_lat": 0.0, "type": "electric_scooter", "lat": 38.915477833333334, "is_reserved": 0, "is_disabled": 0, "fusion_lon": 0.0, "bike_id": "6f270ce13ee3030d4113fe99e6b7b4ce", "lon": -77.04189883333333, "rental_uris": {"ios": "https://dc.lft.to/lastmile_qr_scan", "android": "https://dc.lft.to/lastmile_qr_scan"}}, {"name": "eba572e96f1ea150f7b654670145e1cd", "fusion_lat": 0.0, "type": "electric_scooter", "lat": 38.9181935, "is_reserved": 0, "is_disabled": 0, "fusion_lon": 0.0, "bike_id": "eba572e96f1ea150f7b654670145e1cd", "lon": -77.028025, "rental_uris": {"ios": "https://dc.lft.to/lastmile_qr_scan", "android": "https://dc.lft.to/lastmile_qr_scan"}}, {"name": "8919679cb58887c31134c6e235b73904", "fusion_lat": 0.0, "type": "electric_bike", "lat": 38.875271166666664, "is_reserved": 0, "is_disabled": 0, "fusion_lon": 0.0, "bike_id": "8919679cb58887c31134c6e235b73904", "lon": -77.19906816666666, "rental_uris": {"ios": "https://dc.lft.to/lastmile_qr_scan", "android": "https://dc.lft.to/lastmile_qr_scan"}}, {"name": "7423769e1ab354437cad8250f0e2cdd0", "fusion_lat": 0.0, "type": "electric_scooter", "lat": 38.90406866666667, "is_reserved": 0, "is_disabled": 0, "fusion_lon": 0.0, "bike_id": "7423769e1ab354437cad8250f0e2cdd0", "lon": -77.06408433333333, "rental_uris": {"ios": "https://dc.lft.to/lastmile_qr_scan", "android": "https://dc.lft.to/lastmile_qr_scan"}}, {"name": "b30a1e64c1c4f9856f5bf76c189e2e86", "fusion_lat": 0.0, "type": "electric_scooter", "lat": 38.861457, "is_reserved": 0, "is_disabled": 0, "fusion_lon": 0.0, "bike_id": "b30a1e64c1c4f9856f5bf76c189e2e86", "lon": -76.98906, "rental_uris": {"ios": "https://dc.lft.to/lastmile_qr_scan", "android": "https://dc.lft.to/lastmile_qr_scan"}}, {"name": "735fab9fb928d64bb5839cf577addc60", "fusion_lat": 0.0, "type": "electric_scooter", "lat": 38.896092, "is_reserved": 0, "is_disabled": 0, "fusion_lon": 0.0, "bike_id": "735fab9fb928d64bb5839cf577addc60", "lon": -77.0176915, "rental_uris": {"ios": "https://dc.lft.to/lastmile_qr_scan", "android": "https://dc.lft.to/lastmile_qr_scan"}}, {"name": "89536911ab1c965d5141dc41731ba7af", "fusion_lat": 0.0, "type": "electric_scooter", "lat": 38.920564666666664, "is_reserved": 0, "is_disabled": 0, "fusion_lon": 0.0, "bike_id": "89536911ab1c965d5141dc41731ba7af", "lon": -77.0271305, "rental_uris": {"ios": "https://dc.lft.to/lastmile_qr_scan", "android": "https://dc.lft.to/lastmile_qr_scan"}}, {"name": "38a3781a10fc98aeec01465a70e5c410", "fusion_lat": 0.0, "type": "electric_scooter", "lat": 38.9174475, "is_reserved": 0, "is_disabled": 0, "fusion_lon": 0.0, "bike_id": "38a3781a10fc98aeec01465a70e5c410", "lon": -77.0189185, "rental_uris": {"ios": "https://dc.lft.to/lastmile_qr_scan", "android": "https://dc.lft.to/lastmile_qr_scan"}}, {"name": "8cc388317bbc5a4ec406b41189454aee", "fusion_lat": 0.0, "type": "electric_scooter", "lat": 38.89875, "is_reserved": 0, "is_disabled": 0, "fusion_lon": 0.0, "bike_id": "8cc388317bbc5a4ec406b41189454aee", "lon": -76.93158416666667, "rental_uris": {"ios": "https://dc.lft.to/lastmile_qr_scan", "android": "https://dc.lft.to/lastmile_qr_scan"}}, {"name": "8cc97d583f696e8d08ee5ef3b9e2820e", "fusion_lat": 0.0, "type": "electric_scooter", "lat": 38.883026666666666, "is_reserved": 0, "is_disabled": 0, "fusion_lon": 0.0, "bike_id": "8cc97d583f696e8d08ee5ef3b9e2820e", "lon": -77.02376916666667, "rental_uris": {"ios": "https://dc.lft.to/lastmile_qr_scan", "android": "https://dc.lft.to/lastmile_qr_scan"}}, {"name": "5c614b8b1e55a54132eb84fee77fb288", "fusion_lat": 0.0, "type": "electric_scooter", "lat": 38.908796333333335, "is_reserved": 0, "is_disabled": 0, "fusion_lon": 0.0, "bike_id": "5c614b8b1e55a54132eb84fee77fb288", "lon": -77.00577066666666, "rental_uris": {"ios": "https://dc.lft.to/lastmile_qr_scan", "android": "https://dc.lft.to/lastmile_qr_scan"}}, {"name": "34a1485dcbf2ac80f9fe7ab372600191", "fusion_lat": 0.0, "type": "electric_scooter", "lat": 38.9095575, "is_reserved": 0, "is_disabled": 0, "fusion_lon": 0.0, "bike_id": "34a1485dcbf2ac80f9fe7ab372600191", "lon": -77.0237895, "rental_uris": {"ios": "https://dc.lft.to/lastmile_qr_scan", "android": "https://dc.lft.to/lastmile_qr_scan"}}, {"name": "d32bfcd41e6be2b14352c4693c5e0dd9", "fusion_lat": 0.0, "type": "electric_scooter", "lat": 38.9370145, "is_reserved": 0, "is_disabled": 0, "fusion_lon": 0.0, "bike_id": "d32bfcd41e6be2b14352c4693c5e0dd9", "lon": -77.05597516666667, "rental_uris": {"ios": "https://dc.lft.to/lastmile_qr_scan", "android": "https://dc.lft.to/lastmile_qr_scan"}}, {"name": "a21116203da4bd5334a573b6ab62c01a", "fusion_lat": 0.0, "type": "electric_scooter", "lat": 38.933259666666665, "is_reserved": 0, "is_disabled": 0, "fusion_lon": 0.0, "bike_id": "a21116203da4bd5334a573b6ab62c01a", "lon": -77.02750466666667, "rental_uris": {"ios": "https://dc.lft.to/lastmile_qr_scan", "android": "https://dc.lft.to/lastmile_qr_scan"}}, {"name": "4e8ddad4d186c48abb81978d3dbf61dc", "fusion_lat": 0.0, "type": "electric_scooter", "lat": 38.930953333333335, "is_reserved": 0, "is_disabled": 0, "fusion_lon": 0.0, "bike_id": "4e8ddad4d186c48abb81978d3dbf61dc", "lon": -77.023992, "rental_uris": {"ios": "https://dc.lft.to/lastmile_qr_scan", "android": "https://dc.lft.to/lastmile_qr_scan"}}, {"name": "1e2c51793531ec06b0a668f64b8f29de", "fusion_lat": 0.0, "type": "electric_scooter", "lat": 38.8958265, "is_reserved": 0, "is_disabled": 0, "fusion_lon": 0.0, "bike_id": "1e2c51793531ec06b0a668f64b8f29de", "lon": -76.98286133333333, "rental_uris": {"ios": "https://dc.lft.to/lastmile_qr_scan", "android": "https://dc.lft.to/lastmile_qr_scan"}}, {"name": "879515a238dfb7740bbdc284cfd51f5e", "fusion_lat": 0.0, "type": "electric_scooter", "lat": 38.9375635, "is_reserved": 0, "is_disabled": 0, "fusion_lon": 0.0, "bike_id": "879515a238dfb7740bbdc284cfd51f5e", "lon": -77.02497683333333, "rental_uris": {"ios": "https://dc.lft.to/lastmile_qr_scan", "android": "https://dc.lft.to/lastmile_qr_scan"}}, {"name": "4a6c7269321741882d85f902f4682a25", "fusion_lat": 0.0, "type": "electric_scooter", "lat": 38.88370033333333, "is_reserved": 0, "is_disabled": 0, "fusion_lon": 0.0, "bike_id": "4a6c7269321741882d85f902f4682a25", "lon": -77.01942416666667, "rental_uris": {"ios": "https://dc.lft.to/lastmile_qr_scan", "android": "https://dc.lft.to/lastmile_qr_scan"}}, {"name": "3aa9453dfc85e3bcd21ca71dc3144be9", "fusion_lat": 0.0, "type": "electric_scooter", "lat": 38.902202833333334, "is_reserved": 0, "is_disabled": 0, "fusion_lon": 0.0, "bike_id": "3aa9453dfc85e3bcd21ca71dc3144be9", "lon": -77.01915633333333, "rental_uris": {"ios": "https://dc.lft.to/lastmile_qr_scan", "android": "https://dc.lft.to/lastmile_qr_scan"}}, {"name": "89303a5a91035cf933477bc3e566870d", "fusion_lat": 0.0, "type": "electric_scooter", "lat": 38.918135166666666, "is_reserved": 0, "is_disabled": 0, "fusion_lon": 0.0, "bike_id": "89303a5a91035cf933477bc3e566870d", "lon": -77.04012383333334, "rental_uris": {"ios": "https://dc.lft.to/lastmile_qr_scan", "android": "https://dc.lft.to/lastmile_qr_scan"}}, {"name": "31e6a5fb876a6d1002f1f2d8e17de4cd", "fusion_lat": 0.0, "type": "electric_scooter", "lat": 38.8850565, "is_reserved": 0, "is_disabled": 0, "fusion_lon": 0.0, "bike_id": "31e6a5fb876a6d1002f1f2d8e17de4cd", "lon": -77.00567416666667, "rental_uris": {"ios": "https://dc.lft.to/lastmile_qr_scan", "android": "https://dc.lft.to/lastmile_qr_scan"}}, {"name": "4d4af0af212b2df19bfb76674024f41c", "fusion_lat": 0.0, "type": "electric_scooter", "lat": 38.91253283333333, "is_reserved": 0, "is_disabled": 0, "fusion_lon": 0.0, "bike_id": "4d4af0af212b2df19bfb76674024f41c", "lon": -77.03863016666666, "rental_uris": {"ios": "https://dc.lft.to/lastmile_qr_scan", "android": "https://dc.lft.to/lastmile_qr_scan"}}, {"name": "a1a64ae4f1ee552ba57e1731305061be", "fusion_lat": 0.0, "type": "electric_scooter", "lat": 38.897628166666664, "is_reserved": 0, "is_disabled": 0, "fusion_lon": 0.0, "bike_id": "a1a64ae4f1ee552ba57e1731305061be", "lon": -77.02594633333334, "rental_uris": {"ios": "https://dc.lft.to/lastmile_qr_scan", "android": "https://dc.lft.to/lastmile_qr_scan"}}, {"name": "54d22df2128f2402cd2d179c3f793d40", "fusion_lat": 0.0, "type": "electric_scooter", "lat": 38.93102783333333, "is_reserved": 0, "is_disabled": 0, "fusion_lon": 0.0, "bike_id": "54d22df2128f2402cd2d179c3f793d40", "lon": -77.0351795, "rental_uris": {"ios": "https://dc.lft.to/lastmile_qr_scan", "android": "https://dc.lft.to/lastmile_qr_scan"}}, {"name": "5d6e294aab3f74a85aa3eeeb2c2bab44", "fusion_lat": 0.0, "type": "electric_scooter", "lat": 38.91334766666667, "is_reserved": 0, "is_disabled": 0, "fusion_lon": 0.0, "bike_id": "5d6e294aab3f74a85aa3eeeb2c2bab44", "lon": -77.04228183333333, "rental_uris": {"ios": "https://dc.lft.to/lastmile_qr_scan", "android": "https://dc.lft.to/lastmile_qr_scan"}}, {"name": "2852ea214497db8e82aaf057e9c13a5e", "fusion_lat": 0.0, "type": "electric_scooter", "lat": 38.908542, "is_reserved": 0, "is_disabled": 0, "fusion_lon": 0.0, "bike_id": "2852ea214497db8e82aaf057e9c13a5e", "lon": -76.99793333333334, "rental_uris": {"ios": "https://dc.lft.to/lastmile_qr_scan", "android": "https://dc.lft.to/lastmile_qr_scan"}}, {"name": "af097f79cc5ac729637e1514cd9c1635", "fusion_lat": 0.0, "type": "electric_scooter", "lat": 38.911195666666664, "is_reserved": 0, "is_disabled": 0, "fusion_lon": 0.0, "bike_id": "af097f79cc5ac729637e1514cd9c1635", "lon": -77.04777316666667, "rental_uris": {"ios": "https://dc.lft.to/lastmile_qr_scan", "android": "https://dc.lft.to/lastmile_qr_scan"}}, {"name": "e5ddca10d34fc1864a8b56879937d673", "fusion_lat": 0.0, "type": "electric_scooter", "lat": 38.895491666666665, "is_reserved": 0, "is_disabled": 0, "fusion_lon": 0.0, "bike_id": "e5ddca10d34fc1864a8b56879937d673", "lon": -76.948732, "rental_uris": {"ios": "https://dc.lft.to/lastmile_qr_scan", "android": "https://dc.lft.to/lastmile_qr_scan"}}, {"name": "3d216e137fcb2ba05c65078b90bf8034", "fusion_lat": 0.0, "type": "electric_scooter", "lat": 38.9119175, "is_reserved": 0, "is_disabled": 0, "fusion_lon": 0.0, "bike_id": "3d216e137fcb2ba05c65078b90bf8034", "lon": -77.0325635, "rental_uris": {"ios": "https://dc.lft.to/lastmile_qr_scan", "android": "https://dc.lft.to/lastmile_qr_scan"}}, {"name": "f5c9aa791df85a29bcb9e665fedf53c3", "fusion_lat": 0.0, "type": "electric_scooter", "lat": 38.9270425, "is_reserved": 0, "is_disabled": 0, "fusion_lon": 0.0, "bike_id": "f5c9aa791df85a29bcb9e665fedf53c3", "lon": -77.03727933333333, "rental_uris": {"ios": "https://dc.lft.to/lastmile_qr_scan", "android": "https://dc.lft.to/lastmile_qr_scan"}}, {"name": "98f896209892046aa145afbb67fefe6e", "fusion_lat": 0.0, "type": "electric_scooter", "lat": 38.9118355, "is_reserved": 0, "is_disabled": 0, "fusion_lon": 0.0, "bike_id": "98f896209892046aa145afbb67fefe6e", "lon": -77.039722, "rental_uris": {"ios": "https://dc.lft.to/lastmile_qr_scan", "android": "https://dc.lft.to/lastmile_qr_scan"}}, {"name": "0a36b0222d0816ab2248d903c4fa1ae9", "fusion_lat": 0.0, "type": "electric_scooter", "lat": 38.900636, "is_reserved": 0, "is_disabled": 0, "fusion_lon": 0.0, "bike_id": "0a36b0222d0816ab2248d903c4fa1ae9", "lon": -77.04536366666666, "rental_uris": {"ios": "https://dc.lft.to/lastmile_qr_scan", "android": "https://dc.lft.to/lastmile_qr_scan"}}, {"name": "a213c774b6cb2b346d426039e16e3bdb", "fusion_lat": 0.0, "type": "electric_bike", "lat": 38.86388083333333, "is_reserved": 0, "is_disabled": 0, "fusion_lon": 0.0, "bike_id": "a213c774b6cb2b346d426039e16e3bdb", "lon": -76.98990633333334, "rental_uris": {"ios": "https://dc.lft.to/lastmile_qr_scan", "android": "https://dc.lft.to/lastmile_qr_scan"}}, {"name": "613021469d324dab774c56615355674b", "fusion_lat": 0.0, "type": "electric_scooter", "lat": 38.91493916666667, "is_reserved": 0, "is_disabled": 0, "fusion_lon": 0.0, "bike_id": "613021469d324dab774c56615355674b", "lon": -77.032667, "rental_uris": {"ios": "https://dc.lft.to/lastmile_qr_scan", "android": "https://dc.lft.to/lastmile_qr_scan"}}, {"name": "c54bfcf59995ef89ec2335dfe181e7cd", "fusion_lat": 0.0, "type": "electric_scooter", "lat": 38.89223616666666, "is_reserved": 0, "is_disabled": 0, "fusion_lon": 0.0, "bike_id": "c54bfcf59995ef89ec2335dfe181e7cd", "lon": -77.04645, "rental_uris": {"ios": "https://dc.lft.to/lastmile_qr_scan", "android": "https://dc.lft.to/lastmile_qr_scan"}}, {"name": "ea13f783d94d589762ea51bdb4470891", "fusion_lat": 0.0, "type": "electric_bike", "lat": 38.9489295, "is_reserved": 0, "is_disabled": 0, "fusion_lon": 0.0, "bike_id": "ea13f783d94d589762ea51bdb4470891", "lon": -76.963778, "rental_uris": {"ios": "https://dc.lft.to/lastmile_qr_scan", "android": "https://dc.lft.to/lastmile_qr_scan"}}, {"name": "f474b8ca593a609b707ca26b4135f061", "fusion_lat": 0.0, "type": "electric_scooter", "lat": 38.90360066666667, "is_reserved": 0, "is_disabled": 0, "fusion_lon": 0.0, "bike_id": "f474b8ca593a609b707ca26b4135f061", "lon": -77.01104533333333, "rental_uris": {"ios": "https://dc.lft.to/lastmile_qr_scan", "android": "https://dc.lft.to/lastmile_qr_scan"}}, {"name": "2275b7d46eeb0b79a2e14747604f0593", "fusion_lat": 0.0, "type": "electric_scooter", "lat": 38.918425166666665, "is_reserved": 0, "is_disabled": 0, "fusion_lon": 0.0, "bike_id": "2275b7d46eeb0b79a2e14747604f0593", "lon": -77.0259695, "rental_uris": {"ios": "https://dc.lft.to/lastmile_qr_scan", "android": "https://dc.lft.to/lastmile_qr_scan"}}, {"name": "2460813792f82a927eeae8bc0370fe91", "fusion_lat": 0.0, "type": "electric_scooter", "lat": 38.88466866666667, "is_reserved": 0, "is_disabled": 0, "fusion_lon": 0.0, "bike_id": "2460813792f82a927eeae8bc0370fe91", "lon": -77.01501916666666, "rental_uris": {"ios": "https://dc.lft.to/lastmile_qr_scan", "android": "https://dc.lft.to/lastmile_qr_scan"}},