{"data": {"bikes": [{"type": "electric_scooter", "fusion_lon": 0.0, "bike_id": "ecfe6d3786764be0dba513a1ad8c3a05", "is_disabled": 0, "lat": 38.893557, "rental_uris": {"ios": "https://dc.lft.to/lastmile_qr_scan", "android": "https://dc.lft.to/lastmile_qr_scan"}, "is_reserved": 0, "lon": -76.9865415, "fusion_lat": 0.0, "name": "ecfe6d3786764be0dba513a1ad8c3a05"}, {"type": "electric_scooter", "fusion_lon": 0.0, "bike_id": "67d6898e3005e44064592582289f2992", "is_disabled": 0, "lat": 38.892234333333334, "rental_uris": {"ios": "https://dc.lft.to/lastmile_qr_scan", "android": "https://dc.lft.to/lastmile_qr_scan"}, "is_reserved": 0, "lon": -77.04860116666667, "fusion_lat": 0.0, "name": "67d6898e3005e44064592582289f2992"}, {"type": "electric_scooter", "fusion_lon": 0.0, "bike_id": "aa61ceaa4c12484f336ea52d42d67ad3", "is_disabled": 0, "lat": 38.899611, "rental_uris": {"ios": "https://dc.lft.to/lastmile_qr_scan", "android": "https://dc.lft.to/lastmile_qr_scan"}, "is_reserved": 0, "lon": -76.92634916666667, "fusion_lat": 0.0, "name": "aa61ceaa4c12484f336ea52d42d67ad3"}, {"type": "electric_scooter", "fusion_lon": 0.0, "bike_id": "cf2326d709efc2d2e8d4d0916c42d57d", "is_disabled": 0, "lat": 38.908574333333334, "rental_uris": {"ios": "https://dc.lft.to/lastmile_qr_scan", "android": "https://dc.lft.to/lastmile_qr_scan"}, "is_reserved": 0, "lon": -77.03632283333333, "fusion_lat": 0.0, "name": "cf2326d709efc2d2e8d4d0916c42d57d"}, {"type": "electric_scooter", "fusion_lon": 0.0, "bike_id": "ff196647b7cfcb456da34aebc8a6a05a", "is_disabled": 0, "lat": 38.924549, "rental_uris": {"ios": "https://dc.lft.to/lastmile_qr_scan", "android": "https://dc.lft.to/lastmile_qr_scan"}, "is_reserved": 0, "lon": -77.03290383333334, "fusion_lat": 0.0, "name": "ff196647b7cfcb456da34aebc8a6a05a"}, {"type": "electric_scooter", "fusion_lon": 0.0, "bike_id": "016a49d857f2e42949959e24b48af7c8", "is_disabled": 0, "lat": 38.9195395, "rental_uris": {"ios": "https://dc.lft.to/lastmile_qr_scan", "android": "https://dc.lft.to/lastmile_qr_scan"}, "is_reserved": 0, "lon": -77.02494266666666, "fusion_lat": 0.0, "name": "016a49d857f2e42949959e24b48af7c8"}, {"type": "electric_scooter", "fusion_lon": 0.0, "bike_id": "857c625076109d9329d5acefe14905c2", "is_disabled": 0, "lat": 38.920154333333336, "rental_uris": {"ios": "https://dc.lft.to/lastmile_qr_scan", "android": "https://dc.lft.to/lastmile_qr_scan"}, "is_reserved": 0, "lon": -77.031452, "fusion_lat": 0.0, "name": "857c625076109d9329d5acefe14905c2"}, {"type": "electric_scooter", "fusion_lon": 0.0, "bike_id": "a7bc0755606a84e2a0700219ac853ad8", "is_disabled": 0, "lat": 38.886809166666666, "rental_uris": {"ios": "https://dc.lft.to/lastmile_qr_scan", "android": "https://dc.lft.to/lastmile_qr_scan"}, "is_reserved": 0, "lon": -77.001973, "fusion_lat": 0.0, "name": "a7bc0755606a84e2a0700219ac853ad8"}, {"type": "electric_scooter", "fusion_lon": 0.0, "bike_id": "32449c41b533eb5f8a43052cbe59f5af", "is_disabled": 0, "lat": 38.92047133333333, "rental_uris": {"ios": "https://dc.lft.to/lastmile_qr_scan", "android": "https://dc.lft.to/lastmile_qr_scan"}, "is_reserved": 0, "lon": -77.02459716666667, "fusion_lat": 0.0, "name": "32449c41b533eb5f8a43052cbe59f5af"}, {"type": "electric_scooter", "fusion_lon": 0.0, "bike_id": "bf1da9eebf618b91c77951747e76aad0", "is_disabled": 0, "lat": 38.92822433333333, "rental_uris": {"ios": "https://dc.lft.to/lastmile_qr_scan", "android": "https://dc.lft.to/lastmile_qr_scan"}, "is_reserved": 0, "lon": -77.02255933333333, "fusion_lat": 0.0, "name": "bf1da9eebf618b91c77951747e76aad0"}, {"type": "electric_scooter", "fusion_lon": 0.0, "bike_id": "dff60372de04c1744e963e492e5f5669", "is_disabled": 0, "lat": 38.95803883333333, "rental_uris": {"ios": "https://dc.lft.to/lastmile_qr_scan", "android": "https://dc.lft.to/lastmile_qr_scan"}, "is_reserved": 0, "lon": -77.01513533333333, "fusion_lat": 0.0, "name": "dff60372de04c1744e963e492e5f5669"}, {"type": "electric_scooter", "fusion_lon": 0.0, "bike_id": "2ec123157a534a9d10500dfd41bfb470", "is_disabled": 0, "lat": 38.88498583333333, "rental_uris": {"ios": "https://dc.lft.to/lastmile_qr_scan", "android": "https://dc.lft.to/lastmile_qr_scan"}, "is_reserved": 0, "lon": -77.02075, "fusion_lat": 0.0, "name": "2ec123157a534a9d10500dfd41bfb470"}, {"type": "electric_scooter", "fusion_lon": 0.0, "bike_id": "e07cbef1681fc117b2de410f4c008cfb", "is_disabled": 0, "lat": 38.917306333333336, "rental_uris": {"ios": "https://dc.lft.to/lastmile_qr_scan", "android": "https://dc.lft.to/lastmile_qr_scan"}, "is_reserved": 0, "lon": -77.045986, "fusion_lat": 0.0, "name": "e07cbef1681fc117b2de410f4c008cfb"}, {"type": "electric_scooter", "fusion_lon": 0.0, "bike_id": "e5a6fcecda1e6d38c918e188db00a322", "is_disabled": 0, "lat": 38.909627666666665, "rental_uris": {"ios": "https://dc.lft.to/lastmile_qr_scan", "android": "https://dc.lft.to/lastmile_qr_scan"}, "is_reserved": 0, "lon": -77.03831666666666, "fusion_lat": 0.0, "name": "e5a6fcecda1e6d38c918e188db00a322"}, {"type": "electric_scooter", "fusion_lon": 0.0, "bike_id": "a92ac280e4933d9470436ada66524bfe", "is_disabled": 0, "lat": 38.922658166666665, "rental_uris": {"ios": "https://dc.lft.to/lastmile_qr_scan", "android": "https://dc.lft.to/lastmile_qr_scan"}, "is_reserved": 0, "lon": -77.01919333333333, "fusion_lat": 0.0, "name": "a92ac280e4933d9470436ada66524bfe"}, {"type": "electric_scooter", "fusion_lon": 0.0, "bike_id": "f28f7eabf7ce0ba4a710dcccfc2c35b1", "is_disabled": 0, "lat": 38.960804, "rental_uris": {"ios": "https://dc.lft.to/lastmile_qr_scan", "android": "https://dc.lft.to/lastmile_qr_scan"}, "is_reserved": 0, "lon": -77.02883533333333, "fusion_lat": 0.0, "name": "f28f7eabf7ce0ba4a710dcccfc2c35b1"}, {"type": "electric_scooter", "fusion_lon": 0.0, "bike_id": "a076f2f718780fc554ea20c65293ec02", "is_disabled": 0, "lat": 38.91821316666667, "rental_uris": {"ios": "https://dc.lft.to/lastmile_qr_scan", "android": "https://dc.lft.to/lastmile_qr_scan"}, "is_reserved": 0, "lon": -77.02710916666666, "fusion_lat": 0.0, "name": "a076f2f718780fc554ea20c65293ec02"}, {"type": "electric_scooter", "fusion_lon": 0.0, "bike_id": "290781e9abcb460577cf363b12acb9f1", "is_disabled": 0, "lat": 38.938982, "rental_uris": {"ios": "https://dc.lft.to/lastmile_qr_scan", "android": "https://dc.lft.to/lastmile_qr_scan"}, "is_reserved": 0, "lon": -77.02490133333333, "fusion_lat": 0.0, "name": "290781e9abcb460577cf363b12acb9f1"}, {"type": "electric_bike", "fusion_lon": 0.0, "bike_id": "060c83b1b0c2c54d92a1860d39f9a4f8", "is_disabled": 0, "lat": 38.896224, "rental_uris": {"ios": "https://dc.lft.to/lastmile_qr_scan", "android": "https://dc.lft.to/lastmile_qr_scan"}, "is_reserved": 0, "lon": -76.907417, "fusion_lat": 0.0, "name": "060c83b1b0c2c54d92a1860d39f9a4f8"}, {"type": "electric_bike", "fusion_lon": 0.0, "bike_id": "530bb3f2543e8ba592c270d4a40b87d1", "is_disabled": 0, "lat": 38.93661066666667, "rental_uris": {"ios": "https://dc.lft.to/lastmile_qr_scan", "android": "https://dc.lft.to/lastmile_qr_scan"}, "is_reserved": 0, "lon": -77.03426783333333, "fusion_lat": 0.0, "name": "530bb3f2543e8ba592c270d4a40b87d1"}, {"type": "electric_scooter", "fusion_lon": 0.0, "bike_id": "220e1618887a019329daf242ae578d83", "is_disabled": 0, "lat": 38.92894316666667, "rental_uris": {"ios": "https://dc.lft.to/lastmile_qr_scan", "android": "https://dc.lft.to/lastmile_qr_scan"}, "is_reserved": 0, "lon": -77.03269516666667, "fusion_lat": 0.0, "name": "220e1618887a019329daf242ae578d83"}, {"type": "electric_scooter", "fusion_lon": 0.0, "bike_id": "281355e6acf5609e5de3cc20d8685428", "is_disabled": 0, "lat": 38.892225, "rental_uris": {"ios": "https://dc.lft.to/lastmile_qr_scan", "android": "https://dc.lft.to/lastmile_qr_scan"}, "is_reserved": 0, "lon": -77.0433365, "fusion_lat": 0.0, "name": "281355e6acf5609e5de3cc20d8685428"}, {"type": "electric_scooter", "fusion_lon": 0.0, "bike_id": "ca53c759d397d99949a4e2a4540fd742", "is_disabled": 0, "lat": 38.920573166666664, "rental_uris": {"ios": "https://dc.lft.to/lastmile_qr_scan", "android": "https://dc.lft.to/lastmile_qr_scan"}, "is_reserved": 0, "lon": -77.03244266666667, "fusion_lat": 0.0, "name": "ca53c759d397d99949a4e2a4540fd742"}, {"type": "electric_scooter", "fusion_lon": 0.0, "bike_id": "640f3d5ca3053cfc574f20567ec23c53", "is_disabled": 0, "lat": 38.92352416666667, "rental_uris": {"ios": "https://dc.lft.to/lastmile_qr_scan", "android": "https://dc.lft.to/lastmile_qr_scan"}, "is_reserved": 0, "lon": -77.0364075, "fusion_lat": 0.0, "name": "640f3d5ca3053cfc574f20567ec23c53"}, {"type": "electric_scooter", "fusion_lon": 0.0, "bike_id": "4a959d764d830fd42494a57db1adb3ce", "is_disabled": 0, "lat": 38.921452333333335, "rental_uris": {"ios": "https://dc.lft.to/lastmile_qr_scan", "android": "https://dc.lft.to/lastmile_qr_scan"}, "is_reserved": 0, "lon": -77.0350875, "fusion_lat": 0.0, "name": "4a959d764d830fd42494a57db1adb3ce"}, {"type": "electric_scooter", "fusion_lon": 0.0, "bike_id": "4cfad791509c946791675e2cee03d550", "is_disabled": 0, "lat": 38.93538066666667, "rental_uris": {"ios": "https://dc.lft.to/lastmile_qr_scan", "android": "https://dc.lft.to/lastmile_qr_scan"}, "is_reserved": 0, "lon": -77.0235435, "fusion_lat": 0.0, "name": "4cfad791509c946791675e2cee03d550"}, {"type": "electric_scooter", "fusion_lon": 0.0, "bike_id": "81855ca17458875faa21ad5df6f30d57", "is_disabled": 0, "lat": 38.90668633333333, "rental_uris": {"ios": "https://dc.lft.to/lastmile_qr_scan", "android": "https://dc.lft.to/lastmile_qr_scan"}, "is_reserved": 0, "lon": -77.029695, "fusion_lat": 0.0, "name": "81855ca17458875faa21ad5df6f30d57"}, {"type": "electric_scooter", "fusion_lon": 0.0, "bike_id": "9e0493caf162cf58ffd86c7f7c9dfe7f", "is_disabled": 0, "lat": 38.89223116666667, "rental_uris": {"ios": "https://dc.lft.to/lastmile_qr_scan", "android": "https://dc.lft.to/lastmile_qr_scan"}, "is_reserved": 0, "lon": -77.048086, "fusion_lat": 0.0, "name": "9e0493caf162cf58ffd86c7f7c9dfe7f"}, {"type": "electric_scooter", "fusion_lon": 0.0, "bike_id": "60a4e4e624f33de73734e64b6a5b70a5", "is_disabled": 0, "lat": 38.90563433333333, "rental_uris": {"ios": "https://dc.lft.to/lastmile_qr_scan", "android": "https://dc.lft.to/lastmile_qr_scan"}, "is_reserved": 0, "lon": -77.034756, "fusion_lat": 0.0, "name": "60a4e4e624f33de73734e64b6a5b70a5"}, {"type": "electric_bike", "fusion_lon": 0.0, "bike_id": "cb97ab65d639abc32efc5306134f43c4", "is_disabled": 0, "lat": 38.876704, "rental_uris": {"ios": "https://dc.lft.to/lastmile_qr_scan", "android": "https://dc.lft.to/lastmile_qr_scan"}, "is_reserved": 0, "lon": -77.01434016666667, "fusion_lat": 0.0, "name": "cb97ab65d639abc32efc5306134f43c4"}, {"type": "electric_scooter", "fusion_lon": 0.0, "bike_id": "a758218caf43c725c3ed6c97c7b510f2", "is_disabled": 0, "lat": 38.93433366666667, "rental_uris": {"ios": "https://dc.lft.to/lastmile_qr_scan", "android": "https://dc.lft.to/lastmile_qr_scan"}, "is_reserved": 0, "lon": -77.040013, "fusion_lat": 0.0, "name": "a758218caf43c725c3ed6c97c7b510f2"}, {"type": "electric_scooter", "fusion_lon": 0.0, "bike_id": "e487bf608f2e26f75e9fe43d9f6b232b", "is_disabled": 0, "lat": 38.9241625, "rental_uris": {"ios": "https://dc.lft.to/lastmile_qr_scan", "android": "https://dc.lft.to/lastmile_qr_scan"}, "is_reserved": 0, "lon": -77.0652455, "fusion_lat": 0.0, "name": "e487bf608f2e26f75e9fe43d9f6b232b"}, {"type": "electric_scooter", "fusion_lon": 0.0, "bike_id": "cc1f7d7ab4c8feff3432bdc76a718f8f", "is_disabled": 0, "lat": 38.9118715, "rental_uris": {"ios": "https://dc.lft.to/lastmile_qr_scan", "android": "https://dc.lft.to/lastmile_qr_scan"}, "is_reserved": 0, "lon": -77.00194133333333, "fusion_lat": 0.0, "name": "cc1f7d7ab4c8feff3432bdc76a718f8f"}, {"type": "electric_scooter", "fusion_lon": 0.0, "bike_id": "013c384b67c117532b5bdbb623f26577", "is_disabled": 0, "lat": 38.906257833333335, "rental_uris": {"ios": "https://dc.lft.to/lastmile_qr_scan", "android": "https://dc.lft.to/lastmile_qr_scan"}, "is_reserved": 0, "lon": -77.0069205, "fusion_lat": 0.0, "name": "013c384b67c117532b5bdbb623f26577"}, {"type": "electric_scooter", "fusion_lon": 0.0, "bike_id": "d26d80526f25ba79ab03799220e26540", "is_disabled": 0, "lat": 38.920333, "rental_uris": {"ios": "https://dc.lft.to/lastmile_qr_scan", "android": "https://dc.lft.to/lastmile_qr_scan"}, "is_reserved": 0, "lon": -77.01223683333333, "fusion_lat": 0.0, "name": "d26d80526f25ba79ab03799220e26540"}, {"type": "electric_scooter", "fusion_lon": 0.0, "bike_id": "d813bc706798a2d3e80060b74f832c8d", "is_disabled": 0, "lat": 38.920853666666666, "rental_uris": {"ios": "https://dc.lft.to/lastmile_qr_scan", "android": "https://dc.lft.to/lastmile_qr_scan"}, "is_reserved": 0, "lon": -77.04210366666666, "fusion_lat": 0.0, "name": "d813bc706798a2d3e80060b74f832c8d"}, {"type": "electric_scooter", "fusion_lon": 0.0, "bike_id": "5ce6c4f87b1b7e96b985a1e065fa5187", "is_disabled": 0, "lat": 38.940991333333336, "rental_uris": {"ios": "https://dc.lft.to/lastmile_qr_scan", "android": "https://dc.lft.to/lastmile_qr_scan"}, "is_reserved": 0, "lon": -77.02646316666667, "fusion_lat": 0.0, "name": "5ce6c4f87b1b7e96b985a1e065fa5187"}, {"type": "electric_scooter", "fusion_lon": 0.0, "bike_id": "e243a84ac8edf2b92266834d104e4007", "is_disabled": 0, "lat": 38.91549666666667, "rental_uris": {"ios": "https://dc.lft.to/lastmile_qr_scan", "android": "https://dc.lft.to/lastmile_qr_scan"}, "is_reserved": 0, "lon": -77.038551, "fusion_lat": 0.0, "name": "e243a84ac8edf2b92266834d104e4007"}, {"type": "electric_scooter", "fusion_lon": 0.0, "bike_id": "e8dfe867d34f4a554838dcdcc070c808", "is_disabled": 0, "lat": 38.91869616666666, "rental_uris": {"ios": "https://dc.lft.to/lastmile_qr_scan", "android": "https://dc.lft.to/lastmile_qr_scan"}, "is_reserved": 0, "lon": -77.0438, "fusion_lat": 0.0, "name": "e8dfe867d34f4a554838dcdcc070c808"}, {"type": "electric_scooter", "fusion_lon": 0.0, "bike_id": "1104ae00d531e95e0f4f868610f9a1ea", "is_disabled": 0, "lat": 38.892220333333334, "rental_uris": {"ios": "https://dc.lft.to/lastmile_qr_scan", "android": "https://dc.lft.to/lastmile_qr_scan"}, "is_reserved": 0, "lon": -77.02371183333334, "fusion_lat": 0.0, "name": "1104ae00d531e95e0f4f868610f9a1ea"}, {"type": "electric_scooter", "fusion_lon": 0.0, "bike_id": "74d833704d2e96ae1d07702280fc4426", "is_disabled": 0, "lat": 38.90399433333333, "rental_uris": {"ios": "https://dc.lft.to/lastmile_qr_scan", "android": "https://dc.lft.to/lastmile_qr_scan"}, "is_reserved": 0, "lon": -77.06807483333333, "fusion_lat": 0.0, "name": "74d833704d2e96ae1d07702280fc4426"}, {"type": "electric_scooter", "fusion_lon": 0.0, "bike_id": "70bfe840c22f32e029347ed66318603c", "is_disabled": 0, "lat": 38.93532183333333, "rental_uris": {"ios": "https://dc.lft.to/lastmile_qr_scan", "android": "https://dc.lft.to/lastmile_qr_scan"}, "is_reserved": 0, "lon": -77.02351816666666, "fusion_lat": 0.0, "name": "70bfe840c22f32e029347ed66318603c"}, {"type": "electric_scooter", "fusion_lon": 0.0, "bike_id": "631205b95c5a8657e23eef8c9f3b26eb", "is_disabled": 0, "lat": 38.93528233333333, "rental_uris": {"ios": "https://dc.lft.to/lastmile_qr_scan", "android": "https://dc.lft.to/lastmile_qr_scan"}, "is_reserved": 0, "lon": -77.03491133333333, "fusion_lat": 0.0, "name": "631205b95c5a8657e23eef8c9f3b26eb"}, {"type": "electric_scooter", "fusion_lon": 0.0, "bike_id": "27b31e7b472ad4591630925b92b0295a", "is_disabled": 0, "lat": 38.900131333333334, "rental_uris": {"ios": "https://dc.lft.to/lastmile_qr_scan", "android": "https://dc.lft.to/lastmile_qr_scan"}, "is_reserved": 0, "lon": -76.98894766666666, "fusion_lat": 0.0, "name": "27b31e7b472ad4591630925b92b0295a"}, {"type": "electric_scooter", "fusion_lon": 0.0, "bike_id": "0df687979c8fa8a426411a6d1a0941b4", "is_disabled": 0, "lat": 38.920340333333336, "rental_uris": {"ios": "https://dc.lft.to/lastmile_qr_scan", "android": "https://dc.lft.to/lastmile_qr_scan"}, "is_reserved": 0, "lon": -77.01033683333333, "fusion_lat": 0.0, "name": "0df687979c8fa8a426411a6d1a0941b4"}, {"type": "electric_scooter", "fusion_lon": 0.0, "bike_id": "3cad95db76828d2ef46a0c3722d08dca", "is_disabled": 0, "lat": 38.9371965, "rental_uris": {"ios": "https://dc.lft.to/lastmile_qr_scan", "android": "https://dc.lft.to/lastmile_qr_scan"}, "is_reserved": 0, "lon": -77.01909383333333, "fusion_lat": 0.0, "name": "3cad95db76828d2ef46a0c3722d08dca"}, {"type": "electric_scooter", "fusion_lon": 0.0, "bike_id": "1452bab3e97a6fd4976d10ee5b5fe152", "is_disabled": 0, "lat": 38.90004916666667, "rental_uris": {"ios": "https://dc.lft.to/lastmile_qr_scan", "android": "https://dc.lft.to/lastmile_qr_scan"}, "is_reserved": 0, "lon": -77.005748, "fusion_lat": 0.0, "name": "1452bab3e97a6fd4976d10ee5b5fe152"}, {"type": "electric_scooter", "fusion_lon": 0.0, "bike_id": "7dba792bad7624d44dbf891ff3557cda", "is_disabled": 0, "lat": 38.934683666666665, "rental_uris": {"ios": "https://dc.lft.to/lastmile_qr_scan", "android": "https://dc.lft.to/lastmile_qr_scan"}, "is_reserved": 0, "lon": -77.04134316666666, "fusion_lat": 0.0, "name": "7dba792bad7624d44dbf891ff3557cda"}, {"type": "electric_scooter", "fusion_lon": 0.0, "bike_id": "c1d82e70ef060b42ab2c0fd79ca0862d", "is_disabled": 0, "lat": 38.909565, "rental_uris": {"ios": "https://dc.lft.to/lastmile_qr_scan", "android": "https://dc.lft.to/lastmile_qr_scan"}, "is_reserved": 0, "lon": -77.0479835, "fusion_lat": 0.0, "name": "c1d82e70ef060b42ab2c0fd79ca0862d"}, {"type": "electric_scooter", "fusion_lon": 0.0, "bike_id": "0a747ba089679cdf80f13cf5b433836b", "is_disabled": 0, "lat": 38.900779166666666, "rental_uris": {"ios": "https://dc.lft.to/lastmile_qr_scan", "android": "https://dc.lft.to/lastmile_qr_scan"}, "is_reserved": 0, "lon": -77.049913, "fusion_lat": 0.0, "name": "0a747ba089679cdf80f13cf5b433836b"}, {"type": "electric_scooter", "fusion_lon": 0.0, "bike_id": "335b4a4c34a062af6a60ec7192fe28c0", "is_disabled": 0, "lat": 38.89773516666666, "rental_uris": {"ios": "https://dc.lft.to/lastmile_qr_scan", "android": "https://dc.lft.to/lastmile_qr_scan"}, "is_reserved": 0, "lon": -77.0271435, "fusion_lat": 0.0, "name": "335b4a4c34a062af6a60ec7192fe28c0"}, {"type": "electric_scooter", "fusion_lon": 0.0, "bike_id": "ada6db0713b5a5fa99cc23d6d53bb159", "is_disabled": 0, "lat": 38.911142, "rental_uris": {"ios": "https://dc.lft.to/lastmile_qr_scan", "android": "https://dc.lft.to/lastmile_qr_scan"}, "is_reserved": 0, "lon": -77.007468, "fusion_lat": 0.0, "name": "ada6db0713b5a5fa99cc23d6d53bb159"}, {"type": "electric_scooter", "fusion_lon": 0.0, "bike_id": "03a61e49515a6be98a425028da7839c7", "is_disabled": 0, "lat": 38.880191833333335, "rental_uris": {"ios": "https://dc.lft.to/lastmile_qr_scan", "android": "https://dc.lft.to/lastmile_qr_scan"}, "is_reserved": 0, "lon": -76.98070266666667, "fusion_lat": 0.0, "name": "03a61e49515a6be98a425028da7839c7"}, {"type": "electric_scooter", "fusion_lon": 0.0, "bike_id": "48cf1c33c939f1990c123a2688c795ca", "is_disabled": 0, "lat": 38.9223775, "rental_uris": {"ios": "https://dc.lft.to/lastmile_qr_scan", "android": "https://dc.lft.to/lastmile_qr_scan"}, "is_reserved": 0, "lon": -77.03884216666667, "fusion_lat": 0.0, "name": "48cf1c33c939f1990c123a2688c795ca"}, {"type": "electric_scooter", "fusion_lon": 0.0, "bike_id": "b2f238ab90d7b297d58efae6f7e3604c", "is_disabled": 0, "lat": 38.91921766666667, "rental_uris": {"ios": "https://dc.lft.to/lastmile_qr_scan", "android": "https://dc.lft.to/lastmile_qr_scan"}, "is_reserved": 0, "lon": -77.032687, "fusion_lat": 0.0, "name": "b2f238ab90d7b297d58efae6f7e3604c"}, {"type": "electric_scooter", "fusion_lon": 0.0, "bike_id": "0820abb71021ccc2aa56d4c22a51ca20", "is_disabled": 0, "lat": 38.90195033333333, "rental_uris": {"ios": "https://dc.lft.to/lastmile_qr_scan", "android": "https://dc.lft.to/lastmile_qr_scan"}, "is_reserved": 0, "lon": -76.926346, "fusion_lat": 0.0, "name": "0820abb71021ccc2aa56d4c22a51ca20"}, {"type": "electric_bike", "fusion_lon": 0.0, "bike_id": "47630a67cc3d6b1af4979a981b7bfdf2", "is_disabled": 0, "lat": 38.92294866666667, "rental_uris": {"ios": "https://dc.lft.to/lastmile_qr_scan", "android": "https://dc.lft.to/lastmile_qr_scan"}, "is_reserved": 0, "lon": -76.99766683333333, "fusion_lat": 0.0, "name": "47630a67cc3d6b1af4979a981b7bfdf2"}, {"type": "electric_scooter", "fusion_lon": 0.0, "bike_id": "c527403b812a80aa08086ba71e016fe8", "is_disabled": 0, "lat": 38.9162275, "rental_uris": {"ios": "https://dc.lft.to/lastmile_qr_scan", "android": "https://dc.lft.to/lastmile_qr_scan"}, "is_reserved": 0, "lon": -77.04268016666667, "fusion_lat": 0.0, "name": "c527403b812a80aa08086ba71e016fe8"}, {"type": "electric_scooter", "fusion_lon": 0.0, "bike_id": "059469079e8a6a84eeef368b89ce708f", "is_disabled": 0, "lat": 38.93993066666667, "rental_uris": {"ios": "https://dc.lft.to/lastmile_qr_scan", "android": "https://dc.lft.to/lastmile_qr_scan"}, "is_reserved": 0, "lon": -77.0255075, "fusion_lat": 0.0, "name": "059469079e8a6a84eeef368b89ce708f"}, {"type": "electric_scooter", "fusion_lon": 0.0, "bike_id": "eed8db05e6664eeebb9aac38391ee21d", "is_disabled": 0, "lat": 38.8964985, "rental_uris": {"ios": "https://dc.lft.to/lastmile_qr_scan", "android": "https://dc.lft.to/lastmile_qr_scan"}, "is_reserved": 0, "lon": -77.01138883333333, "fusion_lat": 0.0, "name": "eed8db05e6664eeebb9aac38391ee21d"}, {"type": "electric_scooter", "fusion_lon": 0.0, "bike_id": "fdb2c5efbec245750de33ad96c589358", "is_disabled": 0, "lat": 38.90391016666667, "rental_uris": {"ios": "https://dc.lft.to/lastmile_qr_scan", "android": "https://dc.lft.to/lastmile_qr_scan"}, "is_reserved": 0, "lon": -76.9849185, "fusion_lat": 0.0, "name": "fdb2c5efbec245750de33ad96c589358"}, {"type": "electric_scooter", "fusion_lon": 0.0, "bike_id": "86e3f3be71e68689be56770b070b7da1", "is_disabled": 0, "lat": 38.924654333333336, "rental_uris": {"ios": "https://dc.lft.to/lastmile_qr_scan", "android": "https://dc.lft.to/lastmile_qr_scan"}, "is_reserved": 0, "lon": -77.02214933333333, "fusion_lat": 0.0, "name": "86e3f3be71e68689be56770b070b7da1"}, {"type": "electric_scooter", "fusion_lon": 0.0, "bike_id": "836b4ffeecf2c03f35000c1c75e619bf", "is_disabled": 0, "lat": 38.915531333333334, "rental_uris": {"ios": "https://dc.lft.to/lastmile_qr_scan", "android": "https://dc.lft.to/lastmile_qr_scan"}, "is_reserved": 0, "lon": -77.03245083333333, "fusion_lat": 0.0, "name": "836b4ffeecf2c03f35000c1c75e619bf"}, {"type": "electric_scooter", "fusion_lon": 0.0, "bike_id": "844146958699e603d98784b421430b23", "is_disabled": 0, "lat": 38.86934633333333, "rental_uris": {"ios": "https://dc.lft.to/lastmile_qr_scan", "android": "https://dc.lft.to/lastmile_qr_scan"}, "is_reserved": 0, "lon": -77.013767, "fusion_lat": 0.0, "name": "844146958699e603d98784b421430b23"}, {"type": "electric_bike", "fusion_lon": 0.0, "bike_id": "17dff7df7a12081da494fbd60854b0fd", "is_disabled": 0, "lat": 38.957563666666665, "rental_uris": {"ios": "https://dc.lft.to/lastmile_qr_scan", "android": "https://dc.lft.to/lastmile_qr_scan"}, "is_reserved": 0, "lon": -76.98022883333333, "fusion_lat": 0.0, "name": "17dff7df7a12081da494fbd60854b0fd"}, {"type": "electric_scooter", "fusion_lon": 0.0, "bike_id": "e9e22ca717cb69c3e85c89d7f976d636", "is_disabled": 0, "lat": 38.86468083333333, "rental_uris": {"ios": "https://dc.lft.to/lastmile_qr_scan", "android": "https://dc.lft.to/lastmile_qr_scan"}, "is_reserved": 0, "lon": -76.98234533333333, "fusion_lat": 0.0, "name": "e9e22ca717cb69c3e85c89d7f976d636"}, {"type": "electric_scooter", "fusion_lon": 0.0, "bike_id": "f03156897410a207b8e5a976e58026cd", "is_disabled": 0, "lat": 38.9210555, "rental_uris": {"ios": "https://dc.lft.to/lastmile_qr_scan", "android": "https://dc.lft.to/lastmile_qr_scan"}, "is_reserved": 0, "lon": -77.046877, "fusion_lat": 0.0, "name": "f03156897410a207b8e5a976e58026cd"}, {"type": "electric_scooter", "fusion_lon": 0.0, "bike_id": "9497002e5762271f498ab23715d5720d", "is_disabled": 0, "lat": 38.91835233333333, "rental_uris": {"ios": "https://dc.lft.to/lastmile_qr_scan", "android": "https://dc.lft.to/lastmile_qr_scan"}, "is_reserved": 0, "lon": -77.01787033333333, "fusion_lat": 0.0, "name": "9497002e5762271f498ab23715d5720d"}, {"type": "electric_scooter", "fusion_lon": 0.0, "bike_id": "a15319c977359a2c36c8bbb4fab372b0", "is_disabled": 0, "lat": 38.89608966666667, "rental_uris": {"ios": "https://dc.lft.to/lastmile_qr_scan", "android": "https://dc.lft.to/lastmile_qr_scan"}, "is_reserved": 0, "lon": -76.98094783333333, "fusion_lat": 0.0, "name": "a15319c977359a2c36c8bbb4fab372b0"}, {"type": "electric_scooter", "fusion_lon": 0.0, "bike_id": "e987fc436d42eb2a1488c44a6cd1372a", "is_disabled": 0, "lat": 38.93463416666667, "rental_uris": {"ios": "https://dc.lft.to/lastmile_qr_scan", "android": "https://dc.lft.to/lastmile_qr_scan"}, "is_reserved": 0, "lon": -77.02924716666666, "fusion_lat": 0.0, "name": "e987fc436d42eb2a1488c44a6cd1372a"}, {"type": "electric_bike", "fusion_lon": 0.0, "bike_id": "732f697b942d5c6ea200d4ae5a682ab9", "is_disabled": 0, "lat": 38.941479666666666, "rental_uris": {"ios": "https://dc.lft.to/lastmile_qr_scan", "android": "https://dc.lft.to/lastmile_qr_scan"}, "is_reserved": 0, "lon": -77.00196933333334, "fusion_lat": 0.0, "name": "732f697b942d5c6ea200d4ae5a682ab9"}, {"type": "electric_scooter", "fusion_lon": 0.0, "bike_id": "6a61544e581b55c071e5f6eecb6152b5", "is_disabled": 0, "lat": 38.906168666666666, "rental_uris": {"ios": "https://dc.lft.to/lastmile_qr_scan", "android": "https://dc.lft.to/lastmile_qr_scan"}, "is_reserved": 0, "lon": -77.00696383333333, "fusion_lat": 0.0, "name": "6a61544e581b55c071e5f6eecb6152b5"}, {"type": "electric_scooter", "fusion_lon": 0.0, "bike_id": "182ff930dda79b0f6b3ad52dad206d0c", "is_disabled": 0, "lat": 38.91713433333334, "rental_uris": {"ios": "https://dc.lft.to/lastmile_qr_scan", "android": "https://dc.lft.to/lastmile_qr_scan"}, "is_reserved": 0, "lon": -77.034695, "fusion_lat": 0.0, "name": "182ff930dda79b0f6b3ad52dad206d0c"}, {"type": "electric_scooter", "fusion_lon": 0.0, "bike_id": "6821f751a0dcfa990452567d9841ec13", "is_disabled": 0, "lat": 38.900225166666665, "rental_uris": {"ios": "https://dc.lft.to/lastmile_qr_scan", "android": "https://dc.lft.to/lastmile_qr_scan"}, "is_reserved": 0, "lon": -77.04816183333334, "fusion_lat": 0.0, "name": "6821f751a0dcfa990452567d9841ec13"}, {"type": "electric_scooter", "fusion_lon": 0.0, "bike_id": "c58730e6cd4f3b13f9ae670600320b43", "is_disabled": 0, "lat": 38.919524, "rental_uris": {"ios": "https://dc.lft.to/lastmile_qr_scan", "android": "https://dc.lft.to/lastmile_qr_scan"}, "is_reserved": 0, "lon": -77.04171133333334, "fusion_lat": 0.0, "name": "c58730e6cd4f3b13f9ae670600320b43"}, {"type": "electric_scooter", "fusion_lon": 0.0, "bike_id": "815cc5c32870dfd93277216cc9aea175", "is_disabled": 0, "lat": 38.893403666666664, "rental_uris": {"ios": "https://dc.lft.to/lastmile_qr_scan", "android": "https://dc.lft.to/lastmile_qr_scan"}, "is_reserved": 0, "lon": -76.9938315, "fusion_lat": 0.0, "name": "815cc5c32870dfd93277216cc9aea175"}, {"type": "electric_scooter", "fusion_lon": 0.0, "bike_id": "f268e8fa0784c6d7b2c0aa54b886bcc2", "is_disabled": 0, "lat": 38.89960083333333, "rental_uris": {"ios": "https://dc.lft.to/lastmile_qr_scan", "android": "https://dc.lft.to/lastmile_qr_scan"}, "is_reserved": 0, "lon": -77.01607316666667, "fusion_lat": 0.0, "name": "f268e8fa0784c6d7b2c0aa54b886bcc2"}, {"type": "electric_scooter", "fusion_lon": 0.0, "bike_id": "56d8dc31c492e6de1f0cea0e4fa143ac", "is_disabled": 0, "lat": 38.79610133333333, "rental_uris": {"ios": "https://dc.lft.to/lastmile_qr_scan", "android": "https://dc.lft.to/lastmile_qr_scan"}, "is_reserved": 0, "lon": -77.0748865, "fusion_lat": 0.0, "name": "56d8dc31c492e6de1f0cea0e4fa143ac"}, {"type": "electric_scooter", "fusion_lon": 0.0, "bike_id": "a9d747bd65c74403704dffb42eeaa39b", "is_disabled": 0, "lat": 38.87729816666667, "rental_uris": {"ios": "https://dc.lft.to/lastmile_qr_scan", "android": "https://dc.lft.to/lastmile_qr_scan"}, "is_reserved": 0, "lon": -77.00678783333333, "fusion_lat": 0.0, "name": "a9d747bd65c74403704dffb42eeaa39b"}, {"type": "electric_bike", "fusion_lon": 0.0, "bike_id": "cd2b59830fe6f416367ce772134cf47a", "is_disabled": 0, "lat": 38.8577135, "rental_uris": {"ios": "https://dc.lft.to/lastmile_qr_scan", "android": "https://dc.lft.to/lastmile_qr_scan"}, "is_reserved": 0, "lon": -76.98770433333334, "fusion_lat": 0.0, "name": "cd2b59830fe6f416367ce772134cf47a"}, {"type": "electric_scooter", "fusion_lon": 0.0, "bike_id": "f15d62400bfb3f043974d516a464b302", "is_disabled": 0, "lat": 38.89681, "rental_uris": {"ios": "https://dc.lft.to/lastmile_qr_scan", "android": "https://dc.lft.to/lastmile_qr_scan"}, "is_reserved": 0, "lon": -77.05128383333333, "fusion_lat": 0.0, "name": "f15d62400bfb3f043974d516a464b302"}, {"type": "electric_scooter", "fusion_lon": 0.0, "bike_id": "3289ee9a7362a4f80dea7f6117d43320", "is_disabled": 0, "lat": 38.90246, "rental_uris": {"ios": "https://dc.lft.to/lastmile_qr_scan", "android": "https://dc.lft.to/lastmile_qr_scan"}, "is_reserved": 0, "lon": -77.03721883333333, "fusion_lat": 0.0, "name": "3289ee9a7362a4f80dea7f6117d43320"}, {"type": "electric_scooter", "fusion_lon": 0.0, "bike_id": "72dbc642bfe0ea6fb3265b4f4ce3a28d", "is_disabled": 0, "lat": 38.91887716666667, "rental_uris": {"ios": "https://dc.lft.to/lastmile_qr_scan", "android": "https://dc.lft.to/lastmile_qr_scan"}, "is_reserved": 0, "lon": -77.02476866666667, "fusion_lat": 0.0, "name": "72dbc642bfe0ea6fb3265b4f4ce3a28d"}, {"type": "electric_scooter", "fusion_lon": 0.0, "bike_id": "568d0b813a000bd977fdba06de9709ab", "is_disabled": 0, "lat": 38.92315766666667, "rental_uris": {"ios": "https://dc.lft.to/lastmile_qr_scan", "android": "https://dc.lft.to/lastmile_qr_scan"}, "is_reserved": 0, "lon": -77.03798233333333, "fusion_lat": 0.0, "name": "568d0b813a000bd977fdba06de9709ab"}, {"type": "electric_scooter", "fusion_lon": 0.0, "bike_id": "aec1ed0f8884926eec5d563d80ed574a", "is_disabled": 0, "lat": 38.90005583333333, "rental_uris": {"ios": "https://dc.lft.to/lastmile_qr_scan", "android": "https://dc.lft.to/lastmile_qr_scan"}, "is_reserved": 0, "lon": -77.02157616666666, "fusion_lat": 0.0, "name": "aec1ed0f8884926eec5d563d80ed574a"}, {"type": "electric_scooter", "fusion_lon": 0.0, "bike_id": "fa77bcdd19d86f66631181067acba201", "is_disabled": 0, "lat": 38.923307, "rental_uris": {"ios": "https://dc.lft.to/lastmile_qr_scan", "android": "https://dc.lft.to/lastmile_qr_scan"}, "is_reserved": 0, "lon": -77.0005045, "fusion_lat": 0.0, "name": "fa77bcdd19d86f66631181067acba201"}, {"type": "electric_scooter", "fusion_lon": 0.0, "bike_id": "48624420b838c0f5e41fc2e0be7b9622", "is_disabled": 0, "lat": 38.930597, "rental_uris": {"ios": "https://dc.lft.to/lastmile_qr_scan", "android": "https://dc.lft.to/lastmile_qr_scan"}, "is_reserved": 0, "lon": -77.03210666666666, "fusion_lat": 0.0, "name": "48624420b838c0f5e41fc2e0be7b9622"}, {"type": "electric_scooter", "fusion_lon": 0.0, "bike_id": "67ddf93a1e0f45f3df6d3ad7a24b121d", "is_disabled": 0, "lat": 38.9238455, "rental_uris": {"ios": "https://dc.lft.to/lastmile_qr_scan", "android": "https://dc.lft.to/lastmile_qr_scan"}, "is_reserved": 0, "lon": -77.0366095, "fusion_lat": 0.0, "name": "67ddf93a1e0f45f3df6d3ad7a24b121d"}, {"type": "electric_bike", "fusion_lon": 0.0, "bike_id": "8a1eddf02975d78eead163a2a3e8bb6d", "is_disabled": 0, "lat": 38.940379166666666, "rental_uris": {"ios": "https://dc.lft.to/lastmile_qr_scan", "android": "https://dc.lft.to/lastmile_qr_scan"}, "is_reserved": 0, "lon": -76.99476433333334, "fusion_lat": 0.0, "name": "8a1eddf02975d78eead163a2a3e8bb6d"}, {"type": "electric_scooter", "fusion_lon": 0.0, "bike_id": "1865f05a21dbc649ec2fef3e3737fffd", "is_disabled": 0, "lat": 38.919394833333335, "rental_uris": {"ios": "https://dc.lft.to/lastmile_qr_scan", "android": "https://dc.lft.to/lastmile_qr_scan"}, "is_reserved": 0, "lon": -77.0489075, "fusion_lat": 0.0, "name": "1865f05a21dbc649ec2fef3e3737fffd"}, {"type": "electric_scooter", "fusion_lon": 0.0, "bike_id": "93eec518433532166e10713e50bc2341", "is_disabled": 0, "lat": 38.925716666666666, "rental_uris": {"ios": "https://dc.lft.to/lastmile_qr_scan", "android": "https://dc.lft.to/lastmile_qr_scan"}, "is_reserved": 0, "lon": -77.0787885, "fusion_lat": 0.0, "name": "93eec518433532166e10713e50bc2341"}, {"type": "electric_scooter", "fusion_lon": 0.0, "bike_id": "fbf650169f5185e6c2de43a3964762ec", "is_disabled": 0, "lat": 38.932996333333335, "rental_uris": {"ios": "https://dc.lft.to/lastmile_qr_scan", "android": "https://dc.lft.to/lastmile_qr_scan"}, "is_reserved": 0, "lon": -77.07227833333333, "fusion_lat": 0.0, "name": "fbf650169f5185e6c2de43a3964762ec"}, {"type": "electric_scooter", "fusion_lon": 0.0, "bike_id": "c53eb927256241bbc2e3c5c69897686f", "is_disabled": 0, "lat": 38.92042033333333, "rental_uris": {"ios": "https://dc.lft.to/lastmile_qr_scan", "android": "https://dc.lft.to/lastmile_qr_scan"}, "is_reserved": 0, "lon": -77.04388416666667, "fusion_lat": 0.0, "name": "c53eb927256241bbc2e3c5c69897686f"}, {"type": "electric_scooter", "fusion_lon": 0.0, "bike_id": "df9325ce6412278c5c6f3abc82336b39", "is_disabled": 0, "lat": 38.8922405, "rental_uris": {"ios": "https://dc.lft.to/lastmile_qr_scan", "android": "https://dc.lft.to/lastmile_qr_scan"}, "is_reserved": 0, "lon": -77.04806316666667, "fusion_lat": 0.0, "name": "df9325ce6412278c5c6f3abc82336b39"}, {"type": "electric_scooter", "fusion_lon": 0.0, "bike_id": "032a002b5bedff05dffae1eb4be53e44", "is_disabled": 0, "lat": 38.892272, "rental_uris": {"ios": "https://dc.lft.to/lastmile_qr_scan", "android": "https://dc.lft.to/lastmile_qr_scan"}, "is_reserved": 0, "lon": -77.04467716666667, "fusion_lat": 0.0, "name": "032a002b5bedff05dffae1eb4be53e44"}, {"type": "electric_scooter", "fusion_lon": 0.0, "bike_id": "9fe6ea6fbdede64705f1639e656cd3b7", "is_disabled": 0, "lat": 38.92396816666667, "rental_uris": {"ios": "https://dc.lft.to/lastmile_qr_scan", "android": "https://dc.lft.to/lastmile_qr_scan"}, "is_reserved": 0, "lon": -77.024907, "fusion_lat": 0.0, "name": "9fe6ea6fbdede64705f1639e656cd3b7"}, {"type": "electric_scooter", "fusion_lon": 0.0, "bike_id": "a59b50dd4cf5e4ceebbf849a0cff03f0", "is_disabled": 0, "lat": 38.9193295, "rental_uris": {"ios": "https://dc.lft.to/lastmile_qr_scan", "android": "https://dc.lft.to/lastmile_qr_scan"}, "is_reserved": 0, "lon": -77.024934, "fusion_lat": 0.0, "name": "a59b50dd4cf5e4ceebbf849a0cff03f0"}, {"type": "electric_bike", "fusion_lon": 0.0, "bike_id": "20d872190874e484c35a5f28bc219fd4", "is_disabled": 0, "lat": 38.823001, "rental_uris": {"ios": "https://dc.lft.to/lastmile_qr_scan", "android": "https://dc.lft.to/lastmile_qr_scan"}, "is_reserved": 0, "lon": -77.08136, "fusion_lat": 0.0, "name": "20d872190874e484c35a5f28bc219fd4"}, {"type": "electric_bike", "fusion_lon": 0.0, "bike_id": "8497f59f07065f3403eec7eff12a239f", "is_disabled": 0, "lat": 38.9668975, "rental_uris": {"ios": "https://dc.lft.to/lastmile_qr_scan", "android": "https://dc.lft.to/lastmile_qr_scan"}, "is_reserved": 0, "lon": -77.02279983333334, "fusion_lat": 0.0, "name": "8497f59f07065f3403eec7eff12a239f"}, {"type": "electric_scooter", "fusion_lon": 0.0, "bike_id": "7cf551e60a87157762abe0a37f531fc8", "is_disabled": 0, "lat": 38.8994485, "rental_uris": {"ios": "https://dc.lft.to/lastmile_qr_scan", "android": "https://dc.lft.to/lastmile_qr_scan"}, "is_reserved": 0, "lon": -77.04494133333333, "fusion_lat": 0.0, "name": "7cf551e60a87157762abe0a37f531fc8"}, {"type": "electric_scooter", "fusion_lon": 0.0, "bike_id": "96e927c6d97e2eb1801bcb6e06930f84", "is_disabled": 0, "lat": 38.8997795, "rental_uris": {"ios": "https://dc.lft.to/lastmile_qr_scan", "android": "https://dc.lft.to/lastmile_qr_scan"}, "is_reserved": 0, "lon": -77.015994, "fusion_lat": 0.0, "name": "96e927c6d97e2eb1801bcb6e06930f84"}, {"type": "electric_scooter", "fusion_lon": 0.0, "bike_id": "678c2814d12689fcbf03406e32f7aeed", "is_disabled": 0, "lat": 38.920648, "rental_uris": {"ios": "https://dc.lft.to/lastmile_qr_scan", "android": "https://dc.lft.to/lastmile_qr_scan"}, "is_reserved": 0, "lon": -77.0425875, "fusion_lat": 0.0, "name": "678c2814d12689fcbf03406e32f7aeed"}, {"type": "electric_scooter", "fusion_lon": 0.0, "bike_id": "807a564193aea59b91799033b3d40788", "is_disabled": 0, "lat": 38.883341, "rental_uris": {"ios": "https://dc.lft.to/lastmile_qr_scan", "android": "https://dc.lft.to/lastmile_qr_scan"}, "is_reserved": 0, "lon": -77.00641583333334, "fusion_lat": 0.0, "name": "807a564193aea59b91799033b3d40788"}, {"type": "electric_scooter", "fusion_lon": 0.0, "bike_id": "c193aeaeaf33b100fcbd24bc398d822a", "is_disabled": 0, "lat": 38.9238705, "rental_uris": {"ios": "https://dc.lft.to/lastmile_qr_scan", "android": "https://dc.lft.to/lastmile_qr_scan"}, "is_reserved": 0, "lon": -77.03660916666666, "fusion_lat": 0.0, "name": "c193aeaeaf33b100fcbd24bc398d822a"}, {"type": "electric_scooter", "fusion_lon": 0.0, "bike_id": "0d644b42e17a296639017dd9601fb9cb", "is_disabled": 0, "lat": 38.907948833333336, "rental_uris": {"ios": "https://dc.lft.to/lastmile_qr_scan", "android": "https://dc.lft.to/lastmile_qr_scan"}, "is_reserved": 0, "lon": -77.0423025, "fusion_lat": 0.0, "name": "0d644b42e17a296639017dd9601fb9cb"}, {"type": "electric_scooter", "fusion_lon": 0.0, "bike_id": "4fc1ad26f08c96ae469e8bd497144c94", "is_disabled": 0, "lat": 38.8865895, "rental_uris": {"ios": "https://dc.lft.to/lastmile_qr_scan", "android": "https://dc.lft.to/lastmile_qr_scan"}, "is_reserved": 0, "lon": -77.02832, "fusion_lat": 0.0, "name": "4fc1ad26f08c96ae469e8bd497144c94"}, {"type": "electric_bike", "fusion_lon": 0.0, "bike_id": "609fd0c1eabc47868607deb2a22a73a0", "is_disabled": 0, "lat": 38.873010666666666, "rental_uris": {"ios": "https://dc.lft.to/lastmile_qr_scan", "android": "https://dc.lft.to/lastmile_qr_scan"}, "is_reserved": 0, "lon": -77.010927, "fusion_lat": 0.0, "name": "609fd0c1eabc47868607deb2a22a73a0"}, {"type": "electric_scooter", "fusion_lon": 0.0, "bike_id": "a5b6a72b7cf40c6f508621a9326118f7", "is_disabled": 0, "lat": 38.901350666666666, "rental_uris": {"ios": "https://dc.lft.to/lastmile_qr_scan", "android": "https://dc.lft.to/lastmile_qr_scan"}, "is_reserved": 0, "lon": -76.945721, "fusion_lat": 0.0, "name": "a5b6a72b7cf40c6f508621a9326118f7"}, {"type": "electric_scooter", "fusion_lon": 0.0, "bike_id": "293d1224373b03b2645476555da0b0a0", "is_disabled": 0, "lat": 38.887712, "rental_uris": {"ios": "https://dc.lft.to/lastmile_qr_scan", "android": "https://dc.lft.to/lastmile_qr_scan"}, "is_reserved": 0, "lon": -77.028437, "fusion_lat": 0.0, "name": "293d1224373b03b2645476555da0b0a0"}, {"type": "electric_bike", "fusion_lon": 0.0, "bike_id": "ac4408aa5d42336d35d66cd16cde3fc9", "is_disabled": 0, "lat": 38.919973, "rental_uris": {"ios": "https://dc.lft.to/lastmile_qr_scan", "android": "https://dc.lft.to/lastmile_qr_scan"}, "is_reserved": 0, "lon": -77.03224933333334, "fusion_lat": 0.0, "name": "ac4408aa5d42336d35d66cd16cde3fc9"}, {"type": "electric_scooter", "fusion_lon": 0.0, "bike_id": "bc911a537f8ef62bdac5f37031f96a83", "is_disabled": 0, "lat": 38.936774666666665, "rental_uris": {"ios": "https://dc.lft.to/lastmile_qr_scan", "android": "https://dc.lft.to/lastmile_qr_scan"}, "is_reserved": 0, "lon": -77.03624933333333, "fusion_lat": 0.0, "name": "bc911a537f8ef62bdac5f37031f96a83"}, {"type": "electric_bike", "fusion_lon": 0.0, "bike_id": "8172f62ce6a696383287dfa8581fe8b3", "is_disabled": 0, "lat": 38.842848833333335, "rental_uris": {"ios": "https://dc.lft.to/lastmile_qr_scan", "android": "https://dc.lft.to/lastmile_qr_scan"}, "is_reserved": 0, "lon": -77.07525266666667, "fusion_lat": 0.0, "name": "8172f62ce6a696383287dfa8581fe8b3"}, {"type": "electric_bike", "fusion_lon": 0.0, "bike_id": "3565961e60e611f35e680e6913d82146", "is_disabled": 0, "lat": 38.9339145, "rental_uris": {"ios": "https://dc.lft.to/lastmile_qr_scan", "android": "https://dc.lft.to/lastmile_qr_scan"}, "is_reserved": 0, "lon": -77.02213183333333, "fusion_lat": 0.0, "name": "3565961e60e611f35e680e6913d82146"}, {"type": "electric_scooter", "fusion_lon": 0.0, "bike_id": "394ee32bef68c0fda8a32266f6084872", "is_disabled": 0, "lat": 38.924439666666665, "rental_uris": {"ios": "https://dc.lft.to/lastmile_qr_scan", "android": "https://dc.lft.to/lastmile_qr_scan"}, "is_reserved": 0, "lon": -77.002105, "fusion_lat": 0.0, "name": "394ee32bef68c0fda8a32266f6084872"}, {"type": "electric_bike", "fusion_lon": 0.0, "bike_id": "ab6fb0e6c9ebd5fcae95b50a05ee3db5", "is_disabled": 0, "lat": 38.84276916666666, "rental_uris": {"ios": "https://dc.lft.to/lastmile_qr_scan", "android": "https://dc.lft.to/lastmile_qr_scan"}, "is_reserved": 0, "lon": -76.98822433333333, "fusion_lat": 0.0, "name": "ab6fb0e6c9ebd5fcae95b50a05ee3db5"}, {"type": "electric_scooter", "fusion_lon": 0.0, "bike_id": "90f1275d1d34736c0c526058fc0d2f6a", "is_disabled": 0, "lat": 38.8975045, "rental_uris": {"ios": "https://dc.lft.to/lastmile_qr_scan", "android": "https://dc.lft.to/lastmile_qr_scan"}, "is_reserved": 0, "lon": -77.04329333333334, "fusion_lat": 0.0, "name": "90f1275d1d34736c0c526058fc0d2f6a"}, {"type": "electric_scooter", "fusion_lon": 0.0, "bike_id": "ab20c7aa1c5ea1c49af77bbc013cdb68", "is_disabled": 0, "lat": 38.9206775, "rental_uris": {"ios": "https://dc.lft.to/lastmile_qr_scan", "android": "https://dc.lft.to/lastmile_qr_scan"}, "is_reserved": 0, "lon": -77.0143875, "fusion_lat": 0.0, "name": "ab20c7aa1c5ea1c49af77bbc013cdb68"}, {"type": "electric_scooter", "fusion_lon": 0.0, "bike_id": "2201f88b6d02c17e40ec983f1cdeed13", "is_disabled": 0, "lat": 38.91722133333333, "rental_uris": {"ios": "https://dc.lft.to/lastmile_qr_scan", "android": "https://dc.lft.to/lastmile_qr_scan"}, "is_reserved": 0, "lon": -77.03346283333333, "fusion_lat": 0.0, "name": "2201f88b6d02c17e40ec983f1cdeed13"}, {"type": "electric_scooter", "fusion_lon": 0.0, "bike_id": "6d1ef1f47fb9009410e481d9c08a62dc", "is_disabled": 0, "lat": 38.8964415, "rental_uris": {"ios": "https://dc.lft.to/lastmile_qr_scan", "android": "https://dc.lft.to/lastmile_qr_scan"}, "is_reserved": 0, "lon": -77.00342116666667, "fusion_lat": 0.0, "name": "6d1ef1f47fb9009410e481d9c08a62dc"}, {"type": "electric_scooter", "fusion_lon": 0.0, "bike_id": "c3f2edc737dad40b446cf6c0326ce1cb", "is_disabled": 0, "lat": 38.9016035, "rental_uris": {"ios": "https://dc.lft.to/lastmile_qr_scan", "android": "https://dc.lft.to/lastmile_qr_scan"}, "is_reserved": 0, "lon": -77.03939983333333, "fusion_lat": 0.0, "name": "c3f2edc737dad40b446cf6c0326ce1cb"}, {"type": "electric_scooter", "fusion_lon": 0.0, "bike_id": "7c86a7dc89c28aa2b649c67db4327a46", "is_disabled": 0, "lat": 38.918275, "rental_uris": {"ios": "https://dc.lft.to/lastmile_qr_scan", "android": "https://dc.lft.to/lastmile_qr_scan"}, "is_reserved": 0, "lon": -77.031831, "fusion_lat": 0.0, "name": "7c86a7dc89c28aa2b649c67db4327a46"}, {"type": "electric_scooter", "fusion_lon": 0.0, "bike_id": "ee24193aa7a878d2118d6bed5873852b", "is_disabled": 0, "lat": 38.93803716666667, "rental_uris": {"ios": "https://dc.lft.to/lastmile_qr_scan", "android": "https://dc.lft.to/lastmile_qr_scan"}, "is_reserved": 0, "lon": -77.0328495, "fusion_lat": 0.0, "name": "ee24193aa7a878d2118d6bed5873852b"}, {"type": "electric_scooter", "fusion_lon": 0.0, "bike_id": "c32ba67d9d52a650463994c5d1b274b3", "is_disabled": 0, "lat": 38.927505333333336, "rental_uris": {"ios": "https://dc.lft.to/lastmile_qr_scan", "android": "https://dc.lft.to/lastmile_qr_scan"}, "is_reserved": 0, "lon": -77.02714683333333, "fusion_lat": 0.0, "name": "c32ba67d9d52a650463994c5d1b274b3"}, {"type": "electric_scooter", "fusion_lon": 0.0, "bike_id": "a79f1a7884ea4256a9c32ff2d0f87663", "is_disabled": 0, "lat": 38.892215, "rental_uris": {"ios": "https://dc.lft.to/lastmile_qr_scan", "android": "https://dc.lft.to/lastmile_qr_scan"}, "is_reserved": 0, "lon": -77.0221725, "fusion_lat": 0.0, "name": "a79f1a7884ea4256a9c32ff2d0f87663"}, {"type": "electric_scooter", "fusion_lon": 0.0, "bike_id": "dbc0c18535046a9160a3da086b9ce494", "is_disabled": 0, "lat": 38.884154833333334, "rental_uris": {"ios": "https://dc.lft.to/lastmile_qr_scan", "android": "https://dc.lft.to/lastmile_qr_scan"}, "is_reserved": 0, "lon": -77.02362716666667, "fusion_lat": 0.0, "name": "dbc0c18535046a9160a3da086b9ce494"}, {"type": "electric_scooter", "fusion_lon": 0.0, "bike_id": "d96e1ba13ad8ad7219e8a2f4b1ff96a8", "is_disabled": 0, "lat": 38.8927065, "rental_uris": {"ios": "https://dc.lft.to/lastmile_qr_scan", "android": "https://dc.lft.to/lastmile_qr_scan"}, "is_reserved": 0, "lon": -77.04206133333334, "fusion_lat": 0.0, "name": "d96e1ba13ad8ad7219e8a2f4b1ff96a8"}, {"type": "electric_scooter", "fusion_lon": 0.0, "bike_id": "08069cc82643570ba7cfa5026b6c282a", "is_disabled": 0, "lat": 38.9135685, "rental_uris": {"ios": "https://dc.lft.to/lastmile_qr_scan", "android": "https://dc.lft.to/lastmile_qr_scan"}, "is_reserved": 0, "lon": -77.03184383333334, "fusion_lat": 0.0, "name": "08069cc82643570ba7cfa5026b6c282a"}, {"type": "electric_scooter", "fusion_lon": 0.0, "bike_id": "e1fe0da1c0f8d705b915e9ec4fb9d308", "is_disabled": 0, "lat": 38.88331633333333, "rental_uris": {"ios": "https://dc.lft.to/lastmile_qr_scan", "android": "https://dc.lft.to/lastmile_qr_scan"}, "is_reserved": 0, "lon": -77.01141316666667, "fusion_lat": 0.0, "name": "e1fe0da1c0f8d705b915e9ec4fb9d308"}, {"type": "electric_scooter", "fusion_lon": 0.0, "bike_id": "b5845009af15e33c6c7c736ba29a4a17", "is_disabled": 0, "lat": 38.929704666666666, "rental_uris": {"ios": "https://dc.lft.to/lastmile_qr_scan", "android": "https://dc.lft.to/lastmile_qr_scan"}, "is_reserved": 0, "lon": -77.0282295, "fusion_lat": 0.0, "name": "b5845009af15e33c6c7c736ba29a4a17"}, {"type": "electric_bike", "fusion_lon": 0.0, "bike_id": "8644e0bf1f41e5b0996273fecb2e25ee", "is_disabled": 0, "lat": 39.0156755, "rental_uris": {"ios": "https://dc.lft.to/lastmile_qr_scan", "android": "https://dc.lft.to/lastmile_qr_scan"}, "is_reserved": 0, "lon": -77.04421383333333, "fusion_lat": 0.0, "name": "8644e0bf1f41e5b0996273fecb2e25ee"}, {"type": "electric_scooter", "fusion_lon": 0.0, "bike_id": "630201d867dfaa4ad115581167b0f39d", "is_disabled": 0, "lat": 38.927959333333334, "rental_uris": {"ios": "https://dc.lft.to/lastmile_qr_scan", "android": "https://dc.lft.to/lastmile_qr_scan"}, "is_reserved": 0, "lon": -77.03697583333333, "fusion_lat": 0.0, "name": "630201d867dfaa4ad115581167b0f39d"}, {"type": "electric_scooter", "fusion_lon": 0.0, "bike_id": "2643bfd47983309c3c0a36b64e7b475c", "is_disabled": 0, "lat": 38.92088866666667, "rental_uris": {"ios": "https://dc.lft.to/lastmile_qr_scan", "android": "https://dc.lft.to/lastmile_qr_scan"}, "is_reserved": 0, "lon": -77.07552633333333, "fusion_lat": 0.0, "name": "2643bfd47983309c3c0a36b64e7b475c"}, {"type": "electric_scooter", "fusion_lon": 0.0, "bike_id": "4de331c2a8049f23a2ee207ba20e2e6d", "is_disabled": 0, "lat": 38.87605766666667, "rental_uris": {"ios": "https://dc.lft.to/lastmile_qr_scan", "android": "https://dc.lft.to/lastmile_qr_scan"}, "is_reserved": 0, "lon": -77.00056233333333, "fusion_lat": 0.0, "name": "4de331c2a8049f23a2ee207ba20e2e6d"}, {"type": "electric_scooter", "fusion_lon": 0.0, "bike_id": "7f8814621dfb53318f0d2f2e0f3c5d42", "is_disabled": 0, "lat": 38.902266833333336, "rental_uris": {"ios": "https://dc.lft.to/lastmile_qr_scan", "android": "https://dc.lft.to/lastmile_qr_scan"}, "is_reserved": 0, "lon": -76.9419765, "fusion_lat": 0.0, "name": "7f8814621dfb53318f0d2f2e0f3c5d42"}, {"type": "electric_scooter", "fusion_lon": 0.0, "bike_id": "8615675133a808340cc44bcb6b00b50e", "is_disabled": 0, "lat": 38.90552, "rental_uris": {"ios": "https://dc.lft.to/lastmile_qr_scan", "android": "https://dc.lft.to/lastmile_qr_scan"}, "is_reserved": 0, "lon": -76.9946415, "fusion_lat": 0.0, "name": "8615675133a808340cc44bcb6b00b50e"}, {"type": "electric_scooter", "fusion_lon": 0.0, "bike_id": "2b67c12adfe07b8c14ab396b6fffe170", "is_disabled": 0, "lat": 38.88724666666667, "rental_uris": {"ios": "https://dc.lft.to/lastmile_qr_scan", "android": "https://dc.lft.to/lastmile_qr_scan"}, "is_reserved": 0, "lon": -76.983564, "fusion_lat": 0.0, "name": "2b67c12adfe07b8c14ab396b6fffe170"}, {"type": "electric_scooter", "fusion_lon": 0.0, "bike_id": "f4f8a8b5279c7b850f291fc1a9118986", "is_disabled": 0, "lat": 38.91558533333333, "rental_uris": {"ios": "https://dc.lft.to/lastmile_qr_scan", "android": "https://dc.lft.to/lastmile_qr_scan"}, "is_reserved": 0, "lon": -77.038328, "fusion_lat": 0.0, "name": "f4f8a8b5279c7b850f291fc1a9118986"}, {"type": "electric_scooter", "fusion_lon": 0.0, "bike_id": "10bbf6be02dfed86451999b4c9dbd72d", "is_disabled": 0, "lat": 38.91437783333333, "rental_uris": {"ios": "https://dc.lft.to/lastmile_qr_scan", "android": "https://dc.lft.to/lastmile_qr_scan"}, "is_reserved": 0, "lon": -77.04176533333333, "fusion_lat": 0.0, "name": "10bbf6be02dfed86451999b4c9dbd72d"}, {"type": "electric_scooter", "fusion_lon": 0.0, "bike_id": "0a15db8fe0654a2f774169e34d70887e", "is_disabled": 0, "lat": 38.90778816666667, "rental_uris": {"ios": "https://dc.lft.to/lastmile_qr_scan", "android": "https://dc.lft.to/lastmile_qr_scan"}, "is_reserved": 0, "lon": -77.045045, "fusion_lat": 0.0, "name": "0a15db8fe0654a2f774169e34d70887e"}, {"type": "electric_scooter", "fusion_lon": 0.0, "bike_id": "f7571c61e8c288cc33e02f7050c81f1a", "is_disabled": 0, "lat": 38.924190333333335, "rental_uris": {"ios": "https://dc.lft.to/lastmile_qr_scan", "android": "https://dc.lft.to/lastmile_qr_scan"}, "is_reserved": 0, "lon": -77.05756416666667, "fusion_lat": 0.0, "name": "f7571c61e8c288cc33e02f7050c81f1a"}, {"type": "electric_scooter", "fusion_lon": 0.0, "bike_id": "f22e0b50e9ec59c0a55687e67764977f", "is_disabled": 0, "lat": 38.9027, "rental_uris": {"ios": "https://dc.lft.to/lastmile_qr_scan", "android": "https://dc.lft.to/lastmile_qr_scan"}, "is_reserved": 0, "lon": -77.05403183333334, "fusion_lat": 0.0, "name": "f22e0b50e9ec59c0a55687e67764977f"}, {"type": "electric_bike", "fusion_lon": 0.0, "bike_id": "7b58aa773dfe1a7f1be7ebd89100dd15", "is_disabled": 0, "lat": 38.8410615, "rental_uris": {"ios": "https://dc.lft.to/lastmile_qr_scan", "android": "https://dc.lft.to/lastmile_qr_scan"}, "is_reserved": 0, "lon": -77.08946516666667, "fusion_lat": 0.0, "name": "7b58aa773dfe1a7f1be7ebd89100dd15"}, {"type": "electric_scooter", "fusion_lon": 0.0, "bike_id": "e385058a63dd790938972a6e22349695", "is_disabled": 0, "lat": 38.9218685, "rental_uris": {"ios": "https://dc.lft.to/lastmile_qr_scan", "android": "https://dc.lft.to/lastmile_qr_scan"}, "is_reserved": 0, "lon": -77.04181666666666, "fusion_lat": 0.0, "name": "e385058a63dd790938972a6e22349695"}, {"type": "electric_scooter", "fusion_lon": 0.0, "bike_id": "d1ed6180a4aa72d3ed84808e7cdbfb6d", "is_disabled": 0, "lat": 38.922555333333335, "rental_uris": {"ios": "https://dc.lft.to/lastmile_qr_scan", "android": "https://dc.lft.to/lastmile_qr_scan"}, "is_reserved": 0, "lon": -77.034064, "fusion_lat": 0.0, "name": "d1ed6180a4aa72d3ed84808e7cdbfb6d"}, {"type": "electric_scooter", "fusion_lon": 0.0, "bike_id": "528870b5eae1f840217ea5943f91e263", "is_disabled": 0, "lat": 38.916805333333336, "rental_uris": {"ios": "https://dc.lft.to/lastmile_qr_scan", "android": "https://dc.lft.to/lastmile_qr_scan"}, "is_reserved": 0, "lon": -76.98027016666667, "fusion_lat": 0.0, "name": "528870b5eae1f840217ea5943f91e263"}, {"type": "electric_scooter", "fusion_lon": 0.0, "bike_id": "c319ae95fa5455d538fe8ececaa2df2f", "is_disabled": 0, "lat": 38.91780266666667, "rental_uris": {"ios": "https://dc.lft.to/lastmile_qr_scan", "android": "https://dc.lft.to/lastmile_qr_scan"}, "is_reserved": 0, "lon": -77.0476355, "fusion_lat": 0.0, "name": "c319ae95fa5455d538fe8ececaa2df2f"}, {"type": "electric_scooter", "fusion_lon": 0.0, "bike_id": "e7d53e5bc258b8fdbb02457d926cc8ef", "is_disabled": 0, "lat": 38.921216666666666, "rental_uris": {"ios": "https://dc.lft.to/lastmile_qr_scan", "android": "https://dc.lft.to/lastmile_qr_scan"}, "is_reserved": 0, "lon": -77.0177165, "fusion_lat": 0.0, "name": "e7d53e5bc258b8fdbb02457d926cc8ef"}, {"type": "electric_scooter", "fusion_lon": 0.0, "bike_id": "07678dbbe9c54997337379e63d3a5dae", "is_disabled": 0, "lat": 38.934695833333336, "rental_uris": {"ios": "https://dc.lft.to/lastmile_qr_scan", "android": "https://dc.lft.to/lastmile_qr_scan"}, "is_reserved": 0, "lon": -77.04113566666666, "fusion_lat": 0.0, "name": "07678dbbe9c54997337379e63d3a5dae"}, {"type": "electric_scooter", "fusion_lon": 0.0, "bike_id": "c97805ea0938508176a5b8b8aeb70d55", "is_disabled": 0, "lat": 38.9126565, "rental_uris": {"ios": "https://dc.lft.to/lastmile_qr_scan", "android": "https://dc.lft.to/lastmile_qr_scan"}, "is_reserved": 0, "lon": -77.008278, "fusion_lat": 0.0, "name": "c97805ea0938508176a5b8b8aeb70d55"}, {"type": "electric_scooter", "fusion_lon": 0.0, "bike_id": "7029365e86e119fd14406ba77aa771bf", "is_disabled": 0, "lat": 38.95095166666667, "rental_uris": {"ios": "https://dc.lft.to/lastmile_qr_scan", "android": "https://dc.lft.to/lastmile_qr_scan"}, "is_reserved": 0, "lon": -77.02798833333334, "fusion_lat": 0.0, "name": "7029365e86e119fd14406ba77aa771bf"}, {"type": "electric_scooter", "fusion_lon": 0.0, "bike_id": "a7af38dea51c59d262daad8c74a912f0", "is_disabled": 0, "lat": 38.91707233333333, "rental_uris": {"ios": "https://dc.lft.to/lastmile_qr_scan", "android": "https://dc.lft.to/lastmile_qr_scan"}, "is_reserved": 0, "lon": -77.01136933333333, "fusion_lat": 0.0, "name": "a7af38dea51c59d262daad8c74a912f0"}, {"type": "electric_scooter", "fusion_lon": 0.0, "bike_id": "3b8a90995ce9581d9091d110a3e036d4", "is_disabled": 0, "lat": 38.930546166666666, "rental_uris": {"ios": "https://dc.lft.to/lastmile_qr_scan", "android": "https://dc.lft.to/lastmile_qr_scan"}, "is_reserved": 0, "lon": -77.05839983333334, "fusion_lat": 0.0, "name": "3b8a90995ce9581d9091d110a3e036d4"}, {"type": "electric_bike", "fusion_lon": 0.0, "bike_id": "53e426d8869492465909962fd79a47e5", "is_disabled": 0, "lat": 38.956023, "rental_uris": {"ios": "https://dc.lft.to/lastmile_qr_scan", "android": "https://dc.lft.to/lastmile_qr_scan"}, "is_reserved": 0, "lon": -76.94004633333333, "fusion_lat": 0.0, "name": "53e426d8869492465909962fd79a47e5"}, {"type": "electric_scooter", "fusion_lon": 0.0, "bike_id": "a3c12f6afd573bae5b227933c097693f", "is_disabled": 0, "lat": 38.9352545, "rental_uris": {"ios": "https://dc.lft.to/lastmile_qr_scan", "android": "https://dc.lft.to/lastmile_qr_scan"}, "is_reserved": 0, "lon": -77.03265716666667, "fusion_lat": 0.0, "name": "a3c12f6afd573bae5b227933c097693f"}, {"type": "electric_scooter", "fusion_lon": 0.0, "bike_id": "37fb850ca27e89187337a2c098dcb8aa", "is_disabled": 0, "lat": 38.9194185, "rental_uris": {"ios": "https://dc.lft.to/lastmile_qr_scan", "android": "https://dc.lft.to/lastmile_qr_scan"}, "is_reserved": 0, "lon": -77.031868, "fusion_lat": 0.0, "name": "37fb850ca27e89187337a2c098dcb8aa"}, {"type": "electric_scooter", "fusion_lon": 0.0, "bike_id": "948d84cbe39431fc687407de88efde53", "is_disabled": 0, "lat": 38.9168555, "rental_uris": {"ios": "https://dc.lft.to/lastmile_qr_scan", "android": "https://dc.lft.to/lastmile_qr_scan"}, "is_reserved": 0, "lon": -77.02900283333334, "fusion_lat": 0.0, "name": "948d84cbe39431fc687407de88efde53"}, {"type": "electric_scooter", "fusion_lon": 0.0, "bike_id": "ee12dfb30b1b3dbd18c01aa66c4b11f9", "is_disabled": 0, "lat": 38.89929433333333, "rental_uris": {"ios": "https://dc.lft.to/lastmile_qr_scan", "android": "https://dc.lft.to/lastmile_qr_scan"}, "is_reserved": 0, "lon": -77.05304583333333, "fusion_lat": 0.0, "name": "ee12dfb30b1b3dbd18c01aa66c4b11f9"}, {"type": "electric_scooter", "fusion_lon": 0.0, "bike_id": "7d6622417707626981a1e7d225c914da", "is_disabled": 0, "lat": 38.929765333333336, "rental_uris": {"ios": "https://dc.lft.to/lastmile_qr_scan", "android": "https://dc.lft.to/lastmile_qr_scan"}, "is_reserved": 0, "lon": -77.0366405, "fusion_lat": 0.0, "name": "7d6622417707626981a1e7d225c914da"}, {"type": "electric_scooter", "fusion_lon": 0.0, "bike_id": "1634b57ea610aa73f6ed1f578ea66c50", "is_disabled": 0, "lat": 38.91706833333333, "rental_uris": {"ios": "https://dc.lft.to/lastmile_qr_scan", "android": "https://dc.lft.to/lastmile_qr_scan"}, "is_reserved": 0, "lon": -77.03866333333333, "fusion_lat": 0.0, "name": "1634b57ea610aa73f6ed1f578ea66c50"}, {"type": "electric_scooter", "fusion_lon": 0.0, "bike_id": "4b5424bce9f362299aad38b3ae902dec", "is_disabled": 0, "lat": 38.9155125, "rental_uris": {"ios": "https://dc.lft.to/lastmile_qr_scan", "android": "https://dc.lft.to/lastmile_qr_scan"}, "is_reserved": 0, "lon": -77.01184266666667, "fusion_lat": 0.0, "name": "4b5424bce9f362299aad38b3ae902dec"}, {"type": "electric_scooter", "fusion_lon": 0.0, "bike_id": "ae8715f5081cd1fcf6c4455ec8dc6131", "is_disabled": 0, "lat": 38.924028166666666, "rental_uris": {"ios": "https://dc.lft.to/lastmile_qr_scan", "android": "https://dc.lft.to/lastmile_qr_scan"}, "is_reserved": 0, "lon": -77.02694266666667, "fusion_lat": 0.0, "name": "ae8715f5081cd1fcf6c4455ec8dc6131"}, {"type": "electric_scooter", "fusion_lon": 0.0, "bike_id": "aa65b48766b3e704d8a47e46b201f060", "is_disabled": 0, "lat": 38.90422216666666, "rental_uris": {"ios": "https://dc.lft.to/lastmile_qr_scan", "android": "https://dc.lft.to/lastmile_qr_scan"}, "is_reserved": 0, "lon": -76.94976566666666, "fusion_lat": 0.0, "name": "aa65b48766b3e704d8a47e46b201f060"}, {"type": "electric_scooter", "fusion_lon": 0.0, "bike_id": "5e87f9ee9d7a24c34cb1587908384082", "is_disabled": 0, "lat": 38.94369116666667, "rental_uris": {"ios": "https://dc.lft.to/lastmile_qr_scan", "android": "https://dc.lft.to/lastmile_qr_scan"}, "is_reserved": 0, "lon": -77.06104216666667, "fusion_lat": 0.0, "name": "5e87f9ee9d7a24c34cb1587908384082"}, {"type": "electric_bike", "fusion_lon": 0.0, "bike_id": "971ccd20a838e0a0e048643705d87068", "is_disabled": 0, "lat": 38.88464883333333, "rental_uris": {"ios": "https://dc.lft.to/lastmile_qr_scan", "android": "https://dc.lft.to/lastmile_qr_scan"}, "is_reserved": 0, "lon": -76.95247683333334, "fusion_lat": 0.0, "name": "971ccd20a838e0a0e048643705d87068"}, {"type": "electric_scooter", "fusion_lon": 0.0, "bike_id": "8f5ec3fab3d93531f8b065e2ebfbb70d", "is_disabled": 0, "lat": 38.92136933333333, "rental_uris": {"ios": "https://dc.lft.to/lastmile_qr_scan", "android": "https://dc.lft.to/lastmile_qr_scan"}, "is_reserved": 0, "lon": -77.01805666666667, "fusion_lat": 0.0, "name": "8f5ec3fab3d93531f8b065e2ebfbb70d"}, {"type": "electric_scooter", "fusion_lon": 0.0, "bike_id": "0aa06cf8e2afc40a977173e2c4bfcb88", "is_disabled": 0, "lat": 38.919366333333336, "rental_uris": {"ios": "https://dc.lft.to/lastmile_qr_scan", "android": "https://dc.lft.to/lastmile_qr_scan"}, "is_reserved": 0, "lon": -77.0235115, "fusion_lat": 0.0, "name": "0aa06cf8e2afc40a977173e2c4bfcb88"}, {"type": "electric_bike", "fusion_lon": 0.0, "bike_id": "9d4922ddb59837dd841080b044f2694e", "is_disabled": 0, "lat": 38.988158, "rental_uris": {"ios": "https://dc.lft.to/lastmile_qr_scan", "android": "https://dc.lft.to/lastmile_qr_scan"}, "is_reserved": 0, "lon": -76.93969266666667, "fusion_lat": 0.0, "name": "9d4922ddb59837dd841080b044f2694e"}, {"type": "electric_bike", "fusion_lon": 0.0, "bike_id": "b16a1f8a6b630be955eefb161f6bb501", "is_disabled": 0, "lat": 38.99381, "rental_uris": {"ios": "https://dc.lft.to/lastmile_qr_scan", "android": "https://dc.lft.to/lastmile_qr_scan"}, "is_reserved": 0, "lon": -77.0407275, "fusion_lat": 0.0, "name": "b16a1f8a6b630be955eefb161f6bb501"}, {"type": "electric_scooter", "fusion_lon": 0.0, "bike_id": "296643e0cc6285e3fc5966007d3cd4e9", "is_disabled": 0, "lat": 38.93493683333333, "rental_uris": {"ios": "https://dc.lft.to/lastmile_qr_scan", "android": "https://dc.lft.to/lastmile_qr_scan"}, "is_reserved": 0, "lon": -77.043781, "fusion_lat": 0.0, "name": "296643e0cc6285e3fc5966007d3cd4e9"}, {"type": "electric_scooter", "fusion_lon": 0.0, "bike_id": "529598bf7a076f3b8df3f2046ef47d39", "is_disabled": 0, "lat": 38.934742666666665, "rental_uris": {"ios": "https://dc.lft.to/lastmile_qr_scan", "android": "https://dc.lft.to/lastmile_qr_scan"}, "is_reserved": 0, "lon": -77.04135733333334, "fusion_lat": 0.0, "name": "529598bf7a076f3b8df3f2046ef47d39"}, {"type": "electric_scooter", "fusion_lon": 0.0, "bike_id": "533c2161d098d915a64af1c58f6c055f", "is_disabled": 0, "lat": 38.917791333333334, "rental_uris": {"ios": "https://dc.lft.to/lastmile_qr_scan", "android": "https://dc.lft.to/lastmile_qr_scan"}, "is_reserved": 0, "lon": -77.04337966666667, "fusion_lat": 0.0, "name": "533c2161d098d915a64af1c58f6c055f"}, {"type": "electric_scooter", "fusion_lon": 0.0, "bike_id": "1548c199f68e0801067f6a51891d7d0b", "is_disabled": 0, "lat": 38.9091655, "rental_uris": {"ios": "https://dc.lft.to/lastmile_qr_scan", "android": "https://dc.lft.to/lastmile_qr_scan"}, "is_reserved": 0, "lon": -76.999649, "fusion_lat": 0.0, "name": "1548c199f68e0801067f6a51891d7d0b"}, {"type": "electric_scooter", "fusion_lon": 0.0, "bike_id": "c4e681eb4e5f419141b1ce0d29d1d3cf", "is_disabled": 0, "lat": 38.909755833333335, "rental_uris": {"ios": "https://dc.lft.to/lastmile_qr_scan", "android": "https://dc.lft.to/lastmile_qr_scan"}, "is_reserved": 0, "lon": -77.03842116666667, "fusion_lat": 0.0, "name": "c4e681eb4e5f419141b1ce0d29d1d3cf"}, {"type": "electric_scooter", "fusion_lon": 0.0, "bike_id": "86c62ef89c654e0f3fb9830c49189fbf", "is_disabled": 0, "lat": 38.88996866666667, "rental_uris": {"ios": "https://dc.lft.to/lastmile_qr_scan", "android": "https://dc.lft.to/lastmile_qr_scan"}, "is_reserved": 0, "lon": -76.9543315, "fusion_lat": 0.0, "name": "86c62ef89c654e0f3fb9830c49189fbf"}, {"type": "electric_scooter", "fusion_lon": 0.0, "bike_id": "a5e9a9a3c4c607d2b43692bfae6f5958", "is_disabled": 0, "lat": 38.898795166666666, "rental_uris": {"ios": "https://dc.lft.to/lastmile_qr_scan", "android": "https://dc.lft.to/lastmile_qr_scan"}, "is_reserved": 0, "lon": -77.05357283333333, "fusion_lat": 0.0, "name": "a5e9a9a3c4c607d2b43692bfae6f5958"}, {"type": "electric_scooter", "fusion_lon": 0.0, "bike_id": "52ba24a21d710474627a85ee4a8751bd", "is_disabled": 0, "lat": 38.90865983333333, "rental_uris": {"ios": "https://dc.lft.to/lastmile_qr_scan", "android": "https://dc.lft.to/lastmile_qr_scan"}, "is_reserved": 0, "lon": -77.03848433333333, "fusion_lat": 0.0, "name": "52ba24a21d710474627a85ee4a8751bd"}, {"type": "electric_scooter", "fusion_lon": 0.0, "bike_id": "b287ad02f5b738c321f03f9622b0c10e", "is_disabled": 0, "lat": 38.90397866666667, "rental_uris": {"ios": "https://dc.lft.to/lastmile_qr_scan", "android": "https://dc.lft.to/lastmile_qr_scan"}, "is_reserved": 0, "lon": -77.02009033333333, "fusion_lat": 0.0, "name": "b287ad02f5b738c321f03f9622b0c10e"}, {"type": "electric_scooter", "fusion_lon": 0.0, "bike_id": "02f79095bd6ca9c2d23fd22acac74de0", "is_disabled": 0, "lat": 38.894418, "rental_uris": {"ios": "https://dc.lft.to/lastmile_qr_scan", "android": "https://dc.lft.to/lastmile_qr_scan"}, "is_reserved": 0, "lon": -76.99719966666666, "fusion_lat": 0.0, "name": "02f79095bd6ca9c2d23fd22acac74de0"}, {"type": "electric_scooter", "fusion_lon": 0.0, "bike_id": "a5d8ebe15bea4e74ba1e72c0dad99b06", "is_disabled": 0, "lat": 38.90664116666667, "rental_uris": {"ios": "https://dc.lft.to/lastmile_qr_scan", "android": "https://dc.lft.to/lastmile_qr_scan"}, "is_reserved": 0, "lon": -76.97940916666667, "fusion_lat": 0.0, "name": "a5d8ebe15bea4e74ba1e72c0dad99b06"}, {"type": "electric_scooter", "fusion_lon": 0.0, "bike_id": "a696da01022a41becf0783fc5dc7b002", "is_disabled": 0, "lat": 38.905615, "rental_uris": {"ios": "https://dc.lft.to/lastmile_qr_scan", "android": "https://dc.lft.to/lastmile_qr_scan"}, "is_reserved": 0, "lon": -77.00595966666667, "fusion_lat": 0.0, "name": "a696da01022a41becf0783fc5dc7b002"}, {"type": "electric_scooter", "fusion_lon": 0.0, "bike_id": "7c91e7c4c2df1ae66c19020c225fc091", "is_disabled": 0, "lat": 38.90769183333333, "rental_uris": {"ios": "https://dc.lft.to/lastmile_qr_scan", "android": "https://dc.lft.to/lastmile_qr_scan"}, "is_reserved": 0, "lon": -77.00112316666667, "fusion_lat": 0.0, "name": "7c91e7c4c2df1ae66c19020c225fc091"}, {"type": "electric_bike", "fusion_lon": 0.0, "bike_id": "88fb613d60c560566fcdf4acf645d093", "is_disabled": 0, "lat": 38.83523516666666, "rental_uris": {"ios": "https://dc.lft.to/lastmile_qr_scan", "android": "https://dc.lft.to/lastmile_qr_scan"}, "is_reserved": 0, "lon": -76.9871135, "fusion_lat": 0.0, "name": "88fb613d60c560566fcdf4acf645d093"}, {"type": "electric_scooter", "fusion_lon": 0.0, "bike_id": "5dfac887c8ecbb13e54f9634200c47ba", "is_disabled": 0, "lat": 38.88205166666667, "rental_uris": {"ios": "https://dc.lft.to/lastmile_qr_scan", "android": "https://dc.lft.to/lastmile_qr_scan"}, "is_reserved": 0, "lon": -77.01767683333334, "fusion_lat": 0.0, "name": "5dfac887c8ecbb13e54f9634200c47ba"}, {"type": "electric_scooter", "fusion_lon": 0.0, "bike_id": "8c750a7753a32b4d07323cd46b8bcbfb", "is_disabled": 0, "lat": 38.899775, "rental_uris": {"ios": "https://dc.lft.to/lastmile_qr_scan", "android": "https://dc.lft.to/lastmile_qr_scan"}, "is_reserved": 0, "lon": -77.02130633333333, "fusion_lat": 0.0, "name": "8c750a7753a32b4d07323cd46b8bcbfb"}, {"type": "electric_scooter", "fusion_lon": 0.0, "bike_id": "862de078c6e5e07907bac26bc0faac73", "is_disabled": 0, "lat": 38.89237266666667, "rental_uris": {"ios": "https://dc.lft.to/lastmile_qr_scan", "android": "https://dc.lft.to/lastmile_qr_scan"}, "is_reserved": 0, "lon": -77.03210216666666, "fusion_lat": 0.0, "name": "862de078c6e5e07907bac26bc0faac73"}, {"type": "electric_scooter", "fusion_lon": 0.0, "bike_id": "f948f0e7c87e13ee68cda50a25293120", "is_disabled": 0, "lat": 38.93330483333333, "rental_uris": {"ios": "https://dc.lft.to/lastmile_qr_scan", "android": "https://dc.lft.to/lastmile_qr_scan"}, "is_reserved": 0, "lon": -77.03805233333334, "fusion_lat": 0.0, "name": "f948f0e7c87e13ee68cda50a25293120"}, {"type": "electric_scooter", "fusion_lon": 0.0, "bike_id": "771593fce170931fd5404fb03384b33f", "is_disabled": 0, "lat": 38.9056375, "rental_uris": {"ios": "https://dc.lft.to/lastmile_qr_scan", "android": "https://dc.lft.to/lastmile_qr_scan"}, "is_reserved": 0, "lon": -77.0347575, "fusion_lat": 0.0, "name": "771593fce170931fd5404fb03384b33f"}, {"type": "electric_scooter", "fusion_lon": 0.0, "bike_id": "8595ae2fedfbc9752d545a001e243198", "is_disabled": 0, "lat": 38.92035283333333, "rental_uris": {"ios": "https://dc.lft.to/lastmile_qr_scan", "android": "https://dc.lft.to/lastmile_qr_scan"}, "is_reserved": 0, "lon": -77.03435933333333, "fusion_lat": 0.0, "name": "8595ae2fedfbc9752d545a001e243198"}, {"type": "electric_scooter", "fusion_lon": 0.0, "bike_id": "05eb8c13abe58d565b88c47aae6c5d32", "is_disabled": 0, "lat": 38.94906366666667, "rental_uris": {"ios": "https://dc.lft.to/lastmile_qr_scan", "android": "https://dc.lft.to/lastmile_qr_scan"}, "is_reserved": 0, "lon": -77.02387316666666, "fusion_lat": 0.0, "name": "05eb8c13abe58d565b88c47aae6c5d32"}, {"type": "electric_scooter", "fusion_lon": 0.0, "bike_id": "a90afff287f93ed9cf1ccf4bea31ce4b", "is_disabled": 0, "lat": 38.923453333333335, "rental_uris": {"ios": "https://dc.lft.to/lastmile_qr_scan", "android": "https://dc.lft.to/lastmile_qr_scan"}, "is_reserved": 0, "lon": -77.03655466666666, "fusion_lat": 0.0, "name": "a90afff287f93ed9cf1ccf4bea31ce4b"}, {"type": "electric_scooter", "fusion_lon": 0.0, "bike_id": "b2ef97b1f45697af211b229d91d03ed1", "is_disabled": 0, "lat": 38.9050305, "rental_uris": {"ios": "https://dc.lft.to/lastmile_qr_scan", "android": "https://dc.lft.to/lastmile_qr_scan"}, "is_reserved": 0, "lon": -77.025923, "fusion_lat": 0.0, "name": "b2ef97b1f45697af211b229d91d03ed1"}, {"type": "electric_scooter", "fusion_lon": 0.0, "bike_id": "8188c8af24800d8a037d9c74778db00b", "is_disabled": 0, "lat": 38.92338133333333, "rental_uris": {"ios": "https://dc.lft.to/lastmile_qr_scan", "android": "https://dc.lft.to/lastmile_qr_scan"}, "is_reserved": 0, "lon": -77.03616, "fusion_lat": 0.0, "name": "8188c8af24800d8a037d9c74778db00b"}, {"type": "electric_scooter", "fusion_lon": 0.0, "bike_id": "1cec9bcb30369cbe64669977aeefeeae", "is_disabled": 0, "lat": 38.927893, "rental_uris": {"ios": "https://dc.lft.to/lastmile_qr_scan", "android": "https://dc.lft.to/lastmile_qr_scan"}, "is_reserved": 0, "lon": -77.054209, "fusion_lat": 0.0, "name": "1cec9bcb30369cbe64669977aeefeeae"}, {"type": "electric_scooter", "fusion_lon": 0.0, "bike_id": "1a162d68b1a435cc26cd4e67b34cdd07", "is_disabled": 0, "lat": 38.902673, "rental_uris": {"ios": "https://dc.lft.to/lastmile_qr_scan", "android": "https://dc.lft.to/lastmile_qr_scan"}, "is_reserved": 0, "lon": -77.003253, "fusion_lat": 0.0, "name": "1a162d68b1a435cc26cd4e67b34cdd07"}, {"type": "electric_bike", "fusion_lon": 0.0, "bike_id": "3136f6e9655fddb99d9976fa88662c76", "is_disabled": 0, "lat": 38.96469066666667, "rental_uris": {"ios": "https://dc.lft.to/lastmile_qr_scan", "android": "https://dc.lft.to/lastmile_qr_scan"}, "is_reserved": 0, "lon": -77.03560933333333, "fusion_lat": 0.0, "name": "3136f6e9655fddb99d9976fa88662c76"}, {"type": "electric_bike", "fusion_lon": 0.0, "bike_id": "1bd5122b4719e2a8d84163fad530da0e", "is_disabled": 0, "lat": 38.89196583333333, "rental_uris": {"ios": "https://dc.lft.to/lastmile_qr_scan", "android": "https://dc.lft.to/lastmile_qr_scan"}, "is_reserved": 0, "lon": -76.99392766666666, "fusion_lat": 0.0, "name": "1bd5122b4719e2a8d84163fad530da0e"}, {"type": "electric_scooter", "fusion_lon": 0.0, "bike_id": "fea2caacced6eec9545250452170c4a7", "is_disabled": 0, "lat": 38.892268, "rental_uris": {"ios": "https://dc.lft.to/lastmile_qr_scan", "android": "https://dc.lft.to/lastmile_qr_scan"}, "is_reserved": 0, "lon": -77.04655616666666, "fusion_lat": 0.0, "name": "fea2caacced6eec9545250452170c4a7"}, {"type": "electric_scooter", "fusion_lon": 0.0, "bike_id": "46d4ee68944d7a28bd4f940d7616a014", "is_disabled": 0, "lat": 38.934251833333335, "rental_uris": {"ios": "https://dc.lft.to/lastmile_qr_scan", "android": "https://dc.lft.to/lastmile_qr_scan"}, "is_reserved": 0, "lon": -77.040027, "fusion_lat": 0.0, "name": "46d4ee68944d7a28bd4f940d7616a014"}, {"type": "electric_scooter", "fusion_lon": 0.0, "bike_id": "8ee682e8916e156877150d5b96b9db85", "is_disabled": 0, "lat": 38.900209, "rental_uris": {"ios": "https://dc.lft.to/lastmile_qr_scan", "android": "https://dc.lft.to/lastmile_qr_scan"}, "is_reserved": 0, "lon": -76.99640183333334, "fusion_lat": 0.0, "name": "8ee682e8916e156877150d5b96b9db85"}, {"type": "electric_scooter", "fusion_lon": 0.0, "bike_id": "d4a330bb932340b483800181fa7928b9", "is_disabled": 0, "lat": 38.935451666666665, "rental_uris": {"ios": "https://dc.lft.to/lastmile_qr_scan", "android": "https://dc.lft.to/lastmile_qr_scan"}, "is_reserved": 0, "lon": -77.03412166666666, "fusion_lat": 0.0, "name": "d4a330bb932340b483800181fa7928b9"}, {"type": "electric_scooter", "fusion_lon": 0.0, "bike_id": "42be151fd77f3e824438a063fe6e3a04", "is_disabled": 0, "lat": 38.92542233333333, "rental_uris": {"ios": "https://dc.lft.to/lastmile_qr_scan", "android": "https://dc.lft.to/lastmile_qr_scan"}, "is_reserved": 0, "lon": -77.03837383333334, "fusion_lat": 0.0, "name": "42be151fd77f3e824438a063fe6e3a04"}, {"type": "electric_scooter", "fusion_lon": 0.0, "bike_id": "0dac332e7c03f93e1c5d8d1d41698c12", "is_disabled": 0, "lat": 38.91960783333333, "rental_uris": {"ios": "https://dc.lft.to/lastmile_qr_scan", "android": "https://dc.lft.to/lastmile_qr_scan"}, "is_reserved": 0, "lon": -77.04850783333333, "fusion_lat": 0.0, "name": "0dac332e7c03f93e1c5d8d1d41698c12"}, {"type": "electric_scooter", "fusion_lon": 0.0, "bike_id": "a990bb3a9a7b6abbbbe023cfd19f5d5a", "is_disabled": 0, "lat": 38.893448, "rental_uris": {"ios": "https://dc.lft.to/lastmile_qr_scan", "android": "https://dc.lft.to/lastmile_qr_scan"}, "is_reserved": 0, "lon": -77.031628, "fusion_lat": 0.0, "name": "a990bb3a9a7b6abbbbe023cfd19f5d5a"}, {"type": "electric_scooter", "fusion_lon": 0.0, "bike_id": "6a95e22f39467161a3918f7eb8b9ede8", "is_disabled": 0, "lat": 38.89266816666667, "rental_uris": {"ios": "https://dc.lft.to/lastmile_qr_scan", "android": "https://dc.lft.to/lastmile_qr_scan"}, "is_reserved": 0, "lon": -77.04203283333334, "fusion_lat": 0.0, "name": "6a95e22f39467161a3918f7eb8b9ede8"}, {"type": "electric_scooter", "fusion_lon": 0.0, "bike_id": "7aa0759c9bf6aa71520ec348bb82f12e", "is_disabled": 0, "lat": 38.92798966666667, "rental_uris": {"ios": "https://dc.lft.to/lastmile_qr_scan", "android": "https://dc.lft.to/lastmile_qr_scan"}, "is_reserved": 0, "lon": -77.05429733333334, "fusion_lat": 0.0, "name": "7aa0759c9bf6aa71520ec348bb82f12e"}, {"type": "electric_scooter", "fusion_lon": 0.0, "bike_id": "2faca74314c72dea65678b9308595bc8", "is_disabled": 0, "lat": 38.90974583333333, "rental_uris": {"ios": "https://dc.lft.to/lastmile_qr_scan", "android": "https://dc.lft.to/lastmile_qr_scan"}, "is_reserved": 0, "lon": -77.04078966666667, "fusion_lat": 0.0, "name": "2faca74314c72dea65678b9308595bc8"}, {"type": "electric_scooter", "fusion_lon": 0.0, "bike_id": "90708fa00daece9788d88093eb00b0fb", "is_disabled": 0, "lat": 38.90033783333333, "rental_uris": {"ios": "https://dc.lft.to/lastmile_qr_scan", "android": "https://dc.lft.to/lastmile_qr_scan"}, "is_reserved": 0, "lon": -77.00200733333334, "fusion_lat": 0.0, "name": "90708fa00daece9788d88093eb00b0fb"}, {"type": "electric_scooter", "fusion_lon": 0.0, "bike_id": "bb380bd0c7faf0e7d9eff5f0dff4aad4", "is_disabled": 0, "lat": 38.89766633333333, "rental_uris": {"ios": "https://dc.lft.to/lastmile_qr_scan", "android": "https://dc.lft.to/lastmile_qr_scan"}, "is_reserved": 0, "lon": -76.92588466666666, "fusion_lat": 0.0, "name": "bb380bd0c7faf0e7d9eff5f0dff4aad4"}, {"type": "electric_scooter", "fusion_lon": 0.0, "bike_id": "2f73723171056d22dcd8b298cf9b86be", "is_disabled": 0, "lat": 38.93846416666667, "rental_uris": {"ios": "https://dc.lft.to/lastmile_qr_scan", "android": "https://dc.lft.to/lastmile_qr_scan"}, "is_reserved": 0, "lon": -77.03386566666667, "fusion_lat": 0.0, "name": "2f73723171056d22dcd8b298cf9b86be"}, {"type": "electric_scooter", "fusion_lon": 0.0, "bike_id": "c684564ffc66ba491bc33f638bd8c26a", "is_disabled": 0, "lat": 38.904224, "rental_uris": {"ios": "https://dc.lft.to/lastmile_qr_scan", "android": "https://dc.lft.to/lastmile_qr_scan"}, "is_reserved": 0, "lon": -77.03278166666666, "fusion_lat": 0.0, "name": "c684564ffc66ba491bc33f638bd8c26a"}, {"type": "electric_scooter", "fusion_lon": 0.0, "bike_id": "bac74ac1e8ae76f7da606956c525883f", "is_disabled": 0, "lat": 38.918854833333334, "rental_uris": {"ios": "https://dc.lft.to/lastmile_qr_scan", "android": "https://dc.lft.to/lastmile_qr_scan"}, "is_reserved": 0, "lon": -77.0382535, "fusion_lat": 0.0, "name": "bac74ac1e8ae76f7da606956c525883f"}, {"type": "electric_scooter", "fusion_lon": 0.0, "bike_id": "cd1a021deea76666d59959e605c15898", "is_disabled": 0, "lat": 38.8919845, "rental_uris": {"ios": "https://dc.lft.to/lastmile_qr_scan", "android": "https://dc.lft.to/lastmile_qr_scan"}, "is_reserved": 0, "lon": -77.00291983333334, "fusion_lat": 0.0, "name": "cd1a021deea76666d59959e605c15898"}, {"type": "electric_scooter", "fusion_lon": 0.0, "bike_id": "5fd1ae6536ab50f13f4a422198736e1f", "is_disabled": 0, "lat": 38.89223483333333, "rental_uris": {"ios": "https://dc.lft.to/lastmile_qr_scan", "android": "https://dc.lft.to/lastmile_qr_scan"}, "is_reserved": 0, "lon": -77.04331883333333, "fusion_lat": 0.0, "name": "5fd1ae6536ab50f13f4a422198736e1f"}, {"type": "electric_scooter", "fusion_lon": 0.0, "bike_id": "e38a5347985f9755570ae06e06fdc704", "is_disabled": 0, "lat": 38.90348866666667, "rental_uris": {"ios": "https://dc.lft.to/lastmile_qr_scan", "android": "https://dc.lft.to/lastmile_qr_scan"}, "is_reserved": 0, "lon": -77.02389816666667, "fusion_lat": 0.0, "name": "e38a5347985f9755570ae06e06fdc704"}, {"type": "electric_scooter", "fusion_lon": 0.0, "bike_id": "5d5615e8b75f60f8c2918213503db87b", "is_disabled": 0, "lat": 38.920887666666665, "rental_uris": {"ios": "https://dc.lft.to/lastmile_qr_scan", "android": "https://dc.lft.to/lastmile_qr_scan"}, "is_reserved": 0, "lon": -77.0250085, "fusion_lat": 0.0, "name": "5d5615e8b75f60f8c2918213503db87b"}, {"type": "electric_bike", "fusion_lon": 0.0, "bike_id": "f368cf3c1949d765045460269d07fd5f", "is_disabled": 0, "lat": 38.8713395, "rental_uris": {"ios": "https://dc.lft.to/lastmile_qr_scan", "android": "https://dc.lft.to/lastmile_qr_scan"}, "is_reserved": 0, "lon": -76.937327, "fusion_lat": 0.0, "name": "f368cf3c1949d765045460269d07fd5f"}, {"type": "electric_scooter", "fusion_lon": 0.0, "bike_id": "f63e041ff0e933944672687f260787d3", "is_disabled": 0, "lat": 38.97212116666667, "rental_uris": {"ios": "https://dc.lft.to/lastmile_qr_scan", "android": "https://dc.lft.to/lastmile_qr_scan"}, "is_reserved": 0, "lon": -77.03328983333333, "fusion_lat": 0.0, "name": "f63e041ff0e933944672687f260787d3"}, {"type": "electric_scooter", "fusion_lon": 0.0, "bike_id": "552f96ed260a9cb9120c41b961514f8b", "is_disabled": 0, "lat": 38.9042665, "rental_uris": {"ios": "https://dc.lft.to/lastmile_qr_scan", "android": "https://dc.lft.to/lastmile_qr_scan"}, "is_reserved": 0, "lon": -77.04262483333333, "fusion_lat": 0.0, "name": "552f96ed260a9cb9120c41b961514f8b"}, {"type": "electric_scooter", "fusion_lon": 0.0, "bike_id": "3a92d4ae0b2c4c5e11835878be50b80a", "is_disabled": 0, "lat": 38.900108333333336, "rental_uris": {"ios": "https://dc.lft.to/lastmile_qr_scan", "android": "https://dc.lft.to/lastmile_qr_scan"}, "is_reserved": 0, "lon": -77.00673016666667, "fusion_lat": 0.0, "name": "3a92d4ae0b2c4c5e11835878be50b80a"}, {"type": "electric_scooter", "fusion_lon": 0.0, "bike_id": "8c476417a67c4bffffc4978421a32ad6", "is_disabled": 0, "lat": 38.9051265, "rental_uris": {"ios": "https://dc.lft.to/lastmile_qr_scan", "android": "https://dc.lft.to/lastmile_qr_scan"}, "is_reserved": 0, "lon": -76.95205366666667, "fusion_lat": 0.0, "name": "8c476417a67c4bffffc4978421a32ad6"}, {"type": "electric_bike", "fusion_lon": 0.0, "bike_id": "30f2574a6c8ac4457ddfd19809d77d01", "is_disabled": 0, "lat": 38.92000866666667, "rental_uris": {"ios": "https://dc.lft.to/lastmile_qr_scan", "android": "https://dc.lft.to/lastmile_qr_scan"}, "is_reserved": 0, "lon": -76.95824283333333, "fusion_lat": 0.0, "name": "30f2574a6c8ac4457ddfd19809d77d01"}, {"type": "electric_scooter", "fusion_lon": 0.0, "bike_id": "1f3b8cfad1a30ebb08b4db9208c4e080", "is_disabled": 0, "lat": 38.93306916666667, "rental_uris": {"ios": "https://dc.lft.to/lastmile_qr_scan", "android": "https://dc.lft.to/lastmile_qr_scan"}, "is_reserved": 0, "lon": -77.02156816666667, "fusion_lat": 0.0, "name": "1f3b8cfad1a30ebb08b4db9208c4e080"}, {"type": "electric_scooter", "fusion_lon": 0.0, "bike_id": "2c3b144ffca99d7298b54eae36004a2a", "is_disabled": 0, "lat": 38.90216266666667, "rental_uris": {"ios": "https://dc.lft.to/lastmile_qr_scan", "android": "https://dc.lft.to/lastmile_qr_scan"}, "is_reserved": 0, "lon": -77.0356605, "fusion_lat": 0.0, "name": "2c3b144ffca99d7298b54eae36004a2a"}, {"type": "electric_scooter", "fusion_lon": 0.0, "bike_id": "dde81330bc8cdb7d31e9de30ba884a89", "is_disabled": 0, "lat": 38.92710483333333, "rental_uris": {"ios": "https://dc.lft.to/lastmile_qr_scan", "android": "https://dc.lft.to/lastmile_qr_scan"}, "is_reserved": 0, "lon": -77.02089016666666, "fusion_lat": 0.0, "name": "dde81330bc8cdb7d31e9de30ba884a89"}, {"type": "electric_scooter", "fusion_lon": 0.0, "bike_id": "6365882f1c266999c9649a7ccbda6d94", "is_disabled": 0, "lat": 38.874709, "rental_uris": {"ios": "https://dc.lft.to/lastmile_qr_scan", "android": "https://dc.lft.to/lastmile_qr_scan"}, "is_reserved": 0, "lon": -77.00557183333333, "fusion_lat": 0.0, "name": "6365882f1c266999c9649a7ccbda6d94"}, {"type": "electric_scooter", "fusion_lon": 0.0, "bike_id": "ced0a66b801a4352f15196e64dba23ba", "is_disabled": 0, "lat": 38.924998, "rental_uris": {"ios": "https://dc.lft.to/lastmile_qr_scan", "android": "https://dc.lft.to/lastmile_qr_scan"}, "is_reserved": 0, "lon": -77.02400666666666, "fusion_lat": 0.0, "name": "ced0a66b801a4352f15196e64dba23ba"}, {"type": "electric_scooter", "fusion_lon": 0.0, "bike_id": "999424d95e65fea35a06ac2e24850832", "is_disabled": 0, "lat": 38.907347666666666, "rental_uris": {"ios": "https://dc.lft.to/lastmile_qr_scan", "android": "https://dc.lft.to/lastmile_qr_scan"}, "is_reserved": 0, "lon": -76.97982666666667, "fusion_lat": 0.0, "name": "999424d95e65fea35a06ac2e24850832"}, {"type": "electric_scooter", "fusion_lon": 0.0, "bike_id": "3bcfa9473acca2c3b2343a3df9385523", "is_disabled": 0, "lat": 38.89859116666667, "rental_uris": {"ios": "https://dc.lft.to/lastmile_qr_scan", "android": "https://dc.lft.to/lastmile_qr_scan"}, "is_reserved": 0, "lon": -77.0259855, "fusion_lat": 0.0, "name": "3bcfa9473acca2c3b2343a3df9385523"}, {"type": "electric_scooter", "fusion_lon": 0.0, "bike_id": "1f51ab73b22c5e72b609d4f4e915b5b9", "is_disabled": 0, "lat": 38.93500183333333, "rental_uris": {"ios": "https://dc.lft.to/lastmile_qr_scan", "android": "https://dc.lft.to/lastmile_qr_scan"}, "is_reserved": 0, "lon": -77.02425083333333, "fusion_lat": 0.0, "name": "1f51ab73b22c5e72b609d4f4e915b5b9"}, {"type": "electric_bike", "fusion_lon": 0.0, "bike_id": "7fde6609b328e1f4aef9353178483dfc", "is_disabled": 0, "lat": 38.94634883333333, "rental_uris": {"ios": "https://dc.lft.to/lastmile_qr_scan", "android": "https://dc.lft.to/lastmile_qr_scan"}, "is_reserved": 0, "lon": -76.99311616666667, "fusion_lat": 0.0, "name": "7fde6609b328e1f4aef9353178483dfc"}, {"type": "electric_scooter", "fusion_lon": 0.0, "bike_id": "38972c9f4affbd8aded9438cf6e5dd9b", "is_disabled": 0, "lat": 38.929991333333334, "rental_uris": {"ios": "https://dc.lft.to/lastmile_qr_scan", "android": "https://dc.lft.to/lastmile_qr_scan"}, "is_reserved": 0, "lon": -77.02346833333333, "fusion_lat": 0.0, "name": "38972c9f4affbd8aded9438cf6e5dd9b"}, {"type": "electric_scooter", "fusion_lon": 0.0, "bike_id": "2c20666eda2527a2c43852234a5761b8", "is_disabled": 0, "lat": 38.904117, "rental_uris": {"ios": "https://dc.lft.to/lastmile_qr_scan", "android": "https://dc.lft.to/lastmile_qr_scan"}, "is_reserved": 0, "lon": -76.97335866666667, "fusion_lat": 0.0, "name": "2c20666eda2527a2c43852234a5761b8"}, {"type": "electric_scooter", "fusion_lon": 0.0, "bike_id": "ad7aaa2b340191b1e6c71eab2fd99e7f", "is_disabled": 0, "lat": 38.92069583333333, "rental_uris": {"ios": "https://dc.lft.to/lastmile_qr_scan", "android": "https://dc.lft.to/lastmile_qr_scan"}, "is_reserved": 0, "lon": -77.0230295, "fusion_lat": 0.0, "name": "ad7aaa2b340191b1e6c71eab2fd99e7f"}, {"type": "electric_scooter", "fusion_lon": 0.0, "bike_id": "791259dc2df76be3c2d34a4ef92ef805", "is_disabled": 0, "lat": 38.91390783333333, "rental_uris": {"ios": "https://dc.lft.to/lastmile_qr_scan", "android": "https://dc.lft.to/lastmile_qr_scan"}, "is_reserved": 0, "lon": -77.03447783333333, "fusion_lat": 0.0, "name": "791259dc2df76be3c2d34a4ef92ef805"}, {"type": "electric_scooter", "fusion_lon": 0.0, "bike_id": "d676507a2fb71aa8eb735660a011983b", "is_disabled": 0, "lat": 38.927648833333336, "rental_uris": {"ios": "https://dc.lft.to/lastmile_qr_scan", "android": "https://dc.lft.to/lastmile_qr_scan"}, "is_reserved": 0, "lon": -77.03245866666667, "fusion_lat": 0.0, "name": "d676507a2fb71aa8eb735660a011983b"}, {"type": "electric_scooter", "fusion_lon": 0.0, "bike_id": "46fb61232bd05014a04c8b34b7885b3d", "is_disabled": 0, "lat": 38.91925, "rental_uris": {"ios": "https://dc.lft.to/lastmile_qr_scan", "android": "https://dc.lft.to/lastmile_qr_scan"}, "is_reserved": 0, "lon": -77.02476366666667, "fusion_lat": 0.0, "name": "46fb61232bd05014a04c8b34b7885b3d"}, {"type": "electric_scooter", "fusion_lon": 0.0, "bike_id": "bf1c8c86214c72be6123acf8be415040", "is_disabled": 0, "lat": 38.92718583333333, "rental_uris": {"ios": "https://dc.lft.to/lastmile_qr_scan", "android": "https://dc.lft.to/lastmile_qr_scan"}, "is_reserved": 0, "lon": -77.02088566666667, "fusion_lat": 0.0, "name": "bf1c8c86214c72be6123acf8be415040"}, {"type": "electric_scooter", "fusion_lon": 0.0, "bike_id": "916d0c88ae2e277cda0ed900bc988d5e", "is_disabled": 0, "lat": 38.913467, "rental_uris": {"ios": "https://dc.lft.to/lastmile_qr_scan", "android": "https://dc.lft.to/lastmile_qr_scan"}, "is_reserved": 0, "lon": -77.01504266666667, "fusion_lat": 0.0, "name": "916d0c88ae2e277cda0ed900bc988d5e"}, {"type": "electric_scooter", "fusion_lon": 0.0, "bike_id": "c0d25bfe95bff6383f225357964430e6", "is_disabled": 0, "lat": 38.933592, "rental_uris": {"ios": "https://dc.lft.to/lastmile_qr_scan", "android": "https://dc.lft.to/lastmile_qr_scan"}, "is_reserved": 0, "lon": -77.07308133333333, "fusion_lat": 0.0, "name": "c0d25bfe95bff6383f225357964430e6"}, {"type": "electric_scooter", "fusion_lon": 0.0, "bike_id": "4e0981e411aa6bc115018994dfbba493", "is_disabled": 0, "lat": 38.874045833333334, "rental_uris": {"ios": "https://dc.lft.to/lastmile_qr_scan", "android": "https://dc.lft.to/lastmile_qr_scan"}, "is_reserved": 0, "lon": -77.00198833333333, "fusion_lat": 0.0, "name": "4e0981e411aa6bc115018994dfbba493"}, {"type": "electric_scooter", "fusion_lon": 0.0, "bike_id": "a0b86f36d878618812434bd45f4a8bb1", "is_disabled": 0, "lat": 38.88563383333333, "rental_uris": {"ios": "https://dc.lft.to/lastmile_qr_scan", "android": "https://dc.lft.to/lastmile_qr_scan"}, "is_reserved": 0, "lon": -76.99793133333333, "fusion_lat": 0.0, "name": "a0b86f36d878618812434bd45f4a8bb1"}, {"type": "electric_scooter", "fusion_lon": 0.0, "bike_id": "767d46c746e3c348caed1d8a030640ab", "is_disabled": 0, "lat": 38.89976433333333, "rental_uris": {"ios": "https://dc.lft.to/lastmile_qr_scan", "android": "https://dc.lft.to/lastmile_qr_scan"}, "is_reserved": 0, "lon": -76.99258166666667, "fusion_lat": 0.0, "name": "767d46c746e3c348caed1d8a030640ab"}, {"type": "electric_scooter", "fusion_lon": 0.0, "bike_id": "a2cb30137ad24e061eb8f719641d58a0", "is_disabled": 0, "lat": 38.898434, "rental_uris": {"ios": "https://dc.lft.to/lastmile_qr_scan", "android": "https://dc.lft.to/lastmile_qr_scan"}, "is_reserved": 0, "lon": -77.0279615, "fusion_lat": 0.0, "name": "a2cb30137ad24e061eb8f719641d58a0"}, {"type": "electric_bike", "fusion_lon": 0.0, "bike_id": "25d759845b97b97074ee1adafa9e1118", "is_disabled": 0, "lat": 38.831625333333335, "rental_uris": {"ios": "https://dc.lft.to/lastmile_qr_scan", "android": "https://dc.lft.to/lastmile_qr_scan"}, "is_reserved": 0, "lon": -76.99574983333333, "fusion_lat": 0.0, "name": "25d759845b97b97074ee1adafa9e1118"}, {"type": "electric_scooter", "fusion_lon": 0.0, "bike_id": "dda2cde46d4c9eeb7447329bc2511cd5", "is_disabled": 0, "lat": 38.892380333333335, "rental_uris": {"ios": "https://dc.lft.to/lastmile_qr_scan", "android": "https://dc.lft.to/lastmile_qr_scan"}, "is_reserved": 0, "lon": -77.04162616666666, "fusion_lat": 0.0, "name": "dda2cde46d4c9eeb7447329bc2511cd5"}, {"type": "electric_scooter", "fusion_lon": 0.0, "bike_id": "5c19aece9bc83985036cec6f6793d991", "is_disabled": 0, "lat": 38.90631316666666, "rental_uris": {"ios": "https://dc.lft.to/lastmile_qr_scan", "android": "https://dc.lft.to/lastmile_qr_scan"}, "is_reserved": 0, "lon": -77.0464285, "fusion_lat": 0.0, "name": "5c19aece9bc83985036cec6f6793d991"}, {"type": "electric_scooter", "fusion_lon": 0.0, "bike_id": "28747f3b37ba32004fa56e734d985dad", "is_disabled": 0, "lat": 38.90011833333333, "rental_uris": {"ios": "https://dc.lft.to/lastmile_qr_scan", "android": "https://dc.lft.to/lastmile_qr_scan"}, "is_reserved": 0, "lon": -77.01262066666666, "fusion_lat": 0.0, "name": "28747f3b37ba32004fa56e734d985dad"}, {"type": "electric_scooter", "fusion_lon": 0.0, "bike_id": "6fb8a7aedd636fb9430d02db443683bc", "is_disabled": 0, "lat": 38.87547583333333, "rental_uris": {"ios": "https://dc.lft.to/lastmile_qr_scan", "android": "https://dc.lft.to/lastmile_qr_scan"}, "is_reserved": 0, "lon": -77.00051916666666, "fusion_lat": 0.0, "name": "6fb8a7aedd636fb9430d02db443683bc"}, {"type": "electric_scooter", "fusion_lon": 0.0, "bike_id": "c046a080a5375243ea111cb340fdfb04", "is_disabled": 0, "lat": 38.892287333333336, "rental_uris": {"ios": "https://dc.lft.to/lastmile_qr_scan", "android": "https://dc.lft.to/lastmile_qr_scan"}, "is_reserved": 0, "lon": -77.04472166666666, "fusion_lat": 0.0, "name": "c046a080a5375243ea111cb340fdfb04"}, {"type": "electric_scooter", "fusion_lon": 0.0, "bike_id": "394743767abba091ae5f23e0d87e972f", "is_disabled": 0, "lat": 38.903115666666665, "rental_uris": {"ios": "https://dc.lft.to/lastmile_qr_scan", "android": "https://dc.lft.to/lastmile_qr_scan"}, "is_reserved": 0, "lon": -76.97799583333334, "fusion_lat": 0.0, "name": "394743767abba091ae5f23e0d87e972f"}, {"type": "electric_scooter", "fusion_lon": 0.0, "bike_id": "130542a9b8b94adb1cf855cc311db06d", "is_disabled": 0, "lat": 38.926491166666665, "rental_uris": {"ios": "https://dc.lft.to/lastmile_qr_scan", "android": "https://dc.lft.to/lastmile_qr_scan"}, "is_reserved": 0, "lon": -77.05332766666666, "fusion_lat": 0.0, "name": "130542a9b8b94adb1cf855cc311db06d"}, {"type": "electric_scooter", "fusion_lon": 0.0, "bike_id": "de12aed8f4f8f2e345c5e0aa7f629211", "is_disabled": 0, "lat": 38.9239135, "rental_uris": {"ios": "https://dc.lft.to/lastmile_qr_scan", "android": "https://dc.lft.to/lastmile_qr_scan"}, "is_reserved": 0, "lon": -77.03652416666667, "fusion_lat": 0.0, "name": "de12aed8f4f8f2e345c5e0aa7f629211"}, {"type": "electric_scooter", "fusion_lon": 0.0, "bike_id": "bde9f7e0682147cec4e75013ad360477", "is_disabled": 0, "lat": 38.91956616666667, "rental_uris": {"ios": "https://dc.lft.to/lastmile_qr_scan", "android": "https://dc.lft.to/lastmile_qr_scan"}, "is_reserved": 0, "lon": -77.01775416666666, "fusion_lat": 0.0, "name": "bde9f7e0682147cec4e75013ad360477"}, {"type": "electric_scooter", "fusion_lon": 0.0, "bike_id": "593edb2fc74dd0adcd42d69037743074", "is_disabled": 0, "lat": 38.917156, "rental_uris": {"ios": "https://dc.lft.to/lastmile_qr_scan", "android": "https://dc.lft.to/lastmile_qr_scan"}, "is_reserved": 0, "lon": -77.038696, "fusion_lat": 0.0, "name": "593edb2fc74dd0adcd42d69037743074"}, {"type": "electric_scooter", "fusion_lon": 0.0, "bike_id": "b29208b0180320c3938da54f3963cd87", "is_disabled": 0, "lat": 38.9264205, "rental_uris": {"ios": "https://dc.lft.to/lastmile_qr_scan", "android": "https://dc.lft.to/lastmile_qr_scan"}, "is_reserved": 0, "lon": -77.03728216666667, "fusion_lat": 0.0, "name": "b29208b0180320c3938da54f3963cd87"}, {"type": "electric_scooter", "fusion_lon": 0.0, "bike_id": "62dccb54aa0e0a47892106c04ebad676", "is_disabled": 0, "lat": 38.972161166666666, "rental_uris": {"ios": "https://dc.lft.to/lastmile_qr_scan", "android": "https://dc.lft.to/lastmile_qr_scan"}, "is_reserved": 0, "lon": -77.03332833333333, "fusion_lat": 0.0, "name": "62dccb54aa0e0a47892106c04ebad676"}, {"type": "electric_bike", "fusion_lon": 0.0, "bike_id": "43ce904b35b51c68dd3d0dee324a2a32", "is_disabled": 0, "lat": 38.846891666666664, "rental_uris": {"ios": "https://dc.lft.to/lastmile_qr_scan", "android": "https://dc.lft.to/lastmile_qr_scan"}, "is_reserved": 0, "lon": -76.9829195, "fusion_lat": 0.0, "name": "43ce904b35b51c68dd3d0dee324a2a32"}, {"type": "electric_scooter", "fusion_lon": 0.0, "bike_id": "a9e42b5c5653b9a454dd3955d6a2afc2", "is_disabled": 0, "lat": 38.904466166666666, "rental_uris": {"ios": "https://dc.lft.to/lastmile_qr_scan", "android": "https://dc.lft.to/lastmile_qr_scan"}, "is_reserved": 0, "lon": -77.0580735, "fusion_lat": 0.0, "name": "a9e42b5c5653b9a454dd3955d6a2afc2"}, {"type": "electric_scooter", "fusion_lon": 0.0, "bike_id": "c358e7d66e35bd62d71544c4c99bb0d8", "is_disabled": 0, "lat": 38.876631, "rental_uris": {"ios": "https://dc.lft.to/lastmile_qr_scan", "android": "https://dc.lft.to/lastmile_qr_scan"}, "is_reserved": 0, "lon": -76.99625333333333, "fusion_lat": 0.0, "name": "c358e7d66e35bd62d71544c4c99bb0d8"}, {"type": "electric_scooter", "fusion_lon": 0.0, "bike_id": "5e3c7ab66341aed39c479d79a2de942f", "is_disabled": 0, "lat": 38.87990933333333, "rental_uris": {"ios": "https://dc.lft.to/lastmile_qr_scan", "android": "https://dc.lft.to/lastmile_qr_scan"}, "is_reserved": 0, "lon": -76.98680333333333, "fusion_lat": 0.0, "name": "5e3c7ab66341aed39c479d79a2de942f"}, {"type": "electric_scooter", "fusion_lon": 0.0, "bike_id": "3a7a5880dfda2514f10c183294c90313", "is_disabled": 0, "lat": 38.919596, "rental_uris": {"ios": "https://dc.lft.to/lastmile_qr_scan", "android": "https://dc.lft.to/lastmile_qr_scan"}, "is_reserved": 0, "lon": -77.0594945, "fusion_lat": 0.0, "name": "3a7a5880dfda2514f10c183294c90313"}, {"type": "electric_scooter", "fusion_lon": 0.0, "bike_id": "5607f7cf7a37e250c52e0dbd2d162176", "is_disabled": 0, "lat": 38.900076, "rental_uris": {"ios": "https://dc.lft.to/lastmile_qr_scan", "android": "https://dc.lft.to/lastmile_qr_scan"}, "is_reserved": 0, "lon": -77.0191895, "fusion_lat": 0.0, "name": "5607f7cf7a37e250c52e0dbd2d162176"}, {"type": "electric_scooter", "fusion_lon": 0.0, "bike_id": "e49f9e68718377c79a680be87094851b", "is_disabled": 0, "lat": 38.893450666666666, "rental_uris": {"ios": "https://dc.lft.to/lastmile_qr_scan", "android": "https://dc.lft.to/lastmile_qr_scan"}, "is_reserved": 0, "lon": -76.95228766666666, "fusion_lat": 0.0, "name": "e49f9e68718377c79a680be87094851b"}, {"type": "electric_scooter", "fusion_lon": 0.0, "bike_id": "987bfd08a6829c9c5ff5183632345880", "is_disabled": 0, "lat": 38.90026366666667, "rental_uris": {"ios": "https://dc.lft.to/lastmile_qr_scan", "android": "https://dc.lft.to/lastmile_qr_scan"}, "is_reserved": 0, "lon": -77.00214466666667, "fusion_lat": 0.0, "name": "987bfd08a6829c9c5ff5183632345880"}, {"type": "electric_bike", "fusion_lon": 0.0, "bike_id": "cad8042ea473373cf086ddb52b096c5f", "is_disabled": 0, "lat": 38.9356765, "rental_uris": {"ios": "https://dc.lft.to/lastmile_qr_scan", "android": "https://dc.lft.to/lastmile_qr_scan"}, "is_reserved": 0, "lon": -77.1061275, "fusion_lat": 0.0, "name": "cad8042ea473373cf086ddb52b096c5f"}, {"type": "electric_scooter", "fusion_lon": 0.0, "bike_id": "df7090e89dd1ae0585d16a9dcab3d475", "is_disabled": 0, "lat": 38.91351383333333, "rental_uris": {"ios": "https://dc.lft.to/lastmile_qr_scan", "android": "https://dc.lft.to/lastmile_qr_scan"}, "is_reserved": 0, "lon": -77.03196366666667, "fusion_lat": 0.0, "name": "df7090e89dd1ae0585d16a9dcab3d475"}, {"type": "electric_scooter", "fusion_lon": 0.0, "bike_id": "d0f894e6a249c2f7fd49966dd8e69340", "is_disabled": 0, "lat": 38.908306333333336, "rental_uris": {"ios": "https://dc.lft.to/lastmile_qr_scan", "android": "https://dc.lft.to/lastmile_qr_scan"}, "is_reserved": 0, "lon": -77.03366, "fusion_lat": 0.0, "name": "d0f894e6a249c2f7fd49966dd8e69340"}, {"type": "electric_scooter", "fusion_lon": 0.0, "bike_id": "ca3de2dde4b6bea29503d2276929cc38", "is_disabled": 0, "lat": 38.941837, "rental_uris": {"ios": "https://dc.lft.to/lastmile_qr_scan", "android": "https://dc.lft.to/lastmile_qr_scan"}, "is_reserved": 0, "lon": -76.9943765, "fusion_lat": 0.0, "name": "ca3de2dde4b6bea29503d2276929cc38"}, {"type": "electric_scooter", "fusion_lon": 0.0, "bike_id": "86eed9c006655a1172980c1c1abd028d", "is_disabled": 0, "lat": 38.88489383333334, "rental_uris": {"ios": "https://dc.lft.to/lastmile_qr_scan", "android": "https://dc.lft.to/lastmile_qr_scan"}, "is_reserved": 0, "lon": -77.0347635, "fusion_lat": 0.0, "name": "86eed9c006655a1172980c1c1abd028d"}, {"type": "electric_scooter", "fusion_lon": 0.0, "bike_id": "3ed68dc8f5fa01c67f86451a9c0b89b2", "is_disabled": 0, "lat": 38.894961, "rental_uris": {"ios": "https://dc.lft.to/lastmile_qr_scan", "android": "https://dc.lft.to/lastmile_qr_scan"}, "is_reserved": 0, "lon": -77.0231455, "fusion_lat": 0.0, "name": "3ed68dc8f5fa01c67f86451a9c0b89b2"}, {"type": "electric_scooter", "fusion_lon": 0.0, "bike_id": "644c9b356f39d17527483dfd415bf5a0", "is_disabled": 0, "lat": 38.910305, "rental_uris": {"ios": "https://dc.lft.to/lastmile_qr_scan", "android": "https://dc.lft.to/lastmile_qr_scan"}, "is_reserved": 0, "lon": -77.04324933333334, "fusion_lat": 0.0, "name": "644c9b356f39d17527483dfd415bf5a0"}, {"type": "electric_scooter", "fusion_lon": 0.0, "bike_id": "fa5147759a26f1cbef8b3b9ffe09abb4", "is_disabled": 0, "lat": 38.9248815, "rental_uris": {"ios": "https://dc.lft.to/lastmile_qr_scan", "android": "https://dc.lft.to/lastmile_qr_scan"}, "is_reserved": 0, "lon": -77.031776, "fusion_lat": 0.0, "name": "fa5147759a26f1cbef8b3b9ffe09abb4"}, {"type": "electric_scooter", "fusion_lon": 0.0, "bike_id": "a23ffe594d5ddfb85188e2d48cff71ad", "is_disabled": 0, "lat": 38.88756216666667, "rental_uris": {"ios": "https://dc.lft.to/lastmile_qr_scan", "android": "https://dc.lft.to/lastmile_qr_scan"}, "is_reserved": 0, "lon": -76.98347966666667, "fusion_lat": 0.0, "name": "a23ffe594d5ddfb85188e2d48cff71ad"}, {"type": "electric_bike", "fusion_lon": 0.0, "bike_id": "18623b41e5864c0188228d6394ee3e7f", "is_disabled": 0, "lat": 38.856193833333336, "rental_uris": {"ios": "https://dc.lft.to/lastmile_qr_scan", "android": "https://dc.lft.to/lastmile_qr_scan"}, "is_reserved": 0, "lon": -76.96152783333334, "fusion_lat": 0.0, "name": "18623b41e5864c0188228d6394ee3e7f"}, {"type": "electric_scooter", "fusion_lon": 0.0, "bike_id": "ada567de79972b88ba5ce628a55c7579", "is_disabled": 0, "lat": 38.900277, "rental_uris": {"ios": "https://dc.lft.to/lastmile_qr_scan", "android": "https://dc.lft.to/lastmile_qr_scan"}, "is_reserved": 0, "lon": -77.01189466666666, "fusion_lat": 0.0, "name": "ada567de79972b88ba5ce628a55c7579"}, {"type": "electric_scooter", "fusion_lon": 0.0, "bike_id": "6447ce4173885fc7365165697519a14b", "is_disabled": 0, "lat": 38.92073216666667, "rental_uris": {"ios": "https://dc.lft.to/lastmile_qr_scan", "android": "https://dc.lft.to/lastmile_qr_scan"}, "is_reserved": 0, "lon": -77.02526866666666, "fusion_lat": 0.0, "name": "6447ce4173885fc7365165697519a14b"}, {"type": "electric_scooter", "fusion_lon": 0.0, "bike_id": "69499e963de0ede80fe7ba0ac1b18e15", "is_disabled": 0, "lat": 38.878696833333336, "rental_uris": {"ios": "https://dc.lft.to/lastmile_qr_scan", "android": "https://dc.lft.to/lastmile_qr_scan"}, "is_reserved": 0, "lon": -77.0059865, "fusion_lat": 0.0, "name": "69499e963de0ede80fe7ba0ac1b18e15"}, {"type": "electric_scooter", "fusion_lon": 0.0, "bike_id": "9777e2cffc27e1e15edeaf0bb5d85816", "is_disabled": 0, "lat": 38.9226305, "rental_uris": {"ios": "https://dc.lft.to/lastmile_qr_scan", "android": "https://dc.lft.to/lastmile_qr_scan"}, "is_reserved": 0, "lon": -77.03666233333334, "fusion_lat": 0.0, "name": "9777e2cffc27e1e15edeaf0bb5d85816"}, {"type": "electric_scooter", "fusion_lon": 0.0, "bike_id": "2ac87394a3b1a448892e73a0992de7e9", "is_disabled": 0, "lat": 38.859472833333335, "rental_uris": {"ios": "https://dc.lft.to/lastmile_qr_scan", "android": "https://dc.lft.to/lastmile_qr_scan"}, "is_reserved": 0, "lon": -76.95878333333333, "fusion_lat": 0.0, "name": "2ac87394a3b1a448892e73a0992de7e9"}, {"type": "electric_scooter", "fusion_lon": 0.0, "bike_id": "4d597ef5d2f6b38f7a1a1276543e24ba", "is_disabled": 0, "lat": 38.921124166666665, "rental_uris": {"ios": "https://dc.lft.to/lastmile_qr_scan", "android": "https://dc.lft.to/lastmile_qr_scan"}, "is_reserved": 0, "lon": -77.048302, "fusion_lat": 0.0, "name": "4d597ef5d2f6b38f7a1a1276543e24ba"}, {"type": "electric_scooter", "fusion_lon": 0.0, "bike_id": "7416880cac3f7c74e8902c0e7d12f590", "is_disabled": 0, "lat": 38.93227866666667, "rental_uris": {"ios": "https://dc.lft.to/lastmile_qr_scan", "android": "https://dc.lft.to/lastmile_qr_scan"}, "is_reserved": 0, "lon": -77.02389283333333, "fusion_lat": 0.0, "name": "7416880cac3f7c74e8902c0e7d12f590"}, {"type": "electric_scooter", "fusion_lon": 0.0, "bike_id": "419148b1319a21b1af39c9447c7b64b4", "is_disabled": 0, "lat": 38.92508766666667, "rental_uris": {"ios": "https://dc.lft.to/lastmile_qr_scan", "android": "https://dc.lft.to/lastmile_qr_scan"}, "is_reserved": 0, "lon": -77.02164366666666, "fusion_lat": 0.0, "name": "419148b1319a21b1af39c9447c7b64b4"},