{"data": {"bikes": [{"name": "2a5776085367463bd2337a1f7d222d17", "type": "electric_scooter", "lat": 38.901137, "is_reserved": 0, "lon": -77.04988366666667, "fusion_lon": 0.0, "is_disabled": 0, "fusion_lat": 0.0, "bike_id": "2a5776085367463bd2337a1f7d222d17", "rental_uris": {"ios": "https://dc.lft.to/lastmile_qr_scan", "android": "https://dc.lft.to/lastmile_qr_scan"}}, {"name": "259662bb212c19346a01ae78e64b0e58", "type": "electric_scooter", "lat": 38.92114083333333, "is_reserved": 0, "lon": -77.036501, "fusion_lon": 0.0, "is_disabled": 0, "fusion_lat": 0.0, "bike_id": "259662bb212c19346a01ae78e64b0e58", "rental_uris": {"ios": "https://dc.lft.to/lastmile_qr_scan", "android": "https://dc.lft.to/lastmile_qr_scan"}}, {"name": "16df3375a62279cba181bd4afb69763e", "type": "electric_scooter", "lat": 38.8838905, "is_reserved": 0, "lon": -77.019762, "fusion_lon": 0.0, "is_disabled": 0, "fusion_lat": 0.0, "bike_id": "16df3375a62279cba181bd4afb69763e", "rental_uris": {"ios": "https://dc.lft.to/lastmile_qr_scan", "android": "https://dc.lft.to/lastmile_qr_scan"}}, {"name": "8a1e8d9d0872791e69f5e67f77e67a7b", "type": "electric_bike", "lat": 38.85248383333333, "is_reserved": 0, "lon": -77.11428933333333, "fusion_lon": 0.0, "is_disabled": 0, "fusion_lat": 0.0, "bike_id": "8a1e8d9d0872791e69f5e67f77e67a7b", "rental_uris": {"ios": "https://dc.lft.to/lastmile_qr_scan", "android": "https://dc.lft.to/lastmile_qr_scan"}}, {"name": "d4aa29c10478afafff94d2d1b12f24e0", "type": "electric_scooter", "lat": 38.899397, "is_reserved": 0, "lon": -77.0298125, "fusion_lon": 0.0, "is_disabled": 0, "fusion_lat": 0.0, "bike_id": "d4aa29c10478afafff94d2d1b12f24e0", "rental_uris": {"ios": "https://dc.lft.to/lastmile_qr_scan", "android": "https://dc.lft.to/lastmile_qr_scan"}}, {"name": "aa319f8405d1d38b93f5fc42d0d6bbd5", "type": "electric_scooter", "lat": 38.91916783333333, "is_reserved": 0, "lon": -77.03024033333334, "fusion_lon": 0.0, "is_disabled": 0, "fusion_lat": 0.0, "bike_id": "aa319f8405d1d38b93f5fc42d0d6bbd5", "rental_uris": {"ios": "https://dc.lft.to/lastmile_qr_scan", "android": "https://dc.lft.to/lastmile_qr_scan"}}, {"name": "9593a41baed1622e7a9f1e17ad4dcc7d", "type": "electric_scooter", "lat": 38.902769166666666, "is_reserved": 0, "lon": -77.03840233333334, "fusion_lon": 0.0, "is_disabled": 0, "fusion_lat": 0.0, "bike_id": "9593a41baed1622e7a9f1e17ad4dcc7d", "rental_uris": {"ios": "https://dc.lft.to/lastmile_qr_scan", "android": "https://dc.lft.to/lastmile_qr_scan"}}, {"name": "08b42a6d636454b7ab676210c319c5ec", "type": "electric_scooter", "lat": 38.842958333333335, "is_reserved": 0, "lon": -76.99945916666667, "fusion_lon": 0.0, "is_disabled": 0, "fusion_lat": 0.0, "bike_id": "08b42a6d636454b7ab676210c319c5ec", "rental_uris": {"ios": "https://dc.lft.to/lastmile_qr_scan", "android": "https://dc.lft.to/lastmile_qr_scan"}}, {"name": "c91b0213f0298724d1390865295e3bb4", "type": "electric_scooter", "lat": 38.967255, "is_reserved": 0, "lon": -77.02351366666667, "fusion_lon": 0.0, "is_disabled": 0, "fusion_lat": 0.0, "bike_id": "c91b0213f0298724d1390865295e3bb4", "rental_uris": {"ios": "https://dc.lft.to/lastmile_qr_scan", "android": "https://dc.lft.to/lastmile_qr_scan"}}, {"name": "e03ee3c64a914c4dffed2386bf825277", "type": "electric_scooter", "lat": 38.90453816666667, "is_reserved": 0, "lon": -77.04184166666667, "fusion_lon": 0.0, "is_disabled": 0, "fusion_lat": 0.0, "bike_id": "e03ee3c64a914c4dffed2386bf825277", "rental_uris": {"ios": "https://dc.lft.to/lastmile_qr_scan", "android": "https://dc.lft.to/lastmile_qr_scan"}}, {"name": "2a048e2d3ad5c18b68c57d55f78fd0a1", "type": "electric_scooter", "lat": 38.88717283333333, "is_reserved": 0, "lon": -77.01774466666667, "fusion_lon": 0.0, "is_disabled": 0, "fusion_lat": 0.0, "bike_id": "2a048e2d3ad5c18b68c57d55f78fd0a1", "rental_uris": {"ios": "https://dc.lft.to/lastmile_qr_scan", "android": "https://dc.lft.to/lastmile_qr_scan"}}, {"name": "44d87a9ec3d22f3913e717f95b29f07b", "type": "electric_scooter", "lat": 38.92867233333333, "is_reserved": 0, "lon": -77.02608033333334, "fusion_lon": 0.0, "is_disabled": 0, "fusion_lat": 0.0, "bike_id": "44d87a9ec3d22f3913e717f95b29f07b", "rental_uris": {"ios": "https://dc.lft.to/lastmile_qr_scan", "android": "https://dc.lft.to/lastmile_qr_scan"}}, {"name": "f8d3d614ebb8b63bb03171773e620d1a", "type": "electric_scooter", "lat": 38.93523483333333, "is_reserved": 0, "lon": -77.0332755, "fusion_lon": 0.0, "is_disabled": 0, "fusion_lat": 0.0, "bike_id": "f8d3d614ebb8b63bb03171773e620d1a", "rental_uris": {"ios": "https://dc.lft.to/lastmile_qr_scan", "android": "https://dc.lft.to/lastmile_qr_scan"}}, {"name": "91d984bf2f635d966f1c9f302bdabb9a", "type": "electric_scooter", "lat": 38.933994166666665, "is_reserved": 0, "lon": -77.05744733333333, "fusion_lon": 0.0, "is_disabled": 0, "fusion_lat": 0.0, "bike_id": "91d984bf2f635d966f1c9f302bdabb9a", "rental_uris": {"ios": "https://dc.lft.to/lastmile_qr_scan", "android": "https://dc.lft.to/lastmile_qr_scan"}}, {"name": "606aec8b234833804d79854ae09491ef", "type": "electric_scooter", "lat": 38.90648516666667, "is_reserved": 0, "lon": -77.008815, "fusion_lon": 0.0, "is_disabled": 0, "fusion_lat": 0.0, "bike_id": "606aec8b234833804d79854ae09491ef", "rental_uris": {"ios": "https://dc.lft.to/lastmile_qr_scan", "android": "https://dc.lft.to/lastmile_qr_scan"}}, {"name": "df5f9c3aa76ad64bc261fd9a7b250657", "type": "electric_scooter", "lat": 38.929918666666666, "is_reserved": 0, "lon": -77.024833, "fusion_lon": 0.0, "is_disabled": 0, "fusion_lat": 0.0, "bike_id": "df5f9c3aa76ad64bc261fd9a7b250657", "rental_uris": {"ios": "https://dc.lft.to/lastmile_qr_scan", "android": "https://dc.lft.to/lastmile_qr_scan"}}, {"name": "62a00b5021413a9316f4a3774a89426c", "type": "electric_scooter", "lat": 38.9027365, "is_reserved": 0, "lon": -77.0595375, "fusion_lon": 0.0, "is_disabled": 0, "fusion_lat": 0.0, "bike_id": "62a00b5021413a9316f4a3774a89426c", "rental_uris": {"ios": "https://dc.lft.to/lastmile_qr_scan", "android": "https://dc.lft.to/lastmile_qr_scan"}}, {"name": "98d71eb1ff04d6cfef9dce2af2a70819", "type": "electric_scooter", "lat": 38.91196933333333, "is_reserved": 0, "lon": -77.06100266666667, "fusion_lon": 0.0, "is_disabled": 0, "fusion_lat": 0.0, "bike_id": "98d71eb1ff04d6cfef9dce2af2a70819", "rental_uris": {"ios": "https://dc.lft.to/lastmile_qr_scan", "android": "https://dc.lft.to/lastmile_qr_scan"}}, {"name": "522ad5bae45bafb84c1131dc649c2a1f", "type": "electric_scooter", "lat": 38.904134, "is_reserved": 0, "lon": -77.04349633333334, "fusion_lon": 0.0, "is_disabled": 0, "fusion_lat": 0.0, "bike_id": "522ad5bae45bafb84c1131dc649c2a1f", "rental_uris": {"ios": "https://dc.lft.to/lastmile_qr_scan", "android": "https://dc.lft.to/lastmile_qr_scan"}}, {"name": "59301fcefadb909dad37869dc9bf916a", "type": "electric_scooter", "lat": 38.927919, "is_reserved": 0, "lon": -77.03989183333333, "fusion_lon": 0.0, "is_disabled": 0, "fusion_lat": 0.0, "bike_id": "59301fcefadb909dad37869dc9bf916a", "rental_uris": {"ios": "https://dc.lft.to/lastmile_qr_scan", "android": "https://dc.lft.to/lastmile_qr_scan"}}, {"name": "d739bc6c7434b8790e2408572f5be37a", "type": "electric_scooter", "lat": 38.90459966666667, "is_reserved": 0, "lon": -77.01427333333334, "fusion_lon": 0.0, "is_disabled": 0, "fusion_lat": 0.0, "bike_id": "d739bc6c7434b8790e2408572f5be37a", "rental_uris": {"ios": "https://dc.lft.to/lastmile_qr_scan", "android": "https://dc.lft.to/lastmile_qr_scan"}}, {"name": "71e298d1cae6e3ec8cbb6499ca512845", "type": "electric_scooter", "lat": 38.915683, "is_reserved": 0, "lon": -77.03939716666666, "fusion_lon": 0.0, "is_disabled": 0, "fusion_lat": 0.0, "bike_id": "71e298d1cae6e3ec8cbb6499ca512845", "rental_uris": {"ios": "https://dc.lft.to/lastmile_qr_scan", "android": "https://dc.lft.to/lastmile_qr_scan"}}, {"name": "29c08235647330b65bc524f5c54ac4a1", "type": "electric_bike", "lat": 38.929029666666665, "is_reserved": 0, "lon": -77.06504066666666, "fusion_lon": 0.0, "is_disabled": 0, "fusion_lat": 0.0, "bike_id": "29c08235647330b65bc524f5c54ac4a1", "rental_uris": {"ios": "https://dc.lft.to/lastmile_qr_scan", "android": "https://dc.lft.to/lastmile_qr_scan"}}, {"name": "24660f55e7c9da744fca47ddcdd8f83f", "type": "electric_scooter", "lat": 38.92850466666667, "is_reserved": 0, "lon": -77.0542245, "fusion_lon": 0.0, "is_disabled": 0, "fusion_lat": 0.0, "bike_id": "24660f55e7c9da744fca47ddcdd8f83f", "rental_uris": {"ios": "https://dc.lft.to/lastmile_qr_scan", "android": "https://dc.lft.to/lastmile_qr_scan"}}, {"name": "c5de6824e40e6521109ceac6e10a8b45", "type": "electric_scooter", "lat": 38.895529, "is_reserved": 0, "lon": -77.00919883333333, "fusion_lon": 0.0, "is_disabled": 0, "fusion_lat": 0.0, "bike_id": "c5de6824e40e6521109ceac6e10a8b45", "rental_uris": {"ios": "https://dc.lft.to/lastmile_qr_scan", "android": "https://dc.lft.to/lastmile_qr_scan"}}, {"name": "89f329c09c6a75edb095b78f6da6f47d", "type": "electric_scooter", "lat": 38.92960266666667, "is_reserved": 0, "lon": -77.02351933333334, "fusion_lon": 0.0, "is_disabled": 0, "fusion_lat": 0.0, "bike_id": "89f329c09c6a75edb095b78f6da6f47d", "rental_uris": {"ios": "https://dc.lft.to/lastmile_qr_scan", "android": "https://dc.lft.to/lastmile_qr_scan"}}, {"name": "d9624b2cf9c6cee85521248ed4671f0c", "type": "electric_bike", "lat": 38.95956866666667, "is_reserved": 0, "lon": -77.10089983333333, "fusion_lon": 0.0, "is_disabled": 0, "fusion_lat": 0.0, "bike_id": "d9624b2cf9c6cee85521248ed4671f0c", "rental_uris": {"ios": "https://dc.lft.to/lastmile_qr_scan", "android": "https://dc.lft.to/lastmile_qr_scan"}}, {"name": "07ef482b15a9266cd64d45c4e6288e44", "type": "electric_scooter", "lat": 38.89510516666667, "is_reserved": 0, "lon": -77.00338616666667, "fusion_lon": 0.0, "is_disabled": 0, "fusion_lat": 0.0, "bike_id": "07ef482b15a9266cd64d45c4e6288e44", "rental_uris": {"ios": "https://dc.lft.to/lastmile_qr_scan", "android": "https://dc.lft.to/lastmile_qr_scan"}}, {"name": "5ad7063c066f9800c4af45ef3599fc99", "type": "electric_scooter", "lat": 38.88497383333333, "is_reserved": 0, "lon": -77.007263, "fusion_lon": 0.0, "is_disabled": 0, "fusion_lat": 0.0, "bike_id": "5ad7063c066f9800c4af45ef3599fc99", "rental_uris": {"ios": "https://dc.lft.to/lastmile_qr_scan", "android": "https://dc.lft.to/lastmile_qr_scan"}}, {"name": "3a375dcdafdb0df7e21f291121431fdd", "type": "electric_scooter", "lat": 38.907916666666665, "is_reserved": 0, "lon": -77.00962916666667, "fusion_lon": 0.0, "is_disabled": 0, "fusion_lat": 0.0, "bike_id": "3a375dcdafdb0df7e21f291121431fdd", "rental_uris": {"ios": "https://dc.lft.to/lastmile_qr_scan", "android": "https://dc.lft.to/lastmile_qr_scan"}}, {"name": "55bf45b217f7bf8283f2b1cd51e1b44c", "type": "electric_scooter", "lat": 38.91914, "is_reserved": 0, "lon": -77.01345616666667, "fusion_lon": 0.0, "is_disabled": 0, "fusion_lat": 0.0, "bike_id": "55bf45b217f7bf8283f2b1cd51e1b44c", "rental_uris": {"ios": "https://dc.lft.to/lastmile_qr_scan", "android": "https://dc.lft.to/lastmile_qr_scan"}}, {"name": "6fb96ee66b30b81ce65bab245e547c26", "type": "electric_scooter", "lat": 38.87836883333333, "is_reserved": 0, "lon": -76.99038483333334, "fusion_lon": 0.0, "is_disabled": 0, "fusion_lat": 0.0, "bike_id": "6fb96ee66b30b81ce65bab245e547c26", "rental_uris": {"ios": "https://dc.lft.to/lastmile_qr_scan", "android": "https://dc.lft.to/lastmile_qr_scan"}}, {"name": "5952a8d0bf5fb933043db16ff9ec96e1", "type": "electric_scooter", "lat": 38.9102235, "is_reserved": 0, "lon": -77.00918833333333, "fusion_lon": 0.0, "is_disabled": 0, "fusion_lat": 0.0, "bike_id": "5952a8d0bf5fb933043db16ff9ec96e1", "rental_uris": {"ios": "https://dc.lft.to/lastmile_qr_scan", "android": "https://dc.lft.to/lastmile_qr_scan"}}, {"name": "92b4256ef3ff342bc274a572ebb1bde5", "type": "electric_scooter", "lat": 38.902978, "is_reserved": 0, "lon": -76.99854466666666, "fusion_lon": 0.0, "is_disabled": 0, "fusion_lat": 0.0, "bike_id": "92b4256ef3ff342bc274a572ebb1bde5", "rental_uris": {"ios": "https://dc.lft.to/lastmile_qr_scan", "android": "https://dc.lft.to/lastmile_qr_scan"}}, {"name": "a80b42ab0dc3870ce6ce80cc76360d11", "type": "electric_scooter", "lat": 38.9348955, "is_reserved": 0, "lon": -77.03287916666666, "fusion_lon": 0.0, "is_disabled": 0, "fusion_lat": 0.0, "bike_id": "a80b42ab0dc3870ce6ce80cc76360d11", "rental_uris": {"ios": "https://dc.lft.to/lastmile_qr_scan", "android": "https://dc.lft.to/lastmile_qr_scan"}}, {"name": "1ed9eff23ba44b5627e2d2f2cc0c5982", "type": "electric_scooter", "lat": 38.917350666666664, "is_reserved": 0, "lon": -77.068466, "fusion_lon": 0.0, "is_disabled": 0, "fusion_lat": 0.0, "bike_id": "1ed9eff23ba44b5627e2d2f2cc0c5982", "rental_uris": {"ios": "https://dc.lft.to/lastmile_qr_scan", "android": "https://dc.lft.to/lastmile_qr_scan"}}, {"name": "7d2fe69b3dbfec18f6789713f8d0df90", "type": "electric_scooter", "lat": 38.876298166666665, "is_reserved": 0, "lon": -76.96527783333333, "fusion_lon": 0.0, "is_disabled": 0, "fusion_lat": 0.0, "bike_id": "7d2fe69b3dbfec18f6789713f8d0df90", "rental_uris": {"ios": "https://dc.lft.to/lastmile_qr_scan", "android": "https://dc.lft.to/lastmile_qr_scan"}}, {"name": "ad6ae0cc3ef17af2aded4c2210ec7411", "type": "electric_scooter", "lat": 38.90565216666667, "is_reserved": 0, "lon": -77.00600933333334, "fusion_lon": 0.0, "is_disabled": 0, "fusion_lat": 0.0, "bike_id": "ad6ae0cc3ef17af2aded4c2210ec7411", "rental_uris": {"ios": "https://dc.lft.to/lastmile_qr_scan", "android": "https://dc.lft.to/lastmile_qr_scan"}}, {"name": "5e08261f666fd99469d15444eb3268e0", "type": "electric_scooter", "lat": 38.856176166666664, "is_reserved": 0, "lon": -76.98020233333334, "fusion_lon": 0.0, "is_disabled": 0, "fusion_lat": 0.0, "bike_id": "5e08261f666fd99469d15444eb3268e0", "rental_uris": {"ios": "https://dc.lft.to/lastmile_qr_scan", "android": "https://dc.lft.to/lastmile_qr_scan"}}, {"name": "48075c728af02e9698854cdf0762945d", "type": "electric_scooter", "lat": 38.895832666666664, "is_reserved": 0, "lon": -76.93726166666667, "fusion_lon": 0.0, "is_disabled": 0, "fusion_lat": 0.0, "bike_id": "48075c728af02e9698854cdf0762945d", "rental_uris": {"ios": "https://dc.lft.to/lastmile_qr_scan", "android": "https://dc.lft.to/lastmile_qr_scan"}}, {"name": "56626f107d6e65a6eef8a04b68fcc0ef", "type": "electric_scooter", "lat": 38.91274533333333, "is_reserved": 0, "lon": -77.06091816666667, "fusion_lon": 0.0, "is_disabled": 0, "fusion_lat": 0.0, "bike_id": "56626f107d6e65a6eef8a04b68fcc0ef", "rental_uris": {"ios": "https://dc.lft.to/lastmile_qr_scan", "android": "https://dc.lft.to/lastmile_qr_scan"}}, {"name": "8679b71f473e3deba63ff4389adb6862", "type": "electric_scooter", "lat": 38.84292966666667, "is_reserved": 0, "lon": -76.99945883333334, "fusion_lon": 0.0, "is_disabled": 0, "fusion_lat": 0.0, "bike_id": "8679b71f473e3deba63ff4389adb6862", "rental_uris": {"ios": "https://dc.lft.to/lastmile_qr_scan", "android": "https://dc.lft.to/lastmile_qr_scan"}}, {"name": "7a0a85813235a9943a2c937764a5a677", "type": "electric_scooter", "lat": 38.904497666666664, "is_reserved": 0, "lon": -76.996209, "fusion_lon": 0.0, "is_disabled": 0, "fusion_lat": 0.0, "bike_id": "7a0a85813235a9943a2c937764a5a677", "rental_uris": {"ios": "https://dc.lft.to/lastmile_qr_scan", "android": "https://dc.lft.to/lastmile_qr_scan"}}, {"name": "bb816ae25039f8d404dd8e47ae863793", "type": "electric_scooter", "lat": 38.95104883333333, "is_reserved": 0, "lon": -77.01581466666667, "fusion_lon": 0.0, "is_disabled": 0, "fusion_lat": 0.0, "bike_id": "bb816ae25039f8d404dd8e47ae863793", "rental_uris": {"ios": "https://dc.lft.to/lastmile_qr_scan", "android": "https://dc.lft.to/lastmile_qr_scan"}}, {"name": "c701fc1b875c3f5bd889998d3ce2b9cf", "type": "electric_scooter", "lat": 38.940145666666666, "is_reserved": 0, "lon": -77.0717185, "fusion_lon": 0.0, "is_disabled": 0, "fusion_lat": 0.0, "bike_id": "c701fc1b875c3f5bd889998d3ce2b9cf", "rental_uris": {"ios": "https://dc.lft.to/lastmile_qr_scan", "android": "https://dc.lft.to/lastmile_qr_scan"}}, {"name": "20e5c7d6bd30890fcb74e4b28433ac11", "type": "electric_scooter", "lat": 38.913495166666664, "is_reserved": 0, "lon": -77.0207895, "fusion_lon": 0.0, "is_disabled": 0, "fusion_lat": 0.0, "bike_id": "20e5c7d6bd30890fcb74e4b28433ac11", "rental_uris": {"ios": "https://dc.lft.to/lastmile_qr_scan", "android": "https://dc.lft.to/lastmile_qr_scan"}}, {"name": "30d85d73a2bfcc920246eb25b4e57955", "type": "electric_scooter", "lat": 38.9573445, "is_reserved": 0, "lon": -77.0240825, "fusion_lon": 0.0, "is_disabled": 0, "fusion_lat": 0.0, "bike_id": "30d85d73a2bfcc920246eb25b4e57955", "rental_uris": {"ios": "https://dc.lft.to/lastmile_qr_scan", "android": "https://dc.lft.to/lastmile_qr_scan"}}, {"name": "c6cdc241bebf73a433cbd9c96f965d7b", "type": "electric_scooter", "lat": 38.903969833333335, "is_reserved": 0, "lon": -77.04049683333334, "fusion_lon": 0.0, "is_disabled": 0, "fusion_lat": 0.0, "bike_id": "c6cdc241bebf73a433cbd9c96f965d7b", "rental_uris": {"ios": "https://dc.lft.to/lastmile_qr_scan", "android": "https://dc.lft.to/lastmile_qr_scan"}}, {"name": "91b9712cdf9bf3587293538016cb117c", "type": "electric_scooter", "lat": 38.9171355, "is_reserved": 0, "lon": -77.038597, "fusion_lon": 0.0, "is_disabled": 0, "fusion_lat": 0.0, "bike_id": "91b9712cdf9bf3587293538016cb117c", "rental_uris": {"ios": "https://dc.lft.to/lastmile_qr_scan", "android": "https://dc.lft.to/lastmile_qr_scan"}}, {"name": "fc57983c6ce869ee4a83253866830198", "type": "electric_scooter", "lat": 38.916985333333336, "is_reserved": 0, "lon": -77.00813266666667, "fusion_lon": 0.0, "is_disabled": 0, "fusion_lat": 0.0, "bike_id": "fc57983c6ce869ee4a83253866830198", "rental_uris": {"ios": "https://dc.lft.to/lastmile_qr_scan", "android": "https://dc.lft.to/lastmile_qr_scan"}}, {"name": "140704de7e9f28b17d61b15af49bf460", "type": "electric_scooter", "lat": 38.949914, "is_reserved": 0, "lon": -77.06688116666666, "fusion_lon": 0.0, "is_disabled": 0, "fusion_lat": 0.0, "bike_id": "140704de7e9f28b17d61b15af49bf460", "rental_uris": {"ios": "https://dc.lft.to/lastmile_qr_scan", "android": "https://dc.lft.to/lastmile_qr_scan"}}, {"name": "fe922e0ab9eb0b9da5e67ae1f613dc1e", "type": "electric_scooter", "lat": 38.90279866666667, "is_reserved": 0, "lon": -77.03646933333333, "fusion_lon": 0.0, "is_disabled": 0, "fusion_lat": 0.0, "bike_id": "fe922e0ab9eb0b9da5e67ae1f613dc1e", "rental_uris": {"ios": "https://dc.lft.to/lastmile_qr_scan", "android": "https://dc.lft.to/lastmile_qr_scan"}}, {"name": "04aa1fa5f956048183dc026a8641c25a", "type": "electric_scooter", "lat": 38.894750333333334, "is_reserved": 0, "lon": -76.98596216666667, "fusion_lon": 0.0, "is_disabled": 0, "fusion_lat": 0.0, "bike_id": "04aa1fa5f956048183dc026a8641c25a", "rental_uris": {"ios": "https://dc.lft.to/lastmile_qr_scan", "android": "https://dc.lft.to/lastmile_qr_scan"}}, {"name": "f396574d8f57e57300bf022f6cc445b1", "type": "electric_bike", "lat": 38.8506315, "is_reserved": 0, "lon": -76.97333216666667, "fusion_lon": 0.0, "is_disabled": 0, "fusion_lat": 0.0, "bike_id": "f396574d8f57e57300bf022f6cc445b1", "rental_uris": {"ios": "https://dc.lft.to/lastmile_qr_scan", "android": "https://dc.lft.to/lastmile_qr_scan"}}, {"name": "ea1e1b95f1bffb775ec398ab9c0fd10a", "type": "electric_scooter", "lat": 38.930871833333335, "is_reserved": 0, "lon": -77.025094, "fusion_lon": 0.0, "is_disabled": 0, "fusion_lat": 0.0, "bike_id": "ea1e1b95f1bffb775ec398ab9c0fd10a", "rental_uris": {"ios": "https://dc.lft.to/lastmile_qr_scan", "android": "https://dc.lft.to/lastmile_qr_scan"}}, {"name": "92e02f012368a3d33d3f217fa83e9be4", "type": "electric_scooter", "lat": 38.90724, "is_reserved": 0, "lon": -76.98601633333334, "fusion_lon": 0.0, "is_disabled": 0, "fusion_lat": 0.0, "bike_id": "92e02f012368a3d33d3f217fa83e9be4", "rental_uris": {"ios": "https://dc.lft.to/lastmile_qr_scan", "android": "https://dc.lft.to/lastmile_qr_scan"}}, {"name": "83a6c94951893998c8029bac4b613080", "type": "electric_scooter", "lat": 38.94248783333333, "is_reserved": 0, "lon": -77.02176866666667, "fusion_lon": 0.0, "is_disabled": 0, "fusion_lat": 0.0, "bike_id": "83a6c94951893998c8029bac4b613080", "rental_uris": {"ios": "https://dc.lft.to/lastmile_qr_scan", "android": "https://dc.lft.to/lastmile_qr_scan"}}, {"name": "d4f00fe3850697f42af4a2d94244ec4c", "type": "electric_scooter", "lat": 38.90368266666667, "is_reserved": 0, "lon": -77.044859, "fusion_lon": 0.0, "is_disabled": 0, "fusion_lat": 0.0, "bike_id": "d4f00fe3850697f42af4a2d94244ec4c", "rental_uris": {"ios": "https://dc.lft.to/lastmile_qr_scan", "android": "https://dc.lft.to/lastmile_qr_scan"}}, {"name": "9384f44fdd72a49ea501f9d49fdee5e0", "type": "electric_scooter", "lat": 38.905552666666665, "is_reserved": 0, "lon": -77.00578416666667, "fusion_lon": 0.0, "is_disabled": 0, "fusion_lat": 0.0, "bike_id": "9384f44fdd72a49ea501f9d49fdee5e0", "rental_uris": {"ios": "https://dc.lft.to/lastmile_qr_scan", "android": "https://dc.lft.to/lastmile_qr_scan"}}, {"name": "8ff22005707f34bc9da7374f918cac3b", "type": "electric_scooter", "lat": 38.9297655, "is_reserved": 0, "lon": -77.02347366666666, "fusion_lon": 0.0, "is_disabled": 0, "fusion_lat": 0.0, "bike_id": "8ff22005707f34bc9da7374f918cac3b", "rental_uris": {"ios": "https://dc.lft.to/lastmile_qr_scan", "android": "https://dc.lft.to/lastmile_qr_scan"}}, {"name": "25c3e03a627c2be42c50529b9cb1b609", "type": "electric_scooter", "lat": 38.929297166666665, "is_reserved": 0, "lon": -77.0234, "fusion_lon": 0.0, "is_disabled": 0, "fusion_lat": 0.0, "bike_id": "25c3e03a627c2be42c50529b9cb1b609", "rental_uris": {"ios": "https://dc.lft.to/lastmile_qr_scan", "android": "https://dc.lft.to/lastmile_qr_scan"}}, {"name": "b0c8757365ac039ef3d6d7e4c8cdfff3", "type": "electric_scooter", "lat": 38.907309166666664, "is_reserved": 0, "lon": -77.0113615, "fusion_lon": 0.0, "is_disabled": 0, "fusion_lat": 0.0, "bike_id": "b0c8757365ac039ef3d6d7e4c8cdfff3", "rental_uris": {"ios": "https://dc.lft.to/lastmile_qr_scan", "android": "https://dc.lft.to/lastmile_qr_scan"}}, {"name": "fc0329e1021ac94150fb6abc9df35fae", "type": "electric_scooter", "lat": 38.903294333333335, "is_reserved": 0, "lon": -76.98981883333333, "fusion_lon": 0.0, "is_disabled": 0, "fusion_lat": 0.0, "bike_id": "fc0329e1021ac94150fb6abc9df35fae", "rental_uris": {"ios": "https://dc.lft.to/lastmile_qr_scan", "android": "https://dc.lft.to/lastmile_qr_scan"}}, {"name": "03cb52baf5d3dc5dea70993955f5f602", "type": "electric_scooter", "lat": 38.92161866666667, "is_reserved": 0, "lon": -77.03384233333334, "fusion_lon": 0.0, "is_disabled": 0, "fusion_lat": 0.0, "bike_id": "03cb52baf5d3dc5dea70993955f5f602", "rental_uris": {"ios": "https://dc.lft.to/lastmile_qr_scan", "android": "https://dc.lft.to/lastmile_qr_scan"}}, {"name": "f469a510593ef8a5cb0cacfda2715f48", "type": "electric_scooter", "lat": 38.90256933333333, "is_reserved": 0, "lon": -77.03216483333334, "fusion_lon": 0.0, "is_disabled": 0, "fusion_lat": 0.0, "bike_id": "f469a510593ef8a5cb0cacfda2715f48", "rental_uris": {"ios": "https://dc.lft.to/lastmile_qr_scan", "android": "https://dc.lft.to/lastmile_qr_scan"}}, {"name": "422f7b8d2e13cd18b7a29a2d5205665a", "type": "electric_scooter", "lat": 38.922169, "is_reserved": 0, "lon": -77.042405, "fusion_lon": 0.0, "is_disabled": 0, "fusion_lat": 0.0, "bike_id": "422f7b8d2e13cd18b7a29a2d5205665a", "rental_uris": {"ios": "https://dc.lft.to/lastmile_qr_scan", "android": "https://dc.lft.to/lastmile_qr_scan"}}, {"name": "a6fd0818255031f86c011988827689c2", "type": "electric_scooter", "lat": 38.91122333333333, "is_reserved": 0, "lon": -77.0182145, "fusion_lon": 0.0, "is_disabled": 0, "fusion_lat": 0.0, "bike_id": "a6fd0818255031f86c011988827689c2", "rental_uris": {"ios": "https://dc.lft.to/lastmile_qr_scan", "android": "https://dc.lft.to/lastmile_qr_scan"}}, {"name": "523f6ed439f990c3771b390da9d580fe", "type": "electric_scooter", "lat": 38.88608083333333, "is_reserved": 0, "lon": -76.99513216666666, "fusion_lon": 0.0, "is_disabled": 0, "fusion_lat": 0.0, "bike_id": "523f6ed439f990c3771b390da9d580fe", "rental_uris": {"ios": "https://dc.lft.to/lastmile_qr_scan", "android": "https://dc.lft.to/lastmile_qr_scan"}}, {"name": "da1ea8f8ade794d78c06232ab84dd89c", "type": "electric_scooter", "lat": 38.882202666666664, "is_reserved": 0, "lon": -76.941824, "fusion_lon": 0.0, "is_disabled": 0, "fusion_lat": 0.0, "bike_id": "da1ea8f8ade794d78c06232ab84dd89c", "rental_uris": {"ios": "https://dc.lft.to/lastmile_qr_scan", "android": "https://dc.lft.to/lastmile_qr_scan"}}, {"name": "f5d424548c401d79bf2a4259e22daa35", "type": "electric_bike", "lat": 38.870849666666665, "is_reserved": 0, "lon": -77.0121265, "fusion_lon": 0.0, "is_disabled": 0, "fusion_lat": 0.0, "bike_id": "f5d424548c401d79bf2a4259e22daa35", "rental_uris": {"ios": "https://dc.lft.to/lastmile_qr_scan", "android": "https://dc.lft.to/lastmile_qr_scan"}}, {"name": "66b998e9ef32c3f62ae361c0cc51b697", "type": "electric_scooter", "lat": 38.90242116666667, "is_reserved": 0, "lon": -77.00205233333334, "fusion_lon": 0.0, "is_disabled": 0, "fusion_lat": 0.0, "bike_id": "66b998e9ef32c3f62ae361c0cc51b697", "rental_uris": {"ios": "https://dc.lft.to/lastmile_qr_scan", "android": "https://dc.lft.to/lastmile_qr_scan"}}, {"name": "d3fc4c2dbcf79e28b5a2fa63c0cfadad", "type": "electric_bike", "lat": 38.9368775, "is_reserved": 0, "lon": -77.05647916666666, "fusion_lon": 0.0, "is_disabled": 0, "fusion_lat": 0.0, "bike_id": "d3fc4c2dbcf79e28b5a2fa63c0cfadad", "rental_uris": {"ios": "https://dc.lft.to/lastmile_qr_scan", "android": "https://dc.lft.to/lastmile_qr_scan"}}, {"name": "1c8c09ec2fb5d710721ecd1a5e96c532", "type": "electric_scooter", "lat": 38.90623566666667, "is_reserved": 0, "lon": -76.9831505, "fusion_lon": 0.0, "is_disabled": 0, "fusion_lat": 0.0, "bike_id": "1c8c09ec2fb5d710721ecd1a5e96c532", "rental_uris": {"ios": "https://dc.lft.to/lastmile_qr_scan", "android": "https://dc.lft.to/lastmile_qr_scan"}}, {"name": "b4392b5569af8d1dacc0e27c50f860b0", "type": "electric_bike", "lat": 38.937022, "is_reserved": 0, "lon": -77.029806, "fusion_lon": 0.0, "is_disabled": 0, "fusion_lat": 0.0, "bike_id": "b4392b5569af8d1dacc0e27c50f860b0", "rental_uris": {"ios": "https://dc.lft.to/lastmile_qr_scan", "android": "https://dc.lft.to/lastmile_qr_scan"}}, {"name": "bdf6816c322fe32cf02958fde8f7a009", "type": "electric_scooter", "lat": 38.8609485, "is_reserved": 0, "lon": -76.98376933333333, "fusion_lon": 0.0, "is_disabled": 0, "fusion_lat": 0.0, "bike_id": "bdf6816c322fe32cf02958fde8f7a009", "rental_uris": {"ios": "https://dc.lft.to/lastmile_qr_scan", "android": "https://dc.lft.to/lastmile_qr_scan"}}, {"name": "6e9d32925536b8aee4a2af8ac1c8b398", "type": "electric_scooter", "lat": 38.89106116666667, "is_reserved": 0, "lon": -76.9870435, "fusion_lon": 0.0, "is_disabled": 0, "fusion_lat": 0.0, "bike_id": "6e9d32925536b8aee4a2af8ac1c8b398", "rental_uris": {"ios": "https://dc.lft.to/lastmile_qr_scan", "android": "https://dc.lft.to/lastmile_qr_scan"}}, {"name": "70d5b4593c165dc55cd960fd91cc758b", "type": "electric_scooter", "lat": 38.923647, "is_reserved": 0, "lon": -77.0503215, "fusion_lon": 0.0, "is_disabled": 0, "fusion_lat": 0.0, "bike_id": "70d5b4593c165dc55cd960fd91cc758b", "rental_uris": {"ios": "https://dc.lft.to/lastmile_qr_scan", "android": "https://dc.lft.to/lastmile_qr_scan"}}, {"name": "ce2bcab2db5130a56ce1e268f6a7ef8a", "type": "electric_bike", "lat": 38.895635, "is_reserved": 0, "lon": -77.12735633333334, "fusion_lon": 0.0, "is_disabled": 0, "fusion_lat": 0.0, "bike_id": "ce2bcab2db5130a56ce1e268f6a7ef8a", "rental_uris": {"ios": "https://dc.lft.to/lastmile_qr_scan", "android": "https://dc.lft.to/lastmile_qr_scan"}}, {"name": "db9ffffac2fc699b59b69b536bd0e354", "type": "electric_scooter", "lat": 38.899705833333336, "is_reserved": 0, "lon": -77.05095983333334, "fusion_lon": 0.0, "is_disabled": 0, "fusion_lat": 0.0, "bike_id": "db9ffffac2fc699b59b69b536bd0e354", "rental_uris": {"ios": "https://dc.lft.to/lastmile_qr_scan", "android": "https://dc.lft.to/lastmile_qr_scan"}}, {"name": "ac0b2744814c03a9ef9d18c1890bc645", "type": "electric_scooter", "lat": 38.898342, "is_reserved": 0, "lon": -77.043604, "fusion_lon": 0.0, "is_disabled": 0, "fusion_lat": 0.0, "bike_id": "ac0b2744814c03a9ef9d18c1890bc645", "rental_uris": {"ios": "https://dc.lft.to/lastmile_qr_scan", "android": "https://dc.lft.to/lastmile_qr_scan"}}, {"name": "018fbbe8669a15a9bb2c2260ebf5f4f1", "type": "electric_scooter", "lat": 38.90795583333333, "is_reserved": 0, "lon": -77.04826333333334, "fusion_lon": 0.0, "is_disabled": 0, "fusion_lat": 0.0, "bike_id": "018fbbe8669a15a9bb2c2260ebf5f4f1", "rental_uris": {"ios": "https://dc.lft.to/lastmile_qr_scan", "android": "https://dc.lft.to/lastmile_qr_scan"}}, {"name": "d55cee01738cc3ccf6006e53499c1d6f", "type": "electric_scooter", "lat": 38.902367166666664, "is_reserved": 0, "lon": -77.03659016666667, "fusion_lon": 0.0, "is_disabled": 0, "fusion_lat": 0.0, "bike_id": "d55cee01738cc3ccf6006e53499c1d6f", "rental_uris": {"ios": "https://dc.lft.to/lastmile_qr_scan", "android": "https://dc.lft.to/lastmile_qr_scan"}}, {"name": "f7f517c53252782210f874f9b63a182b", "type": "electric_scooter", "lat": 38.95089866666667, "is_reserved": 0, "lon": -77.02867216666667, "fusion_lon": 0.0, "is_disabled": 0, "fusion_lat": 0.0, "bike_id": "f7f517c53252782210f874f9b63a182b", "rental_uris": {"ios": "https://dc.lft.to/lastmile_qr_scan", "android": "https://dc.lft.to/lastmile_qr_scan"}}, {"name": "fd4c0d18d55913ffb9ce77d762fbd2ad", "type": "electric_scooter", "lat": 38.90973116666667, "is_reserved": 0, "lon": -77.036666, "fusion_lon": 0.0, "is_disabled": 0, "fusion_lat": 0.0, "bike_id": "fd4c0d18d55913ffb9ce77d762fbd2ad", "rental_uris": {"ios": "https://dc.lft.to/lastmile_qr_scan", "android": "https://dc.lft.to/lastmile_qr_scan"}}, {"name": "24c7225ac350b7916dd012307a8f074c", "type": "electric_scooter", "lat": 38.9026865, "is_reserved": 0, "lon": -77.05314033333333, "fusion_lon": 0.0, "is_disabled": 0, "fusion_lat": 0.0, "bike_id": "24c7225ac350b7916dd012307a8f074c", "rental_uris": {"ios": "https://dc.lft.to/lastmile_qr_scan", "android": "https://dc.lft.to/lastmile_qr_scan"}}, {"name": "a3013539f4d2238954e94b21a6b7e057", "type": "electric_scooter", "lat": 38.92749116666667, "is_reserved": 0, "lon": -77.02482083333334, "fusion_lon": 0.0, "is_disabled": 0, "fusion_lat": 0.0, "bike_id": "a3013539f4d2238954e94b21a6b7e057", "rental_uris": {"ios": "https://dc.lft.to/lastmile_qr_scan", "android": "https://dc.lft.to/lastmile_qr_scan"}}, {"name": "f9ffee649bd877740310c10913f3c68e", "type": "electric_scooter", "lat": 38.903527, "is_reserved": 0, "lon": -77.00735516666667, "fusion_lon": 0.0, "is_disabled": 0, "fusion_lat": 0.0, "bike_id": "f9ffee649bd877740310c10913f3c68e", "rental_uris": {"ios": "https://dc.lft.to/lastmile_qr_scan", "android": "https://dc.lft.to/lastmile_qr_scan"}}, {"name": "e490932fd2c062160e99c86d8bc35f75", "type": "electric_scooter", "lat": 38.91113633333333, "is_reserved": 0, "lon": -77.04929466666667, "fusion_lon": 0.0, "is_disabled": 0, "fusion_lat": 0.0, "bike_id": "e490932fd2c062160e99c86d8bc35f75", "rental_uris": {"ios": "https://dc.lft.to/lastmile_qr_scan", "android": "https://dc.lft.to/lastmile_qr_scan"}}, {"name": "206de2d82669758eb083af4aac3a3faa", "type": "electric_scooter", "lat": 38.90559833333333, "is_reserved": 0, "lon": -77.0057575, "fusion_lon": 0.0, "is_disabled": 0, "fusion_lat": 0.0, "bike_id": "206de2d82669758eb083af4aac3a3faa", "rental_uris": {"ios": "https://dc.lft.to/lastmile_qr_scan", "android": "https://dc.lft.to/lastmile_qr_scan"}}, {"name": "25a8dfd5a1bbdb9ebbf50cce643b5f37", "type": "electric_scooter", "lat": 38.90675516666667, "is_reserved": 0, "lon": -76.97810566666666, "fusion_lon": 0.0, "is_disabled": 0, "fusion_lat": 0.0, "bike_id": "25a8dfd5a1bbdb9ebbf50cce643b5f37", "rental_uris": {"ios": "https://dc.lft.to/lastmile_qr_scan", "android": "https://dc.lft.to/lastmile_qr_scan"}}, {"name": "3e28ef6febfc665ebfc4318e17c1135f", "type": "electric_scooter", "lat": 38.92442333333334, "is_reserved": 0, "lon": -77.0756275, "fusion_lon": 0.0, "is_disabled": 0, "fusion_lat": 0.0, "bike_id": "3e28ef6febfc665ebfc4318e17c1135f", "rental_uris": {"ios": "https://dc.lft.to/lastmile_qr_scan", "android": "https://dc.lft.to/lastmile_qr_scan"}}, {"name": "c96084fa85a69db43c9e1f0c258e2757", "type": "electric_scooter", "lat": 38.91020116666667, "is_reserved": 0, "lon": -77.0529145, "fusion_lon": 0.0, "is_disabled": 0, "fusion_lat": 0.0, "bike_id": "c96084fa85a69db43c9e1f0c258e2757", "rental_uris": {"ios": "https://dc.lft.to/lastmile_qr_scan", "android": "https://dc.lft.to/lastmile_qr_scan"}}, {"name": "3434b90d964996b053cdc228ec9419e7", "type": "electric_scooter", "lat": 38.934292666666664, "is_reserved": 0, "lon": -77.0340745, "fusion_lon": 0.0, "is_disabled": 0, "fusion_lat": 0.0, "bike_id": "3434b90d964996b053cdc228ec9419e7", "rental_uris": {"ios": "https://dc.lft.to/lastmile_qr_scan", "android": "https://dc.lft.to/lastmile_qr_scan"}}, {"name": "3a2f09b7ac44f16034a5ee304eecbbd4", "type": "electric_scooter", "lat": 38.921767833333334, "is_reserved": 0, "lon": -77.0424305, "fusion_lon": 0.0, "is_disabled": 0, "fusion_lat": 0.0, "bike_id": "3a2f09b7ac44f16034a5ee304eecbbd4", "rental_uris": {"ios": "https://dc.lft.to/lastmile_qr_scan", "android": "https://dc.lft.to/lastmile_qr_scan"}}, {"name": "ac6b71e1a42f26b01d7302e6314ae4d2", "type": "electric_scooter", "lat": 38.88039766666667, "is_reserved": 0, "lon": -76.9272285, "fusion_lon": 0.0, "is_disabled": 0, "fusion_lat": 0.0, "bike_id": "ac6b71e1a42f26b01d7302e6314ae4d2", "rental_uris": {"ios": "https://dc.lft.to/lastmile_qr_scan", "android": "https://dc.lft.to/lastmile_qr_scan"}}, {"name": "2fd8a633db5a16af19d8023cd1c19522", "type": "electric_bike", "lat": 38.83193383333333, "is_reserved": 0, "lon": -77.07684483333334, "fusion_lon": 0.0, "is_disabled": 0, "fusion_lat": 0.0, "bike_id": "2fd8a633db5a16af19d8023cd1c19522", "rental_uris": {"ios": "https://dc.lft.to/lastmile_qr_scan", "android": "https://dc.lft.to/lastmile_qr_scan"}}, {"name": "96c85012aad36520e5eba8402a6ff3f7", "type": "electric_scooter", "lat": 38.94274683333333, "is_reserved": 0, "lon": -77.0250475, "fusion_lon": 0.0, "is_disabled": 0, "fusion_lat": 0.0, "bike_id": "96c85012aad36520e5eba8402a6ff3f7", "rental_uris": {"ios": "https://dc.lft.to/lastmile_qr_scan", "android": "https://dc.lft.to/lastmile_qr_scan"}}, {"name": "07b5ea7c153116b82a89fc56a219c97c", "type": "electric_scooter", "lat": 38.905417, "is_reserved": 0, "lon": -77.029728, "fusion_lon": 0.0, "is_disabled": 0, "fusion_lat": 0.0, "bike_id": "07b5ea7c153116b82a89fc56a219c97c", "rental_uris": {"ios": "https://dc.lft.to/lastmile_qr_scan", "android": "https://dc.lft.to/lastmile_qr_scan"}}, {"name": "6f10a0587687c18e35bb36db3f6d8a98", "type": "electric_scooter", "lat": 38.910305, "is_reserved": 0, "lon": -77.03083283333333, "fusion_lon": 0.0, "is_disabled": 0, "fusion_lat": 0.0, "bike_id": "6f10a0587687c18e35bb36db3f6d8a98", "rental_uris": {"ios": "https://dc.lft.to/lastmile_qr_scan", "android": "https://dc.lft.to/lastmile_qr_scan"}}, {"name": "7588a9bc1b53d664264abc3afd22d4a2", "type": "electric_bike", "lat": 38.92466666666667, "is_reserved": 0, "lon": -77.2084175, "fusion_lon": 0.0, "is_disabled": 0, "fusion_lat": 0.0, "bike_id": "7588a9bc1b53d664264abc3afd22d4a2", "rental_uris": {"ios": "https://dc.lft.to/lastmile_qr_scan", "android": "https://dc.lft.to/lastmile_qr_scan"}}, {"name": "57a2d2b9fec96c737fc431afabb7a40c", "type": "electric_scooter", "lat": 38.93402116666667, "is_reserved": 0, "lon": -77.057466, "fusion_lon": 0.0, "is_disabled": 0, "fusion_lat": 0.0, "bike_id": "57a2d2b9fec96c737fc431afabb7a40c", "rental_uris": {"ios": "https://dc.lft.to/lastmile_qr_scan", "android": "https://dc.lft.to/lastmile_qr_scan"}}, {"name": "a425f12ff72dce1f63b31f996160102a", "type": "electric_bike", "lat": 38.92552466666667, "is_reserved": 0, "lon": -77.00138283333334, "fusion_lon": 0.0, "is_disabled": 0, "fusion_lat": 0.0, "bike_id": "a425f12ff72dce1f63b31f996160102a", "rental_uris": {"ios": "https://dc.lft.to/lastmile_qr_scan", "android": "https://dc.lft.to/lastmile_qr_scan"}}, {"name": "c9a98e965d440a63726c08432db1f640", "type": "electric_bike", "lat": 38.8919265, "is_reserved": 0, "lon": -77.12264433333333, "fusion_lon": 0.0, "is_disabled": 0, "fusion_lat": 0.0, "bike_id": "c9a98e965d440a63726c08432db1f640", "rental_uris": {"ios": "https://dc.lft.to/lastmile_qr_scan", "android": "https://dc.lft.to/lastmile_qr_scan"}}, {"name": "f132b89e9dee426654aa4c09241f6c8a", "type": "electric_scooter", "lat": 38.91919383333333, "is_reserved": 0, "lon": -77.0463295, "fusion_lon": 0.0, "is_disabled": 0, "fusion_lat": 0.0, "bike_id": "f132b89e9dee426654aa4c09241f6c8a", "rental_uris": {"ios": "https://dc.lft.to/lastmile_qr_scan", "android": "https://dc.lft.to/lastmile_qr_scan"}}, {"name": "4d15278a72ae660322731b93e1a74e71", "type": "electric_scooter", "lat": 38.909189166666664, "is_reserved": 0, "lon": -76.99269216666667, "fusion_lon": 0.0, "is_disabled": 0, "fusion_lat": 0.0, "bike_id": "4d15278a72ae660322731b93e1a74e71", "rental_uris": {"ios": "https://dc.lft.to/lastmile_qr_scan", "android": "https://dc.lft.to/lastmile_qr_scan"}}, {"name": "ca6f750d2a631cef28aae61215dee285", "type": "electric_bike", "lat": 38.95542733333333, "is_reserved": 0, "lon": -76.935355, "fusion_lon": 0.0, "is_disabled": 0, "fusion_lat": 0.0, "bike_id": "ca6f750d2a631cef28aae61215dee285", "rental_uris": {"ios": "https://dc.lft.to/lastmile_qr_scan", "android": "https://dc.lft.to/lastmile_qr_scan"}}, {"name": "f256209eaca28c5d18d449d6913b34c6", "type": "electric_scooter", "lat": 38.905484, "is_reserved": 0, "lon": -77.05054616666666, "fusion_lon": 0.0, "is_disabled": 0, "fusion_lat": 0.0, "bike_id": "f256209eaca28c5d18d449d6913b34c6", "rental_uris": {"ios": "https://dc.lft.to/lastmile_qr_scan", "android": "https://dc.lft.to/lastmile_qr_scan"}}, {"name": "53e77c392ce826644d520853685a6e5a", "type": "electric_scooter", "lat": 38.87661116666666, "is_reserved": 0, "lon": -77.01481083333333, "fusion_lon": 0.0, "is_disabled": 0, "fusion_lat": 0.0, "bike_id": "53e77c392ce826644d520853685a6e5a", "rental_uris": {"ios": "https://dc.lft.to/lastmile_qr_scan", "android": "https://dc.lft.to/lastmile_qr_scan"}}, {"name": "cef427d2290fb783ef4c50d2a2c7eab7", "type": "electric_scooter", "lat": 38.902015166666665, "is_reserved": 0, "lon": -77.02191916666666, "fusion_lon": 0.0, "is_disabled": 0, "fusion_lat": 0.0, "bike_id": "cef427d2290fb783ef4c50d2a2c7eab7", "rental_uris": {"ios": "https://dc.lft.to/lastmile_qr_scan", "android": "https://dc.lft.to/lastmile_qr_scan"}}, {"name": "702730a1379450e0e42dab42cb3b057f", "type": "electric_bike", "lat": 38.93674883333333, "is_reserved": 0, "lon": -76.9520825, "fusion_lon": 0.0, "is_disabled": 0, "fusion_lat": 0.0, "bike_id": "702730a1379450e0e42dab42cb3b057f", "rental_uris": {"ios": "https://dc.lft.to/lastmile_qr_scan", "android": "https://dc.lft.to/lastmile_qr_scan"}}, {"name": "04ac7b967d45538a718a3e8286742743", "type": "electric_scooter", "lat": 38.9119205, "is_reserved": 0, "lon": -77.032173, "fusion_lon": 0.0, "is_disabled": 0, "fusion_lat": 0.0, "bike_id": "04ac7b967d45538a718a3e8286742743", "rental_uris": {"ios": "https://dc.lft.to/lastmile_qr_scan", "android": "https://dc.lft.to/lastmile_qr_scan"}}, {"name": "f2c8464a37795397b77b25223e3187e3", "type": "electric_bike", "lat": 38.95469166666667, "is_reserved": 0, "lon": -76.99011583333333, "fusion_lon": 0.0, "is_disabled": 0, "fusion_lat": 0.0, "bike_id": "f2c8464a37795397b77b25223e3187e3", "rental_uris": {"ios": "https://dc.lft.to/lastmile_qr_scan", "android": "https://dc.lft.to/lastmile_qr_scan"}}, {"name": "5328ca2aa479a3c919a03c50e51ccf10", "type": "electric_scooter", "lat": 38.877136666666665, "is_reserved": 0, "lon": -77.018501, "fusion_lon": 0.0, "is_disabled": 0, "fusion_lat": 0.0, "bike_id": "5328ca2aa479a3c919a03c50e51ccf10", "rental_uris": {"ios": "https://dc.lft.to/lastmile_qr_scan", "android": "https://dc.lft.to/lastmile_qr_scan"}}, {"name": "ea01b6f7a1e036a404e0f6c497be5dfa", "type": "electric_scooter", "lat": 38.92880066666667, "is_reserved": 0, "lon": -77.04052766666666, "fusion_lon": 0.0, "is_disabled": 0, "fusion_lat": 0.0, "bike_id": "ea01b6f7a1e036a404e0f6c497be5dfa", "rental_uris": {"ios": "https://dc.lft.to/lastmile_qr_scan", "android": "https://dc.lft.to/lastmile_qr_scan"}}, {"name": "6c41cc202ed97ddb01cdb71ddd4b761c", "type": "electric_scooter", "lat": 38.9037175, "is_reserved": 0, "lon": -77.0163775, "fusion_lon": 0.0, "is_disabled": 0, "fusion_lat": 0.0, "bike_id": "6c41cc202ed97ddb01cdb71ddd4b761c", "rental_uris": {"ios": "https://dc.lft.to/lastmile_qr_scan", "android": "https://dc.lft.to/lastmile_qr_scan"}}, {"name": "885db1164f0e0c1f9c6b5311b299a578", "type": "electric_scooter", "lat": 38.9171665, "is_reserved": 0, "lon": -77.02290316666667, "fusion_lon": 0.0, "is_disabled": 0, "fusion_lat": 0.0, "bike_id": "885db1164f0e0c1f9c6b5311b299a578", "rental_uris": {"ios": "https://dc.lft.to/lastmile_qr_scan", "android": "https://dc.lft.to/lastmile_qr_scan"}}, {"name": "70fb7785c84bc3e936ccb27bdb6b76ad", "type": "electric_bike", "lat": 38.9185535, "is_reserved": 0, "lon": -76.96092066666667, "fusion_lon": 0.0, "is_disabled": 0, "fusion_lat": 0.0, "bike_id": "70fb7785c84bc3e936ccb27bdb6b76ad", "rental_uris": {"ios": "https://dc.lft.to/lastmile_qr_scan", "android": "https://dc.lft.to/lastmile_qr_scan"}}, {"name": "2e78802f27cf925fdbb91d13bc34b3aa", "type": "electric_bike", "lat": 38.90669466666667, "is_reserved": 0, "lon": -76.99964083333333, "fusion_lon": 0.0, "is_disabled": 0, "fusion_lat": 0.0, "bike_id": "2e78802f27cf925fdbb91d13bc34b3aa", "rental_uris": {"ios": "https://dc.lft.to/lastmile_qr_scan", "android": "https://dc.lft.to/lastmile_qr_scan"}}, {"name": "b4e2615f26af522d1305b9c01fc4f3d8", "type": "electric_scooter", "lat": 38.89918866666667, "is_reserved": 0, "lon": -76.933844, "fusion_lon": 0.0, "is_disabled": 0, "fusion_lat": 0.0, "bike_id": "b4e2615f26af522d1305b9c01fc4f3d8", "rental_uris": {"ios": "https://dc.lft.to/lastmile_qr_scan", "android": "https://dc.lft.to/lastmile_qr_scan"}}, {"name": "39d7fe9718c2016f07b526f803aeff5b", "type": "electric_scooter", "lat": 38.92317583333333, "is_reserved": 0, "lon": -77.04489416666667, "fusion_lon": 0.0, "is_disabled": 0, "fusion_lat": 0.0, "bike_id": "39d7fe9718c2016f07b526f803aeff5b", "rental_uris": {"ios": "https://dc.lft.to/lastmile_qr_scan", "android": "https://dc.lft.to/lastmile_qr_scan"}}, {"name": "1acd3682c0fb2eb1e42483e366dc8412", "type": "electric_scooter", "lat": 38.92246516666667, "is_reserved": 0, "lon": -77.04127683333333, "fusion_lon": 0.0, "is_disabled": 0, "fusion_lat": 0.0, "bike_id": "1acd3682c0fb2eb1e42483e366dc8412", "rental_uris": {"ios": "https://dc.lft.to/lastmile_qr_scan", "android": "https://dc.lft.to/lastmile_qr_scan"}}, {"name": "473b65b622f23249807c8be6dc2c2ca4", "type": "electric_scooter", "lat": 38.89243966666667, "is_reserved": 0, "lon": -77.03195816666667, "fusion_lon": 0.0, "is_disabled": 0, "fusion_lat": 0.0, "bike_id": "473b65b622f23249807c8be6dc2c2ca4", "rental_uris": {"ios": "https://dc.lft.to/lastmile_qr_scan", "android": "https://dc.lft.to/lastmile_qr_scan"}}, {"name": "5f6bd32ed6db28dae685b56d7c19b4f1", "type": "electric_bike", "lat": 38.8797865, "is_reserved": 0, "lon": -76.91601816666666, "fusion_lon": 0.0, "is_disabled": 0, "fusion_lat": 0.0, "bike_id": "5f6bd32ed6db28dae685b56d7c19b4f1", "rental_uris": {"ios": "https://dc.lft.to/lastmile_qr_scan", "android": "https://dc.lft.to/lastmile_qr_scan"}}, {"name": "5e710cd3200f494b1a121353d3572772", "type": "electric_scooter", "lat": 38.9089305, "is_reserved": 0, "lon": -77.08669933333333, "fusion_lon": 0.0, "is_disabled": 0, "fusion_lat": 0.0, "bike_id": "5e710cd3200f494b1a121353d3572772", "rental_uris": {"ios": "https://dc.lft.to/lastmile_qr_scan", "android": "https://dc.lft.to/lastmile_qr_scan"}}, {"name": "31c8a7e402ad8692f42478337c67107f", "type": "electric_bike", "lat": 38.824533, "is_reserved": 0, "lon": -77.07043983333334, "fusion_lon": 0.0, "is_disabled": 0, "fusion_lat": 0.0, "bike_id": "31c8a7e402ad8692f42478337c67107f", "rental_uris": {"ios": "https://dc.lft.to/lastmile_qr_scan", "android": "https://dc.lft.to/lastmile_qr_scan"}}, {"name": "546fb0f9eaf7617b64461ef9dd95b932", "type": "electric_scooter", "lat": 38.91767133333333, "is_reserved": 0, "lon": -77.02708633333333, "fusion_lon": 0.0, "is_disabled": 0, "fusion_lat": 0.0, "bike_id": "546fb0f9eaf7617b64461ef9dd95b932", "rental_uris": {"ios": "https://dc.lft.to/lastmile_qr_scan", "android": "https://dc.lft.to/lastmile_qr_scan"}}, {"name": "8287562abfc240b21ac69b76f1063df6", "type": "electric_bike", "lat": 38.88085266666667, "is_reserved": 0, "lon": -76.98533983333333, "fusion_lon": 0.0, "is_disabled": 0, "fusion_lat": 0.0, "bike_id": "8287562abfc240b21ac69b76f1063df6", "rental_uris": {"ios": "https://dc.lft.to/lastmile_qr_scan", "android": "https://dc.lft.to/lastmile_qr_scan"}}, {"name": "e94003cfbb0e1e8012cc295d34439b06", "type": "electric_scooter", "lat": 38.9157365, "is_reserved": 0, "lon": -77.046146, "fusion_lon": 0.0, "is_disabled": 0, "fusion_lat": 0.0, "bike_id": "e94003cfbb0e1e8012cc295d34439b06", "rental_uris": {"ios": "https://dc.lft.to/lastmile_qr_scan", "android": "https://dc.lft.to/lastmile_qr_scan"}}, {"name": "632e092cde09040c93db701cdc4583c4", "type": "electric_scooter", "lat": 38.91707866666667, "is_reserved": 0, "lon": -77.03126733333333, "fusion_lon": 0.0, "is_disabled": 0, "fusion_lat": 0.0, "bike_id": "632e092cde09040c93db701cdc4583c4", "rental_uris": {"ios": "https://dc.lft.to/lastmile_qr_scan", "android": "https://dc.lft.to/lastmile_qr_scan"}}, {"name": "b540fb7fb07393fedc7a785955ccb289", "type": "electric_scooter", "lat": 38.88513316666667, "is_reserved": 0, "lon": -77.005684, "fusion_lon": 0.0, "is_disabled": 0, "fusion_lat": 0.0, "bike_id": "b540fb7fb07393fedc7a785955ccb289", "rental_uris": {"ios": "https://dc.lft.to/lastmile_qr_scan", "android": "https://dc.lft.to/lastmile_qr_scan"}}, {"name": "4f9d14fcef7d7dee696481a29957e686", "type": "electric_scooter", "lat": 38.9224485, "is_reserved": 0, "lon": -77.0309085, "fusion_lon": 0.0, "is_disabled": 0, "fusion_lat": 0.0, "bike_id": "4f9d14fcef7d7dee696481a29957e686", "rental_uris": {"ios": "https://dc.lft.to/lastmile_qr_scan", "android": "https://dc.lft.to/lastmile_qr_scan"}}, {"name": "5695a9b2dc343427a50b1a2cddb5cdf9", "type": "electric_scooter", "lat": 38.91404683333333, "is_reserved": 0, "lon": -77.00844633333334, "fusion_lon": 0.0, "is_disabled": 0, "fusion_lat": 0.0, "bike_id": "5695a9b2dc343427a50b1a2cddb5cdf9", "rental_uris": {"ios": "https://dc.lft.to/lastmile_qr_scan", "android": "https://dc.lft.to/lastmile_qr_scan"}}, {"name": "1c0a47af0c9f9bf4d297fe83987f5816", "type": "electric_scooter", "lat": 38.8981545, "is_reserved": 0, "lon": -77.03124383333333, "fusion_lon": 0.0, "is_disabled": 0, "fusion_lat": 0.0, "bike_id": "1c0a47af0c9f9bf4d297fe83987f5816", "rental_uris": {"ios": "https://dc.lft.to/lastmile_qr_scan", "android": "https://dc.lft.to/lastmile_qr_scan"}}, {"name": "921d12ad19539e5ab3aa118278688be2", "type": "electric_scooter", "lat": 38.895052, "is_reserved": 0, "lon": -77.01095583333333, "fusion_lon": 0.0, "is_disabled": 0, "fusion_lat": 0.0, "bike_id": "921d12ad19539e5ab3aa118278688be2", "rental_uris": {"ios": "https://dc.lft.to/lastmile_qr_scan", "android": "https://dc.lft.to/lastmile_qr_scan"}}, {"name": "ae327bb4ec48c849f2aa6448071721bf", "type": "electric_scooter", "lat": 38.903797833333336, "is_reserved": 0, "lon": -77.01745483333333, "fusion_lon": 0.0, "is_disabled": 0, "fusion_lat": 0.0, "bike_id": "ae327bb4ec48c849f2aa6448071721bf", "rental_uris": {"ios": "https://dc.lft.to/lastmile_qr_scan", "android": "https://dc.lft.to/lastmile_qr_scan"}}, {"name": "8d7af5b1802bf810aa012a07df582bda", "type": "electric_scooter", "lat": 38.902418, "is_reserved": 0, "lon": -77.0020215, "fusion_lon": 0.0, "is_disabled": 0, "fusion_lat": 0.0, "bike_id": "8d7af5b1802bf810aa012a07df582bda", "rental_uris": {"ios": "https://dc.lft.to/lastmile_qr_scan", "android": "https://dc.lft.to/lastmile_qr_scan"}}, {"name": "d53743215662877629ce4be56a17197d", "type": "electric_scooter", "lat": 38.903613166666666, "is_reserved": 0, "lon": -77.04472466666667, "fusion_lon": 0.0, "is_disabled": 0, "fusion_lat": 0.0, "bike_id": "d53743215662877629ce4be56a17197d", "rental_uris": {"ios": "https://dc.lft.to/lastmile_qr_scan", "android": "https://dc.lft.to/lastmile_qr_scan"}}, {"name": "253962a25871723b5a3cab7f30fc8ae8", "type": "electric_scooter", "lat": 38.908668666666664, "is_reserved": 0, "lon": -77.025052, "fusion_lon": 0.0, "is_disabled": 0, "fusion_lat": 0.0, "bike_id": "253962a25871723b5a3cab7f30fc8ae8", "rental_uris": {"ios": "https://dc.lft.to/lastmile_qr_scan", "android": "https://dc.lft.to/lastmile_qr_scan"}}, {"name": "d8dccc2096b16790cf45e63f6c4d87cd", "type": "electric_scooter", "lat": 38.90003516666667, "is_reserved": 0, "lon": -77.01113533333333, "fusion_lon": 0.0, "is_disabled": 0, "fusion_lat": 0.0, "bike_id": "d8dccc2096b16790cf45e63f6c4d87cd", "rental_uris": {"ios": "https://dc.lft.to/lastmile_qr_scan", "android": "https://dc.lft.to/lastmile_qr_scan"}}, {"name": "494e1dcaeba77de4a093da623aa828df", "type": "electric_scooter", "lat": 38.919152833333335, "is_reserved": 0, "lon": -77.031249, "fusion_lon": 0.0, "is_disabled": 0, "fusion_lat": 0.0, "bike_id": "494e1dcaeba77de4a093da623aa828df", "rental_uris": {"ios": "https://dc.lft.to/lastmile_qr_scan", "android": "https://dc.lft.to/lastmile_qr_scan"}}, {"name": "523b60fe33f1ace35bf91ef2d33a2ab1", "type": "electric_scooter", "lat": 38.89233516666667, "is_reserved": 0, "lon": -77.02205416666666, "fusion_lon": 0.0, "is_disabled": 0, "fusion_lat": 0.0, "bike_id": "523b60fe33f1ace35bf91ef2d33a2ab1", "rental_uris": {"ios": "https://dc.lft.to/lastmile_qr_scan", "android": "https://dc.lft.to/lastmile_qr_scan"}}, {"name": "9a67ad734b250b67253fa0f7737d0b2b", "type": "electric_scooter", "lat": 38.9171775, "is_reserved": 0, "lon": -77.03860816666666, "fusion_lon": 0.0, "is_disabled": 0, "fusion_lat": 0.0, "bike_id": "9a67ad734b250b67253fa0f7737d0b2b", "rental_uris": {"ios": "https://dc.lft.to/lastmile_qr_scan", "android": "https://dc.lft.to/lastmile_qr_scan"}}, {"name": "f71b532e8f37d542d365dbe2c4c7ccfe", "type": "electric_scooter", "lat": 38.90535966666667, "is_reserved": 0, "lon": -77.05918633333333, "fusion_lon": 0.0, "is_disabled": 0, "fusion_lat": 0.0, "bike_id": "f71b532e8f37d542d365dbe2c4c7ccfe", "rental_uris": {"ios": "https://dc.lft.to/lastmile_qr_scan", "android": "https://dc.lft.to/lastmile_qr_scan"}}, {"name": "28e67952257b313b6e1db9f23f9f5090", "type": "electric_bike", "lat": 38.990916666666664, "is_reserved": 0, "lon": -76.87496116666667, "fusion_lon": 0.0, "is_disabled": 0, "fusion_lat": 0.0, "bike_id": "28e67952257b313b6e1db9f23f9f5090", "rental_uris": {"ios": "https://dc.lft.to/lastmile_qr_scan", "android": "https://dc.lft.to/lastmile_qr_scan"}}, {"name": "6b7089099a1938958f62ad4b23232e89", "type": "electric_scooter", "lat": 38.876349833333336, "is_reserved": 0, "lon": -77.00920916666666, "fusion_lon": 0.0, "is_disabled": 0, "fusion_lat": 0.0, "bike_id": "6b7089099a1938958f62ad4b23232e89", "rental_uris": {"ios": "https://dc.lft.to/lastmile_qr_scan", "android": "https://dc.lft.to/lastmile_qr_scan"}}, {"name": "466e9e432c1347526840ac1a19c4beb4", "type": "electric_scooter", "lat": 38.8841425, "is_reserved": 0, "lon": -77.01531066666666, "fusion_lon": 0.0, "is_disabled": 0, "fusion_lat": 0.0, "bike_id": "466e9e432c1347526840ac1a19c4beb4", "rental_uris": {"ios": "https://dc.lft.to/lastmile_qr_scan", "android": "https://dc.lft.to/lastmile_qr_scan"}}, {"name": "bbeabf2b532cb542967cc6b0ce5a4d83", "type": "electric_scooter", "lat": 38.924437166666664, "is_reserved": 0, "lon": -77.033533, "fusion_lon": 0.0, "is_disabled": 0, "fusion_lat": 0.0, "bike_id": "bbeabf2b532cb542967cc6b0ce5a4d83", "rental_uris": {"ios": "https://dc.lft.to/lastmile_qr_scan", "android": "https://dc.lft.to/lastmile_qr_scan"}}, {"name": "4425ef12f9acfe9562ed31404ed402f9", "type": "electric_scooter", "lat": 38.9058095, "is_reserved": 0, "lon": -77.04854916666666, "fusion_lon": 0.0, "is_disabled": 0, "fusion_lat": 0.0, "bike_id": "4425ef12f9acfe9562ed31404ed402f9", "rental_uris": {"ios": "https://dc.lft.to/lastmile_qr_scan", "android": "https://dc.lft.to/lastmile_qr_scan"}}, {"name": "a5931ff44629e15de1715dc653f1b328", "type": "electric_bike", "lat": 38.82877033333333, "is_reserved": 0, "lon": -77.112205, "fusion_lon": 0.0, "is_disabled": 0, "fusion_lat": 0.0, "bike_id": "a5931ff44629e15de1715dc653f1b328", "rental_uris": {"ios": "https://dc.lft.to/lastmile_qr_scan", "android": "https://dc.lft.to/lastmile_qr_scan"}}, {"name": "036dd86707dc22331c73182f70829f96", "type": "electric_scooter", "lat": 38.918208666666665, "is_reserved": 0, "lon": -77.03442316666667, "fusion_lon": 0.0, "is_disabled": 0, "fusion_lat": 0.0, "bike_id": "036dd86707dc22331c73182f70829f96", "rental_uris": {"ios": "https://dc.lft.to/lastmile_qr_scan", "android": "https://dc.lft.to/lastmile_qr_scan"}}, {"name": "15c15c55bb3bbf558c5a9cd08d08c7a6", "type": "electric_scooter", "lat": 38.9038265, "is_reserved": 0, "lon": -77.04028766666667, "fusion_lon": 0.0, "is_disabled": 0, "fusion_lat": 0.0, "bike_id": "15c15c55bb3bbf558c5a9cd08d08c7a6", "rental_uris": {"ios": "https://dc.lft.to/lastmile_qr_scan", "android": "https://dc.lft.to/lastmile_qr_scan"}}, {"name": "a2ed3fb704c6c87eb3d7588db4e72323", "type": "electric_scooter", "lat": 38.9329825, "is_reserved": 0, "lon": -77.0280235, "fusion_lon": 0.0, "is_disabled": 0, "fusion_lat": 0.0, "bike_id": "a2ed3fb704c6c87eb3d7588db4e72323", "rental_uris": {"ios": "https://dc.lft.to/lastmile_qr_scan", "android": "https://dc.lft.to/lastmile_qr_scan"}}, {"name": "42ebbe81a7214e7be8a3bea6d0b083cd", "type": "electric_bike", "lat": 38.857994, "is_reserved": 0, "lon": -76.98752533333334, "fusion_lon": 0.0, "is_disabled": 0, "fusion_lat": 0.0, "bike_id": "42ebbe81a7214e7be8a3bea6d0b083cd", "rental_uris": {"ios": "https://dc.lft.to/lastmile_qr_scan", "android": "https://dc.lft.to/lastmile_qr_scan"}}, {"name": "b652771841733a15561b0f82e74a1310", "type": "electric_scooter", "lat": 38.92031466666667, "is_reserved": 0, "lon": -77.01118033333333, "fusion_lon": 0.0, "is_disabled": 0, "fusion_lat": 0.0, "bike_id": "b652771841733a15561b0f82e74a1310", "rental_uris": {"ios": "https://dc.lft.to/lastmile_qr_scan", "android": "https://dc.lft.to/lastmile_qr_scan"}}, {"name": "b0defd44e6d413b76002bfa35d8c2d44", "type": "electric_scooter", "lat": 38.915531333333334, "is_reserved": 0, "lon": -77.072747, "fusion_lon": 0.0, "is_disabled": 0, "fusion_lat": 0.0, "bike_id": "b0defd44e6d413b76002bfa35d8c2d44", "rental_uris": {"ios": "https://dc.lft.to/lastmile_qr_scan", "android": "https://dc.lft.to/lastmile_qr_scan"}}, {"name": "4255f9c6822f831883761366d3f321c9", "type": "electric_scooter", "lat": 38.84295983333333, "is_reserved": 0, "lon": -76.99946366666667, "fusion_lon": 0.0, "is_disabled": 0, "fusion_lat": 0.0, "bike_id": "4255f9c6822f831883761366d3f321c9", "rental_uris": {"ios": "https://dc.lft.to/lastmile_qr_scan", "android": "https://dc.lft.to/lastmile_qr_scan"}}, {"name": "15afa296976bb6656c2e9c872e2c40ec", "type": "electric_scooter", "lat": 38.89739083333333, "is_reserved": 0, "lon": -76.9472865, "fusion_lon": 0.0, "is_disabled": 0, "fusion_lat": 0.0, "bike_id": "15afa296976bb6656c2e9c872e2c40ec", "rental_uris": {"ios": "https://dc.lft.to/lastmile_qr_scan", "android": "https://dc.lft.to/lastmile_qr_scan"}}, {"name": "de7b9fa08af8738bffea90bd1e77e94c", "type": "electric_scooter", "lat": 38.97476433333333, "is_reserved": 0, "lon": -77.018998, "fusion_lon": 0.0, "is_disabled": 0, "fusion_lat": 0.0, "bike_id": "de7b9fa08af8738bffea90bd1e77e94c", "rental_uris": {"ios": "https://dc.lft.to/lastmile_qr_scan", "android": "https://dc.lft.to/lastmile_qr_scan"}}, {"name": "da0fb835ff9545eac47aad4fb82ba1c9", "type": "electric_scooter", "lat": 38.901413, "is_reserved": 0, "lon": -77.044531, "fusion_lon": 0.0, "is_disabled": 0, "fusion_lat": 0.0, "bike_id": "da0fb835ff9545eac47aad4fb82ba1c9", "rental_uris": {"ios": "https://dc.lft.to/lastmile_qr_scan", "android": "https://dc.lft.to/lastmile_qr_scan"}}, {"name": "bfcad276536171e460fd3b9af4670f58", "type": "electric_scooter", "lat": 38.89764183333333, "is_reserved": 0, "lon": -77.05139516666667, "fusion_lon": 0.0, "is_disabled": 0, "fusion_lat": 0.0, "bike_id": "bfcad276536171e460fd3b9af4670f58", "rental_uris": {"ios": "https://dc.lft.to/lastmile_qr_scan", "android": "https://dc.lft.to/lastmile_qr_scan"}}, {"name": "0c0093781b0c5c789d9ecd5c490e3cce", "type": "electric_scooter", "lat": 38.95280916666667, "is_reserved": 0, "lon": -77.06831266666667, "fusion_lon": 0.0, "is_disabled": 0, "fusion_lat": 0.0, "bike_id": "0c0093781b0c5c789d9ecd5c490e3cce", "rental_uris": {"ios": "https://dc.lft.to/lastmile_qr_scan", "android": "https://dc.lft.to/lastmile_qr_scan"}}, {"name": "1e458a662e8c2341def446837dea76b6", "type": "electric_scooter", "lat": 38.918963166666664, "is_reserved": 0, "lon": -77.016201, "fusion_lon": 0.0, "is_disabled": 0, "fusion_lat": 0.0, "bike_id": "1e458a662e8c2341def446837dea76b6", "rental_uris": {"ios": "https://dc.lft.to/lastmile_qr_scan", "android": "https://dc.lft.to/lastmile_qr_scan"}}, {"name": "ab2746f4d81ce8237c63a5b32a3efbb7", "type": "electric_scooter", "lat": 38.9066405, "is_reserved": 0, "lon": -77.011615, "fusion_lon": 0.0, "is_disabled": 0, "fusion_lat": 0.0, "bike_id": "ab2746f4d81ce8237c63a5b32a3efbb7", "rental_uris": {"ios": "https://dc.lft.to/lastmile_qr_scan", "android": "https://dc.lft.to/lastmile_qr_scan"}}, {"name": "03a20674e65b127868936ad2425d71d5", "type": "electric_scooter", "lat": 38.91333766666666, "is_reserved": 0, "lon": -77.0487665, "fusion_lon": 0.0, "is_disabled": 0, "fusion_lat": 0.0, "bike_id": "03a20674e65b127868936ad2425d71d5", "rental_uris": {"ios": "https://dc.lft.to/lastmile_qr_scan", "android": "https://dc.lft.to/lastmile_qr_scan"}}, {"name": "c39f92a0e6e495616c580d6d87866d73", "type": "electric_scooter", "lat": 38.90262233333333, "is_reserved": 0, "lon": -77.01649183333333, "fusion_lon": 0.0, "is_disabled": 0, "fusion_lat": 0.0, "bike_id": "c39f92a0e6e495616c580d6d87866d73", "rental_uris": {"ios": "https://dc.lft.to/lastmile_qr_scan", "android": "https://dc.lft.to/lastmile_qr_scan"}}, {"name": "49609278b628abb0c8842c8d659ac8ca", "type": "electric_scooter", "lat": 38.930512, "is_reserved": 0, "lon": -77.0278255, "fusion_lon": 0.0, "is_disabled": 0, "fusion_lat": 0.0, "bike_id": "49609278b628abb0c8842c8d659ac8ca", "rental_uris": {"ios": "https://dc.lft.to/lastmile_qr_scan", "android": "https://dc.lft.to/lastmile_qr_scan"}}, {"name": "f229c4c5bcfc24241a804d168ad670d0", "type": "electric_scooter", "lat": 38.898235166666666, "is_reserved": 0, "lon": -77.02715983333333, "fusion_lon": 0.0, "is_disabled": 0, "fusion_lat": 0.0, "bike_id": "f229c4c5bcfc24241a804d168ad670d0", "rental_uris": {"ios": "https://dc.lft.to/lastmile_qr_scan", "android": "https://dc.lft.to/lastmile_qr_scan"}}, {"name": "44a198c0f3e85a22a6fc40bc9e80fb9a", "type": "electric_scooter", "lat": 38.93891133333333, "is_reserved": 0, "lon": -77.02461533333333, "fusion_lon": 0.0, "is_disabled": 0, "fusion_lat": 0.0, "bike_id": "44a198c0f3e85a22a6fc40bc9e80fb9a", "rental_uris": {"ios": "https://dc.lft.to/lastmile_qr_scan", "android": "https://dc.lft.to/lastmile_qr_scan"}}, {"name": "5af3308a79f1b010f0f0ee2e1a4658cd", "type": "electric_bike", "lat": 38.970927833333334, "is_reserved": 0, "lon": -77.06965916666667, "fusion_lon": 0.0, "is_disabled": 0, "fusion_lat": 0.0, "bike_id": "5af3308a79f1b010f0f0ee2e1a4658cd", "rental_uris": {"ios": "https://dc.lft.to/lastmile_qr_scan", "android": "https://dc.lft.to/lastmile_qr_scan"}}, {"name": "23ce2a84cbac634a75f84b13b32e9b67", "type": "electric_scooter", "lat": 38.93144233333334, "is_reserved": 0, "lon": -77.03852183333333, "fusion_lon": 0.0, "is_disabled": 0, "fusion_lat": 0.0, "bike_id": "23ce2a84cbac634a75f84b13b32e9b67", "rental_uris": {"ios": "https://dc.lft.to/lastmile_qr_scan", "android": "https://dc.lft.to/lastmile_qr_scan"}}, {"name": "1f172767c4eacfecff7a50ab735457bd", "type": "electric_scooter", "lat": 38.926267, "is_reserved": 0, "lon": -77.03788983333334, "fusion_lon": 0.0, "is_disabled": 0, "fusion_lat": 0.0, "bike_id": "1f172767c4eacfecff7a50ab735457bd", "rental_uris": {"ios": "https://dc.lft.to/lastmile_qr_scan", "android": "https://dc.lft.to/lastmile_qr_scan"}}, {"name": "48c4948e40228ec07945a093b2bf47b6", "type": "electric_scooter", "lat": 38.902770833333335, "is_reserved": 0, "lon": -77.04617316666666, "fusion_lon": 0.0, "is_disabled": 0, "fusion_lat": 0.0, "bike_id": "48c4948e40228ec07945a093b2bf47b6", "rental_uris": {"ios": "https://dc.lft.to/lastmile_qr_scan", "android": "https://dc.lft.to/lastmile_qr_scan"}}, {"name": "82107da5656a3ec0cdb09679008a89a2", "type": "electric_scooter", "lat": 38.87715983333333, "is_reserved": 0, "lon": -76.993844, "fusion_lon": 0.0, "is_disabled": 0, "fusion_lat": 0.0, "bike_id": "82107da5656a3ec0cdb09679008a89a2", "rental_uris": {"ios": "https://dc.lft.to/lastmile_qr_scan", "android": "https://dc.lft.to/lastmile_qr_scan"}}, {"name": "17be6ffa22d70088be1ffd3ccf941c21", "type": "electric_scooter", "lat": 38.9039845, "is_reserved": 0, "lon": -76.989425, "fusion_lon": 0.0, "is_disabled": 0, "fusion_lat": 0.0, "bike_id": "17be6ffa22d70088be1ffd3ccf941c21", "rental_uris": {"ios": "https://dc.lft.to/lastmile_qr_scan", "android": "https://dc.lft.to/lastmile_qr_scan"}}, {"name": "b078cdc95e44c9d43babb71cfcca1293", "type": "electric_scooter", "lat": 38.899052, "is_reserved": 0, "lon": -77.0328195, "fusion_lon": 0.0, "is_disabled": 0, "fusion_lat": 0.0, "bike_id": "b078cdc95e44c9d43babb71cfcca1293", "rental_uris": {"ios": "https://dc.lft.to/lastmile_qr_scan", "android": "https://dc.lft.to/lastmile_qr_scan"}}, {"name": "1fbe9e76db989ae6eec7c223c8df89cb", "type": "electric_scooter", "lat": 38.887680333333336, "is_reserved": 0, "lon": -76.92712166666666, "fusion_lon": 0.0, "is_disabled": 0, "fusion_lat": 0.0, "bike_id": "1fbe9e76db989ae6eec7c223c8df89cb", "rental_uris": {"ios": "https://dc.lft.to/lastmile_qr_scan", "android": "https://dc.lft.to/lastmile_qr_scan"}}, {"name": "f21b1699b8400855530ebad1e686eb91", "type": "electric_scooter", "lat": 38.900051500000004, "is_reserved": 0, "lon": -77.03305566666667, "fusion_lon": 0.0, "is_disabled": 0, "fusion_lat": 0.0, "bike_id": "f21b1699b8400855530ebad1e686eb91", "rental_uris": {"ios": "https://dc.lft.to/lastmile_qr_scan", "android": "https://dc.lft.to/lastmile_qr_scan"}}, {"name": "6b85cf39acc6f6010750f7d2b26213a4", "type": "electric_scooter", "lat": 38.8974315, "is_reserved": 0, "lon": -76.94255383333333, "fusion_lon": 0.0, "is_disabled": 0, "fusion_lat": 0.0, "bike_id": "6b85cf39acc6f6010750f7d2b26213a4", "rental_uris": {"ios": "https://dc.lft.to/lastmile_qr_scan", "android": "https://dc.lft.to/lastmile_qr_scan"}}, {"name": "90e3460447fc20d253400a74b4fc1338", "type": "electric_scooter", "lat": 38.908688, "is_reserved": 0, "lon": -77.02490566666667, "fusion_lon": 0.0, "is_disabled": 0, "fusion_lat": 0.0, "bike_id": "90e3460447fc20d253400a74b4fc1338", "rental_uris": {"ios": "https://dc.lft.to/lastmile_qr_scan", "android": "https://dc.lft.to/lastmile_qr_scan"}}, {"name": "c6c8f79760bc80e6f65ffe6196817ffe", "type": "electric_bike", "lat": 38.931798, "is_reserved": 0, "lon": -77.03537883333334, "fusion_lon": 0.0, "is_disabled": 0, "fusion_lat": 0.0, "bike_id": "c6c8f79760bc80e6f65ffe6196817ffe", "rental_uris": {"ios": "https://dc.lft.to/lastmile_qr_scan", "android": "https://dc.lft.to/lastmile_qr_scan"}}, {"name": "356f4cf0cd3412f23aae70661e832ad8", "type": "electric_scooter", "lat": 38.93388183333333, "is_reserved": 0, "lon": -77.05767083333333, "fusion_lon": 0.0, "is_disabled": 0, "fusion_lat": 0.0, "bike_id": "356f4cf0cd3412f23aae70661e832ad8", "rental_uris": {"ios": "https://dc.lft.to/lastmile_qr_scan", "android": "https://dc.lft.to/lastmile_qr_scan"}}, {"name": "3228d34e7755ad402de700c565d7e6e4", "type": "electric_scooter", "lat": 38.91313133333333, "is_reserved": 0, "lon": -77.0218595, "fusion_lon": 0.0, "is_disabled": 0, "fusion_lat": 0.0, "bike_id": "3228d34e7755ad402de700c565d7e6e4", "rental_uris": {"ios": "https://dc.lft.to/lastmile_qr_scan", "android": "https://dc.lft.to/lastmile_qr_scan"}}, {"name": "1b72316c156644f42c97d60dcb84da23", "type": "electric_scooter", "lat": 38.8947395, "is_reserved": 0, "lon": -76.97723066666667, "fusion_lon": 0.0, "is_disabled": 0, "fusion_lat": 0.0, "bike_id": "1b72316c156644f42c97d60dcb84da23", "rental_uris": {"ios": "https://dc.lft.to/lastmile_qr_scan", "android": "https://dc.lft.to/lastmile_qr_scan"}}, {"name": "e8d4b7dd1347f5e0523cef9d0faab1e4", "type": "electric_scooter", "lat": 38.94181316666667, "is_reserved": 0, "lon": -77.03654966666667, "fusion_lon": 0.0, "is_disabled": 0, "fusion_lat": 0.0, "bike_id": "e8d4b7dd1347f5e0523cef9d0faab1e4", "rental_uris": {"ios": "https://dc.lft.to/lastmile_qr_scan", "android": "https://dc.lft.to/lastmile_qr_scan"}}, {"name": "57b58df5ececd4f25a7128e75a1c83e9", "type": "electric_scooter", "lat": 38.911866333333336, "is_reserved": 0, "lon": -77.03222766666667, "fusion_lon": 0.0, "is_disabled": 0, "fusion_lat": 0.0, "bike_id": "57b58df5ececd4f25a7128e75a1c83e9", "rental_uris": {"ios": "https://dc.lft.to/lastmile_qr_scan", "android": "https://dc.lft.to/lastmile_qr_scan"}}, {"name": "fdbfb0c5e9d087fd7f66b540734a2830", "type": "electric_scooter", "lat": 38.921747333333336, "is_reserved": 0, "lon": -77.03212716666667, "fusion_lon": 0.0, "is_disabled": 0, "fusion_lat": 0.0, "bike_id": "fdbfb0c5e9d087fd7f66b540734a2830", "rental_uris": {"ios": "https://dc.lft.to/lastmile_qr_scan", "android": "https://dc.lft.to/lastmile_qr_scan"}}, {"name": "5b50889aa5b0eb1bde7b9398e0d1b870", "type": "electric_scooter", "lat": 38.9134135, "is_reserved": 0, "lon": -77.002292, "fusion_lon": 0.0, "is_disabled": 0, "fusion_lat": 0.0, "bike_id": "5b50889aa5b0eb1bde7b9398e0d1b870", "rental_uris": {"ios": "https://dc.lft.to/lastmile_qr_scan", "android": "https://dc.lft.to/lastmile_qr_scan"}}, {"name": "a1a8199333baedbab6cc83ee06d6ba71", "type": "electric_scooter", "lat": 38.9287595, "is_reserved": 0, "lon": -77.04128983333334, "fusion_lon": 0.0, "is_disabled": 0, "fusion_lat": 0.0, "bike_id": "a1a8199333baedbab6cc83ee06d6ba71", "rental_uris": {"ios": "https://dc.lft.to/lastmile_qr_scan", "android": "https://dc.lft.to/lastmile_qr_scan"}}, {"name": "c51e723b14c1124b2233a1392b5f4d15", "type": "electric_scooter", "lat": 38.86353866666666, "is_reserved": 0, "lon": -76.9906555, "fusion_lon": 0.0, "is_disabled": 0, "fusion_lat": 0.0, "bike_id": "c51e723b14c1124b2233a1392b5f4d15", "rental_uris": {"ios": "https://dc.lft.to/lastmile_qr_scan", "android": "https://dc.lft.to/lastmile_qr_scan"}}, {"name": "9efbeb135263bf7240f5d98f823e87d3", "type": "electric_scooter", "lat": 38.9206155, "is_reserved": 0, "lon": -77.042504, "fusion_lon": 0.0, "is_disabled": 0, "fusion_lat": 0.0, "bike_id": "9efbeb135263bf7240f5d98f823e87d3", "rental_uris": {"ios": "https://dc.lft.to/lastmile_qr_scan", "android": "https://dc.lft.to/lastmile_qr_scan"}}, {"name": "706f8235481fab8cb42c7c3b3f2a5e84", "type": "electric_scooter", "lat": 38.894917666666665, "is_reserved": 0, "lon": -77.01117783333333, "fusion_lon": 0.0, "is_disabled": 0, "fusion_lat": 0.0, "bike_id": "706f8235481fab8cb42c7c3b3f2a5e84", "rental_uris": {"ios": "https://dc.lft.to/lastmile_qr_scan", "android": "https://dc.lft.to/lastmile_qr_scan"}}, {"name": "9ebca62c9570649c9fddc504c33cb4b2", "type": "electric_scooter", "lat": 38.8983195, "is_reserved": 0, "lon": -76.94636216666666, "fusion_lon": 0.0, "is_disabled": 0, "fusion_lat": 0.0, "bike_id": "9ebca62c9570649c9fddc504c33cb4b2", "rental_uris": {"ios": "https://dc.lft.to/lastmile_qr_scan", "android": "https://dc.lft.to/lastmile_qr_scan"}}, {"name": "cd144c26fa2838bfa30e84f9d1614c77", "type": "electric_scooter", "lat": 38.92418583333333, "is_reserved": 0, "lon": -77.019501, "fusion_lon": 0.0, "is_disabled": 0, "fusion_lat": 0.0, "bike_id": "cd144c26fa2838bfa30e84f9d1614c77", "rental_uris": {"ios": "https://dc.lft.to/lastmile_qr_scan", "android": "https://dc.lft.to/lastmile_qr_scan"}}, {"name": "1a934341cbf5074b1d979b3c321433a6", "type": "electric_scooter", "lat": 38.91709516666667, "is_reserved": 0, "lon": -77.02682683333333, "fusion_lon": 0.0, "is_disabled": 0, "fusion_lat": 0.0, "bike_id": "1a934341cbf5074b1d979b3c321433a6", "rental_uris": {"ios": "https://dc.lft.to/lastmile_qr_scan", "android": "https://dc.lft.to/lastmile_qr_scan"}}, {"name": "bff8c2e003451c6a27f361a07055df6a", "type": "electric_bike", "lat": 38.9548255, "is_reserved": 0, "lon": -77.0824195, "fusion_lon": 0.0, "is_disabled": 0, "fusion_lat": 0.0, "bike_id": "bff8c2e003451c6a27f361a07055df6a", "rental_uris": {"ios": "https://dc.lft.to/lastmile_qr_scan", "android": "https://dc.lft.to/lastmile_qr_scan"}}, {"name": "f501ff721ffc6283a523195174e27c01", "type": "electric_scooter", "lat": 38.927749, "is_reserved": 0, "lon": -77.02653883333333, "fusion_lon": 0.0, "is_disabled": 0, "fusion_lat": 0.0, "bike_id": "f501ff721ffc6283a523195174e27c01", "rental_uris": {"ios": "https://dc.lft.to/lastmile_qr_scan", "android": "https://dc.lft.to/lastmile_qr_scan"}}, {"name": "0757b314b3dc1f61c056340bbf88b050", "type": "electric_scooter", "lat": 38.9036935, "is_reserved": 0, "lon": -77.06280333333333, "fusion_lon": 0.0, "is_disabled": 0, "fusion_lat": 0.0, "bike_id": "0757b314b3dc1f61c056340bbf88b050", "rental_uris": {"ios": "https://dc.lft.to/lastmile_qr_scan", "android": "https://dc.lft.to/lastmile_qr_scan"}}, {"name": "5c3663b63610abae9799d66d460d3f15", "type": "electric_scooter", "lat": 38.920344666666665, "is_reserved": 0, "lon": -77.04187933333333, "fusion_lon": 0.0, "is_disabled": 0, "fusion_lat": 0.0, "bike_id": "5c3663b63610abae9799d66d460d3f15", "rental_uris": {"ios": "https://dc.lft.to/lastmile_qr_scan", "android": "https://dc.lft.to/lastmile_qr_scan"}}, {"name": "1139d334dbfc9ff82f6fc8ee2f73ebd3", "type": "electric_scooter", "lat": 38.91392116666667, "is_reserved": 0, "lon": -77.03326666666666, "fusion_lon": 0.0, "is_disabled": 0, "fusion_lat": 0.0, "bike_id": "1139d334dbfc9ff82f6fc8ee2f73ebd3", "rental_uris": {"ios": "https://dc.lft.to/lastmile_qr_scan", "android": "https://dc.lft.to/lastmile_qr_scan"}}, {"name": "8e53d183ce12b9395463a5edce4df191", "type": "electric_scooter", "lat": 38.917057666666665, "is_reserved": 0, "lon": -77.0011715, "fusion_lon": 0.0, "is_disabled": 0, "fusion_lat": 0.0, "bike_id": "8e53d183ce12b9395463a5edce4df191", "rental_uris": {"ios": "https://dc.lft.to/lastmile_qr_scan", "android": "https://dc.lft.to/lastmile_qr_scan"}}, {"name": "5fff4dd7a06278734be476ccd1a3d004", "type": "electric_scooter", "lat": 38.92713366666667, "is_reserved": 0, "lon": -77.03853966666667, "fusion_lon": 0.0, "is_disabled": 0, "fusion_lat": 0.0, "bike_id": "5fff4dd7a06278734be476ccd1a3d004", "rental_uris": {"ios": "https://dc.lft.to/lastmile_qr_scan", "android": "https://dc.lft.to/lastmile_qr_scan"}}, {"name": "33d33669757a60d9a4d298730f320f8f", "type": "electric_bike", "lat": 38.956459, "is_reserved": 0, "lon": -76.9974465, "fusion_lon": 0.0, "is_disabled": 0, "fusion_lat": 0.0, "bike_id": "33d33669757a60d9a4d298730f320f8f", "rental_uris": {"ios": "https://dc.lft.to/lastmile_qr_scan", "android": "https://dc.lft.to/lastmile_qr_scan"}}, {"name": "9dc49dc165f1f488fb5be6db9ade2235", "type": "electric_scooter", "lat": 38.87268066666667, "is_reserved": 0, "lon": -77.01534616666666, "fusion_lon": 0.0, "is_disabled": 0, "fusion_lat": 0.0, "bike_id": "9dc49dc165f1f488fb5be6db9ade2235", "rental_uris": {"ios": "https://dc.lft.to/lastmile_qr_scan", "android": "https://dc.lft.to/lastmile_qr_scan"}}, {"name": "b695f7085f9e08441df5bbfdd5a63457", "type": "electric_scooter", "lat": 38.88324766666667, "is_reserved": 0, "lon": -77.01759283333334, "fusion_lon": 0.0, "is_disabled": 0, "fusion_lat": 0.0, "bike_id": "b695f7085f9e08441df5bbfdd5a63457", "rental_uris": {"ios": "https://dc.lft.to/lastmile_qr_scan", "android": "https://dc.lft.to/lastmile_qr_scan"}}, {"name": "f29ec874f94b428292a4ce3fdaee90dd", "type": "electric_bike", "lat": 38.951860333333336, "is_reserved": 0, "lon": -76.93545383333333, "fusion_lon": 0.0, "is_disabled": 0, "fusion_lat": 0.0, "bike_id": "f29ec874f94b428292a4ce3fdaee90dd", "rental_uris": {"ios": "https://dc.lft.to/lastmile_qr_scan", "android": "https://dc.lft.to/lastmile_qr_scan"}}, {"name": "9e322142c80eab0b591ba1429ea086e5", "type": "electric_scooter", "lat": 38.926879166666666, "is_reserved": 0, "lon": -77.09566933333333, "fusion_lon": 0.0, "is_disabled": 0, "fusion_lat": 0.0, "bike_id": "9e322142c80eab0b591ba1429ea086e5", "rental_uris": {"ios": "https://dc.lft.to/lastmile_qr_scan", "android": "https://dc.lft.to/lastmile_qr_scan"}}, {"name": "2921525a54f938b3b911e1280a21ead6", "type": "electric_scooter", "lat": 38.9248005, "is_reserved": 0, "lon": -77.0283195, "fusion_lon": 0.0, "is_disabled": 0, "fusion_lat": 0.0, "bike_id": "2921525a54f938b3b911e1280a21ead6", "rental_uris": {"ios": "https://dc.lft.to/lastmile_qr_scan", "android": "https://dc.lft.to/lastmile_qr_scan"}}, {"name": "3d71971c6a1fd4e4e500199a3f24f9ba", "type": "electric_scooter", "lat": 38.924662166666664, "is_reserved": 0, "lon": -77.0376275, "fusion_lon": 0.0, "is_disabled": 0, "fusion_lat": 0.0, "bike_id": "3d71971c6a1fd4e4e500199a3f24f9ba", "rental_uris": {"ios": "https://dc.lft.to/lastmile_qr_scan", "android": "https://dc.lft.to/lastmile_qr_scan"}}, {"name": "a094c64e850f0e6dff1ec42c941203f0", "type": "electric_scooter", "lat": 38.9108865, "is_reserved": 0, "lon": -77.038417, "fusion_lon": 0.0, "is_disabled": 0, "fusion_lat": 0.0, "bike_id": "a094c64e850f0e6dff1ec42c941203f0", "rental_uris": {"ios": "https://dc.lft.to/lastmile_qr_scan", "android": "https://dc.lft.to/lastmile_qr_scan"}}, {"name": "d7b4bd55ffdd3a62d64dee6dcc2669e6", "type": "electric_scooter", "lat": 38.9084355, "is_reserved": 0, "lon": -77.02692666666667, "fusion_lon": 0.0, "is_disabled": 0, "fusion_lat": 0.0, "bike_id": "d7b4bd55ffdd3a62d64dee6dcc2669e6", "rental_uris": {"ios": "https://dc.lft.to/lastmile_qr_scan", "android": "https://dc.lft.to/lastmile_qr_scan"}}, {"name": "a609452e2549c643964b64013e435df8", "type": "electric_scooter", "lat": 38.923127, "is_reserved": 0, "lon": -77.0391455, "fusion_lon": 0.0, "is_disabled": 0, "fusion_lat": 0.0, "bike_id": "a609452e2549c643964b64013e435df8", "rental_uris": {"ios": "https://dc.lft.to/lastmile_qr_scan", "android": "https://dc.lft.to/lastmile_qr_scan"}}, {"name": "e0189b550c0b6ad2d3a5c47bcaa477a3", "type": "electric_scooter", "lat": 38.894072, "is_reserved": 0, "lon": -76.9480145, "fusion_lon": 0.0, "is_disabled": 0, "fusion_lat": 0.0, "bike_id": "e0189b550c0b6ad2d3a5c47bcaa477a3", "rental_uris": {"ios": "https://dc.lft.to/lastmile_qr_scan", "android": "https://dc.lft.to/lastmile_qr_scan"}}, {"name": "dc43f2d23caf17a8aab915c0cf2de849", "type": "electric_scooter", "lat": 38.8571415, "is_reserved": 0, "lon": -76.981314, "fusion_lon": 0.0, "is_disabled": 0, "fusion_lat": 0.0, "bike_id": "dc43f2d23caf17a8aab915c0cf2de849", "rental_uris": {"ios": "https://dc.lft.to/lastmile_qr_scan", "android": "https://dc.lft.to/lastmile_qr_scan"}}, {"name": "e805ec2887b8d88b1c18bd8c07fa191d", "type": "electric_bike", "lat": 38.879816166666664, "is_reserved": 0, "lon": -76.91600733333334, "fusion_lon": 0.0, "is_disabled": 0, "fusion_lat": 0.0, "bike_id": "e805ec2887b8d88b1c18bd8c07fa191d", "rental_uris": {"ios": "https://dc.lft.to/lastmile_qr_scan", "android": "https://dc.lft.to/lastmile_qr_scan"}}, {"name": "385cc5e6feb2fbb7b0043e98726087f1", "type": "electric_scooter", "lat": 38.93540316666667, "is_reserved": 0, "lon": -77.0370045, "fusion_lon": 0.0, "is_disabled": 0, "fusion_lat": 0.0, "bike_id": "385cc5e6feb2fbb7b0043e98726087f1", "rental_uris": {"ios": "https://dc.lft.to/lastmile_qr_scan", "android": "https://dc.lft.to/lastmile_qr_scan"}}, {"name": "d0a15a23af9157ebd8014312e54aa9d9", "type": "electric_scooter", "lat": 38.91602066666667, "is_reserved": 0, "lon": -77.0446175, "fusion_lon": 0.0, "is_disabled": 0, "fusion_lat": 0.0, "bike_id": "d0a15a23af9157ebd8014312e54aa9d9", "rental_uris": {"ios": "https://dc.lft.to/lastmile_qr_scan", "android": "https://dc.lft.to/lastmile_qr_scan"}}, {"name": "511bb7c3c681d3f9e1499da78c48588d", "type": "electric_scooter", "lat": 38.925353666666666, "is_reserved": 0, "lon": -77.0556775, "fusion_lon": 0.0, "is_disabled": 0, "fusion_lat": 0.0, "bike_id": "511bb7c3c681d3f9e1499da78c48588d", "rental_uris": {"ios": "https://dc.lft.to/lastmile_qr_scan", "android": "https://dc.lft.to/lastmile_qr_scan"}}, {"name": "50f02421a52d023713326d8c481c4e0a", "type": "electric_scooter", "lat": 38.93581983333333, "is_reserved": 0, "lon": -76.99098883333333, "fusion_lon": 0.0, "is_disabled": 0, "fusion_lat": 0.0, "bike_id": "50f02421a52d023713326d8c481c4e0a", "rental_uris": {"ios": "https://dc.lft.to/lastmile_qr_scan", "android": "https://dc.lft.to/lastmile_qr_scan"}}, {"name": "36a305a09dd8bc757bb8554792de21cc", "type": "electric_scooter", "lat": 38.922323666666664, "is_reserved": 0, "lon": -77.0335615, "fusion_lon": 0.0, "is_disabled": 0, "fusion_lat": 0.0, "bike_id": "36a305a09dd8bc757bb8554792de21cc", "rental_uris": {"ios": "https://dc.lft.to/lastmile_qr_scan", "android": "https://dc.lft.to/lastmile_qr_scan"}}, {"name": "b2712a384e7a8a6da5d0e27ae7df5133", "type": "electric_scooter", "lat": 38.918713833333335, "is_reserved": 0, "lon": -77.043832, "fusion_lon": 0.0, "is_disabled": 0, "fusion_lat": 0.0, "bike_id": "b2712a384e7a8a6da5d0e27ae7df5133", "rental_uris": {"ios": "https://dc.lft.to/lastmile_qr_scan", "android": "https://dc.lft.to/lastmile_qr_scan"}}, {"name": "25ad56325678a11c9940fdd94c659d05", "type": "electric_scooter", "lat": 38.9015185, "is_reserved": 0, "lon": -76.930637, "fusion_lon": 0.0, "is_disabled": 0, "fusion_lat": 0.0, "bike_id": "25ad56325678a11c9940fdd94c659d05", "rental_uris": {"ios": "https://dc.lft.to/lastmile_qr_scan", "android": "https://dc.lft.to/lastmile_qr_scan"}}, {"name": "2e9c3ba4bba5927bcef5c8a62980a89d", "type": "electric_scooter", "lat": 38.93828633333333, "is_reserved": 0, "lon": -77.0248665, "fusion_lon": 0.0, "is_disabled": 0, "fusion_lat": 0.0, "bike_id": "2e9c3ba4bba5927bcef5c8a62980a89d", "rental_uris": {"ios": "https://dc.lft.to/lastmile_qr_scan", "android": "https://dc.lft.to/lastmile_qr_scan"}}, {"name": "f0fe88bd77fe3f1c2d4ad3c5fcc8b813", "type": "electric_scooter", "lat": 38.91312333333333, "is_reserved": 0, "lon": -77.04478433333334, "fusion_lon": 0.0, "is_disabled": 0, "fusion_lat": 0.0, "bike_id": "f0fe88bd77fe3f1c2d4ad3c5fcc8b813", "rental_uris": {"ios": "https://dc.lft.to/lastmile_qr_scan", "android": "https://dc.lft.to/lastmile_qr_scan"}}, {"name": "9fd073e375af3386a36c4b1f31bd9a10", "type": "electric_scooter", "lat": 38.9074275, "is_reserved": 0, "lon": -77.03068316666666, "fusion_lon": 0.0, "is_disabled": 0, "fusion_lat": 0.0, "bike_id": "9fd073e375af3386a36c4b1f31bd9a10", "rental_uris": {"ios": "https://dc.lft.to/lastmile_qr_scan", "android": "https://dc.lft.to/lastmile_qr_scan"}}, {"name": "9064e34bef3c44e20c530ef9037af025", "type": "electric_scooter", "lat": 38.94774, "is_reserved": 0, "lon": -77.0654105, "fusion_lon": 0.0, "is_disabled": 0, "fusion_lat": 0.0, "bike_id": "9064e34bef3c44e20c530ef9037af025", "rental_uris": {"ios": "https://dc.lft.to/lastmile_qr_scan", "android": "https://dc.lft.to/lastmile_qr_scan"}}, {"name": "a46da64427ae87fdcfeefeebdf4dd873", "type": "electric_scooter", "lat": 38.91184583333333, "is_reserved": 0, "lon": -77.00559766666667, "fusion_lon": 0.0, "is_disabled": 0, "fusion_lat": 0.0, "bike_id": "a46da64427ae87fdcfeefeebdf4dd873", "rental_uris": {"ios": "https://dc.lft.to/lastmile_qr_scan", "android": "https://dc.lft.to/lastmile_qr_scan"}}, {"name": "abe74cec48496789cc557eb862bd367e", "type": "electric_scooter", "lat": 38.939709666666666, "is_reserved": 0, "lon": -77.03259666666666, "fusion_lon": 0.0, "is_disabled": 0, "fusion_lat": 0.0, "bike_id": "abe74cec48496789cc557eb862bd367e", "rental_uris": {"ios": "https://dc.lft.to/lastmile_qr_scan", "android": "https://dc.lft.to/lastmile_qr_scan"}}, {"name": "4c3e4301212af86c9c7cd0c605df2f2f", "type": "electric_scooter", "lat": 38.88112916666667, "is_reserved": 0, "lon": -76.99947966666667, "fusion_lon": 0.0, "is_disabled": 0, "fusion_lat": 0.0, "bike_id": "4c3e4301212af86c9c7cd0c605df2f2f", "rental_uris": {"ios": "https://dc.lft.to/lastmile_qr_scan", "android": "https://dc.lft.to/lastmile_qr_scan"}}, {"name": "9edc95c54473785b34798bdd3eedf6d8", "type": "electric_scooter", "lat": 38.87650566666667, "is_reserved": 0, "lon": -76.96506983333333, "fusion_lon": 0.0, "is_disabled": 0, "fusion_lat": 0.0, "bike_id": "9edc95c54473785b34798bdd3eedf6d8", "rental_uris": {"ios": "https://dc.lft.to/lastmile_qr_scan", "android": "https://dc.lft.to/lastmile_qr_scan"}}, {"name": "e482a713c499e38ca6bffc68579c6074", "type": "electric_scooter", "lat": 38.939507666666664, "is_reserved": 0, "lon": -77.03256383333333, "fusion_lon": 0.0, "is_disabled": 0, "fusion_lat": 0.0, "bike_id": "e482a713c499e38ca6bffc68579c6074", "rental_uris": {"ios": "https://dc.lft.to/lastmile_qr_scan", "android": "https://dc.lft.to/lastmile_qr_scan"}}, {"name": "89d9189b0531a1a7bb29f6966871de2e", "type": "electric_scooter", "lat": 38.940773166666666, "is_reserved": 0, "lon": -77.02703, "fusion_lon": 0.0, "is_disabled": 0, "fusion_lat": 0.0, "bike_id": "89d9189b0531a1a7bb29f6966871de2e", "rental_uris": {"ios": "https://dc.lft.to/lastmile_qr_scan", "android": "https://dc.lft.to/lastmile_qr_scan"}}, {"name": "488ff04f0e3594c0967b7d5497a6af31", "type": "electric_scooter", "lat": 38.91795833333333, "is_reserved": 0, "lon": -77.0271575, "fusion_lon": 0.0, "is_disabled": 0, "fusion_lat": 0.0, "bike_id": "488ff04f0e3594c0967b7d5497a6af31", "rental_uris": {"ios": "https://dc.lft.to/lastmile_qr_scan", "android": "https://dc.lft.to/lastmile_qr_scan"}}, {"name": "982962bbe8d9b5b777ce932c86e72591", "type": "electric_scooter", "lat": 38.92338, "is_reserved": 0, "lon": -77.03508983333333, "fusion_lon": 0.0, "is_disabled": 0, "fusion_lat": 0.0, "bike_id": "982962bbe8d9b5b777ce932c86e72591", "rental_uris": {"ios": "https://dc.lft.to/lastmile_qr_scan", "android": "https://dc.lft.to/lastmile_qr_scan"}}, {"name": "2ede4d5a5e15ccf0065927b6c703c5d7", "type": "electric_bike", "lat": 38.99065366666667, "is_reserved": 0, "lon": -77.100292, "fusion_lon": 0.0, "is_disabled": 0, "fusion_lat": 0.0, "bike_id": "2ede4d5a5e15ccf0065927b6c703c5d7", "rental_uris": {"ios": "https://dc.lft.to/lastmile_qr_scan", "android": "https://dc.lft.to/lastmile_qr_scan"}}, {"name": "8efaae131bdb18fe080cc12a6ec7a5f6", "type": "electric_scooter", "lat": 38.929512833333334, "is_reserved": 0, "lon": -77.03470666666666, "fusion_lon": 0.0, "is_disabled": 0, "fusion_lat": 0.0, "bike_id": "8efaae131bdb18fe080cc12a6ec7a5f6", "rental_uris": {"ios": "https://dc.lft.to/lastmile_qr_scan", "android": "https://dc.lft.to/lastmile_qr_scan"}}, {"name": "e98f3c8fba72df44fb9b9c5a27a441a3", "type": "electric_scooter", "lat": 38.8832145, "is_reserved": 0, "lon": -77.017513, "fusion_lon": 0.0, "is_disabled": 0, "fusion_lat": 0.0, "bike_id": "e98f3c8fba72df44fb9b9c5a27a441a3", "rental_uris": {"ios": "https://dc.lft.to/lastmile_qr_scan", "android": "https://dc.lft.to/lastmile_qr_scan"}}, {"name": "105d23ee0f7d5e442ab4801ddeab54b6", "type": "electric_scooter", "lat": 38.92141783333334, "is_reserved": 0, "lon": -77.03384283333334, "fusion_lon": 0.0, "is_disabled": 0, "fusion_lat": 0.0, "bike_id": "105d23ee0f7d5e442ab4801ddeab54b6", "rental_uris": {"ios": "https://dc.lft.to/lastmile_qr_scan", "android": "https://dc.lft.to/lastmile_qr_scan"}}, {"name": "681f4b0fb42d7f509b9dbeac6bbbe440", "type": "electric_scooter", "lat": 38.911122166666665, "is_reserved": 0, "lon": -77.038302, "fusion_lon": 0.0, "is_disabled": 0, "fusion_lat": 0.0, "bike_id": "681f4b0fb42d7f509b9dbeac6bbbe440", "rental_uris": {"ios": "https://dc.lft.to/lastmile_qr_scan", "android": "https://dc.lft.to/lastmile_qr_scan"}}, {"name": "dda96811981393928e73c97b45af68b0", "type": "electric_scooter", "lat": 38.91111133333333, "is_reserved": 0, "lon": -77.013902, "fusion_lon": 0.0, "is_disabled": 0, "fusion_lat": 0.0, "bike_id": "dda96811981393928e73c97b45af68b0", "rental_uris": {"ios": "https://dc.lft.to/lastmile_qr_scan", "android": "https://dc.lft.to/lastmile_qr_scan"}}, {"name": "7e849e94005913b71eb872abd4df2e1d", "type": "electric_scooter", "lat": 38.912716333333336, "is_reserved": 0, "lon": -77.03143883333334, "fusion_lon": 0.0, "is_disabled": 0, "fusion_lat": 0.0, "bike_id": "7e849e94005913b71eb872abd4df2e1d", "rental_uris": {"ios": "https://dc.lft.to/lastmile_qr_scan", "android": "https://dc.lft.to/lastmile_qr_scan"}}, {"name": "3d8ae4645da368671e403729c4cc2229", "type": "electric_scooter", "lat": 38.86373366666667, "is_reserved": 0, "lon": -76.990605, "fusion_lon": 0.0, "is_disabled": 0, "fusion_lat": 0.0, "bike_id": "3d8ae4645da368671e403729c4cc2229", "rental_uris": {"ios": "https://dc.lft.to/lastmile_qr_scan", "android": "https://dc.lft.to/lastmile_qr_scan"}}, {"name": "ec7d5cb4a79c5ae189f3cb457b13b2bc", "type": "electric_scooter", "lat": 38.919995666666665, "is_reserved": 0, "lon": -77.03880416666667, "fusion_lon": 0.0, "is_disabled": 0, "fusion_lat": 0.0, "bike_id": "ec7d5cb4a79c5ae189f3cb457b13b2bc", "rental_uris": {"ios": "https://dc.lft.to/lastmile_qr_scan", "android": "https://dc.lft.to/lastmile_qr_scan"}}, {"name": "c4ccd75f9e2c2219d293e6e90dd133e9", "type": "electric_scooter", "lat": 38.8665985, "is_reserved": 0, "lon": -76.988853, "fusion_lon": 0.0, "is_disabled": 0, "fusion_lat": 0.0, "bike_id": "c4ccd75f9e2c2219d293e6e90dd133e9", "rental_uris": {"ios": "https://dc.lft.to/lastmile_qr_scan", "android": "https://dc.lft.to/lastmile_qr_scan"}}, {"name": "c0d2559002d4143d9a0083d9bb7071c1", "type": "electric_scooter", "lat": 38.8939185, "is_reserved": 0, "lon": -77.02992483333334, "fusion_lon": 0.0, "is_disabled": 0, "fusion_lat": 0.0, "bike_id": "c0d2559002d4143d9a0083d9bb7071c1", "rental_uris": {"ios": "https://dc.lft.to/lastmile_qr_scan", "android": "https://dc.lft.to/lastmile_qr_scan"}}, {"name": "0b8ac7359041fcfab70fcec3067d9352", "type": "electric_scooter", "lat": 38.865297, "is_reserved": 0, "lon": -76.9902885, "fusion_lon": 0.0, "is_disabled": 0, "fusion_lat": 0.0, "bike_id": "0b8ac7359041fcfab70fcec3067d9352", "rental_uris": {"ios": "https://dc.lft.to/lastmile_qr_scan", "android": "https://dc.lft.to/lastmile_qr_scan"}}, {"name": "498df0c5d6fba408373f648206155214", "type": "electric_bike", "lat": 38.95271616666667, "is_reserved": 0, "lon": -77.06969116666667, "fusion_lon": 0.0, "is_disabled": 0, "fusion_lat": 0.0, "bike_id": "498df0c5d6fba408373f648206155214", "rental_uris": {"ios": "https://dc.lft.to/lastmile_qr_scan", "android": "https://dc.lft.to/lastmile_qr_scan"}}, {"name": "c15cfe570a64ea49159ac6d7d4396c36", "type": "electric_bike", "lat": 38.862803, "is_reserved": 0, "lon": -77.06348333333334, "fusion_lon": 0.0, "is_disabled": 0, "fusion_lat": 0.0, "bike_id": "c15cfe570a64ea49159ac6d7d4396c36", "rental_uris": {"ios": "https://dc.lft.to/lastmile_qr_scan", "android": "https://dc.lft.to/lastmile_qr_scan"}}, {"name": "db63146d471de20787ce1972a90954e9", "type": "electric_scooter", "lat": 38.92483683333333, "is_reserved": 0, "lon": -77.03484533333334, "fusion_lon": 0.0, "is_disabled": 0, "fusion_lat": 0.0, "bike_id": "db63146d471de20787ce1972a90954e9", "rental_uris": {"ios": "https://dc.lft.to/lastmile_qr_scan", "android": "https://dc.lft.to/lastmile_qr_scan"}}, {"name": "7635dc31eb8602be41562c79a9049ae5", "type": "electric_scooter", "lat": 38.88611916666667, "is_reserved": 0, "lon": -76.9951235, "fusion_lon": 0.0, "is_disabled": 0, "fusion_lat": 0.0, "bike_id": "7635dc31eb8602be41562c79a9049ae5", "rental_uris": {"ios": "https://dc.lft.to/lastmile_qr_scan", "android": "https://dc.lft.to/lastmile_qr_scan"}}, {"name": "d742c77ed96d42865e3356bc7c7dea7c", "type": "electric_scooter", "lat": 38.92743166666666, "is_reserved": 0, "lon": -77.032639, "fusion_lon": 0.0, "is_disabled": 0, "fusion_lat": 0.0, "bike_id": "d742c77ed96d42865e3356bc7c7dea7c", "rental_uris": {"ios": "https://dc.lft.to/lastmile_qr_scan", "android": "https://dc.lft.to/lastmile_qr_scan"}}, {"name": "186f5b32261e875b36463010c3a1d6e2", "type": "electric_scooter", "lat": 38.925146, "is_reserved": 0, "lon": -77.0193315, "fusion_lon": 0.0, "is_disabled": 0, "fusion_lat": 0.0, "bike_id": "186f5b32261e875b36463010c3a1d6e2", "rental_uris": {"ios": "https://dc.lft.to/lastmile_qr_scan", "android": "https://dc.lft.to/lastmile_qr_scan"}}, {"name": "8e272a14b23df55794ae491948af8caf", "type": "electric_scooter", "lat": 38.91810916666667, "is_reserved": 0, "lon": -77.0016465, "fusion_lon": 0.0, "is_disabled": 0, "fusion_lat": 0.0, "bike_id": "8e272a14b23df55794ae491948af8caf", "rental_uris": {"ios": "https://dc.lft.to/lastmile_qr_scan", "android": "https://dc.lft.to/lastmile_qr_scan"}}, {"name": "b7a92fa33a507e30bc83197d27bfed44", "type": "electric_bike", "lat": 38.965069666666665, "is_reserved": 0, "lon": -77.02817, "fusion_lon": 0.0, "is_disabled": 0, "fusion_lat": 0.0, "bike_id": "b7a92fa33a507e30bc83197d27bfed44", "rental_uris": {"ios": "https://dc.lft.to/lastmile_qr_scan", "android": "https://dc.lft.to/lastmile_qr_scan"}}, {"name": "fb953ea1d93aaa7c4ffd8f228e8d2da3", "type": "electric_scooter", "lat": 38.90399983333333, "is_reserved": 0, "lon": -77.01789616666667, "fusion_lon": 0.0, "is_disabled": 0, "fusion_lat": 0.0, "bike_id": "fb953ea1d93aaa7c4ffd8f228e8d2da3", "rental_uris": {"ios": "https://dc.lft.to/lastmile_qr_scan", "android": "https://dc.lft.to/lastmile_qr_scan"}}, {"name": "6a09089e63f9b2e3b2f91c0567b5a8c0", "type": "electric_scooter", "lat": 38.91265533333333, "is_reserved": 0, "lon": -77.0063915, "fusion_lon": 0.0, "is_disabled": 0, "fusion_lat": 0.0, "bike_id": "6a09089e63f9b2e3b2f91c0567b5a8c0", "rental_uris": {"ios": "https://dc.lft.to/lastmile_qr_scan", "android": "https://dc.lft.to/lastmile_qr_scan"}}, {"name": "973485bdc97bff70be9922de75b0be6c", "type": "electric_bike", "lat": 39.03052866666667, "is_reserved": 0, "lon": -77.094852, "fusion_lon": 0.0, "is_disabled": 0, "fusion_lat": 0.0, "bike_id": "973485bdc97bff70be9922de75b0be6c", "rental_uris": {"ios": "https://dc.lft.to/lastmile_qr_scan", "android": "https://dc.lft.to/lastmile_qr_scan"}}, {"name": "c18ef9bfb4051a75e08c939c0bddd568", "type": "electric_scooter", "lat": 38.892214333333335, "is_reserved": 0, "lon": -77.02146216666667, "fusion_lon": 0.0, "is_disabled": 0, "fusion_lat": 0.0, "bike_id": "c18ef9bfb4051a75e08c939c0bddd568", "rental_uris": {"ios": "https://dc.lft.to/lastmile_qr_scan", "android": "https://dc.lft.to/lastmile_qr_scan"}}, {"name": "74ec7abe9f5b0d5b18437d17fa2e1f23", "type": "electric_scooter", "lat": 38.92848083333333, "is_reserved": 0, "lon": -77.05427733333333, "fusion_lon": 0.0, "is_disabled": 0, "fusion_lat": 0.0, "bike_id": "74ec7abe9f5b0d5b18437d17fa2e1f23", "rental_uris": {"ios": "https://dc.lft.to/lastmile_qr_scan", "android": "https://dc.lft.to/lastmile_qr_scan"}}, {"name": "3b6c623b6508b2f502c1bf77a2cc5de5", "type": "electric_scooter", "lat": 38.908339833333336, "is_reserved": 0, "lon": -76.997044, "fusion_lon": 0.0, "is_disabled": 0, "fusion_lat": 0.0, "bike_id": "3b6c623b6508b2f502c1bf77a2cc5de5", "rental_uris": {"ios": "https://dc.lft.to/lastmile_qr_scan", "android": "https://dc.lft.to/lastmile_qr_scan"}}, {"name": "422f768106657e36dd8f50351fbcdfcb", "type": "electric_scooter", "lat": 38.90360833333333, "is_reserved": 0, "lon": -77.00747183333333, "fusion_lon": 0.0, "is_disabled": 0, "fusion_lat": 0.0, "bike_id": "422f768106657e36dd8f50351fbcdfcb", "rental_uris": {"ios": "https://dc.lft.to/lastmile_qr_scan", "android": "https://dc.lft.to/lastmile_qr_scan"}}, {"name": "635bb38da79a48b328a3d6caf537227f", "type": "electric_scooter", "lat": 38.879701833333336, "is_reserved": 0, "lon": -76.98544116666666, "fusion_lon": 0.0, "is_disabled": 0, "fusion_lat": 0.0, "bike_id": "635bb38da79a48b328a3d6caf537227f", "rental_uris": {"ios": "https://dc.lft.to/lastmile_qr_scan", "android": "https://dc.lft.to/lastmile_qr_scan"}}, {"name": "a7760d6437617781310413010e7e9122", "type": "electric_scooter", "lat": 38.895826666666665, "is_reserved": 0, "lon": -77.0257295, "fusion_lon": 0.0, "is_disabled": 0, "fusion_lat": 0.0, "bike_id": "a7760d6437617781310413010e7e9122", "rental_uris": {"ios": "https://dc.lft.to/lastmile_qr_scan", "android": "https://dc.lft.to/lastmile_qr_scan"}}, {"name": "14eafe094e1bfe73c5fbab581151daea", "type": "electric_scooter", "lat": 38.8767655, "is_reserved": 0, "lon": -77.00069116666667, "fusion_lon": 0.0, "is_disabled": 0, "fusion_lat": 0.0, "bike_id": "14eafe094e1bfe73c5fbab581151daea", "rental_uris": {"ios": "https://dc.lft.to/lastmile_qr_scan", "android": "https://dc.lft.to/lastmile_qr_scan"}}, {"name": "5a087f2f4c68c9d6622c1ed5234977e5", "type": "electric_scooter", "lat": 38.89133666666667, "is_reserved": 0, "lon": -77.00348433333333, "fusion_lon": 0.0, "is_disabled": 0, "fusion_lat": 0.0, "bike_id": "5a087f2f4c68c9d6622c1ed5234977e5", "rental_uris": {"ios": "https://dc.lft.to/lastmile_qr_scan", "android": "https://dc.lft.to/lastmile_qr_scan"}}, {"name": "7d03a6dd238cd18fda7a26c70222df12", "type": "electric_scooter", "lat": 38.89200116666667, "is_reserved": 0, "lon": -77.015506, "fusion_lon": 0.0, "is_disabled": 0, "fusion_lat": 0.0, "bike_id": "7d03a6dd238cd18fda7a26c70222df12", "rental_uris": {"ios": "https://dc.lft.to/lastmile_qr_scan", "android": "https://dc.lft.to/lastmile_qr_scan"}}, {"name": "3fbdca7623503974dff10479dbcea867", "type": "electric_scooter", "lat": 38.9026365, "is_reserved": 0, "lon": -77.0181765, "fusion_lon": 0.0, "is_disabled": 0, "fusion_lat": 0.0, "bike_id": "3fbdca7623503974dff10479dbcea867", "rental_uris": {"ios": "https://dc.lft.to/lastmile_qr_scan", "android": "https://dc.lft.to/lastmile_qr_scan"}}, {"name": "3811156e217e091d98faa75edb15448d", "type": "electric_scooter", "lat": 38.937879833333334, "is_reserved": 0, "lon": -77.02439616666666, "fusion_lon": 0.0, "is_disabled": 0, "fusion_lat": 0.0, "bike_id": "3811156e217e091d98faa75edb15448d", "rental_uris": {"ios": "https://dc.lft.to/lastmile_qr_scan", "android": "https://dc.lft.to/lastmile_qr_scan"}}, {"name": "55a79f7a4d2dfa55962b95435de54faa", "type": "electric_scooter", "lat": 38.905132, "is_reserved": 0, "lon": -77.05126916666667, "fusion_lon": 0.0, "is_disabled": 0, "fusion_lat": 0.0, "bike_id": "55a79f7a4d2dfa55962b95435de54faa", "rental_uris": {"ios": "https://dc.lft.to/lastmile_qr_scan", "android": "https://dc.lft.to/lastmile_qr_scan"}}, {"name": "e7ca86f756c895bddcc4007315e9a28c", "type": "electric_scooter", "lat": 38.9322375, "is_reserved": 0, "lon": -77.035454, "fusion_lon": 0.0, "is_disabled": 0, "fusion_lat": 0.0, "bike_id": "e7ca86f756c895bddcc4007315e9a28c", "rental_uris": {"ios": "https://dc.lft.to/lastmile_qr_scan", "android": "https://dc.lft.to/lastmile_qr_scan"}}, {"name": "32cfb373de22640a5e70e6139d924c84", "type": "electric_scooter", "lat": 38.88942733333333, "is_reserved": 0, "lon": -76.94820333333334, "fusion_lon": 0.0, "is_disabled": 0, "fusion_lat": 0.0, "bike_id": "32cfb373de22640a5e70e6139d924c84", "rental_uris": {"ios": "https://dc.lft.to/lastmile_qr_scan", "android": "https://dc.lft.to/lastmile_qr_scan"}}, {"name": "75084b24df8fe651bc24df66d15af328", "type": "electric_scooter", "lat": 38.90322833333333, "is_reserved": 0, "lon": -77.0382005, "fusion_lon": 0.0, "is_disabled": 0, "fusion_lat": 0.0, "bike_id": "75084b24df8fe651bc24df66d15af328", "rental_uris": {"ios": "https://dc.lft.to/lastmile_qr_scan", "android": "https://dc.lft.to/lastmile_qr_scan"}}, {"name": "c7fb7772acee7528d0a1337f7ae17dce", "type": "electric_scooter", "lat": 38.929161666666666, "is_reserved": 0, "lon": -77.0219715, "fusion_lon": 0.0, "is_disabled": 0, "fusion_lat": 0.0, "bike_id": "c7fb7772acee7528d0a1337f7ae17dce", "rental_uris": {"ios": "https://dc.lft.to/lastmile_qr_scan", "android": "https://dc.lft.to/lastmile_qr_scan"}}, {"name": "cbe4fb149f0ca804e21e5fa740d9d689", "type": "electric_scooter", "lat": 38.900246833333334, "is_reserved": 0, "lon": -76.99451466666666, "fusion_lon": 0.0, "is_disabled": 0, "fusion_lat": 0.0, "bike_id": "cbe4fb149f0ca804e21e5fa740d9d689", "rental_uris": {"ios": "https://dc.lft.to/lastmile_qr_scan", "android": "https://dc.lft.to/lastmile_qr_scan"}}, {"name": "bd33d85a9713da01d24b6e8be61ada8d", "type": "electric_bike", "lat": 38.83864233333333, "is_reserved": 0, "lon": -77.08869533333333, "fusion_lon": 0.0, "is_disabled": 0, "fusion_lat": 0.0, "bike_id": "bd33d85a9713da01d24b6e8be61ada8d", "rental_uris": {"ios": "https://dc.lft.to/lastmile_qr_scan", "android": "https://dc.lft.to/lastmile_qr_scan"}}, {"name": "937058071cd202329aee3edf91f0c39c", "type": "electric_scooter", "lat": 38.903564833333334, "is_reserved": 0, "lon": -77.0396745, "fusion_lon": 0.0, "is_disabled": 0, "fusion_lat": 0.0, "bike_id": "937058071cd202329aee3edf91f0c39c", "rental_uris": {"ios": "https://dc.lft.to/lastmile_qr_scan", "android": "https://dc.lft.to/lastmile_qr_scan"}}, {"name": "c161ba5009fa52e55faf444096b7844b", "type": "electric_bike", "lat": 38.958876833333335, "is_reserved": 0, "lon": -76.92487566666667, "fusion_lon": 0.0, "is_disabled": 0, "fusion_lat": 0.0, "bike_id": "c161ba5009fa52e55faf444096b7844b", "rental_uris": {"ios": "https://dc.lft.to/lastmile_qr_scan", "android": "https://dc.lft.to/lastmile_qr_scan"}}, {"name": "e9f3047a3f567cc635ffa290966ec7aa", "type": "electric_bike", "lat": 38.90176833333334, "is_reserved": 0, "lon": -76.98027683333333, "fusion_lon": 0.0, "is_disabled": 0, "fusion_lat": 0.0, "bike_id": "e9f3047a3f567cc635ffa290966ec7aa", "rental_uris": {"ios": "https://dc.lft.to/lastmile_qr_scan", "android": "https://dc.lft.to/lastmile_qr_scan"}}, {"name": "f2d1fea85982c08ae0411729f0dea538", "type": "electric_bike", "lat": 38.973260833333335, "is_reserved": 0, "lon": -77.02149283333334, "fusion_lon": 0.0, "is_disabled": 0, "fusion_lat": 0.0, "bike_id": "f2d1fea85982c08ae0411729f0dea538", "rental_uris": {"ios": "https://dc.lft.to/lastmile_qr_scan", "android": "https://dc.lft.to/lastmile_qr_scan"}}, {"name": "e01afe45b8d06d779d12b0543e63b178", "type": "electric_bike", "lat": 38.92211366666667, "is_reserved": 0, "lon": -77.08191416666666, "fusion_lon": 0.0, "is_disabled": 0, "fusion_lat": 0.0, "bike_id": "e01afe45b8d06d779d12b0543e63b178", "rental_uris": {"ios": "https://dc.lft.to/lastmile_qr_scan", "android": "https://dc.lft.to/lastmile_qr_scan"}}, {"name": "8783ba391515fce4b8129ea8141881a5", "type": "electric_scooter", "lat": 38.914174333333335, "is_reserved": 0, "lon": -77.022809, "fusion_lon": 0.0, "is_disabled": 0, "fusion_lat": 0.0, "bike_id": "8783ba391515fce4b8129ea8141881a5", "rental_uris": {"ios": "https://dc.lft.to/lastmile_qr_scan", "android": "https://dc.lft.to/lastmile_qr_scan"}}, {"name": "86ee6082ef68ec7c3d52b9f29646840b", "type": "electric_scooter", "lat": 38.86654933333333, "is_reserved": 0, "lon": -76.99010233333334, "fusion_lon": 0.0, "is_disabled": 0, "fusion_lat": 0.0, "bike_id": "86ee6082ef68ec7c3d52b9f29646840b", "rental_uris": {"ios": "https://dc.lft.to/lastmile_qr_scan", "android": "https://dc.lft.to/lastmile_qr_scan"}}, {"name": "48b3713b32d57034def3e90a19791813", "type": "electric_scooter", "lat": 38.8995485, "is_reserved": 0, "lon": -76.98566833333334, "fusion_lon": 0.0, "is_disabled": 0, "fusion_lat": 0.0, "bike_id": "48b3713b32d57034def3e90a19791813", "rental_uris": {"ios": "https://dc.lft.to/lastmile_qr_scan", "android": "https://dc.lft.to/lastmile_qr_scan"}},