{"data": {"bikes": [{"rental_uris": {"ios": "https://dc.lft.to/lastmile_qr_scan", "android": "https://dc.lft.to/lastmile_qr_scan"}, "lon": -77.01257483333333, "type": "electric_scooter", "fusion_lat": 0.0, "lat": 38.8996275, "name": "32d763c498b92ecda26f87ea75d779c4", "fusion_lon": 0.0, "bike_id": "32d763c498b92ecda26f87ea75d779c4", "is_disabled": 0, "is_reserved": 0}, {"rental_uris": {"ios": "https://dc.lft.to/lastmile_qr_scan", "android": "https://dc.lft.to/lastmile_qr_scan"}, "lon": -77.014319, "type": "electric_scooter", "fusion_lat": 0.0, "lat": 38.87742016666667, "name": "76248f40b561382e2b6280caa36f73af", "fusion_lon": 0.0, "bike_id": "76248f40b561382e2b6280caa36f73af", "is_disabled": 0, "is_reserved": 0}, {"rental_uris": {"ios": "https://dc.lft.to/lastmile_qr_scan", "android": "https://dc.lft.to/lastmile_qr_scan"}, "lon": -77.03715216666667, "type": "electric_scooter", "fusion_lat": 0.0, "lat": 38.9286335, "name": "6227e723e8aa092ca80b392e214fe0ae", "fusion_lon": 0.0, "bike_id": "6227e723e8aa092ca80b392e214fe0ae", "is_disabled": 0, "is_reserved": 0}, {"rental_uris": {"ios": "https://dc.lft.to/lastmile_qr_scan", "android": "https://dc.lft.to/lastmile_qr_scan"}, "lon": -77.02970716666667, "type": "electric_scooter", "fusion_lat": 0.0, "lat": 38.93240566666667, "name": "d046dd3631b8881728d0f6908b3485c4", "fusion_lon": 0.0, "bike_id": "d046dd3631b8881728d0f6908b3485c4", "is_disabled": 0, "is_reserved": 0}, {"rental_uris": {"ios": "https://dc.lft.to/lastmile_qr_scan", "android": "https://dc.lft.to/lastmile_qr_scan"}, "lon": -77.1359615, "type": "electric_bike", "fusion_lat": 0.0, "lat": 39.053445, "name": "23d24d3f5473b3e89b5d9e94767fdfaf", "fusion_lon": 0.0, "bike_id": "23d24d3f5473b3e89b5d9e94767fdfaf", "is_disabled": 0, "is_reserved": 0}, {"rental_uris": {"ios": "https://dc.lft.to/lastmile_qr_scan", "android": "https://dc.lft.to/lastmile_qr_scan"}, "lon": -77.03551333333333, "type": "electric_scooter", "fusion_lat": 0.0, "lat": 38.92678566666667, "name": "7dbc2bd6c3b71e5ffe6e8703ffaf578b", "fusion_lon": 0.0, "bike_id": "7dbc2bd6c3b71e5ffe6e8703ffaf578b", "is_disabled": 0, "is_reserved": 0}, {"rental_uris": {"ios": "https://dc.lft.to/lastmile_qr_scan", "android": "https://dc.lft.to/lastmile_qr_scan"}, "lon": -77.04305766666667, "type": "electric_scooter", "fusion_lat": 0.0, "lat": 38.922527333333335, "name": "f55ad92f3753cb83cc0d30a73609e325", "fusion_lon": 0.0, "bike_id": "f55ad92f3753cb83cc0d30a73609e325", "is_disabled": 0, "is_reserved": 0}, {"rental_uris": {"ios": "https://dc.lft.to/lastmile_qr_scan", "android": "https://dc.lft.to/lastmile_qr_scan"}, "lon": -77.00906766666667, "type": "electric_scooter", "fusion_lat": 0.0, "lat": 38.897647, "name": "28a84ed15965f8a6ff1184fd2c4ce3c7", "fusion_lon": 0.0, "bike_id": "28a84ed15965f8a6ff1184fd2c4ce3c7", "is_disabled": 0, "is_reserved": 0}, {"rental_uris": {"ios": "https://dc.lft.to/lastmile_qr_scan", "android": "https://dc.lft.to/lastmile_qr_scan"}, "lon": -76.986361, "type": "electric_scooter", "fusion_lat": 0.0, "lat": 38.868169333333334, "name": "1a8ce30d3e8ac3af6ed6099124a60edc", "fusion_lon": 0.0, "bike_id": "1a8ce30d3e8ac3af6ed6099124a60edc", "is_disabled": 0, "is_reserved": 0}, {"rental_uris": {"ios": "https://dc.lft.to/lastmile_qr_scan", "android": "https://dc.lft.to/lastmile_qr_scan"}, "lon": -77.05256433333334, "type": "electric_scooter", "fusion_lat": 0.0, "lat": 38.92365216666666, "name": "9cef9f6f08e7dce64fc4ef83692e40c5", "fusion_lon": 0.0, "bike_id": "9cef9f6f08e7dce64fc4ef83692e40c5", "is_disabled": 0, "is_reserved": 0}, {"rental_uris": {"ios": "https://dc.lft.to/lastmile_qr_scan", "android": "https://dc.lft.to/lastmile_qr_scan"}, "lon": -76.93177783333333, "type": "electric_scooter", "fusion_lat": 0.0, "lat": 38.8988205, "name": "bed3f8923fe1109e3f5980c83856e4d2", "fusion_lon": 0.0, "bike_id": "bed3f8923fe1109e3f5980c83856e4d2", "is_disabled": 0, "is_reserved": 0}, {"rental_uris": {"ios": "https://dc.lft.to/lastmile_qr_scan", "android": "https://dc.lft.to/lastmile_qr_scan"}, "lon": -77.04661066666667, "type": "electric_scooter", "fusion_lat": 0.0, "lat": 38.893325833333336, "name": "a3a6d768501d9fdf9ad1beb28eb20249", "fusion_lon": 0.0, "bike_id": "a3a6d768501d9fdf9ad1beb28eb20249", "is_disabled": 0, "is_reserved": 0}, {"rental_uris": {"ios": "https://dc.lft.to/lastmile_qr_scan", "android": "https://dc.lft.to/lastmile_qr_scan"}, "lon": -77.051645, "type": "electric_scooter", "fusion_lat": 0.0, "lat": 38.897723666666664, "name": "b757e37c738fc601f8b7fbbaf0c6ebe1", "fusion_lon": 0.0, "bike_id": "b757e37c738fc601f8b7fbbaf0c6ebe1", "is_disabled": 0, "is_reserved": 0}, {"rental_uris": {"ios": "https://dc.lft.to/lastmile_qr_scan", "android": "https://dc.lft.to/lastmile_qr_scan"}, "lon": -77.026394, "type": "electric_bike", "fusion_lat": 0.0, "lat": 38.936698, "name": "b9ef7864d6d7324d34680d130698d124", "fusion_lon": 0.0, "bike_id": "b9ef7864d6d7324d34680d130698d124", "is_disabled": 0, "is_reserved": 0}, {"rental_uris": {"ios": "https://dc.lft.to/lastmile_qr_scan", "android": "https://dc.lft.to/lastmile_qr_scan"}, "lon": -77.00213633333334, "type": "electric_scooter", "fusion_lat": 0.0, "lat": 38.90221716666667, "name": "e3b97d241fabd411a1fb115699834ce1", "fusion_lon": 0.0, "bike_id": "e3b97d241fabd411a1fb115699834ce1", "is_disabled": 0, "is_reserved": 0}, {"rental_uris": {"ios": "https://dc.lft.to/lastmile_qr_scan", "android": "https://dc.lft.to/lastmile_qr_scan"}, "lon": -76.949823, "type": "electric_scooter", "fusion_lat": 0.0, "lat": 38.89369683333334, "name": "a1b7e4d2fae4234edefe31dc8a7ef26d", "fusion_lon": 0.0, "bike_id": "a1b7e4d2fae4234edefe31dc8a7ef26d", "is_disabled": 0, "is_reserved": 0}, {"rental_uris": {"ios": "https://dc.lft.to/lastmile_qr_scan", "android": "https://dc.lft.to/lastmile_qr_scan"}, "lon": -77.12057183333333, "type": "electric_bike", "fusion_lat": 0.0, "lat": 38.85505916666666, "name": "157a2ed193417421d861d5b82965f42a", "fusion_lon": 0.0, "bike_id": "157a2ed193417421d861d5b82965f42a", "is_disabled": 0, "is_reserved": 0}, {"rental_uris": {"ios": "https://dc.lft.to/lastmile_qr_scan", "android": "https://dc.lft.to/lastmile_qr_scan"}, "lon": -77.032205, "type": "electric_scooter", "fusion_lat": 0.0, "lat": 38.917456333333334, "name": "7b934dc5b05df6c04b749ccd239da233", "fusion_lon": 0.0, "bike_id": "7b934dc5b05df6c04b749ccd239da233", "is_disabled": 0, "is_reserved": 0}, {"rental_uris": {"ios": "https://dc.lft.to/lastmile_qr_scan", "android": "https://dc.lft.to/lastmile_qr_scan"}, "lon": -77.04376083333334, "type": "electric_scooter", "fusion_lat": 0.0, "lat": 38.920913666666664, "name": "d4224ab591647c153a4f131aa49b4b92", "fusion_lon": 0.0, "bike_id": "d4224ab591647c153a4f131aa49b4b92", "is_disabled": 0, "is_reserved": 0}, {"rental_uris": {"ios": "https://dc.lft.to/lastmile_qr_scan", "android": "https://dc.lft.to/lastmile_qr_scan"}, "lon": -77.04486116666666, "type": "electric_scooter", "fusion_lat": 0.0, "lat": 38.9158875, "name": "8815231f3bc46ce9268f7443af5517f2", "fusion_lon": 0.0, "bike_id": "8815231f3bc46ce9268f7443af5517f2", "is_disabled": 0, "is_reserved": 0}, {"rental_uris": {"ios": "https://dc.lft.to/lastmile_qr_scan", "android": "https://dc.lft.to/lastmile_qr_scan"}, "lon": -77.04237066666667, "type": "electric_scooter", "fusion_lat": 0.0, "lat": 38.92273466666666, "name": "8f1268e84b77749990cfd14a02ab19b5", "fusion_lon": 0.0, "bike_id": "8f1268e84b77749990cfd14a02ab19b5", "is_disabled": 0, "is_reserved": 0}, {"rental_uris": {"ios": "https://dc.lft.to/lastmile_qr_scan", "android": "https://dc.lft.to/lastmile_qr_scan"}, "lon": -77.03828283333333, "type": "electric_scooter", "fusion_lat": 0.0, "lat": 38.920485666666664, "name": "9660631c3c1bde48c38aeb9f47e4d03d", "fusion_lon": 0.0, "bike_id": "9660631c3c1bde48c38aeb9f47e4d03d", "is_disabled": 0, "is_reserved": 0}, {"rental_uris": {"ios": "https://dc.lft.to/lastmile_qr_scan", "android": "https://dc.lft.to/lastmile_qr_scan"}, "lon": -77.02781666666667, "type": "electric_scooter", "fusion_lat": 0.0, "lat": 38.893942833333334, "name": "b9d2c17436fb09a84c0f80d44f606cda", "fusion_lon": 0.0, "bike_id": "b9d2c17436fb09a84c0f80d44f606cda", "is_disabled": 0, "is_reserved": 0}, {"rental_uris": {"ios": "https://dc.lft.to/lastmile_qr_scan", "android": "https://dc.lft.to/lastmile_qr_scan"}, "lon": -77.033385, "type": "electric_scooter", "fusion_lat": 0.0, "lat": 38.901270333333336, "name": "75210717b82cf160e7919bf6af040aac", "fusion_lon": 0.0, "bike_id": "75210717b82cf160e7919bf6af040aac", "is_disabled": 0, "is_reserved": 0}, {"rental_uris": {"ios": "https://dc.lft.to/lastmile_qr_scan", "android": "https://dc.lft.to/lastmile_qr_scan"}, "lon": -77.017152, "type": "electric_scooter", "fusion_lat": 0.0, "lat": 38.892211333333336, "name": "69d0b25fa3cc789ec992b300fc43bda9", "fusion_lon": 0.0, "bike_id": "69d0b25fa3cc789ec992b300fc43bda9", "is_disabled": 0, "is_reserved": 0}, {"rental_uris": {"ios": "https://dc.lft.to/lastmile_qr_scan", "android": "https://dc.lft.to/lastmile_qr_scan"}, "lon": -76.9582155, "type": "electric_scooter", "fusion_lat": 0.0, "lat": 38.89050916666667, "name": "d5bf5394de43b48c3c36606443da9e3a", "fusion_lon": 0.0, "bike_id": "d5bf5394de43b48c3c36606443da9e3a", "is_disabled": 0, "is_reserved": 0}, {"rental_uris": {"ios": "https://dc.lft.to/lastmile_qr_scan", "android": "https://dc.lft.to/lastmile_qr_scan"}, "lon": -77.09522466666667, "type": "electric_bike", "fusion_lat": 0.0, "lat": 38.838122, "name": "515dd052bec9047cd2d5dd84edd1fc4b", "fusion_lon": 0.0, "bike_id": "515dd052bec9047cd2d5dd84edd1fc4b", "is_disabled": 0, "is_reserved": 0}, {"rental_uris": {"ios": "https://dc.lft.to/lastmile_qr_scan", "android": "https://dc.lft.to/lastmile_qr_scan"}, "lon": -77.04493933333333, "type": "electric_scooter", "fusion_lat": 0.0, "lat": 38.9040515, "name": "8c2a3d484d224a4cca9f9e6f2bffee13", "fusion_lon": 0.0, "bike_id": "8c2a3d484d224a4cca9f9e6f2bffee13", "is_disabled": 0, "is_reserved": 0}, {"rental_uris": {"ios": "https://dc.lft.to/lastmile_qr_scan", "android": "https://dc.lft.to/lastmile_qr_scan"}, "lon": -77.03254666666666, "type": "electric_scooter", "fusion_lat": 0.0, "lat": 38.91806366666667, "name": "c31d7ea7b1f60277ce165d00afe896c8", "fusion_lon": 0.0, "bike_id": "c31d7ea7b1f60277ce165d00afe896c8", "is_disabled": 0, "is_reserved": 0}, {"rental_uris": {"ios": "https://dc.lft.to/lastmile_qr_scan", "android": "https://dc.lft.to/lastmile_qr_scan"}, "lon": -76.99494233333333, "type": "electric_scooter", "fusion_lat": 0.0, "lat": 38.862345833333336, "name": "b7ebef4263df9ee0b62317b3c52accc6", "fusion_lon": 0.0, "bike_id": "b7ebef4263df9ee0b62317b3c52accc6", "is_disabled": 0, "is_reserved": 0}, {"rental_uris": {"ios": "https://dc.lft.to/lastmile_qr_scan", "android": "https://dc.lft.to/lastmile_qr_scan"}, "lon": -77.0558515, "type": "electric_scooter", "fusion_lat": 0.0, "lat": 38.92784116666667, "name": "c08c3a364bf4ed34da13a657560df8a6", "fusion_lon": 0.0, "bike_id": "c08c3a364bf4ed34da13a657560df8a6", "is_disabled": 0, "is_reserved": 0}, {"rental_uris": {"ios": "https://dc.lft.to/lastmile_qr_scan", "android": "https://dc.lft.to/lastmile_qr_scan"}, "lon": -77.0222625, "type": "electric_scooter", "fusion_lat": 0.0, "lat": 38.89197033333333, "name": "d1793066269af68399efe2610947675a", "fusion_lon": 0.0, "bike_id": "d1793066269af68399efe2610947675a", "is_disabled": 0, "is_reserved": 0}, {"rental_uris": {"ios": "https://dc.lft.to/lastmile_qr_scan", "android": "https://dc.lft.to/lastmile_qr_scan"}, "lon": -77.03209383333333, "type": "electric_scooter", "fusion_lat": 0.0, "lat": 38.916801, "name": "f4fde06a8677162f9f85f8094c020d57", "fusion_lon": 0.0, "bike_id": "f4fde06a8677162f9f85f8094c020d57", "is_disabled": 0, "is_reserved": 0}, {"rental_uris": {"ios": "https://dc.lft.to/lastmile_qr_scan", "android": "https://dc.lft.to/lastmile_qr_scan"}, "lon": -77.00594133333334, "type": "electric_scooter", "fusion_lat": 0.0, "lat": 38.90626783333333, "name": "4b50fbe2d6e7f2df18af8221750ff089", "fusion_lon": 0.0, "bike_id": "4b50fbe2d6e7f2df18af8221750ff089", "is_disabled": 0, "is_reserved": 0}, {"rental_uris": {"ios": "https://dc.lft.to/lastmile_qr_scan", "android": "https://dc.lft.to/lastmile_qr_scan"}, "lon": -77.044738, "type": "electric_scooter", "fusion_lat": 0.0, "lat": 38.900338833333336, "name": "9cee9ceebe688cbe00f4e28477776ee2", "fusion_lon": 0.0, "bike_id": "9cee9ceebe688cbe00f4e28477776ee2", "is_disabled": 0, "is_reserved": 0}, {"rental_uris": {"ios": "https://dc.lft.to/lastmile_qr_scan", "android": "https://dc.lft.to/lastmile_qr_scan"}, "lon": -77.0177585, "type": "electric_scooter", "fusion_lat": 0.0, "lat": 38.90417933333333, "name": "a4ad632a5dff2f9e60fc3d0fbf5b90c2", "fusion_lon": 0.0, "bike_id": "a4ad632a5dff2f9e60fc3d0fbf5b90c2", "is_disabled": 0, "is_reserved": 0}, {"rental_uris": {"ios": "https://dc.lft.to/lastmile_qr_scan", "android": "https://dc.lft.to/lastmile_qr_scan"}, "lon": -76.9337395, "type": "electric_scooter", "fusion_lat": 0.0, "lat": 38.89912916666667, "name": "0ac2f2f7c869c6f7474610caff029efe", "fusion_lon": 0.0, "bike_id": "0ac2f2f7c869c6f7474610caff029efe", "is_disabled": 0, "is_reserved": 0}, {"rental_uris": {"ios": "https://dc.lft.to/lastmile_qr_scan", "android": "https://dc.lft.to/lastmile_qr_scan"}, "lon": -77.0163925, "type": "electric_scooter", "fusion_lat": 0.0, "lat": 38.901155, "name": "6a17a1deef52640ceb4b9da4eb65948d", "fusion_lon": 0.0, "bike_id": "6a17a1deef52640ceb4b9da4eb65948d", "is_disabled": 0, "is_reserved": 0}, {"rental_uris": {"ios": "https://dc.lft.to/lastmile_qr_scan", "android": "https://dc.lft.to/lastmile_qr_scan"}, "lon": -77.0752615, "type": "electric_scooter", "fusion_lat": 0.0, "lat": 38.90879, "name": "4580d9d901a5f581cf284a564656761e", "fusion_lon": 0.0, "bike_id": "4580d9d901a5f581cf284a564656761e", "is_disabled": 0, "is_reserved": 0}, {"rental_uris": {"ios": "https://dc.lft.to/lastmile_qr_scan", "android": "https://dc.lft.to/lastmile_qr_scan"}, "lon": -77.063639, "type": "electric_scooter", "fusion_lat": 0.0, "lat": 38.909313166666664, "name": "eaa94c941e6ec714dae014028ae24f4b", "fusion_lon": 0.0, "bike_id": "eaa94c941e6ec714dae014028ae24f4b", "is_disabled": 0, "is_reserved": 0}, {"rental_uris": {"ios": "https://dc.lft.to/lastmile_qr_scan", "android": "https://dc.lft.to/lastmile_qr_scan"}, "lon": -76.97448416666667, "type": "electric_scooter", "fusion_lat": 0.0, "lat": 38.864222833333336, "name": "544efe7ee9bbb801c65c2d9709a1e472", "fusion_lon": 0.0, "bike_id": "544efe7ee9bbb801c65c2d9709a1e472", "is_disabled": 0, "is_reserved": 0}, {"rental_uris": {"ios": "https://dc.lft.to/lastmile_qr_scan", "android": "https://dc.lft.to/lastmile_qr_scan"}, "lon": -77.0058715, "type": "electric_scooter", "fusion_lat": 0.0, "lat": 38.906238, "name": "ce32f7e9c78fed8c38cb8d2c7edb8297", "fusion_lon": 0.0, "bike_id": "ce32f7e9c78fed8c38cb8d2c7edb8297", "is_disabled": 0, "is_reserved": 0}, {"rental_uris": {"ios": "https://dc.lft.to/lastmile_qr_scan", "android": "https://dc.lft.to/lastmile_qr_scan"}, "lon": -76.931955, "type": "electric_scooter", "fusion_lat": 0.0, "lat": 38.88993833333333, "name": "bc0ab08cea9e3ff2ca37f0453b36d10b", "fusion_lon": 0.0, "bike_id": "bc0ab08cea9e3ff2ca37f0453b36d10b", "is_disabled": 0, "is_reserved": 0}, {"rental_uris": {"ios": "https://dc.lft.to/lastmile_qr_scan", "android": "https://dc.lft.to/lastmile_qr_scan"}, "lon": -77.0094, "type": "electric_scooter", "fusion_lat": 0.0, "lat": 38.876273166666664, "name": "8d4719b9d952d119d3c4c6b1289a22a1", "fusion_lon": 0.0, "bike_id": "8d4719b9d952d119d3c4c6b1289a22a1", "is_disabled": 0, "is_reserved": 0}, {"rental_uris": {"ios": "https://dc.lft.to/lastmile_qr_scan", "android": "https://dc.lft.to/lastmile_qr_scan"}, "lon": -77.0259975, "type": "electric_scooter", "fusion_lat": 0.0, "lat": 38.91691433333333, "name": "9203006f8d95543b3020927c457270db", "fusion_lon": 0.0, "bike_id": "9203006f8d95543b3020927c457270db", "is_disabled": 0, "is_reserved": 0}, {"rental_uris": {"ios": "https://dc.lft.to/lastmile_qr_scan", "android": "https://dc.lft.to/lastmile_qr_scan"}, "lon": -76.97595966666667, "type": "electric_scooter", "fusion_lat": 0.0, "lat": 38.9033325, "name": "a5f21a39007583c6b6d248e48befaf1d", "fusion_lon": 0.0, "bike_id": "a5f21a39007583c6b6d248e48befaf1d", "is_disabled": 0, "is_reserved": 0}, {"rental_uris": {"ios": "https://dc.lft.to/lastmile_qr_scan", "android": "https://dc.lft.to/lastmile_qr_scan"}, "lon": -76.946286, "type": "electric_bike", "fusion_lat": 0.0, "lat": 38.832299, "name": "fbfb87b4fe6e7ceb0ca6c6f47945b29c", "fusion_lon": 0.0, "bike_id": "fbfb87b4fe6e7ceb0ca6c6f47945b29c", "is_disabled": 0, "is_reserved": 0}, {"rental_uris": {"ios": "https://dc.lft.to/lastmile_qr_scan", "android": "https://dc.lft.to/lastmile_qr_scan"}, "lon": -77.018067, "type": "electric_scooter", "fusion_lat": 0.0, "lat": 38.88743916666667, "name": "af5419ec8f3659ea42fe09fd99c6066a", "fusion_lon": 0.0, "bike_id": "af5419ec8f3659ea42fe09fd99c6066a", "is_disabled": 0, "is_reserved": 0}, {"rental_uris": {"ios": "https://dc.lft.to/lastmile_qr_scan", "android": "https://dc.lft.to/lastmile_qr_scan"}, "lon": -77.0415375, "type": "electric_scooter", "fusion_lat": 0.0, "lat": 38.917031, "name": "49c96e2d1589552ef8aed73413e0631c", "fusion_lon": 0.0, "bike_id": "49c96e2d1589552ef8aed73413e0631c", "is_disabled": 0, "is_reserved": 0}, {"rental_uris": {"ios": "https://dc.lft.to/lastmile_qr_scan", "android": "https://dc.lft.to/lastmile_qr_scan"}, "lon": -77.024061, "type": "electric_scooter", "fusion_lat": 0.0, "lat": 38.91594966666667, "name": "6c798da37d98311223196476fd88d78a", "fusion_lon": 0.0, "bike_id": "6c798da37d98311223196476fd88d78a", "is_disabled": 0, "is_reserved": 0}, {"rental_uris": {"ios": "https://dc.lft.to/lastmile_qr_scan", "android": "https://dc.lft.to/lastmile_qr_scan"}, "lon": -77.02710633333334, "type": "electric_scooter", "fusion_lat": 0.0, "lat": 38.881280333333336, "name": "30a958c528c56144090e77a5a3ac6198", "fusion_lon": 0.0, "bike_id": "30a958c528c56144090e77a5a3ac6198", "is_disabled": 0, "is_reserved": 0}, {"rental_uris": {"ios": "https://dc.lft.to/lastmile_qr_scan", "android": "https://dc.lft.to/lastmile_qr_scan"}, "lon": -77.04025933333334, "type": "electric_scooter", "fusion_lat": 0.0, "lat": 38.90344916666667, "name": "3cb350c69f9e8f60db2eba36d449fe49", "fusion_lon": 0.0, "bike_id": "3cb350c69f9e8f60db2eba36d449fe49", "is_disabled": 0, "is_reserved": 0}, {"rental_uris": {"ios": "https://dc.lft.to/lastmile_qr_scan", "android": "https://dc.lft.to/lastmile_qr_scan"}, "lon": -77.04364516666666, "type": "electric_scooter", "fusion_lat": 0.0, "lat": 38.9332105, "name": "eeac0c068678065d5153c5012aad8546", "fusion_lon": 0.0, "bike_id": "eeac0c068678065d5153c5012aad8546", "is_disabled": 0, "is_reserved": 0}, {"rental_uris": {"ios": "https://dc.lft.to/lastmile_qr_scan", "android": "https://dc.lft.to/lastmile_qr_scan"}, "lon": -77.00322283333334, "type": "electric_scooter", "fusion_lat": 0.0, "lat": 38.9027375, "name": "23d559921117a57199cc688c0e6cfd2f", "fusion_lon": 0.0, "bike_id": "23d559921117a57199cc688c0e6cfd2f", "is_disabled": 0, "is_reserved": 0}, {"rental_uris": {"ios": "https://dc.lft.to/lastmile_qr_scan", "android": "https://dc.lft.to/lastmile_qr_scan"}, "lon": -77.03959366666666, "type": "electric_scooter", "fusion_lat": 0.0, "lat": 38.913566833333334, "name": "e12860093a06cc2c3e7112a935af2b9f", "fusion_lon": 0.0, "bike_id": "e12860093a06cc2c3e7112a935af2b9f", "is_disabled": 0, "is_reserved": 0}, {"rental_uris": {"ios": "https://dc.lft.to/lastmile_qr_scan", "android": "https://dc.lft.to/lastmile_qr_scan"}, "lon": -77.0221245, "type": "electric_scooter", "fusion_lat": 0.0, "lat": 38.8926425, "name": "13e7580e368be32ee306b689b355bb84", "fusion_lon": 0.0, "bike_id": "13e7580e368be32ee306b689b355bb84", "is_disabled": 0, "is_reserved": 0}, {"rental_uris": {"ios": "https://dc.lft.to/lastmile_qr_scan", "android": "https://dc.lft.to/lastmile_qr_scan"}, "lon": -77.02099266666667, "type": "electric_scooter", "fusion_lat": 0.0, "lat": 38.9100685, "name": "ed0fc325b0378b4c4d42bbe7d0cf3269", "fusion_lon": 0.0, "bike_id": "ed0fc325b0378b4c4d42bbe7d0cf3269", "is_disabled": 0, "is_reserved": 0}, {"rental_uris": {"ios": "https://dc.lft.to/lastmile_qr_scan", "android": "https://dc.lft.to/lastmile_qr_scan"}, "lon": -77.03000516666667, "type": "electric_scooter", "fusion_lat": 0.0, "lat": 38.92477566666667, "name": "5727d5dbaaf02b9a0cd4e477f82e6c2b", "fusion_lon": 0.0, "bike_id": "5727d5dbaaf02b9a0cd4e477f82e6c2b", "is_disabled": 0, "is_reserved": 0}, {"rental_uris": {"ios": "https://dc.lft.to/lastmile_qr_scan", "android": "https://dc.lft.to/lastmile_qr_scan"}, "lon": -77.03183683333333, "type": "electric_scooter", "fusion_lat": 0.0, "lat": 38.88702583333333, "name": "448ce547c7baf161e719caecba917fb9", "fusion_lon": 0.0, "bike_id": "448ce547c7baf161e719caecba917fb9", "is_disabled": 0, "is_reserved": 0}, {"rental_uris": {"ios": "https://dc.lft.to/lastmile_qr_scan", "android": "https://dc.lft.to/lastmile_qr_scan"}, "lon": -77.36094183333333, "type": "electric_bike", "fusion_lat": 0.0, "lat": 38.939502, "name": "fdb07233d20d1400bc21a6909cb643ae", "fusion_lon": 0.0, "bike_id": "fdb07233d20d1400bc21a6909cb643ae", "is_disabled": 0, "is_reserved": 0}, {"rental_uris": {"ios": "https://dc.lft.to/lastmile_qr_scan", "android": "https://dc.lft.to/lastmile_qr_scan"}, "lon": -77.0408495, "type": "electric_scooter", "fusion_lat": 0.0, "lat": 38.90719266666667, "name": "ab9176ce1a1c32db59511613d6f011be", "fusion_lon": 0.0, "bike_id": "ab9176ce1a1c32db59511613d6f011be", "is_disabled": 0, "is_reserved": 0}, {"rental_uris": {"ios": "https://dc.lft.to/lastmile_qr_scan", "android": "https://dc.lft.to/lastmile_qr_scan"}, "lon": -77.03350966666666, "type": "electric_scooter", "fusion_lat": 0.0, "lat": 38.895308, "name": "2a24f0c5217b2b1de86df96b6f49fd8d", "fusion_lon": 0.0, "bike_id": "2a24f0c5217b2b1de86df96b6f49fd8d", "is_disabled": 0, "is_reserved": 0}, {"rental_uris": {"ios": "https://dc.lft.to/lastmile_qr_scan", "android": "https://dc.lft.to/lastmile_qr_scan"}, "lon": -77.01088066666667, "type": "electric_scooter", "fusion_lat": 0.0, "lat": 38.918123666666666, "name": "ee313779a46302eaecec08f7bebfc4de", "fusion_lon": 0.0, "bike_id": "ee313779a46302eaecec08f7bebfc4de", "is_disabled": 0, "is_reserved": 0}, {"rental_uris": {"ios": "https://dc.lft.to/lastmile_qr_scan", "android": "https://dc.lft.to/lastmile_qr_scan"}, "lon": -76.97989916666667, "type": "electric_bike", "fusion_lat": 0.0, "lat": 38.87747366666667, "name": "bb1c02de0cf6dd808b9c2d7230c8709e", "fusion_lon": 0.0, "bike_id": "bb1c02de0cf6dd808b9c2d7230c8709e", "is_disabled": 0, "is_reserved": 0}, {"rental_uris": {"ios": "https://dc.lft.to/lastmile_qr_scan", "android": "https://dc.lft.to/lastmile_qr_scan"}, "lon": -77.04996416666667, "type": "electric_scooter", "fusion_lat": 0.0, "lat": 38.892275166666664, "name": "c4acfa3b5d61d9d4fd2deee34e069ea9", "fusion_lon": 0.0, "bike_id": "c4acfa3b5d61d9d4fd2deee34e069ea9", "is_disabled": 0, "is_reserved": 0}, {"rental_uris": {"ios": "https://dc.lft.to/lastmile_qr_scan", "android": "https://dc.lft.to/lastmile_qr_scan"}, "lon": -77.03954183333333, "type": "electric_scooter", "fusion_lat": 0.0, "lat": 38.89855433333334, "name": "89b80a8c6485d6e8f8d688baed5cb32b", "fusion_lon": 0.0, "bike_id": "89b80a8c6485d6e8f8d688baed5cb32b", "is_disabled": 0, "is_reserved": 0}, {"rental_uris": {"ios": "https://dc.lft.to/lastmile_qr_scan", "android": "https://dc.lft.to/lastmile_qr_scan"}, "lon": -77.03293966666666, "type": "electric_scooter", "fusion_lat": 0.0, "lat": 38.922170666666666, "name": "566eff5f0af751dda58b6defd2d91d1b", "fusion_lon": 0.0, "bike_id": "566eff5f0af751dda58b6defd2d91d1b", "is_disabled": 0, "is_reserved": 0}, {"rental_uris": {"ios": "https://dc.lft.to/lastmile_qr_scan", "android": "https://dc.lft.to/lastmile_qr_scan"}, "lon": -77.05678016666667, "type": "electric_scooter", "fusion_lat": 0.0, "lat": 38.905187833333336, "name": "58496d046a893714ec24652ea35884d2", "fusion_lon": 0.0, "bike_id": "58496d046a893714ec24652ea35884d2", "is_disabled": 0, "is_reserved": 0}, {"rental_uris": {"ios": "https://dc.lft.to/lastmile_qr_scan", "android": "https://dc.lft.to/lastmile_qr_scan"}, "lon": -77.03197683333333, "type": "electric_scooter", "fusion_lat": 0.0, "lat": 38.91238366666666, "name": "da75e02d31fa4650ed309499216f50df", "fusion_lon": 0.0, "bike_id": "da75e02d31fa4650ed309499216f50df", "is_disabled": 0, "is_reserved": 0}, {"rental_uris": {"ios": "https://dc.lft.to/lastmile_qr_scan", "android": "https://dc.lft.to/lastmile_qr_scan"}, "lon": -77.04646916666667, "type": "electric_scooter", "fusion_lat": 0.0, "lat": 38.915771166666666, "name": "161be1cae07376d21795fb7d6693e3ef", "fusion_lon": 0.0, "bike_id": "161be1cae07376d21795fb7d6693e3ef", "is_disabled": 0, "is_reserved": 0}, {"rental_uris": {"ios": "https://dc.lft.to/lastmile_qr_scan", "android": "https://dc.lft.to/lastmile_qr_scan"}, "lon": -77.04655383333333, "type": "electric_scooter", "fusion_lat": 0.0, "lat": 38.89645616666667, "name": "471e8ffae89816d66fa2fe232123c458", "fusion_lon": 0.0, "bike_id": "471e8ffae89816d66fa2fe232123c458", "is_disabled": 0, "is_reserved": 0}, {"rental_uris": {"ios": "https://dc.lft.to/lastmile_qr_scan", "android": "https://dc.lft.to/lastmile_qr_scan"}, "lon": -76.97324216666667, "type": "electric_scooter", "fusion_lat": 0.0, "lat": 38.93031383333334, "name": "b609710ced1173f6ab90b33a87fe5398", "fusion_lon": 0.0, "bike_id": "b609710ced1173f6ab90b33a87fe5398", "is_disabled": 0, "is_reserved": 0}, {"rental_uris": {"ios": "https://dc.lft.to/lastmile_qr_scan", "android": "https://dc.lft.to/lastmile_qr_scan"}, "lon": -76.985688, "type": "electric_scooter", "fusion_lat": 0.0, "lat": 38.8614365, "name": "28bd617464c46ccabb4f883b99447a54", "fusion_lon": 0.0, "bike_id": "28bd617464c46ccabb4f883b99447a54", "is_disabled": 0, "is_reserved": 0}, {"rental_uris": {"ios": "https://dc.lft.to/lastmile_qr_scan", "android": "https://dc.lft.to/lastmile_qr_scan"}, "lon": -76.97506216666666, "type": "electric_bike", "fusion_lat": 0.0, "lat": 38.919294, "name": "1849a1b9a4436981faab3d9f2942d8fc", "fusion_lon": 0.0, "bike_id": "1849a1b9a4436981faab3d9f2942d8fc", "is_disabled": 0, "is_reserved": 0}, {"rental_uris": {"ios": "https://dc.lft.to/lastmile_qr_scan", "android": "https://dc.lft.to/lastmile_qr_scan"}, "lon": -77.05717633333333, "type": "electric_scooter", "fusion_lat": 0.0, "lat": 38.90532683333333, "name": "99b0fbb581fc7c5ee0a869397dd572a4", "fusion_lon": 0.0, "bike_id": "99b0fbb581fc7c5ee0a869397dd572a4", "is_disabled": 0, "is_reserved": 0}, {"rental_uris": {"ios": "https://dc.lft.to/lastmile_qr_scan", "android": "https://dc.lft.to/lastmile_qr_scan"}, "lon": -77.0319585, "type": "electric_scooter", "fusion_lat": 0.0, "lat": 38.91679833333333, "name": "89e051cb0175e179c1ed478c8b6aaed0", "fusion_lon": 0.0, "bike_id": "89e051cb0175e179c1ed478c8b6aaed0", "is_disabled": 0, "is_reserved": 0}, {"rental_uris": {"ios": "https://dc.lft.to/lastmile_qr_scan", "android": "https://dc.lft.to/lastmile_qr_scan"}, "lon": -76.99617483333333, "type": "electric_scooter", "fusion_lat": 0.0, "lat": 38.88621583333333, "name": "586a4529f52ac1bdb335c4cf113fda2a", "fusion_lon": 0.0, "bike_id": "586a4529f52ac1bdb335c4cf113fda2a", "is_disabled": 0, "is_reserved": 0}, {"rental_uris": {"ios": "https://dc.lft.to/lastmile_qr_scan", "android": "https://dc.lft.to/lastmile_qr_scan"}, "lon": -76.99868883333333, "type": "electric_scooter", "fusion_lat": 0.0, "lat": 38.90020483333333, "name": "6170a17a364a04b9819953358a2d6392", "fusion_lon": 0.0, "bike_id": "6170a17a364a04b9819953358a2d6392", "is_disabled": 0, "is_reserved": 0}, {"rental_uris": {"ios": "https://dc.lft.to/lastmile_qr_scan", "android": "https://dc.lft.to/lastmile_qr_scan"}, "lon": -77.01969366666667, "type": "electric_scooter", "fusion_lat": 0.0, "lat": 38.878393, "name": "ae2e44a8e5c41aae1a01ac20fa84a8aa", "fusion_lon": 0.0, "bike_id": "ae2e44a8e5c41aae1a01ac20fa84a8aa", "is_disabled": 0, "is_reserved": 0}, {"rental_uris": {"ios": "https://dc.lft.to/lastmile_qr_scan", "android": "https://dc.lft.to/lastmile_qr_scan"}, "lon": -77.07617433333333, "type": "electric_scooter", "fusion_lat": 0.0, "lat": 38.912547, "name": "783b6bfe64b099588055c2b2b4e0e359", "fusion_lon": 0.0, "bike_id": "783b6bfe64b099588055c2b2b4e0e359", "is_disabled": 0, "is_reserved": 0}, {"rental_uris": {"ios": "https://dc.lft.to/lastmile_qr_scan", "android": "https://dc.lft.to/lastmile_qr_scan"}, "lon": -77.0013295, "type": "electric_scooter", "fusion_lat": 0.0, "lat": 38.90415083333333, "name": "6c7f195a544fb8d5ed58f025eec652e0", "fusion_lon": 0.0, "bike_id": "6c7f195a544fb8d5ed58f025eec652e0", "is_disabled": 0, "is_reserved": 0}, {"rental_uris": {"ios": "https://dc.lft.to/lastmile_qr_scan", "android": "https://dc.lft.to/lastmile_qr_scan"}, "lon": -77.05123866666666, "type": "electric_scooter", "fusion_lat": 0.0, "lat": 38.9235955, "name": "8924d0a45abd31f7082c095b4df9ebe6", "fusion_lon": 0.0, "bike_id": "8924d0a45abd31f7082c095b4df9ebe6", "is_disabled": 0, "is_reserved": 0}, {"rental_uris": {"ios": "https://dc.lft.to/lastmile_qr_scan", "android": "https://dc.lft.to/lastmile_qr_scan"}, "lon": -77.00929, "type": "electric_scooter", "fusion_lat": 0.0, "lat": 38.896052, "name": "080ec7a903d480835f618a338019a99f", "fusion_lon": 0.0, "bike_id": "080ec7a903d480835f618a338019a99f", "is_disabled": 0, "is_reserved": 0}, {"rental_uris": {"ios": "https://dc.lft.to/lastmile_qr_scan", "android": "https://dc.lft.to/lastmile_qr_scan"}, "lon": -77.03441216666667, "type": "electric_scooter", "fusion_lat": 0.0, "lat": 38.918378, "name": "07c5269783ed69bd755a976f12860513", "fusion_lon": 0.0, "bike_id": "07c5269783ed69bd755a976f12860513", "is_disabled": 0, "is_reserved": 0}, {"rental_uris": {"ios": "https://dc.lft.to/lastmile_qr_scan", "android": "https://dc.lft.to/lastmile_qr_scan"}, "lon": -76.99163833333333, "type": "electric_scooter", "fusion_lat": 0.0, "lat": 38.893388333333334, "name": "82dc57c20c9815efb24b15c0ec2b18f7", "fusion_lon": 0.0, "bike_id": "82dc57c20c9815efb24b15c0ec2b18f7", "is_disabled": 0, "is_reserved": 0}, {"rental_uris": {"ios": "https://dc.lft.to/lastmile_qr_scan", "android": "https://dc.lft.to/lastmile_qr_scan"}, "lon": -76.99877316666667, "type": "electric_scooter", "fusion_lat": 0.0, "lat": 38.90014883333333, "name": "dd62dee952f692e19ff4dc88d8759f8a", "fusion_lon": 0.0, "bike_id": "dd62dee952f692e19ff4dc88d8759f8a", "is_disabled": 0, "is_reserved": 0}, {"rental_uris": {"ios": "https://dc.lft.to/lastmile_qr_scan", "android": "https://dc.lft.to/lastmile_qr_scan"}, "lon": -77.0313775, "type": "electric_scooter", "fusion_lat": 0.0, "lat": 38.89722233333333, "name": "e22938ce198934f08390762dd812906a", "fusion_lon": 0.0, "bike_id": "e22938ce198934f08390762dd812906a", "is_disabled": 0, "is_reserved": 0}, {"rental_uris": {"ios": "https://dc.lft.to/lastmile_qr_scan", "android": "https://dc.lft.to/lastmile_qr_scan"}, "lon": -77.04506316666667, "type": "electric_scooter", "fusion_lat": 0.0, "lat": 38.90557966666667, "name": "c8890382da9b86d9c5a71459892b7080", "fusion_lon": 0.0, "bike_id": "c8890382da9b86d9c5a71459892b7080", "is_disabled": 0, "is_reserved": 0}, {"rental_uris": {"ios": "https://dc.lft.to/lastmile_qr_scan", "android": "https://dc.lft.to/lastmile_qr_scan"}, "lon": -77.04429433333334, "type": "electric_scooter", "fusion_lat": 0.0, "lat": 38.905636666666666, "name": "d42aed12971d8b7842f9b850b126ca80", "fusion_lon": 0.0, "bike_id": "d42aed12971d8b7842f9b850b126ca80", "is_disabled": 0, "is_reserved": 0}, {"rental_uris": {"ios": "https://dc.lft.to/lastmile_qr_scan", "android": "https://dc.lft.to/lastmile_qr_scan"}, "lon": -77.012088, "type": "electric_scooter", "fusion_lat": 0.0, "lat": 38.91518283333333, "name": "c25d01d3b4822d9cf24ca3442d6e2a12", "fusion_lon": 0.0, "bike_id": "c25d01d3b4822d9cf24ca3442d6e2a12", "is_disabled": 0, "is_reserved": 0}, {"rental_uris": {"ios": "https://dc.lft.to/lastmile_qr_scan", "android": "https://dc.lft.to/lastmile_qr_scan"}, "lon": -77.017643, "type": "electric_scooter", "fusion_lat": 0.0, "lat": 38.90255716666667, "name": "5bb7b4252faa7c2728e7096dba7a3413", "fusion_lon": 0.0, "bike_id": "5bb7b4252faa7c2728e7096dba7a3413", "is_disabled": 0, "is_reserved": 0}, {"rental_uris": {"ios": "https://dc.lft.to/lastmile_qr_scan", "android": "https://dc.lft.to/lastmile_qr_scan"}, "lon": -77.02697016666667, "type": "electric_scooter", "fusion_lat": 0.0, "lat": 38.918634, "name": "fbecaecae3045ee59b0fbc8fbe94de29", "fusion_lon": 0.0, "bike_id": "fbecaecae3045ee59b0fbc8fbe94de29", "is_disabled": 0, "is_reserved": 0}, {"rental_uris": {"ios": "https://dc.lft.to/lastmile_qr_scan", "android": "https://dc.lft.to/lastmile_qr_scan"}, "lon": -77.031871, "type": "electric_scooter", "fusion_lat": 0.0, "lat": 38.913494, "name": "eac552f2036028d743a94c937ae6b95f", "fusion_lon": 0.0, "bike_id": "eac552f2036028d743a94c937ae6b95f", "is_disabled": 0, "is_reserved": 0}, {"rental_uris": {"ios": "https://dc.lft.to/lastmile_qr_scan", "android": "https://dc.lft.to/lastmile_qr_scan"}, "lon": -77.05680416666667, "type": "electric_scooter", "fusion_lat": 0.0, "lat": 38.905150166666665, "name": "3a9f1900b2331f09b450933f6d5687e7", "fusion_lon": 0.0, "bike_id": "3a9f1900b2331f09b450933f6d5687e7", "is_disabled": 0, "is_reserved": 0}, {"rental_uris": {"ios": "https://dc.lft.to/lastmile_qr_scan", "android": "https://dc.lft.to/lastmile_qr_scan"}, "lon": -77.02463566666667, "type": "electric_scooter", "fusion_lat": 0.0, "lat": 38.8973255, "name": "534c67b802b80973ceead5dda47e14fc", "fusion_lon": 0.0, "bike_id": "534c67b802b80973ceead5dda47e14fc", "is_disabled": 0, "is_reserved": 0}, {"rental_uris": {"ios": "https://dc.lft.to/lastmile_qr_scan", "android": "https://dc.lft.to/lastmile_qr_scan"}, "lon": -77.0278205, "type": "electric_scooter", "fusion_lat": 0.0, "lat": 38.918114833333334, "name": "c5e0d3cb6029daf0d663c4c5e91d3bca", "fusion_lon": 0.0, "bike_id": "c5e0d3cb6029daf0d663c4c5e91d3bca", "is_disabled": 0, "is_reserved": 0}, {"rental_uris": {"ios": "https://dc.lft.to/lastmile_qr_scan", "android": "https://dc.lft.to/lastmile_qr_scan"}, "lon": -77.03284, "type": "electric_scooter", "fusion_lat": 0.0, "lat": 38.93641433333333, "name": "0a938da120c1d6bbb12c15a598929a6e", "fusion_lon": 0.0, "bike_id": "0a938da120c1d6bbb12c15a598929a6e", "is_disabled": 0, "is_reserved": 0}, {"rental_uris": {"ios": "https://dc.lft.to/lastmile_qr_scan", "android": "https://dc.lft.to/lastmile_qr_scan"}, "lon": -76.999487, "type": "electric_scooter", "fusion_lat": 0.0, "lat": 38.84290766666667, "name": "53a107620c6c5b975b10dad2a63b2d40", "fusion_lon": 0.0, "bike_id": "53a107620c6c5b975b10dad2a63b2d40", "is_disabled": 0, "is_reserved": 0}, {"rental_uris": {"ios": "https://dc.lft.to/lastmile_qr_scan", "android": "https://dc.lft.to/lastmile_qr_scan"}, "lon": -77.03223033333333, "type": "electric_scooter", "fusion_lat": 0.0, "lat": 38.96236866666667, "name": "c4e3d9b05fb3180cd9b28a785bce5ce6", "fusion_lon": 0.0, "bike_id": "c4e3d9b05fb3180cd9b28a785bce5ce6", "is_disabled": 0, "is_reserved": 0}, {"rental_uris": {"ios": "https://dc.lft.to/lastmile_qr_scan", "android": "https://dc.lft.to/lastmile_qr_scan"}, "lon": -77.03971633333333, "type": "electric_scooter", "fusion_lat": 0.0, "lat": 38.924507, "name": "33b780d26f81fd8193ef10d8e8877045", "fusion_lon": 0.0, "bike_id": "33b780d26f81fd8193ef10d8e8877045", "is_disabled": 0, "is_reserved": 0}, {"rental_uris": {"ios": "https://dc.lft.to/lastmile_qr_scan", "android": "https://dc.lft.to/lastmile_qr_scan"}, "lon": -77.04903233333333, "type": "electric_bike", "fusion_lat": 0.0, "lat": 38.87492816666666, "name": "2c3cd0c262d23368269b0b2681591d90", "fusion_lon": 0.0, "bike_id": "2c3cd0c262d23368269b0b2681591d90", "is_disabled": 0, "is_reserved": 0}, {"rental_uris": {"ios": "https://dc.lft.to/lastmile_qr_scan", "android": "https://dc.lft.to/lastmile_qr_scan"}, "lon": -77.06284066666667, "type": "electric_scooter", "fusion_lat": 0.0, "lat": 38.90683033333333, "name": "f233650031604133c9b912199808c542", "fusion_lon": 0.0, "bike_id": "f233650031604133c9b912199808c542", "is_disabled": 0, "is_reserved": 0}, {"rental_uris": {"ios": "https://dc.lft.to/lastmile_qr_scan", "android": "https://dc.lft.to/lastmile_qr_scan"}, "lon": -77.10033316666667, "type": "electric_bike", "fusion_lat": 0.0, "lat": 38.990612666666664, "name": "4e5b01a9fb1dd67c1544463d4d7dd456", "fusion_lon": 0.0, "bike_id": "4e5b01a9fb1dd67c1544463d4d7dd456", "is_disabled": 0, "is_reserved": 0}, {"rental_uris": {"ios": "https://dc.lft.to/lastmile_qr_scan", "android": "https://dc.lft.to/lastmile_qr_scan"}, "lon": -76.990482, "type": "electric_scooter", "fusion_lat": 0.0, "lat": 38.90134883333333, "name": "b484a31936690cb9e24b5f4f71437f67", "fusion_lon": 0.0, "bike_id": "b484a31936690cb9e24b5f4f71437f67", "is_disabled": 0, "is_reserved": 0}, {"rental_uris": {"ios": "https://dc.lft.to/lastmile_qr_scan", "android": "https://dc.lft.to/lastmile_qr_scan"}, "lon": -77.02198816666667, "type": "electric_scooter", "fusion_lat": 0.0, "lat": 38.91040566666667, "name": "73814ab20a817f9d0af21d325c130596", "fusion_lon": 0.0, "bike_id": "73814ab20a817f9d0af21d325c130596", "is_disabled": 0, "is_reserved": 0}, {"rental_uris": {"ios": "https://dc.lft.to/lastmile_qr_scan", "android": "https://dc.lft.to/lastmile_qr_scan"}, "lon": -77.04181266666667, "type": "electric_scooter", "fusion_lat": 0.0, "lat": 38.92302733333333, "name": "9151e70528207974eeef44184a868412", "fusion_lon": 0.0, "bike_id": "9151e70528207974eeef44184a868412", "is_disabled": 0, "is_reserved": 0}, {"rental_uris": {"ios": "https://dc.lft.to/lastmile_qr_scan", "android": "https://dc.lft.to/lastmile_qr_scan"}, "lon": -76.94655766666666, "type": "electric_scooter", "fusion_lat": 0.0, "lat": 38.898248, "name": "d00392423d03f8885f08e769bb40cad1", "fusion_lon": 0.0, "bike_id": "d00392423d03f8885f08e769bb40cad1", "is_disabled": 0, "is_reserved": 0}, {"rental_uris": {"ios": "https://dc.lft.to/lastmile_qr_scan", "android": "https://dc.lft.to/lastmile_qr_scan"}, "lon": -77.00362366666667, "type": "electric_scooter", "fusion_lat": 0.0, "lat": 38.897667166666665, "name": "c9fd282b01b264226a126b317757780e", "fusion_lon": 0.0, "bike_id": "c9fd282b01b264226a126b317757780e", "is_disabled": 0, "is_reserved": 0}, {"rental_uris": {"ios": "https://dc.lft.to/lastmile_qr_scan", "android": "https://dc.lft.to/lastmile_qr_scan"}, "lon": -76.98573233333333, "type": "electric_scooter", "fusion_lat": 0.0, "lat": 38.89882933333333, "name": "4345fde533e2c918a671f6c02b69c6c3", "fusion_lon": 0.0, "bike_id": "4345fde533e2c918a671f6c02b69c6c3", "is_disabled": 0, "is_reserved": 0}, {"rental_uris": {"ios": "https://dc.lft.to/lastmile_qr_scan", "android": "https://dc.lft.to/lastmile_qr_scan"}, "lon": -77.05021, "type": "electric_scooter", "fusion_lat": 0.0, "lat": 38.9037355, "name": "58ad7ae5edd9d459284d10fd333a5c4a", "fusion_lon": 0.0, "bike_id": "58ad7ae5edd9d459284d10fd333a5c4a", "is_disabled": 0, "is_reserved": 0}, {"rental_uris": {"ios": "https://dc.lft.to/lastmile_qr_scan", "android": "https://dc.lft.to/lastmile_qr_scan"}, "lon": -77.07152, "type": "electric_scooter", "fusion_lat": 0.0, "lat": 38.9077245, "name": "7359a2c62c8dddad1722f62c3f6fe1c3", "fusion_lon": 0.0, "bike_id": "7359a2c62c8dddad1722f62c3f6fe1c3", "is_disabled": 0, "is_reserved": 0}, {"rental_uris": {"ios": "https://dc.lft.to/lastmile_qr_scan", "android": "https://dc.lft.to/lastmile_qr_scan"}, "lon": -77.09559616666667, "type": "electric_bike", "fusion_lat": 0.0, "lat": 38.91705433333333, "name": "01a1ff6b7a1d512e984e57d696dce7e6", "fusion_lon": 0.0, "bike_id": "01a1ff6b7a1d512e984e57d696dce7e6", "is_disabled": 0, "is_reserved": 0}, {"rental_uris": {"ios": "https://dc.lft.to/lastmile_qr_scan", "android": "https://dc.lft.to/lastmile_qr_scan"}, "lon": -76.9165325, "type": "electric_bike", "fusion_lat": 0.0, "lat": 38.86861066666667, "name": "ea525dbe084cf236b290be679efd63cd", "fusion_lon": 0.0, "bike_id": "ea525dbe084cf236b290be679efd63cd", "is_disabled": 0, "is_reserved": 0}, {"rental_uris": {"ios": "https://dc.lft.to/lastmile_qr_scan", "android": "https://dc.lft.to/lastmile_qr_scan"}, "lon": -77.04491883333333, "type": "electric_scooter", "fusion_lat": 0.0, "lat": 38.919199166666665, "name": "2f2dcb96bc789e5828fb87f2e7a33c40", "fusion_lon": 0.0, "bike_id": "2f2dcb96bc789e5828fb87f2e7a33c40", "is_disabled": 0, "is_reserved": 0}, {"rental_uris": {"ios": "https://dc.lft.to/lastmile_qr_scan", "android": "https://dc.lft.to/lastmile_qr_scan"}, "lon": -77.0333715, "type": "electric_scooter", "fusion_lat": 0.0, "lat": 38.901304833333334, "name": "f033a975e641eb7fcb2501cefedc67c3", "fusion_lon": 0.0, "bike_id": "f033a975e641eb7fcb2501cefedc67c3", "is_disabled": 0, "is_reserved": 0}, {"rental_uris": {"ios": "https://dc.lft.to/lastmile_qr_scan", "android": "https://dc.lft.to/lastmile_qr_scan"}, "lon": -77.0021455, "type": "electric_scooter", "fusion_lat": 0.0, "lat": 38.90223483333333, "name": "eb4f273a6ff34295ac0c017dc89ab21e", "fusion_lon": 0.0, "bike_id": "eb4f273a6ff34295ac0c017dc89ab21e", "is_disabled": 0, "is_reserved": 0}, {"rental_uris": {"ios": "https://dc.lft.to/lastmile_qr_scan", "android": "https://dc.lft.to/lastmile_qr_scan"}, "lon": -77.00572966666667, "type": "electric_scooter", "fusion_lat": 0.0, "lat": 38.87218933333333, "name": "a0971a952c2ae855eb174872392d9d6d", "fusion_lon": 0.0, "bike_id": "a0971a952c2ae855eb174872392d9d6d", "is_disabled": 0, "is_reserved": 0}, {"rental_uris": {"ios": "https://dc.lft.to/lastmile_qr_scan", "android": "https://dc.lft.to/lastmile_qr_scan"}, "lon": -77.02229016666666, "type": "electric_scooter", "fusion_lat": 0.0, "lat": 38.9126775, "name": "b2655af5ca0f0087226fce04ff6c3007", "fusion_lon": 0.0, "bike_id": "b2655af5ca0f0087226fce04ff6c3007", "is_disabled": 0, "is_reserved": 0}, {"rental_uris": {"ios": "https://dc.lft.to/lastmile_qr_scan", "android": "https://dc.lft.to/lastmile_qr_scan"}, "lon": -76.948913, "type": "electric_scooter", "fusion_lat": 0.0, "lat": 38.89529, "name": "75752090a2ec1585526732e864c7727d", "fusion_lon": 0.0, "bike_id": "75752090a2ec1585526732e864c7727d", "is_disabled": 0, "is_reserved": 0}, {"rental_uris": {"ios": "https://dc.lft.to/lastmile_qr_scan", "android": "https://dc.lft.to/lastmile_qr_scan"}, "lon": -77.12730116666667, "type": "electric_bike", "fusion_lat": 0.0, "lat": 38.8955865, "name": "156ad460c9fe65ea599dae2e1dfc56c1", "fusion_lon": 0.0, "bike_id": "156ad460c9fe65ea599dae2e1dfc56c1", "is_disabled": 0, "is_reserved": 0}, {"rental_uris": {"ios": "https://dc.lft.to/lastmile_qr_scan", "android": "https://dc.lft.to/lastmile_qr_scan"}, "lon": -77.0325785, "type": "electric_scooter", "fusion_lat": 0.0, "lat": 38.932406, "name": "f5ff16a53903d25c54ac60854f9c8558", "fusion_lon": 0.0, "bike_id": "f5ff16a53903d25c54ac60854f9c8558", "is_disabled": 0, "is_reserved": 0}, {"rental_uris": {"ios": "https://dc.lft.to/lastmile_qr_scan", "android": "https://dc.lft.to/lastmile_qr_scan"}, "lon": -77.04797533333333, "type": "electric_scooter", "fusion_lat": 0.0, "lat": 38.899517833333334, "name": "789abb58ee4ca0af2af0a59d2ea2f5ea", "fusion_lon": 0.0, "bike_id": "789abb58ee4ca0af2af0a59d2ea2f5ea", "is_disabled": 0, "is_reserved": 0}, {"rental_uris": {"ios": "https://dc.lft.to/lastmile_qr_scan", "android": "https://dc.lft.to/lastmile_qr_scan"}, "lon": -77.03189033333334, "type": "electric_scooter", "fusion_lat": 0.0, "lat": 38.9206345, "name": "dadf03f2c211b3972b8fab075e227829", "fusion_lon": 0.0, "bike_id": "dadf03f2c211b3972b8fab075e227829", "is_disabled": 0, "is_reserved": 0}, {"rental_uris": {"ios": "https://dc.lft.to/lastmile_qr_scan", "android": "https://dc.lft.to/lastmile_qr_scan"}, "lon": -77.021768, "type": "electric_scooter", "fusion_lat": 0.0, "lat": 38.88034416666667, "name": "42fe8d7c03d76813caef37a1bfb9e459", "fusion_lon": 0.0, "bike_id": "42fe8d7c03d76813caef37a1bfb9e459", "is_disabled": 0, "is_reserved": 0}, {"rental_uris": {"ios": "https://dc.lft.to/lastmile_qr_scan", "android": "https://dc.lft.to/lastmile_qr_scan"}, "lon": -77.04168016666667, "type": "electric_scooter", "fusion_lat": 0.0, "lat": 38.91860966666667, "name": "816290f406c07a4dc11a1b75b0ed62bb", "fusion_lon": 0.0, "bike_id": "816290f406c07a4dc11a1b75b0ed62bb", "is_disabled": 0, "is_reserved": 0}, {"rental_uris": {"ios": "https://dc.lft.to/lastmile_qr_scan", "android": "https://dc.lft.to/lastmile_qr_scan"}, "lon": -77.0249315, "type": "electric_scooter", "fusion_lat": 0.0, "lat": 38.938949666666666, "name": "af5fbc4a7789cdca5a814e8761fc2965", "fusion_lon": 0.0, "bike_id": "af5fbc4a7789cdca5a814e8761fc2965", "is_disabled": 0, "is_reserved": 0}, {"rental_uris": {"ios": "https://dc.lft.to/lastmile_qr_scan", "android": "https://dc.lft.to/lastmile_qr_scan"}, "lon": -76.98392766666667, "type": "electric_scooter", "fusion_lat": 0.0, "lat": 38.8783465, "name": "5605ab6c58b4f3db3e745689dcbe0370", "fusion_lon": 0.0, "bike_id": "5605ab6c58b4f3db3e745689dcbe0370", "is_disabled": 0, "is_reserved": 0}, {"rental_uris": {"ios": "https://dc.lft.to/lastmile_qr_scan", "android": "https://dc.lft.to/lastmile_qr_scan"}, "lon": -76.98096383333333, "type": "electric_bike", "fusion_lat": 0.0, "lat": 38.88133533333333, "name": "e9a0a25588c91f7ba49a1e4963dbebe7", "fusion_lon": 0.0, "bike_id": "e9a0a25588c91f7ba49a1e4963dbebe7", "is_disabled": 0, "is_reserved": 0}, {"rental_uris": {"ios": "https://dc.lft.to/lastmile_qr_scan", "android": "https://dc.lft.to/lastmile_qr_scan"}, "lon": -77.07102633333334, "type": "electric_bike", "fusion_lat": 0.0, "lat": 38.91445616666667, "name": "8162409f0f967bf4931acb1b5463e61b", "fusion_lon": 0.0, "bike_id": "8162409f0f967bf4931acb1b5463e61b", "is_disabled": 0, "is_reserved": 0}, {"rental_uris": {"ios": "https://dc.lft.to/lastmile_qr_scan", "android": "https://dc.lft.to/lastmile_qr_scan"}, "lon": -77.03765133333333, "type": "electric_scooter", "fusion_lat": 0.0, "lat": 38.916899666666666, "name": "d5332a0876b16c7aba6a60a49ef43a4b", "fusion_lon": 0.0, "bike_id": "d5332a0876b16c7aba6a60a49ef43a4b", "is_disabled": 0, "is_reserved": 0}, {"rental_uris": {"ios": "https://dc.lft.to/lastmile_qr_scan", "android": "https://dc.lft.to/lastmile_qr_scan"}, "lon": -77.0772545, "type": "electric_scooter", "fusion_lat": 0.0, "lat": 38.947019833333336, "name": "e4e612f9898e6f0c97ba7749f384bf5f", "fusion_lon": 0.0, "bike_id": "e4e612f9898e6f0c97ba7749f384bf5f", "is_disabled": 0, "is_reserved": 0}, {"rental_uris": {"ios": "https://dc.lft.to/lastmile_qr_scan", "android": "https://dc.lft.to/lastmile_qr_scan"}, "lon": -77.03215816666666, "type": "electric_scooter", "fusion_lat": 0.0, "lat": 38.92675, "name": "12c2086daa9a49ff8edf4483b538644f", "fusion_lon": 0.0, "bike_id": "12c2086daa9a49ff8edf4483b538644f", "is_disabled": 0, "is_reserved": 0}, {"rental_uris": {"ios": "https://dc.lft.to/lastmile_qr_scan", "android": "https://dc.lft.to/lastmile_qr_scan"}, "lon": -77.0250975, "type": "electric_bike", "fusion_lat": 0.0, "lat": 38.9341235, "name": "9dc1090f96dfa7a70e7744ebfc03a12d", "fusion_lon": 0.0, "bike_id": "9dc1090f96dfa7a70e7744ebfc03a12d", "is_disabled": 0, "is_reserved": 0}, {"rental_uris": {"ios": "https://dc.lft.to/lastmile_qr_scan", "android": "https://dc.lft.to/lastmile_qr_scan"}, "lon": -77.03462383333333, "type": "electric_scooter", "fusion_lat": 0.0, "lat": 38.92348583333333, "name": "0991d3e2b0932694d9d4a93e2bea812b", "fusion_lon": 0.0, "bike_id": "0991d3e2b0932694d9d4a93e2bea812b", "is_disabled": 0, "is_reserved": 0}, {"rental_uris": {"ios": "https://dc.lft.to/lastmile_qr_scan", "android": "https://dc.lft.to/lastmile_qr_scan"}, "lon": -77.03211766666666, "type": "electric_scooter", "fusion_lat": 0.0, "lat": 38.91708833333333, "name": "15a747bc647277c4909f7247b32c6ebd", "fusion_lon": 0.0, "bike_id": "15a747bc647277c4909f7247b32c6ebd", "is_disabled": 0, "is_reserved": 0}, {"rental_uris": {"ios": "https://dc.lft.to/lastmile_qr_scan", "android": "https://dc.lft.to/lastmile_qr_scan"}, "lon": -77.0117085, "type": "electric_bike", "fusion_lat": 0.0, "lat": 38.87226416666667, "name": "0eede38c2f57f2cfc24db1255b12c2e6", "fusion_lon": 0.0, "bike_id": "0eede38c2f57f2cfc24db1255b12c2e6", "is_disabled": 0, "is_reserved": 0}, {"rental_uris": {"ios": "https://dc.lft.to/lastmile_qr_scan", "android": "https://dc.lft.to/lastmile_qr_scan"}, "lon": -77.02349733333334, "type": "electric_scooter", "fusion_lat": 0.0, "lat": 38.933877, "name": "bc3c3dac05dc6f1e92dcddcb3cec8226", "fusion_lon": 0.0, "bike_id": "bc3c3dac05dc6f1e92dcddcb3cec8226", "is_disabled": 0, "is_reserved": 0}, {"rental_uris": {"ios": "https://dc.lft.to/lastmile_qr_scan", "android": "https://dc.lft.to/lastmile_qr_scan"}, "lon": -76.972664, "type": "electric_bike", "fusion_lat": 0.0, "lat": 38.919121833333335, "name": "83470f0438be87fa6903b1350dd00932", "fusion_lon": 0.0, "bike_id": "83470f0438be87fa6903b1350dd00932", "is_disabled": 0, "is_reserved": 0}, {"rental_uris": {"ios": "https://dc.lft.to/lastmile_qr_scan", "android": "https://dc.lft.to/lastmile_qr_scan"}, "lon": -77.11919616666667, "type": "electric_bike", "fusion_lat": 0.0, "lat": 38.8409665, "name": "0b26af2a08f45b072f8b90ac64856926", "fusion_lon": 0.0, "bike_id": "0b26af2a08f45b072f8b90ac64856926", "is_disabled": 0, "is_reserved": 0}, {"rental_uris": {"ios": "https://dc.lft.to/lastmile_qr_scan", "android": "https://dc.lft.to/lastmile_qr_scan"}, "lon": -77.02716816666667, "type": "electric_scooter", "fusion_lat": 0.0, "lat": 38.881328, "name": "33d489c3567ad8416030a0e8e71b5e7e", "fusion_lon": 0.0, "bike_id": "33d489c3567ad8416030a0e8e71b5e7e", "is_disabled": 0, "is_reserved": 0}, {"rental_uris": {"ios": "https://dc.lft.to/lastmile_qr_scan", "android": "https://dc.lft.to/lastmile_qr_scan"}, "lon": -76.9361575, "type": "electric_bike", "fusion_lat": 0.0, "lat": 38.97060233333333, "name": "4ab45862c1a4e355648ac7cf1cedafc2", "fusion_lon": 0.0, "bike_id": "4ab45862c1a4e355648ac7cf1cedafc2", "is_disabled": 0, "is_reserved": 0}, {"rental_uris": {"ios": "https://dc.lft.to/lastmile_qr_scan", "android": "https://dc.lft.to/lastmile_qr_scan"}, "lon": -77.01441383333334, "type": "electric_scooter", "fusion_lat": 0.0, "lat": 38.919621166666666, "name": "52ed13ecaebf2d04f2fdd5979e0ce769", "fusion_lon": 0.0, "bike_id": "52ed13ecaebf2d04f2fdd5979e0ce769", "is_disabled": 0, "is_reserved": 0}, {"rental_uris": {"ios": "https://dc.lft.to/lastmile_qr_scan", "android": "https://dc.lft.to/lastmile_qr_scan"}, "lon": -77.07907333333333, "type": "electric_bike", "fusion_lat": 0.0, "lat": 38.839332, "name": "a092d86d39c58b0c5b985faba30982ab", "fusion_lon": 0.0, "bike_id": "a092d86d39c58b0c5b985faba30982ab", "is_disabled": 0, "is_reserved": 0}, {"rental_uris": {"ios": "https://dc.lft.to/lastmile_qr_scan", "android": "https://dc.lft.to/lastmile_qr_scan"}, "lon": -77.0297975, "type": "electric_scooter", "fusion_lat": 0.0, "lat": 38.895699, "name": "49405838bc191e8981b960da9657e200", "fusion_lon": 0.0, "bike_id": "49405838bc191e8981b960da9657e200", "is_disabled": 0, "is_reserved": 0}, {"rental_uris": {"ios": "https://dc.lft.to/lastmile_qr_scan", "android": "https://dc.lft.to/lastmile_qr_scan"}, "lon": -77.012636, "type": "electric_scooter", "fusion_lat": 0.0, "lat": 38.912688833333334, "name": "ad2e6643776093278ed4afbd8244289a", "fusion_lon": 0.0, "bike_id": "ad2e6643776093278ed4afbd8244289a", "is_disabled": 0, "is_reserved": 0}, {"rental_uris": {"ios": "https://dc.lft.to/lastmile_qr_scan", "android": "https://dc.lft.to/lastmile_qr_scan"}, "lon": -76.9951475, "type": "electric_scooter", "fusion_lat": 0.0, "lat": 38.87775516666667, "name": "590b161f75584736d202525a14ca3701", "fusion_lon": 0.0, "bike_id": "590b161f75584736d202525a14ca3701", "is_disabled": 0, "is_reserved": 0}, {"rental_uris": {"ios": "https://dc.lft.to/lastmile_qr_scan", "android": "https://dc.lft.to/lastmile_qr_scan"}, "lon": -77.00880083333334, "type": "electric_scooter", "fusion_lat": 0.0, "lat": 38.9139875, "name": "fc78d3efb16fc8e26d7ba2eda8555fc8", "fusion_lon": 0.0, "bike_id": "fc78d3efb16fc8e26d7ba2eda8555fc8", "is_disabled": 0, "is_reserved": 0}, {"rental_uris": {"ios": "https://dc.lft.to/lastmile_qr_scan", "android": "https://dc.lft.to/lastmile_qr_scan"}, "lon": -77.03992483333333, "type": "electric_bike", "fusion_lat": 0.0, "lat": 38.8987745, "name": "8ac8e9783a9a9ba25e8c8742cbf6891f", "fusion_lon": 0.0, "bike_id": "8ac8e9783a9a9ba25e8c8742cbf6891f", "is_disabled": 0, "is_reserved": 0}, {"rental_uris": {"ios": "https://dc.lft.to/lastmile_qr_scan", "android": "https://dc.lft.to/lastmile_qr_scan"}, "lon": -77.103408, "type": "electric_bike", "fusion_lat": 0.0, "lat": 38.852252166666666, "name": "1d0ad39ab68ee652fbd168ab6aab41ef", "fusion_lon": 0.0, "bike_id": "1d0ad39ab68ee652fbd168ab6aab41ef", "is_disabled": 0, "is_reserved": 0}, {"rental_uris": {"ios": "https://dc.lft.to/lastmile_qr_scan", "android": "https://dc.lft.to/lastmile_qr_scan"}, "lon": -76.94795033333334, "type": "electric_scooter", "fusion_lat": 0.0, "lat": 38.896291166666664, "name": "3eb4703b02783a36e5f63c9b16b7b4b1", "fusion_lon": 0.0, "bike_id": "3eb4703b02783a36e5f63c9b16b7b4b1", "is_disabled": 0, "is_reserved": 0}, {"rental_uris": {"ios": "https://dc.lft.to/lastmile_qr_scan", "android": "https://dc.lft.to/lastmile_qr_scan"}, "lon": -77.029773, "type": "electric_scooter", "fusion_lat": 0.0, "lat": 38.9623105, "name": "abd0731474ec4cdc471512899bba8d3b", "fusion_lon": 0.0, "bike_id": "abd0731474ec4cdc471512899bba8d3b", "is_disabled": 0, "is_reserved": 0}, {"rental_uris": {"ios": "https://dc.lft.to/lastmile_qr_scan", "android": "https://dc.lft.to/lastmile_qr_scan"}, "lon": -77.00138716666666, "type": "electric_scooter", "fusion_lat": 0.0, "lat": 38.904115833333336, "name": "417bcee8b40ac5e59218671011703fdc", "fusion_lon": 0.0, "bike_id": "417bcee8b40ac5e59218671011703fdc", "is_disabled": 0, "is_reserved": 0}, {"rental_uris": {"ios": "https://dc.lft.to/lastmile_qr_scan", "android": "https://dc.lft.to/lastmile_qr_scan"}, "lon": -77.055998, "type": "electric_scooter", "fusion_lat": 0.0, "lat": 38.937003833333335, "name": "7d0b69d019d13267d2c6c4559ebd2865", "fusion_lon": 0.0, "bike_id": "7d0b69d019d13267d2c6c4559ebd2865", "is_disabled": 0, "is_reserved": 0}, {"rental_uris": {"ios": "https://dc.lft.to/lastmile_qr_scan", "android": "https://dc.lft.to/lastmile_qr_scan"}, "lon": -77.04176083333333, "type": "electric_scooter", "fusion_lat": 0.0, "lat": 38.91860066666667, "name": "dc906cc350dfb475645561aa9d4e52d6", "fusion_lon": 0.0, "bike_id": "dc906cc350dfb475645561aa9d4e52d6", "is_disabled": 0, "is_reserved": 0}, {"rental_uris": {"ios": "https://dc.lft.to/lastmile_qr_scan", "android": "https://dc.lft.to/lastmile_qr_scan"}, "lon": -77.04699233333334, "type": "electric_scooter", "fusion_lat": 0.0, "lat": 38.92101133333333, "name": "44a61921b12105e38557c9ecab908cf3", "fusion_lon": 0.0, "bike_id": "44a61921b12105e38557c9ecab908cf3", "is_disabled": 0, "is_reserved": 0}, {"rental_uris": {"ios": "https://dc.lft.to/lastmile_qr_scan", "android": "https://dc.lft.to/lastmile_qr_scan"}, "lon": -77.02401016666667, "type": "electric_bike", "fusion_lat": 0.0, "lat": 38.95636433333333, "name": "13c234420fbee7f66dcd011f9f8726bc", "fusion_lon": 0.0, "bike_id": "13c234420fbee7f66dcd011f9f8726bc", "is_disabled": 0, "is_reserved": 0}, {"rental_uris": {"ios": "https://dc.lft.to/lastmile_qr_scan", "android": "https://dc.lft.to/lastmile_qr_scan"}, "lon": -77.02885216666667, "type": "electric_scooter", "fusion_lat": 0.0, "lat": 38.90468666666666, "name": "428ae54a56288a338f45a2c70b67a85f", "fusion_lon": 0.0, "bike_id": "428ae54a56288a338f45a2c70b67a85f", "is_disabled": 0, "is_reserved": 0}, {"rental_uris": {"ios": "https://dc.lft.to/lastmile_qr_scan", "android": "https://dc.lft.to/lastmile_qr_scan"}, "lon": -77.03248916666666, "type": "electric_scooter", "fusion_lat": 0.0, "lat": 38.89633383333333, "name": "282bb46e248ac14ddb81c09fa6106f74", "fusion_lon": 0.0, "bike_id": "282bb46e248ac14ddb81c09fa6106f74", "is_disabled": 0, "is_reserved": 0}, {"rental_uris": {"ios": "https://dc.lft.to/lastmile_qr_scan", "android": "https://dc.lft.to/lastmile_qr_scan"}, "lon": -77.02148883333334, "type": "electric_scooter", "fusion_lat": 0.0, "lat": 38.9096655, "name": "7e210c5a1e60e4ef5329fea22b689a0e", "fusion_lon": 0.0, "bike_id": "7e210c5a1e60e4ef5329fea22b689a0e", "is_disabled": 0, "is_reserved": 0}, {"rental_uris": {"ios": "https://dc.lft.to/lastmile_qr_scan", "android": "https://dc.lft.to/lastmile_qr_scan"}, "lon": -77.13096966666667, "type": "electric_bike", "fusion_lat": 0.0, "lat": 38.861596, "name": "8a8a46fe586a71b327a0a867455c79d7", "fusion_lon": 0.0, "bike_id": "8a8a46fe586a71b327a0a867455c79d7", "is_disabled": 0, "is_reserved": 0}, {"rental_uris": {"ios": "https://dc.lft.to/lastmile_qr_scan", "android": "https://dc.lft.to/lastmile_qr_scan"}, "lon": -77.02923666666666, "type": "electric_scooter", "fusion_lat": 0.0, "lat": 38.90370033333333, "name": "6cc6b09f0c0c6b3b83526906b55a9dc1", "fusion_lon": 0.0, "bike_id": "6cc6b09f0c0c6b3b83526906b55a9dc1", "is_disabled": 0, "is_reserved": 0}, {"rental_uris": {"ios": "https://dc.lft.to/lastmile_qr_scan", "android": "https://dc.lft.to/lastmile_qr_scan"}, "lon": -77.03791066666666, "type": "electric_scooter", "fusion_lat": 0.0, "lat": 38.93590416666667, "name": "5ab07be0ebb947b0a5cfe769264a6720", "fusion_lon": 0.0, "bike_id": "5ab07be0ebb947b0a5cfe769264a6720", "is_disabled": 0, "is_reserved": 0}, {"rental_uris": {"ios": "https://dc.lft.to/lastmile_qr_scan", "android": "https://dc.lft.to/lastmile_qr_scan"}, "lon": -76.9617955, "type": "electric_bike", "fusion_lat": 0.0, "lat": 38.91858466666667, "name": "a1ca8f3447dba31aee33989d6033cdd7", "fusion_lon": 0.0, "bike_id": "a1ca8f3447dba31aee33989d6033cdd7", "is_disabled": 0, "is_reserved": 0}, {"rental_uris": {"ios": "https://dc.lft.to/lastmile_qr_scan", "android": "https://dc.lft.to/lastmile_qr_scan"}, "lon": -77.0359775, "type": "electric_bike", "fusion_lat": 0.0, "lat": 38.906856833333336, "name": "f3c54bec38d84313f46111b2790f1d97", "fusion_lon": 0.0, "bike_id": "f3c54bec38d84313f46111b2790f1d97", "is_disabled": 0, "is_reserved": 0}, {"rental_uris": {"ios": "https://dc.lft.to/lastmile_qr_scan", "android": "https://dc.lft.to/lastmile_qr_scan"}, "lon": -77.03456583333333, "type": "electric_scooter", "fusion_lat": 0.0, "lat": 38.921437, "name": "63f2b240b2cea61c74984010a421b396", "fusion_lon": 0.0, "bike_id": "63f2b240b2cea61c74984010a421b396", "is_disabled": 0, "is_reserved": 0}, {"rental_uris": {"ios": "https://dc.lft.to/lastmile_qr_scan", "android": "https://dc.lft.to/lastmile_qr_scan"}, "lon": -77.023266, "type": "electric_scooter", "fusion_lat": 0.0, "lat": 38.88358683333333, "name": "74c93031116841b6d709d558a3aa2dc4", "fusion_lon": 0.0, "bike_id": "74c93031116841b6d709d558a3aa2dc4", "is_disabled": 0, "is_reserved": 0}, {"rental_uris": {"ios": "https://dc.lft.to/lastmile_qr_scan", "android": "https://dc.lft.to/lastmile_qr_scan"}, "lon": -77.0395485, "type": "electric_scooter", "fusion_lat": 0.0, "lat": 38.9026975, "name": "153d6154d37e7756347b29e09a9b8373", "fusion_lon": 0.0, "bike_id": "153d6154d37e7756347b29e09a9b8373", "is_disabled": 0, "is_reserved": 0}, {"rental_uris": {"ios": "https://dc.lft.to/lastmile_qr_scan", "android": "https://dc.lft.to/lastmile_qr_scan"}, "lon": -77.0916505, "type": "electric_bike", "fusion_lat": 0.0, "lat": 38.967595333333335, "name": "28b96f1cadbe939c6f6d4d47b6abae8a", "fusion_lon": 0.0, "bike_id": "28b96f1cadbe939c6f6d4d47b6abae8a", "is_disabled": 0, "is_reserved": 0}, {"rental_uris": {"ios": "https://dc.lft.to/lastmile_qr_scan", "android": "https://dc.lft.to/lastmile_qr_scan"}, "lon": -76.97674316666667, "type": "electric_scooter", "fusion_lat": 0.0, "lat": 38.898889, "name": "d6b01a88b8b4defd961a87d411e8c07b", "fusion_lon": 0.0, "bike_id": "d6b01a88b8b4defd961a87d411e8c07b", "is_disabled": 0, "is_reserved": 0}, {"rental_uris": {"ios": "https://dc.lft.to/lastmile_qr_scan", "android": "https://dc.lft.to/lastmile_qr_scan"}, "lon": -77.03183516666667, "type": "electric_scooter", "fusion_lat": 0.0, "lat": 38.919228333333336, "name": "8b0bd73d4b0369746c3b039f6bf8a896", "fusion_lon": 0.0, "bike_id": "8b0bd73d4b0369746c3b039f6bf8a896", "is_disabled": 0, "is_reserved": 0}, {"rental_uris": {"ios": "https://dc.lft.to/lastmile_qr_scan", "android": "https://dc.lft.to/lastmile_qr_scan"}, "lon": -77.02015966666667, "type": "electric_scooter", "fusion_lat": 0.0, "lat": 38.892210166666665, "name": "c1e104510b9829ab2884f897ce68980c", "fusion_lon": 0.0, "bike_id": "c1e104510b9829ab2884f897ce68980c", "is_disabled": 0, "is_reserved": 0}, {"rental_uris": {"ios": "https://dc.lft.to/lastmile_qr_scan", "android": "https://dc.lft.to/lastmile_qr_scan"}, "lon": -77.0330715, "type": "electric_scooter", "fusion_lat": 0.0, "lat": 38.92642333333333, "name": "e939927a4acdb4d1a1370e74134453b3", "fusion_lon": 0.0, "bike_id": "e939927a4acdb4d1a1370e74134453b3", "is_disabled": 0, "is_reserved": 0}, {"rental_uris": {"ios": "https://dc.lft.to/lastmile_qr_scan", "android": "https://dc.lft.to/lastmile_qr_scan"}, "lon": -77.02380683333334, "type": "electric_scooter", "fusion_lat": 0.0, "lat": 38.9524235, "name": "3d4d48c5ef8b6d441349836722eb2483", "fusion_lon": 0.0, "bike_id": "3d4d48c5ef8b6d441349836722eb2483", "is_disabled": 0, "is_reserved": 0}, {"rental_uris": {"ios": "https://dc.lft.to/lastmile_qr_scan", "android": "https://dc.lft.to/lastmile_qr_scan"}, "lon": -76.94764066666667, "type": "electric_scooter", "fusion_lat": 0.0, "lat": 38.90051666666667, "name": "4b499748f05ed8e2624062b8eb079c21", "fusion_lon": 0.0, "bike_id": "4b499748f05ed8e2624062b8eb079c21", "is_disabled": 0, "is_reserved": 0}, {"rental_uris": {"ios": "https://dc.lft.to/lastmile_qr_scan", "android": "https://dc.lft.to/lastmile_qr_scan"}, "lon": -77.02417983333333, "type": "electric_scooter", "fusion_lat": 0.0, "lat": 38.8922735, "name": "442680a831a7c36e76fe9a6628526c65", "fusion_lon": 0.0, "bike_id": "442680a831a7c36e76fe9a6628526c65", "is_disabled": 0, "is_reserved": 0}, {"rental_uris": {"ios": "https://dc.lft.to/lastmile_qr_scan", "android": "https://dc.lft.to/lastmile_qr_scan"}, "lon": -77.02924366666667, "type": "electric_scooter", "fusion_lat": 0.0, "lat": 38.884078, "name": "7d44beb183a7505a550a36d66b516884", "fusion_lon": 0.0, "bike_id": "7d44beb183a7505a550a36d66b516884", "is_disabled": 0, "is_reserved": 0}, {"rental_uris": {"ios": "https://dc.lft.to/lastmile_qr_scan", "android": "https://dc.lft.to/lastmile_qr_scan"}, "lon": -77.02134266666667, "type": "electric_scooter", "fusion_lat": 0.0, "lat": 38.9376235, "name": "cec69d5f599e46203808723eec735d3e", "fusion_lon": 0.0, "bike_id": "cec69d5f599e46203808723eec735d3e", "is_disabled": 0, "is_reserved": 0}, {"rental_uris": {"ios": "https://dc.lft.to/lastmile_qr_scan", "android": "https://dc.lft.to/lastmile_qr_scan"}, "lon": -77.00819166666666, "type": "electric_scooter", "fusion_lat": 0.0, "lat": 38.87752733333333, "name": "9582d2f800e2dc1fda471246aabc3b2c", "fusion_lon": 0.0, "bike_id": "9582d2f800e2dc1fda471246aabc3b2c", "is_disabled": 0, "is_reserved": 0}, {"rental_uris": {"ios": "https://dc.lft.to/lastmile_qr_scan", "android": "https://dc.lft.to/lastmile_qr_scan"}, "lon": -76.9975935, "type": "electric_scooter", "fusion_lat": 0.0, "lat": 38.92187366666667, "name": "02e4cc49c6fb63265cb0a5f19e280489", "fusion_lon": 0.0, "bike_id": "02e4cc49c6fb63265cb0a5f19e280489", "is_disabled": 0, "is_reserved": 0}, {"rental_uris": {"ios": "https://dc.lft.to/lastmile_qr_scan", "android": "https://dc.lft.to/lastmile_qr_scan"}, "lon": -77.02979633333334, "type": "electric_scooter", "fusion_lat": 0.0, "lat": 38.917208, "name": "4c8125cc0ec366e5df785dd827328c91", "fusion_lon": 0.0, "bike_id": "4c8125cc0ec366e5df785dd827328c91", "is_disabled": 0, "is_reserved": 0}, {"rental_uris": {"ios": "https://dc.lft.to/lastmile_qr_scan", "android": "https://dc.lft.to/lastmile_qr_scan"}, "lon": -77.06676483333334, "type": "electric_scooter", "fusion_lat": 0.0, "lat": 38.9140405, "name": "f33585489b5d778153a714318f157a4b", "fusion_lon": 0.0, "bike_id": "f33585489b5d778153a714318f157a4b", "is_disabled": 0, "is_reserved": 0}, {"rental_uris": {"ios": "https://dc.lft.to/lastmile_qr_scan", "android": "https://dc.lft.to/lastmile_qr_scan"}, "lon": -77.02712683333333, "type": "electric_scooter", "fusion_lat": 0.0, "lat": 38.906675166666666, "name": "818c6ea506c06b54a66809aa774a37b2", "fusion_lon": 0.0, "bike_id": "818c6ea506c06b54a66809aa774a37b2", "is_disabled": 0, "is_reserved": 0}, {"rental_uris": {"ios": "https://dc.lft.to/lastmile_qr_scan", "android": "https://dc.lft.to/lastmile_qr_scan"}, "lon": -77.02577066666667, "type": "electric_scooter", "fusion_lat": 0.0, "lat": 38.89758416666667, "name": "ad430963e7be290efbcec2a8840d11ee", "fusion_lon": 0.0, "bike_id": "ad430963e7be290efbcec2a8840d11ee", "is_disabled": 0, "is_reserved": 0}, {"rental_uris": {"ios": "https://dc.lft.to/lastmile_qr_scan", "android": "https://dc.lft.to/lastmile_qr_scan"}, "lon": -77.02167, "type": "electric_bike", "fusion_lat": 0.0, "lat": 38.96369166666667, "name": "0f3202994157bdf63ed97474de12eb1c", "fusion_lon": 0.0, "bike_id": "0f3202994157bdf63ed97474de12eb1c", "is_disabled": 0, "is_reserved": 0}, {"rental_uris": {"ios": "https://dc.lft.to/lastmile_qr_scan", "android": "https://dc.lft.to/lastmile_qr_scan"}, "lon": -77.0155475, "type": "electric_scooter", "fusion_lat": 0.0, "lat": 38.87268, "name": "08470dcf9f063109a2dcc17ff22c1059", "fusion_lon": 0.0, "bike_id": "08470dcf9f063109a2dcc17ff22c1059", "is_disabled": 0, "is_reserved": 0}, {"rental_uris": {"ios": "https://dc.lft.to/lastmile_qr_scan", "android": "https://dc.lft.to/lastmile_qr_scan"}, "lon": -77.02420866666667, "type": "electric_scooter", "fusion_lat": 0.0, "lat": 38.905911, "name": "ce39889802f419b1ee4203030722c3df", "fusion_lon": 0.0, "bike_id": "ce39889802f419b1ee4203030722c3df", "is_disabled": 0, "is_reserved": 0}, {"rental_uris": {"ios": "https://dc.lft.to/lastmile_qr_scan", "android": "https://dc.lft.to/lastmile_qr_scan"}, "lon": -77.06618933333333, "type": "electric_scooter", "fusion_lat": 0.0, "lat": 38.9052205, "name": "d5ecb0398437589c9cb1c974437c557a", "fusion_lon": 0.0, "bike_id": "d5ecb0398437589c9cb1c974437c557a", "is_disabled": 0, "is_reserved": 0}, {"rental_uris": {"ios": "https://dc.lft.to/lastmile_qr_scan", "android": "https://dc.lft.to/lastmile_qr_scan"}, "lon": -76.99781916666667, "type": "electric_scooter", "fusion_lat": 0.0, "lat": 38.84423433333333, "name": "2d7241581117718fe47916428f4ccbc9", "fusion_lon": 0.0, "bike_id": "2d7241581117718fe47916428f4ccbc9", "is_disabled": 0, "is_reserved": 0}, {"rental_uris": {"ios": "https://dc.lft.to/lastmile_qr_scan", "android": "https://dc.lft.to/lastmile_qr_scan"}, "lon": -77.02370066666667, "type": "electric_scooter", "fusion_lat": 0.0, "lat": 38.892196166666665, "name": "5c58e7c28992ffb8282115e76183aed3", "fusion_lon": 0.0, "bike_id": "5c58e7c28992ffb8282115e76183aed3", "is_disabled": 0, "is_reserved": 0}, {"rental_uris": {"ios": "https://dc.lft.to/lastmile_qr_scan", "android": "https://dc.lft.to/lastmile_qr_scan"}, "lon": -76.957648, "type": "electric_bike", "fusion_lat": 0.0, "lat": 38.88416, "name": "692c2a1cefc5ab39111f7027c41f2672", "fusion_lon": 0.0, "bike_id": "692c2a1cefc5ab39111f7027c41f2672", "is_disabled": 0, "is_reserved": 0}, {"rental_uris": {"ios": "https://dc.lft.to/lastmile_qr_scan", "android": "https://dc.lft.to/lastmile_qr_scan"}, "lon": -76.97749966666666, "type": "electric_scooter", "fusion_lat": 0.0, "lat": 38.90007083333333, "name": "d17c1874368e20bc75c404feafa0b7bc", "fusion_lon": 0.0, "bike_id": "d17c1874368e20bc75c404feafa0b7bc", "is_disabled": 0, "is_reserved": 0}, {"rental_uris": {"ios": "https://dc.lft.to/lastmile_qr_scan", "android": "https://dc.lft.to/lastmile_qr_scan"}, "lon": -77.02053016666666, "type": "electric_scooter", "fusion_lat": 0.0, "lat": 38.901639333333335, "name": "b72fcbd9098faab8de962cbde4f2f4d4", "fusion_lon": 0.0, "bike_id": "b72fcbd9098faab8de962cbde4f2f4d4", "is_disabled": 0, "is_reserved": 0}, {"rental_uris": {"ios": "https://dc.lft.to/lastmile_qr_scan", "android": "https://dc.lft.to/lastmile_qr_scan"}, "lon": -76.87825433333333, "type": "electric_bike", "fusion_lat": 0.0, "lat": 38.99233866666667, "name": "6dd398233f976714f2beec917ecc3620", "fusion_lon": 0.0, "bike_id": "6dd398233f976714f2beec917ecc3620", "is_disabled": 0, "is_reserved": 0}, {"rental_uris": {"ios": "https://dc.lft.to/lastmile_qr_scan", "android": "https://dc.lft.to/lastmile_qr_scan"}, "lon": -77.03836533333333, "type": "electric_scooter", "fusion_lat": 0.0, "lat": 38.92168016666667, "name": "62302ac5c5ea33bdb6d5d26f9faf7cfd", "fusion_lon": 0.0, "bike_id": "62302ac5c5ea33bdb6d5d26f9faf7cfd", "is_disabled": 0, "is_reserved": 0}, {"rental_uris": {"ios": "https://dc.lft.to/lastmile_qr_scan", "android": "https://dc.lft.to/lastmile_qr_scan"}, "lon": -76.97611816666667, "type": "electric_scooter", "fusion_lat": 0.0, "lat": 38.9038355, "name": "c22a0b1ad58d1b7701c145e76d9b90da", "fusion_lon": 0.0, "bike_id": "c22a0b1ad58d1b7701c145e76d9b90da", "is_disabled": 0, "is_reserved": 0}, {"rental_uris": {"ios": "https://dc.lft.to/lastmile_qr_scan", "android": "https://dc.lft.to/lastmile_qr_scan"}, "lon": -76.94639033333333, "type": "electric_scooter", "fusion_lat": 0.0, "lat": 38.89832966666667, "name": "e3f1d1ed44bc0d2d1ac12c3959776677", "fusion_lon": 0.0, "bike_id": "e3f1d1ed44bc0d2d1ac12c3959776677", "is_disabled": 0, "is_reserved": 0}, {"rental_uris": {"ios": "https://dc.lft.to/lastmile_qr_scan", "android": "https://dc.lft.to/lastmile_qr_scan"}, "lon": -77.0378905, "type": "electric_scooter", "fusion_lat": 0.0, "lat": 38.9262975, "name": "99e939e106bc269934c0ec71dd34802d", "fusion_lon": 0.0, "bike_id": "99e939e106bc269934c0ec71dd34802d", "is_disabled": 0, "is_reserved": 0}, {"rental_uris": {"ios": "https://dc.lft.to/lastmile_qr_scan", "android": "https://dc.lft.to/lastmile_qr_scan"}, "lon": -77.03628383333333, "type": "electric_scooter", "fusion_lat": 0.0, "lat": 38.95641066666666, "name": "d98f82cc650be07f8fd9a3c8346903a2", "fusion_lon": 0.0, "bike_id": "d98f82cc650be07f8fd9a3c8346903a2", "is_disabled": 0, "is_reserved": 0}, {"rental_uris": {"ios": "https://dc.lft.to/lastmile_qr_scan", "android": "https://dc.lft.to/lastmile_qr_scan"}, "lon": -76.995536, "type": "electric_scooter", "fusion_lat": 0.0, "lat": 38.92306816666667, "name": "158fb6b410c358d62c094fa9fa879f65", "fusion_lon": 0.0, "bike_id": "158fb6b410c358d62c094fa9fa879f65", "is_disabled": 0, "is_reserved": 0}, {"rental_uris": {"ios": "https://dc.lft.to/lastmile_qr_scan", "android": "https://dc.lft.to/lastmile_qr_scan"}, "lon": -77.0527425, "type": "electric_scooter", "fusion_lat": 0.0, "lat": 38.91018183333333, "name": "8ce181575a253c9c23c0cd22e86f2e7c", "fusion_lon": 0.0, "bike_id": "8ce181575a253c9c23c0cd22e86f2e7c", "is_disabled": 0, "is_reserved": 0}, {"rental_uris": {"ios": "https://dc.lft.to/lastmile_qr_scan", "android": "https://dc.lft.to/lastmile_qr_scan"}, "lon": -77.039662, "type": "electric_scooter", "fusion_lat": 0.0, "lat": 38.90250433333333, "name": "4f61fb7213c1af2d71bb30ab826fa4b8", "fusion_lon": 0.0, "bike_id": "4f61fb7213c1af2d71bb30ab826fa4b8", "is_disabled": 0, "is_reserved": 0}, {"rental_uris": {"ios": "https://dc.lft.to/lastmile_qr_scan", "android": "https://dc.lft.to/lastmile_qr_scan"}, "lon": -77.0610285, "type": "electric_scooter", "fusion_lat": 0.0, "lat": 38.91219183333333, "name": "25384253ef8dc3c7db07b14af279084a", "fusion_lon": 0.0, "bike_id": "25384253ef8dc3c7db07b14af279084a", "is_disabled": 0, "is_reserved": 0}, {"rental_uris": {"ios": "https://dc.lft.to/lastmile_qr_scan", "android": "https://dc.lft.to/lastmile_qr_scan"}, "lon": -77.027284, "type": "electric_scooter", "fusion_lat": 0.0, "lat": 38.92477866666667, "name": "b9fa1a2690d3320fbfca731f1ef7138e", "fusion_lon": 0.0, "bike_id": "b9fa1a2690d3320fbfca731f1ef7138e", "is_disabled": 0, "is_reserved": 0}, {"rental_uris": {"ios": "https://dc.lft.to/lastmile_qr_scan", "android": "https://dc.lft.to/lastmile_qr_scan"}, "lon": -77.03230233333333, "type": "electric_scooter", "fusion_lat": 0.0, "lat": 38.927475333333334, "name": "be293c6c81c5060a9f6f01612542310c", "fusion_lon": 0.0, "bike_id": "be293c6c81c5060a9f6f01612542310c", "is_disabled": 0, "is_reserved": 0}, {"rental_uris": {"ios": "https://dc.lft.to/lastmile_qr_scan", "android": "https://dc.lft.to/lastmile_qr_scan"}, "lon": -77.0180565, "type": "electric_scooter", "fusion_lat": 0.0, "lat": 38.88745383333333, "name": "b100c19676c2308bd414fe8fd62be750", "fusion_lon": 0.0, "bike_id": "b100c19676c2308bd414fe8fd62be750", "is_disabled": 0, "is_reserved": 0}, {"rental_uris": {"ios": "https://dc.lft.to/lastmile_qr_scan", "android": "https://dc.lft.to/lastmile_qr_scan"}, "lon": -77.01750133333333, "type": "electric_scooter", "fusion_lat": 0.0, "lat": 38.9747405, "name": "c16a316c4fc8d82a3cafa2cf487f3b45", "fusion_lon": 0.0, "bike_id": "c16a316c4fc8d82a3cafa2cf487f3b45", "is_disabled": 0, "is_reserved": 0}, {"rental_uris": {"ios": "https://dc.lft.to/lastmile_qr_scan", "android": "https://dc.lft.to/lastmile_qr_scan"}, "lon": -76.97333483333334, "type": "electric_bike", "fusion_lat": 0.0, "lat": 38.850614, "name": "a1e3c9b1a5fbfc3802ec471f096d852d", "fusion_lon": 0.0, "bike_id": "a1e3c9b1a5fbfc3802ec471f096d852d", "is_disabled": 0, "is_reserved": 0}, {"rental_uris": {"ios": "https://dc.lft.to/lastmile_qr_scan", "android": "https://dc.lft.to/lastmile_qr_scan"}, "lon": -77.00894433333333, "type": "electric_scooter", "fusion_lat": 0.0, "lat": 38.92415733333333, "name": "2bf24ee420e919da98977150da04483b", "fusion_lon": 0.0, "bike_id": "2bf24ee420e919da98977150da04483b", "is_disabled": 0, "is_reserved": 0}, {"rental_uris": {"ios": "https://dc.lft.to/lastmile_qr_scan", "android": "https://dc.lft.to/lastmile_qr_scan"}, "lon": -77.02587033333333, "type": "electric_scooter", "fusion_lat": 0.0, "lat": 38.895893, "name": "f5c2bc0eae6c63e495af18450264fc59", "fusion_lon": 0.0, "bike_id": "f5c2bc0eae6c63e495af18450264fc59", "is_disabled": 0, "is_reserved": 0}, {"rental_uris": {"ios": "https://dc.lft.to/lastmile_qr_scan", "android": "https://dc.lft.to/lastmile_qr_scan"}, "lon": -77.04546766666667, "type": "electric_scooter", "fusion_lat": 0.0, "lat": 38.9194365, "name": "a18a1f1714774d2a278e39264dc2bd65", "fusion_lon": 0.0, "bike_id": "a18a1f1714774d2a278e39264dc2bd65", "is_disabled": 0, "is_reserved": 0}, {"rental_uris": {"ios": "https://dc.lft.to/lastmile_qr_scan", "android": "https://dc.lft.to/lastmile_qr_scan"}, "lon": -77.03751016666666, "type": "electric_scooter", "fusion_lat": 0.0, "lat": 38.929161, "name": "e58c68523c50a166f1547034519cccde", "fusion_lon": 0.0, "bike_id": "e58c68523c50a166f1547034519cccde", "is_disabled": 0, "is_reserved": 0}, {"rental_uris": {"ios": "https://dc.lft.to/lastmile_qr_scan", "android": "https://dc.lft.to/lastmile_qr_scan"}, "lon": -77.02940883333333, "type": "electric_bike", "fusion_lat": 0.0, "lat": 38.89945616666667, "name": "48ef3d0f56939f113b285dbb71e85a23", "fusion_lon": 0.0, "bike_id": "48ef3d0f56939f113b285dbb71e85a23", "is_disabled": 0, "is_reserved": 0}, {"rental_uris": {"ios": "https://dc.lft.to/lastmile_qr_scan", "android": "https://dc.lft.to/lastmile_qr_scan"}, "lon": -77.04319716666667, "type": "electric_scooter", "fusion_lat": 0.0, "lat": 38.895866833333336, "name": "25354001a1d38d25b3084b6b11a5629a", "fusion_lon": 0.0, "bike_id": "25354001a1d38d25b3084b6b11a5629a", "is_disabled": 0, "is_reserved": 0}, {"rental_uris": {"ios": "https://dc.lft.to/lastmile_qr_scan", "android": "https://dc.lft.to/lastmile_qr_scan"}, "lon": -77.1273855, "type": "electric_bike", "fusion_lat": 0.0, "lat": 38.8881885, "name": "5447f5064bf988e0217c44d55d3c9a2c", "fusion_lon": 0.0, "bike_id": "5447f5064bf988e0217c44d55d3c9a2c", "is_disabled": 0, "is_reserved": 0}, {"rental_uris": {"ios": "https://dc.lft.to/lastmile_qr_scan", "android": "https://dc.lft.to/lastmile_qr_scan"}, "lon": -76.93810266666667, "type": "electric_scooter", "fusion_lat": 0.0, "lat": 38.91306183333333, "name": "079a1941ab536cb69c257cc4cb1323e4", "fusion_lon": 0.0, "bike_id": "079a1941ab536cb69c257cc4cb1323e4", "is_disabled": 0, "is_reserved": 0}, {"rental_uris": {"ios": "https://dc.lft.to/lastmile_qr_scan", "android": "https://dc.lft.to/lastmile_qr_scan"}, "lon": -77.0239285, "type": "electric_scooter", "fusion_lat": 0.0, "lat": 38.906632, "name": "e665277c9abc68a4fb64d686de37fe6c", "fusion_lon": 0.0, "bike_id": "e665277c9abc68a4fb64d686de37fe6c", "is_disabled": 0, "is_reserved": 0}, {"rental_uris": {"ios": "https://dc.lft.to/lastmile_qr_scan", "android": "https://dc.lft.to/lastmile_qr_scan"}, "lon": -77.03747366666667, "type": "electric_scooter", "fusion_lat": 0.0, "lat": 38.934482333333335, "name": "94312d6afa5d15ae36489c69e68d7933", "fusion_lon": 0.0, "bike_id": "94312d6afa5d15ae36489c69e68d7933", "is_disabled": 0, "is_reserved": 0}, {"rental_uris": {"ios": "https://dc.lft.to/lastmile_qr_scan", "android": "https://dc.lft.to/lastmile_qr_scan"}, "lon": -77.04046983333333, "type": "electric_scooter", "fusion_lat": 0.0, "lat": 38.925606333333334, "name": "72843c3ae10191d2426ac9422a5893a4", "fusion_lon": 0.0, "bike_id": "72843c3ae10191d2426ac9422a5893a4", "is_disabled": 0, "is_reserved": 0}, {"rental_uris": {"ios": "https://dc.lft.to/lastmile_qr_scan", "android": "https://dc.lft.to/lastmile_qr_scan"}, "lon": -77.03171333333333, "type": "electric_scooter", "fusion_lat": 0.0, "lat": 38.89606533333333, "name": "5bd06c7a09885c4b0c2af206a285070e", "fusion_lon": 0.0, "bike_id": "5bd06c7a09885c4b0c2af206a285070e", "is_disabled": 0, "is_reserved": 0}, {"rental_uris": {"ios": "https://dc.lft.to/lastmile_qr_scan", "android": "https://dc.lft.to/lastmile_qr_scan"}, "lon": -77.0283845, "type": "electric_scooter", "fusion_lat": 0.0, "lat": 38.887707666666664, "name": "d4def0eca7069e4ce769637a7b52bc51", "fusion_lon": 0.0, "bike_id": "d4def0eca7069e4ce769637a7b52bc51", "is_disabled": 0, "is_reserved": 0}, {"rental_uris": {"ios": "https://dc.lft.to/lastmile_qr_scan", "android": "https://dc.lft.to/lastmile_qr_scan"}, "lon": -76.98771583333334, "type": "electric_scooter", "fusion_lat": 0.0, "lat": 38.91169033333333, "name": "a690a1eab641f3786aafe9441c5e55ce", "fusion_lon": 0.0, "bike_id": "a690a1eab641f3786aafe9441c5e55ce", "is_disabled": 0, "is_reserved": 0}, {"rental_uris": {"ios": "https://dc.lft.to/lastmile_qr_scan", "android": "https://dc.lft.to/lastmile_qr_scan"}, "lon": -77.02624133333333, "type": "electric_scooter", "fusion_lat": 0.0, "lat": 38.9333935, "name": "13486730f27fcb19c91ec76782cfe39a", "fusion_lon": 0.0, "bike_id": "13486730f27fcb19c91ec76782cfe39a", "is_disabled": 0, "is_reserved": 0}, {"rental_uris": {"ios": "https://dc.lft.to/lastmile_qr_scan", "android": "https://dc.lft.to/lastmile_qr_scan"}, "lon": -77.06161033333333, "type": "electric_scooter", "fusion_lat": 0.0, "lat": 38.942327166666665, "name": "0662afd20472bb59589648aab8b2007e", "fusion_lon": 0.0, "bike_id": "0662afd20472bb59589648aab8b2007e", "is_disabled": 0, "is_reserved": 0}, {"rental_uris": {"ios": "https://dc.lft.to/lastmile_qr_scan", "android": "https://dc.lft.to/lastmile_qr_scan"}, "lon": -77.03463883333333, "type": "electric_scooter", "fusion_lat": 0.0, "lat": 38.91662566666667, "name": "a236d6a79681c7012ed1b1435a1dd532", "fusion_lon": 0.0, "bike_id": "a236d6a79681c7012ed1b1435a1dd532", "is_disabled": 0, "is_reserved": 0}, {"rental_uris": {"ios": "https://dc.lft.to/lastmile_qr_scan", "android": "https://dc.lft.to/lastmile_qr_scan"}, "lon": -76.93966283333333, "type": "electric_bike", "fusion_lat": 0.0, "lat": 38.9124355, "name": "7058d15fa3342289f4eeaaf9932fd5db", "fusion_lon": 0.0, "bike_id": "7058d15fa3342289f4eeaaf9932fd5db", "is_disabled": 0, "is_reserved": 0}, {"rental_uris": {"ios": "https://dc.lft.to/lastmile_qr_scan", "android": "https://dc.lft.to/lastmile_qr_scan"}, "lon": -77.04956983333334, "type": "electric_scooter", "fusion_lat": 0.0, "lat": 38.896712666666666, "name": "e747da3039d1377caedfb857b93a415f", "fusion_lon": 0.0, "bike_id": "e747da3039d1377caedfb857b93a415f", "is_disabled": 0, "is_reserved": 0}, {"rental_uris": {"ios": "https://dc.lft.to/lastmile_qr_scan", "android": "https://dc.lft.to/lastmile_qr_scan"}, "lon": -76.97890166666667, "type": "electric_scooter", "fusion_lat": 0.0, "lat": 38.916738, "name": "8500c4da6007ed8ff0092a2f4c4fc83f", "fusion_lon": 0.0, "bike_id": "8500c4da6007ed8ff0092a2f4c4fc83f", "is_disabled": 0, "is_reserved": 0}, {"rental_uris": {"ios": "https://dc.lft.to/lastmile_qr_scan", "android": "https://dc.lft.to/lastmile_qr_scan"}, "lon": -77.353125, "type": "electric_bike", "fusion_lat": 0.0, "lat": 38.9499935, "name": "665e75bcd3231e76e566adce9bc889e2", "fusion_lon": 0.0, "bike_id": "665e75bcd3231e76e566adce9bc889e2", "is_disabled": 0, "is_reserved": 0}, {"rental_uris": {"ios": "https://dc.lft.to/lastmile_qr_scan", "android": "https://dc.lft.to/lastmile_qr_scan"}, "lon": -77.02976533333333, "type": "electric_scooter", "fusion_lat": 0.0, "lat": 38.9061095, "name": "dbf650f34182b8af7ba136aabe53886c", "fusion_lon": 0.0, "bike_id": "dbf650f34182b8af7ba136aabe53886c", "is_disabled": 0, "is_reserved": 0}, {"rental_uris": {"ios": "https://dc.lft.to/lastmile_qr_scan", "android": "https://dc.lft.to/lastmile_qr_scan"}, "lon": -77.043532, "type": "electric_scooter", "fusion_lat": 0.0, "lat": 38.9036655, "name": "5858b7d592b4ef7ecfe5f7abdbbf018d", "fusion_lon": 0.0, "bike_id": "5858b7d592b4ef7ecfe5f7abdbbf018d", "is_disabled": 0, "is_reserved": 0}, {"rental_uris": {"ios": "https://dc.lft.to/lastmile_qr_scan", "android": "https://dc.lft.to/lastmile_qr_scan"}, "lon": -76.99877016666667, "type": "electric_scooter", "fusion_lat": 0.0, "lat": 38.90749133333333, "name": "bf9e74b06613bd68117a2581f6fe1b38", "fusion_lon": 0.0, "bike_id": "bf9e74b06613bd68117a2581f6fe1b38", "is_disabled": 0, "is_reserved": 0}, {"rental_uris": {"ios": "https://dc.lft.to/lastmile_qr_scan", "android": "https://dc.lft.to/lastmile_qr_scan"}, "lon": -77.02845433333333, "type": "electric_scooter", "fusion_lat": 0.0, "lat": 38.9426, "name": "38e14717fdc3a155792e013cdb64fb60", "fusion_lon": 0.0, "bike_id": "38e14717fdc3a155792e013cdb64fb60", "is_disabled": 0, "is_reserved": 0}, {"rental_uris": {"ios": "https://dc.lft.to/lastmile_qr_scan", "android": "https://dc.lft.to/lastmile_qr_scan"}, "lon": -77.041729, "type": "electric_scooter", "fusion_lat": 0.0, "lat": 38.908375, "name": "d1e2b66cc5458ce933a77d09421a3476", "fusion_lon": 0.0, "bike_id": "d1e2b66cc5458ce933a77d09421a3476", "is_disabled": 0, "is_reserved": 0}, {"rental_uris": {"ios": "https://dc.lft.to/lastmile_qr_scan", "android": "https://dc.lft.to/lastmile_qr_scan"}, "lon": -76.99488133333334, "type": "electric_scooter", "fusion_lat": 0.0, "lat": 38.862378666666665, "name": "efd474c322a2731eccd939bba59a049f", "fusion_lon": 0.0, "bike_id": "efd474c322a2731eccd939bba59a049f", "is_disabled": 0, "is_reserved": 0}, {"rental_uris": {"ios": "https://dc.lft.to/lastmile_qr_scan", "android": "https://dc.lft.to/lastmile_qr_scan"}, "lon": -77.00577066666666, "type": "electric_scooter", "fusion_lat": 0.0, "lat": 38.88599516666667, "name": "a3304c10f0b592fe4b73c7b510d74b17", "fusion_lon": 0.0, "bike_id": "a3304c10f0b592fe4b73c7b510d74b17", "is_disabled": 0, "is_reserved": 0}, {"rental_uris": {"ios": "https://dc.lft.to/lastmile_qr_scan", "android": "https://dc.lft.to/lastmile_qr_scan"}, "lon": -76.9317985, "type": "electric_scooter", "fusion_lat": 0.0, "lat": 38.89880933333333, "name": "0d3f6ae68835810ab511ecb2e604651a", "fusion_lon": 0.0, "bike_id": "0d3f6ae68835810ab511ecb2e604651a", "is_disabled": 0, "is_reserved": 0}, {"rental_uris": {"ios": "https://dc.lft.to/lastmile_qr_scan", "android": "https://dc.lft.to/lastmile_qr_scan"}, "lon": -77.04623466666666, "type": "electric_scooter", "fusion_lat": 0.0, "lat": 38.9163295, "name": "0cf2a32a8ed4d108cbb6cb628219e28c", "fusion_lon": 0.0, "bike_id": "0cf2a32a8ed4d108cbb6cb628219e28c", "is_disabled": 0, "is_reserved": 0}, {"rental_uris": {"ios": "https://dc.lft.to/lastmile_qr_scan", "android": "https://dc.lft.to/lastmile_qr_scan"}, "lon": -77.07217566666667, "type": "electric_scooter", "fusion_lat": 0.0, "lat": 38.93464016666667, "name": "b312fbba9345d8c6970d55ff4067db60", "fusion_lon": 0.0, "bike_id": "b312fbba9345d8c6970d55ff4067db60", "is_disabled": 0, "is_reserved": 0}, {"rental_uris": {"ios": "https://dc.lft.to/lastmile_qr_scan", "android": "https://dc.lft.to/lastmile_qr_scan"}, "lon": -77.02608266666667, "type": "electric_scooter", "fusion_lat": 0.0, "lat": 38.916714666666664, "name": "c79237a5be2d08b1be9e10ad7992ab78", "fusion_lon": 0.0, "bike_id": "c79237a5be2d08b1be9e10ad7992ab78", "is_disabled": 0, "is_reserved": 0}, {"rental_uris": {"ios": "https://dc.lft.to/lastmile_qr_scan", "android": "https://dc.lft.to/lastmile_qr_scan"}, "lon": -77.02571383333333, "type": "electric_scooter", "fusion_lat": 0.0, "lat": 38.887436666666666, "name": "d3fb39a37da45f01949e179340aa751d", "fusion_lon": 0.0, "bike_id": "d3fb39a37da45f01949e179340aa751d", "is_disabled": 0, "is_reserved": 0}, {"rental_uris": {"ios": "https://dc.lft.to/lastmile_qr_scan", "android": "https://dc.lft.to/lastmile_qr_scan"}, "lon": -77.05923266666667, "type": "electric_scooter", "fusion_lat": 0.0, "lat": 38.90450933333334, "name": "3d38248d107896bfdd7a39a455a06c7c", "fusion_lon": 0.0, "bike_id": "3d38248d107896bfdd7a39a455a06c7c", "is_disabled": 0, "is_reserved": 0}, {"rental_uris": {"ios": "https://dc.lft.to/lastmile_qr_scan", "android": "https://dc.lft.to/lastmile_qr_scan"}, "lon": -77.03519466666667, "type": "electric_scooter", "fusion_lat": 0.0, "lat": 38.923301, "name": "d63ef38cb63f77c3d5b3d7968138e8e0", "fusion_lon": 0.0, "bike_id": "d63ef38cb63f77c3d5b3d7968138e8e0", "is_disabled": 0, "is_reserved": 0}, {"rental_uris": {"ios": "https://dc.lft.to/lastmile_qr_scan", "android": "https://dc.lft.to/lastmile_qr_scan"}, "lon": -77.0216255, "type": "electric_scooter", "fusion_lat": 0.0, "lat": 38.89724116666667, "name": "d59f86df30dea84b5e85457e2218565c", "fusion_lon": 0.0, "bike_id": "d59f86df30dea84b5e85457e2218565c", "is_disabled": 0, "is_reserved": 0}, {"rental_uris": {"ios": "https://dc.lft.to/lastmile_qr_scan", "android": "https://dc.lft.to/lastmile_qr_scan"}, "lon": -77.009607, "type": "electric_scooter", "fusion_lat": 0.0, "lat": 38.907035, "name": "6be21fa7f3528b3ab3993f43415b0777", "fusion_lon": 0.0, "bike_id": "6be21fa7f3528b3ab3993f43415b0777", "is_disabled": 0, "is_reserved": 0}, {"rental_uris": {"ios": "https://dc.lft.to/lastmile_qr_scan", "android": "https://dc.lft.to/lastmile_qr_scan"}, "lon": -77.05754816666666, "type": "electric_scooter", "fusion_lat": 0.0, "lat": 38.93415616666667, "name": "b486d4561c5ff01b91d9863056564bd0", "fusion_lon": 0.0, "bike_id": "b486d4561c5ff01b91d9863056564bd0", "is_disabled": 0, "is_reserved": 0}, {"rental_uris": {"ios": "https://dc.lft.to/lastmile_qr_scan", "android": "https://dc.lft.to/lastmile_qr_scan"}, "lon": -76.9802395, "type": "electric_scooter", "fusion_lat": 0.0, "lat": 38.887627, "name": "0cc3566001ac33806faf2abf5b3b813c", "fusion_lon": 0.0, "bike_id": "0cc3566001ac33806faf2abf5b3b813c", "is_disabled": 0, "is_reserved": 0}, {"rental_uris": {"ios": "https://dc.lft.to/lastmile_qr_scan", "android": "https://dc.lft.to/lastmile_qr_scan"}, "lon": -77.04035616666667, "type": "electric_scooter", "fusion_lat": 0.0, "lat": 38.92471833333333, "name": "f0b1d5a8c46bfa1945b89644417d5341", "fusion_lon": 0.0, "bike_id": "f0b1d5a8c46bfa1945b89644417d5341", "is_disabled": 0, "is_reserved": 0}, {"rental_uris": {"ios": "https://dc.lft.to/lastmile_qr_scan", "android": "https://dc.lft.to/lastmile_qr_scan"}, "lon": -77.03181933333333, "type": "electric_scooter", "fusion_lat": 0.0, "lat": 38.91346766666667, "name": "7a1003584f1fe45f7e400427cf2385e0", "fusion_lon": 0.0, "bike_id": "7a1003584f1fe45f7e400427cf2385e0", "is_disabled": 0, "is_reserved": 0}, {"rental_uris": {"ios": "https://dc.lft.to/lastmile_qr_scan", "android": "https://dc.lft.to/lastmile_qr_scan"}, "lon": -77.05003816666667, "type": "electric_scooter", "fusion_lat": 0.0, "lat": 38.89226166666667, "name": "e1ea1ee557ae00834729939aff3bf2e4", "fusion_lon": 0.0, "bike_id": "e1ea1ee557ae00834729939aff3bf2e4", "is_disabled": 0, "is_reserved": 0}, {"rental_uris": {"ios": "https://dc.lft.to/lastmile_qr_scan", "android": "https://dc.lft.to/lastmile_qr_scan"}, "lon": -77.022091, "type": "electric_scooter", "fusion_lat": 0.0, "lat": 38.91552466666667, "name": "8076b004e33c22cc7b45524b78bb69ed", "fusion_lon": 0.0, "bike_id": "8076b004e33c22cc7b45524b78bb69ed", "is_disabled": 0, "is_reserved": 0}, {"rental_uris": {"ios": "https://dc.lft.to/lastmile_qr_scan", "android": "https://dc.lft.to/lastmile_qr_scan"}, "lon": -76.99554633333334, "type": "electric_scooter", "fusion_lat": 0.0, "lat": 38.92663366666667, "name": "ec503984b899be0b65ab4a4287c84f4f", "fusion_lon": 0.0, "bike_id": "ec503984b899be0b65ab4a4287c84f4f", "is_disabled": 0, "is_reserved": 0}, {"rental_uris": {"ios": "https://dc.lft.to/lastmile_qr_scan", "android": "https://dc.lft.to/lastmile_qr_scan"}, "lon": -77.05176366666667, "type": "electric_scooter", "fusion_lat": 0.0, "lat": 38.92413166666667, "name": "44c4c06ab24fc2419802672118bb64bf", "fusion_lon": 0.0, "bike_id": "44c4c06ab24fc2419802672118bb64bf", "is_disabled": 0, "is_reserved": 0}, {"rental_uris": {"ios": "https://dc.lft.to/lastmile_qr_scan", "android": "https://dc.lft.to/lastmile_qr_scan"}, "lon": -76.98497116666667, "type": "electric_scooter", "fusion_lat": 0.0, "lat": 38.86045083333333, "name": "00cbd03e28c6c4f3d061afdcf46352e7", "fusion_lon": 0.0, "bike_id": "00cbd03e28c6c4f3d061afdcf46352e7", "is_disabled": 0, "is_reserved": 0}, {"rental_uris": {"ios": "https://dc.lft.to/lastmile_qr_scan", "android": "https://dc.lft.to/lastmile_qr_scan"}, "lon": -76.97597333333333, "type": "electric_scooter", "fusion_lat": 0.0, "lat": 38.902066, "name": "e31b213d6fe0844b4c8daf581497c335", "fusion_lon": 0.0, "bike_id": "e31b213d6fe0844b4c8daf581497c335", "is_disabled": 0, "is_reserved": 0}, {"rental_uris": {"ios": "https://dc.lft.to/lastmile_qr_scan", "android": "https://dc.lft.to/lastmile_qr_scan"}, "lon": -77.03335666666666, "type": "electric_scooter", "fusion_lat": 0.0, "lat": 38.897580833333336, "name": "f6c4bbd17e9a26a7d74fc5638704aa28", "fusion_lon": 0.0, "bike_id": "f6c4bbd17e9a26a7d74fc5638704aa28", "is_disabled": 0, "is_reserved": 0}, {"rental_uris": {"ios": "https://dc.lft.to/lastmile_qr_scan", "android": "https://dc.lft.to/lastmile_qr_scan"}, "lon": -76.995137, "type": "electric_scooter", "fusion_lat": 0.0, "lat": 38.84471533333333, "name": "0f3aa960137c63b028cc07be17dbdc13", "fusion_lon": 0.0, "bike_id": "0f3aa960137c63b028cc07be17dbdc13", "is_disabled": 0, "is_reserved": 0}, {"rental_uris": {"ios": "https://dc.lft.to/lastmile_qr_scan", "android": "https://dc.lft.to/lastmile_qr_scan"}, "lon": -76.99486233333333, "type": "electric_scooter", "fusion_lat": 0.0, "lat": 38.88109716666666, "name": "b4b6d2ad8ef6a85a9e33e9cb0bd86f33", "fusion_lon": 0.0, "bike_id": "b4b6d2ad8ef6a85a9e33e9cb0bd86f33", "is_disabled": 0, "is_reserved": 0}, {"rental_uris": {"ios": "https://dc.lft.to/lastmile_qr_scan", "android": "https://dc.lft.to/lastmile_qr_scan"}, "lon": -76.96886516666666, "type": "electric_bike", "fusion_lat": 0.0, "lat": 38.8458755, "name": "46e9f1efaf4ef0052664c533b513334c", "fusion_lon": 0.0, "bike_id": "46e9f1efaf4ef0052664c533b513334c", "is_disabled": 0, "is_reserved": 0}, {"rental_uris": {"ios": "https://dc.lft.to/lastmile_qr_scan", "android": "https://dc.lft.to/lastmile_qr_scan"}, "lon": -77.100941, "type": "electric_bike", "fusion_lat": 0.0, "lat": 38.95952, "name": "2def0abebb13b657b25c40a552bb186d", "fusion_lon": 0.0, "bike_id": "2def0abebb13b657b25c40a552bb186d", "is_disabled": 0, "is_reserved": 0}, {"rental_uris": {"ios": "https://dc.lft.to/lastmile_qr_scan", "android": "https://dc.lft.to/lastmile_qr_scan"}, "lon": -77.0293305, "type": "electric_scooter", "fusion_lat": 0.0, "lat": 38.90017066666667, "name": "553f9041da4d55dfbcd5b6b51eafa972", "fusion_lon": 0.0, "bike_id": "553f9041da4d55dfbcd5b6b51eafa972", "is_disabled": 0, "is_reserved": 0}, {"rental_uris": {"ios": "https://dc.lft.to/lastmile_qr_scan", "android": "https://dc.lft.to/lastmile_qr_scan"}, "lon": -77.0139365, "type": "electric_scooter", "fusion_lat": 0.0, "lat": 38.97011966666667, "name": "6895baa6aee634e9ae40023f26632a66", "fusion_lon": 0.0, "bike_id": "6895baa6aee634e9ae40023f26632a66", "is_disabled": 0, "is_reserved": 0}, {"rental_uris": {"ios": "https://dc.lft.to/lastmile_qr_scan", "android": "https://dc.lft.to/lastmile_qr_scan"}, "lon": -77.0237445, "type": "electric_scooter", "fusion_lat": 0.0, "lat": 38.892201, "name": "473111ade91c25ef75355aeced8c8d98", "fusion_lon": 0.0, "bike_id": "473111ade91c25ef75355aeced8c8d98", "is_disabled": 0, "is_reserved": 0}, {"rental_uris": {"ios": "https://dc.lft.to/lastmile_qr_scan", "android": "https://dc.lft.to/lastmile_qr_scan"}, "lon": -77.04173516666667, "type": "electric_scooter", "fusion_lat": 0.0, "lat": 38.919511, "name": "2534382a8b5d6fa1049cbbf07b67ffad", "fusion_lon": 0.0, "bike_id": "2534382a8b5d6fa1049cbbf07b67ffad", "is_disabled": 0, "is_reserved": 0}, {"rental_uris": {"ios": "https://dc.lft.to/lastmile_qr_scan", "android": "https://dc.lft.to/lastmile_qr_scan"}, "lon": -76.988406, "type": "electric_bike", "fusion_lat": 0.0, "lat": 38.8426805, "name": "a93b20938281fc333e01d9ed3ae70183", "fusion_lon": 0.0, "bike_id": "a93b20938281fc333e01d9ed3ae70183", "is_disabled": 0, "is_reserved": 0}, {"rental_uris": {"ios": "https://dc.lft.to/lastmile_qr_scan", "android": "https://dc.lft.to/lastmile_qr_scan"}, "lon": -77.0144225, "type": "electric_scooter", "fusion_lat": 0.0, "lat": 38.905643833333336, "name": "cf8a4b536d65c6bbd12a96f89f3d4eb0", "fusion_lon": 0.0, "bike_id": "cf8a4b536d65c6bbd12a96f89f3d4eb0", "is_disabled": 0, "is_reserved": 0}, {"rental_uris": {"ios": "https://dc.lft.to/lastmile_qr_scan", "android": "https://dc.lft.to/lastmile_qr_scan"}, "lon": -76.93739266666667, "type": "electric_scooter", "fusion_lat": 0.0, "lat": 38.89013116666667, "name": "ed561fe426039139783083ca8586be95", "fusion_lon": 0.0, "bike_id": "ed561fe426039139783083ca8586be95", "is_disabled": 0, "is_reserved": 0}, {"rental_uris": {"ios": "https://dc.lft.to/lastmile_qr_scan", "android": "https://dc.lft.to/lastmile_qr_scan"}, "lon": -77.07936566666666, "type": "electric_scooter", "fusion_lat": 0.0, "lat": 38.9487355, "name": "900ad13e7a32dd675afa52eb5c93b73b", "fusion_lon": 0.0, "bike_id": "900ad13e7a32dd675afa52eb5c93b73b", "is_disabled": 0, "is_reserved": 0}, {"rental_uris": {"ios": "https://dc.lft.to/lastmile_qr_scan", "android": "https://dc.lft.to/lastmile_qr_scan"}, "lon": -77.02829116666666, "type": "electric_scooter", "fusion_lat": 0.0, "lat": 38.93238083333333, "name": "9e7db8a6c94f0aa4ebb48f26f4186f0d", "fusion_lon": 0.0, "bike_id": "9e7db8a6c94f0aa4ebb48f26f4186f0d", "is_disabled": 0, "is_reserved": 0}, {"rental_uris": {"ios": "https://dc.lft.to/lastmile_qr_scan", "android": "https://dc.lft.to/lastmile_qr_scan"}, "lon": -77.02714683333333, "type": "electric_scooter", "fusion_lat": 0.0, "lat": 38.917968, "name": "4eb68a0676f36eff86b68e8cc4095f90", "fusion_lon": 0.0, "bike_id": "4eb68a0676f36eff86b68e8cc4095f90", "is_disabled": 0, "is_reserved": 0}, {"rental_uris": {"ios": "https://dc.lft.to/lastmile_qr_scan", "android": "https://dc.lft.to/lastmile_qr_scan"}, "lon": -77.00720466666667, "type": "electric_scooter", "fusion_lat": 0.0, "lat": 38.913403, "name": "cf9e47a98fe435726beef912be472828", "fusion_lon": 0.0, "bike_id": "cf9e47a98fe435726beef912be472828", "is_disabled": 0, "is_reserved": 0}, {"rental_uris": {"ios": "https://dc.lft.to/lastmile_qr_scan", "android": "https://dc.lft.to/lastmile_qr_scan"}, "lon": -77.05298066666667, "type": "electric_scooter", "fusion_lat": 0.0, "lat": 38.910189, "name": "5928b68329a9f20dbe73521ace046a99", "fusion_lon": 0.0, "bike_id": "5928b68329a9f20dbe73521ace046a99", "is_disabled": 0, "is_reserved": 0}, {"rental_uris": {"ios": "https://dc.lft.to/lastmile_qr_scan", "android": "https://dc.lft.to/lastmile_qr_scan"}, "lon": -76.92997883333334, "type": "electric_bike", "fusion_lat": 0.0, "lat": 38.887934666666666, "name": "b20583a8ad3e7487b22f2b25a643ce70", "fusion_lon": 0.0, "bike_id": "b20583a8ad3e7487b22f2b25a643ce70", "is_disabled": 0, "is_reserved": 0}, {"rental_uris": {"ios": "https://dc.lft.to/lastmile_qr_scan", "android": "https://dc.lft.to/lastmile_qr_scan"}, "lon": -77.00222683333334, "type": "electric_scooter", "fusion_lat": 0.0, "lat": 38.908472333333336, "name": "285ebb54ec4cf17344403429f3b2d02a", "fusion_lon": 0.0, "bike_id": "285ebb54ec4cf17344403429f3b2d02a", "is_disabled": 0, "is_reserved": 0}, {"rental_uris": {"ios": "https://dc.lft.to/lastmile_qr_scan", "android": "https://dc.lft.to/lastmile_qr_scan"}, "lon": -77.016059, "type": "electric_scooter", "fusion_lat": 0.0, "lat": 38.896121, "name": "b002e743cfa184bce8f7f47d2eae6c79", "fusion_lon": 0.0, "bike_id": "b002e743cfa184bce8f7f47d2eae6c79", "is_disabled": 0, "is_reserved": 0}, {"rental_uris": {"ios": "https://dc.lft.to/lastmile_qr_scan", "android": "https://dc.lft.to/lastmile_qr_scan"}, "lon": -77.0298285, "type": "electric_scooter", "fusion_lat": 0.0, "lat": 38.95834983333334, "name": "051ccf6ff8f6d6b8e1807a243e499749", "fusion_lon": 0.0, "bike_id": "051ccf6ff8f6d6b8e1807a243e499749", "is_disabled": 0, "is_reserved": 0}, {"rental_uris": {"ios": "https://dc.lft.to/lastmile_qr_scan", "android": "https://dc.lft.to/lastmile_qr_scan"}, "lon": -77.0407665, "type": "electric_bike", "fusion_lat": 0.0, "lat": 38.812338833333335, "name": "97ea20fac452bb5fa777244bf10ba60e", "fusion_lon": 0.0, "bike_id": "97ea20fac452bb5fa777244bf10ba60e", "is_disabled": 0, "is_reserved": 0}, {"rental_uris": {"ios": "https://dc.lft.to/lastmile_qr_scan", "android": "https://dc.lft.to/lastmile_qr_scan"}, "lon": -76.9389105, "type": "electric_bike", "fusion_lat": 0.0, "lat": 38.8832435, "name": "12cc86b531191872b96a6c3071b4e7c6", "fusion_lon": 0.0, "bike_id": "12cc86b531191872b96a6c3071b4e7c6", "is_disabled": 0, "is_reserved": 0}, {"rental_uris": {"ios": "https://dc.lft.to/lastmile_qr_scan", "android": "https://dc.lft.to/lastmile_qr_scan"}, "lon": -77.02355466666667, "type": "electric_scooter", "fusion_lat": 0.0, "lat": 38.931942166666666, "name": "775c67d98faf693969d0757665a493c4", "fusion_lon": 0.0, "bike_id": "775c67d98faf693969d0757665a493c4", "is_disabled": 0, "is_reserved": 0}, {"rental_uris": {"ios": "https://dc.lft.to/lastmile_qr_scan", "android": "https://dc.lft.to/lastmile_qr_scan"}, "lon": -77.0364295, "type": "electric_scooter", "fusion_lat": 0.0, "lat": 38.916129833333336, "name": "0fe1cfec06871729f1edc3a2f755dbce", "fusion_lon": 0.0, "bike_id": "0fe1cfec06871729f1edc3a2f755dbce", "is_disabled": 0, "is_reserved": 0}, {"rental_uris": {"ios": "https://dc.lft.to/lastmile_qr_scan", "android": "https://dc.lft.to/lastmile_qr_scan"}, "lon": -77.0299005, "type": "electric_scooter", "fusion_lat": 0.0, "lat": 38.9562635, "name": "86dc8ea6ea292134a14d8145c1e17631", "fusion_lon": 0.0, "bike_id": "86dc8ea6ea292134a14d8145c1e17631", "is_disabled": 0, "is_reserved": 0}, {"rental_uris": {"ios": "https://dc.lft.to/lastmile_qr_scan", "android": "https://dc.lft.to/lastmile_qr_scan"}, "lon": -77.05505583333333, "type": "electric_scooter", "fusion_lat": 0.0, "lat": 38.92970316666667, "name": "a17f5cff1eb31b757d3633ce4746800b", "fusion_lon": 0.0, "bike_id": "a17f5cff1eb31b757d3633ce4746800b", "is_disabled": 0, "is_reserved": 0}, {"rental_uris": {"ios": "https://dc.lft.to/lastmile_qr_scan", "android": "https://dc.lft.to/lastmile_qr_scan"}, "lon": -77.02572883333333, "type": "electric_scooter", "fusion_lat": 0.0, "lat": 38.9723865, "name": "168ca812491988d328feb9a31f3a98cd", "fusion_lon": 0.0, "bike_id": "168ca812491988d328feb9a31f3a98cd", "is_disabled": 0, "is_reserved": 0}, {"rental_uris": {"ios": "https://dc.lft.to/lastmile_qr_scan", "android": "https://dc.lft.to/lastmile_qr_scan"},