{"data": {"bikes": [{"name": "e3b6613c9e71ab0dee5ef0c5d5917390", "lon": -77.01525883333333, "lat": 38.88630066666666, "type": "electric_scooter", "fusion_lon": 0.0, "is_reserved": 0, "bike_id": "e3b6613c9e71ab0dee5ef0c5d5917390", "fusion_lat": 0.0, "is_disabled": 0, "rental_uris": {"ios": "https://dc.lft.to/lastmile_qr_scan", "android": "https://dc.lft.to/lastmile_qr_scan"}}, {"name": "7cb97b81bca1dfa0a9373ac38c634629", "lon": -76.99779083333334, "lat": 38.90902533333333, "type": "electric_scooter", "fusion_lon": 0.0, "is_reserved": 0, "bike_id": "7cb97b81bca1dfa0a9373ac38c634629", "fusion_lat": 0.0, "is_disabled": 0, "rental_uris": {"ios": "https://dc.lft.to/lastmile_qr_scan", "android": "https://dc.lft.to/lastmile_qr_scan"}}, {"name": "2bf9d31eab20761af174f3e5fb7005b5", "lon": -77.0296745, "lat": 38.916830833333336, "type": "electric_scooter", "fusion_lon": 0.0, "is_reserved": 0, "bike_id": "2bf9d31eab20761af174f3e5fb7005b5", "fusion_lat": 0.0, "is_disabled": 0, "rental_uris": {"ios": "https://dc.lft.to/lastmile_qr_scan", "android": "https://dc.lft.to/lastmile_qr_scan"}}, {"name": "b22c426ea4390f4b7d2d1b37a92ed894", "lon": -77.02179616666666, "lat": 38.934766833333335, "type": "electric_scooter", "fusion_lon": 0.0, "is_reserved": 0, "bike_id": "b22c426ea4390f4b7d2d1b37a92ed894", "fusion_lat": 0.0, "is_disabled": 0, "rental_uris": {"ios": "https://dc.lft.to/lastmile_qr_scan", "android": "https://dc.lft.to/lastmile_qr_scan"}}, {"name": "0d07aa71fecf25ec1f870f9029ee91fc", "lon": -77.016575, "lat": 38.881134333333335, "type": "electric_scooter", "fusion_lon": 0.0, "is_reserved": 0, "bike_id": "0d07aa71fecf25ec1f870f9029ee91fc", "fusion_lat": 0.0, "is_disabled": 0, "rental_uris": {"ios": "https://dc.lft.to/lastmile_qr_scan", "android": "https://dc.lft.to/lastmile_qr_scan"}}, {"name": "128963a66125133a994e4027cf8bd35e", "lon": -77.02830133333333, "lat": 38.950865, "type": "electric_scooter", "fusion_lon": 0.0, "is_reserved": 0, "bike_id": "128963a66125133a994e4027cf8bd35e", "fusion_lat": 0.0, "is_disabled": 0, "rental_uris": {"ios": "https://dc.lft.to/lastmile_qr_scan", "android": "https://dc.lft.to/lastmile_qr_scan"}}, {"name": "71c1439ec52b3398395d78fc998111c6", "lon": -77.03860666666667, "lat": 38.90781166666667, "type": "electric_scooter", "fusion_lon": 0.0, "is_reserved": 0, "bike_id": "71c1439ec52b3398395d78fc998111c6", "fusion_lat": 0.0, "is_disabled": 0, "rental_uris": {"ios": "https://dc.lft.to/lastmile_qr_scan", "android": "https://dc.lft.to/lastmile_qr_scan"}}, {"name": "cd5b829aba637d09a1ccab4444c91361", "lon": -77.04751433333334, "lat": 38.90545933333333, "type": "electric_scooter", "fusion_lon": 0.0, "is_reserved": 0, "bike_id": "cd5b829aba637d09a1ccab4444c91361", "fusion_lat": 0.0, "is_disabled": 0, "rental_uris": {"ios": "https://dc.lft.to/lastmile_qr_scan", "android": "https://dc.lft.to/lastmile_qr_scan"}}, {"name": "c9c678035760a3ff00bfd67d58f1776d", "lon": -77.05088183333334, "lat": 38.81333883333333, "type": "electric_bike", "fusion_lon": 0.0, "is_reserved": 0, "bike_id": "c9c678035760a3ff00bfd67d58f1776d", "fusion_lat": 0.0, "is_disabled": 0, "rental_uris": {"ios": "https://dc.lft.to/lastmile_qr_scan", "android": "https://dc.lft.to/lastmile_qr_scan"}}, {"name": "03c27178382e42315a3b647fa37e03a5", "lon": -77.021839, "lat": 38.9101745, "type": "electric_scooter", "fusion_lon": 0.0, "is_reserved": 0, "bike_id": "03c27178382e42315a3b647fa37e03a5", "fusion_lat": 0.0, "is_disabled": 0, "rental_uris": {"ios": "https://dc.lft.to/lastmile_qr_scan", "android": "https://dc.lft.to/lastmile_qr_scan"}}, {"name": "9772da1df4001b72621130758adf9850", "lon": -77.03191166666667, "lat": 38.913509, "type": "electric_scooter", "fusion_lon": 0.0, "is_reserved": 0, "bike_id": "9772da1df4001b72621130758adf9850", "fusion_lat": 0.0, "is_disabled": 0, "rental_uris": {"ios": "https://dc.lft.to/lastmile_qr_scan", "android": "https://dc.lft.to/lastmile_qr_scan"}}, {"name": "1c9001d70273703561ecd6cd51ee4c67", "lon": -77.0735765, "lat": 38.930579333333334, "type": "electric_bike", "fusion_lon": 0.0, "is_reserved": 0, "bike_id": "1c9001d70273703561ecd6cd51ee4c67", "fusion_lat": 0.0, "is_disabled": 0, "rental_uris": {"ios": "https://dc.lft.to/lastmile_qr_scan", "android": "https://dc.lft.to/lastmile_qr_scan"}}, {"name": "d90d9afd19296737e17144a775643232", "lon": -77.02502616666666, "lat": 38.906349666666664, "type": "electric_scooter", "fusion_lon": 0.0, "is_reserved": 0, "bike_id": "d90d9afd19296737e17144a775643232", "fusion_lat": 0.0, "is_disabled": 0, "rental_uris": {"ios": "https://dc.lft.to/lastmile_qr_scan", "android": "https://dc.lft.to/lastmile_qr_scan"}}, {"name": "a1a955e8f375249b65bcfb02ee0d004d", "lon": -77.11601583333334, "lat": 39.074921833333335, "type": "electric_bike", "fusion_lon": 0.0, "is_reserved": 0, "bike_id": "a1a955e8f375249b65bcfb02ee0d004d", "fusion_lat": 0.0, "is_disabled": 0, "rental_uris": {"ios": "https://dc.lft.to/lastmile_qr_scan", "android": "https://dc.lft.to/lastmile_qr_scan"}}, {"name": "8a7270c9bead8f84f5e76097121a1789", "lon": -76.98835166666667, "lat": 38.892572666666666, "type": "electric_scooter", "fusion_lon": 0.0, "is_reserved": 0, "bike_id": "8a7270c9bead8f84f5e76097121a1789", "fusion_lat": 0.0, "is_disabled": 0, "rental_uris": {"ios": "https://dc.lft.to/lastmile_qr_scan", "android": "https://dc.lft.to/lastmile_qr_scan"}}, {"name": "a84966288dae31f14fa54e0fb36a7b29", "lon": -77.0268495, "lat": 38.90433616666667, "type": "electric_scooter", "fusion_lon": 0.0, "is_reserved": 0, "bike_id": "a84966288dae31f14fa54e0fb36a7b29", "fusion_lat": 0.0, "is_disabled": 0, "rental_uris": {"ios": "https://dc.lft.to/lastmile_qr_scan", "android": "https://dc.lft.to/lastmile_qr_scan"}}, {"name": "478df2194c051a90524364492d553ec1", "lon": -77.04846933333333, "lat": 38.919632666666665, "type": "electric_scooter", "fusion_lon": 0.0, "is_reserved": 0, "bike_id": "478df2194c051a90524364492d553ec1", "fusion_lat": 0.0, "is_disabled": 0, "rental_uris": {"ios": "https://dc.lft.to/lastmile_qr_scan", "android": "https://dc.lft.to/lastmile_qr_scan"}}, {"name": "2a84616890d9870a719d7c65a35dc018", "lon": -77.03580616666666, "lat": 38.9191255, "type": "electric_bike", "fusion_lon": 0.0, "is_reserved": 0, "bike_id": "2a84616890d9870a719d7c65a35dc018", "fusion_lat": 0.0, "is_disabled": 0, "rental_uris": {"ios": "https://dc.lft.to/lastmile_qr_scan", "android": "https://dc.lft.to/lastmile_qr_scan"}}, {"name": "26cea5838a4f2540bbd4f3452a72aa7c", "lon": -77.02298383333333, "lat": 38.92808016666667, "type": "electric_scooter", "fusion_lon": 0.0, "is_reserved": 0, "bike_id": "26cea5838a4f2540bbd4f3452a72aa7c", "fusion_lat": 0.0, "is_disabled": 0, "rental_uris": {"ios": "https://dc.lft.to/lastmile_qr_scan", "android": "https://dc.lft.to/lastmile_qr_scan"}}, {"name": "9017b49e380d39f9926a5eeb56f7299b", "lon": -77.00448983333334, "lat": 38.876636166666664, "type": "electric_scooter", "fusion_lon": 0.0, "is_reserved": 0, "bike_id": "9017b49e380d39f9926a5eeb56f7299b", "fusion_lat": 0.0, "is_disabled": 0, "rental_uris": {"ios": "https://dc.lft.to/lastmile_qr_scan", "android": "https://dc.lft.to/lastmile_qr_scan"}}, {"name": "558ec25cb184ee56ba003ab2a7f9e914", "lon": -77.0383835, "lat": 38.91197433333333, "type": "electric_scooter", "fusion_lon": 0.0, "is_reserved": 0, "bike_id": "558ec25cb184ee56ba003ab2a7f9e914", "fusion_lat": 0.0, "is_disabled": 0, "rental_uris": {"ios": "https://dc.lft.to/lastmile_qr_scan", "android": "https://dc.lft.to/lastmile_qr_scan"}}, {"name": "809fda5ef6bfb01cdebb75c27fff64dd", "lon": -77.04824733333334, "lat": 38.91046883333333, "type": "electric_scooter", "fusion_lon": 0.0, "is_reserved": 0, "bike_id": "809fda5ef6bfb01cdebb75c27fff64dd", "fusion_lat": 0.0, "is_disabled": 0, "rental_uris": {"ios": "https://dc.lft.to/lastmile_qr_scan", "android": "https://dc.lft.to/lastmile_qr_scan"}}, {"name": "d8b2af02a7fd4d4c40937358574306d0", "lon": -77.02189566666667, "lat": 38.905825166666666, "type": "electric_scooter", "fusion_lon": 0.0, "is_reserved": 0, "bike_id": "d8b2af02a7fd4d4c40937358574306d0", "fusion_lat": 0.0, "is_disabled": 0, "rental_uris": {"ios": "https://dc.lft.to/lastmile_qr_scan", "android": "https://dc.lft.to/lastmile_qr_scan"}}, {"name": "1da26b8e0c2235ae08950b8c5ad44c7e", "lon": -76.9980685, "lat": 38.885668333333335, "type": "electric_scooter", "fusion_lon": 0.0, "is_reserved": 0, "bike_id": "1da26b8e0c2235ae08950b8c5ad44c7e", "fusion_lat": 0.0, "is_disabled": 0, "rental_uris": {"ios": "https://dc.lft.to/lastmile_qr_scan", "android": "https://dc.lft.to/lastmile_qr_scan"}}, {"name": "b84523df5babd1ab23c2e0c4e54227d7", "lon": -77.05122766666666, "lat": 38.923464333333335, "type": "electric_scooter", "fusion_lon": 0.0, "is_reserved": 0, "bike_id": "b84523df5babd1ab23c2e0c4e54227d7", "fusion_lat": 0.0, "is_disabled": 0, "rental_uris": {"ios": "https://dc.lft.to/lastmile_qr_scan", "android": "https://dc.lft.to/lastmile_qr_scan"}}, {"name": "7645dfd35eedf4d2e05c3e5f75f6d3a7", "lon": -77.02163716666666, "lat": 38.926093, "type": "electric_scooter", "fusion_lon": 0.0, "is_reserved": 0, "bike_id": "7645dfd35eedf4d2e05c3e5f75f6d3a7", "fusion_lat": 0.0, "is_disabled": 0, "rental_uris": {"ios": "https://dc.lft.to/lastmile_qr_scan", "android": "https://dc.lft.to/lastmile_qr_scan"}}, {"name": "4c3f4984cb96058019be666afecf1714", "lon": -77.02701666666667, "lat": 38.9068765, "type": "electric_scooter", "fusion_lon": 0.0, "is_reserved": 0, "bike_id": "4c3f4984cb96058019be666afecf1714", "fusion_lat": 0.0, "is_disabled": 0, "rental_uris": {"ios": "https://dc.lft.to/lastmile_qr_scan", "android": "https://dc.lft.to/lastmile_qr_scan"}}, {"name": "61393b81621f6a8500b85bd2439f9045", "lon": -77.0238595, "lat": 38.91655683333333, "type": "electric_scooter", "fusion_lon": 0.0, "is_reserved": 0, "bike_id": "61393b81621f6a8500b85bd2439f9045", "fusion_lat": 0.0, "is_disabled": 0, "rental_uris": {"ios": "https://dc.lft.to/lastmile_qr_scan", "android": "https://dc.lft.to/lastmile_qr_scan"}}, {"name": "d32ac462bfb79bdee508a0fe5b872072", "lon": -76.997039, "lat": 38.8442235, "type": "electric_scooter", "fusion_lon": 0.0, "is_reserved": 0, "bike_id": "d32ac462bfb79bdee508a0fe5b872072", "fusion_lat": 0.0, "is_disabled": 0, "rental_uris": {"ios": "https://dc.lft.to/lastmile_qr_scan", "android": "https://dc.lft.to/lastmile_qr_scan"}}, {"name": "9fc296b9aebe65be55f0a7be6da7f5a6", "lon": -77.02199016666667, "lat": 38.913963333333335, "type": "electric_scooter", "fusion_lon": 0.0, "is_reserved": 0, "bike_id": "9fc296b9aebe65be55f0a7be6da7f5a6", "fusion_lat": 0.0, "is_disabled": 0, "rental_uris": {"ios": "https://dc.lft.to/lastmile_qr_scan", "android": "https://dc.lft.to/lastmile_qr_scan"}}, {"name": "b9a3326999bc6dbf2480a754df5d8230", "lon": -77.0317715, "lat": 38.9077505, "type": "electric_scooter", "fusion_lon": 0.0, "is_reserved": 0, "bike_id": "b9a3326999bc6dbf2480a754df5d8230", "fusion_lat": 0.0, "is_disabled": 0, "rental_uris": {"ios": "https://dc.lft.to/lastmile_qr_scan", "android": "https://dc.lft.to/lastmile_qr_scan"}}, {"name": "9e9969f2e6709a2664464de3794631ad", "lon": -77.00611433333333, "lat": 38.875544166666664, "type": "electric_scooter", "fusion_lon": 0.0, "is_reserved": 0, "bike_id": "9e9969f2e6709a2664464de3794631ad", "fusion_lat": 0.0, "is_disabled": 0, "rental_uris": {"ios": "https://dc.lft.to/lastmile_qr_scan", "android": "https://dc.lft.to/lastmile_qr_scan"}}, {"name": "4c7b94bd71e3e83e88b1fc211cdd19a1", "lon": -77.04481266666667, "lat": 38.900166, "type": "electric_scooter", "fusion_lon": 0.0, "is_reserved": 0, "bike_id": "4c7b94bd71e3e83e88b1fc211cdd19a1", "fusion_lat": 0.0, "is_disabled": 0, "rental_uris": {"ios": "https://dc.lft.to/lastmile_qr_scan", "android": "https://dc.lft.to/lastmile_qr_scan"}}, {"name": "01815f348f9b6380061ea7f67b4ea6a6", "lon": -77.04372333333333, "lat": 38.925677, "type": "electric_scooter", "fusion_lon": 0.0, "is_reserved": 0, "bike_id": "01815f348f9b6380061ea7f67b4ea6a6", "fusion_lat": 0.0, "is_disabled": 0, "rental_uris": {"ios": "https://dc.lft.to/lastmile_qr_scan", "android": "https://dc.lft.to/lastmile_qr_scan"}}, {"name": "e1f13a063adf440a4cc947d3a0925f6f", "lon": -76.98521216666667, "lat": 38.86667333333333, "type": "electric_scooter", "fusion_lon": 0.0, "is_reserved": 0, "bike_id": "e1f13a063adf440a4cc947d3a0925f6f", "fusion_lat": 0.0, "is_disabled": 0, "rental_uris": {"ios": "https://dc.lft.to/lastmile_qr_scan", "android": "https://dc.lft.to/lastmile_qr_scan"}}, {"name": "90968887f5a784ab7f17a9fe5d165d12", "lon": -77.04763883333334, "lat": 38.912463, "type": "electric_scooter", "fusion_lon": 0.0, "is_reserved": 0, "bike_id": "90968887f5a784ab7f17a9fe5d165d12", "fusion_lat": 0.0, "is_disabled": 0, "rental_uris": {"ios": "https://dc.lft.to/lastmile_qr_scan", "android": "https://dc.lft.to/lastmile_qr_scan"}}, {"name": "7b2aef99fe936c7235b3a9370b9da7bd", "lon": -76.93196716666667, "lat": 38.898807166666664, "type": "electric_scooter", "fusion_lon": 0.0, "is_reserved": 0, "bike_id": "7b2aef99fe936c7235b3a9370b9da7bd", "fusion_lat": 0.0, "is_disabled": 0, "rental_uris": {"ios": "https://dc.lft.to/lastmile_qr_scan", "android": "https://dc.lft.to/lastmile_qr_scan"}}, {"name": "da15d558c344e46297ee347492708b86", "lon": -76.93547783333334, "lat": 38.955544333333336, "type": "electric_bike", "fusion_lon": 0.0, "is_reserved": 0, "bike_id": "da15d558c344e46297ee347492708b86", "fusion_lat": 0.0, "is_disabled": 0, "rental_uris": {"ios": "https://dc.lft.to/lastmile_qr_scan", "android": "https://dc.lft.to/lastmile_qr_scan"}}, {"name": "097456b3e803a9cc6f2d226c37f89be9", "lon": -77.05151983333333, "lat": 38.905275833333334, "type": "electric_scooter", "fusion_lon": 0.0, "is_reserved": 0, "bike_id": "097456b3e803a9cc6f2d226c37f89be9", "fusion_lat": 0.0, "is_disabled": 0, "rental_uris": {"ios": "https://dc.lft.to/lastmile_qr_scan", "android": "https://dc.lft.to/lastmile_qr_scan"}}, {"name": "93c8fa67a9e575f6a50debe6cb1dd3d2", "lon": -76.994772, "lat": 38.902962333333335, "type": "electric_scooter", "fusion_lon": 0.0, "is_reserved": 0, "bike_id": "93c8fa67a9e575f6a50debe6cb1dd3d2", "fusion_lat": 0.0, "is_disabled": 0, "rental_uris": {"ios": "https://dc.lft.to/lastmile_qr_scan", "android": "https://dc.lft.to/lastmile_qr_scan"}}, {"name": "c745cf7f2e0877966f2ff15c824a69d5", "lon": -77.033357, "lat": 38.892221, "type": "electric_scooter", "fusion_lon": 0.0, "is_reserved": 0, "bike_id": "c745cf7f2e0877966f2ff15c824a69d5", "fusion_lat": 0.0, "is_disabled": 0, "rental_uris": {"ios": "https://dc.lft.to/lastmile_qr_scan", "android": "https://dc.lft.to/lastmile_qr_scan"}}, {"name": "f92e952e28e8ab6dec852d9fcc548d3c", "lon": -77.0447735, "lat": 38.92240983333333, "type": "electric_scooter", "fusion_lon": 0.0, "is_reserved": 0, "bike_id": "f92e952e28e8ab6dec852d9fcc548d3c", "fusion_lat": 0.0, "is_disabled": 0, "rental_uris": {"ios": "https://dc.lft.to/lastmile_qr_scan", "android": "https://dc.lft.to/lastmile_qr_scan"}}, {"name": "8593d27a010d152c52f76f154a24db49", "lon": -76.99725016666666, "lat": 38.92749883333333, "type": "electric_bike", "fusion_lon": 0.0, "is_reserved": 0, "bike_id": "8593d27a010d152c52f76f154a24db49", "fusion_lat": 0.0, "is_disabled": 0, "rental_uris": {"ios": "https://dc.lft.to/lastmile_qr_scan", "android": "https://dc.lft.to/lastmile_qr_scan"}}, {"name": "644e9e84247fe36396d1d59615d605e9", "lon": -77.03271683333334, "lat": 38.9022725, "type": "electric_scooter", "fusion_lon": 0.0, "is_reserved": 0, "bike_id": "644e9e84247fe36396d1d59615d605e9", "fusion_lat": 0.0, "is_disabled": 0, "rental_uris": {"ios": "https://dc.lft.to/lastmile_qr_scan", "android": "https://dc.lft.to/lastmile_qr_scan"}}, {"name": "da9e9bd0209e06ccb8141a485c632138", "lon": -77.04483266666666, "lat": 38.91874283333333, "type": "electric_scooter", "fusion_lon": 0.0, "is_reserved": 0, "bike_id": "da9e9bd0209e06ccb8141a485c632138", "fusion_lat": 0.0, "is_disabled": 0, "rental_uris": {"ios": "https://dc.lft.to/lastmile_qr_scan", "android": "https://dc.lft.to/lastmile_qr_scan"}}, {"name": "909371c923d9e7f970f90d985ea200fc", "lon": -76.988858, "lat": 38.86654166666667, "type": "electric_scooter", "fusion_lon": 0.0, "is_reserved": 0, "bike_id": "909371c923d9e7f970f90d985ea200fc", "fusion_lat": 0.0, "is_disabled": 0, "rental_uris": {"ios": "https://dc.lft.to/lastmile_qr_scan", "android": "https://dc.lft.to/lastmile_qr_scan"}}, {"name": "ed4f7f7dce9633399f3f34068318d9da", "lon": -77.03778216666667, "lat": 38.91691483333334, "type": "electric_scooter", "fusion_lon": 0.0, "is_reserved": 0, "bike_id": "ed4f7f7dce9633399f3f34068318d9da", "fusion_lat": 0.0, "is_disabled": 0, "rental_uris": {"ios": "https://dc.lft.to/lastmile_qr_scan", "android": "https://dc.lft.to/lastmile_qr_scan"}}, {"name": "691ea7bc10944956794c32de50c661a2", "lon": -77.04187633333333, "lat": 38.919841, "type": "electric_scooter", "fusion_lon": 0.0, "is_reserved": 0, "bike_id": "691ea7bc10944956794c32de50c661a2", "fusion_lat": 0.0, "is_disabled": 0, "rental_uris": {"ios": "https://dc.lft.to/lastmile_qr_scan", "android": "https://dc.lft.to/lastmile_qr_scan"}}, {"name": "66b4a6d0b7fb408d5fbf6918bab04806", "lon": -77.0299115, "lat": 38.90721216666667, "type": "electric_scooter", "fusion_lon": 0.0, "is_reserved": 0, "bike_id": "66b4a6d0b7fb408d5fbf6918bab04806", "fusion_lat": 0.0, "is_disabled": 0, "rental_uris": {"ios": "https://dc.lft.to/lastmile_qr_scan", "android": "https://dc.lft.to/lastmile_qr_scan"}}, {"name": "5676cea00d0ffa76ce91dbf02ed58c74", "lon": -77.02489683333333, "lat": 38.93861533333333, "type": "electric_scooter", "fusion_lon": 0.0, "is_reserved": 0, "bike_id": "5676cea00d0ffa76ce91dbf02ed58c74", "fusion_lat": 0.0, "is_disabled": 0, "rental_uris": {"ios": "https://dc.lft.to/lastmile_qr_scan", "android": "https://dc.lft.to/lastmile_qr_scan"}}, {"name": "428e62fc57b2b5d8c711304cd7e83a50", "lon": -77.05582283333334, "lat": 38.8932655, "type": "electric_scooter", "fusion_lon": 0.0, "is_reserved": 0, "bike_id": "428e62fc57b2b5d8c711304cd7e83a50", "fusion_lat": 0.0, "is_disabled": 0, "rental_uris": {"ios": "https://dc.lft.to/lastmile_qr_scan", "android": "https://dc.lft.to/lastmile_qr_scan"}}, {"name": "b4d515d8f54c23c777443cc4a82c9550", "lon": -76.985499, "lat": 38.904203, "type": "electric_scooter", "fusion_lon": 0.0, "is_reserved": 0, "bike_id": "b4d515d8f54c23c777443cc4a82c9550", "fusion_lat": 0.0, "is_disabled": 0, "rental_uris": {"ios": "https://dc.lft.to/lastmile_qr_scan", "android": "https://dc.lft.to/lastmile_qr_scan"}}, {"name": "082fe17d4aad3f1ddcfb48c59ac5e791", "lon": -77.01175416666666, "lat": 38.87231466666667, "type": "electric_bike", "fusion_lon": 0.0, "is_reserved": 0, "bike_id": "082fe17d4aad3f1ddcfb48c59ac5e791", "fusion_lat": 0.0, "is_disabled": 0, "rental_uris": {"ios": "https://dc.lft.to/lastmile_qr_scan", "android": "https://dc.lft.to/lastmile_qr_scan"}}, {"name": "cf7eb5145672859e5703b52c2af4a90d", "lon": -77.00730166666666, "lat": 38.898437666666666, "type": "electric_scooter", "fusion_lon": 0.0, "is_reserved": 0, "bike_id": "cf7eb5145672859e5703b52c2af4a90d", "fusion_lat": 0.0, "is_disabled": 0, "rental_uris": {"ios": "https://dc.lft.to/lastmile_qr_scan", "android": "https://dc.lft.to/lastmile_qr_scan"}}, {"name": "603d5ad97138c80d58a37c56c51bcb54", "lon": -77.02529783333334, "lat": 38.942603166666665, "type": "electric_scooter", "fusion_lon": 0.0, "is_reserved": 0, "bike_id": "603d5ad97138c80d58a37c56c51bcb54", "fusion_lat": 0.0, "is_disabled": 0, "rental_uris": {"ios": "https://dc.lft.to/lastmile_qr_scan", "android": "https://dc.lft.to/lastmile_qr_scan"}}, {"name": "7adb9a405ec7f7e64bbbf6e9d7d0e6e1", "lon": -77.04986033333333, "lat": 38.904133, "type": "electric_scooter", "fusion_lon": 0.0, "is_reserved": 0, "bike_id": "7adb9a405ec7f7e64bbbf6e9d7d0e6e1", "fusion_lat": 0.0, "is_disabled": 0, "rental_uris": {"ios": "https://dc.lft.to/lastmile_qr_scan", "android": "https://dc.lft.to/lastmile_qr_scan"}}, {"name": "f46e50bd4346d446f289e29728e2e877", "lon": -77.0461935, "lat": 38.909630166666666, "type": "electric_scooter", "fusion_lon": 0.0, "is_reserved": 0, "bike_id": "f46e50bd4346d446f289e29728e2e877", "fusion_lat": 0.0, "is_disabled": 0, "rental_uris": {"ios": "https://dc.lft.to/lastmile_qr_scan", "android": "https://dc.lft.to/lastmile_qr_scan"}}, {"name": "c65de435c21ba9edfcb2b7733bcd4ee7", "lon": -77.01491366666667, "lat": 38.881391, "type": "electric_scooter", "fusion_lon": 0.0, "is_reserved": 0, "bike_id": "c65de435c21ba9edfcb2b7733bcd4ee7", "fusion_lat": 0.0, "is_disabled": 0, "rental_uris": {"ios": "https://dc.lft.to/lastmile_qr_scan", "android": "https://dc.lft.to/lastmile_qr_scan"}}, {"name": "76e525a304751e08e3f7325098c2e39f", "lon": -77.01028966666667, "lat": 38.866661, "type": "electric_scooter", "fusion_lon": 0.0, "is_reserved": 0, "bike_id": "76e525a304751e08e3f7325098c2e39f", "fusion_lat": 0.0, "is_disabled": 0, "rental_uris": {"ios": "https://dc.lft.to/lastmile_qr_scan", "android": "https://dc.lft.to/lastmile_qr_scan"}}, {"name": "c29440e30686bdc4cc788866d68fc588", "lon": -77.04274733333334, "lat": 38.9133395, "type": "electric_scooter", "fusion_lon": 0.0, "is_reserved": 0, "bike_id": "c29440e30686bdc4cc788866d68fc588", "fusion_lat": 0.0, "is_disabled": 0, "rental_uris": {"ios": "https://dc.lft.to/lastmile_qr_scan", "android": "https://dc.lft.to/lastmile_qr_scan"}}, {"name": "a2dc3c8eb592377f2b67faae4957a6c1", "lon": -76.97835166666667, "lat": 38.87209583333333, "type": "electric_scooter", "fusion_lon": 0.0, "is_reserved": 0, "bike_id": "a2dc3c8eb592377f2b67faae4957a6c1", "fusion_lat": 0.0, "is_disabled": 0, "rental_uris": {"ios": "https://dc.lft.to/lastmile_qr_scan", "android": "https://dc.lft.to/lastmile_qr_scan"}}, {"name": "e776eb9208c616a8c8623a09136e4c11", "lon": -77.00832766666667, "lat": 38.8290995, "type": "electric_bike", "fusion_lon": 0.0, "is_reserved": 0, "bike_id": "e776eb9208c616a8c8623a09136e4c11", "fusion_lat": 0.0, "is_disabled": 0, "rental_uris": {"ios": "https://dc.lft.to/lastmile_qr_scan", "android": "https://dc.lft.to/lastmile_qr_scan"}}, {"name": "28fffc719a0366771ba65639b62badb3", "lon": -77.038017, "lat": 38.915460833333334, "type": "electric_scooter", "fusion_lon": 0.0, "is_reserved": 0, "bike_id": "28fffc719a0366771ba65639b62badb3", "fusion_lat": 0.0, "is_disabled": 0, "rental_uris": {"ios": "https://dc.lft.to/lastmile_qr_scan", "android": "https://dc.lft.to/lastmile_qr_scan"}}, {"name": "316f7441dabba15d06632774da9e5f34", "lon": -77.03447666666666, "lat": 38.9096995, "type": "electric_scooter", "fusion_lon": 0.0, "is_reserved": 0, "bike_id": "316f7441dabba15d06632774da9e5f34", "fusion_lat": 0.0, "is_disabled": 0, "rental_uris": {"ios": "https://dc.lft.to/lastmile_qr_scan", "android": "https://dc.lft.to/lastmile_qr_scan"}}, {"name": "b7b042c5f9a84da37f03a0ad3aaddf92", "lon": -76.94941666666666, "lat": 38.895089166666665, "type": "electric_scooter", "fusion_lon": 0.0, "is_reserved": 0, "bike_id": "b7b042c5f9a84da37f03a0ad3aaddf92", "fusion_lat": 0.0, "is_disabled": 0, "rental_uris": {"ios": "https://dc.lft.to/lastmile_qr_scan", "android": "https://dc.lft.to/lastmile_qr_scan"}}, {"name": "8c419ecd8b7ef4660e9631eb88ba1d39", "lon": -77.07192983333333, "lat": 38.9595185, "type": "electric_scooter", "fusion_lon": 0.0, "is_reserved": 0, "bike_id": "8c419ecd8b7ef4660e9631eb88ba1d39", "fusion_lat": 0.0, "is_disabled": 0, "rental_uris": {"ios": "https://dc.lft.to/lastmile_qr_scan", "android": "https://dc.lft.to/lastmile_qr_scan"}}, {"name": "d5b5bd9b5d32494896db137c8e7c8709", "lon": -77.00063383333334, "lat": 38.876705, "type": "electric_scooter", "fusion_lon": 0.0, "is_reserved": 0, "bike_id": "d5b5bd9b5d32494896db137c8e7c8709", "fusion_lat": 0.0, "is_disabled": 0, "rental_uris": {"ios": "https://dc.lft.to/lastmile_qr_scan", "android": "https://dc.lft.to/lastmile_qr_scan"}}, {"name": "c655f4a1b80afc1129d7c0d749ad9f02", "lon": -77.01510116666667, "lat": 38.91049833333334, "type": "electric_scooter", "fusion_lon": 0.0, "is_reserved": 0, "bike_id": "c655f4a1b80afc1129d7c0d749ad9f02", "fusion_lat": 0.0, "is_disabled": 0, "rental_uris": {"ios": "https://dc.lft.to/lastmile_qr_scan", "android": "https://dc.lft.to/lastmile_qr_scan"}}, {"name": "5ef599ea64df3fa704304b104562ea3b", "lon": -77.04135916666667, "lat": 38.9227945, "type": "electric_scooter", "fusion_lon": 0.0, "is_reserved": 0, "bike_id": "5ef599ea64df3fa704304b104562ea3b", "fusion_lat": 0.0, "is_disabled": 0, "rental_uris": {"ios": "https://dc.lft.to/lastmile_qr_scan", "android": "https://dc.lft.to/lastmile_qr_scan"}}, {"name": "441433090092b5329ed86818f167eb2a", "lon": -77.02615666666667, "lat": 38.90564666666667, "type": "electric_scooter", "fusion_lon": 0.0, "is_reserved": 0, "bike_id": "441433090092b5329ed86818f167eb2a", "fusion_lat": 0.0, "is_disabled": 0, "rental_uris": {"ios": "https://dc.lft.to/lastmile_qr_scan", "android": "https://dc.lft.to/lastmile_qr_scan"}}, {"name": "715fd1d4ddca218ef1ea9a686ac0156a", "lon": -77.03906633333334, "lat": 38.90783183333333, "type": "electric_scooter", "fusion_lon": 0.0, "is_reserved": 0, "bike_id": "715fd1d4ddca218ef1ea9a686ac0156a", "fusion_lat": 0.0, "is_disabled": 0, "rental_uris": {"ios": "https://dc.lft.to/lastmile_qr_scan", "android": "https://dc.lft.to/lastmile_qr_scan"}}, {"name": "3263d68a946463cddbff03822ad02ccb", "lon": -77.00885683333334, "lat": 38.90347833333333, "type": "electric_scooter", "fusion_lon": 0.0, "is_reserved": 0, "bike_id": "3263d68a946463cddbff03822ad02ccb", "fusion_lat": 0.0, "is_disabled": 0, "rental_uris": {"ios": "https://dc.lft.to/lastmile_qr_scan", "android": "https://dc.lft.to/lastmile_qr_scan"}}, {"name": "7ac9dedf18a10bd658a2faa3b34955c7", "lon": -77.032124, "lat": 38.90974083333333, "type": "electric_scooter", "fusion_lon": 0.0, "is_reserved": 0, "bike_id": "7ac9dedf18a10bd658a2faa3b34955c7", "fusion_lat": 0.0, "is_disabled": 0, "rental_uris": {"ios": "https://dc.lft.to/lastmile_qr_scan", "android": "https://dc.lft.to/lastmile_qr_scan"}}, {"name": "6777d86be06dd3b4ab6846bbca23eb68", "lon": -76.95977966666666, "lat": 38.870017833333335, "type": "electric_bike", "fusion_lon": 0.0, "is_reserved": 0, "bike_id": "6777d86be06dd3b4ab6846bbca23eb68", "fusion_lat": 0.0, "is_disabled": 0, "rental_uris": {"ios": "https://dc.lft.to/lastmile_qr_scan", "android": "https://dc.lft.to/lastmile_qr_scan"}}, {"name": "bc24e7217d60bcdad72493f222385f12", "lon": -76.99597816666666, "lat": 38.856892333333334, "type": "electric_scooter", "fusion_lon": 0.0, "is_reserved": 0, "bike_id": "bc24e7217d60bcdad72493f222385f12", "fusion_lat": 0.0, "is_disabled": 0, "rental_uris": {"ios": "https://dc.lft.to/lastmile_qr_scan", "android": "https://dc.lft.to/lastmile_qr_scan"}}, {"name": "01f12629362c31d85e7991060ac55f99", "lon": -77.031837, "lat": 38.91349866666667, "type": "electric_scooter", "fusion_lon": 0.0, "is_reserved": 0, "bike_id": "01f12629362c31d85e7991060ac55f99", "fusion_lat": 0.0, "is_disabled": 0, "rental_uris": {"ios": "https://dc.lft.to/lastmile_qr_scan", "android": "https://dc.lft.to/lastmile_qr_scan"}}, {"name": "f111346d7267a981f0adfdff52f73ff9", "lon": -77.0215945, "lat": 38.90165733333333, "type": "electric_scooter", "fusion_lon": 0.0, "is_reserved": 0, "bike_id": "f111346d7267a981f0adfdff52f73ff9", "fusion_lat": 0.0, "is_disabled": 0, "rental_uris": {"ios": "https://dc.lft.to/lastmile_qr_scan", "android": "https://dc.lft.to/lastmile_qr_scan"}}, {"name": "d1b7588e1a1e014cf780038ea0321a5d", "lon": -76.97660816666667, "lat": 38.898565833333336, "type": "electric_scooter", "fusion_lon": 0.0, "is_reserved": 0, "bike_id": "d1b7588e1a1e014cf780038ea0321a5d", "fusion_lat": 0.0, "is_disabled": 0, "rental_uris": {"ios": "https://dc.lft.to/lastmile_qr_scan", "android": "https://dc.lft.to/lastmile_qr_scan"}}, {"name": "2bcad48a14caa7da06001ead25820a6e", "lon": -77.03948866666667, "lat": 38.91552516666667, "type": "electric_scooter", "fusion_lon": 0.0, "is_reserved": 0, "bike_id": "2bcad48a14caa7da06001ead25820a6e", "fusion_lat": 0.0, "is_disabled": 0, "rental_uris": {"ios": "https://dc.lft.to/lastmile_qr_scan", "android": "https://dc.lft.to/lastmile_qr_scan"}}, {"name": "5d5894429d4e6b386652cf583447de20", "lon": -77.0267775, "lat": 38.927768666666665, "type": "electric_scooter", "fusion_lon": 0.0, "is_reserved": 0, "bike_id": "5d5894429d4e6b386652cf583447de20", "fusion_lat": 0.0, "is_disabled": 0, "rental_uris": {"ios": "https://dc.lft.to/lastmile_qr_scan", "android": "https://dc.lft.to/lastmile_qr_scan"}}, {"name": "2527e120c9ea760d7ea06ad35a3ff842", "lon": -77.03400533333334, "lat": 38.9231825, "type": "electric_scooter", "fusion_lon": 0.0, "is_reserved": 0, "bike_id": "2527e120c9ea760d7ea06ad35a3ff842", "fusion_lat": 0.0, "is_disabled": 0, "rental_uris": {"ios": "https://dc.lft.to/lastmile_qr_scan", "android": "https://dc.lft.to/lastmile_qr_scan"}}, {"name": "56b22e39f048888c19dbaa6997390da0", "lon": -77.02601, "lat": 38.9013295, "type": "electric_scooter", "fusion_lon": 0.0, "is_reserved": 0, "bike_id": "56b22e39f048888c19dbaa6997390da0", "fusion_lat": 0.0, "is_disabled": 0, "rental_uris": {"ios": "https://dc.lft.to/lastmile_qr_scan", "android": "https://dc.lft.to/lastmile_qr_scan"}}, {"name": "69a5a3766502358b1bc6a8b19d40cb83", "lon": -76.99384683333334, "lat": 38.89732, "type": "electric_scooter", "fusion_lon": 0.0, "is_reserved": 0, "bike_id": "69a5a3766502358b1bc6a8b19d40cb83", "fusion_lat": 0.0, "is_disabled": 0, "rental_uris": {"ios": "https://dc.lft.to/lastmile_qr_scan", "android": "https://dc.lft.to/lastmile_qr_scan"}}, {"name": "11ec4363925fb01b675aefa5b5f3a36b", "lon": -77.02960433333334, "lat": 38.923265, "type": "electric_scooter", "fusion_lon": 0.0, "is_reserved": 0, "bike_id": "11ec4363925fb01b675aefa5b5f3a36b", "fusion_lat": 0.0, "is_disabled": 0, "rental_uris": {"ios": "https://dc.lft.to/lastmile_qr_scan", "android": "https://dc.lft.to/lastmile_qr_scan"}}, {"name": "a9d4427459738ca5745f1fc53dc866ea", "lon": -76.99946433333334, "lat": 38.842971, "type": "electric_scooter", "fusion_lon": 0.0, "is_reserved": 0, "bike_id": "a9d4427459738ca5745f1fc53dc866ea", "fusion_lat": 0.0, "is_disabled": 0, "rental_uris": {"ios": "https://dc.lft.to/lastmile_qr_scan", "android": "https://dc.lft.to/lastmile_qr_scan"}}, {"name": "04e901d8a2c60737f46db454ee5cb70e", "lon": -77.10327666666667, "lat": 38.874226, "type": "electric_bike", "fusion_lon": 0.0, "is_reserved": 0, "bike_id": "04e901d8a2c60737f46db454ee5cb70e", "fusion_lat": 0.0, "is_disabled": 0, "rental_uris": {"ios": "https://dc.lft.to/lastmile_qr_scan", "android": "https://dc.lft.to/lastmile_qr_scan"}}, {"name": "b90fe66061ae3858530817ff59be8a4e", "lon": -76.9625995, "lat": 38.88246633333333, "type": "electric_bike", "fusion_lon": 0.0, "is_reserved": 0, "bike_id": "b90fe66061ae3858530817ff59be8a4e", "fusion_lat": 0.0, "is_disabled": 0, "rental_uris": {"ios": "https://dc.lft.to/lastmile_qr_scan", "android": "https://dc.lft.to/lastmile_qr_scan"}}, {"name": "c3b04ce20a15f62e53f63b8275d2c1aa", "lon": -77.01610066666667, "lat": 38.8950905, "type": "electric_scooter", "fusion_lon": 0.0, "is_reserved": 0, "bike_id": "c3b04ce20a15f62e53f63b8275d2c1aa", "fusion_lat": 0.0, "is_disabled": 0, "rental_uris": {"ios": "https://dc.lft.to/lastmile_qr_scan", "android": "https://dc.lft.to/lastmile_qr_scan"}}, {"name": "4a4221027310ce9d0b25827aebd4ec26", "lon": -77.0316975, "lat": 38.90831083333333, "type": "electric_scooter", "fusion_lon": 0.0, "is_reserved": 0, "bike_id": "4a4221027310ce9d0b25827aebd4ec26", "fusion_lat": 0.0, "is_disabled": 0, "rental_uris": {"ios": "https://dc.lft.to/lastmile_qr_scan", "android": "https://dc.lft.to/lastmile_qr_scan"}}, {"name": "74417115f40999da6abfdf557aa89f4c", "lon": -77.03467366666666, "lat": 38.917076333333334, "type": "electric_scooter", "fusion_lon": 0.0, "is_reserved": 0, "bike_id": "74417115f40999da6abfdf557aa89f4c", "fusion_lat": 0.0, "is_disabled": 0, "rental_uris": {"ios": "https://dc.lft.to/lastmile_qr_scan", "android": "https://dc.lft.to/lastmile_qr_scan"}}, {"name": "fbbbcdafeca81f86d146bc8c760419b5", "lon": -77.030726, "lat": 38.917513166666666, "type": "electric_scooter", "fusion_lon": 0.0, "is_reserved": 0, "bike_id": "fbbbcdafeca81f86d146bc8c760419b5", "fusion_lat": 0.0, "is_disabled": 0, "rental_uris": {"ios": "https://dc.lft.to/lastmile_qr_scan", "android": "https://dc.lft.to/lastmile_qr_scan"}}, {"name": "f50f30acffc2546a803fd08b65dfa65e", "lon": -77.04373233333334, "lat": 38.91785316666667, "type": "electric_scooter", "fusion_lon": 0.0, "is_reserved": 0, "bike_id": "f50f30acffc2546a803fd08b65dfa65e", "fusion_lat": 0.0, "is_disabled": 0, "rental_uris": {"ios": "https://dc.lft.to/lastmile_qr_scan", "android": "https://dc.lft.to/lastmile_qr_scan"}}, {"name": "d6bdfd4d845213e01be574b58f16a4a3", "lon": -77.04337616666666, "lat": 38.90790483333333, "type": "electric_scooter", "fusion_lon": 0.0, "is_reserved": 0, "bike_id": "d6bdfd4d845213e01be574b58f16a4a3", "fusion_lat": 0.0, "is_disabled": 0, "rental_uris": {"ios": "https://dc.lft.to/lastmile_qr_scan", "android": "https://dc.lft.to/lastmile_qr_scan"}}, {"name": "29f862829102cd2aa29226e9b5f8a058", "lon": -77.0396885, "lat": 38.902438333333336, "type": "electric_scooter", "fusion_lon": 0.0, "is_reserved": 0, "bike_id": "29f862829102cd2aa29226e9b5f8a058", "fusion_lat": 0.0, "is_disabled": 0, "rental_uris": {"ios": "https://dc.lft.to/lastmile_qr_scan", "android": "https://dc.lft.to/lastmile_qr_scan"}}, {"name": "f2f37fc4bd9bfb95d6236cf54ec2a0d4", "lon": -77.0271265, "lat": 38.906661, "type": "electric_scooter", "fusion_lon": 0.0, "is_reserved": 0, "bike_id": "f2f37fc4bd9bfb95d6236cf54ec2a0d4", "fusion_lat": 0.0, "is_disabled": 0, "rental_uris": {"ios": "https://dc.lft.to/lastmile_qr_scan", "android": "https://dc.lft.to/lastmile_qr_scan"}}, {"name": "36501c9dd64011e0758e2127e19e565a", "lon": -76.98713966666666, "lat": 38.866227, "type": "electric_scooter", "fusion_lon": 0.0, "is_reserved": 0, "bike_id": "36501c9dd64011e0758e2127e19e565a", "fusion_lat": 0.0, "is_disabled": 0, "rental_uris": {"ios": "https://dc.lft.to/lastmile_qr_scan", "android": "https://dc.lft.to/lastmile_qr_scan"}}, {"name": "9b637b3572db13c218175903ebff4488", "lon": -77.0219545, "lat": 38.911257, "type": "electric_scooter", "fusion_lon": 0.0, "is_reserved": 0, "bike_id": "9b637b3572db13c218175903ebff4488", "fusion_lat": 0.0, "is_disabled": 0, "rental_uris": {"ios": "https://dc.lft.to/lastmile_qr_scan", "android": "https://dc.lft.to/lastmile_qr_scan"}}, {"name": "6a97bba99edf1b01ee53087f11a52c41", "lon": -77.069292, "lat": 38.90771933333333, "type": "electric_scooter", "fusion_lon": 0.0, "is_reserved": 0, "bike_id": "6a97bba99edf1b01ee53087f11a52c41", "fusion_lat": 0.0, "is_disabled": 0, "rental_uris": {"ios": "https://dc.lft.to/lastmile_qr_scan", "android": "https://dc.lft.to/lastmile_qr_scan"}}, {"name": "904ab404a5755f38535e01fdc7689b6d", "lon": -77.03255816666666, "lat": 38.9285675, "type": "electric_scooter", "fusion_lon": 0.0, "is_reserved": 0, "bike_id": "904ab404a5755f38535e01fdc7689b6d", "fusion_lat": 0.0, "is_disabled": 0, "rental_uris": {"ios": "https://dc.lft.to/lastmile_qr_scan", "android": "https://dc.lft.to/lastmile_qr_scan"}}, {"name": "2f65064267bbebe5852d7bba780e091f", "lon": -77.0213525, "lat": 38.937635, "type": "electric_scooter", "fusion_lon": 0.0, "is_reserved": 0, "bike_id": "2f65064267bbebe5852d7bba780e091f", "fusion_lat": 0.0, "is_disabled": 0, "rental_uris": {"ios": "https://dc.lft.to/lastmile_qr_scan", "android": "https://dc.lft.to/lastmile_qr_scan"}}, {"name": "319ab7288fdf770c1b6c1998881bc3f6", "lon": -77.04649, "lat": 38.915946166666664, "type": "electric_scooter", "fusion_lon": 0.0, "is_reserved": 0, "bike_id": "319ab7288fdf770c1b6c1998881bc3f6", "fusion_lat": 0.0, "is_disabled": 0, "rental_uris": {"ios": "https://dc.lft.to/lastmile_qr_scan", "android": "https://dc.lft.to/lastmile_qr_scan"}}, {"name": "05e263d1cd207c5ba3d95c23aad06ed0", "lon": -77.02809816666667, "lat": 38.881780666666664, "type": "electric_scooter", "fusion_lon": 0.0, "is_reserved": 0, "bike_id": "05e263d1cd207c5ba3d95c23aad06ed0", "fusion_lat": 0.0, "is_disabled": 0, "rental_uris": {"ios": "https://dc.lft.to/lastmile_qr_scan", "android": "https://dc.lft.to/lastmile_qr_scan"}}, {"name": "38441dfbc91b8b3b6c653836639e52c2", "lon": -77.03095016666667, "lat": 38.931687, "type": "electric_scooter", "fusion_lon": 0.0, "is_reserved": 0, "bike_id": "38441dfbc91b8b3b6c653836639e52c2", "fusion_lat": 0.0, "is_disabled": 0, "rental_uris": {"ios": "https://dc.lft.to/lastmile_qr_scan", "android": "https://dc.lft.to/lastmile_qr_scan"}}, {"name": "d6680a13607b36a7398e646df13534a8", "lon": -77.04102033333334, "lat": 38.917708833333336, "type": "electric_scooter", "fusion_lon": 0.0, "is_reserved": 0, "bike_id": "d6680a13607b36a7398e646df13534a8", "fusion_lat": 0.0, "is_disabled": 0, "rental_uris": {"ios": "https://dc.lft.to/lastmile_qr_scan", "android": "https://dc.lft.to/lastmile_qr_scan"}}, {"name": "a7e6cd13b57502498e4481daccd0bc53", "lon": -77.017495, "lat": 38.887368, "type": "electric_scooter", "fusion_lon": 0.0, "is_reserved": 0, "bike_id": "a7e6cd13b57502498e4481daccd0bc53", "fusion_lat": 0.0, "is_disabled": 0, "rental_uris": {"ios": "https://dc.lft.to/lastmile_qr_scan", "android": "https://dc.lft.to/lastmile_qr_scan"}}, {"name": "44aae1e3f17a53d17e4b2b634842992f", "lon": -77.01229133333334, "lat": 38.86413233333333, "type": "electric_scooter", "fusion_lon": 0.0, "is_reserved": 0, "bike_id": "44aae1e3f17a53d17e4b2b634842992f", "fusion_lat": 0.0, "is_disabled": 0, "rental_uris": {"ios": "https://dc.lft.to/lastmile_qr_scan", "android": "https://dc.lft.to/lastmile_qr_scan"}}, {"name": "c6d60985f44a7e3da88d4a4b4eea214a", "lon": -77.043386, "lat": 38.90772333333334, "type": "electric_scooter", "fusion_lon": 0.0, "is_reserved": 0, "bike_id": "c6d60985f44a7e3da88d4a4b4eea214a", "fusion_lat": 0.0, "is_disabled": 0, "rental_uris": {"ios": "https://dc.lft.to/lastmile_qr_scan", "android": "https://dc.lft.to/lastmile_qr_scan"}}, {"name": "2d93aa97a8f5833e4ef88093c6b652b4", "lon": -77.00813083333334, "lat": 38.94803316666667, "type": "electric_bike", "fusion_lon": 0.0, "is_reserved": 0, "bike_id": "2d93aa97a8f5833e4ef88093c6b652b4", "fusion_lat": 0.0, "is_disabled": 0, "rental_uris": {"ios": "https://dc.lft.to/lastmile_qr_scan", "android": "https://dc.lft.to/lastmile_qr_scan"}}, {"name": "6f7c972d5186d529c551a11ee4421be4", "lon": -77.07810983333333, "lat": 38.924570333333335, "type": "electric_scooter", "fusion_lon": 0.0, "is_reserved": 0, "bike_id": "6f7c972d5186d529c551a11ee4421be4", "fusion_lat": 0.0, "is_disabled": 0, "rental_uris": {"ios": "https://dc.lft.to/lastmile_qr_scan", "android": "https://dc.lft.to/lastmile_qr_scan"}}, {"name": "a5b4be279b5be179eea8f1e6a4c691f9", "lon": -77.04118183333334, "lat": 38.90268433333333, "type": "electric_scooter", "fusion_lon": 0.0, "is_reserved": 0, "bike_id": "a5b4be279b5be179eea8f1e6a4c691f9", "fusion_lat": 0.0, "is_disabled": 0, "rental_uris": {"ios": "https://dc.lft.to/lastmile_qr_scan", "android": "https://dc.lft.to/lastmile_qr_scan"}}, {"name": "556d6d05b92bd6c9086682e15603ad87", "lon": -77.02815466666667, "lat": 38.96078116666666, "type": "electric_scooter", "fusion_lon": 0.0, "is_reserved": 0, "bike_id": "556d6d05b92bd6c9086682e15603ad87", "fusion_lat": 0.0, "is_disabled": 0, "rental_uris": {"ios": "https://dc.lft.to/lastmile_qr_scan", "android": "https://dc.lft.to/lastmile_qr_scan"}}, {"name": "562b9466c3c36eec79f3626859992cf3", "lon": -77.12957883333333, "lat": 38.85224566666667, "type": "electric_bike", "fusion_lon": 0.0, "is_reserved": 0, "bike_id": "562b9466c3c36eec79f3626859992cf3", "fusion_lat": 0.0, "is_disabled": 0, "rental_uris": {"ios": "https://dc.lft.to/lastmile_qr_scan", "android": "https://dc.lft.to/lastmile_qr_scan"}}, {"name": "4bcf5d34d79afafc99c65c4d3fdfac1d", "lon": -77.0376315, "lat": 38.92909083333333, "type": "electric_scooter", "fusion_lon": 0.0, "is_reserved": 0, "bike_id": "4bcf5d34d79afafc99c65c4d3fdfac1d", "fusion_lat": 0.0, "is_disabled": 0, "rental_uris": {"ios": "https://dc.lft.to/lastmile_qr_scan", "android": "https://dc.lft.to/lastmile_qr_scan"}}, {"name": "7ec6b3b4b52dfab7c007e0713fa3afa5", "lon": -77.02570433333334, "lat": 38.904237333333334, "type": "electric_scooter", "fusion_lon": 0.0, "is_reserved": 0, "bike_id": "7ec6b3b4b52dfab7c007e0713fa3afa5", "fusion_lat": 0.0, "is_disabled": 0, "rental_uris": {"ios": "https://dc.lft.to/lastmile_qr_scan", "android": "https://dc.lft.to/lastmile_qr_scan"}}, {"name": "f00f7d68095c7df921a4a5906987b32b", "lon": -77.08938816666667, "lat": 38.862658833333334, "type": "electric_bike", "fusion_lon": 0.0, "is_reserved": 0, "bike_id": "f00f7d68095c7df921a4a5906987b32b", "fusion_lat": 0.0, "is_disabled": 0, "rental_uris": {"ios": "https://dc.lft.to/lastmile_qr_scan", "android": "https://dc.lft.to/lastmile_qr_scan"}}, {"name": "d55b7eb0e096dfa786f391a0745a285b", "lon": -76.98355, "lat": 38.915428, "type": "electric_scooter", "fusion_lon": 0.0, "is_reserved": 0, "bike_id": "d55b7eb0e096dfa786f391a0745a285b", "fusion_lat": 0.0, "is_disabled": 0, "rental_uris": {"ios": "https://dc.lft.to/lastmile_qr_scan", "android": "https://dc.lft.to/lastmile_qr_scan"}}, {"name": "ec822c442fb192668c5176f8c6c1c964", "lon": -77.007371, "lat": 38.926689833333334, "type": "electric_scooter", "fusion_lon": 0.0, "is_reserved": 0, "bike_id": "ec822c442fb192668c5176f8c6c1c964", "fusion_lat": 0.0, "is_disabled": 0, "rental_uris": {"ios": "https://dc.lft.to/lastmile_qr_scan", "android": "https://dc.lft.to/lastmile_qr_scan"}}, {"name": "14654adb2d87fa154a99b0af4e2ed1d7", "lon": -77.01195433333334, "lat": 38.89537716666667, "type": "electric_scooter", "fusion_lon": 0.0, "is_reserved": 0, "bike_id": "14654adb2d87fa154a99b0af4e2ed1d7", "fusion_lat": 0.0, "is_disabled": 0, "rental_uris": {"ios": "https://dc.lft.to/lastmile_qr_scan", "android": "https://dc.lft.to/lastmile_qr_scan"}}, {"name": "231729fead2c73fc1508a53e780cd47b", "lon": -77.005896, "lat": 38.90572133333333, "type": "electric_scooter", "fusion_lon": 0.0, "is_reserved": 0, "bike_id": "231729fead2c73fc1508a53e780cd47b", "fusion_lat": 0.0, "is_disabled": 0, "rental_uris": {"ios": "https://dc.lft.to/lastmile_qr_scan", "android": "https://dc.lft.to/lastmile_qr_scan"}}, {"name": "3e32191bd0ac1553eb8655273f3ffddd", "lon": -76.99701433333334, "lat": 38.90835766666667, "type": "electric_scooter", "fusion_lon": 0.0, "is_reserved": 0, "bike_id": "3e32191bd0ac1553eb8655273f3ffddd", "fusion_lat": 0.0, "is_disabled": 0, "rental_uris": {"ios": "https://dc.lft.to/lastmile_qr_scan", "android": "https://dc.lft.to/lastmile_qr_scan"}}, {"name": "feffad489c8c1fa79fb4a8c5eb283991", "lon": -77.04399333333333, "lat": 38.920299, "type": "electric_scooter", "fusion_lon": 0.0, "is_reserved": 0, "bike_id": "feffad489c8c1fa79fb4a8c5eb283991", "fusion_lat": 0.0, "is_disabled": 0, "rental_uris": {"ios": "https://dc.lft.to/lastmile_qr_scan", "android": "https://dc.lft.to/lastmile_qr_scan"}}, {"name": "195787b5978ab5ffd6f512f95b264786", "lon": -77.053074, "lat": 38.89851433333333, "type": "electric_scooter", "fusion_lon": 0.0, "is_reserved": 0, "bike_id": "195787b5978ab5ffd6f512f95b264786", "fusion_lat": 0.0, "is_disabled": 0, "rental_uris": {"ios": "https://dc.lft.to/lastmile_qr_scan", "android": "https://dc.lft.to/lastmile_qr_scan"}}, {"name": "6b94892a5fd71adee063bacb322445a9", "lon": -76.96558133333333, "lat": 38.91855283333334, "type": "electric_scooter", "fusion_lon": 0.0, "is_reserved": 0, "bike_id": "6b94892a5fd71adee063bacb322445a9", "fusion_lat": 0.0, "is_disabled": 0, "rental_uris": {"ios": "https://dc.lft.to/lastmile_qr_scan", "android": "https://dc.lft.to/lastmile_qr_scan"}}, {"name": "118c96e64e7824778dabbcbf1377e324", "lon": -77.027921, "lat": 38.9308315, "type": "electric_scooter", "fusion_lon": 0.0, "is_reserved": 0, "bike_id": "118c96e64e7824778dabbcbf1377e324", "fusion_lat": 0.0, "is_disabled": 0, "rental_uris": {"ios": "https://dc.lft.to/lastmile_qr_scan", "android": "https://dc.lft.to/lastmile_qr_scan"}}, {"name": "e326ac0ab53a1ed5c41e2c56f9b8678a", "lon": -77.033102, "lat": 38.92646966666667, "type": "electric_bike", "fusion_lon": 0.0, "is_reserved": 0, "bike_id": "e326ac0ab53a1ed5c41e2c56f9b8678a", "fusion_lat": 0.0, "is_disabled": 0, "rental_uris": {"ios": "https://dc.lft.to/lastmile_qr_scan", "android": "https://dc.lft.to/lastmile_qr_scan"}}, {"name": "058a798476a57561ff1be88ba51738ce", "lon": -77.04321933333334, "lat": 38.89856483333333, "type": "electric_scooter", "fusion_lon": 0.0, "is_reserved": 0, "bike_id": "058a798476a57561ff1be88ba51738ce", "fusion_lat": 0.0, "is_disabled": 0, "rental_uris": {"ios": "https://dc.lft.to/lastmile_qr_scan", "android": "https://dc.lft.to/lastmile_qr_scan"}}, {"name": "9d19619de0c98338e797544f6f573abf", "lon": -76.996161, "lat": 38.901879666666666, "type": "electric_bike", "fusion_lon": 0.0, "is_reserved": 0, "bike_id": "9d19619de0c98338e797544f6f573abf", "fusion_lat": 0.0, "is_disabled": 0, "rental_uris": {"ios": "https://dc.lft.to/lastmile_qr_scan", "android": "https://dc.lft.to/lastmile_qr_scan"}}, {"name": "764b9a611004a44c2ea133dda0e5261d", "lon": -77.043316, "lat": 38.89854733333333, "type": "electric_scooter", "fusion_lon": 0.0, "is_reserved": 0, "bike_id": "764b9a611004a44c2ea133dda0e5261d", "fusion_lat": 0.0, "is_disabled": 0, "rental_uris": {"ios": "https://dc.lft.to/lastmile_qr_scan", "android": "https://dc.lft.to/lastmile_qr_scan"}}, {"name": "e41951bbe80fa3ab8a68d22c9c022287", "lon": -76.98714816666667, "lat": 38.86625216666667, "type": "electric_scooter", "fusion_lon": 0.0, "is_reserved": 0, "bike_id": "e41951bbe80fa3ab8a68d22c9c022287", "fusion_lat": 0.0, "is_disabled": 0, "rental_uris": {"ios": "https://dc.lft.to/lastmile_qr_scan", "android": "https://dc.lft.to/lastmile_qr_scan"}}, {"name": "46d8babc547f39d7fd6aa63c44d9bc39", "lon": -77.00760983333333, "lat": 38.826107666666665, "type": "electric_scooter", "fusion_lon": 0.0, "is_reserved": 0, "bike_id": "46d8babc547f39d7fd6aa63c44d9bc39", "fusion_lat": 0.0, "is_disabled": 0, "rental_uris": {"ios": "https://dc.lft.to/lastmile_qr_scan", "android": "https://dc.lft.to/lastmile_qr_scan"}}, {"name": "84f915aae08e0d721400dc0646324241", "lon": -77.12482283333334, "lat": 38.8539665, "type": "electric_bike", "fusion_lon": 0.0, "is_reserved": 0, "bike_id": "84f915aae08e0d721400dc0646324241", "fusion_lat": 0.0, "is_disabled": 0, "rental_uris": {"ios": "https://dc.lft.to/lastmile_qr_scan", "android": "https://dc.lft.to/lastmile_qr_scan"}}, {"name": "db82a9c369200216cea4b13d2d89b0eb", "lon": -77.02432966666667, "lat": 38.92723733333333, "type": "electric_scooter", "fusion_lon": 0.0, "is_reserved": 0, "bike_id": "db82a9c369200216cea4b13d2d89b0eb", "fusion_lat": 0.0, "is_disabled": 0, "rental_uris": {"ios": "https://dc.lft.to/lastmile_qr_scan", "android": "https://dc.lft.to/lastmile_qr_scan"}}, {"name": "ed791539489d7ea48157596bd2142290", "lon": -77.00573133333333, "lat": 38.88581683333334, "type": "electric_scooter", "fusion_lon": 0.0, "is_reserved": 0, "bike_id": "ed791539489d7ea48157596bd2142290", "fusion_lat": 0.0, "is_disabled": 0, "rental_uris": {"ios": "https://dc.lft.to/lastmile_qr_scan", "android": "https://dc.lft.to/lastmile_qr_scan"}}, {"name": "c7b9140c3432063ce6e218611343b430", "lon": -76.97535383333333, "lat": 38.84013616666667, "type": "electric_bike", "fusion_lon": 0.0, "is_reserved": 0, "bike_id": "c7b9140c3432063ce6e218611343b430", "fusion_lat": 0.0, "is_disabled": 0, "rental_uris": {"ios": "https://dc.lft.to/lastmile_qr_scan", "android": "https://dc.lft.to/lastmile_qr_scan"}}, {"name": "d787af60d184450af63c174976b25006", "lon": -77.07427583333333, "lat": 38.99946966666667, "type": "electric_bike", "fusion_lon": 0.0, "is_reserved": 0, "bike_id": "d787af60d184450af63c174976b25006", "fusion_lat": 0.0, "is_disabled": 0, "rental_uris": {"ios": "https://dc.lft.to/lastmile_qr_scan", "android": "https://dc.lft.to/lastmile_qr_scan"}}, {"name": "3ede91a802e2567b6391f4bdb7552943", "lon": -77.0383675, "lat": 38.91119033333333, "type": "electric_scooter", "fusion_lon": 0.0, "is_reserved": 0, "bike_id": "3ede91a802e2567b6391f4bdb7552943", "fusion_lat": 0.0, "is_disabled": 0, "rental_uris": {"ios": "https://dc.lft.to/lastmile_qr_scan", "android": "https://dc.lft.to/lastmile_qr_scan"}}, {"name": "2537f5789472046ad809d21646d7f5b1", "lon": -77.05202566666667, "lat": 38.924682833333335, "type": "electric_scooter", "fusion_lon": 0.0, "is_reserved": 0, "bike_id": "2537f5789472046ad809d21646d7f5b1", "fusion_lat": 0.0, "is_disabled": 0, "rental_uris": {"ios": "https://dc.lft.to/lastmile_qr_scan", "android": "https://dc.lft.to/lastmile_qr_scan"}}, {"name": "74a880d9222b5510dc07aecd6cc65181", "lon": -77.02681466666667, "lat": 38.91265683333334, "type": "electric_scooter", "fusion_lon": 0.0, "is_reserved": 0, "bike_id": "74a880d9222b5510dc07aecd6cc65181", "fusion_lat": 0.0, "is_disabled": 0, "rental_uris": {"ios": "https://dc.lft.to/lastmile_qr_scan", "android": "https://dc.lft.to/lastmile_qr_scan"}}, {"name": "e2aa16da7655b40b95d8f1c8471a7369", "lon": -77.02285516666667, "lat": 38.916904333333335, "type": "electric_scooter", "fusion_lon": 0.0, "is_reserved": 0, "bike_id": "e2aa16da7655b40b95d8f1c8471a7369", "fusion_lat": 0.0, "is_disabled": 0, "rental_uris": {"ios": "https://dc.lft.to/lastmile_qr_scan", "android": "https://dc.lft.to/lastmile_qr_scan"}}, {"name": "df78d74f9d6561ab2251df501b7d5dce", "lon": -77.01738083333333, "lat": 38.9026965, "type": "electric_scooter", "fusion_lon": 0.0, "is_reserved": 0, "bike_id": "df78d74f9d6561ab2251df501b7d5dce", "fusion_lat": 0.0, "is_disabled": 0, "rental_uris": {"ios": "https://dc.lft.to/lastmile_qr_scan", "android": "https://dc.lft.to/lastmile_qr_scan"}}, {"name": "9e098a8d6c247c7252e9cfe2e36e48b5", "lon": -77.03265466666667, "lat": 38.927446833333335, "type": "electric_scooter", "fusion_lon": 0.0, "is_reserved": 0, "bike_id": "9e098a8d6c247c7252e9cfe2e36e48b5", "fusion_lat": 0.0, "is_disabled": 0, "rental_uris": {"ios": "https://dc.lft.to/lastmile_qr_scan", "android": "https://dc.lft.to/lastmile_qr_scan"}}, {"name": "8587b4306e070437af31bbb75efec6e2", "lon": -77.02690933333334, "lat": 38.904075666666664, "type": "electric_scooter", "fusion_lon": 0.0, "is_reserved": 0, "bike_id": "8587b4306e070437af31bbb75efec6e2", "fusion_lat": 0.0, "is_disabled": 0, "rental_uris": {"ios": "https://dc.lft.to/lastmile_qr_scan", "android": "https://dc.lft.to/lastmile_qr_scan"}}, {"name": "e9789bd8f8a61abcedb3bf0a640ad37f", "lon": -77.027675, "lat": 38.95429933333333, "type": "electric_scooter", "fusion_lon": 0.0, "is_reserved": 0, "bike_id": "e9789bd8f8a61abcedb3bf0a640ad37f", "fusion_lat": 0.0, "is_disabled": 0, "rental_uris": {"ios": "https://dc.lft.to/lastmile_qr_scan", "android": "https://dc.lft.to/lastmile_qr_scan"}}, {"name": "2795ec882bf014affef633060067e085", "lon": -76.96524383333333, "lat": 38.876257833333334, "type": "electric_scooter", "fusion_lon": 0.0, "is_reserved": 0, "bike_id": "2795ec882bf014affef633060067e085", "fusion_lat": 0.0, "is_disabled": 0, "rental_uris": {"ios": "https://dc.lft.to/lastmile_qr_scan", "android": "https://dc.lft.to/lastmile_qr_scan"}}, {"name": "cb4f5481b189fc6282a248a40047a5a7", "lon": -77.03260983333334, "lat": 38.9352555, "type": "electric_scooter", "fusion_lon": 0.0, "is_reserved": 0, "bike_id": "cb4f5481b189fc6282a248a40047a5a7", "fusion_lat": 0.0, "is_disabled": 0, "rental_uris": {"ios": "https://dc.lft.to/lastmile_qr_scan", "android": "https://dc.lft.to/lastmile_qr_scan"}}, {"name": "4c7fa043d7cf4c614e2ea3073e9a3167", "lon": -76.93141216666666, "lat": 38.893392666666664, "type": "electric_scooter", "fusion_lon": 0.0, "is_reserved": 0, "bike_id": "4c7fa043d7cf4c614e2ea3073e9a3167", "fusion_lat": 0.0, "is_disabled": 0, "rental_uris": {"ios": "https://dc.lft.to/lastmile_qr_scan", "android": "https://dc.lft.to/lastmile_qr_scan"}}, {"name": "9e72ed4af062451c4b39f803bac6364c", "lon": -77.03438483333333, "lat": 38.91809216666667, "type": "electric_scooter", "fusion_lon": 0.0, "is_reserved": 0, "bike_id": "9e72ed4af062451c4b39f803bac6364c", "fusion_lat": 0.0, "is_disabled": 0, "rental_uris": {"ios": "https://dc.lft.to/lastmile_qr_scan", "android": "https://dc.lft.to/lastmile_qr_scan"}}, {"name": "c1a427b223e4e2902c7bbcdd161b1f76", "lon": -77.02822033333334, "lat": 38.8996445, "type": "electric_scooter", "fusion_lon": 0.0, "is_reserved": 0, "bike_id": "c1a427b223e4e2902c7bbcdd161b1f76", "fusion_lat": 0.0, "is_disabled": 0, "rental_uris": {"ios": "https://dc.lft.to/lastmile_qr_scan", "android": "https://dc.lft.to/lastmile_qr_scan"}}, {"name": "fcb8fe4cfe090b83a46b6402d4dfe462", "lon": -77.047933, "lat": 38.8936855, "type": "electric_scooter", "fusion_lon": 0.0, "is_reserved": 0, "bike_id": "fcb8fe4cfe090b83a46b6402d4dfe462", "fusion_lat": 0.0, "is_disabled": 0, "rental_uris": {"ios": "https://dc.lft.to/lastmile_qr_scan", "android": "https://dc.lft.to/lastmile_qr_scan"}}, {"name": "f2473d55b60f9b62e57e36570c9e550e", "lon": -77.07141333333334, "lat": 38.945540666666666, "type": "electric_scooter", "fusion_lon": 0.0, "is_reserved": 0, "bike_id": "f2473d55b60f9b62e57e36570c9e550e", "fusion_lat": 0.0, "is_disabled": 0, "rental_uris": {"ios": "https://dc.lft.to/lastmile_qr_scan", "android": "https://dc.lft.to/lastmile_qr_scan"}}, {"name": "ed6b8a48a31c75f2bfde27682b293451", "lon": -77.0217385, "lat": 38.9429365, "type": "electric_scooter", "fusion_lon": 0.0, "is_reserved": 0, "bike_id": "ed6b8a48a31c75f2bfde27682b293451", "fusion_lat": 0.0, "is_disabled": 0, "rental_uris": {"ios": "https://dc.lft.to/lastmile_qr_scan", "android": "https://dc.lft.to/lastmile_qr_scan"}}, {"name": "0cdae996cebd77139775d0e020cccb84", "lon": -77.01604916666666, "lat": 38.89963383333333, "type": "electric_scooter", "fusion_lon": 0.0, "is_reserved": 0, "bike_id": "0cdae996cebd77139775d0e020cccb84", "fusion_lat": 0.0, "is_disabled": 0, "rental_uris": {"ios": "https://dc.lft.to/lastmile_qr_scan", "android": "https://dc.lft.to/lastmile_qr_scan"}}, {"name": "a38373e2210efb44559478432cb7b89a", "lon": -77.0439555, "lat": 38.914207, "type": "electric_scooter", "fusion_lon": 0.0, "is_reserved": 0, "bike_id": "a38373e2210efb44559478432cb7b89a", "fusion_lat": 0.0, "is_disabled": 0, "rental_uris": {"ios": "https://dc.lft.to/lastmile_qr_scan", "android": "https://dc.lft.to/lastmile_qr_scan"}}, {"name": "34854bed53f2d644f620fc350a8d29aa", "lon": -76.97965666666667, "lat": 38.95374666666667, "type": "electric_bike", "fusion_lon": 0.0, "is_reserved": 0, "bike_id": "34854bed53f2d644f620fc350a8d29aa", "fusion_lat": 0.0, "is_disabled": 0, "rental_uris": {"ios": "https://dc.lft.to/lastmile_qr_scan", "android": "https://dc.lft.to/lastmile_qr_scan"}}, {"name": "161b5df10951ab739517f4ed2cd101cc", "lon": -77.077283, "lat": 38.922638166666665, "type": "electric_bike", "fusion_lon": 0.0, "is_reserved": 0, "bike_id": "161b5df10951ab739517f4ed2cd101cc", "fusion_lat": 0.0, "is_disabled": 0, "rental_uris": {"ios": "https://dc.lft.to/lastmile_qr_scan", "android": "https://dc.lft.to/lastmile_qr_scan"}}, {"name": "08c5f57a638d32f2d77955ca65052521", "lon": -77.02625216666667, "lat": 38.962226666666666, "type": "electric_bike", "fusion_lon": 0.0, "is_reserved": 0, "bike_id": "08c5f57a638d32f2d77955ca65052521", "fusion_lat": 0.0, "is_disabled": 0, "rental_uris": {"ios": "https://dc.lft.to/lastmile_qr_scan", "android": "https://dc.lft.to/lastmile_qr_scan"}}, {"name": "2ad80852fd788e86ea2d3e88902ef1de", "lon": -77.02180783333333, "lat": 38.898718, "type": "electric_scooter", "fusion_lon": 0.0, "is_reserved": 0, "bike_id": "2ad80852fd788e86ea2d3e88902ef1de", "fusion_lat": 0.0, "is_disabled": 0, "rental_uris": {"ios": "https://dc.lft.to/lastmile_qr_scan", "android": "https://dc.lft.to/lastmile_qr_scan"}}, {"name": "865d9977ac5fc9400b301d0a2a60c87f", "lon": -77.01128566666667, "lat": 38.917000333333334, "type": "electric_scooter", "fusion_lon": 0.0, "is_reserved": 0, "bike_id": "865d9977ac5fc9400b301d0a2a60c87f", "fusion_lat": 0.0, "is_disabled": 0, "rental_uris": {"ios": "https://dc.lft.to/lastmile_qr_scan", "android": "https://dc.lft.to/lastmile_qr_scan"}}, {"name": "abc6e41a9ddd1c702ba82d690a06e458", "lon": -77.0380925, "lat": 38.90674216666667, "type": "electric_scooter", "fusion_lon": 0.0, "is_reserved": 0, "bike_id": "abc6e41a9ddd1c702ba82d690a06e458", "fusion_lat": 0.0, "is_disabled": 0, "rental_uris": {"ios": "https://dc.lft.to/lastmile_qr_scan", "android": "https://dc.lft.to/lastmile_qr_scan"}}, {"name": "c301864c0d1bcd47dfc3a247bab51cea", "lon": -76.9463835, "lat": 38.89845566666666, "type": "electric_scooter", "fusion_lon": 0.0, "is_reserved": 0, "bike_id": "c301864c0d1bcd47dfc3a247bab51cea", "fusion_lat": 0.0, "is_disabled": 0, "rental_uris": {"ios": "https://dc.lft.to/lastmile_qr_scan", "android": "https://dc.lft.to/lastmile_qr_scan"}}, {"name": "a9759ff3db7bf78ae8d7530f32d79c90", "lon": -77.02154816666666, "lat": 38.926045333333334, "type": "electric_scooter", "fusion_lon": 0.0, "is_reserved": 0, "bike_id": "a9759ff3db7bf78ae8d7530f32d79c90", "fusion_lat": 0.0, "is_disabled": 0, "rental_uris": {"ios": "https://dc.lft.to/lastmile_qr_scan", "android": "https://dc.lft.to/lastmile_qr_scan"}}, {"name": "3f1af6f21262aea2eabe83d8dc88bffe", "lon": -77.01640183333333, "lat": 38.9036155, "type": "electric_scooter", "fusion_lon": 0.0, "is_reserved": 0, "bike_id": "3f1af6f21262aea2eabe83d8dc88bffe", "fusion_lat": 0.0, "is_disabled": 0, "rental_uris": {"ios": "https://dc.lft.to/lastmile_qr_scan", "android": "https://dc.lft.to/lastmile_qr_scan"}}, {"name": "8a6e142c0938bb97fe929024606de071", "lon": -77.04174716666667, "lat": 38.91552933333333, "type": "electric_scooter", "fusion_lon": 0.0, "is_reserved": 0, "bike_id": "8a6e142c0938bb97fe929024606de071", "fusion_lat": 0.0, "is_disabled": 0, "rental_uris": {"ios": "https://dc.lft.to/lastmile_qr_scan", "android": "https://dc.lft.to/lastmile_qr_scan"}}, {"name": "b98cc092d7f7b3880b3f538e0e6ae1ba", "lon": -76.97625616666667, "lat": 38.905721166666666, "type": "electric_scooter", "fusion_lon": 0.0, "is_reserved": 0, "bike_id": "b98cc092d7f7b3880b3f538e0e6ae1ba", "fusion_lat": 0.0, "is_disabled": 0, "rental_uris": {"ios": "https://dc.lft.to/lastmile_qr_scan", "android": "https://dc.lft.to/lastmile_qr_scan"}}, {"name": "b7eedefaefa38bac37a78a934f87f82b", "lon": -77.02682083333333, "lat": 38.92781216666667, "type": "electric_scooter", "fusion_lon": 0.0, "is_reserved": 0, "bike_id": "b7eedefaefa38bac37a78a934f87f82b", "fusion_lat": 0.0, "is_disabled": 0, "rental_uris": {"ios": "https://dc.lft.to/lastmile_qr_scan", "android": "https://dc.lft.to/lastmile_qr_scan"}}, {"name": "219685ba4cd236aff6b757b617ba691d", "lon": -77.00740066666667, "lat": 38.89837816666667, "type": "electric_scooter", "fusion_lon": 0.0, "is_reserved": 0, "bike_id": "219685ba4cd236aff6b757b617ba691d", "fusion_lat": 0.0, "is_disabled": 0, "rental_uris": {"ios": "https://dc.lft.to/lastmile_qr_scan", "android": "https://dc.lft.to/lastmile_qr_scan"}}, {"name": "097deeb9a11b4dade05551035d20d1ba", "lon": -77.03309016666667, "lat": 38.9561555, "type": "electric_scooter", "fusion_lon": 0.0, "is_reserved": 0, "bike_id": "097deeb9a11b4dade05551035d20d1ba", "fusion_lat": 0.0, "is_disabled": 0, "rental_uris": {"ios": "https://dc.lft.to/lastmile_qr_scan", "android": "https://dc.lft.to/lastmile_qr_scan"}}, {"name": "7d39bb7884cfce391051f4d8453e0bc8", "lon": -77.05685783333334, "lat": 38.9060055, "type": "electric_scooter", "fusion_lon": 0.0, "is_reserved": 0, "bike_id": "7d39bb7884cfce391051f4d8453e0bc8", "fusion_lat": 0.0, "is_disabled": 0, "rental_uris": {"ios": "https://dc.lft.to/lastmile_qr_scan", "android": "https://dc.lft.to/lastmile_qr_scan"}}, {"name": "f9bb8c7f5240a3cafc91507fe7cd8b1f", "lon": -76.98607883333334, "lat": 38.8652715, "type": "electric_scooter", "fusion_lon": 0.0, "is_reserved": 0, "bike_id": "f9bb8c7f5240a3cafc91507fe7cd8b1f", "fusion_lat": 0.0, "is_disabled": 0, "rental_uris": {"ios": "https://dc.lft.to/lastmile_qr_scan", "android": "https://dc.lft.to/lastmile_qr_scan"}}, {"name": "4d8477467fbf4b80c614a7a96a33be3c", "lon": -77.1252585, "lat": 39.05633983333333, "type": "electric_bike", "fusion_lon": 0.0, "is_reserved": 0, "bike_id": "4d8477467fbf4b80c614a7a96a33be3c", "fusion_lat": 0.0, "is_disabled": 0, "rental_uris": {"ios": "https://dc.lft.to/lastmile_qr_scan", "android": "https://dc.lft.to/lastmile_qr_scan"}}, {"name": "05aef8bbbd3236fa470c40310538caea", "lon": -77.03963616666667, "lat": 38.930664666666665, "type": "electric_scooter", "fusion_lon": 0.0, "is_reserved": 0, "bike_id": "05aef8bbbd3236fa470c40310538caea", "fusion_lat": 0.0, "is_disabled": 0, "rental_uris": {"ios": "https://dc.lft.to/lastmile_qr_scan", "android": "https://dc.lft.to/lastmile_qr_scan"}}, {"name": "374e789b623fe3c6549c31247890a190", "lon": -77.02356533333334, "lat": 38.9199445, "type": "electric_scooter", "fusion_lon": 0.0, "is_reserved": 0, "bike_id": "374e789b623fe3c6549c31247890a190", "fusion_lat": 0.0, "is_disabled": 0, "rental_uris": {"ios": "https://dc.lft.to/lastmile_qr_scan", "android": "https://dc.lft.to/lastmile_qr_scan"}}, {"name": "709edb28c2f8ddb5638a188a43a2ec60", "lon": -77.029815, "lat": 38.92199033333333, "type": "electric_scooter", "fusion_lon": 0.0, "is_reserved": 0, "bike_id": "709edb28c2f8ddb5638a188a43a2ec60", "fusion_lat": 0.0, "is_disabled": 0, "rental_uris": {"ios": "https://dc.lft.to/lastmile_qr_scan", "android": "https://dc.lft.to/lastmile_qr_scan"}}, {"name": "634024b1de9acd8692bededdd3490aa8", "lon": -76.99367016666666, "lat": 38.928401, "type": "electric_scooter", "fusion_lon": 0.0, "is_reserved": 0, "bike_id": "634024b1de9acd8692bededdd3490aa8", "fusion_lat": 0.0, "is_disabled": 0, "rental_uris": {"ios": "https://dc.lft.to/lastmile_qr_scan", "android": "https://dc.lft.to/lastmile_qr_scan"}}, {"name": "36b70ef369218321ead254049788d495", "lon": -77.03527066666666, "lat": 38.918174666666665, "type": "electric_scooter", "fusion_lon": 0.0, "is_reserved": 0, "bike_id": "36b70ef369218321ead254049788d495", "fusion_lat": 0.0, "is_disabled": 0, "rental_uris": {"ios": "https://dc.lft.to/lastmile_qr_scan", "android": "https://dc.lft.to/lastmile_qr_scan"}}, {"name": "a0f863b30edea6b9e62ef8169ad537c4", "lon": -77.03838566666667, "lat": 38.90717933333333, "type": "electric_scooter", "fusion_lon": 0.0, "is_reserved": 0, "bike_id": "a0f863b30edea6b9e62ef8169ad537c4", "fusion_lat": 0.0, "is_disabled": 0, "rental_uris": {"ios": "https://dc.lft.to/lastmile_qr_scan", "android": "https://dc.lft.to/lastmile_qr_scan"}}, {"name": "16f86aa1a254e25209fe7265adf18700", "lon": -77.03455233333334, "lat": 38.92143466666667, "type": "electric_scooter", "fusion_lon": 0.0, "is_reserved": 0, "bike_id": "16f86aa1a254e25209fe7265adf18700", "fusion_lat": 0.0, "is_disabled": 0, "rental_uris": {"ios": "https://dc.lft.to/lastmile_qr_scan", "android": "https://dc.lft.to/lastmile_qr_scan"}}, {"name": "88c9eae66daef23c53f86eca987dca6e", "lon": -77.04324616666666, "lat": 38.89224516666667, "type": "electric_scooter", "fusion_lon": 0.0, "is_reserved": 0, "bike_id": "88c9eae66daef23c53f86eca987dca6e", "fusion_lat": 0.0, "is_disabled": 0, "rental_uris": {"ios": "https://dc.lft.to/lastmile_qr_scan", "android": "https://dc.lft.to/lastmile_qr_scan"}}, {"name": "eb0e9ba35fb18f48b15ecd684b686531", "lon": -77.02976633333333, "lat": 38.937007, "type": "electric_bike", "fusion_lon": 0.0, "is_reserved": 0, "bike_id": "eb0e9ba35fb18f48b15ecd684b686531", "fusion_lat": 0.0, "is_disabled": 0, "rental_uris": {"ios": "https://dc.lft.to/lastmile_qr_scan", "android": "https://dc.lft.to/lastmile_qr_scan"}}, {"name": "10637a680aabed19ce28429ac38b3d90", "lon": -77.03451083333333, "lat": 38.908153666666664, "type": "electric_scooter", "fusion_lon": 0.0, "is_reserved": 0, "bike_id": "10637a680aabed19ce28429ac38b3d90", "fusion_lat": 0.0, "is_disabled": 0, "rental_uris": {"ios": "https://dc.lft.to/lastmile_qr_scan", "android": "https://dc.lft.to/lastmile_qr_scan"}}, {"name": "0c691e21df94856bc751da5f3ce44b42", "lon": -77.03321583333333, "lat": 38.92153233333333, "type": "electric_scooter", "fusion_lon": 0.0, "is_reserved": 0, "bike_id": "0c691e21df94856bc751da5f3ce44b42", "fusion_lat": 0.0, "is_disabled": 0, "rental_uris": {"ios": "https://dc.lft.to/lastmile_qr_scan", "android": "https://dc.lft.to/lastmile_qr_scan"}}, {"name": "6a0de91108e72350a3999badb2a9e8ce", "lon": -77.0227855, "lat": 38.909596666666665, "type": "electric_scooter", "fusion_lon": 0.0, "is_reserved": 0, "bike_id": "6a0de91108e72350a3999badb2a9e8ce", "fusion_lat": 0.0, "is_disabled": 0, "rental_uris": {"ios": "https://dc.lft.to/lastmile_qr_scan", "android": "https://dc.lft.to/lastmile_qr_scan"}}, {"name": "816f613d9130aa9ef023ec2d9e287f15", "lon": -76.98695716666667, "lat": 38.862454, "type": "electric_scooter", "fusion_lon": 0.0, "is_reserved": 0, "bike_id": "816f613d9130aa9ef023ec2d9e287f15", "fusion_lat": 0.0, "is_disabled": 0, "rental_uris": {"ios": "https://dc.lft.to/lastmile_qr_scan", "android": "https://dc.lft.to/lastmile_qr_scan"}}, {"name": "9bf77627b1e7e79d17045763a79b4c21", "lon": -77.00200933333333, "lat": 38.8953905, "type": "electric_scooter", "fusion_lon": 0.0, "is_reserved": 0, "bike_id": "9bf77627b1e7e79d17045763a79b4c21", "fusion_lat": 0.0, "is_disabled": 0, "rental_uris": {"ios": "https://dc.lft.to/lastmile_qr_scan", "android": "https://dc.lft.to/lastmile_qr_scan"}}, {"name": "9a54b7e06d691e1f30303007ab2888c0", "lon": -77.05861333333333, "lat": 38.936082166666665, "type": "electric_scooter", "fusion_lon": 0.0, "is_reserved": 0, "bike_id": "9a54b7e06d691e1f30303007ab2888c0", "fusion_lat": 0.0, "is_disabled": 0, "rental_uris": {"ios": "https://dc.lft.to/lastmile_qr_scan", "android": "https://dc.lft.to/lastmile_qr_scan"}}, {"name": "e95089063288359adcc897c14decd48b", "lon": -77.0270975, "lat": 38.91671216666667, "type": "electric_scooter", "fusion_lon": 0.0, "is_reserved": 0, "bike_id": "e95089063288359adcc897c14decd48b", "fusion_lat": 0.0, "is_disabled": 0, "rental_uris": {"ios": "https://dc.lft.to/lastmile_qr_scan", "android": "https://dc.lft.to/lastmile_qr_scan"}}, {"name": "dc5ae0ae0149b9071d78d78d67605dea", "lon": -77.04093616666667, "lat": 38.910636333333336, "type": "electric_scooter", "fusion_lon": 0.0, "is_reserved": 0, "bike_id": "dc5ae0ae0149b9071d78d78d67605dea", "fusion_lat": 0.0, "is_disabled": 0, "rental_uris": {"ios": "https://dc.lft.to/lastmile_qr_scan", "android": "https://dc.lft.to/lastmile_qr_scan"}}, {"name": "b392f5e4c8493eadf2a8427ac36cf32a", "lon": -77.01417433333333, "lat": 38.906477, "type": "electric_scooter", "fusion_lon": 0.0, "is_reserved": 0, "bike_id": "b392f5e4c8493eadf2a8427ac36cf32a", "fusion_lat": 0.0, "is_disabled": 0, "rental_uris": {"ios": "https://dc.lft.to/lastmile_qr_scan", "android": "https://dc.lft.to/lastmile_qr_scan"}}, {"name": "209c5412c8b9297db576053197b3642d", "lon": -77.0339865, "lat": 38.9286555, "type": "electric_scooter", "fusion_lon": 0.0, "is_reserved": 0, "bike_id": "209c5412c8b9297db576053197b3642d", "fusion_lat": 0.0, "is_disabled": 0, "rental_uris": {"ios": "https://dc.lft.to/lastmile_qr_scan", "android": "https://dc.lft.to/lastmile_qr_scan"}}, {"name": "939a76ad10f56265ce6949af7f148d8c", "lon": -76.99412033333333, "lat": 38.9210545, "type": "electric_scooter", "fusion_lon": 0.0, "is_reserved": 0, "bike_id": "939a76ad10f56265ce6949af7f148d8c", "fusion_lat": 0.0, "is_disabled": 0, "rental_uris": {"ios": "https://dc.lft.to/lastmile_qr_scan", "android": "https://dc.lft.to/lastmile_qr_scan"}}, {"name": "39d4fe8f5e6b022cfb1569e238f00340", "lon": -77.00240733333334, "lat": 38.95720883333333, "type": "electric_scooter", "fusion_lon": 0.0, "is_reserved": 0, "bike_id": "39d4fe8f5e6b022cfb1569e238f00340", "fusion_lat": 0.0, "is_disabled": 0, "rental_uris": {"ios": "https://dc.lft.to/lastmile_qr_scan", "android": "https://dc.lft.to/lastmile_qr_scan"}}, {"name": "f86a516e759e56b0cf161d13cde7652a", "lon": -77.0110135, "lat": 38.89509183333333, "type": "electric_scooter", "fusion_lon": 0.0, "is_reserved": 0, "bike_id": "f86a516e759e56b0cf161d13cde7652a", "fusion_lat": 0.0, "is_disabled": 0, "rental_uris": {"ios": "https://dc.lft.to/lastmile_qr_scan", "android": "https://dc.lft.to/lastmile_qr_scan"}}, {"name": "273fc6d15ec263001248491565ab43ab", "lon": -77.04003766666666, "lat": 38.912544, "type": "electric_scooter", "fusion_lon": 0.0, "is_reserved": 0, "bike_id": "273fc6d15ec263001248491565ab43ab", "fusion_lat": 0.0, "is_disabled": 0, "rental_uris": {"ios": "https://dc.lft.to/lastmile_qr_scan", "android": "https://dc.lft.to/lastmile_qr_scan"}}, {"name": "c2c92a8cfa5948a27af4b86f74c95c21", "lon": -77.03211333333333, "lat": 38.914299, "type": "electric_scooter", "fusion_lon": 0.0, "is_reserved": 0, "bike_id": "c2c92a8cfa5948a27af4b86f74c95c21", "fusion_lat": 0.0, "is_disabled": 0, "rental_uris": {"ios": "https://dc.lft.to/lastmile_qr_scan", "android": "https://dc.lft.to/lastmile_qr_scan"}}, {"name": "0c5cc81178b4a06c40919fd97cf913d5", "lon": -77.09521883333333, "lat": 38.83815, "type": "electric_bike", "fusion_lon": 0.0, "is_reserved": 0, "bike_id": "0c5cc81178b4a06c40919fd97cf913d5", "fusion_lat": 0.0, "is_disabled": 0, "rental_uris": {"ios": "https://dc.lft.to/lastmile_qr_scan", "android": "https://dc.lft.to/lastmile_qr_scan"}}, {"name": "0cd1883caf68030521b6fad3a88bf4b8", "lon": -77.03095666666667, "lat": 38.92858416666667, "type": "electric_scooter", "fusion_lon": 0.0, "is_reserved": 0, "bike_id": "0cd1883caf68030521b6fad3a88bf4b8", "fusion_lat": 0.0, "is_disabled": 0, "rental_uris": {"ios": "https://dc.lft.to/lastmile_qr_scan", "android": "https://dc.lft.to/lastmile_qr_scan"}}, {"name": "76423d245b6bd6add07d750bb88ff4e7", "lon": -77.03860366666666, "lat": 38.915547833333335, "type": "electric_scooter", "fusion_lon": 0.0, "is_reserved": 0, "bike_id": "76423d245b6bd6add07d750bb88ff4e7", "fusion_lat": 0.0, "is_disabled": 0, "rental_uris": {"ios": "https://dc.lft.to/lastmile_qr_scan", "android": "https://dc.lft.to/lastmile_qr_scan"}}, {"name": "ed4dc0a65fdc50923d2352efd826eb3f", "lon": -76.99623233333334, "lat": 38.900353, "type": "electric_scooter", "fusion_lon": 0.0, "is_reserved": 0, "bike_id": "ed4dc0a65fdc50923d2352efd826eb3f", "fusion_lat": 0.0, "is_disabled": 0, "rental_uris": {"ios": "https://dc.lft.to/lastmile_qr_scan", "android": "https://dc.lft.to/lastmile_qr_scan"}}, {"name": "a63bbafeefc768ab28c939cc27b968c2", "lon": -77.02489883333334, "lat": 38.906327166666664, "type": "electric_scooter", "fusion_lon": 0.0, "is_reserved": 0, "bike_id": "a63bbafeefc768ab28c939cc27b968c2", "fusion_lat": 0.0, "is_disabled": 0, "rental_uris": {"ios": "https://dc.lft.to/lastmile_qr_scan", "android": "https://dc.lft.to/lastmile_qr_scan"}}, {"name": "733d9633256ed0ee315a78f25cc99b89", "lon": -77.03210416666667, "lat": 38.8952805, "type": "electric_scooter", "fusion_lon": 0.0, "is_reserved": 0, "bike_id": "733d9633256ed0ee315a78f25cc99b89", "fusion_lat": 0.0, "is_disabled": 0, "rental_uris": {"ios": "https://dc.lft.to/lastmile_qr_scan", "android": "https://dc.lft.to/lastmile_qr_scan"}}, {"name": "e8e402b927159d437620a32e0ea0b1ca", "lon": -77.0482705, "lat": 38.911072833333336, "type": "electric_scooter", "fusion_lon": 0.0, "is_reserved": 0, "bike_id": "e8e402b927159d437620a32e0ea0b1ca", "fusion_lat": 0.0, "is_disabled": 0, "rental_uris": {"ios": "https://dc.lft.to/lastmile_qr_scan", "android": "https://dc.lft.to/lastmile_qr_scan"}}, {"name": "7677337158b6f6fb47493d72922dd613", "lon": -77.02182316666666, "lat": 38.924947, "type": "electric_scooter", "fusion_lon": 0.0, "is_reserved": 0, "bike_id": "7677337158b6f6fb47493d72922dd613", "fusion_lat": 0.0, "is_disabled": 0, "rental_uris": {"ios": "https://dc.lft.to/lastmile_qr_scan", "android": "https://dc.lft.to/lastmile_qr_scan"}}, {"name": "c13dfd0e9942f65e0dbafa042549c448", "lon": -77.001931, "lat": 38.9023735, "type": "electric_scooter", "fusion_lon": 0.0, "is_reserved": 0, "bike_id": "c13dfd0e9942f65e0dbafa042549c448", "fusion_lat": 0.0, "is_disabled": 0, "rental_uris": {"ios": "https://dc.lft.to/lastmile_qr_scan", "android": "https://dc.lft.to/lastmile_qr_scan"}}, {"name": "7fed3e51bc09184161a3b1d5f609436b", "lon": -77.04288666666666, "lat": 38.90542633333333, "type": "electric_scooter", "fusion_lon": 0.0, "is_reserved": 0, "bike_id": "7fed3e51bc09184161a3b1d5f609436b", "fusion_lat": 0.0, "is_disabled": 0, "rental_uris": {"ios": "https://dc.lft.to/lastmile_qr_scan", "android": "https://dc.lft.to/lastmile_qr_scan"}}, {"name": "a04905f53b31321988f7a1a4511066d3", "lon": -76.97557916666666, "lat": 38.9245585, "type": "electric_bike", "fusion_lon": 0.0, "is_reserved": 0, "bike_id": "a04905f53b31321988f7a1a4511066d3", "fusion_lat": 0.0, "is_disabled": 0, "rental_uris": {"ios": "https://dc.lft.to/lastmile_qr_scan", "android": "https://dc.lft.to/lastmile_qr_scan"}}, {"name": "bf8e12db2faf925258f610dbcdd9a638", "lon": -77.2280015, "lat": 38.9101375, "type": "electric_bike", "fusion_lon": 0.0, "is_reserved": 0, "bike_id": "bf8e12db2faf925258f610dbcdd9a638", "fusion_lat": 0.0, "is_disabled": 0, "rental_uris": {"ios": "https://dc.lft.to/lastmile_qr_scan", "android": "https://dc.lft.to/lastmile_qr_scan"}}, {"name": "852d60139545b00609c24aa9101aad18", "lon": -77.04561333333334, "lat": 38.924152666666664, "type": "electric_scooter", "fusion_lon": 0.0, "is_reserved": 0, "bike_id": "852d60139545b00609c24aa9101aad18", "fusion_lat": 0.0, "is_disabled": 0, "rental_uris": {"ios": "https://dc.lft.to/lastmile_qr_scan", "android": "https://dc.lft.to/lastmile_qr_scan"}}, {"name": "3309973ce5706ae31567d3ce13f33dea", "lon": -77.03861433333333, "lat": 38.90776433333333, "type": "electric_scooter", "fusion_lon": 0.0, "is_reserved": 0, "bike_id": "3309973ce5706ae31567d3ce13f33dea", "fusion_lat": 0.0, "is_disabled": 0, "rental_uris": {"ios": "https://dc.lft.to/lastmile_qr_scan", "android": "https://dc.lft.to/lastmile_qr_scan"}}, {"name": "128e961da7472d3d52c6b4ac4e6515ea", "lon": -76.98870716666667, "lat": 38.89033716666667, "type": "electric_scooter", "fusion_lon": 0.0, "is_reserved": 0, "bike_id": "128e961da7472d3d52c6b4ac4e6515ea", "fusion_lat": 0.0, "is_disabled": 0, "rental_uris": {"ios": "https://dc.lft.to/lastmile_qr_scan", "android": "https://dc.lft.to/lastmile_qr_scan"}}, {"name": "8132f0b6f3d0c165960973752b85d6b9", "lon": -77.02163883333333, "lat": 38.897284666666664, "type": "electric_scooter", "fusion_lon": 0.0, "is_reserved": 0, "bike_id": "8132f0b6f3d0c165960973752b85d6b9", "fusion_lat": 0.0, "is_disabled": 0, "rental_uris": {"ios": "https://dc.lft.to/lastmile_qr_scan", "android": "https://dc.lft.to/lastmile_qr_scan"}}, {"name": "3245f22bb7b9020128883ee63024868c", "lon": -77.10600133333334, "lat": 38.928980833333334, "type": "electric_bike", "fusion_lon": 0.0, "is_reserved": 0, "bike_id": "3245f22bb7b9020128883ee63024868c", "fusion_lat": 0.0, "is_disabled": 0, "rental_uris": {"ios": "https://dc.lft.to/lastmile_qr_scan", "android": "https://dc.lft.to/lastmile_qr_scan"}}, {"name": "c6a58d59242222302d25264933258447", "lon": -77.00768966666666, "lat": 38.9056935, "type": "electric_scooter", "fusion_lon": 0.0, "is_reserved": 0, "bike_id": "c6a58d59242222302d25264933258447", "fusion_lat": 0.0, "is_disabled": 0, "rental_uris": {"ios": "https://dc.lft.to/lastmile_qr_scan", "android": "https://dc.lft.to/lastmile_qr_scan"}}, {"name": "4b39ecccb3b95c14e9e6594c4e383fea", "lon": -77.036382, "lat": 38.9225105, "type": "electric_scooter", "fusion_lon": 0.0, "is_reserved": 0, "bike_id": "4b39ecccb3b95c14e9e6594c4e383fea", "fusion_lat": 0.0, "is_disabled": 0, "rental_uris": {"ios": "https://dc.lft.to/lastmile_qr_scan", "android": "https://dc.lft.to/lastmile_qr_scan"}}, {"name": "2aa0ecd9722587bde21dca1a954677e8", "lon": -77.03197533333334, "lat": 38.918031666666664, "type": "electric_scooter", "fusion_lon": 0.0, "is_reserved": 0, "bike_id": "2aa0ecd9722587bde21dca1a954677e8", "fusion_lat": 0.0, "is_disabled": 0, "rental_uris": {"ios": "https://dc.lft.to/lastmile_qr_scan", "android": "https://dc.lft.to/lastmile_qr_scan"}}, {"name": "3bbd50f99a061584d55dfb2a47f3dae8", "lon": -77.04150733333333, "lat": 38.919145666666665, "type": "electric_scooter", "fusion_lon": 0.0, "is_reserved": 0, "bike_id": "3bbd50f99a061584d55dfb2a47f3dae8", "fusion_lat": 0.0, "is_disabled": 0, "rental_uris": {"ios": "https://dc.lft.to/lastmile_qr_scan", "android": "https://dc.lft.to/lastmile_qr_scan"}}, {"name": "cbc41a949c393ac7cc25ab3db451ca2e", "lon": -76.99776866666667, "lat": 38.8442495, "type": "electric_scooter", "fusion_lon": 0.0, "is_reserved": 0, "bike_id": "cbc41a949c393ac7cc25ab3db451ca2e", "fusion_lat": 0.0, "is_disabled": 0, "rental_uris": {"ios": "https://dc.lft.to/lastmile_qr_scan", "android": "https://dc.lft.to/lastmile_qr_scan"}}, {"name": "d09ed9c6ebdf1ab989ed9a5563d18aad", "lon": -76.95753166666667, "lat": 38.88430016666667, "type": "electric_scooter", "fusion_lon": 0.0, "is_reserved": 0, "bike_id": "d09ed9c6ebdf1ab989ed9a5563d18aad", "fusion_lat": 0.0, "is_disabled": 0, "rental_uris": {"ios": "https://dc.lft.to/lastmile_qr_scan", "android": "https://dc.lft.to/lastmile_qr_scan"}}, {"name": "7485340439669e629a061a4b64110d83", "lon": -77.03126433333334, "lat": 38.915595, "type": "electric_scooter", "fusion_lon": 0.0, "is_reserved": 0, "bike_id": "7485340439669e629a061a4b64110d83", "fusion_lat": 0.0, "is_disabled": 0, "rental_uris": {"ios": "https://dc.lft.to/lastmile_qr_scan", "android": "https://dc.lft.to/lastmile_qr_scan"}}, {"name": "db736bf5c94cfbff3a207fb2faef248d", "lon": -77.029372, "lat": 38.929666166666664, "type": "electric_scooter", "fusion_lon": 0.0, "is_reserved": 0, "bike_id": "db736bf5c94cfbff3a207fb2faef248d", "fusion_lat": 0.0, "is_disabled": 0, "rental_uris": {"ios": "https://dc.lft.to/lastmile_qr_scan", "android": "https://dc.lft.to/lastmile_qr_scan"}}, {"name": "26ebdffa9294983e8cf0dc21e2ee6aef", "lon": -77.03280333333333, "lat": 38.932519, "type": "electric_scooter", "fusion_lon": 0.0, "is_reserved": 0, "bike_id": "26ebdffa9294983e8cf0dc21e2ee6aef", "fusion_lat": 0.0, "is_disabled": 0, "rental_uris": {"ios": "https://dc.lft.to/lastmile_qr_scan", "android": "https://dc.lft.to/lastmile_qr_scan"}}, {"name": "3119f97e9536fa6fac385f4797d7fda5", "lon": -77.02912, "lat": 38.933293, "type": "electric_scooter", "fusion_lon": 0.0, "is_reserved": 0, "bike_id": "3119f97e9536fa6fac385f4797d7fda5", "fusion_lat": 0.0, "is_disabled": 0, "rental_uris": {"ios": "https://dc.lft.to/lastmile_qr_scan", "android": "https://dc.lft.to/lastmile_qr_scan"}}, {"name": "8e2e41f8bb099c177fa28828af1655d1", "lon": -77.05109, "lat": 38.9018465, "type": "electric_scooter", "fusion_lon": 0.0, "is_reserved": 0, "bike_id": "8e2e41f8bb099c177fa28828af1655d1", "fusion_lat": 0.0, "is_disabled": 0, "rental_uris": {"ios": "https://dc.lft.to/lastmile_qr_scan", "android": "https://dc.lft.to/lastmile_qr_scan"}}, {"name": "274c7065d59997e214f9cccb5b378fd8", "lon": -77.02317283333333, "lat": 38.930602666666665, "type": "electric_scooter", "fusion_lon": 0.0, "is_reserved": 0, "bike_id": "274c7065d59997e214f9cccb5b378fd8", "fusion_lat": 0.0, "is_disabled": 0, "rental_uris": {"ios": "https://dc.lft.to/lastmile_qr_scan", "android": "https://dc.lft.to/lastmile_qr_scan"}}, {"name": "14ddcae0ddca27c66709befe038eaa88", "lon": -77.04860966666666, "lat": 38.91531583333333, "type": "electric_scooter", "fusion_lon": 0.0, "is_reserved": 0, "bike_id": "14ddcae0ddca27c66709befe038eaa88", "fusion_lat": 0.0, "is_disabled": 0, "rental_uris": {"ios": "https://dc.lft.to/lastmile_qr_scan", "android": "https://dc.lft.to/lastmile_qr_scan"}}, {"name": "026ff2a0b421a05a94ce296baf141816", "lon": -77.021649, "lat": 38.89731366666667, "type": "electric_scooter", "fusion_lon": 0.0, "is_reserved": 0, "bike_id": "026ff2a0b421a05a94ce296baf141816", "fusion_lat": 0.0, "is_disabled": 0, "rental_uris": {"ios": "https://dc.lft.to/lastmile_qr_scan", "android": "https://dc.lft.to/lastmile_qr_scan"}}, {"name": "1dab1fa32634d2157378e4a58750c132", "lon": -77.00368016666667, "lat": 38.882613, "type": "electric_scooter", "fusion_lon": 0.0, "is_reserved": 0, "bike_id": "1dab1fa32634d2157378e4a58750c132", "fusion_lat": 0.0, "is_disabled": 0, "rental_uris": {"ios": "https://dc.lft.to/lastmile_qr_scan", "android": "https://dc.lft.to/lastmile_qr_scan"}}, {"name": "d19106385a7c6a119901dd1d53e528ec", "lon": -77.04179166666667, "lat": 38.915555833333336, "type": "electric_scooter", "fusion_lon": 0.0, "is_reserved": 0, "bike_id": "d19106385a7c6a119901dd1d53e528ec", "fusion_lat": 0.0, "is_disabled": 0, "rental_uris": {"ios": "https://dc.lft.to/lastmile_qr_scan", "android": "https://dc.lft.to/lastmile_qr_scan"}}, {"name": "913fb298f5fd0c0a500e2c73bcc3c5f1", "lon": -77.03443316666667, "lat": 38.909798333333335, "type": "electric_scooter", "fusion_lon": 0.0, "is_reserved": 0, "bike_id": "913fb298f5fd0c0a500e2c73bcc3c5f1", "fusion_lat": 0.0, "is_disabled": 0, "rental_uris": {"ios": "https://dc.lft.to/lastmile_qr_scan", "android": "https://dc.lft.to/lastmile_qr_scan"}}, {"name": "a9406b0b9523f8543ffdef718c2eba4d", "lon": -76.986338, "lat": 38.88044883333333, "type": "electric_bike", "fusion_lon": 0.0, "is_reserved": 0, "bike_id": "a9406b0b9523f8543ffdef718c2eba4d", "fusion_lat": 0.0, "is_disabled": 0, "rental_uris": {"ios": "https://dc.lft.to/lastmile_qr_scan", "android": "https://dc.lft.to/lastmile_qr_scan"}}, {"name": "97953e182ff20dfa2b12edfbb73d812a", "lon": -77.06172383333333, "lat": 38.902624833333334, "type": "electric_scooter", "fusion_lon": 0.0, "is_reserved": 0, "bike_id": "97953e182ff20dfa2b12edfbb73d812a", "fusion_lat": 0.0, "is_disabled": 0, "rental_uris": {"ios": "https://dc.lft.to/lastmile_qr_scan", "android": "https://dc.lft.to/lastmile_qr_scan"}}, {"name": "6efa1ea8c603005b333893157a3669b9", "lon": -77.00598183333334, "lat": 38.9057465, "type": "electric_scooter", "fusion_lon": 0.0, "is_reserved": 0, "bike_id": "6efa1ea8c603005b333893157a3669b9", "fusion_lat": 0.0, "is_disabled": 0, "rental_uris": {"ios": "https://dc.lft.to/lastmile_qr_scan", "android": "https://dc.lft.to/lastmile_qr_scan"}}, {"name": "8570e777ee3fe3ef09141d3b82284d78", "lon": -77.02276866666666, "lat": 38.9183465, "type": "electric_scooter", "fusion_lon": 0.0, "is_reserved": 0, "bike_id": "8570e777ee3fe3ef09141d3b82284d78", "fusion_lat": 0.0, "is_disabled": 0, "rental_uris": {"ios": "https://dc.lft.to/lastmile_qr_scan", "android": "https://dc.lft.to/lastmile_qr_scan"}}, {"name": "05e0255e3af9b7a15c2555b7e3c3e3d9", "lon": -77.0431555, "lat": 38.907991833333334, "type": "electric_scooter", "fusion_lon": 0.0, "is_reserved": 0, "bike_id": "05e0255e3af9b7a15c2555b7e3c3e3d9", "fusion_lat": 0.0, "is_disabled": 0, "rental_uris": {"ios": "https://dc.lft.to/lastmile_qr_scan", "android": "https://dc.lft.to/lastmile_qr_scan"}}, {"name": "327ed4585cc37551c6987abee53393e2", "lon": -77.02729833333333, "lat": 38.931109, "type": "electric_bike", "fusion_lon": 0.0, "is_reserved": 0, "bike_id": "327ed4585cc37551c6987abee53393e2", "fusion_lat": 0.0, "is_disabled": 0, "rental_uris": {"ios": "https://dc.lft.to/lastmile_qr_scan", "android": "https://dc.lft.to/lastmile_qr_scan"}}, {"name": "8a83bbffb425cfcb172ed16e5c2341b0", "lon": -77.0632865, "lat": 38.94423033333333, "type": "electric_scooter", "fusion_lon": 0.0, "is_reserved": 0, "bike_id": "8a83bbffb425cfcb172ed16e5c2341b0", "fusion_lat": 0.0, "is_disabled": 0, "rental_uris": {"ios": "https://dc.lft.to/lastmile_qr_scan", "android": "https://dc.lft.to/lastmile_qr_scan"}}, {"name": "b8c2a76ddc66a393179bfa01420ea0ac", "lon": -77.04170733333333, "lat": 38.915491333333335, "type": "electric_scooter", "fusion_lon": 0.0, "is_reserved": 0, "bike_id": "b8c2a76ddc66a393179bfa01420ea0ac", "fusion_lat": 0.0, "is_disabled": 0, "rental_uris": {"ios": "https://dc.lft.to/lastmile_qr_scan", "android": "https://dc.lft.to/lastmile_qr_scan"}}, {"name": "fbfef6cf125c565aaedbd0ab78bf4420", "lon": -77.0020615, "lat": 38.81940766666666, "type": "electric_bike", "fusion_lon": 0.0, "is_reserved": 0, "bike_id": "fbfef6cf125c565aaedbd0ab78bf4420", "fusion_lat": 0.0, "is_disabled": 0, "rental_uris": {"ios": "https://dc.lft.to/lastmile_qr_scan", "android": "https://dc.lft.to/lastmile_qr_scan"}}, {"name": "56c86026f281d653a6b0b3e54f2feacb", "lon": -77.11709216666667, "lat": 38.867466666666665, "type": "electric_bike", "fusion_lon": 0.0, "is_reserved": 0, "bike_id": "56c86026f281d653a6b0b3e54f2feacb", "fusion_lat": 0.0, "is_disabled": 0, "rental_uris": {"ios": "https://dc.lft.to/lastmile_qr_scan", "android": "https://dc.lft.to/lastmile_qr_scan"}}, {"name": "27a0c9c341767b956ef3693d58c5cdd4", "lon": -76.99799016666667, "lat": 38.90851383333333, "type": "electric_scooter", "fusion_lon": 0.0, "is_reserved": 0, "bike_id": "27a0c9c341767b956ef3693d58c5cdd4", "fusion_lat": 0.0, "is_disabled": 0, "rental_uris": {"ios": "https://dc.lft.to/lastmile_qr_scan", "android": "https://dc.lft.to/lastmile_qr_scan"}}, {"name": "a844a8222cbdb28a3cb19825e55d0933", "lon": -77.0038, "lat": 38.83609716666667, "type": "electric_bike", "fusion_lon": 0.0, "is_reserved": 0, "bike_id": "a844a8222cbdb28a3cb19825e55d0933", "fusion_lat": 0.0, "is_disabled": 0, "rental_uris": {"ios": "https://dc.lft.to/lastmile_qr_scan", "android": "https://dc.lft.to/lastmile_qr_scan"}}, {"name": "dabd57f52d70ac8b3692c160cc1edce0", "lon": -77.01438333333333, "lat": 38.919635666666665, "type": "electric_scooter", "fusion_lon": 0.0, "is_reserved": 0, "bike_id": "dabd57f52d70ac8b3692c160cc1edce0", "fusion_lat": 0.0, "is_disabled": 0, "rental_uris": {"ios": "https://dc.lft.to/lastmile_qr_scan", "android": "https://dc.lft.to/lastmile_qr_scan"}}, {"name": "2e23078c7f94e7568ee80ea258642d7c", "lon": -77.04138483333334, "lat": 38.93066483333333, "type": "electric_scooter", "fusion_lon": 0.0, "is_reserved": 0, "bike_id": "2e23078c7f94e7568ee80ea258642d7c", "fusion_lat": 0.0, "is_disabled": 0, "rental_uris": {"ios": "https://dc.lft.to/lastmile_qr_scan", "android": "https://dc.lft.to/lastmile_qr_scan"}}, {"name": "6af563a6a7ebb5347493dcd5ef79c5c1", "lon": -77.03684616666666, "lat": 38.93649583333333, "type": "electric_scooter", "fusion_lon": 0.0, "is_reserved": 0, "bike_id": "6af563a6a7ebb5347493dcd5ef79c5c1", "fusion_lat": 0.0, "is_disabled": 0, "rental_uris": {"ios": "https://dc.lft.to/lastmile_qr_scan", "android": "https://dc.lft.to/lastmile_qr_scan"}}, {"name": "9123d9643abf89d2c4c6ae4df90ae076", "lon": -77.046298, "lat": 38.91931616666667, "type": "electric_scooter", "fusion_lon": 0.0, "is_reserved": 0, "bike_id": "9123d9643abf89d2c4c6ae4df90ae076", "fusion_lat": 0.0, "is_disabled": 0, "rental_uris": {"ios": "https://dc.lft.to/lastmile_qr_scan", "android": "https://dc.lft.to/lastmile_qr_scan"}}, {"name": "03e8016c8dddc6e50e47543dddf9d950", "lon": -76.98181683333334, "lat": 38.90197216666667, "type": "electric_scooter", "fusion_lon": 0.0, "is_reserved": 0, "bike_id": "03e8016c8dddc6e50e47543dddf9d950", "fusion_lat": 0.0, "is_disabled": 0, "rental_uris": {"ios": "https://dc.lft.to/lastmile_qr_scan", "android": "https://dc.lft.to/lastmile_qr_scan"}}, {"name": "92ca4a7178c675bb7658c5d906061cf4", "lon": -77.02324433333334, "lat": 38.90729666666667, "type": "electric_scooter", "fusion_lon": 0.0, "is_reserved": 0, "bike_id": "92ca4a7178c675bb7658c5d906061cf4", "fusion_lat": 0.0, "is_disabled": 0, "rental_uris": {"ios": "https://dc.lft.to/lastmile_qr_scan", "android": "https://dc.lft.to/lastmile_qr_scan"}}, {"name": "8bde103245afd1accb0fa6856c7e899a", "lon": -76.99597433333334, "lat": 38.886368, "type": "electric_scooter", "fusion_lon": 0.0, "is_reserved": 0, "bike_id": "8bde103245afd1accb0fa6856c7e899a", "fusion_lat": 0.0, "is_disabled": 0, "rental_uris": {"ios": "https://dc.lft.to/lastmile_qr_scan", "android": "https://dc.lft.to/lastmile_qr_scan"}}, {"name": "13693efa4d0a6064a8b7ddcf44e31dde", "lon": -77.0250685, "lat": 38.9309655, "type": "electric_scooter", "fusion_lon": 0.0, "is_reserved": 0, "bike_id": "13693efa4d0a6064a8b7ddcf44e31dde", "fusion_lat": 0.0, "is_disabled": 0, "rental_uris": {"ios": "https://dc.lft.to/lastmile_qr_scan", "android": "https://dc.lft.to/lastmile_qr_scan"}}, {"name": "2169c846d189485dfc9815b3e3796048", "lon": -77.02563733333334, "lat": 38.92473666666667, "type": "electric_scooter", "fusion_lon": 0.0, "is_reserved": 0, "bike_id": "2169c846d189485dfc9815b3e3796048", "fusion_lat": 0.0, "is_disabled": 0, "rental_uris": {"ios": "https://dc.lft.to/lastmile_qr_scan", "android": "https://dc.lft.to/lastmile_qr_scan"}}, {"name": "94a7252528b26c2d277fecf39642cbd9", "lon": -77.043187, "lat": 38.923240166666666, "type": "electric_scooter", "fusion_lon": 0.0, "is_reserved": 0, "bike_id": "94a7252528b26c2d277fecf39642cbd9", "fusion_lat": 0.0, "is_disabled": 0, "rental_uris": {"ios": "https://dc.lft.to/lastmile_qr_scan", "android": "https://dc.lft.to/lastmile_qr_scan"}}, {"name": "7494026174d044eaf5ff52f09ad61c28", "lon": -77.02554666666667, "lat": 38.9247565, "type": "electric_scooter", "fusion_lon": 0.0, "is_reserved": 0, "bike_id": "7494026174d044eaf5ff52f09ad61c28", "fusion_lat": 0.0, "is_disabled": 0, "rental_uris": {"ios": "https://dc.lft.to/lastmile_qr_scan", "android": "https://dc.lft.to/lastmile_qr_scan"}}, {"name": "83b28e005103401957e51890d9130077", "lon": -76.98299266666666, "lat": 38.905270333333334, "type": "electric_scooter", "fusion_lon": 0.0, "is_reserved": 0, "bike_id": "83b28e005103401957e51890d9130077", "fusion_lat": 0.0, "is_disabled": 0, "rental_uris": {"ios": "https://dc.lft.to/lastmile_qr_scan", "android": "https://dc.lft.to/lastmile_qr_scan"}}, {"name": "c16079a9a4d4fa532966f2c21d84db32", "lon": -77.02584233333333, "lat": 38.920308, "type": "electric_scooter", "fusion_lon": 0.0, "is_reserved": 0, "bike_id": "c16079a9a4d4fa532966f2c21d84db32", "fusion_lat": 0.0, "is_disabled": 0, "rental_uris": {"ios": "https://dc.lft.to/lastmile_qr_scan", "android": "https://dc.lft.to/lastmile_qr_scan"}}, {"name": "fab222b51e6aea85185077be8498981f", "lon": -77.03218416666667, "lat": 38.892237, "type": "electric_scooter", "fusion_lon": 0.0, "is_reserved": 0, "bike_id": "fab222b51e6aea85185077be8498981f", "fusion_lat": 0.0, "is_disabled": 0, "rental_uris": {"ios": "https://dc.lft.to/lastmile_qr_scan", "android": "https://dc.lft.to/lastmile_qr_scan"}}, {"name": "baf4e632f7c91a05b6cd3ce77c56fe3b", "lon": -77.02488783333334, "lat": 38.941829166666665, "type": "electric_scooter", "fusion_lon": 0.0, "is_reserved": 0, "bike_id": "baf4e632f7c91a05b6cd3ce77c56fe3b", "fusion_lat": 0.0, "is_disabled": 0, "rental_uris": {"ios": "https://dc.lft.to/lastmile_qr_scan", "android": "https://dc.lft.to/lastmile_qr_scan"}}, {"name": "9c3eb168f68eb1c119931e273df5b75e", "lon": -77.01400233333334, "lat": 38.881249833333335, "type": "electric_scooter", "fusion_lon": 0.0, "is_reserved": 0, "bike_id": "9c3eb168f68eb1c119931e273df5b75e", "fusion_lat": 0.0, "is_disabled": 0, "rental_uris": {"ios": "https://dc.lft.to/lastmile_qr_scan", "android": "https://dc.lft.to/lastmile_qr_scan"}}, {"name": "eba1d341ed83dbb42c96846023727102", "lon": -77.0383635, "lat": 38.911214666666666, "type": "electric_scooter", "fusion_lon": 0.0, "is_reserved": 0, "bike_id": "eba1d341ed83dbb42c96846023727102", "fusion_lat": 0.0, "is_disabled": 0, "rental_uris": {"ios": "https://dc.lft.to/lastmile_qr_scan", "android": "https://dc.lft.to/lastmile_qr_scan"}}, {"name": "ba636309d8bbec0f32f047228ac8cdae", "lon": -77.0220735, "lat": 38.899935, "type": "electric_scooter", "fusion_lon": 0.0, "is_reserved": 0, "bike_id": "ba636309d8bbec0f32f047228ac8cdae", "fusion_lat": 0.0, "is_disabled": 0, "rental_uris": {"ios": "https://dc.lft.to/lastmile_qr_scan", "android": "https://dc.lft.to/lastmile_qr_scan"}}, {"name": "20b77f11c81fa35a9495587de93184ab", "lon": -77.05218466666666, "lat": 38.92487083333333, "type": "electric_scooter", "fusion_lon": 0.0, "is_reserved": 0, "bike_id": "20b77f11c81fa35a9495587de93184ab", "fusion_lat": 0.0, "is_disabled": 0, "rental_uris": {"ios": "https://dc.lft.to/lastmile_qr_scan", "android": "https://dc.lft.to/lastmile_qr_scan"}}, {"name": "a2539a08aba0907bf297f273526e17f0", "lon": -77.0058705, "lat": 38.90634766666667, "type": "electric_scooter", "fusion_lon": 0.0, "is_reserved": 0, "bike_id": "a2539a08aba0907bf297f273526e17f0", "fusion_lat": 0.0, "is_disabled": 0, "rental_uris": {"ios": "https://dc.lft.to/lastmile_qr_scan", "android": "https://dc.lft.to/lastmile_qr_scan"}}, {"name": "b54894b3a09418e3e237b800af9bc39b", "lon": -77.00918466666667, "lat": 38.82787183333333, "type": "electric_scooter", "fusion_lon": 0.0, "is_reserved": 0, "bike_id": "b54894b3a09418e3e237b800af9bc39b", "fusion_lat": 0.0, "is_disabled": 0, "rental_uris": {"ios": "https://dc.lft.to/lastmile_qr_scan", "android": "https://dc.lft.to/lastmile_qr_scan"}}, {"name": "423e89dfd207fea0c721e0da0a419e4c", "lon": -77.03296516666667, "lat": 38.9262505, "type": "electric_bike", "fusion_lon": 0.0, "is_reserved": 0, "bike_id": "423e89dfd207fea0c721e0da0a419e4c", "fusion_lat": 0.0, "is_disabled": 0, "rental_uris": {"ios": "https://dc.lft.to/lastmile_qr_scan", "android": "https://dc.lft.to/lastmile_qr_scan"}}, {"name": "f14163f173c76fc9c4bff49f72cd1574", "lon": -76.99385333333333, "lat": 38.877612166666665, "type": "electric_scooter", "fusion_lon": 0.0, "is_reserved": 0, "bike_id": "f14163f173c76fc9c4bff49f72cd1574", "fusion_lat": 0.0, "is_disabled": 0, "rental_uris": {"ios": "https://dc.lft.to/lastmile_qr_scan", "android": "https://dc.lft.to/lastmile_qr_scan"}}, {"name": "1dbf2c9e156c982950a43108304fbca7", "lon": -77.03082566666667, "lat": 38.911097, "type": "electric_scooter", "fusion_lon": 0.0, "is_reserved": 0, "bike_id": "1dbf2c9e156c982950a43108304fbca7", "fusion_lat": 0.0, "is_disabled": 0, "rental_uris": {"ios": "https://dc.lft.to/lastmile_qr_scan", "android": "https://dc.lft.to/lastmile_qr_scan"}}, {"name": "69d5ec7926624dcf58424e6748463856", "lon": -77.05593766666667, "lat": 38.93595783333333, "type": "electric_scooter", "fusion_lon": 0.0, "is_reserved": 0, "bike_id": "69d5ec7926624dcf58424e6748463856", "fusion_lat": 0.0, "is_disabled": 0, "rental_uris": {"ios": "https://dc.lft.to/lastmile_qr_scan", "android": "https://dc.lft.to/lastmile_qr_scan"}}, {"name": "db249e07c58a87cdada4c954d6587179", "lon": -77.04485683333333, "lat": 38.92404233333333, "type": "electric_scooter", "fusion_lon": 0.0, "is_reserved": 0, "bike_id": "db249e07c58a87cdada4c954d6587179", "fusion_lat": 0.0, "is_disabled": 0, "rental_uris": {"ios": "https://dc.lft.to/lastmile_qr_scan", "android": "https://dc.lft.to/lastmile_qr_scan"}}, {"name": "6009bae3ecb6794171bc082b6141f22d", "lon": -77.00256833333333, "lat": 38.922413, "type": "electric_scooter", "fusion_lon": 0.0, "is_reserved": 0, "bike_id": "6009bae3ecb6794171bc082b6141f22d", "fusion_lat": 0.0, "is_disabled": 0, "rental_uris": {"ios": "https://dc.lft.to/lastmile_qr_scan", "android": "https://dc.lft.to/lastmile_qr_scan"}}, {"name": "c37b98156cf9a3d34f503c96a5a4d108", "lon": -77.02437383333333, "lat": 38.909634833333335, "type": "electric_scooter", "fusion_lon": 0.0, "is_reserved": 0, "bike_id": "c37b98156cf9a3d34f503c96a5a4d108", "fusion_lat": 0.0, "is_disabled": 0, "rental_uris": {"ios": "https://dc.lft.to/lastmile_qr_scan", "android": "https://dc.lft.to/lastmile_qr_scan"}}, {"name": "8a002d5f8e99530b7f19e3fd4eef3ff4", "lon": -77.00891366666667, "lat": 38.924869666666666, "type": "electric_scooter", "fusion_lon": 0.0, "is_reserved": 0, "bike_id": "8a002d5f8e99530b7f19e3fd4eef3ff4", "fusion_lat": 0.0, "is_disabled": 0, "rental_uris": {"ios": "https://dc.lft.to/lastmile_qr_scan", "android": "https://dc.lft.to/lastmile_qr_scan"}}, {"name": "60886670cffd88c366796e2c42dd8902", "lon": -77.07148583333333, "lat": 38.920383, "type": "electric_scooter", "fusion_lon": 0.0, "is_reserved": 0, "bike_id": "60886670cffd88c366796e2c42dd8902", "fusion_lat": 0.0, "is_disabled": 0, "rental_uris": {"ios": "https://dc.lft.to/lastmile_qr_scan", "android": "https://dc.lft.to/lastmile_qr_scan"}}, {"name": "9a3d28eed54caf638fe55b633534321d", "lon": -77.02769066666667, "lat": 38.9042645, "type": "electric_bike", "fusion_lon": 0.0, "is_reserved": 0, "bike_id": "9a3d28eed54caf638fe55b633534321d", "fusion_lat": 0.0, "is_disabled": 0, "rental_uris": {"ios": "https://dc.lft.to/lastmile_qr_scan", "android": "https://dc.lft.to/lastmile_qr_scan"}}, {"name": "c2966a6f2ef34634cca8a826ba729165", "lon": -77.04022666666667, "lat": 38.923537, "type": "electric_scooter", "fusion_lon": 0.0, "is_reserved": 0, "bike_id": "c2966a6f2ef34634cca8a826ba729165", "fusion_lat": 0.0, "is_disabled": 0, "rental_uris": {"ios": "https://dc.lft.to/lastmile_qr_scan", "android": "https://dc.lft.to/lastmile_qr_scan"}}, {"name": "122e15d645f2b5c8a597ff271c23261a", "lon": -77.03854683333333, "lat": 38.90365533333333, "type": "electric_scooter", "fusion_lon": 0.0, "is_reserved": 0, "bike_id": "122e15d645f2b5c8a597ff271c23261a", "fusion_lat": 0.0, "is_disabled": 0, "rental_uris": {"ios": "https://dc.lft.to/lastmile_qr_scan", "android": "https://dc.lft.to/lastmile_qr_scan"}}, {"name": "8ca5e86c0c8f58187c121e6e3da4f04c", "lon": -77.02399616666666, "lat": 38.9163095, "type": "electric_scooter", "fusion_lon": 0.0, "is_reserved": 0, "bike_id": "8ca5e86c0c8f58187c121e6e3da4f04c", "fusion_lat": 0.0, "is_disabled": 0, "rental_uris": {"ios": "https://dc.lft.to/lastmile_qr_scan", "android": "https://dc.lft.to/lastmile_qr_scan"}}, {"name": "80b34dab267b592d0340ae84fbceac1f", "lon": -76.99259533333333, "lat": 38.862489, "type": "electric_scooter", "fusion_lon": 0.0, "is_reserved": 0, "bike_id": "80b34dab267b592d0340ae84fbceac1f", "fusion_lat": 0.0, "is_disabled": 0, "rental_uris": {"ios": "https://dc.lft.to/lastmile_qr_scan", "android": "https://dc.lft.to/lastmile_qr_scan"}}, {"name": "af3eb722f7a9e67208948b8a8ef1dd2c", "lon": -77.01752716666667, "lat": 38.877195666666665, "type": "electric_scooter", "fusion_lon": 0.0, "is_reserved": 0, "bike_id": "af3eb722f7a9e67208948b8a8ef1dd2c", "fusion_lat": 0.0, "is_disabled": 0, "rental_uris": {"ios": "https://dc.lft.to/lastmile_qr_scan", "android": "https://dc.lft.to/lastmile_qr_scan"}}, {"name": "e08b3c5f5e2aad9295fef6fb5731a609", "lon": -77.03370083333333, "lat": 38.899168333333336, "type": "electric_scooter", "fusion_lon": 0.0, "is_reserved": 0, "bike_id": "e08b3c5f5e2aad9295fef6fb5731a609", "fusion_lat": 0.0, "is_disabled": 0, "rental_uris": {"ios": "https://dc.lft.to/lastmile_qr_scan", "android": "https://dc.lft.to/lastmile_qr_scan"}}, {"name": "cc37408692a560c3f0bce61a7e537eb1", "lon": -77.0463765, "lat": 38.91946133333333, "type": "electric_scooter", "fusion_lon": 0.0, "is_reserved": 0, "bike_id": "cc37408692a560c3f0bce61a7e537eb1", "fusion_lat": 0.0, "is_disabled": 0, "rental_uris": {"ios": "https://dc.lft.to/lastmile_qr_scan", "android": "https://dc.lft.to/lastmile_qr_scan"}}, {"name": "13caf4040ca658df96e6d3c2e6307680", "lon": -77.04508416666667, "lat": 38.9026395, "type": "electric_scooter", "fusion_lon": 0.0, "is_reserved": 0, "bike_id": "13caf4040ca658df96e6d3c2e6307680", "fusion_lat": 0.0, "is_disabled": 0, "rental_uris": {"ios": "https://dc.lft.to/lastmile_qr_scan", "android": "https://dc.lft.to/lastmile_qr_scan"}}, {"name": "961c26f838f4318cab0f131d35abba7e", "lon": -77.04481383333334, "lat": 38.92424033333333, "type": "electric_scooter", "fusion_lon": 0.0, "is_reserved": 0, "bike_id": "961c26f838f4318cab0f131d35abba7e", "fusion_lat": 0.0, "is_disabled": 0, "rental_uris": {"ios": "https://dc.lft.to/lastmile_qr_scan", "android": "https://dc.lft.to/lastmile_qr_scan"}}, {"name": "7a662dfbf668288682dc95934393eb74", "lon": -77.094507, "lat": 38.80753933333333, "type": "electric_bike", "fusion_lon": 0.0, "is_reserved": 0, "bike_id": "7a662dfbf668288682dc95934393eb74", "fusion_lat": 0.0, "is_disabled": 0, "rental_uris": {"ios": "https://dc.lft.to/lastmile_qr_scan", "android": "https://dc.lft.to/lastmile_qr_scan"}}, {"name": "2f7eb23669078972c8fdb899b6d6f63c", "lon": -77.06329583333333, "lat": 38.944249666666664, "type": "electric_scooter", "fusion_lon": 0.0, "is_reserved": 0, "bike_id": "2f7eb23669078972c8fdb899b6d6f63c", "fusion_lat": 0.0, "is_disabled": 0, "rental_uris": {"ios": "https://dc.lft.to/lastmile_qr_scan", "android": "https://dc.lft.to/lastmile_qr_scan"}},