{"data": {"bikes": [{"lon": -77.02360283333333, "bike_id": "2c83ea6b1d1e696693ff88e836ff1324", "lat": 38.8921745, "fusion_lon": 0.0, "fusion_lat": 0.0, "type": "electric_scooter", "name": "2c83ea6b1d1e696693ff88e836ff1324", "is_disabled": 0, "rental_uris": {"ios": "https://dc.lft.to/lastmile_qr_scan", "android": "https://dc.lft.to/lastmile_qr_scan"}, "is_reserved": 0}, {"lon": -77.0365655, "bike_id": "d3f2c5e1a53035ee9049154c60ec2824", "lat": 38.92282183333333, "fusion_lon": 0.0, "fusion_lat": 0.0, "type": "electric_scooter", "name": "d3f2c5e1a53035ee9049154c60ec2824", "is_disabled": 0, "rental_uris": {"ios": "https://dc.lft.to/lastmile_qr_scan", "android": "https://dc.lft.to/lastmile_qr_scan"}, "is_reserved": 0}, {"lon": -77.02381733333333, "bike_id": "341ce1b8405324ab240e1089a252b7bc", "lat": 38.916866, "fusion_lon": 0.0, "fusion_lat": 0.0, "type": "electric_scooter", "name": "341ce1b8405324ab240e1089a252b7bc", "is_disabled": 0, "rental_uris": {"ios": "https://dc.lft.to/lastmile_qr_scan", "android": "https://dc.lft.to/lastmile_qr_scan"}, "is_reserved": 0}, {"lon": -77.058597, "bike_id": "1ab162cc7db393757bd043fb6d36b9c7", "lat": 38.93602933333333, "fusion_lon": 0.0, "fusion_lat": 0.0, "type": "electric_scooter", "name": "1ab162cc7db393757bd043fb6d36b9c7", "is_disabled": 0, "rental_uris": {"ios": "https://dc.lft.to/lastmile_qr_scan", "android": "https://dc.lft.to/lastmile_qr_scan"}, "is_reserved": 0}, {"lon": -77.034036, "bike_id": "54d793e1143aab5cec05ee976d79697b", "lat": 38.923174833333334, "fusion_lon": 0.0, "fusion_lat": 0.0, "type": "electric_scooter", "name": "54d793e1143aab5cec05ee976d79697b", "is_disabled": 0, "rental_uris": {"ios": "https://dc.lft.to/lastmile_qr_scan", "android": "https://dc.lft.to/lastmile_qr_scan"}, "is_reserved": 0}, {"lon": -77.0243395, "bike_id": "00b6fbb257b850b41daed4691d12fde1", "lat": 38.9006285, "fusion_lon": 0.0, "fusion_lat": 0.0, "type": "electric_scooter", "name": "00b6fbb257b850b41daed4691d12fde1", "is_disabled": 0, "rental_uris": {"ios": "https://dc.lft.to/lastmile_qr_scan", "android": "https://dc.lft.to/lastmile_qr_scan"}, "is_reserved": 0}, {"lon": -77.04320166666666, "bike_id": "fda06168c1d9d69ee71b4b2a60ba6d1a", "lat": 38.9023715, "fusion_lon": 0.0, "fusion_lat": 0.0, "type": "electric_scooter", "name": "fda06168c1d9d69ee71b4b2a60ba6d1a", "is_disabled": 0, "rental_uris": {"ios": "https://dc.lft.to/lastmile_qr_scan", "android": "https://dc.lft.to/lastmile_qr_scan"}, "is_reserved": 0}, {"lon": -77.05259933333333, "bike_id": "f5ce7c2ff5808a4ed9e957faf13741c5", "lat": 38.927770833333334, "fusion_lon": 0.0, "fusion_lat": 0.0, "type": "electric_scooter", "name": "f5ce7c2ff5808a4ed9e957faf13741c5", "is_disabled": 0, "rental_uris": {"ios": "https://dc.lft.to/lastmile_qr_scan", "android": "https://dc.lft.to/lastmile_qr_scan"}, "is_reserved": 0}, {"lon": -77.02755383333333, "bike_id": "b3db180f4326e62fd92209ade42fc6f2", "lat": 38.9440705, "fusion_lon": 0.0, "fusion_lat": 0.0, "type": "electric_scooter", "name": "b3db180f4326e62fd92209ade42fc6f2", "is_disabled": 0, "rental_uris": {"ios": "https://dc.lft.to/lastmile_qr_scan", "android": "https://dc.lft.to/lastmile_qr_scan"}, "is_reserved": 0}, {"lon": -77.0183935, "bike_id": "648dd93104e3db1b12db09b2ef713f10", "lat": 38.91489033333333, "fusion_lon": 0.0, "fusion_lat": 0.0, "type": "electric_scooter", "name": "648dd93104e3db1b12db09b2ef713f10", "is_disabled": 0, "rental_uris": {"ios": "https://dc.lft.to/lastmile_qr_scan", "android": "https://dc.lft.to/lastmile_qr_scan"}, "is_reserved": 0}, {"lon": -77.04554766666666, "bike_id": "eae5004c77e0ace9a6b5e308008b8bfd", "lat": 38.915936, "fusion_lon": 0.0, "fusion_lat": 0.0, "type": "electric_scooter", "name": "eae5004c77e0ace9a6b5e308008b8bfd", "is_disabled": 0, "rental_uris": {"ios": "https://dc.lft.to/lastmile_qr_scan", "android": "https://dc.lft.to/lastmile_qr_scan"}, "is_reserved": 0}, {"lon": -77.03829883333333, "bike_id": "17c645be969ef14a5612d681ef8279a7", "lat": 38.9067835, "fusion_lon": 0.0, "fusion_lat": 0.0, "type": "electric_scooter", "name": "17c645be969ef14a5612d681ef8279a7", "is_disabled": 0, "rental_uris": {"ios": "https://dc.lft.to/lastmile_qr_scan", "android": "https://dc.lft.to/lastmile_qr_scan"}, "is_reserved": 0}, {"lon": -77.020572, "bike_id": "a97f0df6ca8b541298a4356a426ef410", "lat": 38.90968516666667, "fusion_lon": 0.0, "fusion_lat": 0.0, "type": "electric_scooter", "name": "a97f0df6ca8b541298a4356a426ef410", "is_disabled": 0, "rental_uris": {"ios": "https://dc.lft.to/lastmile_qr_scan", "android": "https://dc.lft.to/lastmile_qr_scan"}, "is_reserved": 0}, {"lon": -77.005084, "bike_id": "d0f198d788a675cfb86ed1f77a4c203f", "lat": 38.912543, "fusion_lon": 0.0, "fusion_lat": 0.0, "type": "electric_scooter", "name": "d0f198d788a675cfb86ed1f77a4c203f", "is_disabled": 0, "rental_uris": {"ios": "https://dc.lft.to/lastmile_qr_scan", "android": "https://dc.lft.to/lastmile_qr_scan"}, "is_reserved": 0}, {"lon": -77.04647716666666, "bike_id": "b06164eb641bc8618c1f83b07bb92c42", "lat": 38.9159795, "fusion_lon": 0.0, "fusion_lat": 0.0, "type": "electric_scooter", "name": "b06164eb641bc8618c1f83b07bb92c42", "is_disabled": 0, "rental_uris": {"ios": "https://dc.lft.to/lastmile_qr_scan", "android": "https://dc.lft.to/lastmile_qr_scan"}, "is_reserved": 0}, {"lon": -77.014593, "bike_id": "c3fb0c1e6300d577d869ded2f13c8672", "lat": 38.8793295, "fusion_lon": 0.0, "fusion_lat": 0.0, "type": "electric_scooter", "name": "c3fb0c1e6300d577d869ded2f13c8672", "is_disabled": 0, "rental_uris": {"ios": "https://dc.lft.to/lastmile_qr_scan", "android": "https://dc.lft.to/lastmile_qr_scan"}, "is_reserved": 0}, {"lon": -77.01999783333333, "bike_id": "3a5ca81365a1f07cf263335ed61f2b8a", "lat": 38.911586, "fusion_lon": 0.0, "fusion_lat": 0.0, "type": "electric_scooter", "name": "3a5ca81365a1f07cf263335ed61f2b8a", "is_disabled": 0, "rental_uris": {"ios": "https://dc.lft.to/lastmile_qr_scan", "android": "https://dc.lft.to/lastmile_qr_scan"}, "is_reserved": 0}, {"lon": -77.01783266666666, "bike_id": "6644cf1d9396f1842b24f1437f16c07e", "lat": 38.92046666666667, "fusion_lon": 0.0, "fusion_lat": 0.0, "type": "electric_scooter", "name": "6644cf1d9396f1842b24f1437f16c07e", "is_disabled": 0, "rental_uris": {"ios": "https://dc.lft.to/lastmile_qr_scan", "android": "https://dc.lft.to/lastmile_qr_scan"}, "is_reserved": 0}, {"lon": -77.00125416666667, "bike_id": "3eddeba1409118f8a7c925937b0a1123", "lat": 38.8782655, "fusion_lon": 0.0, "fusion_lat": 0.0, "type": "electric_scooter", "name": "3eddeba1409118f8a7c925937b0a1123", "is_disabled": 0, "rental_uris": {"ios": "https://dc.lft.to/lastmile_qr_scan", "android": "https://dc.lft.to/lastmile_qr_scan"}, "is_reserved": 0}, {"lon": -77.03192216666666, "bike_id": "87db5d97b20bc014af3842cbea4f9566", "lat": 38.9158105, "fusion_lon": 0.0, "fusion_lat": 0.0, "type": "electric_scooter", "name": "87db5d97b20bc014af3842cbea4f9566", "is_disabled": 0, "rental_uris": {"ios": "https://dc.lft.to/lastmile_qr_scan", "android": "https://dc.lft.to/lastmile_qr_scan"}, "is_reserved": 0}, {"lon": -77.0239865, "bike_id": "6e8da270468dfed14bb69687d74521cb", "lat": 38.916814333333335, "fusion_lon": 0.0, "fusion_lat": 0.0, "type": "electric_scooter", "name": "6e8da270468dfed14bb69687d74521cb", "is_disabled": 0, "rental_uris": {"ios": "https://dc.lft.to/lastmile_qr_scan", "android": "https://dc.lft.to/lastmile_qr_scan"}, "is_reserved": 0}, {"lon": -76.93278533333333, "bike_id": "30e404639825825b89c4f29ef79533aa", "lat": 38.95422816666667, "fusion_lon": 0.0, "fusion_lat": 0.0, "type": "electric_bike", "name": "30e404639825825b89c4f29ef79533aa", "is_disabled": 0, "rental_uris": {"ios": "https://dc.lft.to/lastmile_qr_scan", "android": "https://dc.lft.to/lastmile_qr_scan"}, "is_reserved": 0}, {"lon": -77.01752666666667, "bike_id": "352e9256241fd968b14086c05f680798", "lat": 38.876690833333335, "fusion_lon": 0.0, "fusion_lat": 0.0, "type": "electric_scooter", "name": "352e9256241fd968b14086c05f680798", "is_disabled": 0, "rental_uris": {"ios": "https://dc.lft.to/lastmile_qr_scan", "android": "https://dc.lft.to/lastmile_qr_scan"}, "is_reserved": 0}, {"lon": -77.0295565, "bike_id": "1371e254dc41a336e87d012305674bbf", "lat": 38.89644233333333, "fusion_lon": 0.0, "fusion_lat": 0.0, "type": "electric_scooter", "name": "1371e254dc41a336e87d012305674bbf", "is_disabled": 0, "rental_uris": {"ios": "https://dc.lft.to/lastmile_qr_scan", "android": "https://dc.lft.to/lastmile_qr_scan"}, "is_reserved": 0}, {"lon": -77.03197666666667, "bike_id": "76cc199648ca19f0cfedc970cdca62d3", "lat": 38.927839666666664, "fusion_lon": 0.0, "fusion_lat": 0.0, "type": "electric_scooter", "name": "76cc199648ca19f0cfedc970cdca62d3", "is_disabled": 0, "rental_uris": {"ios": "https://dc.lft.to/lastmile_qr_scan", "android": "https://dc.lft.to/lastmile_qr_scan"}, "is_reserved": 0}, {"lon": -77.0559815, "bike_id": "40f8ba25214442f8a0a7417f647f1b4e", "lat": 38.9369835, "fusion_lon": 0.0, "fusion_lat": 0.0, "type": "electric_scooter", "name": "40f8ba25214442f8a0a7417f647f1b4e", "is_disabled": 0, "rental_uris": {"ios": "https://dc.lft.to/lastmile_qr_scan", "android": "https://dc.lft.to/lastmile_qr_scan"}, "is_reserved": 0}, {"lon": -77.0363005, "bike_id": "3bfddee8f42da0479264acf9d41e5416", "lat": 38.915616, "fusion_lon": 0.0, "fusion_lat": 0.0, "type": "electric_scooter", "name": "3bfddee8f42da0479264acf9d41e5416", "is_disabled": 0, "rental_uris": {"ios": "https://dc.lft.to/lastmile_qr_scan", "android": "https://dc.lft.to/lastmile_qr_scan"}, "is_reserved": 0}, {"lon": -77.06115466666667, "bike_id": "cd706bf2ea7c58bef3a1c87f9255a919", "lat": 38.905306333333336, "fusion_lon": 0.0, "fusion_lat": 0.0, "type": "electric_scooter", "name": "cd706bf2ea7c58bef3a1c87f9255a919", "is_disabled": 0, "rental_uris": {"ios": "https://dc.lft.to/lastmile_qr_scan", "android": "https://dc.lft.to/lastmile_qr_scan"}, "is_reserved": 0}, {"lon": -76.94622666666666, "bike_id": "5a14b13ec62fd1ecc77e891ec3e6c5f9", "lat": 38.8323065, "fusion_lon": 0.0, "fusion_lat": 0.0, "type": "electric_bike", "name": "5a14b13ec62fd1ecc77e891ec3e6c5f9", "is_disabled": 0, "rental_uris": {"ios": "https://dc.lft.to/lastmile_qr_scan", "android": "https://dc.lft.to/lastmile_qr_scan"}, "is_reserved": 0}, {"lon": -77.0349965, "bike_id": "d843d885958e591967c0f1793f3ca4ef", "lat": 38.911843833333336, "fusion_lon": 0.0, "fusion_lat": 0.0, "type": "electric_scooter", "name": "d843d885958e591967c0f1793f3ca4ef", "is_disabled": 0, "rental_uris": {"ios": "https://dc.lft.to/lastmile_qr_scan", "android": "https://dc.lft.to/lastmile_qr_scan"}, "is_reserved": 0}, {"lon": -77.02560166666666, "bike_id": "2d5203f057302a5175153cd9a749284b", "lat": 38.938666833333336, "fusion_lon": 0.0, "fusion_lat": 0.0, "type": "electric_scooter", "name": "2d5203f057302a5175153cd9a749284b", "is_disabled": 0, "rental_uris": {"ios": "https://dc.lft.to/lastmile_qr_scan", "android": "https://dc.lft.to/lastmile_qr_scan"}, "is_reserved": 0}, {"lon": -76.957483, "bike_id": "503ad59317fc3cfaca0ad4ed1f6f305f", "lat": 38.88424966666667, "fusion_lon": 0.0, "fusion_lat": 0.0, "type": "electric_scooter", "name": "503ad59317fc3cfaca0ad4ed1f6f305f", "is_disabled": 0, "rental_uris": {"ios": "https://dc.lft.to/lastmile_qr_scan", "android": "https://dc.lft.to/lastmile_qr_scan"}, "is_reserved": 0}, {"lon": -77.03423983333333, "bike_id": "aa22bc53763e76ac06ea4b5fa150f387", "lat": 38.933540666666666, "fusion_lon": 0.0, "fusion_lat": 0.0, "type": "electric_scooter", "name": "aa22bc53763e76ac06ea4b5fa150f387", "is_disabled": 0, "rental_uris": {"ios": "https://dc.lft.to/lastmile_qr_scan", "android": "https://dc.lft.to/lastmile_qr_scan"}, "is_reserved": 0}, {"lon": -76.998928, "bike_id": "a170e6fd20cf9e892b5279589e449279", "lat": 38.9096025, "fusion_lon": 0.0, "fusion_lat": 0.0, "type": "electric_scooter", "name": "a170e6fd20cf9e892b5279589e449279", "is_disabled": 0, "rental_uris": {"ios": "https://dc.lft.to/lastmile_qr_scan", "android": "https://dc.lft.to/lastmile_qr_scan"}, "is_reserved": 0}, {"lon": -76.99882216666667, "bike_id": "b41c5e7b8380c3f6527d139aa9e055f9", "lat": 38.92053166666667, "fusion_lon": 0.0, "fusion_lat": 0.0, "type": "electric_scooter", "name": "b41c5e7b8380c3f6527d139aa9e055f9", "is_disabled": 0, "rental_uris": {"ios": "https://dc.lft.to/lastmile_qr_scan", "android": "https://dc.lft.to/lastmile_qr_scan"}, "is_reserved": 0}, {"lon": -77.03261016666667, "bike_id": "22844ef36d33e5960f70b7e9b75db429", "lat": 38.93890533333333, "fusion_lon": 0.0, "fusion_lat": 0.0, "type": "electric_scooter", "name": "22844ef36d33e5960f70b7e9b75db429", "is_disabled": 0, "rental_uris": {"ios": "https://dc.lft.to/lastmile_qr_scan", "android": "https://dc.lft.to/lastmile_qr_scan"}, "is_reserved": 0}, {"lon": -77.04151633333333, "bike_id": "9b5412bff7baa78b936206b2ec132fbe", "lat": 38.903417, "fusion_lon": 0.0, "fusion_lat": 0.0, "type": "electric_scooter", "name": "9b5412bff7baa78b936206b2ec132fbe", "is_disabled": 0, "rental_uris": {"ios": "https://dc.lft.to/lastmile_qr_scan", "android": "https://dc.lft.to/lastmile_qr_scan"}, "is_reserved": 0}, {"lon": -77.00647083333334, "bike_id": "3545ea77908bfbd077e60441b69f8f33", "lat": 38.838882, "fusion_lon": 0.0, "fusion_lat": 0.0, "type": "electric_scooter", "name": "3545ea77908bfbd077e60441b69f8f33", "is_disabled": 0, "rental_uris": {"ios": "https://dc.lft.to/lastmile_qr_scan", "android": "https://dc.lft.to/lastmile_qr_scan"}, "is_reserved": 0}, {"lon": -76.931752, "bike_id": "037d834779de73d34d012df01022e7dc", "lat": 38.898841166666664, "fusion_lon": 0.0, "fusion_lat": 0.0, "type": "electric_scooter", "name": "037d834779de73d34d012df01022e7dc", "is_disabled": 0, "rental_uris": {"ios": "https://dc.lft.to/lastmile_qr_scan", "android": "https://dc.lft.to/lastmile_qr_scan"}, "is_reserved": 0}, {"lon": -77.03290533333333, "bike_id": "e3c9b7c9d18a887cfffa06c37f8d94bd", "lat": 38.95647366666667, "fusion_lon": 0.0, "fusion_lat": 0.0, "type": "electric_scooter", "name": "e3c9b7c9d18a887cfffa06c37f8d94bd", "is_disabled": 0, "rental_uris": {"ios": "https://dc.lft.to/lastmile_qr_scan", "android": "https://dc.lft.to/lastmile_qr_scan"}, "is_reserved": 0}, {"lon": -76.87496833333333, "bike_id": "341b26f6d52f18ccfcb6219b1ad65c80", "lat": 38.99090366666667, "fusion_lon": 0.0, "fusion_lat": 0.0, "type": "electric_bike", "name": "341b26f6d52f18ccfcb6219b1ad65c80", "is_disabled": 0, "rental_uris": {"ios": "https://dc.lft.to/lastmile_qr_scan", "android": "https://dc.lft.to/lastmile_qr_scan"}, "is_reserved": 0}, {"lon": -77.0386245, "bike_id": "f304b78988e46c7de22afb83917a729f", "lat": 38.906617, "fusion_lon": 0.0, "fusion_lat": 0.0, "type": "electric_scooter", "name": "f304b78988e46c7de22afb83917a729f", "is_disabled": 0, "rental_uris": {"ios": "https://dc.lft.to/lastmile_qr_scan", "android": "https://dc.lft.to/lastmile_qr_scan"}, "is_reserved": 0}, {"lon": -76.9301195, "bike_id": "9e08927c4c65688cf8792ffaeebc59af", "lat": 38.896578833333336, "fusion_lon": 0.0, "fusion_lat": 0.0, "type": "electric_bike", "name": "9e08927c4c65688cf8792ffaeebc59af", "is_disabled": 0, "rental_uris": {"ios": "https://dc.lft.to/lastmile_qr_scan", "android": "https://dc.lft.to/lastmile_qr_scan"}, "is_reserved": 0}, {"lon": -77.02113533333333, "bike_id": "f1384ea90178ff33eec5af0a3e619cae", "lat": 38.9369545, "fusion_lon": 0.0, "fusion_lat": 0.0, "type": "electric_scooter", "name": "f1384ea90178ff33eec5af0a3e619cae", "is_disabled": 0, "rental_uris": {"ios": "https://dc.lft.to/lastmile_qr_scan", "android": "https://dc.lft.to/lastmile_qr_scan"}, "is_reserved": 0}, {"lon": -77.00917383333334, "bike_id": "f029403a1b2c3237d4207e70a0ef73c3", "lat": 38.82787666666667, "fusion_lon": 0.0, "fusion_lat": 0.0, "type": "electric_bike", "name": "f029403a1b2c3237d4207e70a0ef73c3", "is_disabled": 0, "rental_uris": {"ios": "https://dc.lft.to/lastmile_qr_scan", "android": "https://dc.lft.to/lastmile_qr_scan"}, "is_reserved": 0}, {"lon": -77.04687766666666, "bike_id": "2fcfb1c30be84c45c030a57b088e65b3", "lat": 38.892216833333336, "fusion_lon": 0.0, "fusion_lat": 0.0, "type": "electric_scooter", "name": "2fcfb1c30be84c45c030a57b088e65b3", "is_disabled": 0, "rental_uris": {"ios": "https://dc.lft.to/lastmile_qr_scan", "android": "https://dc.lft.to/lastmile_qr_scan"}, "is_reserved": 0}, {"lon": -77.046883, "bike_id": "b84cd1b3801fc564c1d4efff01201264", "lat": 38.8921975, "fusion_lon": 0.0, "fusion_lat": 0.0, "type": "electric_scooter", "name": "b84cd1b3801fc564c1d4efff01201264", "is_disabled": 0, "rental_uris": {"ios": "https://dc.lft.to/lastmile_qr_scan", "android": "https://dc.lft.to/lastmile_qr_scan"}, "is_reserved": 0}, {"lon": -77.02967383333333, "bike_id": "8f9a75a2c555a5e1b6aeec1793757648", "lat": 38.906559333333334, "fusion_lon": 0.0, "fusion_lat": 0.0, "type": "electric_scooter", "name": "8f9a75a2c555a5e1b6aeec1793757648", "is_disabled": 0, "rental_uris": {"ios": "https://dc.lft.to/lastmile_qr_scan", "android": "https://dc.lft.to/lastmile_qr_scan"}, "is_reserved": 0}, {"lon": -76.95891716666667, "bike_id": "619cfa937af63ce08007314cc489a092", "lat": 38.8900805, "fusion_lon": 0.0, "fusion_lat": 0.0, "type": "electric_scooter", "name": "619cfa937af63ce08007314cc489a092", "is_disabled": 0, "rental_uris": {"ios": "https://dc.lft.to/lastmile_qr_scan", "android": "https://dc.lft.to/lastmile_qr_scan"}, "is_reserved": 0}, {"lon": -77.02436833333333, "bike_id": "e012580f1771c0767cf6aa19c5c29350", "lat": 38.9040765, "fusion_lon": 0.0, "fusion_lat": 0.0, "type": "electric_scooter", "name": "e012580f1771c0767cf6aa19c5c29350", "is_disabled": 0, "rental_uris": {"ios": "https://dc.lft.to/lastmile_qr_scan", "android": "https://dc.lft.to/lastmile_qr_scan"}, "is_reserved": 0}, {"lon": -76.9636145, "bike_id": "741cbf84d6bfcfc22a41d62242c69e6e", "lat": 38.934966, "fusion_lon": 0.0, "fusion_lat": 0.0, "type": "electric_scooter", "name": "741cbf84d6bfcfc22a41d62242c69e6e", "is_disabled": 0, "rental_uris": {"ios": "https://dc.lft.to/lastmile_qr_scan", "android": "https://dc.lft.to/lastmile_qr_scan"}, "is_reserved": 0}, {"lon": -77.03845916666667, "bike_id": "1074f515c756d263e1055fee60acded5", "lat": 38.915451166666664, "fusion_lon": 0.0, "fusion_lat": 0.0, "type": "electric_scooter", "name": "1074f515c756d263e1055fee60acded5", "is_disabled": 0, "rental_uris": {"ios": "https://dc.lft.to/lastmile_qr_scan", "android": "https://dc.lft.to/lastmile_qr_scan"}, "is_reserved": 0}, {"lon": -77.038132, "bike_id": "da7e6874310cfe3ce04615d7656dea42", "lat": 38.93098033333333, "fusion_lon": 0.0, "fusion_lat": 0.0, "type": "electric_scooter", "name": "da7e6874310cfe3ce04615d7656dea42", "is_disabled": 0, "rental_uris": {"ios": "https://dc.lft.to/lastmile_qr_scan", "android": "https://dc.lft.to/lastmile_qr_scan"}, "is_reserved": 0}, {"lon": -77.03510866666667, "bike_id": "4b8b348218e0960fbd2c924f3d10e9d1", "lat": 38.921423833333336, "fusion_lon": 0.0, "fusion_lat": 0.0, "type": "electric_scooter", "name": "4b8b348218e0960fbd2c924f3d10e9d1", "is_disabled": 0, "rental_uris": {"ios": "https://dc.lft.to/lastmile_qr_scan", "android": "https://dc.lft.to/lastmile_qr_scan"}, "is_reserved": 0}, {"lon": -77.01764416666667, "bike_id": "df34ce5b676f1a7894bb7e88bb81aed4", "lat": 38.902607833333334, "fusion_lon": 0.0, "fusion_lat": 0.0, "type": "electric_scooter", "name": "df34ce5b676f1a7894bb7e88bb81aed4", "is_disabled": 0, "rental_uris": {"ios": "https://dc.lft.to/lastmile_qr_scan", "android": "https://dc.lft.to/lastmile_qr_scan"}, "is_reserved": 0}, {"lon": -77.03195633333333, "bike_id": "490bbf257c41de967fd040db9bbe5967", "lat": 38.930507666666664, "fusion_lon": 0.0, "fusion_lat": 0.0, "type": "electric_scooter", "name": "490bbf257c41de967fd040db9bbe5967", "is_disabled": 0, "rental_uris": {"ios": "https://dc.lft.to/lastmile_qr_scan", "android": "https://dc.lft.to/lastmile_qr_scan"}, "is_reserved": 0}, {"lon": -77.00362116666666, "bike_id": "c2cfee6314555d959eef39b56fea5577", "lat": 38.896586166666665, "fusion_lon": 0.0, "fusion_lat": 0.0, "type": "electric_scooter", "name": "c2cfee6314555d959eef39b56fea5577", "is_disabled": 0, "rental_uris": {"ios": "https://dc.lft.to/lastmile_qr_scan", "android": "https://dc.lft.to/lastmile_qr_scan"}, "is_reserved": 0}, {"lon": -77.02181516666667, "bike_id": "f22c21405dccd9122d3392480587337c", "lat": 38.91534516666667, "fusion_lon": 0.0, "fusion_lat": 0.0, "type": "electric_scooter", "name": "f22c21405dccd9122d3392480587337c", "is_disabled": 0, "rental_uris": {"ios": "https://dc.lft.to/lastmile_qr_scan", "android": "https://dc.lft.to/lastmile_qr_scan"}, "is_reserved": 0}, {"lon": -77.02729083333334, "bike_id": "afcd1b29fcc8bb7999168367a1c2e6ba", "lat": 38.932075833333336, "fusion_lon": 0.0, "fusion_lat": 0.0, "type": "electric_scooter", "name": "afcd1b29fcc8bb7999168367a1c2e6ba", "is_disabled": 0, "rental_uris": {"ios": "https://dc.lft.to/lastmile_qr_scan", "android": "https://dc.lft.to/lastmile_qr_scan"}, "is_reserved": 0}, {"lon": -77.03183766666666, "bike_id": "c56850400cb91b4c84953815e076e6f0", "lat": 38.8922325, "fusion_lon": 0.0, "fusion_lat": 0.0, "type": "electric_scooter", "name": "c56850400cb91b4c84953815e076e6f0", "is_disabled": 0, "rental_uris": {"ios": "https://dc.lft.to/lastmile_qr_scan", "android": "https://dc.lft.to/lastmile_qr_scan"}, "is_reserved": 0}, {"lon": -77.023719, "bike_id": "a93f58401b952e4e7f4ff91a7ad8e50b", "lat": 38.91781783333333, "fusion_lon": 0.0, "fusion_lat": 0.0, "type": "electric_scooter", "name": "a93f58401b952e4e7f4ff91a7ad8e50b", "is_disabled": 0, "rental_uris": {"ios": "https://dc.lft.to/lastmile_qr_scan", "android": "https://dc.lft.to/lastmile_qr_scan"}, "is_reserved": 0}, {"lon": -77.04347216666666, "bike_id": "c6fdaff048607b8c51bb93ebbcfdf65d", "lat": 38.92151833333333, "fusion_lon": 0.0, "fusion_lat": 0.0, "type": "electric_scooter", "name": "c6fdaff048607b8c51bb93ebbcfdf65d", "is_disabled": 0, "rental_uris": {"ios": "https://dc.lft.to/lastmile_qr_scan", "android": "https://dc.lft.to/lastmile_qr_scan"}, "is_reserved": 0}, {"lon": -77.035185, "bike_id": "01ca9305f3f1830148bc4d41766489bd", "lat": 38.9359705, "fusion_lon": 0.0, "fusion_lat": 0.0, "type": "electric_bike", "name": "01ca9305f3f1830148bc4d41766489bd", "is_disabled": 0, "rental_uris": {"ios": "https://dc.lft.to/lastmile_qr_scan", "android": "https://dc.lft.to/lastmile_qr_scan"}, "is_reserved": 0}, {"lon": -77.01964433333333, "bike_id": "9405679ce39383af03fb0fa72e1bb2f3", "lat": 38.883885, "fusion_lon": 0.0, "fusion_lat": 0.0, "type": "electric_scooter", "name": "9405679ce39383af03fb0fa72e1bb2f3", "is_disabled": 0, "rental_uris": {"ios": "https://dc.lft.to/lastmile_qr_scan", "android": "https://dc.lft.to/lastmile_qr_scan"}, "is_reserved": 0}, {"lon": -77.02155966666666, "bike_id": "29c235fb0382ede75c7f261e22e25437", "lat": 38.92687083333333, "fusion_lon": 0.0, "fusion_lat": 0.0, "type": "electric_scooter", "name": "29c235fb0382ede75c7f261e22e25437", "is_disabled": 0, "rental_uris": {"ios": "https://dc.lft.to/lastmile_qr_scan", "android": "https://dc.lft.to/lastmile_qr_scan"}, "is_reserved": 0}, {"lon": -77.03322433333334, "bike_id": "3ab2dae48a53bc5cc5fed59dc340283a", "lat": 38.90976633333333, "fusion_lon": 0.0, "fusion_lat": 0.0, "type": "electric_scooter", "name": "3ab2dae48a53bc5cc5fed59dc340283a", "is_disabled": 0, "rental_uris": {"ios": "https://dc.lft.to/lastmile_qr_scan", "android": "https://dc.lft.to/lastmile_qr_scan"}, "is_reserved": 0}, {"lon": -77.04131883333334, "bike_id": "4be783af33f2ff5d6ba333e22c81b71a", "lat": 38.923684, "fusion_lon": 0.0, "fusion_lat": 0.0, "type": "electric_scooter", "name": "4be783af33f2ff5d6ba333e22c81b71a", "is_disabled": 0, "rental_uris": {"ios": "https://dc.lft.to/lastmile_qr_scan", "android": "https://dc.lft.to/lastmile_qr_scan"}, "is_reserved": 0}, {"lon": -77.04334366666667, "bike_id": "29b494c1c3c8688752ba0c32c75af3f3", "lat": 38.90815466666667, "fusion_lon": 0.0, "fusion_lat": 0.0, "type": "electric_scooter", "name": "29b494c1c3c8688752ba0c32c75af3f3", "is_disabled": 0, "rental_uris": {"ios": "https://dc.lft.to/lastmile_qr_scan", "android": "https://dc.lft.to/lastmile_qr_scan"}, "is_reserved": 0}, {"lon": -77.04673866666667, "bike_id": "7884f8a31921a5da6a601ade718f1976", "lat": 38.905508, "fusion_lon": 0.0, "fusion_lat": 0.0, "type": "electric_scooter", "name": "7884f8a31921a5da6a601ade718f1976", "is_disabled": 0, "rental_uris": {"ios": "https://dc.lft.to/lastmile_qr_scan", "android": "https://dc.lft.to/lastmile_qr_scan"}, "is_reserved": 0}, {"lon": -77.05003266666667, "bike_id": "1254063aa97092ab8981766c0b5478e2", "lat": 38.891957, "fusion_lon": 0.0, "fusion_lat": 0.0, "type": "electric_scooter", "name": "1254063aa97092ab8981766c0b5478e2", "is_disabled": 0, "rental_uris": {"ios": "https://dc.lft.to/lastmile_qr_scan", "android": "https://dc.lft.to/lastmile_qr_scan"}, "is_reserved": 0}, {"lon": -77.01999816666667, "bike_id": "8c17838332f815eb0cc9d1a6ace263cf", "lat": 38.9026625, "fusion_lon": 0.0, "fusion_lat": 0.0, "type": "electric_scooter", "name": "8c17838332f815eb0cc9d1a6ace263cf", "is_disabled": 0, "rental_uris": {"ios": "https://dc.lft.to/lastmile_qr_scan", "android": "https://dc.lft.to/lastmile_qr_scan"}, "is_reserved": 0}, {"lon": -77.03344733333333, "bike_id": "e943aa6df624d0e36680ce6fc2854597", "lat": 38.901418166666666, "fusion_lon": 0.0, "fusion_lat": 0.0, "type": "electric_scooter", "name": "e943aa6df624d0e36680ce6fc2854597", "is_disabled": 0, "rental_uris": {"ios": "https://dc.lft.to/lastmile_qr_scan", "android": "https://dc.lft.to/lastmile_qr_scan"}, "is_reserved": 0}, {"lon": -77.02718283333333, "bike_id": "de15743b3ffa6a6287d72b32e156d441", "lat": 38.897784333333334, "fusion_lon": 0.0, "fusion_lat": 0.0, "type": "electric_scooter", "name": "de15743b3ffa6a6287d72b32e156d441", "is_disabled": 0, "rental_uris": {"ios": "https://dc.lft.to/lastmile_qr_scan", "android": "https://dc.lft.to/lastmile_qr_scan"}, "is_reserved": 0}, {"lon": -77.0426595, "bike_id": "715e52134522a908242e94024849640d", "lat": 38.92235733333333, "fusion_lon": 0.0, "fusion_lat": 0.0, "type": "electric_scooter", "name": "715e52134522a908242e94024849640d", "is_disabled": 0, "rental_uris": {"ios": "https://dc.lft.to/lastmile_qr_scan", "android": "https://dc.lft.to/lastmile_qr_scan"}, "is_reserved": 0}, {"lon": -77.02189866666667, "bike_id": "31c7a0f2a5e37b41b275c623af695e9b", "lat": 38.93304666666667, "fusion_lon": 0.0, "fusion_lat": 0.0, "type": "electric_scooter", "name": "31c7a0f2a5e37b41b275c623af695e9b", "is_disabled": 0, "rental_uris": {"ios": "https://dc.lft.to/lastmile_qr_scan", "android": "https://dc.lft.to/lastmile_qr_scan"}, "is_reserved": 0}, {"lon": -76.933572, "bike_id": "0033f13cbe437b37242366dddab17c61", "lat": 38.88799133333333, "fusion_lon": 0.0, "fusion_lat": 0.0, "type": "electric_scooter", "name": "0033f13cbe437b37242366dddab17c61", "is_disabled": 0, "rental_uris": {"ios": "https://dc.lft.to/lastmile_qr_scan", "android": "https://dc.lft.to/lastmile_qr_scan"}, "is_reserved": 0}, {"lon": -76.93178633333333, "bike_id": "36919e25d4f120b53281c72116ad84e6", "lat": 38.9037185, "fusion_lon": 0.0, "fusion_lat": 0.0, "type": "electric_scooter", "name": "36919e25d4f120b53281c72116ad84e6", "is_disabled": 0, "rental_uris": {"ios": "https://dc.lft.to/lastmile_qr_scan", "android": "https://dc.lft.to/lastmile_qr_scan"}, "is_reserved": 0}, {"lon": -77.02976433333333, "bike_id": "471d19a0cfe11bfcb9186237b3f27289", "lat": 38.916752833333334, "fusion_lon": 0.0, "fusion_lat": 0.0, "type": "electric_scooter", "name": "471d19a0cfe11bfcb9186237b3f27289", "is_disabled": 0, "rental_uris": {"ios": "https://dc.lft.to/lastmile_qr_scan", "android": "https://dc.lft.to/lastmile_qr_scan"}, "is_reserved": 0}, {"lon": -77.02968166666666, "bike_id": "8b033308fbb45ecfe908ac3ddc362f0b", "lat": 38.916785833333336, "fusion_lon": 0.0, "fusion_lat": 0.0, "type": "electric_scooter", "name": "8b033308fbb45ecfe908ac3ddc362f0b", "is_disabled": 0, "rental_uris": {"ios": "https://dc.lft.to/lastmile_qr_scan", "android": "https://dc.lft.to/lastmile_qr_scan"}, "is_reserved": 0}, {"lon": -77.025918, "bike_id": "4e21035695b3659533d8d86446e6a9ea", "lat": 38.941992166666665, "fusion_lon": 0.0, "fusion_lat": 0.0, "type": "electric_scooter", "name": "4e21035695b3659533d8d86446e6a9ea", "is_disabled": 0, "rental_uris": {"ios": "https://dc.lft.to/lastmile_qr_scan", "android": "https://dc.lft.to/lastmile_qr_scan"}, "is_reserved": 0}, {"lon": -77.03338316666667, "bike_id": "37d248408853231764c42bf0ce61c4c9", "lat": 38.961331333333334, "fusion_lon": 0.0, "fusion_lat": 0.0, "type": "electric_bike", "name": "37d248408853231764c42bf0ce61c4c9", "is_disabled": 0, "rental_uris": {"ios": "https://dc.lft.to/lastmile_qr_scan", "android": "https://dc.lft.to/lastmile_qr_scan"}, "is_reserved": 0}, {"lon": -77.03402366666667, "bike_id": "0dc1999d0aa348ae6871621161b44374", "lat": 38.922771166666664, "fusion_lon": 0.0, "fusion_lat": 0.0, "type": "electric_scooter", "name": "0dc1999d0aa348ae6871621161b44374", "is_disabled": 0, "rental_uris": {"ios": "https://dc.lft.to/lastmile_qr_scan", "android": "https://dc.lft.to/lastmile_qr_scan"}, "is_reserved": 0}, {"lon": -77.03386516666667, "bike_id": "1767856e4455c9462c69958a32992ee8", "lat": 38.902714, "fusion_lon": 0.0, "fusion_lat": 0.0, "type": "electric_scooter", "name": "1767856e4455c9462c69958a32992ee8", "is_disabled": 0, "rental_uris": {"ios": "https://dc.lft.to/lastmile_qr_scan", "android": "https://dc.lft.to/lastmile_qr_scan"}, "is_reserved": 0}, {"lon": -77.02189916666667, "bike_id": "d9f790c7b4a4a992f5234ecf017dfca8", "lat": 38.910560333333336, "fusion_lon": 0.0, "fusion_lat": 0.0, "type": "electric_scooter", "name": "d9f790c7b4a4a992f5234ecf017dfca8", "is_disabled": 0, "rental_uris": {"ios": "https://dc.lft.to/lastmile_qr_scan", "android": "https://dc.lft.to/lastmile_qr_scan"}, "is_reserved": 0}, {"lon": -76.99939416666666, "bike_id": "f0898b3783e3455f52d89f5e7ceed6ab", "lat": 38.919274333333334, "fusion_lon": 0.0, "fusion_lat": 0.0, "type": "electric_scooter", "name": "f0898b3783e3455f52d89f5e7ceed6ab", "is_disabled": 0, "rental_uris": {"ios": "https://dc.lft.to/lastmile_qr_scan", "android": "https://dc.lft.to/lastmile_qr_scan"}, "is_reserved": 0}, {"lon": -77.02202816666667, "bike_id": "796ff5b6a7e842656c86283a798ee9ff", "lat": 38.892936, "fusion_lon": 0.0, "fusion_lat": 0.0, "type": "electric_scooter", "name": "796ff5b6a7e842656c86283a798ee9ff", "is_disabled": 0, "rental_uris": {"ios": "https://dc.lft.to/lastmile_qr_scan", "android": "https://dc.lft.to/lastmile_qr_scan"}, "is_reserved": 0}, {"lon": -77.03214783333334, "bike_id": "68882746f40a78c9073267540f44d9fb", "lat": 38.9073425, "fusion_lon": 0.0, "fusion_lat": 0.0, "type": "electric_scooter", "name": "68882746f40a78c9073267540f44d9fb", "is_disabled": 0, "rental_uris": {"ios": "https://dc.lft.to/lastmile_qr_scan", "android": "https://dc.lft.to/lastmile_qr_scan"}, "is_reserved": 0}, {"lon": -77.0227655, "bike_id": "e345b7edd04d140cd44c97c6e54cd0c3", "lat": 38.90962116666667, "fusion_lon": 0.0, "fusion_lat": 0.0, "type": "electric_scooter", "name": "e345b7edd04d140cd44c97c6e54cd0c3", "is_disabled": 0, "rental_uris": {"ios": "https://dc.lft.to/lastmile_qr_scan", "android": "https://dc.lft.to/lastmile_qr_scan"}, "is_reserved": 0}, {"lon": -77.034356, "bike_id": "67e22cbda376d51bde83f136eda58f9a", "lat": 38.918216, "fusion_lon": 0.0, "fusion_lat": 0.0, "type": "electric_scooter", "name": "67e22cbda376d51bde83f136eda58f9a", "is_disabled": 0, "rental_uris": {"ios": "https://dc.lft.to/lastmile_qr_scan", "android": "https://dc.lft.to/lastmile_qr_scan"}, "is_reserved": 0}, {"lon": -77.108081, "bike_id": "ddb3116619b5318b0c2dd66c242a25d1", "lat": 38.812057, "fusion_lon": 0.0, "fusion_lat": 0.0, "type": "electric_bike", "name": "ddb3116619b5318b0c2dd66c242a25d1", "is_disabled": 0, "rental_uris": {"ios": "https://dc.lft.to/lastmile_qr_scan", "android": "https://dc.lft.to/lastmile_qr_scan"}, "is_reserved": 0}, {"lon": -77.03203383333333, "bike_id": "83ba9185dc0349f0f3ba2b6779c30088", "lat": 38.9174085, "fusion_lon": 0.0, "fusion_lat": 0.0, "type": "electric_scooter", "name": "83ba9185dc0349f0f3ba2b6779c30088", "is_disabled": 0, "rental_uris": {"ios": "https://dc.lft.to/lastmile_qr_scan", "android": "https://dc.lft.to/lastmile_qr_scan"}, "is_reserved": 0}, {"lon": -76.98831016666666, "bike_id": "f2e597c47d829222503f356453a9b873", "lat": 38.900946166666664, "fusion_lon": 0.0, "fusion_lat": 0.0, "type": "electric_scooter", "name": "f2e597c47d829222503f356453a9b873", "is_disabled": 0, "rental_uris": {"ios": "https://dc.lft.to/lastmile_qr_scan", "android": "https://dc.lft.to/lastmile_qr_scan"}, "is_reserved": 0}, {"lon": -77.01750216666667, "bike_id": "002f77eb06bbb9f79ce79700e5c0807d", "lat": 38.877194, "fusion_lon": 0.0, "fusion_lat": 0.0, "type": "electric_scooter", "name": "002f77eb06bbb9f79ce79700e5c0807d", "is_disabled": 0, "rental_uris": {"ios": "https://dc.lft.to/lastmile_qr_scan", "android": "https://dc.lft.to/lastmile_qr_scan"}, "is_reserved": 0}, {"lon": -76.98712333333333, "bike_id": "23a79de11e04611ebdbcacc274ed220e", "lat": 38.866304, "fusion_lon": 0.0, "fusion_lat": 0.0, "type": "electric_scooter", "name": "23a79de11e04611ebdbcacc274ed220e", "is_disabled": 0, "rental_uris": {"ios": "https://dc.lft.to/lastmile_qr_scan", "android": "https://dc.lft.to/lastmile_qr_scan"}, "is_reserved": 0}, {"lon": -77.02440333333334, "bike_id": "05fc2d6d726d84eb6cde440eb490ab2e", "lat": 38.920398666666664, "fusion_lon": 0.0, "fusion_lat": 0.0, "type": "electric_scooter", "name": "05fc2d6d726d84eb6cde440eb490ab2e", "is_disabled": 0, "rental_uris": {"ios": "https://dc.lft.to/lastmile_qr_scan", "android": "https://dc.lft.to/lastmile_qr_scan"}, "is_reserved": 0}, {"lon": -77.05804166666667, "bike_id": "ce8f868e5563cbff27e9db27a87d00fb", "lat": 38.82391033333333, "fusion_lon": 0.0, "fusion_lat": 0.0, "type": "electric_bike", "name": "ce8f868e5563cbff27e9db27a87d00fb", "is_disabled": 0, "rental_uris": {"ios": "https://dc.lft.to/lastmile_qr_scan", "android": "https://dc.lft.to/lastmile_qr_scan"}, "is_reserved": 0}, {"lon": -77.05217583333334, "bike_id": "3d19f359f3e90003fb8ca7514ddb24e8", "lat": 38.92481183333334, "fusion_lon": 0.0, "fusion_lat": 0.0, "type": "electric_scooter", "name": "3d19f359f3e90003fb8ca7514ddb24e8", "is_disabled": 0, "rental_uris": {"ios": "https://dc.lft.to/lastmile_qr_scan", "android": "https://dc.lft.to/lastmile_qr_scan"}, "is_reserved": 0}, {"lon": -77.01089066666667, "bike_id": "4728f6daac8e8be3db8488af54e040d4", "lat": 38.90657383333333, "fusion_lon": 0.0, "fusion_lat": 0.0, "type": "electric_bike", "name": "4728f6daac8e8be3db8488af54e040d4", "is_disabled": 0, "rental_uris": {"ios": "https://dc.lft.to/lastmile_qr_scan", "android": "https://dc.lft.to/lastmile_qr_scan"}, "is_reserved": 0}, {"lon": -77.04129966666666, "bike_id": "1f7e809efb9ec23d89916d59bf61d782", "lat": 38.92648716666667, "fusion_lon": 0.0, "fusion_lat": 0.0, "type": "electric_scooter", "name": "1f7e809efb9ec23d89916d59bf61d782", "is_disabled": 0, "rental_uris": {"ios": "https://dc.lft.to/lastmile_qr_scan", "android": "https://dc.lft.to/lastmile_qr_scan"}, "is_reserved": 0}, {"lon": -76.94921283333333, "bike_id": "2cc419c666143b1f596554bf20c22345", "lat": 38.89354516666667, "fusion_lon": 0.0, "fusion_lat": 0.0, "type": "electric_scooter", "name": "2cc419c666143b1f596554bf20c22345", "is_disabled": 0, "rental_uris": {"ios": "https://dc.lft.to/lastmile_qr_scan", "android": "https://dc.lft.to/lastmile_qr_scan"}, "is_reserved": 0}, {"lon": -76.989399, "bike_id": "5d1763babc9290888ba826eb6ea4d73d", "lat": 38.90394216666667, "fusion_lon": 0.0, "fusion_lat": 0.0, "type": "electric_scooter", "name": "5d1763babc9290888ba826eb6ea4d73d", "is_disabled": 0, "rental_uris": {"ios": "https://dc.lft.to/lastmile_qr_scan", "android": "https://dc.lft.to/lastmile_qr_scan"}, "is_reserved": 0}, {"lon": -77.05856283333334, "bike_id": "d2f3e56493591b10e08657e8dd8fd7e5", "lat": 38.93607516666667, "fusion_lon": 0.0, "fusion_lat": 0.0, "type": "electric_scooter", "name": "d2f3e56493591b10e08657e8dd8fd7e5", "is_disabled": 0, "rental_uris": {"ios": "https://dc.lft.to/lastmile_qr_scan", "android": "https://dc.lft.to/lastmile_qr_scan"}, "is_reserved": 0}, {"lon": -77.06403683333333, "bike_id": "47a28d041db4b53ef942013513a3cdf9", "lat": 38.907777333333335, "fusion_lon": 0.0, "fusion_lat": 0.0, "type": "electric_scooter", "name": "47a28d041db4b53ef942013513a3cdf9", "is_disabled": 0, "rental_uris": {"ios": "https://dc.lft.to/lastmile_qr_scan", "android": "https://dc.lft.to/lastmile_qr_scan"}, "is_reserved": 0}, {"lon": -77.00977083333333, "bike_id": "84ac60cb8ef7b70c7e494e1621c42641", "lat": 38.894837, "fusion_lon": 0.0, "fusion_lat": 0.0, "type": "electric_scooter", "name": "84ac60cb8ef7b70c7e494e1621c42641", "is_disabled": 0, "rental_uris": {"ios": "https://dc.lft.to/lastmile_qr_scan", "android": "https://dc.lft.to/lastmile_qr_scan"}, "is_reserved": 0}, {"lon": -77.04753966666667, "bike_id": "2976054a27651f946d134161985c4c85", "lat": 38.90973, "fusion_lon": 0.0, "fusion_lat": 0.0, "type": "electric_scooter", "name": "2976054a27651f946d134161985c4c85", "is_disabled": 0, "rental_uris": {"ios": "https://dc.lft.to/lastmile_qr_scan", "android": "https://dc.lft.to/lastmile_qr_scan"}, "is_reserved": 0}, {"lon": -77.0743455, "bike_id": "0632870964b03577bc0611c37cd9e298", "lat": 38.99944416666666, "fusion_lon": 0.0, "fusion_lat": 0.0, "type": "electric_bike", "name": "0632870964b03577bc0611c37cd9e298", "is_disabled": 0, "rental_uris": {"ios": "https://dc.lft.to/lastmile_qr_scan", "android": "https://dc.lft.to/lastmile_qr_scan"}, "is_reserved": 0}, {"lon": -77.02985816666667, "bike_id": "1424fa937e50b7470af584bc6266a558", "lat": 38.92474966666666, "fusion_lon": 0.0, "fusion_lat": 0.0, "type": "electric_scooter", "name": "1424fa937e50b7470af584bc6266a558", "is_disabled": 0, "rental_uris": {"ios": "https://dc.lft.to/lastmile_qr_scan", "android": "https://dc.lft.to/lastmile_qr_scan"}, "is_reserved": 0}, {"lon": -77.02504733333333, "bike_id": "10bf823826a98a4da1f3db15f69c5d44", "lat": 38.92053116666666, "fusion_lon": 0.0, "fusion_lat": 0.0, "type": "electric_scooter", "name": "10bf823826a98a4da1f3db15f69c5d44", "is_disabled": 0, "rental_uris": {"ios": "https://dc.lft.to/lastmile_qr_scan", "android": "https://dc.lft.to/lastmile_qr_scan"}, "is_reserved": 0}, {"lon": -76.97998416666667, "bike_id": "b561a04c92a8fd328a8ab5a899ef16f2", "lat": 38.90432583333333, "fusion_lon": 0.0, "fusion_lat": 0.0, "type": "electric_scooter", "name": "b561a04c92a8fd328a8ab5a899ef16f2", "is_disabled": 0, "rental_uris": {"ios": "https://dc.lft.to/lastmile_qr_scan", "android": "https://dc.lft.to/lastmile_qr_scan"}, "is_reserved": 0}, {"lon": -77.030845, "bike_id": "01f55daacb37ec52550e8d9d96eb858a", "lat": 38.9224795, "fusion_lon": 0.0, "fusion_lat": 0.0, "type": "electric_bike", "name": "01f55daacb37ec52550e8d9d96eb858a", "is_disabled": 0, "rental_uris": {"ios": "https://dc.lft.to/lastmile_qr_scan", "android": "https://dc.lft.to/lastmile_qr_scan"}, "is_reserved": 0}, {"lon": -77.02808783333333, "bike_id": "5feac125354c7fe4ee2a4cf2f7d02938", "lat": 38.93085266666667, "fusion_lon": 0.0, "fusion_lat": 0.0, "type": "electric_scooter", "name": "5feac125354c7fe4ee2a4cf2f7d02938", "is_disabled": 0, "rental_uris": {"ios": "https://dc.lft.to/lastmile_qr_scan", "android": "https://dc.lft.to/lastmile_qr_scan"}, "is_reserved": 0}, {"lon": -76.97739966666667, "bike_id": "a5643363fb9731db3d47a15a4c940a74", "lat": 38.864751, "fusion_lon": 0.0, "fusion_lat": 0.0, "type": "electric_scooter", "name": "a5643363fb9731db3d47a15a4c940a74", "is_disabled": 0, "rental_uris": {"ios": "https://dc.lft.to/lastmile_qr_scan", "android": "https://dc.lft.to/lastmile_qr_scan"}, "is_reserved": 0}, {"lon": -77.03549733333334, "bike_id": "0f0af91123be8c3aacaa5d163fcbeaff", "lat": 38.92410116666667, "fusion_lon": 0.0, "fusion_lat": 0.0, "type": "electric_scooter", "name": "0f0af91123be8c3aacaa5d163fcbeaff", "is_disabled": 0, "rental_uris": {"ios": "https://dc.lft.to/lastmile_qr_scan", "android": "https://dc.lft.to/lastmile_qr_scan"}, "is_reserved": 0}, {"lon": -76.9996295, "bike_id": "800400be559836ca1a65b2f74bba525d", "lat": 38.904115166666664, "fusion_lon": 0.0, "fusion_lat": 0.0, "type": "electric_scooter", "name": "800400be559836ca1a65b2f74bba525d", "is_disabled": 0, "rental_uris": {"ios": "https://dc.lft.to/lastmile_qr_scan", "android": "https://dc.lft.to/lastmile_qr_scan"}, "is_reserved": 0}, {"lon": -77.0395575, "bike_id": "844655a605c5475ae4987d4633a36aa1", "lat": 38.915549166666665, "fusion_lon": 0.0, "fusion_lat": 0.0, "type": "electric_scooter", "name": "844655a605c5475ae4987d4633a36aa1", "is_disabled": 0, "rental_uris": {"ios": "https://dc.lft.to/lastmile_qr_scan", "android": "https://dc.lft.to/lastmile_qr_scan"}, "is_reserved": 0}, {"lon": -77.03387616666667, "bike_id": "f452388a11e4116a5d6fb7cd60e7eba9", "lat": 38.92160416666667, "fusion_lon": 0.0, "fusion_lat": 0.0, "type": "electric_scooter", "name": "f452388a11e4116a5d6fb7cd60e7eba9", "is_disabled": 0, "rental_uris": {"ios": "https://dc.lft.to/lastmile_qr_scan", "android": "https://dc.lft.to/lastmile_qr_scan"}, "is_reserved": 0}, {"lon": -77.00957433333333, "bike_id": "18415643dd3e72a32da4569f9e063b22", "lat": 38.95340183333333, "fusion_lon": 0.0, "fusion_lat": 0.0, "type": "electric_bike", "name": "18415643dd3e72a32da4569f9e063b22", "is_disabled": 0, "rental_uris": {"ios": "https://dc.lft.to/lastmile_qr_scan", "android": "https://dc.lft.to/lastmile_qr_scan"}, "is_reserved": 0}, {"lon": -77.02726283333334, "bike_id": "3e0a8cd8c4a13923a0345f48f14fccfa", "lat": 38.9513345, "fusion_lon": 0.0, "fusion_lat": 0.0, "type": "electric_scooter", "name": "3e0a8cd8c4a13923a0345f48f14fccfa", "is_disabled": 0, "rental_uris": {"ios": "https://dc.lft.to/lastmile_qr_scan", "android": "https://dc.lft.to/lastmile_qr_scan"}, "is_reserved": 0}, {"lon": -77.04783033333334, "bike_id": "2b18c282b009c86c78442d4edfb8564f", "lat": 38.8295125, "fusion_lon": 0.0, "fusion_lat": 0.0, "type": "electric_bike", "name": "2b18c282b009c86c78442d4edfb8564f", "is_disabled": 0, "rental_uris": {"ios": "https://dc.lft.to/lastmile_qr_scan", "android": "https://dc.lft.to/lastmile_qr_scan"}, "is_reserved": 0}, {"lon": -77.07379966666667, "bike_id": "adbbfde2aedec812e9a1c3a7af0e1fea", "lat": 38.96219266666667, "fusion_lon": 0.0, "fusion_lat": 0.0, "type": "electric_scooter", "name": "adbbfde2aedec812e9a1c3a7af0e1fea", "is_disabled": 0, "rental_uris": {"ios": "https://dc.lft.to/lastmile_qr_scan", "android": "https://dc.lft.to/lastmile_qr_scan"}, "is_reserved": 0}, {"lon": -77.04172066666666, "bike_id": "03c7a1c54a94e5a222568b3bf423b047", "lat": 38.91979166666667, "fusion_lon": 0.0, "fusion_lat": 0.0, "type": "electric_scooter", "name": "03c7a1c54a94e5a222568b3bf423b047", "is_disabled": 0, "rental_uris": {"ios": "https://dc.lft.to/lastmile_qr_scan", "android": "https://dc.lft.to/lastmile_qr_scan"}, "is_reserved": 0}, {"lon": -77.02976083333333, "bike_id": "c2c5f19039b936d3e18b7efa9563180a", "lat": 38.92318616666667, "fusion_lon": 0.0, "fusion_lat": 0.0, "type": "electric_scooter", "name": "c2c5f19039b936d3e18b7efa9563180a", "is_disabled": 0, "rental_uris": {"ios": "https://dc.lft.to/lastmile_qr_scan", "android": "https://dc.lft.to/lastmile_qr_scan"}, "is_reserved": 0}, {"lon": -77.02550666666667, "bike_id": "f8b7492fc3ecfd69e580937a1db7b6ef", "lat": 38.909607666666666, "fusion_lon": 0.0, "fusion_lat": 0.0, "type": "electric_scooter", "name": "f8b7492fc3ecfd69e580937a1db7b6ef", "is_disabled": 0, "rental_uris": {"ios": "https://dc.lft.to/lastmile_qr_scan", "android": "https://dc.lft.to/lastmile_qr_scan"}, "is_reserved": 0}, {"lon": -76.98527166666666, "bike_id": "659ef92cbbdad1744eb3bba3f77db59d", "lat": 38.866881, "fusion_lon": 0.0, "fusion_lat": 0.0, "type": "electric_scooter", "name": "659ef92cbbdad1744eb3bba3f77db59d", "is_disabled": 0, "rental_uris": {"ios": "https://dc.lft.to/lastmile_qr_scan", "android": "https://dc.lft.to/lastmile_qr_scan"}, "is_reserved": 0}, {"lon": -77.043295, "bike_id": "474285c7cc84dcbd82f3dc6af6032b97", "lat": 38.9071515, "fusion_lon": 0.0, "fusion_lat": 0.0, "type": "electric_scooter", "name": "474285c7cc84dcbd82f3dc6af6032b97", "is_disabled": 0, "rental_uris": {"ios": "https://dc.lft.to/lastmile_qr_scan", "android": "https://dc.lft.to/lastmile_qr_scan"}, "is_reserved": 0}, {"lon": -77.11576216666667, "bike_id": "a6634789e172579ac9677cdda62bc560", "lat": 38.99346166666667, "fusion_lon": 0.0, "fusion_lat": 0.0, "type": "electric_bike", "name": "a6634789e172579ac9677cdda62bc560", "is_disabled": 0, "rental_uris": {"ios": "https://dc.lft.to/lastmile_qr_scan", "android": "https://dc.lft.to/lastmile_qr_scan"}, "is_reserved": 0}, {"lon": -76.9859145, "bike_id": "00ba9c02411b7cab5b63fc2de0332ed9", "lat": 38.86684016666667, "fusion_lon": 0.0, "fusion_lat": 0.0, "type": "electric_scooter", "name": "00ba9c02411b7cab5b63fc2de0332ed9", "is_disabled": 0, "rental_uris": {"ios": "https://dc.lft.to/lastmile_qr_scan", "android": "https://dc.lft.to/lastmile_qr_scan"}, "is_reserved": 0}, {"lon": -76.9936965, "bike_id": "c286de0de6438e57728009e4dac24206", "lat": 38.879741333333335, "fusion_lon": 0.0, "fusion_lat": 0.0, "type": "electric_scooter", "name": "c286de0de6438e57728009e4dac24206", "is_disabled": 0, "rental_uris": {"ios": "https://dc.lft.to/lastmile_qr_scan", "android": "https://dc.lft.to/lastmile_qr_scan"}, "is_reserved": 0}, {"lon": -76.9890315, "bike_id": "0d1dec20fccad90e7b3088146f8c74be", "lat": 38.86666233333333, "fusion_lon": 0.0, "fusion_lat": 0.0, "type": "electric_scooter", "name": "0d1dec20fccad90e7b3088146f8c74be", "is_disabled": 0, "rental_uris": {"ios": "https://dc.lft.to/lastmile_qr_scan", "android": "https://dc.lft.to/lastmile_qr_scan"}, "is_reserved": 0}, {"lon": -77.0369655, "bike_id": "3b61ff1557ec59206bf8baec23e3354c", "lat": 38.93530616666666, "fusion_lon": 0.0, "fusion_lat": 0.0, "type": "electric_scooter", "name": "3b61ff1557ec59206bf8baec23e3354c", "is_disabled": 0, "rental_uris": {"ios": "https://dc.lft.to/lastmile_qr_scan", "android": "https://dc.lft.to/lastmile_qr_scan"}, "is_reserved": 0}, {"lon": -77.00918233333333, "bike_id": "3b1d938de4bc378597df0b718c33f254", "lat": 38.896096166666666, "fusion_lon": 0.0, "fusion_lat": 0.0, "type": "electric_scooter", "name": "3b1d938de4bc378597df0b718c33f254", "is_disabled": 0, "rental_uris": {"ios": "https://dc.lft.to/lastmile_qr_scan", "android": "https://dc.lft.to/lastmile_qr_scan"}, "is_reserved": 0}, {"lon": -77.02933366666667, "bike_id": "9db2c42d89ca88272e7ef8a97ea8691d", "lat": 38.917009166666666, "fusion_lon": 0.0, "fusion_lat": 0.0, "type": "electric_bike", "name": "9db2c42d89ca88272e7ef8a97ea8691d", "is_disabled": 0, "rental_uris": {"ios": "https://dc.lft.to/lastmile_qr_scan", "android": "https://dc.lft.to/lastmile_qr_scan"}, "is_reserved": 0}, {"lon": -76.9981095, "bike_id": "c77e1095a4b63d29d96a9f5d4754f186", "lat": 38.900152166666665, "fusion_lon": 0.0, "fusion_lat": 0.0, "type": "electric_scooter", "name": "c77e1095a4b63d29d96a9f5d4754f186", "is_disabled": 0, "rental_uris": {"ios": "https://dc.lft.to/lastmile_qr_scan", "android": "https://dc.lft.to/lastmile_qr_scan"}, "is_reserved": 0}, {"lon": -77.0311725, "bike_id": "3436db0e50c7f9ce7081d32b9537d2ff", "lat": 38.92378316666667, "fusion_lon": 0.0, "fusion_lat": 0.0, "type": "electric_scooter", "name": "3436db0e50c7f9ce7081d32b9537d2ff", "is_disabled": 0, "rental_uris": {"ios": "https://dc.lft.to/lastmile_qr_scan", "android": "https://dc.lft.to/lastmile_qr_scan"}, "is_reserved": 0}, {"lon": -77.027047, "bike_id": "11a74ad4768727bb9b54a0b777db7bf7", "lat": 38.8971805, "fusion_lon": 0.0, "fusion_lat": 0.0, "type": "electric_scooter", "name": "11a74ad4768727bb9b54a0b777db7bf7", "is_disabled": 0, "rental_uris": {"ios": "https://dc.lft.to/lastmile_qr_scan", "android": "https://dc.lft.to/lastmile_qr_scan"}, "is_reserved": 0}, {"lon": -77.039658, "bike_id": "45ef01ef2984bca8dccce7978d417663", "lat": 38.892231833333334, "fusion_lon": 0.0, "fusion_lat": 0.0, "type": "electric_scooter", "name": "45ef01ef2984bca8dccce7978d417663", "is_disabled": 0, "rental_uris": {"ios": "https://dc.lft.to/lastmile_qr_scan", "android": "https://dc.lft.to/lastmile_qr_scan"}, "is_reserved": 0}, {"lon": -77.018729, "bike_id": "09a9b1be597065c9eecd737735c949bf", "lat": 38.903172833333336, "fusion_lon": 0.0, "fusion_lat": 0.0, "type": "electric_scooter", "name": "09a9b1be597065c9eecd737735c949bf", "is_disabled": 0, "rental_uris": {"ios": "https://dc.lft.to/lastmile_qr_scan", "android": "https://dc.lft.to/lastmile_qr_scan"}, "is_reserved": 0}, {"lon": -77.0212715, "bike_id": "6141253544cb0b8fa89ecd1b9b58a8d0", "lat": 38.8996195, "fusion_lon": 0.0, "fusion_lat": 0.0, "type": "electric_scooter", "name": "6141253544cb0b8fa89ecd1b9b58a8d0", "is_disabled": 0, "rental_uris": {"ios": "https://dc.lft.to/lastmile_qr_scan", "android": "https://dc.lft.to/lastmile_qr_scan"}, "is_reserved": 0}, {"lon": -77.0374285, "bike_id": "3239b154f439d3000a79731006fc6883", "lat": 38.9180925, "fusion_lon": 0.0, "fusion_lat": 0.0, "type": "electric_scooter", "name": "3239b154f439d3000a79731006fc6883", "is_disabled": 0, "rental_uris": {"ios": "https://dc.lft.to/lastmile_qr_scan", "android": "https://dc.lft.to/lastmile_qr_scan"}, "is_reserved": 0}, {"lon": -77.04334066666667, "bike_id": "6c425141cb7d28c691e089a26772c5ce", "lat": 38.8922225, "fusion_lon": 0.0, "fusion_lat": 0.0, "type": "electric_scooter", "name": "6c425141cb7d28c691e089a26772c5ce", "is_disabled": 0, "rental_uris": {"ios": "https://dc.lft.to/lastmile_qr_scan", "android": "https://dc.lft.to/lastmile_qr_scan"}, "is_reserved": 0}, {"lon": -77.01964316666667, "bike_id": "cd281b10a19756c4f4cd1797f8c6c285", "lat": 38.883871, "fusion_lon": 0.0, "fusion_lat": 0.0, "type": "electric_scooter", "name": "cd281b10a19756c4f4cd1797f8c6c285", "is_disabled": 0, "rental_uris": {"ios": "https://dc.lft.to/lastmile_qr_scan", "android": "https://dc.lft.to/lastmile_qr_scan"}, "is_reserved": 0}, {"lon": -76.98999083333334, "bike_id": "6bf551aaf641e3ff26e218498550e6af", "lat": 38.86511183333333, "fusion_lon": 0.0, "fusion_lat": 0.0, "type": "electric_scooter", "name": "6bf551aaf641e3ff26e218498550e6af", "is_disabled": 0, "rental_uris": {"ios": "https://dc.lft.to/lastmile_qr_scan", "android": "https://dc.lft.to/lastmile_qr_scan"}, "is_reserved": 0}, {"lon": -77.04277666666667, "bike_id": "c2b5c12cbcc00f8a9ccda5eac3b5a687", "lat": 38.899762333333335, "fusion_lon": 0.0, "fusion_lat": 0.0, "type": "electric_scooter", "name": "c2b5c12cbcc00f8a9ccda5eac3b5a687", "is_disabled": 0, "rental_uris": {"ios": "https://dc.lft.to/lastmile_qr_scan", "android": "https://dc.lft.to/lastmile_qr_scan"}, "is_reserved": 0}, {"lon": -77.03176633333334, "bike_id": "f36ccb57bdf2abf2c81f03700c5b286c", "lat": 38.891985, "fusion_lon": 0.0, "fusion_lat": 0.0, "type": "electric_scooter", "name": "f36ccb57bdf2abf2c81f03700c5b286c", "is_disabled": 0, "rental_uris": {"ios": "https://dc.lft.to/lastmile_qr_scan", "android": "https://dc.lft.to/lastmile_qr_scan"}, "is_reserved": 0}, {"lon": -77.04702683333333, "bike_id": "f23b847fd06493a56c54f73f37067382", "lat": 38.921336333333336, "fusion_lon": 0.0, "fusion_lat": 0.0, "type": "electric_scooter", "name": "f23b847fd06493a56c54f73f37067382", "is_disabled": 0, "rental_uris": {"ios": "https://dc.lft.to/lastmile_qr_scan", "android": "https://dc.lft.to/lastmile_qr_scan"}, "is_reserved": 0}, {"lon": -77.05148383333334, "bike_id": "73ef9d5c85ac2b054ddcfd7ed840c22e", "lat": 38.923708833333336, "fusion_lon": 0.0, "fusion_lat": 0.0, "type": "electric_scooter", "name": "73ef9d5c85ac2b054ddcfd7ed840c22e", "is_disabled": 0, "rental_uris": {"ios": "https://dc.lft.to/lastmile_qr_scan", "android": "https://dc.lft.to/lastmile_qr_scan"}, "is_reserved": 0}, {"lon": -77.02433216666667, "bike_id": "df43479787798fa8872456da07332b3c", "lat": 38.92049566666667, "fusion_lon": 0.0, "fusion_lat": 0.0, "type": "electric_scooter", "name": "df43479787798fa8872456da07332b3c", "is_disabled": 0, "rental_uris": {"ios": "https://dc.lft.to/lastmile_qr_scan", "android": "https://dc.lft.to/lastmile_qr_scan"}, "is_reserved": 0}, {"lon": -77.0112825, "bike_id": "4cbeaf40c0ed2040b877c41272849967", "lat": 38.911594, "fusion_lon": 0.0, "fusion_lat": 0.0, "type": "electric_bike", "name": "4cbeaf40c0ed2040b877c41272849967", "is_disabled": 0, "rental_uris": {"ios": "https://dc.lft.to/lastmile_qr_scan", "android": "https://dc.lft.to/lastmile_qr_scan"}, "is_reserved": 0}, {"lon": -77.033804, "bike_id": "1164e0ca3e0091ea807cda7b858f40a6", "lat": 38.89961733333333, "fusion_lon": 0.0, "fusion_lat": 0.0, "type": "electric_scooter", "name": "1164e0ca3e0091ea807cda7b858f40a6", "is_disabled": 0, "rental_uris": {"ios": "https://dc.lft.to/lastmile_qr_scan", "android": "https://dc.lft.to/lastmile_qr_scan"}, "is_reserved": 0}, {"lon": -77.02978066666667, "bike_id": "4595d40d62a289621a7e460bec1867e3", "lat": 38.907251, "fusion_lon": 0.0, "fusion_lat": 0.0, "type": "electric_scooter", "name": "4595d40d62a289621a7e460bec1867e3", "is_disabled": 0, "rental_uris": {"ios": "https://dc.lft.to/lastmile_qr_scan", "android": "https://dc.lft.to/lastmile_qr_scan"}, "is_reserved": 0}, {"lon": -77.04478933333333, "bike_id": "a86a9cbc676f516ffdc008df61b166f6", "lat": 38.92425816666667, "fusion_lon": 0.0, "fusion_lat": 0.0, "type": "electric_scooter", "name": "a86a9cbc676f516ffdc008df61b166f6", "is_disabled": 0, "rental_uris": {"ios": "https://dc.lft.to/lastmile_qr_scan", "android": "https://dc.lft.to/lastmile_qr_scan"}, "is_reserved": 0}, {"lon": -77.00196316666667, "bike_id": "4162b93338045530ba96cf3c9342b566", "lat": 38.90239433333333, "fusion_lon": 0.0, "fusion_lat": 0.0, "type": "electric_scooter", "name": "4162b93338045530ba96cf3c9342b566", "is_disabled": 0, "rental_uris": {"ios": "https://dc.lft.to/lastmile_qr_scan", "android": "https://dc.lft.to/lastmile_qr_scan"}, "is_reserved": 0}, {"lon": -77.03385783333333, "bike_id": "28066f0613ce0b1efad3533cd942556b", "lat": 38.902681666666666, "fusion_lon": 0.0, "fusion_lat": 0.0, "type": "electric_scooter", "name": "28066f0613ce0b1efad3533cd942556b", "is_disabled": 0, "rental_uris": {"ios": "https://dc.lft.to/lastmile_qr_scan", "android": "https://dc.lft.to/lastmile_qr_scan"}, "is_reserved": 0}, {"lon": -77.02664416666667, "bike_id": "33ecca6ec5ad7cb39fbfebd8ae674120", "lat": 38.90246283333333, "fusion_lon": 0.0, "fusion_lat": 0.0, "type": "electric_scooter", "name": "33ecca6ec5ad7cb39fbfebd8ae674120", "is_disabled": 0, "rental_uris": {"ios": "https://dc.lft.to/lastmile_qr_scan", "android": "https://dc.lft.to/lastmile_qr_scan"}, "is_reserved": 0}, {"lon": -77.056607, "bike_id": "6d755bf10c394cf432a998674717d3ee", "lat": 38.8954885, "fusion_lon": 0.0, "fusion_lat": 0.0, "type": "electric_scooter", "name": "6d755bf10c394cf432a998674717d3ee", "is_disabled": 0, "rental_uris": {"ios": "https://dc.lft.to/lastmile_qr_scan", "android": "https://dc.lft.to/lastmile_qr_scan"}, "is_reserved": 0}, {"lon": -77.017941, "bike_id": "56817515e181be5a8ee913836210a845", "lat": 38.8839885, "fusion_lon": 0.0, "fusion_lat": 0.0, "type": "electric_scooter", "name": "56817515e181be5a8ee913836210a845", "is_disabled": 0, "rental_uris": {"ios": "https://dc.lft.to/lastmile_qr_scan", "android": "https://dc.lft.to/lastmile_qr_scan"}, "is_reserved": 0}, {"lon": -77.04880116666666, "bike_id": "c8925e10665c2cac6e929e4e23183591", "lat": 38.892312833333335, "fusion_lon": 0.0, "fusion_lat": 0.0, "type": "electric_scooter", "name": "c8925e10665c2cac6e929e4e23183591", "is_disabled": 0, "rental_uris": {"ios": "https://dc.lft.to/lastmile_qr_scan", "android": "https://dc.lft.to/lastmile_qr_scan"}, "is_reserved": 0}, {"lon": -77.02375316666667, "bike_id": "d91b679c7af23fd8c7cf8f2fe49d0326", "lat": 38.90964, "fusion_lon": 0.0, "fusion_lat": 0.0, "type": "electric_scooter", "name": "d91b679c7af23fd8c7cf8f2fe49d0326", "is_disabled": 0, "rental_uris": {"ios": "https://dc.lft.to/lastmile_qr_scan", "android": "https://dc.lft.to/lastmile_qr_scan"}, "is_reserved": 0}, {"lon": -77.02169783333333, "bike_id": "d01377848ea38eb79188672b8c00331c", "lat": 38.8871485, "fusion_lon": 0.0, "fusion_lat": 0.0, "type": "electric_scooter", "name": "d01377848ea38eb79188672b8c00331c", "is_disabled": 0, "rental_uris": {"ios": "https://dc.lft.to/lastmile_qr_scan", "android": "https://dc.lft.to/lastmile_qr_scan"}, "is_reserved": 0}, {"lon": -77.02190683333333, "bike_id": "29842ed9f8d6af9336b8f059ebcce69c", "lat": 38.9148535, "fusion_lon": 0.0, "fusion_lat": 0.0, "type": "electric_scooter", "name": "29842ed9f8d6af9336b8f059ebcce69c", "is_disabled": 0, "rental_uris": {"ios": "https://dc.lft.to/lastmile_qr_scan", "android": "https://dc.lft.to/lastmile_qr_scan"}, "is_reserved": 0}, {"lon": -77.04004866666666, "bike_id": "2b9e9011e04053acf5a26d1dd5e627d5", "lat": 38.918163166666666, "fusion_lon": 0.0, "fusion_lat": 0.0, "type": "electric_scooter", "name": "2b9e9011e04053acf5a26d1dd5e627d5", "is_disabled": 0, "rental_uris": {"ios": "https://dc.lft.to/lastmile_qr_scan", "android": "https://dc.lft.to/lastmile_qr_scan"}, "is_reserved": 0}, {"lon": -77.038281, "bike_id": "54f4a0ec1f5d287440f821a7bb921247", "lat": 38.908758666666664, "fusion_lon": 0.0, "fusion_lat": 0.0, "type": "electric_scooter", "name": "54f4a0ec1f5d287440f821a7bb921247", "is_disabled": 0, "rental_uris": {"ios": "https://dc.lft.to/lastmile_qr_scan", "android": "https://dc.lft.to/lastmile_qr_scan"}, "is_reserved": 0}, {"lon": -77.01129116666667, "bike_id": "f044b573ffeb745a4e1058c8500f3932", "lat": 38.90013, "fusion_lon": 0.0, "fusion_lat": 0.0, "type": "electric_scooter", "name": "f044b573ffeb745a4e1058c8500f3932", "is_disabled": 0, "rental_uris": {"ios": "https://dc.lft.to/lastmile_qr_scan", "android": "https://dc.lft.to/lastmile_qr_scan"}, "is_reserved": 0}, {"lon": -77.012077, "bike_id": "e425170ca400f7b7f67aa377ee658b50", "lat": 38.88557333333333, "fusion_lon": 0.0, "fusion_lat": 0.0, "type": "electric_scooter", "name": "e425170ca400f7b7f67aa377ee658b50", "is_disabled": 0, "rental_uris": {"ios": "https://dc.lft.to/lastmile_qr_scan", "android": "https://dc.lft.to/lastmile_qr_scan"}, "is_reserved": 0}, {"lon": -77.03270516666667, "bike_id": "31795357175d5f56044b712062320831", "lat": 38.90126333333333, "fusion_lon": 0.0, "fusion_lat": 0.0, "type": "electric_scooter", "name": "31795357175d5f56044b712062320831", "is_disabled": 0, "rental_uris": {"ios": "https://dc.lft.to/lastmile_qr_scan", "android": "https://dc.lft.to/lastmile_qr_scan"}, "is_reserved": 0}, {"lon": -77.0310355, "bike_id": "b0bbb4eaa15ce263ee8ed236e18043ca", "lat": 38.919184333333334, "fusion_lon": 0.0, "fusion_lat": 0.0, "type": "electric_scooter", "name": "b0bbb4eaa15ce263ee8ed236e18043ca", "is_disabled": 0, "rental_uris": {"ios": "https://dc.lft.to/lastmile_qr_scan", "android": "https://dc.lft.to/lastmile_qr_scan"}, "is_reserved": 0}, {"lon": -76.9892995, "bike_id": "5b021c63f241c0ab07415e8ab9788acd", "lat": 38.86558616666667, "fusion_lon": 0.0, "fusion_lat": 0.0, "type": "electric_scooter", "name": "5b021c63f241c0ab07415e8ab9788acd", "is_disabled": 0, "rental_uris": {"ios": "https://dc.lft.to/lastmile_qr_scan", "android": "https://dc.lft.to/lastmile_qr_scan"}, "is_reserved": 0}, {"lon": -77.04470066666667, "bike_id": "2f02809d4caeda89611de8808fd1b034", "lat": 38.908483833333335, "fusion_lon": 0.0, "fusion_lat": 0.0, "type": "electric_scooter", "name": "2f02809d4caeda89611de8808fd1b034", "is_disabled": 0, "rental_uris": {"ios": "https://dc.lft.to/lastmile_qr_scan", "android": "https://dc.lft.to/lastmile_qr_scan"}, "is_reserved": 0}, {"lon": -77.0310115, "bike_id": "2a5e138638823858755c17c99b7bff7f", "lat": 38.88756516666667, "fusion_lon": 0.0, "fusion_lat": 0.0, "type": "electric_scooter", "name": "2a5e138638823858755c17c99b7bff7f", "is_disabled": 0, "rental_uris": {"ios": "https://dc.lft.to/lastmile_qr_scan", "android": "https://dc.lft.to/lastmile_qr_scan"}, "is_reserved": 0}, {"lon": -77.050144, "bike_id": "f8cb4324a3288f00979fc162739ef07a", "lat": 38.905254, "fusion_lon": 0.0, "fusion_lat": 0.0, "type": "electric_scooter", "name": "f8cb4324a3288f00979fc162739ef07a", "is_disabled": 0, "rental_uris": {"ios": "https://dc.lft.to/lastmile_qr_scan", "android": "https://dc.lft.to/lastmile_qr_scan"}, "is_reserved": 0}, {"lon": -77.002804, "bike_id": "b25aa6132fd7275acf26b1adf38657ff", "lat": 38.91175633333334, "fusion_lon": 0.0, "fusion_lat": 0.0, "type": "electric_bike", "name": "b25aa6132fd7275acf26b1adf38657ff", "is_disabled": 0, "rental_uris": {"ios": "https://dc.lft.to/lastmile_qr_scan", "android": "https://dc.lft.to/lastmile_qr_scan"}, "is_reserved": 0}, {"lon": -76.97532583333333, "bike_id": "52a2167205e53156e0081c0579fb7dbb", "lat": 38.922322333333334, "fusion_lon": 0.0, "fusion_lat": 0.0, "type": "electric_scooter", "name": "52a2167205e53156e0081c0579fb7dbb", "is_disabled": 0, "rental_uris": {"ios": "https://dc.lft.to/lastmile_qr_scan", "android": "https://dc.lft.to/lastmile_qr_scan"}, "is_reserved": 0}, {"lon": -77.03274683333333, "bike_id": "9e6abd2624bea7e0b45e6872eb32f3fb", "lat": 38.919987, "fusion_lon": 0.0, "fusion_lat": 0.0, "type": "electric_scooter", "name": "9e6abd2624bea7e0b45e6872eb32f3fb", "is_disabled": 0, "rental_uris": {"ios": "https://dc.lft.to/lastmile_qr_scan", "android": "https://dc.lft.to/lastmile_qr_scan"}, "is_reserved": 0}, {"lon": -77.031372, "bike_id": "f2c2a75afe9a5a80efdfc262dc5a521a", "lat": 38.929626166666665, "fusion_lon": 0.0, "fusion_lat": 0.0, "type": "electric_scooter", "name": "f2c2a75afe9a5a80efdfc262dc5a521a", "is_disabled": 0, "rental_uris": {"ios": "https://dc.lft.to/lastmile_qr_scan", "android": "https://dc.lft.to/lastmile_qr_scan"}, "is_reserved": 0}, {"lon": -77.04344016666667, "bike_id": "2997c08b15120bab4e321faa3e31af3c", "lat": 38.93336033333333, "fusion_lon": 0.0, "fusion_lat": 0.0, "type": "electric_scooter", "name": "2997c08b15120bab4e321faa3e31af3c", "is_disabled": 0, "rental_uris": {"ios": "https://dc.lft.to/lastmile_qr_scan", "android": "https://dc.lft.to/lastmile_qr_scan"}, "is_reserved": 0}, {"lon": -77.02731816666666, "bike_id": "d7aebe677bf21704f334714dc97771ca", "lat": 38.9438175, "fusion_lon": 0.0, "fusion_lat": 0.0, "type": "electric_scooter", "name": "d7aebe677bf21704f334714dc97771ca", "is_disabled": 0, "rental_uris": {"ios": "https://dc.lft.to/lastmile_qr_scan", "android": "https://dc.lft.to/lastmile_qr_scan"}, "is_reserved": 0}, {"lon": -77.04155066666667, "bike_id": "bbbe75f7252084993780e5f76dc44820", "lat": 38.899231, "fusion_lon": 0.0, "fusion_lat": 0.0, "type": "electric_scooter", "name": "bbbe75f7252084993780e5f76dc44820", "is_disabled": 0, "rental_uris": {"ios": "https://dc.lft.to/lastmile_qr_scan", "android": "https://dc.lft.to/lastmile_qr_scan"}, "is_reserved": 0}, {"lon": -77.0307505, "bike_id": "ea77854af4280e5706353a7f60bd883a", "lat": 38.880381166666666, "fusion_lon": 0.0, "fusion_lat": 0.0, "type": "electric_scooter", "name": "ea77854af4280e5706353a7f60bd883a", "is_disabled": 0, "rental_uris": {"ios": "https://dc.lft.to/lastmile_qr_scan", "android": "https://dc.lft.to/lastmile_qr_scan"}, "is_reserved": 0}, {"lon": -77.000377, "bike_id": "1dfded6c390ec558ec4f53ce6b9129fd", "lat": 38.90823283333334, "fusion_lon": 0.0, "fusion_lat": 0.0, "type": "electric_scooter", "name": "1dfded6c390ec558ec4f53ce6b9129fd", "is_disabled": 0, "rental_uris": {"ios": "https://dc.lft.to/lastmile_qr_scan", "android": "https://dc.lft.to/lastmile_qr_scan"}, "is_reserved": 0}, {"lon": -77.01789933333333, "bike_id": "b1f82d34c7edfc52af105c10f6a67daa", "lat": 38.920429166666665, "fusion_lon": 0.0, "fusion_lat": 0.0, "type": "electric_scooter", "name": "b1f82d34c7edfc52af105c10f6a67daa", "is_disabled": 0, "rental_uris": {"ios": "https://dc.lft.to/lastmile_qr_scan", "android": "https://dc.lft.to/lastmile_qr_scan"}, "is_reserved": 0}, {"lon": -77.01578716666667, "bike_id": "1f5007aa5f6eb7f81d3187785bccc03e", "lat": 38.87664066666667, "fusion_lon": 0.0, "fusion_lat": 0.0, "type": "electric_scooter", "name": "1f5007aa5f6eb7f81d3187785bccc03e", "is_disabled": 0, "rental_uris": {"ios": "https://dc.lft.to/lastmile_qr_scan", "android": "https://dc.lft.to/lastmile_qr_scan"}, "is_reserved": 0}, {"lon": -77.02690266666667, "bike_id": "f2c685c68db0b8148a228d44a8cb6ac3", "lat": 38.912284166666666, "fusion_lon": 0.0, "fusion_lat": 0.0, "type": "electric_scooter", "name": "f2c685c68db0b8148a228d44a8cb6ac3", "is_disabled": 0, "rental_uris": {"ios": "https://dc.lft.to/lastmile_qr_scan", "android": "https://dc.lft.to/lastmile_qr_scan"}, "is_reserved": 0}, {"lon": -77.024703, "bike_id": "7ebdcde494547ebc9d41e72fb4eb760b", "lat": 38.918230666666666, "fusion_lon": 0.0, "fusion_lat": 0.0, "type": "electric_scooter", "name": "7ebdcde494547ebc9d41e72fb4eb760b", "is_disabled": 0, "rental_uris": {"ios": "https://dc.lft.to/lastmile_qr_scan", "android": "https://dc.lft.to/lastmile_qr_scan"}, "is_reserved": 0}, {"lon": -76.99033016666667, "bike_id": "221b60a83041645d924c78944a59d140", "lat": 38.89880516666667, "fusion_lon": 0.0, "fusion_lat": 0.0, "type": "electric_scooter", "name": "221b60a83041645d924c78944a59d140", "is_disabled": 0, "rental_uris": {"ios": "https://dc.lft.to/lastmile_qr_scan", "android": "https://dc.lft.to/lastmile_qr_scan"}, "is_reserved": 0}, {"lon": -76.98404083333334, "bike_id": "ff7ee79c7dd443ef7b1f9ca2f4868365", "lat": 38.90627516666667, "fusion_lon": 0.0, "fusion_lat": 0.0, "type": "electric_scooter", "name": "ff7ee79c7dd443ef7b1f9ca2f4868365", "is_disabled": 0, "rental_uris": {"ios": "https://dc.lft.to/lastmile_qr_scan", "android": "https://dc.lft.to/lastmile_qr_scan"}, "is_reserved": 0}, {"lon": -77.03960966666666, "bike_id": "51386e5cbcee3fadc3a7c08214e48a8a", "lat": 38.91624, "fusion_lon": 0.0, "fusion_lat": 0.0, "type": "electric_scooter", "name": "51386e5cbcee3fadc3a7c08214e48a8a", "is_disabled": 0, "rental_uris": {"ios": "https://dc.lft.to/lastmile_qr_scan", "android": "https://dc.lft.to/lastmile_qr_scan"}, "is_reserved": 0}, {"lon": -77.0421705, "bike_id": "0051a8a2d78b1dd9ed7fea0178ed74e4", "lat": 38.92126366666667, "fusion_lon": 0.0, "fusion_lat": 0.0, "type": "electric_scooter", "name": "0051a8a2d78b1dd9ed7fea0178ed74e4", "is_disabled": 0, "rental_uris": {"ios": "https://dc.lft.to/lastmile_qr_scan", "android": "https://dc.lft.to/lastmile_qr_scan"}, "is_reserved": 0}, {"lon": -77.01847333333333, "bike_id": "d65467842cb47408735a9a816f07dd56", "lat": 38.97362, "fusion_lon": 0.0, "fusion_lat": 0.0, "type": "electric_scooter", "name": "d65467842cb47408735a9a816f07dd56", "is_disabled": 0, "rental_uris": {"ios": "https://dc.lft.to/lastmile_qr_scan", "android": "https://dc.lft.to/lastmile_qr_scan"}, "is_reserved": 0}, {"lon": -77.01224666666667, "bike_id": "934f4d77da89c49a0cd42871dfb13224", "lat": 38.91545516666667, "fusion_lon": 0.0, "fusion_lat": 0.0, "type": "electric_scooter", "name": "934f4d77da89c49a0cd42871dfb13224", "is_disabled": 0, "rental_uris": {"ios": "https://dc.lft.to/lastmile_qr_scan", "android": "https://dc.lft.to/lastmile_qr_scan"}, "is_reserved": 0}, {"lon": -77.02567683333334, "bike_id": "bbfb859cb255f5dee590b65f0c1a5877", "lat": 38.9134055, "fusion_lon": 0.0, "fusion_lat": 0.0, "type": "electric_scooter", "name": "bbfb859cb255f5dee590b65f0c1a5877", "is_disabled": 0, "rental_uris": {"ios": "https://dc.lft.to/lastmile_qr_scan", "android": "https://dc.lft.to/lastmile_qr_scan"}, "is_reserved": 0}, {"lon": -77.04319683333334, "bike_id": "927b8f9084bca3edcdd7f9696943beda", "lat": 38.92253983333333, "fusion_lon": 0.0, "fusion_lat": 0.0, "type": "electric_scooter", "name": "927b8f9084bca3edcdd7f9696943beda", "is_disabled": 0, "rental_uris": {"ios": "https://dc.lft.to/lastmile_qr_scan", "android": "https://dc.lft.to/lastmile_qr_scan"}, "is_reserved": 0}, {"lon": -77.0252525, "bike_id": "8d1332b1c8793bbc00290493a9ad2fe9", "lat": 38.941016, "fusion_lon": 0.0, "fusion_lat": 0.0, "type": "electric_scooter", "name": "8d1332b1c8793bbc00290493a9ad2fe9", "is_disabled": 0, "rental_uris": {"ios": "https://dc.lft.to/lastmile_qr_scan", "android": "https://dc.lft.to/lastmile_qr_scan"}, "is_reserved": 0}, {"lon": -77.03940216666666, "bike_id": "bde1e3f5196d2dc95f29b6180afa15f7", "lat": 38.898849166666665, "fusion_lon": 0.0, "fusion_lat": 0.0, "type": "electric_scooter", "name": "bde1e3f5196d2dc95f29b6180afa15f7", "is_disabled": 0, "rental_uris": {"ios": "https://dc.lft.to/lastmile_qr_scan", "android": "https://dc.lft.to/lastmile_qr_scan"}, "is_reserved": 0}, {"lon": -76.98774566666667, "bike_id": "eba3a145d11bab8d84a6d987ea8ef775", "lat": 38.86608916666667, "fusion_lon": 0.0, "fusion_lat": 0.0, "type": "electric_bike", "name": "eba3a145d11bab8d84a6d987ea8ef775", "is_disabled": 0, "rental_uris": {"ios": "https://dc.lft.to/lastmile_qr_scan", "android": "https://dc.lft.to/lastmile_qr_scan"}, "is_reserved": 0}, {"lon": -77.03272983333333, "bike_id": "b9332c40003fb02916c7be9b173bd44e", "lat": 38.901284, "fusion_lon": 0.0, "fusion_lat": 0.0, "type": "electric_scooter", "name": "b9332c40003fb02916c7be9b173bd44e", "is_disabled": 0, "rental_uris": {"ios": "https://dc.lft.to/lastmile_qr_scan", "android": "https://dc.lft.to/lastmile_qr_scan"}, "is_reserved": 0}, {"lon": -76.98018916666666, "bike_id": "cbb1353828dd9b246a3a3399cac27a6f", "lat": 38.853253, "fusion_lon": 0.0, "fusion_lat": 0.0, "type": "electric_bike", "name": "cbb1353828dd9b246a3a3399cac27a6f", "is_disabled": 0, "rental_uris": {"ios": "https://dc.lft.to/lastmile_qr_scan", "android": "https://dc.lft.to/lastmile_qr_scan"}, "is_reserved": 0}, {"lon": -76.9903025, "bike_id": "8787e279e4462d54f80ac97423dd5380", "lat": 38.888760833333336, "fusion_lon": 0.0, "fusion_lat": 0.0, "type": "electric_scooter", "name": "8787e279e4462d54f80ac97423dd5380", "is_disabled": 0, "rental_uris": {"ios": "https://dc.lft.to/lastmile_qr_scan", "android": "https://dc.lft.to/lastmile_qr_scan"}, "is_reserved": 0}, {"lon": -77.036624, "bike_id": "c2336244acbe3077404f9aa8a3d6a081", "lat": 38.91712916666667, "fusion_lon": 0.0, "fusion_lat": 0.0, "type": "electric_scooter", "name": "c2336244acbe3077404f9aa8a3d6a081", "is_disabled": 0, "rental_uris": {"ios": "https://dc.lft.to/lastmile_qr_scan", "android": "https://dc.lft.to/lastmile_qr_scan"}, "is_reserved": 0}, {"lon": -77.04188916666666, "bike_id": "0e5fda93c97792067cedbb200fe37d49", "lat": 38.91981416666667, "fusion_lon": 0.0, "fusion_lat": 0.0, "type": "electric_scooter", "name": "0e5fda93c97792067cedbb200fe37d49", "is_disabled": 0, "rental_uris": {"ios": "https://dc.lft.to/lastmile_qr_scan", "android": "https://dc.lft.to/lastmile_qr_scan"}, "is_reserved": 0}, {"lon": -77.035282, "bike_id": "4a3c330ef40185470ab5db3886f93817", "lat": 38.924826833333334, "fusion_lon": 0.0, "fusion_lat": 0.0, "type": "electric_scooter", "name": "4a3c330ef40185470ab5db3886f93817", "is_disabled": 0, "rental_uris": {"ios": "https://dc.lft.to/lastmile_qr_scan", "android": "https://dc.lft.to/lastmile_qr_scan"}, "is_reserved": 0}, {"lon": -77.0320805, "bike_id": "6c3128acd17c98676e1870d9386cf96d", "lat": 38.91472483333333, "fusion_lon": 0.0, "fusion_lat": 0.0, "type": "electric_scooter", "name": "6c3128acd17c98676e1870d9386cf96d", "is_disabled": 0, "rental_uris": {"ios": "https://dc.lft.to/lastmile_qr_scan", "android": "https://dc.lft.to/lastmile_qr_scan"}, "is_reserved": 0}, {"lon": -77.03186033333333, "bike_id": "6c13adbafd7861e390ddc0c94e3809e5", "lat": 38.917453333333334, "fusion_lon": 0.0, "fusion_lat": 0.0, "type": "electric_scooter", "name": "6c13adbafd7861e390ddc0c94e3809e5", "is_disabled": 0, "rental_uris": {"ios": "https://dc.lft.to/lastmile_qr_scan", "android": "https://dc.lft.to/lastmile_qr_scan"}, "is_reserved": 0}, {"lon": -76.99510416666666, "bike_id": "3a293f0d8893fcfdbf5c7e600e167d2e", "lat": 38.862609166666665, "fusion_lon": 0.0, "fusion_lat": 0.0, "type": "electric_scooter", "name": "3a293f0d8893fcfdbf5c7e600e167d2e", "is_disabled": 0, "rental_uris": {"ios": "https://dc.lft.to/lastmile_qr_scan", "android": "https://dc.lft.to/lastmile_qr_scan"}, "is_reserved": 0}, {"lon": -76.94880383333333, "bike_id": "db59cf186057c26a76689c4d8ca22d03", "lat": 38.89510083333333, "fusion_lon": 0.0, "fusion_lat": 0.0, "type": "electric_scooter", "name": "db59cf186057c26a76689c4d8ca22d03", "is_disabled": 0, "rental_uris": {"ios": "https://dc.lft.to/lastmile_qr_scan", "android": "https://dc.lft.to/lastmile_qr_scan"}, "is_reserved": 0}, {"lon": -77.04135866666667, "bike_id": "de8ef34335dd7995da271c7a8fd4e2b1", "lat": 38.919690333333335, "fusion_lon": 0.0, "fusion_lat": 0.0, "type": "electric_scooter", "name": "de8ef34335dd7995da271c7a8fd4e2b1", "is_disabled": 0, "rental_uris": {"ios": "https://dc.lft.to/lastmile_qr_scan", "android": "https://dc.lft.to/lastmile_qr_scan"}, "is_reserved": 0}, {"lon": -77.03217966666666, "bike_id": "647cc9f908841f50c9f7f7c94ae6f4dc", "lat": 38.897326166666666, "fusion_lon": 0.0, "fusion_lat": 0.0, "type": "electric_scooter", "name": "647cc9f908841f50c9f7f7c94ae6f4dc", "is_disabled": 0, "rental_uris": {"ios": "https://dc.lft.to/lastmile_qr_scan", "android": "https://dc.lft.to/lastmile_qr_scan"}, "is_reserved": 0}, {"lon": -76.99830866666667, "bike_id": "97ff4012508cf090859847792268b714", "lat": 38.90000833333333, "fusion_lon": 0.0, "fusion_lat": 0.0, "type": "electric_bike", "name": "97ff4012508cf090859847792268b714", "is_disabled": 0, "rental_uris": {"ios": "https://dc.lft.to/lastmile_qr_scan", "android": "https://dc.lft.to/lastmile_qr_scan"}, "is_reserved": 0}, {"lon": -77.02007566666667, "bike_id": "28a61edb45e3e955268b06748e3b7ca4", "lat": 38.92411366666666, "fusion_lon": 0.0, "fusion_lat": 0.0, "type": "electric_scooter", "name": "28a61edb45e3e955268b06748e3b7ca4", "is_disabled": 0, "rental_uris": {"ios": "https://dc.lft.to/lastmile_qr_scan", "android": "https://dc.lft.to/lastmile_qr_scan"}, "is_reserved": 0}, {"lon": -76.98983933333334, "bike_id": "af150ad240a469d9d706ec2601cdfa03", "lat": 38.933642166666665, "fusion_lon": 0.0, "fusion_lat": 0.0, "type": "electric_scooter", "name": "af150ad240a469d9d706ec2601cdfa03", "is_disabled": 0, "rental_uris": {"ios": "https://dc.lft.to/lastmile_qr_scan", "android": "https://dc.lft.to/lastmile_qr_scan"}, "is_reserved": 0}, {"lon": -77.05740283333333, "bike_id": "f1a3e0130ec237beeec03a40e5155c5f", "lat": 38.93348966666667, "fusion_lon": 0.0, "fusion_lat": 0.0, "type": "electric_scooter", "name": "f1a3e0130ec237beeec03a40e5155c5f", "is_disabled": 0, "rental_uris": {"ios": "https://dc.lft.to/lastmile_qr_scan", "android": "https://dc.lft.to/lastmile_qr_scan"}, "is_reserved": 0}, {"lon": -77.05, "bike_id": "2768864b740efb0ea81f94bcbd515e93", "lat": 38.8919505, "fusion_lon": 0.0, "fusion_lat": 0.0, "type": "electric_scooter", "name": "2768864b740efb0ea81f94bcbd515e93", "is_disabled": 0, "rental_uris": {"ios": "https://dc.lft.to/lastmile_qr_scan", "android": "https://dc.lft.to/lastmile_qr_scan"}, "is_reserved": 0}, {"lon": -76.98243433333333, "bike_id": "2f0b848880022598abb1bb8dc751d77c", "lat": 38.86458616666667, "fusion_lon": 0.0, "fusion_lat": 0.0, "type": "electric_scooter", "name": "2f0b848880022598abb1bb8dc751d77c", "is_disabled": 0, "rental_uris": {"ios": "https://dc.lft.to/lastmile_qr_scan", "android": "https://dc.lft.to/lastmile_qr_scan"}, "is_reserved": 0}, {"lon": -77.05004466666666, "bike_id": "4852e46ad961665b88f83ea1b5ec2148", "lat": 38.89196883333334, "fusion_lon": 0.0, "fusion_lat": 0.0, "type": "electric_scooter", "name": "4852e46ad961665b88f83ea1b5ec2148", "is_disabled": 0, "rental_uris": {"ios": "https://dc.lft.to/lastmile_qr_scan", "android": "https://dc.lft.to/lastmile_qr_scan"}, "is_reserved": 0}, {"lon": -77.02089483333333, "bike_id": "5b152dd22eea7b42abb4354659b308d2", "lat": 38.91128716666667, "fusion_lon": 0.0, "fusion_lat": 0.0, "type": "electric_scooter", "name": "5b152dd22eea7b42abb4354659b308d2", "is_disabled": 0, "rental_uris": {"ios": "https://dc.lft.to/lastmile_qr_scan", "android": "https://dc.lft.to/lastmile_qr_scan"}, "is_reserved": 0}, {"lon": -77.036641, "bike_id": "c6580e88cc29366d97ff5af99258a91a", "lat": 38.93341383333333, "fusion_lon": 0.0, "fusion_lat": 0.0, "type": "electric_scooter", "name": "c6580e88cc29366d97ff5af99258a91a", "is_disabled": 0, "rental_uris": {"ios": "https://dc.lft.to/lastmile_qr_scan", "android": "https://dc.lft.to/lastmile_qr_scan"}, "is_reserved": 0}, {"lon": -77.00957133333333, "bike_id": "a259373c9499d1a5065458856bc1ae36", "lat": 38.921385666666666, "fusion_lon": 0.0, "fusion_lat": 0.0, "type": "electric_scooter", "name": "a259373c9499d1a5065458856bc1ae36", "is_disabled": 0, "rental_uris": {"ios": "https://dc.lft.to/lastmile_qr_scan", "android": "https://dc.lft.to/lastmile_qr_scan"}, "is_reserved": 0}, {"lon": -77.04842383333333, "bike_id": "7fab974b0ef40358fa90b13782ed329a", "lat": 38.88965666666667, "fusion_lon": 0.0, "fusion_lat": 0.0, "type": "electric_scooter", "name": "7fab974b0ef40358fa90b13782ed329a", "is_disabled": 0, "rental_uris": {"ios": "https://dc.lft.to/lastmile_qr_scan", "android": "https://dc.lft.to/lastmile_qr_scan"}, "is_reserved": 0}, {"lon": -77.0323045, "bike_id": "2da518fa778b187d32c4cb7536d75842", "lat": 38.92999966666667, "fusion_lon": 0.0, "fusion_lat": 0.0, "type": "electric_scooter", "name": "2da518fa778b187d32c4cb7536d75842", "is_disabled": 0, "rental_uris": {"ios": "https://dc.lft.to/lastmile_qr_scan", "android": "https://dc.lft.to/lastmile_qr_scan"}, "is_reserved": 0}, {"lon": -76.99917566666667, "bike_id": "40bfc419fa04bca37d91a87666e3f990", "lat": 38.8897445, "fusion_lon": 0.0, "fusion_lat": 0.0, "type": "electric_scooter", "name": "40bfc419fa04bca37d91a87666e3f990", "is_disabled": 0, "rental_uris": {"ios": "https://dc.lft.to/lastmile_qr_scan", "android": "https://dc.lft.to/lastmile_qr_scan"}, "is_reserved": 0}, {"lon": -77.031022, "bike_id": "308e4920df05c4b41a4a76641c2c743c", "lat": 38.89732, "fusion_lon": 0.0, "fusion_lat": 0.0, "type": "electric_scooter", "name": "308e4920df05c4b41a4a76641c2c743c", "is_disabled": 0, "rental_uris": {"ios": "https://dc.lft.to/lastmile_qr_scan", "android": "https://dc.lft.to/lastmile_qr_scan"}, "is_reserved": 0}, {"lon": -77.02289833333333, "bike_id": "302bdac381fa8a86910dd43c26fac20b", "lat": 38.918421, "fusion_lon": 0.0, "fusion_lat": 0.0, "type": "electric_scooter", "name": "302bdac381fa8a86910dd43c26fac20b", "is_disabled": 0, "rental_uris": {"ios": "https://dc.lft.to/lastmile_qr_scan", "android": "https://dc.lft.to/lastmile_qr_scan"}, "is_reserved": 0}, {"lon": -77.03323983333334, "bike_id": "9d14e5a947b4661a6638dd52b2d22a18", "lat": 38.92654133333333, "fusion_lon": 0.0, "fusion_lat": 0.0, "type": "electric_scooter", "name": "9d14e5a947b4661a6638dd52b2d22a18", "is_disabled": 0, "rental_uris": {"ios": "https://dc.lft.to/lastmile_qr_scan", "android": "https://dc.lft.to/lastmile_qr_scan"}, "is_reserved": 0}, {"lon": -77.03857383333333, "bike_id": "77e3e6a170221fa478703dc4829d5c8c", "lat": 38.917174833333334, "fusion_lon": 0.0, "fusion_lat": 0.0, "type": "electric_scooter", "name": "77e3e6a170221fa478703dc4829d5c8c", "is_disabled": 0, "rental_uris": {"ios": "https://dc.lft.to/lastmile_qr_scan", "android": "https://dc.lft.to/lastmile_qr_scan"}, "is_reserved": 0}, {"lon": -76.98108033333334, "bike_id": "cfe6cab4196a76a07b258f8ef4db25a5", "lat": 38.877301333333335, "fusion_lon": 0.0, "fusion_lat": 0.0, "type": "electric_bike", "name": "cfe6cab4196a76a07b258f8ef4db25a5", "is_disabled": 0, "rental_uris": {"ios": "https://dc.lft.to/lastmile_qr_scan", "android": "https://dc.lft.to/lastmile_qr_scan"}, "is_reserved": 0}, {"lon": -77.03298316666667, "bike_id": "853a2d46248d04c432fe9152d62d1b36", "lat": 38.93034566666667, "fusion_lon": 0.0, "fusion_lat": 0.0, "type": "electric_scooter", "name": "853a2d46248d04c432fe9152d62d1b36", "is_disabled": 0, "rental_uris": {"ios": "https://dc.lft.to/lastmile_qr_scan", "android": "https://dc.lft.to/lastmile_qr_scan"}, "is_reserved": 0}, {"lon": -77.00066666666666, "bike_id": "fa344517b8528563164dea590acbac3a", "lat": 38.886699166666666, "fusion_lon": 0.0, "fusion_lat": 0.0, "type": "electric_scooter", "name": "fa344517b8528563164dea590acbac3a", "is_disabled": 0, "rental_uris": {"ios": "https://dc.lft.to/lastmile_qr_scan", "android": "https://dc.lft.to/lastmile_qr_scan"}, "is_reserved": 0}, {"lon": -77.0003485, "bike_id": "96f4fae6c1552dae041844d02ec1cadc", "lat": 38.96785333333333, "fusion_lon": 0.0, "fusion_lat": 0.0, "type": "electric_bike", "name": "96f4fae6c1552dae041844d02ec1cadc", "is_disabled": 0, "rental_uris": {"ios": "https://dc.lft.to/lastmile_qr_scan", "android": "https://dc.lft.to/lastmile_qr_scan"}, "is_reserved": 0}, {"lon": -77.045668, "bike_id": "4bf447f2c105f2d465394a1bc26747f3", "lat": 38.896048666666665, "fusion_lon": 0.0, "fusion_lat": 0.0, "type": "electric_scooter", "name": "4bf447f2c105f2d465394a1bc26747f3", "is_disabled": 0, "rental_uris": {"ios": "https://dc.lft.to/lastmile_qr_scan", "android": "https://dc.lft.to/lastmile_qr_scan"}, "is_reserved": 0}, {"lon": -77.03186266666667, "bike_id": "43b8dc34f781a5c0a766f166b2e085f1", "lat": 38.91745216666666, "fusion_lon": 0.0, "fusion_lat": 0.0, "type": "electric_scooter", "name": "43b8dc34f781a5c0a766f166b2e085f1", "is_disabled": 0, "rental_uris": {"ios": "https://dc.lft.to/lastmile_qr_scan", "android": "https://dc.lft.to/lastmile_qr_scan"}, "is_reserved": 0}, {"lon": -77.05042466666667, "bike_id": "bbdf7f98ae2a04f0726c3ef75f01f61e", "lat": 38.9236145, "fusion_lon": 0.0, "fusion_lat": 0.0, "type": "electric_scooter", "name": "bbdf7f98ae2a04f0726c3ef75f01f61e", "is_disabled": 0, "rental_uris": {"ios": "https://dc.lft.to/lastmile_qr_scan", "android": "https://dc.lft.to/lastmile_qr_scan"}, "is_reserved": 0}, {"lon": -77.03798783333333, "bike_id": "480fb5d4f5fef537c066f933193f29d9", "lat": 38.9103855, "fusion_lon": 0.0, "fusion_lat": 0.0, "type": "electric_scooter", "name": "480fb5d4f5fef537c066f933193f29d9", "is_disabled": 0, "rental_uris": {"ios": "https://dc.lft.to/lastmile_qr_scan", "android": "https://dc.lft.to/lastmile_qr_scan"}, "is_reserved": 0}, {"lon": -77.03312533333333, "bike_id": "3ae2442f3f7dcb218c441e2d3f48a378", "lat": 38.901368166666664, "fusion_lon": 0.0, "fusion_lat": 0.0, "type": "electric_scooter", "name": "3ae2442f3f7dcb218c441e2d3f48a378", "is_disabled": 0, "rental_uris": {"ios": "https://dc.lft.to/lastmile_qr_scan", "android": "https://dc.lft.to/lastmile_qr_scan"}, "is_reserved": 0}, {"lon": -77.03272483333333, "bike_id": "30417b42ec680d753aa48642881eebaa", "lat": 38.92847583333333, "fusion_lon": 0.0, "fusion_lat": 0.0, "type": "electric_scooter", "name": "30417b42ec680d753aa48642881eebaa", "is_disabled": 0, "rental_uris": {"ios": "https://dc.lft.to/lastmile_qr_scan", "android": "https://dc.lft.to/lastmile_qr_scan"}, "is_reserved": 0}, {"lon": -77.026522, "bike_id": "3d3e636783bf647b425006d56d35cfe7", "lat": 38.92778533333333, "fusion_lon": 0.0, "fusion_lat": 0.0, "type": "electric_scooter", "name": "3d3e636783bf647b425006d56d35cfe7", "is_disabled": 0, "rental_uris": {"ios": "https://dc.lft.to/lastmile_qr_scan", "android": "https://dc.lft.to/lastmile_qr_scan"}, "is_reserved": 0}, {"lon": -77.05031433333333, "bike_id": "2b38726a73fd173cf96457d8ed84dfad", "lat": 38.900428166666664, "fusion_lon": 0.0, "fusion_lat": 0.0, "type": "electric_scooter", "name": "2b38726a73fd173cf96457d8ed84dfad", "is_disabled": 0, "rental_uris": {"ios": "https://dc.lft.to/lastmile_qr_scan", "android": "https://dc.lft.to/lastmile_qr_scan"}, "is_reserved": 0}, {"lon": -77.0019805, "bike_id": "3dbee17134c4cdec2d39336ad081b144", "lat": 38.9024355, "fusion_lon": 0.0, "fusion_lat": 0.0, "type": "electric_scooter", "name": "3dbee17134c4cdec2d39336ad081b144", "is_disabled": 0, "rental_uris": {"ios": "https://dc.lft.to/lastmile_qr_scan", "android": "https://dc.lft.to/lastmile_qr_scan"}, "is_reserved": 0}, {"lon": -77.03659116666667, "bike_id": "76b9ab6c3ca1f6b3bef071dc1c40cc81", "lat": 38.9213745, "fusion_lon": 0.0, "fusion_lat": 0.0, "type": "electric_scooter", "name": "76b9ab6c3ca1f6b3bef071dc1c40cc81", "is_disabled": 0, "rental_uris": {"ios": "https://dc.lft.to/lastmile_qr_scan", "android": "https://dc.lft.to/lastmile_qr_scan"}, "is_reserved": 0}, {"lon": -77.0387755, "bike_id": "40367a1fcb626ee43753080000b94acb", "lat": 38.92965683333333, "fusion_lon": 0.0, "fusion_lat": 0.0, "type": "electric_scooter", "name": "40367a1fcb626ee43753080000b94acb", "is_disabled": 0, "rental_uris": {"ios": "https://dc.lft.to/lastmile_qr_scan", "android": "https://dc.lft.to/lastmile_qr_scan"}, "is_reserved": 0}, {"lon": -77.05435516666667, "bike_id": "dd0b41fc297287f1de3ee62ad21feff1", "lat": 38.836805166666664, "fusion_lon": 0.0, "fusion_lat": 0.0, "type": "electric_bike", "name": "dd0b41fc297287f1de3ee62ad21feff1", "is_disabled": 0, "rental_uris": {"ios": "https://dc.lft.to/lastmile_qr_scan", "android": "https://dc.lft.to/lastmile_qr_scan"}, "is_reserved": 0}, {"lon": -77.03204616666666, "bike_id": "21bed85c17a5a7c19d68bcccbb07c253", "lat": 38.944093333333335, "fusion_lon": 0.0, "fusion_lat": 0.0, "type": "electric_scooter", "name": "21bed85c17a5a7c19d68bcccbb07c253", "is_disabled": 0, "rental_uris": {"ios": "https://dc.lft.to/lastmile_qr_scan", "android": "https://dc.lft.to/lastmile_qr_scan"}, "is_reserved": 0}, {"lon": -77.0234105, "bike_id": "003abc80935fd0acbf429b40d865330d", "lat": 38.921032833333335, "fusion_lon": 0.0, "fusion_lat": 0.0, "type": "electric_scooter", "name": "003abc80935fd0acbf429b40d865330d", "is_disabled": 0, "rental_uris": {"ios": "https://dc.lft.to/lastmile_qr_scan", "android": "https://dc.lft.to/lastmile_qr_scan"}, "is_reserved": 0}, {"lon": -77.03340166666666, "bike_id": "e5aa8c67b80ad951949b74be26fbe6a3", "lat": 38.91912266666667, "fusion_lon": 0.0, "fusion_lat": 0.0, "type": "electric_scooter", "name": "e5aa8c67b80ad951949b74be26fbe6a3", "is_disabled": 0, "rental_uris": {"ios": "https://dc.lft.to/lastmile_qr_scan", "android": "https://dc.lft.to/lastmile_qr_scan"}, "is_reserved": 0}, {"lon": -77.01438266666666, "bike_id": "9424760a2070436387f39e444fc3b269", "lat": 38.920731333333336, "fusion_lon": 0.0, "fusion_lat": 0.0, "type": "electric_scooter", "name": "9424760a2070436387f39e444fc3b269", "is_disabled": 0, "rental_uris": {"ios": "https://dc.lft.to/lastmile_qr_scan", "android": "https://dc.lft.to/lastmile_qr_scan"}, "is_reserved": 0}, {"lon": -76.98840483333333, "bike_id": "1e3eb6d48d88605b840e1a0f7b877c64", "lat": 38.9008105, "fusion_lon": 0.0, "fusion_lat": 0.0, "type": "electric_scooter", "name": "1e3eb6d48d88605b840e1a0f7b877c64", "is_disabled": 0, "rental_uris": {"ios": "https://dc.lft.to/lastmile_qr_scan", "android": "https://dc.lft.to/lastmile_qr_scan"}, "is_reserved": 0}, {"lon": -77.05046266666666, "bike_id": "ac073087d849d7dbbcb3116020b9cd0e", "lat": 38.92362116666666, "fusion_lon": 0.0, "fusion_lat": 0.0, "type": "electric_scooter", "name": "ac073087d849d7dbbcb3116020b9cd0e", "is_disabled": 0, "rental_uris": {"ios": "https://dc.lft.to/lastmile_qr_scan", "android": "https://dc.lft.to/lastmile_qr_scan"}, "is_reserved": 0}, {"lon": -76.99471883333334, "bike_id": "28d245d4ffe764208fc3ec4889099b13", "lat": 38.8622115, "fusion_lon": 0.0, "fusion_lat": 0.0, "type": "electric_scooter", "name": "28d245d4ffe764208fc3ec4889099b13", "is_disabled": 0, "rental_uris": {"ios": "https://dc.lft.to/lastmile_qr_scan", "android": "https://dc.lft.to/lastmile_qr_scan"}, "is_reserved": 0}, {"lon": -77.03374233333334, "bike_id": "79640fdc243b63c828961b5a02110a60", "lat": 38.921628, "fusion_lon": 0.0, "fusion_lat": 0.0, "type": "electric_scooter", "name": "79640fdc243b63c828961b5a02110a60", "is_disabled": 0, "rental_uris": {"ios": "https://dc.lft.to/lastmile_qr_scan", "android": "https://dc.lft.to/lastmile_qr_scan"}, "is_reserved": 0}, {"lon": -77.04235133333333, "bike_id": "5e98b42e029c44173c94935c415650e5", "lat": 38.91633983333333, "fusion_lon": 0.0, "fusion_lat": 0.0, "type": "electric_scooter", "name": "5e98b42e029c44173c94935c415650e5", "is_disabled": 0, "rental_uris": {"ios": "https://dc.lft.to/lastmile_qr_scan", "android": "https://dc.lft.to/lastmile_qr_scan"}, "is_reserved": 0}, {"lon": -77.02364366666667, "bike_id": "2d95efb552f53a2991e5c3bbe23b4736", "lat": 38.88473533333333, "fusion_lon": 0.0, "fusion_lat": 0.0, "type": "electric_scooter", "name": "2d95efb552f53a2991e5c3bbe23b4736", "is_disabled": 0, "rental_uris": {"ios": "https://dc.lft.to/lastmile_qr_scan", "android": "https://dc.lft.to/lastmile_qr_scan"}, "is_reserved": 0}, {"lon": -77.0560575, "bike_id": "bd223001a6a4d76a8d2e3dda0ae81c5f", "lat": 38.93161966666667, "fusion_lon": 0.0, "fusion_lat": 0.0, "type": "electric_scooter", "name": "bd223001a6a4d76a8d2e3dda0ae81c5f", "is_disabled": 0, "rental_uris": {"ios": "https://dc.lft.to/lastmile_qr_scan", "android": "https://dc.lft.to/lastmile_qr_scan"}, "is_reserved": 0}, {"lon": -77.06082483333333, "bike_id": "3087d887e0cab419972847c50240ee82", "lat": 38.943646666666666, "fusion_lon": 0.0, "fusion_lat": 0.0, "type": "electric_scooter", "name": "3087d887e0cab419972847c50240ee82", "is_disabled": 0, "rental_uris": {"ios": "https://dc.lft.to/lastmile_qr_scan", "android": "https://dc.lft.to/lastmile_qr_scan"}, "is_reserved": 0}, {"lon": -77.0449995, "bike_id": "b3c16e5339b6b794209bc8265816119d", "lat": 38.9072835, "fusion_lon": 0.0, "fusion_lat": 0.0, "type": "electric_scooter", "name": "b3c16e5339b6b794209bc8265816119d", "is_disabled": 0, "rental_uris": {"ios": "https://dc.lft.to/lastmile_qr_scan", "android": "https://dc.lft.to/lastmile_qr_scan"}, "is_reserved": 0}, {"lon": -76.98371533333334, "bike_id": "f255bc7a3c65935a9a80e9ae50d26380", "lat": 38.8896415, "fusion_lon": 0.0, "fusion_lat": 0.0, "type": "electric_scooter", "name": "f255bc7a3c65935a9a80e9ae50d26380", "is_disabled": 0, "rental_uris": {"ios": "https://dc.lft.to/lastmile_qr_scan", "android": "https://dc.lft.to/lastmile_qr_scan"}, "is_reserved": 0}, {"lon": -77.06007133333334, "bike_id": "04b3b64c023b060ad34a7f05cd413ae7", "lat": 38.9011685, "fusion_lon": 0.0, "fusion_lat": 0.0, "type": "electric_scooter", "name": "04b3b64c023b060ad34a7f05cd413ae7", "is_disabled": 0, "rental_uris": {"ios": "https://dc.lft.to/lastmile_qr_scan", "android": "https://dc.lft.to/lastmile_qr_scan"}, "is_reserved": 0}, {"lon": -77.05043566666667, "bike_id": "8ab58bcb877c777c7139cdcb2b45bfdc", "lat": 38.92361416666667, "fusion_lon": 0.0, "fusion_lat": 0.0, "type": "electric_scooter", "name": "8ab58bcb877c777c7139cdcb2b45bfdc", "is_disabled": 0, "rental_uris": {"ios": "https://dc.lft.to/lastmile_qr_scan", "android": "https://dc.lft.to/lastmile_qr_scan"}, "is_reserved": 0}, {"lon": -77.0078225, "bike_id": "81a4b7669382791bea6fde0737c315bd", "lat": 38.90569466666667, "fusion_lon": 0.0, "fusion_lat": 0.0, "type": "electric_scooter", "name": "81a4b7669382791bea6fde0737c315bd", "is_disabled": 0, "rental_uris": {"ios": "https://dc.lft.to/lastmile_qr_scan", "android": "https://dc.lft.to/lastmile_qr_scan"}, "is_reserved": 0}, {"lon": -77.03188983333334, "bike_id": "6117b6b93d204979e28f92887d5707fe", "lat": 38.916297, "fusion_lon": 0.0, "fusion_lat": 0.0, "type": "electric_scooter", "name": "6117b6b93d204979e28f92887d5707fe", "is_disabled": 0, "rental_uris": {"ios": "https://dc.lft.to/lastmile_qr_scan", "android": "https://dc.lft.to/lastmile_qr_scan"}, "is_reserved": 0}, {"lon": -77.03261433333333, "bike_id": "d96e64c2d0f050e226e0127294735380", "lat": 38.93775016666667, "fusion_lon": 0.0, "fusion_lat": 0.0, "type": "electric_scooter", "name": "d96e64c2d0f050e226e0127294735380", "is_disabled": 0, "rental_uris": {"ios": "https://dc.lft.to/lastmile_qr_scan", "android": "https://dc.lft.to/lastmile_qr_scan"}, "is_reserved": 0}, {"lon": -77.0219205, "bike_id": "e224fcffefdeed770723f2cfe24ed846", "lat": 38.9291745, "fusion_lon": 0.0, "fusion_lat": 0.0, "type": "electric_scooter", "name": "e224fcffefdeed770723f2cfe24ed846", "is_disabled": 0, "rental_uris": {"ios": "https://dc.lft.to/lastmile_qr_scan", "android": "https://dc.lft.to/lastmile_qr_scan"}, "is_reserved": 0}, {"lon": -77.059244, "bike_id": "c4739ec50132929afb0d75b56ec584df", "lat": 38.90373183333333, "fusion_lon": 0.0, "fusion_lat": 0.0, "type": "electric_bike", "name": "c4739ec50132929afb0d75b56ec584df", "is_disabled": 0, "rental_uris": {"ios": "https://dc.lft.to/lastmile_qr_scan", "android": "https://dc.lft.to/lastmile_qr_scan"}, "is_reserved": 0}, {"lon": -76.9890605, "bike_id": "d7089dcd816d584fd5c6269d4d996306", "lat": 38.866674833333335, "fusion_lon": 0.0, "fusion_lat": 0.0, "type": "electric_scooter", "name": "d7089dcd816d584fd5c6269d4d996306", "is_disabled": 0, "rental_uris": {"ios": "https://dc.lft.to/lastmile_qr_scan", "android": "https://dc.lft.to/lastmile_qr_scan"}, "is_reserved": 0}, {"lon": -77.03458133333334, "bike_id": "55d9f9728eecba088a8dba3490734fd9", "lat": 38.9086935, "fusion_lon": 0.0, "fusion_lat": 0.0, "type": "electric_scooter", "name": "55d9f9728eecba088a8dba3490734fd9", "is_disabled": 0, "rental_uris": {"ios": "https://dc.lft.to/lastmile_qr_scan", "android": "https://dc.lft.to/lastmile_qr_scan"}, "is_reserved": 0}, {"lon": -77.04473383333334, "bike_id": "0a4283d5445c167cae298d854fe75bef", "lat": 38.91364816666667, "fusion_lon": 0.0, "fusion_lat": 0.0, "type": "electric_scooter", "name": "0a4283d5445c167cae298d854fe75bef", "is_disabled": 0, "rental_uris": {"ios": "https://dc.lft.to/lastmile_qr_scan", "android": "https://dc.lft.to/lastmile_qr_scan"}, "is_reserved": 0}, {"lon": -77.0189995, "bike_id": "24843dd89cd1a54057081f8b8f549d72", "lat": 38.908996333333334, "fusion_lon": 0.0, "fusion_lat": 0.0, "type": "electric_scooter", "name": "24843dd89cd1a54057081f8b8f549d72", "is_disabled": 0, "rental_uris": {"ios": "https://dc.lft.to/lastmile_qr_scan", "android": "https://dc.lft.to/lastmile_qr_scan"}, "is_reserved": 0}, {"lon": -77.02517066666667, "bike_id": "98a51646dcaf2ed6e033ab45409263a6", "lat": 38.912657, "fusion_lon": 0.0, "fusion_lat": 0.0, "type": "electric_scooter", "name": "98a51646dcaf2ed6e033ab45409263a6", "is_disabled": 0, "rental_uris": {"ios": "https://dc.lft.to/lastmile_qr_scan", "android": "https://dc.lft.to/lastmile_qr_scan"}, "is_reserved": 0}, {"lon": -76.96525933333334, "bike_id": "5fc15f5e01495f73f892a03b3d80950b", "lat": 38.876295999999996, "fusion_lon": 0.0, "fusion_lat": 0.0, "type": "electric_scooter", "name": "5fc15f5e01495f73f892a03b3d80950b", "is_disabled": 0, "rental_uris": {"ios": "https://dc.lft.to/lastmile_qr_scan", "android": "https://dc.lft.to/lastmile_qr_scan"}, "is_reserved": 0}, {"lon": -77.04176616666666, "bike_id": "671a4fb5821aa0e80e70f936731c62bb", "lat": 38.919802833333335, "fusion_lon": 0.0, "fusion_lat": 0.0, "type": "electric_scooter", "name": "671a4fb5821aa0e80e70f936731c62bb", "is_disabled": 0, "rental_uris": {"ios": "https://dc.lft.to/lastmile_qr_scan", "android": "https://dc.lft.to/lastmile_qr_scan"}, "is_reserved": 0}, {"lon": -77.0059575, "bike_id": "10ad8598536cc997d7cbd81882d01aa1", "lat": 38.871843, "fusion_lon": 0.0, "fusion_lat": 0.0, "type": "electric_scooter", "name": "10ad8598536cc997d7cbd81882d01aa1", "is_disabled": 0, "rental_uris": {"ios": "https://dc.lft.to/lastmile_qr_scan", "android": "https://dc.lft.to/lastmile_qr_scan"}, "is_reserved": 0}, {"lon": -76.98492483333334, "bike_id": "ef5bb657f01070550cfed8b9975539bb", "lat": 38.87831666666666, "fusion_lon": 0.0, "fusion_lat": 0.0, "type": "electric_scooter", "name": "ef5bb657f01070550cfed8b9975539bb", "is_disabled": 0, "rental_uris": {"ios": "https://dc.lft.to/lastmile_qr_scan", "android": "https://dc.lft.to/lastmile_qr_scan"}, "is_reserved": 0}, {"lon": -77.021737, "bike_id": "ea694fb249b5a0d32b0b45f211876ad2", "lat": 38.887190833333335, "fusion_lon": 0.0, "fusion_lat": 0.0, "type": "electric_scooter", "name": "ea694fb249b5a0d32b0b45f211876ad2", "is_disabled": 0, "rental_uris": {"ios": "https://dc.lft.to/lastmile_qr_scan", "android": "https://dc.lft.to/lastmile_qr_scan"}, "is_reserved": 0}, {"lon": -77.02363166666666, "bike_id": "921da35880a487c5dd461361aba7a28c", "lat": 38.89221783333333, "fusion_lon": 0.0, "fusion_lat": 0.0, "type": "electric_scooter", "name": "921da35880a487c5dd461361aba7a28c", "is_disabled": 0, "rental_uris": {"ios": "https://dc.lft.to/lastmile_qr_scan", "android": "https://dc.lft.to/lastmile_qr_scan"}, "is_reserved": 0}, {"lon": -76.98723716666666, "bike_id": "af18f594a4233f42a06d9f4b40d6a072", "lat": 38.86708183333333, "fusion_lon": 0.0, "fusion_lat": 0.0, "type": "electric_scooter", "name": "af18f594a4233f42a06d9f4b40d6a072", "is_disabled": 0, "rental_uris": {"ios": "https://dc.lft.to/lastmile_qr_scan", "android": "https://dc.lft.to/lastmile_qr_scan"}, "is_reserved": 0}, {"lon": -77.0442, "bike_id": "99e871abf50bd928e90d77688f3ec6af", "lat": 38.911271, "fusion_lon": 0.0, "fusion_lat": 0.0, "type": "electric_scooter", "name": "99e871abf50bd928e90d77688f3ec6af", "is_disabled": 0, "rental_uris": {"ios": "https://dc.lft.to/lastmile_qr_scan", "android": "https://dc.lft.to/lastmile_qr_scan"}, "is_reserved": 0}, {"lon": -77.02084433333333, "bike_id": "d652b1ca4c918180de49537fe68d2a5e", "lat": 38.95746416666667, "fusion_lon": 0.0, "fusion_lat": 0.0, "type": "electric_scooter", "name": "d652b1ca4c918180de49537fe68d2a5e", "is_disabled": 0, "rental_uris": {"ios": "https://dc.lft.to/lastmile_qr_scan", "android": "https://dc.lft.to/lastmile_qr_scan"}, "is_reserved": 0}, {"lon": -77.01433866666666, "bike_id": "b29acc7a957055aee6edc7411a0725b2", "lat": 38.879329, "fusion_lon": 0.0, "fusion_lat": 0.0, "type": "electric_bike", "name": "b29acc7a957055aee6edc7411a0725b2", "is_disabled": 0, "rental_uris": {"ios": "https://dc.lft.to/lastmile_qr_scan", "android": "https://dc.lft.to/lastmile_qr_scan"}, "is_reserved": 0}, {"lon": -76.94570466666667, "bike_id": "5b7f2036d93123be57315854605dbb63", "lat": 38.86621933333333, "fusion_lon": 0.0, "fusion_lat": 0.0, "type": "electric_bike", "name": "5b7f2036d93123be57315854605dbb63", "is_disabled": 0, "rental_uris": {"ios": "https://dc.lft.to/lastmile_qr_scan", "android": "https://dc.lft.to/lastmile_qr_scan"}, "is_reserved": 0}, {"lon": -77.03334683333334, "bike_id": "7851e497df9d4ee95d21486d130585d0", "lat": 38.936418333333336, "fusion_lon": 0.0, "fusion_lat": 0.0, "type": "electric_scooter", "name": "7851e497df9d4ee95d21486d130585d0", "is_disabled": 0, "rental_uris": {"ios": "https://dc.lft.to/lastmile_qr_scan", "android": "https://dc.lft.to/lastmile_qr_scan"}, "is_reserved": 0}, {"lon": -77.039615, "bike_id": "1e6ce6e6d91bcf1d12a24cfdb4b27dac", "lat": 38.91359716666667, "fusion_lon": 0.0, "fusion_lat": 0.0, "type": "electric_scooter", "name": "1e6ce6e6d91bcf1d12a24cfdb4b27dac", "is_disabled": 0, "rental_uris": {"ios": "https://dc.lft.to/lastmile_qr_scan", "android": "https://dc.lft.to/lastmile_qr_scan"}, "is_reserved": 0}, {"lon": -77.03181883333333, "bike_id": "098c3c8edeed25f91b79f6288a6663d0", "lat": 38.91836166666667, "fusion_lon": 0.0, "fusion_lat": 0.0, "type": "electric_scooter", "name": "098c3c8edeed25f91b79f6288a6663d0", "is_disabled": 0, "rental_uris": {"ios": "https://dc.lft.to/lastmile_qr_scan", "android": "https://dc.lft.to/lastmile_qr_scan"}, "is_reserved": 0}, {"lon": -77.05573866666667, "bike_id": "357680c58ab165904d9aa1caf543038b", "lat": 38.91597566666667, "fusion_lon": 0.0, "fusion_lat": 0.0, "type": "electric_scooter", "name": "357680c58ab165904d9aa1caf543038b", "is_disabled": 0, "rental_uris": {"ios": "https://dc.lft.to/lastmile_qr_scan", "android": "https://dc.lft.to/lastmile_qr_scan"}, "is_reserved": 0}, {"lon": -77.025664, "bike_id": "4879496551f626f623935f4e65002322", "lat": 38.897310833333336, "fusion_lon": 0.0, "fusion_lat": 0.0, "type": "electric_scooter", "name": "4879496551f626f623935f4e65002322", "is_disabled": 0, "rental_uris": {"ios": "https://dc.lft.to/lastmile_qr_scan", "android": "https://dc.lft.to/lastmile_qr_scan"}, "is_reserved": 0}, {"lon": -77.03924716666667, "bike_id": "e78bf940df5d035441c2512cfbd02c23", "lat": 38.92615816666667, "fusion_lon": 0.0, "fusion_lat": 0.0, "type": "electric_scooter", "name": "e78bf940df5d035441c2512cfbd02c23", "is_disabled": 0, "rental_uris": {"ios": "https://dc.lft.to/lastmile_qr_scan", "android": "https://dc.lft.to/lastmile_qr_scan"}, "is_reserved": 0},