{"data": {"bikes": [{"lon": -76.9869515, "fusion_lon": 0.0, "bike_id": "913fe509839d49d4bf4e5f76fe756922", "type": "electric_scooter", "name": "913fe509839d49d4bf4e5f76fe756922", "rental_uris": {"android": "https://dc.lft.to/lastmile_qr_scan", "ios": "https://dc.lft.to/lastmile_qr_scan"}, "is_disabled": 0, "fusion_lat": 0.0, "lat": 38.867187, "is_reserved": 0}, {"lon": -77.0448695, "fusion_lon": 0.0, "bike_id": "2bd0f0176b533e368f149c4a3d1de380", "type": "electric_scooter", "name": "2bd0f0176b533e368f149c4a3d1de380", "rental_uris": {"android": "https://dc.lft.to/lastmile_qr_scan", "ios": "https://dc.lft.to/lastmile_qr_scan"}, "is_disabled": 0, "fusion_lat": 0.0, "lat": 38.8972, "is_reserved": 0}, {"lon": -77.14055083333334, "fusion_lon": 0.0, "bike_id": "098fabfbc1d974637e402eabc2e19cf9", "type": "electric_bike", "name": "098fabfbc1d974637e402eabc2e19cf9", "rental_uris": {"android": "https://dc.lft.to/lastmile_qr_scan", "ios": "https://dc.lft.to/lastmile_qr_scan"}, "is_disabled": 0, "fusion_lat": 0.0, "lat": 38.98770283333333, "is_reserved": 0}, {"lon": -77.022899, "fusion_lon": 0.0, "bike_id": "992e6e850f59907479215ba70a82232f", "type": "electric_scooter", "name": "992e6e850f59907479215ba70a82232f", "rental_uris": {"android": "https://dc.lft.to/lastmile_qr_scan", "ios": "https://dc.lft.to/lastmile_qr_scan"}, "is_disabled": 0, "fusion_lat": 0.0, "lat": 38.91573183333333, "is_reserved": 0}, {"lon": -77.04233283333333, "fusion_lon": 0.0, "bike_id": "677a7b510d4602a7db0d446b68db2f1c", "type": "electric_scooter", "name": "677a7b510d4602a7db0d446b68db2f1c", "rental_uris": {"android": "https://dc.lft.to/lastmile_qr_scan", "ios": "https://dc.lft.to/lastmile_qr_scan"}, "is_disabled": 0, "fusion_lat": 0.0, "lat": 38.92884983333333, "is_reserved": 0}, {"lon": -76.97328516666667, "fusion_lon": 0.0, "bike_id": "cda9b51074b0a9a64573a8999761ae60", "type": "electric_scooter", "name": "cda9b51074b0a9a64573a8999761ae60", "rental_uris": {"android": "https://dc.lft.to/lastmile_qr_scan", "ios": "https://dc.lft.to/lastmile_qr_scan"}, "is_disabled": 0, "fusion_lat": 0.0, "lat": 38.904122, "is_reserved": 0}, {"lon": -77.00306466666666, "fusion_lon": 0.0, "bike_id": "c003b1abac678f6dfa0cd22e026df91a", "type": "electric_scooter", "name": "c003b1abac678f6dfa0cd22e026df91a", "rental_uris": {"android": "https://dc.lft.to/lastmile_qr_scan", "ios": "https://dc.lft.to/lastmile_qr_scan"}, "is_disabled": 0, "fusion_lat": 0.0, "lat": 38.920436, "is_reserved": 0}, {"lon": -77.00796066666666, "fusion_lon": 0.0, "bike_id": "2668461e3ef263f6da1570d4ab8c179f", "type": "electric_scooter", "name": "2668461e3ef263f6da1570d4ab8c179f", "rental_uris": {"android": "https://dc.lft.to/lastmile_qr_scan", "ios": "https://dc.lft.to/lastmile_qr_scan"}, "is_disabled": 0, "fusion_lat": 0.0, "lat": 38.917026166666666, "is_reserved": 0}, {"lon": -77.00710466666666, "fusion_lon": 0.0, "bike_id": "0a70e7cb4f7e782de9ee6116914f781b", "type": "electric_scooter", "name": "0a70e7cb4f7e782de9ee6116914f781b", "rental_uris": {"android": "https://dc.lft.to/lastmile_qr_scan", "ios": "https://dc.lft.to/lastmile_qr_scan"}, "is_disabled": 0, "fusion_lat": 0.0, "lat": 38.884885833333335, "is_reserved": 0}, {"lon": -77.03183033333333, "fusion_lon": 0.0, "bike_id": "ec68e6acd7246e0d743df5fbb7bc6626", "type": "electric_scooter", "name": "ec68e6acd7246e0d743df5fbb7bc6626", "rental_uris": {"android": "https://dc.lft.to/lastmile_qr_scan", "ios": "https://dc.lft.to/lastmile_qr_scan"}, "is_disabled": 0, "fusion_lat": 0.0, "lat": 38.92487116666667, "is_reserved": 0}, {"lon": -77.01783316666666, "fusion_lon": 0.0, "bike_id": "9d224f5cce6c32ef7222b519113d31ef", "type": "electric_scooter", "name": "9d224f5cce6c32ef7222b519113d31ef", "rental_uris": {"android": "https://dc.lft.to/lastmile_qr_scan", "ios": "https://dc.lft.to/lastmile_qr_scan"}, "is_disabled": 0, "fusion_lat": 0.0, "lat": 38.902577666666666, "is_reserved": 0}, {"lon": -77.003465, "fusion_lon": 0.0, "bike_id": "9d4cb2fcfea79b84bfca582582b11c0b", "type": "electric_scooter", "name": "9d4cb2fcfea79b84bfca582582b11c0b", "rental_uris": {"android": "https://dc.lft.to/lastmile_qr_scan", "ios": "https://dc.lft.to/lastmile_qr_scan"}, "is_disabled": 0, "fusion_lat": 0.0, "lat": 38.88735483333333, "is_reserved": 0}, {"lon": -77.02691433333334, "fusion_lon": 0.0, "bike_id": "22ece7c26aea0da5cd4d5ef85d087241", "type": "electric_scooter", "name": "22ece7c26aea0da5cd4d5ef85d087241", "rental_uris": {"android": "https://dc.lft.to/lastmile_qr_scan", "ios": "https://dc.lft.to/lastmile_qr_scan"}, "is_disabled": 0, "fusion_lat": 0.0, "lat": 38.89459766666667, "is_reserved": 0}, {"lon": -77.03858133333334, "fusion_lon": 0.0, "bike_id": "3708a12909e1d0792247967e74c89689", "type": "electric_scooter", "name": "3708a12909e1d0792247967e74c89689", "rental_uris": {"android": "https://dc.lft.to/lastmile_qr_scan", "ios": "https://dc.lft.to/lastmile_qr_scan"}, "is_disabled": 0, "fusion_lat": 0.0, "lat": 38.91715883333333, "is_reserved": 0}, {"lon": -77.00598866666667, "fusion_lon": 0.0, "bike_id": "82c3b86edb62b915d339cadc6b50b402", "type": "electric_scooter", "name": "82c3b86edb62b915d339cadc6b50b402", "rental_uris": {"android": "https://dc.lft.to/lastmile_qr_scan", "ios": "https://dc.lft.to/lastmile_qr_scan"}, "is_disabled": 0, "fusion_lat": 0.0, "lat": 38.905695333333334, "is_reserved": 0}, {"lon": -77.07251466666666, "fusion_lon": 0.0, "bike_id": "a93cd0ea702e303fd3d69ef2358dfb32", "type": "electric_scooter", "name": "a93cd0ea702e303fd3d69ef2358dfb32", "rental_uris": {"android": "https://dc.lft.to/lastmile_qr_scan", "ios": "https://dc.lft.to/lastmile_qr_scan"}, "is_disabled": 0, "fusion_lat": 0.0, "lat": 38.9337755, "is_reserved": 0}, {"lon": -76.9896215, "fusion_lon": 0.0, "bike_id": "f1becf394472e7adecedbc87ad97dcd0", "type": "electric_bike", "name": "f1becf394472e7adecedbc87ad97dcd0", "rental_uris": {"android": "https://dc.lft.to/lastmile_qr_scan", "ios": "https://dc.lft.to/lastmile_qr_scan"}, "is_disabled": 0, "fusion_lat": 0.0, "lat": 38.899015, "is_reserved": 0}, {"lon": -77.022219, "fusion_lon": 0.0, "bike_id": "1d9b17050c84ef674192ba24502f8f85", "type": "electric_scooter", "name": "1d9b17050c84ef674192ba24502f8f85", "rental_uris": {"android": "https://dc.lft.to/lastmile_qr_scan", "ios": "https://dc.lft.to/lastmile_qr_scan"}, "is_disabled": 0, "fusion_lat": 0.0, "lat": 38.91272583333333, "is_reserved": 0}, {"lon": -77.0080195, "fusion_lon": 0.0, "bike_id": "821c03b2c3305ff5c1a3f57ba296e9c6", "type": "electric_bike", "name": "821c03b2c3305ff5c1a3f57ba296e9c6", "rental_uris": {"android": "https://dc.lft.to/lastmile_qr_scan", "ios": "https://dc.lft.to/lastmile_qr_scan"}, "is_disabled": 0, "fusion_lat": 0.0, "lat": 38.94928066666667, "is_reserved": 0}, {"lon": -77.00207933333333, "fusion_lon": 0.0, "bike_id": "bd65ca339ffda1ee29c45b97e82f76c4", "type": "electric_scooter", "name": "bd65ca339ffda1ee29c45b97e82f76c4", "rental_uris": {"android": "https://dc.lft.to/lastmile_qr_scan", "ios": "https://dc.lft.to/lastmile_qr_scan"}, "is_disabled": 0, "fusion_lat": 0.0, "lat": 38.9655735, "is_reserved": 0}, {"lon": -77.05722616666667, "fusion_lon": 0.0, "bike_id": "c471ca373132a098eee68dc42a9e66b1", "type": "electric_scooter", "name": "c471ca373132a098eee68dc42a9e66b1", "rental_uris": {"android": "https://dc.lft.to/lastmile_qr_scan", "ios": "https://dc.lft.to/lastmile_qr_scan"}, "is_disabled": 0, "fusion_lat": 0.0, "lat": 38.933647666666666, "is_reserved": 0}, {"lon": -77.02693766666667, "fusion_lon": 0.0, "bike_id": "351e093d296812f77e94845132b220f8", "type": "electric_scooter", "name": "351e093d296812f77e94845132b220f8", "rental_uris": {"android": "https://dc.lft.to/lastmile_qr_scan", "ios": "https://dc.lft.to/lastmile_qr_scan"}, "is_disabled": 0, "fusion_lat": 0.0, "lat": 38.90709016666667, "is_reserved": 0}, {"lon": -76.983573, "fusion_lon": 0.0, "bike_id": "b3273ba08738f8cc66bb009f76ff0572", "type": "electric_scooter", "name": "b3273ba08738f8cc66bb009f76ff0572", "rental_uris": {"android": "https://dc.lft.to/lastmile_qr_scan", "ios": "https://dc.lft.to/lastmile_qr_scan"}, "is_disabled": 0, "fusion_lat": 0.0, "lat": 38.894361, "is_reserved": 0}, {"lon": -77.023038, "fusion_lon": 0.0, "bike_id": "f6c316e6f9f25a598fb0b05a9c8848e7", "type": "electric_scooter", "name": "f6c316e6f9f25a598fb0b05a9c8848e7", "rental_uris": {"android": "https://dc.lft.to/lastmile_qr_scan", "ios": "https://dc.lft.to/lastmile_qr_scan"}, "is_disabled": 0, "fusion_lat": 0.0, "lat": 38.915933833333334, "is_reserved": 0}, {"lon": -77.02710283333333, "fusion_lon": 0.0, "bike_id": "a7d9a4d5de34bc7eeb3a17373d679726", "type": "electric_scooter", "name": "a7d9a4d5de34bc7eeb3a17373d679726", "rental_uris": {"android": "https://dc.lft.to/lastmile_qr_scan", "ios": "https://dc.lft.to/lastmile_qr_scan"}, "is_disabled": 0, "fusion_lat": 0.0, "lat": 38.93541166666667, "is_reserved": 0}, {"lon": -77.0448405, "fusion_lon": 0.0, "bike_id": "e06d0d645636849b2f7d058ec68f4510", "type": "electric_scooter", "name": "e06d0d645636849b2f7d058ec68f4510", "rental_uris": {"android": "https://dc.lft.to/lastmile_qr_scan", "ios": "https://dc.lft.to/lastmile_qr_scan"}, "is_disabled": 0, "fusion_lat": 0.0, "lat": 38.900143666666665, "is_reserved": 0}, {"lon": -76.987446, "fusion_lon": 0.0, "bike_id": "37eab7034ccaeaefb121e20c5e5fdbd8", "type": "electric_bike", "name": "37eab7034ccaeaefb121e20c5e5fdbd8", "rental_uris": {"android": "https://dc.lft.to/lastmile_qr_scan", "ios": "https://dc.lft.to/lastmile_qr_scan"}, "is_disabled": 0, "fusion_lat": 0.0, "lat": 38.896088666666664, "is_reserved": 0}, {"lon": -77.03594483333333, "fusion_lon": 0.0, "bike_id": "67b5a1b434f21336ddb2ef49e5d6abbb", "type": "electric_scooter", "name": "67b5a1b434f21336ddb2ef49e5d6abbb", "rental_uris": {"android": "https://dc.lft.to/lastmile_qr_scan", "ios": "https://dc.lft.to/lastmile_qr_scan"}, "is_disabled": 0, "fusion_lat": 0.0, "lat": 38.93143166666667, "is_reserved": 0}, {"lon": -77.03215066666667, "fusion_lon": 0.0, "bike_id": "b04abfef4579ad55586ad7d64d6bcecf", "type": "electric_scooter", "name": "b04abfef4579ad55586ad7d64d6bcecf", "rental_uris": {"android": "https://dc.lft.to/lastmile_qr_scan", "ios": "https://dc.lft.to/lastmile_qr_scan"}, "is_disabled": 0, "fusion_lat": 0.0, "lat": 38.88477183333333, "is_reserved": 0}, {"lon": -76.96905633333333, "fusion_lon": 0.0, "bike_id": "ab875d3e643aa54ad8639d84642f84bb", "type": "electric_scooter", "name": "ab875d3e643aa54ad8639d84642f84bb", "rental_uris": {"android": "https://dc.lft.to/lastmile_qr_scan", "ios": "https://dc.lft.to/lastmile_qr_scan"}, "is_disabled": 0, "fusion_lat": 0.0, "lat": 38.872984833333334, "is_reserved": 0}, {"lon": -77.012199, "fusion_lon": 0.0, "bike_id": "65ea2afed2cf06a007776141970b61e9", "type": "electric_scooter", "name": "65ea2afed2cf06a007776141970b61e9", "rental_uris": {"android": "https://dc.lft.to/lastmile_qr_scan", "ios": "https://dc.lft.to/lastmile_qr_scan"}, "is_disabled": 0, "fusion_lat": 0.0, "lat": 38.917552, "is_reserved": 0}, {"lon": -77.044963, "fusion_lon": 0.0, "bike_id": "fa6546e764ddd37f510d45b3c9417152", "type": "electric_scooter", "name": "fa6546e764ddd37f510d45b3c9417152", "rental_uris": {"android": "https://dc.lft.to/lastmile_qr_scan", "ios": "https://dc.lft.to/lastmile_qr_scan"}, "is_disabled": 0, "fusion_lat": 0.0, "lat": 38.898259333333336, "is_reserved": 0}, {"lon": -77.02280183333333, "fusion_lon": 0.0, "bike_id": "178eab7bbb860a70271657b197a4980e", "type": "electric_scooter", "name": "178eab7bbb860a70271657b197a4980e", "rental_uris": {"android": "https://dc.lft.to/lastmile_qr_scan", "ios": "https://dc.lft.to/lastmile_qr_scan"}, "is_disabled": 0, "fusion_lat": 0.0, "lat": 38.8951765, "is_reserved": 0}, {"lon": -77.00848533333334, "fusion_lon": 0.0, "bike_id": "27beecb4c6676ed8c62dacd5ff8441e6", "type": "electric_scooter", "name": "27beecb4c6676ed8c62dacd5ff8441e6", "rental_uris": {"android": "https://dc.lft.to/lastmile_qr_scan", "ios": "https://dc.lft.to/lastmile_qr_scan"}, "is_disabled": 0, "fusion_lat": 0.0, "lat": 38.876462333333336, "is_reserved": 0}, {"lon": -77.01102683333333, "fusion_lon": 0.0, "bike_id": "d4a65061ee40b8ced7afe821c905cd28", "type": "electric_scooter", "name": "d4a65061ee40b8ced7afe821c905cd28", "rental_uris": {"android": "https://dc.lft.to/lastmile_qr_scan", "ios": "https://dc.lft.to/lastmile_qr_scan"}, "is_disabled": 0, "fusion_lat": 0.0, "lat": 38.9097035, "is_reserved": 0}, {"lon": -77.031787, "fusion_lon": 0.0, "bike_id": "95d73cad9fbe7b61f59f8faf257d1531", "type": "electric_scooter", "name": "95d73cad9fbe7b61f59f8faf257d1531", "rental_uris": {"android": "https://dc.lft.to/lastmile_qr_scan", "ios": "https://dc.lft.to/lastmile_qr_scan"}, "is_disabled": 0, "fusion_lat": 0.0, "lat": 38.9213135, "is_reserved": 0}, {"lon": -77.05108716666666, "fusion_lon": 0.0, "bike_id": "b97f7b935b56d63eb918b7146efe8876", "type": "electric_bike", "name": "b97f7b935b56d63eb918b7146efe8876", "rental_uris": {"android": "https://dc.lft.to/lastmile_qr_scan", "ios": "https://dc.lft.to/lastmile_qr_scan"}, "is_disabled": 0, "fusion_lat": 0.0, "lat": 38.81340266666667, "is_reserved": 0}, {"lon": -77.0499525, "fusion_lon": 0.0, "bike_id": "0af434b911f702dbcb53fd896e6ef9af", "type": "electric_scooter", "name": "0af434b911f702dbcb53fd896e6ef9af", "rental_uris": {"android": "https://dc.lft.to/lastmile_qr_scan", "ios": "https://dc.lft.to/lastmile_qr_scan"}, "is_disabled": 0, "fusion_lat": 0.0, "lat": 38.898397, "is_reserved": 0}, {"lon": -77.00930666666666, "fusion_lon": 0.0, "bike_id": "17eba0d4b5875bee5105eb2137c2b354", "type": "electric_scooter", "name": "17eba0d4b5875bee5105eb2137c2b354", "rental_uris": {"android": "https://dc.lft.to/lastmile_qr_scan", "ios": "https://dc.lft.to/lastmile_qr_scan"}, "is_disabled": 0, "fusion_lat": 0.0, "lat": 38.87502933333333, "is_reserved": 0}, {"lon": -76.9763085, "fusion_lon": 0.0, "bike_id": "ebac62d263402366cc4c950bd5a35f28", "type": "electric_scooter", "name": "ebac62d263402366cc4c950bd5a35f28", "rental_uris": {"android": "https://dc.lft.to/lastmile_qr_scan", "ios": "https://dc.lft.to/lastmile_qr_scan"}, "is_disabled": 0, "fusion_lat": 0.0, "lat": 38.901599166666664, "is_reserved": 0}, {"lon": -77.04117166666667, "fusion_lon": 0.0, "bike_id": "3a8c3654765097e1cb0efcb44f1a7aa8", "type": "electric_scooter", "name": "3a8c3654765097e1cb0efcb44f1a7aa8", "rental_uris": {"android": "https://dc.lft.to/lastmile_qr_scan", "ios": "https://dc.lft.to/lastmile_qr_scan"}, "is_disabled": 0, "fusion_lat": 0.0, "lat": 38.92530266666667, "is_reserved": 0}, {"lon": -77.0505145, "fusion_lon": 0.0, "bike_id": "fe8faabd50d0f219a7b9a8055620e0cb", "type": "electric_bike", "name": "fe8faabd50d0f219a7b9a8055620e0cb", "rental_uris": {"android": "https://dc.lft.to/lastmile_qr_scan", "ios": "https://dc.lft.to/lastmile_qr_scan"}, "is_disabled": 0, "fusion_lat": 0.0, "lat": 38.9242125, "is_reserved": 0}, {"lon": -77.03468933333333, "fusion_lon": 0.0, "bike_id": "3492082e73577cfd6969b3410efb0d3f", "type": "electric_scooter", "name": "3492082e73577cfd6969b3410efb0d3f", "rental_uris": {"android": "https://dc.lft.to/lastmile_qr_scan", "ios": "https://dc.lft.to/lastmile_qr_scan"}, "is_disabled": 0, "fusion_lat": 0.0, "lat": 38.92637883333333, "is_reserved": 0}, {"lon": -77.02205566666666, "fusion_lon": 0.0, "bike_id": "fd5a30f0cca4978a3942b9b8786dee28", "type": "electric_scooter", "name": "fd5a30f0cca4978a3942b9b8786dee28", "rental_uris": {"android": "https://dc.lft.to/lastmile_qr_scan", "ios": "https://dc.lft.to/lastmile_qr_scan"}, "is_disabled": 0, "fusion_lat": 0.0, "lat": 38.91547833333333, "is_reserved": 0}, {"lon": -77.03464266666667, "fusion_lon": 0.0, "bike_id": "fcf32fb6e3d20f6adfa36317be78bb90", "type": "electric_scooter", "name": "fcf32fb6e3d20f6adfa36317be78bb90", "rental_uris": {"android": "https://dc.lft.to/lastmile_qr_scan", "ios": "https://dc.lft.to/lastmile_qr_scan"}, "is_disabled": 0, "fusion_lat": 0.0, "lat": 38.917097166666665, "is_reserved": 0}, {"lon": -77.04999666666667, "fusion_lon": 0.0, "bike_id": "a43e4be4de051df0f1eefaa230bc549e", "type": "electric_scooter", "name": "a43e4be4de051df0f1eefaa230bc549e", "rental_uris": {"android": "https://dc.lft.to/lastmile_qr_scan", "ios": "https://dc.lft.to/lastmile_qr_scan"}, "is_disabled": 0, "fusion_lat": 0.0, "lat": 38.8922995, "is_reserved": 0}, {"lon": -76.986817, "fusion_lon": 0.0, "bike_id": "3572872b4f9e8c9048b4ce01b7ab6307", "type": "electric_scooter", "name": "3572872b4f9e8c9048b4ce01b7ab6307", "rental_uris": {"android": "https://dc.lft.to/lastmile_qr_scan", "ios": "https://dc.lft.to/lastmile_qr_scan"}, "is_disabled": 0, "fusion_lat": 0.0, "lat": 38.912915, "is_reserved": 0}, {"lon": -77.0281755, "fusion_lon": 0.0, "bike_id": "bc1b58fea604c5ecfe0de2a1687891a6", "type": "electric_scooter", "name": "bc1b58fea604c5ecfe0de2a1687891a6", "rental_uris": {"android": "https://dc.lft.to/lastmile_qr_scan", "ios": "https://dc.lft.to/lastmile_qr_scan"}, "is_disabled": 0, "fusion_lat": 0.0, "lat": 38.930626333333336, "is_reserved": 0}, {"lon": -76.98700316666667, "fusion_lon": 0.0, "bike_id": "e417d8bcdb1fbded898b91dd5f153d14", "type": "electric_scooter", "name": "e417d8bcdb1fbded898b91dd5f153d14", "rental_uris": {"android": "https://dc.lft.to/lastmile_qr_scan", "ios": "https://dc.lft.to/lastmile_qr_scan"}, "is_disabled": 0, "fusion_lat": 0.0, "lat": 38.86722966666667, "is_reserved": 0}, {"lon": -76.9818955, "fusion_lon": 0.0, "bike_id": "c650f7e64cd928c66cec6af8b984d9c5", "type": "electric_scooter", "name": "c650f7e64cd928c66cec6af8b984d9c5", "rental_uris": {"android": "https://dc.lft.to/lastmile_qr_scan", "ios": "https://dc.lft.to/lastmile_qr_scan"}, "is_disabled": 0, "fusion_lat": 0.0, "lat": 38.862070833333334, "is_reserved": 0}, {"lon": -77.00343283333333, "fusion_lon": 0.0, "bike_id": "97f4b90f94469e39e81cab74351f106e", "type": "electric_scooter", "name": "97f4b90f94469e39e81cab74351f106e", "rental_uris": {"android": "https://dc.lft.to/lastmile_qr_scan", "ios": "https://dc.lft.to/lastmile_qr_scan"}, "is_disabled": 0, "fusion_lat": 0.0, "lat": 38.8771805, "is_reserved": 0}, {"lon": -77.0384085, "fusion_lon": 0.0, "bike_id": "1315e33c6bc18866b8004ee928b3b687", "type": "electric_scooter", "name": "1315e33c6bc18866b8004ee928b3b687", "rental_uris": {"android": "https://dc.lft.to/lastmile_qr_scan", "ios": "https://dc.lft.to/lastmile_qr_scan"}, "is_disabled": 0, "fusion_lat": 0.0, "lat": 38.90488233333333, "is_reserved": 0}, {"lon": -77.03509483333333, "fusion_lon": 0.0, "bike_id": "277eda2c0deff7f64cd33202d18b1d20", "type": "electric_scooter", "name": "277eda2c0deff7f64cd33202d18b1d20", "rental_uris": {"android": "https://dc.lft.to/lastmile_qr_scan", "ios": "https://dc.lft.to/lastmile_qr_scan"}, "is_disabled": 0, "fusion_lat": 0.0, "lat": 38.9234815, "is_reserved": 0}, {"lon": -77.04264566666667, "fusion_lon": 0.0, "bike_id": "1ae99001d4db47d211f34c27f21d9296", "type": "electric_scooter", "name": "1ae99001d4db47d211f34c27f21d9296", "rental_uris": {"android": "https://dc.lft.to/lastmile_qr_scan", "ios": "https://dc.lft.to/lastmile_qr_scan"}, "is_disabled": 0, "fusion_lat": 0.0, "lat": 38.908682666666664, "is_reserved": 0}, {"lon": -77.013013, "fusion_lon": 0.0, "bike_id": "620bd514a36ec37ff9a26cb7391bc6d6", "type": "electric_scooter", "name": "620bd514a36ec37ff9a26cb7391bc6d6", "rental_uris": {"android": "https://dc.lft.to/lastmile_qr_scan", "ios": "https://dc.lft.to/lastmile_qr_scan"}, "is_disabled": 0, "fusion_lat": 0.0, "lat": 38.90049716666667, "is_reserved": 0}, {"lon": -76.94892766666666, "fusion_lon": 0.0, "bike_id": "e384bb5bb49daf2c2b74c5ca349d9f67", "type": "electric_scooter", "name": "e384bb5bb49daf2c2b74c5ca349d9f67", "rental_uris": {"android": "https://dc.lft.to/lastmile_qr_scan", "ios": "https://dc.lft.to/lastmile_qr_scan"}, "is_disabled": 0, "fusion_lat": 0.0, "lat": 38.8953125, "is_reserved": 0}, {"lon": -76.91596, "fusion_lon": 0.0, "bike_id": "be6ce5b961a5be23ce7115a785b43261", "type": "electric_bike", "name": "be6ce5b961a5be23ce7115a785b43261", "rental_uris": {"android": "https://dc.lft.to/lastmile_qr_scan", "ios": "https://dc.lft.to/lastmile_qr_scan"}, "is_disabled": 0, "fusion_lat": 0.0, "lat": 38.879821166666666, "is_reserved": 0}, {"lon": -77.05261333333333, "fusion_lon": 0.0, "bike_id": "ca84d2e13b6382f5d83ccabf0d14c49a", "type": "electric_scooter", "name": "ca84d2e13b6382f5d83ccabf0d14c49a", "rental_uris": {"android": "https://dc.lft.to/lastmile_qr_scan", "ios": "https://dc.lft.to/lastmile_qr_scan"}, "is_disabled": 0, "fusion_lat": 0.0, "lat": 38.9278175, "is_reserved": 0}, {"lon": -77.0278955, "fusion_lon": 0.0, "bike_id": "39af1931067a40b0dcaba7feb971d8d2", "type": "electric_scooter", "name": "39af1931067a40b0dcaba7feb971d8d2", "rental_uris": {"android": "https://dc.lft.to/lastmile_qr_scan", "ios": "https://dc.lft.to/lastmile_qr_scan"}, "is_disabled": 0, "fusion_lat": 0.0, "lat": 38.917091, "is_reserved": 0}, {"lon": -76.94855283333334, "fusion_lon": 0.0, "bike_id": "4c7a9db329496200fe73faf39c50e0ba", "type": "electric_scooter", "name": "4c7a9db329496200fe73faf39c50e0ba", "rental_uris": {"android": "https://dc.lft.to/lastmile_qr_scan", "ios": "https://dc.lft.to/lastmile_qr_scan"}, "is_disabled": 0, "fusion_lat": 0.0, "lat": 38.8829965, "is_reserved": 0}, {"lon": -77.03183616666666, "fusion_lon": 0.0, "bike_id": "e4b1e5ebf0328a7dc776d19c78fa2a25", "type": "electric_scooter", "name": "e4b1e5ebf0328a7dc776d19c78fa2a25", "rental_uris": {"android": "https://dc.lft.to/lastmile_qr_scan", "ios": "https://dc.lft.to/lastmile_qr_scan"}, "is_disabled": 0, "fusion_lat": 0.0, "lat": 38.89245366666667, "is_reserved": 0}, {"lon": -77.04232283333333, "fusion_lon": 0.0, "bike_id": "323ddb08a83c168469313c6c326de1cc", "type": "electric_scooter", "name": "323ddb08a83c168469313c6c326de1cc", "rental_uris": {"android": "https://dc.lft.to/lastmile_qr_scan", "ios": "https://dc.lft.to/lastmile_qr_scan"}, "is_disabled": 0, "fusion_lat": 0.0, "lat": 38.911105666666664, "is_reserved": 0}, {"lon": -77.034335, "fusion_lon": 0.0, "bike_id": "60281f19aadee48a7661667df265f360", "type": "electric_scooter", "name": "60281f19aadee48a7661667df265f360", "rental_uris": {"android": "https://dc.lft.to/lastmile_qr_scan", "ios": "https://dc.lft.to/lastmile_qr_scan"}, "is_disabled": 0, "fusion_lat": 0.0, "lat": 38.90969166666667, "is_reserved": 0}, {"lon": -77.04161616666667, "fusion_lon": 0.0, "bike_id": "7d1ec741d4466b4e030b915f662e44d8", "type": "electric_scooter", "name": "7d1ec741d4466b4e030b915f662e44d8", "rental_uris": {"android": "https://dc.lft.to/lastmile_qr_scan", "ios": "https://dc.lft.to/lastmile_qr_scan"}, "is_disabled": 0, "fusion_lat": 0.0, "lat": 38.892328166666665, "is_reserved": 0}, {"lon": -77.06413716666667, "fusion_lon": 0.0, "bike_id": "96bd11bad830f692b768770f7dd99815", "type": "electric_scooter", "name": "96bd11bad830f692b768770f7dd99815", "rental_uris": {"android": "https://dc.lft.to/lastmile_qr_scan", "ios": "https://dc.lft.to/lastmile_qr_scan"}, "is_disabled": 0, "fusion_lat": 0.0, "lat": 38.91347416666667, "is_reserved": 0}, {"lon": -77.03433133333333, "fusion_lon": 0.0, "bike_id": "3d3d0c218ed6e873c6787236c7e838bb", "type": "electric_scooter", "name": "3d3d0c218ed6e873c6787236c7e838bb", "rental_uris": {"android": "https://dc.lft.to/lastmile_qr_scan", "ios": "https://dc.lft.to/lastmile_qr_scan"}, "is_disabled": 0, "fusion_lat": 0.0, "lat": 38.90834733333333, "is_reserved": 0}, {"lon": -77.00136766666667, "fusion_lon": 0.0, "bike_id": "335af4de3dcb80d5a33cd64d9541ac38", "type": "electric_scooter", "name": "335af4de3dcb80d5a33cd64d9541ac38", "rental_uris": {"android": "https://dc.lft.to/lastmile_qr_scan", "ios": "https://dc.lft.to/lastmile_qr_scan"}, "is_disabled": 0, "fusion_lat": 0.0, "lat": 38.875009666666664, "is_reserved": 0}, {"lon": -77.06352566666666, "fusion_lon": 0.0, "bike_id": "19b22cfafa10b740de2a7a2ec6f80f02", "type": "electric_scooter", "name": "19b22cfafa10b740de2a7a2ec6f80f02", "rental_uris": {"android": "https://dc.lft.to/lastmile_qr_scan", "ios": "https://dc.lft.to/lastmile_qr_scan"}, "is_disabled": 0, "fusion_lat": 0.0, "lat": 38.944419, "is_reserved": 0}, {"lon": -77.00225166666667, "fusion_lon": 0.0, "bike_id": "7bfc6998f745aefdc8267498e436a735", "type": "electric_scooter", "name": "7bfc6998f745aefdc8267498e436a735", "rental_uris": {"android": "https://dc.lft.to/lastmile_qr_scan", "ios": "https://dc.lft.to/lastmile_qr_scan"}, "is_disabled": 0, "fusion_lat": 0.0, "lat": 38.919075666666664, "is_reserved": 0}, {"lon": -77.02191783333333, "fusion_lon": 0.0, "bike_id": "00b982dcd829ca00e132aad82c5652ab", "type": "electric_scooter", "name": "00b982dcd829ca00e132aad82c5652ab", "rental_uris": {"android": "https://dc.lft.to/lastmile_qr_scan", "ios": "https://dc.lft.to/lastmile_qr_scan"}, "is_disabled": 0, "fusion_lat": 0.0, "lat": 38.9110205, "is_reserved": 0}, {"lon": -77.0308835, "fusion_lon": 0.0, "bike_id": "2b6359f556cc488aa2010dbc50effe52", "type": "electric_bike", "name": "2b6359f556cc488aa2010dbc50effe52", "rental_uris": {"android": "https://dc.lft.to/lastmile_qr_scan", "ios": "https://dc.lft.to/lastmile_qr_scan"}, "is_disabled": 0, "fusion_lat": 0.0, "lat": 38.92242816666667, "is_reserved": 0}, {"lon": -77.026361, "fusion_lon": 0.0, "bike_id": "df0788fcba56876708481a84e58f4f7d", "type": "electric_scooter", "name": "df0788fcba56876708481a84e58f4f7d", "rental_uris": {"android": "https://dc.lft.to/lastmile_qr_scan", "ios": "https://dc.lft.to/lastmile_qr_scan"}, "is_disabled": 0, "fusion_lat": 0.0, "lat": 38.910641166666665, "is_reserved": 0}, {"lon": -77.00758783333333, "fusion_lon": 0.0, "bike_id": "54f9ff73e8e1137c45d76088f7f3b94d", "type": "electric_scooter", "name": "54f9ff73e8e1137c45d76088f7f3b94d", "rental_uris": {"android": "https://dc.lft.to/lastmile_qr_scan", "ios": "https://dc.lft.to/lastmile_qr_scan"}, "is_disabled": 0, "fusion_lat": 0.0, "lat": 38.910286, "is_reserved": 0}, {"lon": -77.02977566666667, "fusion_lon": 0.0, "bike_id": "205dff1e18024de1e797071bd1228c07", "type": "electric_scooter", "name": "205dff1e18024de1e797071bd1228c07", "rental_uris": {"android": "https://dc.lft.to/lastmile_qr_scan", "ios": "https://dc.lft.to/lastmile_qr_scan"}, "is_disabled": 0, "fusion_lat": 0.0, "lat": 38.93067, "is_reserved": 0}, {"lon": -77.0279755, "fusion_lon": 0.0, "bike_id": "2ce6b1f2773bdf4bea34af3c60e26c99", "type": "electric_scooter", "name": "2ce6b1f2773bdf4bea34af3c60e26c99", "rental_uris": {"android": "https://dc.lft.to/lastmile_qr_scan", "ios": "https://dc.lft.to/lastmile_qr_scan"}, "is_disabled": 0, "fusion_lat": 0.0, "lat": 38.96052983333333, "is_reserved": 0}, {"lon": -77.00763283333333, "fusion_lon": 0.0, "bike_id": "3a0b2357161c7e75372a2e8fe8caa6d0", "type": "electric_scooter", "name": "3a0b2357161c7e75372a2e8fe8caa6d0", "rental_uris": {"android": "https://dc.lft.to/lastmile_qr_scan", "ios": "https://dc.lft.to/lastmile_qr_scan"}, "is_disabled": 0, "fusion_lat": 0.0, "lat": 38.94920033333333, "is_reserved": 0}, {"lon": -77.02424983333333, "fusion_lon": 0.0, "bike_id": "d5f2a67aeb0072ed3c300597cab913a2", "type": "electric_scooter", "name": "d5f2a67aeb0072ed3c300597cab913a2", "rental_uris": {"android": "https://dc.lft.to/lastmile_qr_scan", "ios": "https://dc.lft.to/lastmile_qr_scan"}, "is_disabled": 0, "fusion_lat": 0.0, "lat": 38.92076466666666, "is_reserved": 0}, {"lon": -77.03213483333333, "fusion_lon": 0.0, "bike_id": "8ac468a5e74741fef30f70bae70ad9c6", "type": "electric_scooter", "name": "8ac468a5e74741fef30f70bae70ad9c6", "rental_uris": {"android": "https://dc.lft.to/lastmile_qr_scan", "ios": "https://dc.lft.to/lastmile_qr_scan"}, "is_disabled": 0, "fusion_lat": 0.0, "lat": 38.9099015, "is_reserved": 0}, {"lon": -77.02279816666666, "fusion_lon": 0.0, "bike_id": "0f6d96cc9d90635d1715951d47204358", "type": "electric_scooter", "name": "0f6d96cc9d90635d1715951d47204358", "rental_uris": {"android": "https://dc.lft.to/lastmile_qr_scan", "ios": "https://dc.lft.to/lastmile_qr_scan"}, "is_disabled": 0, "fusion_lat": 0.0, "lat": 38.8951565, "is_reserved": 0}, {"lon": -77.02554566666667, "fusion_lon": 0.0, "bike_id": "1ac2ad6e80d48146e94585c47dc4043d", "type": "electric_scooter", "name": "1ac2ad6e80d48146e94585c47dc4043d", "rental_uris": {"android": "https://dc.lft.to/lastmile_qr_scan", "ios": "https://dc.lft.to/lastmile_qr_scan"}, "is_disabled": 0, "fusion_lat": 0.0, "lat": 38.916349833333335, "is_reserved": 0}, {"lon": -77.00339916666667, "fusion_lon": 0.0, "bike_id": "3ad68f9bf5e48d632fe27c77652bd9da", "type": "electric_scooter", "name": "3ad68f9bf5e48d632fe27c77652bd9da", "rental_uris": {"android": "https://dc.lft.to/lastmile_qr_scan", "ios": "https://dc.lft.to/lastmile_qr_scan"}, "is_disabled": 0, "fusion_lat": 0.0, "lat": 38.895290333333335, "is_reserved": 0}, {"lon": -77.02074, "fusion_lon": 0.0, "bike_id": "dccec7f9fc68f29406811b01cb74392b", "type": "electric_scooter", "name": "dccec7f9fc68f29406811b01cb74392b", "rental_uris": {"android": "https://dc.lft.to/lastmile_qr_scan", "ios": "https://dc.lft.to/lastmile_qr_scan"}, "is_disabled": 0, "fusion_lat": 0.0, "lat": 38.92701616666667, "is_reserved": 0}, {"lon": -76.94942833333333, "fusion_lon": 0.0, "bike_id": "dd75bad81c4248ed5110c5b21cccfd75", "type": "electric_scooter", "name": "dd75bad81c4248ed5110c5b21cccfd75", "rental_uris": {"android": "https://dc.lft.to/lastmile_qr_scan", "ios": "https://dc.lft.to/lastmile_qr_scan"}, "is_disabled": 0, "fusion_lat": 0.0, "lat": 38.893608, "is_reserved": 0}, {"lon": -77.1293345, "fusion_lon": 0.0, "bike_id": "63bef549072377dfe15375b65084ab8c", "type": "electric_bike", "name": "63bef549072377dfe15375b65084ab8c", "rental_uris": {"android": "https://dc.lft.to/lastmile_qr_scan", "ios": "https://dc.lft.to/lastmile_qr_scan"}, "is_disabled": 0, "fusion_lat": 0.0, "lat": 38.86517283333333, "is_reserved": 0}, {"lon": -77.0127685, "fusion_lon": 0.0, "bike_id": "17e4c61425e294fbc32583c6f9f29702", "type": "electric_scooter", "name": "17e4c61425e294fbc32583c6f9f29702", "rental_uris": {"android": "https://dc.lft.to/lastmile_qr_scan", "ios": "https://dc.lft.to/lastmile_qr_scan"}, "is_disabled": 0, "fusion_lat": 0.0, "lat": 38.91565133333334, "is_reserved": 0}, {"lon": -77.02713233333333, "fusion_lon": 0.0, "bike_id": "c1f4e70c21e32955cf8eb6163cfa47ea", "type": "electric_scooter", "name": "c1f4e70c21e32955cf8eb6163cfa47ea", "rental_uris": {"android": "https://dc.lft.to/lastmile_qr_scan", "ios": "https://dc.lft.to/lastmile_qr_scan"}, "is_disabled": 0, "fusion_lat": 0.0, "lat": 38.915501, "is_reserved": 0}, {"lon": -76.9871395, "fusion_lon": 0.0, "bike_id": "c131d83de2672f28db4d737853bb21f8", "type": "electric_scooter", "name": "c131d83de2672f28db4d737853bb21f8", "rental_uris": {"android": "https://dc.lft.to/lastmile_qr_scan", "ios": "https://dc.lft.to/lastmile_qr_scan"}, "is_disabled": 0, "fusion_lat": 0.0, "lat": 38.867016166666666, "is_reserved": 0}, {"lon": -76.940446, "fusion_lon": 0.0, "bike_id": "37918fd296bf12e51d740aa44c580cb8", "type": "electric_bike", "name": "37918fd296bf12e51d740aa44c580cb8", "rental_uris": {"android": "https://dc.lft.to/lastmile_qr_scan", "ios": "https://dc.lft.to/lastmile_qr_scan"}, "is_disabled": 0, "fusion_lat": 0.0, "lat": 38.97859283333333, "is_reserved": 0}, {"lon": -76.94638316666666, "fusion_lon": 0.0, "bike_id": "064272bbca16ccf7dac4722975529ea8", "type": "electric_scooter", "name": "064272bbca16ccf7dac4722975529ea8", "rental_uris": {"android": "https://dc.lft.to/lastmile_qr_scan", "ios": "https://dc.lft.to/lastmile_qr_scan"}, "is_disabled": 0, "fusion_lat": 0.0, "lat": 38.89870616666666, "is_reserved": 0}, {"lon": -77.04147033333334, "fusion_lon": 0.0, "bike_id": "ef8eeafef33bf25e52314e20562ae436", "type": "electric_scooter", "name": "ef8eeafef33bf25e52314e20562ae436", "rental_uris": {"android": "https://dc.lft.to/lastmile_qr_scan", "ios": "https://dc.lft.to/lastmile_qr_scan"}, "is_disabled": 0, "fusion_lat": 0.0, "lat": 38.906298666666665, "is_reserved": 0}, {"lon": -77.04938066666666, "fusion_lon": 0.0, "bike_id": "0fcac5804e7e4d661513157265f497d6", "type": "electric_scooter", "name": "0fcac5804e7e4d661513157265f497d6", "rental_uris": {"android": "https://dc.lft.to/lastmile_qr_scan", "ios": "https://dc.lft.to/lastmile_qr_scan"}, "is_disabled": 0, "fusion_lat": 0.0, "lat": 38.88825666666666, "is_reserved": 0}, {"lon": -77.00065633333334, "fusion_lon": 0.0, "bike_id": "4f4b5b853a12bf2c90cccd083f1b6c40", "type": "electric_scooter", "name": "4f4b5b853a12bf2c90cccd083f1b6c40", "rental_uris": {"android": "https://dc.lft.to/lastmile_qr_scan", "ios": "https://dc.lft.to/lastmile_qr_scan"}, "is_disabled": 0, "fusion_lat": 0.0, "lat": 38.838924166666665, "is_reserved": 0}, {"lon": -77.0207175, "fusion_lon": 0.0, "bike_id": "e5eed73d287677f2daac61f1e5bb132c", "type": "electric_scooter", "name": "e5eed73d287677f2daac61f1e5bb132c", "rental_uris": {"android": "https://dc.lft.to/lastmile_qr_scan", "ios": "https://dc.lft.to/lastmile_qr_scan"}, "is_disabled": 0, "fusion_lat": 0.0, "lat": 38.93647033333333, "is_reserved": 0}, {"lon": -77.0270805, "fusion_lon": 0.0, "bike_id": "0f79485273d08ea6286473334a5e0dca", "type": "electric_scooter", "name": "0f79485273d08ea6286473334a5e0dca", "rental_uris": {"android": "https://dc.lft.to/lastmile_qr_scan", "ios": "https://dc.lft.to/lastmile_qr_scan"}, "is_disabled": 0, "fusion_lat": 0.0, "lat": 38.917213, "is_reserved": 0}, {"lon": -77.02972066666666, "fusion_lon": 0.0, "bike_id": "8bcc0250826ef6e095c12d7f7890608c", "type": "electric_scooter", "name": "8bcc0250826ef6e095c12d7f7890608c", "rental_uris": {"android": "https://dc.lft.to/lastmile_qr_scan", "ios": "https://dc.lft.to/lastmile_qr_scan"}, "is_disabled": 0, "fusion_lat": 0.0, "lat": 38.91780466666667, "is_reserved": 0}, {"lon": -76.93392716666666, "fusion_lon": 0.0, "bike_id": "10cbfb8f4ea036d4e2184965c00d226a", "type": "electric_scooter", "name": "10cbfb8f4ea036d4e2184965c00d226a", "rental_uris": {"android": "https://dc.lft.to/lastmile_qr_scan", "ios": "https://dc.lft.to/lastmile_qr_scan"}, "is_disabled": 0, "fusion_lat": 0.0, "lat": 38.89890416666667, "is_reserved": 0}, {"lon": -76.98775683333334, "fusion_lon": 0.0, "bike_id": "51134cfae08c23d20bac6c483d572143", "type": "electric_scooter", "name": "51134cfae08c23d20bac6c483d572143", "rental_uris": {"android": "https://dc.lft.to/lastmile_qr_scan", "ios": "https://dc.lft.to/lastmile_qr_scan"}, "is_disabled": 0, "fusion_lat": 0.0, "lat": 38.9001995, "is_reserved": 0}, {"lon": -77.03433983333333, "fusion_lon": 0.0, "bike_id": "726a4b4a48be30125656c15d7adf0dad", "type": "electric_scooter", "name": "726a4b4a48be30125656c15d7adf0dad", "rental_uris": {"android": "https://dc.lft.to/lastmile_qr_scan", "ios": "https://dc.lft.to/lastmile_qr_scan"}, "is_disabled": 0, "fusion_lat": 0.0, "lat": 38.9038665, "is_reserved": 0}, {"lon": -77.01874166666667, "fusion_lon": 0.0, "bike_id": "8d5d1aa9ce5fee4cd4540861bc5cc8cf", "type": "electric_scooter", "name": "8d5d1aa9ce5fee4cd4540861bc5cc8cf", "rental_uris": {"android": "https://dc.lft.to/lastmile_qr_scan", "ios": "https://dc.lft.to/lastmile_qr_scan"}, "is_disabled": 0, "fusion_lat": 0.0, "lat": 38.89983816666667, "is_reserved": 0}, {"lon": -76.99779183333334, "fusion_lon": 0.0, "bike_id": "690b1cf16cf49af16a0c8c012c86712e", "type": "electric_scooter", "name": "690b1cf16cf49af16a0c8c012c86712e", "rental_uris": {"android": "https://dc.lft.to/lastmile_qr_scan", "ios": "https://dc.lft.to/lastmile_qr_scan"}, "is_disabled": 0, "fusion_lat": 0.0, "lat": 38.84437466666667, "is_reserved": 0}, {"lon": -77.02475916666667, "fusion_lon": 0.0, "bike_id": "85b163d23a89267bc9049c51b3dc7e0b", "type": "electric_scooter", "name": "85b163d23a89267bc9049c51b3dc7e0b", "rental_uris": {"android": "https://dc.lft.to/lastmile_qr_scan", "ios": "https://dc.lft.to/lastmile_qr_scan"}, "is_disabled": 0, "fusion_lat": 0.0, "lat": 38.93103266666667, "is_reserved": 0}, {"lon": -77.0466015, "fusion_lon": 0.0, "bike_id": "7c26b48441baa05c2e4a472001189139", "type": "electric_scooter", "name": "7c26b48441baa05c2e4a472001189139", "rental_uris": {"android": "https://dc.lft.to/lastmile_qr_scan", "ios": "https://dc.lft.to/lastmile_qr_scan"}, "is_disabled": 0, "fusion_lat": 0.0, "lat": 38.898812666666664, "is_reserved": 0}, {"lon": -77.0695065, "fusion_lon": 0.0, "bike_id": "5e4aad32279ef295398b52a97e4b5570", "type": "electric_bike", "name": "5e4aad32279ef295398b52a97e4b5570", "rental_uris": {"android": "https://dc.lft.to/lastmile_qr_scan", "ios": "https://dc.lft.to/lastmile_qr_scan"}, "is_disabled": 0, "fusion_lat": 0.0, "lat": 38.995351166666666, "is_reserved": 0}, {"lon": -77.04163766666667, "fusion_lon": 0.0, "bike_id": "0c44471332f5e1be2cce640d7547d455", "type": "electric_scooter", "name": "0c44471332f5e1be2cce640d7547d455", "rental_uris": {"android": "https://dc.lft.to/lastmile_qr_scan", "ios": "https://dc.lft.to/lastmile_qr_scan"}, "is_disabled": 0, "fusion_lat": 0.0, "lat": 38.919035, "is_reserved": 0}, {"lon": -77.02430966666667, "fusion_lon": 0.0, "bike_id": "f3a036caf7b1ea809980550d2cc73241", "type": "electric_scooter", "name": "f3a036caf7b1ea809980550d2cc73241", "rental_uris": {"android": "https://dc.lft.to/lastmile_qr_scan", "ios": "https://dc.lft.to/lastmile_qr_scan"}, "is_disabled": 0, "fusion_lat": 0.0, "lat": 38.897004833333334, "is_reserved": 0}, {"lon": -77.02722883333334, "fusion_lon": 0.0, "bike_id": "f1fe2b87cc338c1d335e5bac11bf551f", "type": "electric_scooter", "name": "f1fe2b87cc338c1d335e5bac11bf551f", "rental_uris": {"android": "https://dc.lft.to/lastmile_qr_scan", "ios": "https://dc.lft.to/lastmile_qr_scan"}, "is_disabled": 0, "fusion_lat": 0.0, "lat": 38.9247625, "is_reserved": 0}, {"lon": -77.03516466666666, "fusion_lon": 0.0, "bike_id": "18ea37034df72e05d2fef8ab11aa6668", "type": "electric_scooter", "name": "18ea37034df72e05d2fef8ab11aa6668", "rental_uris": {"android": "https://dc.lft.to/lastmile_qr_scan", "ios": "https://dc.lft.to/lastmile_qr_scan"}, "is_disabled": 0, "fusion_lat": 0.0, "lat": 38.935987833333336, "is_reserved": 0}, {"lon": -76.99007516666667, "fusion_lon": 0.0, "bike_id": "f49543b40b9996ec59d233fb64f2f7e1", "type": "electric_scooter", "name": "f49543b40b9996ec59d233fb64f2f7e1", "rental_uris": {"android": "https://dc.lft.to/lastmile_qr_scan", "ios": "https://dc.lft.to/lastmile_qr_scan"}, "is_disabled": 0, "fusion_lat": 0.0, "lat": 38.86511083333333, "is_reserved": 0}, {"lon": -77.00201716666666, "fusion_lon": 0.0, "bike_id": "a650afb1ef01d3dc84ae9b3cfdf70567", "type": "electric_scooter", "name": "a650afb1ef01d3dc84ae9b3cfdf70567", "rental_uris": {"android": "https://dc.lft.to/lastmile_qr_scan", "ios": "https://dc.lft.to/lastmile_qr_scan"}, "is_disabled": 0, "fusion_lat": 0.0, "lat": 38.90247883333333, "is_reserved": 0}, {"lon": -76.9528465, "fusion_lon": 0.0, "bike_id": "5b16eb71d6773d20e037ace41566df10", "type": "electric_bike", "name": "5b16eb71d6773d20e037ace41566df10", "rental_uris": {"android": "https://dc.lft.to/lastmile_qr_scan", "ios": "https://dc.lft.to/lastmile_qr_scan"}, "is_disabled": 0, "fusion_lat": 0.0, "lat": 38.8623625, "is_reserved": 0}, {"lon": -76.97694983333334, "fusion_lon": 0.0, "bike_id": "d35249e742d7928f1882ac8d961a4825", "type": "electric_bike", "name": "d35249e742d7928f1882ac8d961a4825", "rental_uris": {"android": "https://dc.lft.to/lastmile_qr_scan", "ios": "https://dc.lft.to/lastmile_qr_scan"}, "is_disabled": 0, "fusion_lat": 0.0, "lat": 38.901625, "is_reserved": 0}, {"lon": -77.02199383333334, "fusion_lon": 0.0, "bike_id": "549ba1bcc3041c02daca06924548df97", "type": "electric_scooter", "name": "549ba1bcc3041c02daca06924548df97", "rental_uris": {"android": "https://dc.lft.to/lastmile_qr_scan", "ios": "https://dc.lft.to/lastmile_qr_scan"}, "is_disabled": 0, "fusion_lat": 0.0, "lat": 38.914936, "is_reserved": 0}, {"lon": -77.04537716666667, "fusion_lon": 0.0, "bike_id": "c150c77bb1319435f4d4ebf6ec81863b", "type": "electric_scooter", "name": "c150c77bb1319435f4d4ebf6ec81863b", "rental_uris": {"android": "https://dc.lft.to/lastmile_qr_scan", "ios": "https://dc.lft.to/lastmile_qr_scan"}, "is_disabled": 0, "fusion_lat": 0.0, "lat": 38.903973, "is_reserved": 0}, {"lon": -77.00343066666667, "fusion_lon": 0.0, "bike_id": "07fe59bff4cb61bcaf3651122355260d", "type": "electric_scooter", "name": "07fe59bff4cb61bcaf3651122355260d", "rental_uris": {"android": "https://dc.lft.to/lastmile_qr_scan", "ios": "https://dc.lft.to/lastmile_qr_scan"}, "is_disabled": 0, "fusion_lat": 0.0, "lat": 38.884389166666665, "is_reserved": 0}, {"lon": -77.02722066666666, "fusion_lon": 0.0, "bike_id": "771b3141d1f695f63d689f8c902c4c71", "type": "electric_scooter", "name": "771b3141d1f695f63d689f8c902c4c71", "rental_uris": {"android": "https://dc.lft.to/lastmile_qr_scan", "ios": "https://dc.lft.to/lastmile_qr_scan"}, "is_disabled": 0, "fusion_lat": 0.0, "lat": 38.906777, "is_reserved": 0}, {"lon": -77.04158466666667, "fusion_lon": 0.0, "bike_id": "b74b35bcad52a1b9d4fcb0d9469ad406", "type": "electric_scooter", "name": "b74b35bcad52a1b9d4fcb0d9469ad406", "rental_uris": {"android": "https://dc.lft.to/lastmile_qr_scan", "ios": "https://dc.lft.to/lastmile_qr_scan"}, "is_disabled": 0, "fusion_lat": 0.0, "lat": 38.91869116666667, "is_reserved": 0}, {"lon": -77.18745116666666, "fusion_lon": 0.0, "bike_id": "042382d916bdc5fea6d12c0a6fef7ecb", "type": "electric_bike", "name": "042382d916bdc5fea6d12c0a6fef7ecb", "rental_uris": {"android": "https://dc.lft.to/lastmile_qr_scan", "ios": "https://dc.lft.to/lastmile_qr_scan"}, "is_disabled": 0, "fusion_lat": 0.0, "lat": 38.89352366666667, "is_reserved": 0}, {"lon": -77.00300466666667, "fusion_lon": 0.0, "bike_id": "ea2d380008ed1de4956d205952e6bed5", "type": "electric_bike", "name": "ea2d380008ed1de4956d205952e6bed5", "rental_uris": {"android": "https://dc.lft.to/lastmile_qr_scan", "ios": "https://dc.lft.to/lastmile_qr_scan"}, "is_disabled": 0, "fusion_lat": 0.0, "lat": 38.83365833333333, "is_reserved": 0}, {"lon": -77.052561, "fusion_lon": 0.0, "bike_id": "3b8d76154805ce6175409dfac00b180a", "type": "electric_scooter", "name": "3b8d76154805ce6175409dfac00b180a", "rental_uris": {"android": "https://dc.lft.to/lastmile_qr_scan", "ios": "https://dc.lft.to/lastmile_qr_scan"}, "is_disabled": 0, "fusion_lat": 0.0, "lat": 38.927836166666665, "is_reserved": 0}, {"lon": -77.03428166666667, "fusion_lon": 0.0, "bike_id": "44744a1e37309e70e65f700574269dd5", "type": "electric_scooter", "name": "44744a1e37309e70e65f700574269dd5", "rental_uris": {"android": "https://dc.lft.to/lastmile_qr_scan", "ios": "https://dc.lft.to/lastmile_qr_scan"}, "is_disabled": 0, "fusion_lat": 0.0, "lat": 38.9030815, "is_reserved": 0}, {"lon": -77.0331545, "fusion_lon": 0.0, "bike_id": "01dc9e4df209d9cd0aff539c6550ccc6", "type": "electric_scooter", "name": "01dc9e4df209d9cd0aff539c6550ccc6", "rental_uris": {"android": "https://dc.lft.to/lastmile_qr_scan", "ios": "https://dc.lft.to/lastmile_qr_scan"}, "is_disabled": 0, "fusion_lat": 0.0, "lat": 38.9131885, "is_reserved": 0}, {"lon": -77.051638, "fusion_lon": 0.0, "bike_id": "102919f8996963d5e25fe61da3d81c5b", "type": "electric_scooter", "name": "102919f8996963d5e25fe61da3d81c5b", "rental_uris": {"android": "https://dc.lft.to/lastmile_qr_scan", "ios": "https://dc.lft.to/lastmile_qr_scan"}, "is_disabled": 0, "fusion_lat": 0.0, "lat": 38.90112883333333, "is_reserved": 0}, {"lon": -77.03957483333333, "fusion_lon": 0.0, "bike_id": "5ec486af935acc5dc467de9b55004c97", "type": "electric_scooter", "name": "5ec486af935acc5dc467de9b55004c97", "rental_uris": {"android": "https://dc.lft.to/lastmile_qr_scan", "ios": "https://dc.lft.to/lastmile_qr_scan"}, "is_disabled": 0, "fusion_lat": 0.0, "lat": 38.89624416666667, "is_reserved": 0}, {"lon": -77.0030195, "fusion_lon": 0.0, "bike_id": "3dff6fa1deae7af8587e4bc17ebb8cf5", "type": "electric_scooter", "name": "3dff6fa1deae7af8587e4bc17ebb8cf5", "rental_uris": {"android": "https://dc.lft.to/lastmile_qr_scan", "ios": "https://dc.lft.to/lastmile_qr_scan"}, "is_disabled": 0, "fusion_lat": 0.0, "lat": 38.894946, "is_reserved": 0}, {"lon": -77.003337, "fusion_lon": 0.0, "bike_id": "109c440fd3b61818cdeba42f8a249da0", "type": "electric_scooter", "name": "109c440fd3b61818cdeba42f8a249da0", "rental_uris": {"android": "https://dc.lft.to/lastmile_qr_scan", "ios": "https://dc.lft.to/lastmile_qr_scan"}, "is_disabled": 0, "fusion_lat": 0.0, "lat": 38.87723183333333, "is_reserved": 0}, {"lon": -76.98376083333333, "fusion_lon": 0.0, "bike_id": "67797057dfc2b4bc13b5f99a1a04142b", "type": "electric_bike", "name": "67797057dfc2b4bc13b5f99a1a04142b", "rental_uris": {"android": "https://dc.lft.to/lastmile_qr_scan", "ios": "https://dc.lft.to/lastmile_qr_scan"}, "is_disabled": 0, "fusion_lat": 0.0, "lat": 38.914765, "is_reserved": 0}, {"lon": -77.02367133333334, "fusion_lon": 0.0, "bike_id": "baa8504e5a5a3c379e4a2e2958e3087b", "type": "electric_scooter", "name": "baa8504e5a5a3c379e4a2e2958e3087b", "rental_uris": {"android": "https://dc.lft.to/lastmile_qr_scan", "ios": "https://dc.lft.to/lastmile_qr_scan"}, "is_disabled": 0, "fusion_lat": 0.0, "lat": 38.9250595, "is_reserved": 0}, {"lon": -77.01191383333334, "fusion_lon": 0.0, "bike_id": "1669ddcb1c9c9d98f98cbbfc1016a3ce", "type": "electric_scooter", "name": "1669ddcb1c9c9d98f98cbbfc1016a3ce", "rental_uris": {"android": "https://dc.lft.to/lastmile_qr_scan", "ios": "https://dc.lft.to/lastmile_qr_scan"}, "is_disabled": 0, "fusion_lat": 0.0, "lat": 38.90029366666667, "is_reserved": 0}, {"lon": -76.99806766666667, "fusion_lon": 0.0, "bike_id": "39731b3b7f6979d16c989bdd9daa897d", "type": "electric_scooter", "name": "39731b3b7f6979d16c989bdd9daa897d", "rental_uris": {"android": "https://dc.lft.to/lastmile_qr_scan", "ios": "https://dc.lft.to/lastmile_qr_scan"}, "is_disabled": 0, "fusion_lat": 0.0, "lat": 38.90025883333333, "is_reserved": 0}, {"lon": -77.03208966666666, "fusion_lon": 0.0, "bike_id": "1b6a211e8c6ac1e3a8bfa9f59c56d619", "type": "electric_scooter", "name": "1b6a211e8c6ac1e3a8bfa9f59c56d619", "rental_uris": {"android": "https://dc.lft.to/lastmile_qr_scan", "ios": "https://dc.lft.to/lastmile_qr_scan"}, "is_disabled": 0, "fusion_lat": 0.0, "lat": 38.925974, "is_reserved": 0}, {"lon": -77.06052616666666, "fusion_lon": 0.0, "bike_id": "30f7afdae10d19e450a36582a057b304", "type": "electric_scooter", "name": "30f7afdae10d19e450a36582a057b304", "rental_uris": {"android": "https://dc.lft.to/lastmile_qr_scan", "ios": "https://dc.lft.to/lastmile_qr_scan"}, "is_disabled": 0, "fusion_lat": 0.0, "lat": 38.93911333333333, "is_reserved": 0}, {"lon": -77.0382105, "fusion_lon": 0.0, "bike_id": "d3a3670b28e2592f63e80477f4346c82", "type": "electric_scooter", "name": "d3a3670b28e2592f63e80477f4346c82", "rental_uris": {"android": "https://dc.lft.to/lastmile_qr_scan", "ios": "https://dc.lft.to/lastmile_qr_scan"}, "is_disabled": 0, "fusion_lat": 0.0, "lat": 38.902820166666665, "is_reserved": 0}, {"lon": -77.035896, "fusion_lon": 0.0, "bike_id": "4f0198e71bcc83085cc328f731207fa3", "type": "electric_scooter", "name": "4f0198e71bcc83085cc328f731207fa3", "rental_uris": {"android": "https://dc.lft.to/lastmile_qr_scan", "ios": "https://dc.lft.to/lastmile_qr_scan"}, "is_disabled": 0, "fusion_lat": 0.0, "lat": 38.936736, "is_reserved": 0}, {"lon": -77.03981516666667, "fusion_lon": 0.0, "bike_id": "fb4f4158831ac35afa44bb2dc5e74b46", "type": "electric_scooter", "name": "fb4f4158831ac35afa44bb2dc5e74b46", "rental_uris": {"android": "https://dc.lft.to/lastmile_qr_scan", "ios": "https://dc.lft.to/lastmile_qr_scan"}, "is_disabled": 0, "fusion_lat": 0.0, "lat": 38.918131333333335, "is_reserved": 0}, {"lon": -77.04897766666667, "fusion_lon": 0.0, "bike_id": "db99353d464b47790ec91ce0d2293b6d", "type": "electric_scooter", "name": "db99353d464b47790ec91ce0d2293b6d", "rental_uris": {"android": "https://dc.lft.to/lastmile_qr_scan", "ios": "https://dc.lft.to/lastmile_qr_scan"}, "is_disabled": 0, "fusion_lat": 0.0, "lat": 38.889996333333336, "is_reserved": 0}, {"lon": -76.94704333333334, "fusion_lon": 0.0, "bike_id": "741a51181f1cade934f52d4193bda5a3", "type": "electric_scooter", "name": "741a51181f1cade934f52d4193bda5a3", "rental_uris": {"android": "https://dc.lft.to/lastmile_qr_scan", "ios": "https://dc.lft.to/lastmile_qr_scan"}, "is_disabled": 0, "fusion_lat": 0.0, "lat": 38.8973445, "is_reserved": 0}, {"lon": -77.054708, "fusion_lon": 0.0, "bike_id": "cb9c1cffbed86b60e43b18ee3e2cf63c", "type": "electric_scooter", "name": "cb9c1cffbed86b60e43b18ee3e2cf63c", "rental_uris": {"android": "https://dc.lft.to/lastmile_qr_scan", "ios": "https://dc.lft.to/lastmile_qr_scan"}, "is_disabled": 0, "fusion_lat": 0.0, "lat": 38.909488333333336, "is_reserved": 0}, {"lon": -76.990386, "fusion_lon": 0.0, "bike_id": "3cb1fec4e9c339c5547666e8444c403b", "type": "electric_scooter", "name": "3cb1fec4e9c339c5547666e8444c403b", "rental_uris": {"android": "https://dc.lft.to/lastmile_qr_scan", "ios": "https://dc.lft.to/lastmile_qr_scan"}, "is_disabled": 0, "fusion_lat": 0.0, "lat": 38.86389066666667, "is_reserved": 0}, {"lon": -77.00186133333334, "fusion_lon": 0.0, "bike_id": "1e8b52e57385cdf04938de3c486acef8", "type": "electric_scooter", "name": "1e8b52e57385cdf04938de3c486acef8", "rental_uris": {"android": "https://dc.lft.to/lastmile_qr_scan", "ios": "https://dc.lft.to/lastmile_qr_scan"}, "is_disabled": 0, "fusion_lat": 0.0, "lat": 38.90017683333333, "is_reserved": 0}, {"lon": -77.02602333333333, "fusion_lon": 0.0, "bike_id": "d5894a0707b907debbeb608b0206b865", "type": "electric_scooter", "name": "d5894a0707b907debbeb608b0206b865", "rental_uris": {"android": "https://dc.lft.to/lastmile_qr_scan", "ios": "https://dc.lft.to/lastmile_qr_scan"}, "is_disabled": 0, "fusion_lat": 0.0, "lat": 38.90438483333333, "is_reserved": 0}, {"lon": -76.96053283333333, "fusion_lon": 0.0, "bike_id": "d92b0a8e562816522c9bc931dabe5b91", "type": "electric_bike", "name": "d92b0a8e562816522c9bc931dabe5b91", "rental_uris": {"android": "https://dc.lft.to/lastmile_qr_scan", "ios": "https://dc.lft.to/lastmile_qr_scan"}, "is_disabled": 0, "fusion_lat": 0.0, "lat": 38.884023666666664, "is_reserved": 0}, {"lon": -77.0358755, "fusion_lon": 0.0, "bike_id": "36aa2c25d06ee8de4342d8b1218f1199", "type": "electric_scooter", "name": "36aa2c25d06ee8de4342d8b1218f1199", "rental_uris": {"android": "https://dc.lft.to/lastmile_qr_scan", "ios": "https://dc.lft.to/lastmile_qr_scan"}, "is_disabled": 0, "fusion_lat": 0.0, "lat": 38.992271833333334, "is_reserved": 0}, {"lon": -77.11753833333333, "fusion_lon": 0.0, "bike_id": "2c5166c8d6402ae2106c0198ca74b5e0", "type": "electric_bike", "name": "2c5166c8d6402ae2106c0198ca74b5e0", "rental_uris": {"android": "https://dc.lft.to/lastmile_qr_scan", "ios": "https://dc.lft.to/lastmile_qr_scan"}, "is_disabled": 0, "fusion_lat": 0.0, "lat": 39.0510785, "is_reserved": 0}, {"lon": -76.99042283333333, "fusion_lon": 0.0, "bike_id": "3b414f8673742a5c13d48493c3061441", "type": "electric_scooter", "name": "3b414f8673742a5c13d48493c3061441", "rental_uris": {"android": "https://dc.lft.to/lastmile_qr_scan", "ios": "https://dc.lft.to/lastmile_qr_scan"}, "is_disabled": 0, "fusion_lat": 0.0, "lat": 38.863906166666666, "is_reserved": 0}, {"lon": -77.04954916666667, "fusion_lon": 0.0, "bike_id": "f1754e3cb5c112abcc4ca8298e876b2b", "type": "electric_bike", "name": "f1754e3cb5c112abcc4ca8298e876b2b", "rental_uris": {"android": "https://dc.lft.to/lastmile_qr_scan", "ios": "https://dc.lft.to/lastmile_qr_scan"}, "is_disabled": 0, "fusion_lat": 0.0, "lat": 38.854679833333336, "is_reserved": 0}, {"lon": -77.0249895, "fusion_lon": 0.0, "bike_id": "75f694c654e748341692c3dffeb3acdd", "type": "electric_scooter", "name": "75f694c654e748341692c3dffeb3acdd", "rental_uris": {"android": "https://dc.lft.to/lastmile_qr_scan", "ios": "https://dc.lft.to/lastmile_qr_scan"}, "is_disabled": 0, "fusion_lat": 0.0, "lat": 38.94095566666667, "is_reserved": 0}, {"lon": -77.0391785, "fusion_lon": 0.0, "bike_id": "e7ad26a488b3e36a920a1575064169af", "type": "electric_scooter", "name": "e7ad26a488b3e36a920a1575064169af", "rental_uris": {"android": "https://dc.lft.to/lastmile_qr_scan", "ios": "https://dc.lft.to/lastmile_qr_scan"}, "is_disabled": 0, "fusion_lat": 0.0, "lat": 38.9048515, "is_reserved": 0}, {"lon": -77.0382865, "fusion_lon": 0.0, "bike_id": "afce3e94140c26f3cd44073238a6df22", "type": "electric_scooter", "name": "afce3e94140c26f3cd44073238a6df22", "rental_uris": {"android": "https://dc.lft.to/lastmile_qr_scan", "ios": "https://dc.lft.to/lastmile_qr_scan"}, "is_disabled": 0, "fusion_lat": 0.0, "lat": 38.915073666666665, "is_reserved": 0}, {"lon": -77.04029983333334, "fusion_lon": 0.0, "bike_id": "fb89ed51bddbdeedb4519dcd0a0d6c6c", "type": "electric_scooter", "name": "fb89ed51bddbdeedb4519dcd0a0d6c6c", "rental_uris": {"android": "https://dc.lft.to/lastmile_qr_scan", "ios": "https://dc.lft.to/lastmile_qr_scan"}, "is_disabled": 0, "fusion_lat": 0.0, "lat": 38.896621, "is_reserved": 0}, {"lon": -77.02369516666667, "fusion_lon": 0.0, "bike_id": "2641f488075111526ac3eae75a40e2e9", "type": "electric_scooter", "name": "2641f488075111526ac3eae75a40e2e9", "rental_uris": {"android": "https://dc.lft.to/lastmile_qr_scan", "ios": "https://dc.lft.to/lastmile_qr_scan"}, "is_disabled": 0, "fusion_lat": 0.0, "lat": 38.937454833333334, "is_reserved": 0}, {"lon": -77.02490683333333, "fusion_lon": 0.0, "bike_id": "0118ebdbb60373e8f2dda6b6160bf151", "type": "electric_scooter", "name": "0118ebdbb60373e8f2dda6b6160bf151", "rental_uris": {"android": "https://dc.lft.to/lastmile_qr_scan", "ios": "https://dc.lft.to/lastmile_qr_scan"}, "is_disabled": 0, "fusion_lat": 0.0, "lat": 38.9170125, "is_reserved": 0}, {"lon": -77.04589616666667, "fusion_lon": 0.0, "bike_id": "cfc078969e2e1f2428a5cca1a611cf62", "type": "electric_scooter", "name": "cfc078969e2e1f2428a5cca1a611cf62", "rental_uris": {"android": "https://dc.lft.to/lastmile_qr_scan", "ios": "https://dc.lft.to/lastmile_qr_scan"}, "is_disabled": 0, "fusion_lat": 0.0, "lat": 38.921306666666666, "is_reserved": 0}, {"lon": -77.03217266666667, "fusion_lon": 0.0, "bike_id": "77bd632fa813dbc16587ad69b5958169", "type": "electric_scooter", "name": "77bd632fa813dbc16587ad69b5958169", "rental_uris": {"android": "https://dc.lft.to/lastmile_qr_scan", "ios": "https://dc.lft.to/lastmile_qr_scan"}, "is_disabled": 0, "fusion_lat": 0.0, "lat": 38.92794816666667, "is_reserved": 0}, {"lon": -77.047713, "fusion_lon": 0.0, "bike_id": "48b55ca713a8b00096e0565a10221fb9", "type": "electric_scooter", "name": "48b55ca713a8b00096e0565a10221fb9", "rental_uris": {"android": "https://dc.lft.to/lastmile_qr_scan", "ios": "https://dc.lft.to/lastmile_qr_scan"}, "is_disabled": 0, "fusion_lat": 0.0, "lat": 38.917616, "is_reserved": 0}, {"lon": -77.01408983333333, "fusion_lon": 0.0, "bike_id": "d5519bd1008e0c8c47d8b174471141e7", "type": "electric_scooter", "name": "d5519bd1008e0c8c47d8b174471141e7", "rental_uris": {"android": "https://dc.lft.to/lastmile_qr_scan", "ios": "https://dc.lft.to/lastmile_qr_scan"}, "is_disabled": 0, "fusion_lat": 0.0, "lat": 38.928522666666666, "is_reserved": 0}, {"lon": -77.04868766666667, "fusion_lon": 0.0, "bike_id": "7cc2b5585ae3cdaec3bbab85fa361f73", "type": "electric_scooter", "name": "7cc2b5585ae3cdaec3bbab85fa361f73", "rental_uris": {"android": "https://dc.lft.to/lastmile_qr_scan", "ios": "https://dc.lft.to/lastmile_qr_scan"}, "is_disabled": 0, "fusion_lat": 0.0, "lat": 38.909754, "is_reserved": 0}, {"lon": -77.00533166666666, "fusion_lon": 0.0, "bike_id": "2e310d94254d0c408ecd192eaa1d522d", "type": "electric_scooter", "name": "2e310d94254d0c408ecd192eaa1d522d", "rental_uris": {"android": "https://dc.lft.to/lastmile_qr_scan", "ios": "https://dc.lft.to/lastmile_qr_scan"}, "is_disabled": 0, "fusion_lat": 0.0, "lat": 38.84647833333333, "is_reserved": 0}, {"lon": -77.04050433333333, "fusion_lon": 0.0, "bike_id": "d16b68e01fc0a8dcd2b7444ac3223147", "type": "electric_scooter", "name": "d16b68e01fc0a8dcd2b7444ac3223147", "rental_uris": {"android": "https://dc.lft.to/lastmile_qr_scan", "ios": "https://dc.lft.to/lastmile_qr_scan"}, "is_disabled": 0, "fusion_lat": 0.0, "lat": 38.90595483333333, "is_reserved": 0}, {"lon": -77.03713216666667, "fusion_lon": 0.0, "bike_id": "3ae15786ddb3d58da7d1ef19d4176640", "type": "electric_scooter", "name": "3ae15786ddb3d58da7d1ef19d4176640", "rental_uris": {"android": "https://dc.lft.to/lastmile_qr_scan", "ios": "https://dc.lft.to/lastmile_qr_scan"}, "is_disabled": 0, "fusion_lat": 0.0, "lat": 38.927982166666666, "is_reserved": 0}, {"lon": -77.01092333333334, "fusion_lon": 0.0, "bike_id": "11c497b06559c1f0683a9f56978ebc18", "type": "electric_bike", "name": "11c497b06559c1f0683a9f56978ebc18", "rental_uris": {"android": "https://dc.lft.to/lastmile_qr_scan", "ios": "https://dc.lft.to/lastmile_qr_scan"}, "is_disabled": 0, "fusion_lat": 0.0, "lat": 38.87309166666667, "is_reserved": 0}, {"lon": -77.0025565, "fusion_lon": 0.0, "bike_id": "60513491adfa66daef6b3036bce590d3", "type": "electric_scooter", "name": "60513491adfa66daef6b3036bce590d3", "rental_uris": {"android": "https://dc.lft.to/lastmile_qr_scan", "ios": "https://dc.lft.to/lastmile_qr_scan"}, "is_disabled": 0, "fusion_lat": 0.0, "lat": 38.894903666666664, "is_reserved": 0}, {"lon": -76.969127, "fusion_lon": 0.0, "bike_id": "68b3266e4221990780a78375b889c99b", "type": "electric_scooter", "name": "68b3266e4221990780a78375b889c99b", "rental_uris": {"android": "https://dc.lft.to/lastmile_qr_scan", "ios": "https://dc.lft.to/lastmile_qr_scan"}, "is_disabled": 0, "fusion_lat": 0.0, "lat": 38.855254, "is_reserved": 0}, {"lon": -77.041001, "fusion_lon": 0.0, "bike_id": "aad83ccc01ce1043df1a2df43bfb9d9e", "type": "electric_scooter", "name": "aad83ccc01ce1043df1a2df43bfb9d9e", "rental_uris": {"android": "https://dc.lft.to/lastmile_qr_scan", "ios": "https://dc.lft.to/lastmile_qr_scan"}, "is_disabled": 0, "fusion_lat": 0.0, "lat": 38.9105335, "is_reserved": 0}, {"lon": -76.937244, "fusion_lon": 0.0, "bike_id": "999987bdde415e0496902248eb2bb713", "type": "electric_scooter", "name": "999987bdde415e0496902248eb2bb713", "rental_uris": {"android": "https://dc.lft.to/lastmile_qr_scan", "ios": "https://dc.lft.to/lastmile_qr_scan"}, "is_disabled": 0, "fusion_lat": 0.0, "lat": 38.8903685, "is_reserved": 0}, {"lon": -76.9983625, "fusion_lon": 0.0, "bike_id": "aa22a6f2c3d034aa8a19883034a1f00e", "type": "electric_scooter", "name": "aa22a6f2c3d034aa8a19883034a1f00e", "rental_uris": {"android": "https://dc.lft.to/lastmile_qr_scan", "ios": "https://dc.lft.to/lastmile_qr_scan"}, "is_disabled": 0, "fusion_lat": 0.0, "lat": 38.900291833333334, "is_reserved": 0}, {"lon": -76.92657683333333, "fusion_lon": 0.0, "bike_id": "45632d56772108ea838472435f00954a", "type": "electric_scooter", "name": "45632d56772108ea838472435f00954a", "rental_uris": {"android": "https://dc.lft.to/lastmile_qr_scan", "ios": "https://dc.lft.to/lastmile_qr_scan"}, "is_disabled": 0, "fusion_lat": 0.0, "lat": 38.9017275, "is_reserved": 0}, {"lon": -77.01024283333334, "fusion_lon": 0.0, "bike_id": "022c2918c2f3f130c322a309b330d21f", "type": "electric_scooter", "name": "022c2918c2f3f130c322a309b330d21f", "rental_uris": {"android": "https://dc.lft.to/lastmile_qr_scan", "ios": "https://dc.lft.to/lastmile_qr_scan"}, "is_disabled": 0, "fusion_lat": 0.0, "lat": 38.920316, "is_reserved": 0}, {"lon": -77.01218133333333, "fusion_lon": 0.0, "bike_id": "79d5b13960451fef1acd305625a3a4e8", "type": "electric_scooter", "name": "79d5b13960451fef1acd305625a3a4e8", "rental_uris": {"android": "https://dc.lft.to/lastmile_qr_scan", "ios": "https://dc.lft.to/lastmile_qr_scan"}, "is_disabled": 0, "fusion_lat": 0.0, "lat": 38.916822833333335, "is_reserved": 0}, {"lon": -77.02952583333334, "fusion_lon": 0.0, "bike_id": "e019bce59aa15d8fb114f912cba75913", "type": "electric_scooter", "name": "e019bce59aa15d8fb114f912cba75913", "rental_uris": {"android": "https://dc.lft.to/lastmile_qr_scan", "ios": "https://dc.lft.to/lastmile_qr_scan"}, "is_disabled": 0, "fusion_lat": 0.0, "lat": 38.898391, "is_reserved": 0}, {"lon": -77.01759183333333, "fusion_lon": 0.0, "bike_id": "e2416fad607477d2636c78e87bb331ce", "type": "electric_scooter", "name": "e2416fad607477d2636c78e87bb331ce", "rental_uris": {"android": "https://dc.lft.to/lastmile_qr_scan", "ios": "https://dc.lft.to/lastmile_qr_scan"}, "is_disabled": 0, "fusion_lat": 0.0, "lat": 38.883166833333334, "is_reserved": 0}, {"lon": -77.02789533333333, "fusion_lon": 0.0, "bike_id": "46d5b67648cf06796c36457063b2bd09", "type": "electric_scooter", "name": "46d5b67648cf06796c36457063b2bd09", "rental_uris": {"android": "https://dc.lft.to/lastmile_qr_scan", "ios": "https://dc.lft.to/lastmile_qr_scan"}, "is_disabled": 0, "fusion_lat": 0.0, "lat": 38.89921833333333, "is_reserved": 0}, {"lon": -76.988943, "fusion_lon": 0.0, "bike_id": "12447ab00801a7ab9b09dae80b118344", "type": "electric_scooter", "name": "12447ab00801a7ab9b09dae80b118344", "rental_uris": {"android": "https://dc.lft.to/lastmile_qr_scan", "ios": "https://dc.lft.to/lastmile_qr_scan"}, "is_disabled": 0, "fusion_lat": 0.0, "lat": 38.86662183333333, "is_reserved": 0}, {"lon": -77.03369466666666, "fusion_lon": 0.0, "bike_id": "bf599f73ecd6eed77bcecd08244a629b", "type": "electric_scooter", "name": "bf599f73ecd6eed77bcecd08244a629b", "rental_uris": {"android": "https://dc.lft.to/lastmile_qr_scan", "ios": "https://dc.lft.to/lastmile_qr_scan"}, "is_disabled": 0, "fusion_lat": 0.0, "lat": 38.9205335, "is_reserved": 0}, {"lon": -76.98253516666666, "fusion_lon": 0.0, "bike_id": "0dc058d4f76d65ad8d16dfb5ce5f327d", "type": "electric_scooter", "name": "0dc058d4f76d65ad8d16dfb5ce5f327d", "rental_uris": {"android": "https://dc.lft.to/lastmile_qr_scan", "ios": "https://dc.lft.to/lastmile_qr_scan"}, "is_disabled": 0, "fusion_lat": 0.0, "lat": 38.89547183333333, "is_reserved": 0}, {"lon": -77.02458533333333, "fusion_lon": 0.0, "bike_id": "3c5fea9a45cd168ff313ef3e4f21ef80", "type": "electric_scooter", "name": "3c5fea9a45cd168ff313ef3e4f21ef80", "rental_uris": {"android": "https://dc.lft.to/lastmile_qr_scan", "ios": "https://dc.lft.to/lastmile_qr_scan"}, "is_disabled": 0, "fusion_lat": 0.0, "lat": 38.91705783333333, "is_reserved": 0}, {"lon": -77.0020185, "fusion_lon": 0.0, "bike_id": "cb8fec3f9a1da8d8b4af84ea680bf69e", "type": "electric_scooter", "name": "cb8fec3f9a1da8d8b4af84ea680bf69e", "rental_uris": {"android": "https://dc.lft.to/lastmile_qr_scan", "ios": "https://dc.lft.to/lastmile_qr_scan"}, "is_disabled": 0, "fusion_lat": 0.0, "lat": 38.90037733333333, "is_reserved": 0}, {"lon": -77.01916533333333, "fusion_lon": 0.0, "bike_id": "986232f9764e57edd5cc01c6d7d5a58d", "type": "electric_scooter", "name": "986232f9764e57edd5cc01c6d7d5a58d", "rental_uris": {"android": "https://dc.lft.to/lastmile_qr_scan", "ios": "https://dc.lft.to/lastmile_qr_scan"}, "is_disabled": 0, "fusion_lat": 0.0, "lat": 38.92362966666666, "is_reserved": 0}, {"lon": -77.02692716666667, "fusion_lon": 0.0, "bike_id": "001cf4aa1a28be969ac1d6db7148d9e0", "type": "electric_scooter", "name": "001cf4aa1a28be969ac1d6db7148d9e0", "rental_uris": {"android": "https://dc.lft.to/lastmile_qr_scan", "ios": "https://dc.lft.to/lastmile_qr_scan"}, "is_disabled": 0, "fusion_lat": 0.0, "lat": 38.90845766666666, "is_reserved": 0}, {"lon": -77.03828816666666, "fusion_lon": 0.0, "bike_id": "b869121b2f4dc10d30edd4fab3e2cbde", "type": "electric_scooter", "name": "b869121b2f4dc10d30edd4fab3e2cbde", "rental_uris": {"android": "https://dc.lft.to/lastmile_qr_scan", "ios": "https://dc.lft.to/lastmile_qr_scan"}, "is_disabled": 0, "fusion_lat": 0.0, "lat": 38.91268133333333, "is_reserved": 0}, {"lon": -77.02153283333334, "fusion_lon": 0.0, "bike_id": "65f87dfcd2fb6fbe2c6a1dd78146f7f8", "type": "electric_scooter", "name": "65f87dfcd2fb6fbe2c6a1dd78146f7f8", "rental_uris": {"android": "https://dc.lft.to/lastmile_qr_scan", "ios": "https://dc.lft.to/lastmile_qr_scan"}, "is_disabled": 0, "fusion_lat": 0.0, "lat": 38.958012333333336, "is_reserved": 0}, {"lon": -77.018529, "fusion_lon": 0.0, "bike_id": "5452db7ce963497720fb06d9fb5c6e0b", "type": "electric_scooter", "name": "5452db7ce963497720fb06d9fb5c6e0b", "rental_uris": {"android": "https://dc.lft.to/lastmile_qr_scan", "ios": "https://dc.lft.to/lastmile_qr_scan"}, "is_disabled": 0, "fusion_lat": 0.0, "lat": 38.97370733333333, "is_reserved": 0}, {"lon": -77.01772483333333, "fusion_lon": 0.0, "bike_id": "c0b778475d9c8fe780b5eb7ba6daf88d", "type": "electric_scooter", "name": "c0b778475d9c8fe780b5eb7ba6daf88d", "rental_uris": {"android": "https://dc.lft.to/lastmile_qr_scan", "ios": "https://dc.lft.to/lastmile_qr_scan"}, "is_disabled": 0, "fusion_lat": 0.0, "lat": 38.90270733333333, "is_reserved": 0}, {"lon": -77.0574025, "fusion_lon": 0.0, "bike_id": "5e01c75bbc880da33a3aa4b7bbef6c64", "type": "electric_scooter", "name": "5e01c75bbc880da33a3aa4b7bbef6c64", "rental_uris": {"android": "https://dc.lft.to/lastmile_qr_scan", "ios": "https://dc.lft.to/lastmile_qr_scan"}, "is_disabled": 0, "fusion_lat": 0.0, "lat": 38.933878666666665, "is_reserved": 0}, {"lon": -77.02480933333334, "fusion_lon": 0.0, "bike_id": "0d9201d9a29fb188ab8b43be957013f9", "type": "electric_scooter", "name": "0d9201d9a29fb188ab8b43be957013f9", "rental_uris": {"android": "https://dc.lft.to/lastmile_qr_scan", "ios": "https://dc.lft.to/lastmile_qr_scan"}, "is_disabled": 0, "fusion_lat": 0.0, "lat": 38.93101766666667, "is_reserved": 0}, {"lon": -77.05472716666667, "fusion_lon": 0.0, "bike_id": "d5364397d80231393210c59031f362d2", "type": "electric_scooter", "name": "d5364397d80231393210c59031f362d2", "rental_uris": {"android": "https://dc.lft.to/lastmile_qr_scan", "ios": "https://dc.lft.to/lastmile_qr_scan"}, "is_disabled": 0, "fusion_lat": 0.0, "lat": 38.8973135, "is_reserved": 0}, {"lon": -76.98561716666667, "fusion_lon": 0.0, "bike_id": "8852b8d4bd587be095b25238dd4769b4", "type": "electric_scooter", "name": "8852b8d4bd587be095b25238dd4769b4", "rental_uris": {"android": "https://dc.lft.to/lastmile_qr_scan", "ios": "https://dc.lft.to/lastmile_qr_scan"}, "is_disabled": 0, "fusion_lat": 0.0, "lat": 38.883557833333334, "is_reserved": 0}, {"lon": -77.03221666666667, "fusion_lon": 0.0, "bike_id": "374190e63d436a0740fa2e604c6e3f7b", "type": "electric_scooter", "name": "374190e63d436a0740fa2e604c6e3f7b", "rental_uris": {"android": "https://dc.lft.to/lastmile_qr_scan", "ios": "https://dc.lft.to/lastmile_qr_scan"}, "is_disabled": 0, "fusion_lat": 0.0, "lat": 38.92389166666667, "is_reserved": 0}, {"lon": -77.004473, "fusion_lon": 0.0, "bike_id": "ba43ac53fb694103ea00204fd25c0590", "type": "electric_scooter", "name": "ba43ac53fb694103ea00204fd25c0590", "rental_uris": {"android": "https://dc.lft.to/lastmile_qr_scan", "ios": "https://dc.lft.to/lastmile_qr_scan"}, "is_disabled": 0, "fusion_lat": 0.0, "lat": 38.876715, "is_reserved": 0}, {"lon": -77.05024066666667, "fusion_lon": 0.0, "bike_id": "7bf33cbbd4c05a01df93a302c430b2c2", "type": "electric_scooter", "name": "7bf33cbbd4c05a01df93a302c430b2c2", "rental_uris": {"android": "https://dc.lft.to/lastmile_qr_scan", "ios": "https://dc.lft.to/lastmile_qr_scan"}, "is_disabled": 0, "fusion_lat": 0.0, "lat": 38.8979005, "is_reserved": 0}, {"lon": -77.02778483333333, "fusion_lon": 0.0, "bike_id": "7851598406efe54318f031ec362534bd", "type": "electric_scooter", "name": "7851598406efe54318f031ec362534bd", "rental_uris": {"android": "https://dc.lft.to/lastmile_qr_scan", "ios": "https://dc.lft.to/lastmile_qr_scan"}, "is_disabled": 0, "fusion_lat": 0.0, "lat": 38.89904033333333, "is_reserved": 0}, {"lon": -77.02279416666667, "fusion_lon": 0.0, "bike_id": "f394c0a69729f628b23690bb8b5461e6", "type": "electric_scooter", "name": "f394c0a69729f628b23690bb8b5461e6", "rental_uris": {"android": "https://dc.lft.to/lastmile_qr_scan", "ios": "https://dc.lft.to/lastmile_qr_scan"}, "is_disabled": 0, "fusion_lat": 0.0, "lat": 38.917774333333334, "is_reserved": 0}, {"lon": -77.04345183333334, "fusion_lon": 0.0, "bike_id": "65d241f5aca0e775791f9da0298a8e10", "type": "electric_scooter", "name": "65d241f5aca0e775791f9da0298a8e10", "rental_uris": {"android": "https://dc.lft.to/lastmile_qr_scan", "ios": "https://dc.lft.to/lastmile_qr_scan"}, "is_disabled": 0, "fusion_lat": 0.0, "lat": 38.906117, "is_reserved": 0}, {"lon": -77.053458, "fusion_lon": 0.0, "bike_id": "d6774165bf1cce96848aa657cc395502", "type": "electric_scooter", "name": "d6774165bf1cce96848aa657cc395502", "rental_uris": {"android": "https://dc.lft.to/lastmile_qr_scan", "ios": "https://dc.lft.to/lastmile_qr_scan"}, "is_disabled": 0, "fusion_lat": 0.0, "lat": 38.902331833333335, "is_reserved": 0}, {"lon": -76.98571883333334, "fusion_lon": 0.0, "bike_id": "cd0790c14e79ccc19619c9f15cd81b7c", "type": "electric_scooter", "name": "cd0790c14e79ccc19619c9f15cd81b7c", "rental_uris": {"android": "https://dc.lft.to/lastmile_qr_scan", "ios": "https://dc.lft.to/lastmile_qr_scan"}, "is_disabled": 0, "fusion_lat": 0.0, "lat": 38.866824, "is_reserved": 0}, {"lon": -77.02714, "fusion_lon": 0.0, "bike_id": "fdfc49026adbe49281d8f579a2f51086", "type": "electric_scooter", "name": "fdfc49026adbe49281d8f579a2f51086", "rental_uris": {"android": "https://dc.lft.to/lastmile_qr_scan", "ios": "https://dc.lft.to/lastmile_qr_scan"}, "is_disabled": 0, "fusion_lat": 0.0, "lat": 38.90677733333333, "is_reserved": 0}, {"lon": -77.0074675, "fusion_lon": 0.0, "bike_id": "bba692c53147fe2ef0e66edd1521d94e", "type": "electric_scooter", "name": "bba692c53147fe2ef0e66edd1521d94e", "rental_uris": {"android": "https://dc.lft.to/lastmile_qr_scan", "ios": "https://dc.lft.to/lastmile_qr_scan"}, "is_disabled": 0, "fusion_lat": 0.0, "lat": 38.905007, "is_reserved": 0}, {"lon": -77.03455783333334, "fusion_lon": 0.0, "bike_id": "9b637d5bacd1fd6bf45b82e270c5f847", "type": "electric_scooter", "name": "9b637d5bacd1fd6bf45b82e270c5f847", "rental_uris": {"android": "https://dc.lft.to/lastmile_qr_scan", "ios": "https://dc.lft.to/lastmile_qr_scan"}, "is_disabled": 0, "fusion_lat": 0.0, "lat": 38.90852316666667, "is_reserved": 0}, {"lon": -76.979738, "fusion_lon": 0.0, "bike_id": "ab059099e285f8883ebc2234708371b2", "type": "electric_scooter", "name": "ab059099e285f8883ebc2234708371b2", "rental_uris": {"android": "https://dc.lft.to/lastmile_qr_scan", "ios": "https://dc.lft.to/lastmile_qr_scan"}, "is_disabled": 0, "fusion_lat": 0.0, "lat": 38.89750383333333, "is_reserved": 0}, {"lon": -77.0271395, "fusion_lon": 0.0, "bike_id": "ce1cb3f3b3a0a8828cff9a1c06405627", "type": "electric_scooter", "name": "ce1cb3f3b3a0a8828cff9a1c06405627", "rental_uris": {"android": "https://dc.lft.to/lastmile_qr_scan", "ios": "https://dc.lft.to/lastmile_qr_scan"}, "is_disabled": 0, "fusion_lat": 0.0, "lat": 38.91723983333333, "is_reserved": 0}, {"lon": -77.01312483333334, "fusion_lon": 0.0, "bike_id": "f344a210218e0661b3812c7dfd762e21", "type": "electric_scooter", "name": "f344a210218e0661b3812c7dfd762e21", "rental_uris": {"android": "https://dc.lft.to/lastmile_qr_scan", "ios": "https://dc.lft.to/lastmile_qr_scan"}, "is_disabled": 0, "fusion_lat": 0.0, "lat": 38.901382166666664, "is_reserved": 0}, {"lon": -77.08189616666667, "fusion_lon": 0.0, "bike_id": "682fd8edc7e92d8c98f108746ca7674f", "type": "electric_scooter", "name": "682fd8edc7e92d8c98f108746ca7674f", "rental_uris": {"android": "https://dc.lft.to/lastmile_qr_scan", "ios": "https://dc.lft.to/lastmile_qr_scan"}, "is_disabled": 0, "fusion_lat": 0.0, "lat": 38.935583666666666, "is_reserved": 0}, {"lon": -77.04173616666667, "fusion_lon": 0.0, "bike_id": "33fd849cd38346a70929e15d7bad3120", "type": "electric_scooter", "name": "33fd849cd38346a70929e15d7bad3120", "rental_uris": {"android": "https://dc.lft.to/lastmile_qr_scan", "ios": "https://dc.lft.to/lastmile_qr_scan"}, "is_disabled": 0, "fusion_lat": 0.0, "lat": 38.91860033333333, "is_reserved": 0}, {"lon": -77.021991, "fusion_lon": 0.0, "bike_id": "6fd7ee6bf1ec9d8629bf556a425488a9", "type": "electric_scooter", "name": "6fd7ee6bf1ec9d8629bf556a425488a9", "rental_uris": {"android": "https://dc.lft.to/lastmile_qr_scan", "ios": "https://dc.lft.to/lastmile_qr_scan"}, "is_disabled": 0, "fusion_lat": 0.0, "lat": 38.896186, "is_reserved": 0}, {"lon": -77.04644066666667, "fusion_lon": 0.0, "bike_id": "00c966b53aba7d5b6eca21434b92bc36", "type": "electric_scooter", "name": "00c966b53aba7d5b6eca21434b92bc36", "rental_uris": {"android": "https://dc.lft.to/lastmile_qr_scan", "ios": "https://dc.lft.to/lastmile_qr_scan"}, "is_disabled": 0, "fusion_lat": 0.0, "lat": 38.9014345, "is_reserved": 0}, {"lon": -77.05067366666667, "fusion_lon": 0.0, "bike_id": "20f33a669196db79d3f63720e2cf2894", "type": "electric_scooter", "name": "20f33a669196db79d3f63720e2cf2894", "rental_uris": {"android": "https://dc.lft.to/lastmile_qr_scan", "ios": "https://dc.lft.to/lastmile_qr_scan"}, "is_disabled": 0, "fusion_lat": 0.0, "lat": 38.92535566666667, "is_reserved": 0}, {"lon": -77.049807, "fusion_lon": 0.0, "bike_id": "818380316b42d56d10faec9d9d7e0b5b", "type": "electric_scooter", "name": "818380316b42d56d10faec9d9d7e0b5b", "rental_uris": {"android": "https://dc.lft.to/lastmile_qr_scan", "ios": "https://dc.lft.to/lastmile_qr_scan"}, "is_disabled": 0, "fusion_lat": 0.0, "lat": 38.91112916666667, "is_reserved": 0}, {"lon": -76.93337466666667, "fusion_lon": 0.0, "bike_id": "e4617ff0a51984e58a2ff36e6d406571", "type": "electric_scooter", "name": "e4617ff0a51984e58a2ff36e6d406571", "rental_uris": {"android": "https://dc.lft.to/lastmile_qr_scan", "ios": "https://dc.lft.to/lastmile_qr_scan"}, "is_disabled": 0, "fusion_lat": 0.0, "lat": 38.908699166666665, "is_reserved": 0}, {"lon": -77.05348516666666, "fusion_lon": 0.0, "bike_id": "f12990bc460bf63263f94b28e6fa8c34", "type": "electric_scooter", "name": "f12990bc460bf63263f94b28e6fa8c34", "rental_uris": {"android": "https://dc.lft.to/lastmile_qr_scan", "ios": "https://dc.lft.to/lastmile_qr_scan"}, "is_disabled": 0, "fusion_lat": 0.0, "lat": 38.92712916666667, "is_reserved": 0}, {"lon": -77.03970883333334, "fusion_lon": 0.0, "bike_id": "e3408cbb663c37b552140e328902203c", "type": "electric_scooter", "name": "e3408cbb663c37b552140e328902203c", "rental_uris": {"android": "https://dc.lft.to/lastmile_qr_scan", "ios": "https://dc.lft.to/lastmile_qr_scan"}, "is_disabled": 0, "fusion_lat": 0.0, "lat": 38.894352, "is_reserved": 0}, {"lon": -77.03443416666667, "fusion_lon": 0.0, "bike_id": "4993066b9d12b99bc8cd0d58186edf46", "type": "electric_scooter", "name": "4993066b9d12b99bc8cd0d58186edf46", "rental_uris": {"android": "https://dc.lft.to/lastmile_qr_scan", "ios": "https://dc.lft.to/lastmile_qr_scan"}, "is_disabled": 0, "fusion_lat": 0.0, "lat": 38.91741433333333, "is_reserved": 0}, {"lon": -77.0382475, "fusion_lon": 0.0, "bike_id": "64d87ffcd91aea7df8dc832aa0824e16", "type": "electric_scooter", "name": "64d87ffcd91aea7df8dc832aa0824e16", "rental_uris": {"android": "https://dc.lft.to/lastmile_qr_scan", "ios": "https://dc.lft.to/lastmile_qr_scan"}, "is_disabled": 0, "fusion_lat": 0.0, "lat": 38.91254033333333, "is_reserved": 0}, {"lon": -77.03258216666667, "fusion_lon": 0.0, "bike_id": "7137faa1d1b2d1ed48a6ad36538bd249", "type": "electric_scooter", "name": "7137faa1d1b2d1ed48a6ad36538bd249", "rental_uris": {"android": "https://dc.lft.to/lastmile_qr_scan", "ios": "https://dc.lft.to/lastmile_qr_scan"}, "is_disabled": 0, "fusion_lat": 0.0, "lat": 38.9339915, "is_reserved": 0}, {"lon": -77.01857633333333, "fusion_lon": 0.0, "bike_id": "5c73aa240d67f7b9a6cafe7849463098", "type": "electric_scooter", "name": "5c73aa240d67f7b9a6cafe7849463098", "rental_uris": {"android": "https://dc.lft.to/lastmile_qr_scan", "ios": "https://dc.lft.to/lastmile_qr_scan"}, "is_disabled": 0, "fusion_lat": 0.0, "lat": 38.9491885, "is_reserved": 0}, {"lon": -77.06791533333333, "fusion_lon": 0.0, "bike_id": "22d18cad60cd35b833fff870034c9ed7", "type": "electric_scooter", "name": "22d18cad60cd35b833fff870034c9ed7", "rental_uris": {"android": "https://dc.lft.to/lastmile_qr_scan", "ios": "https://dc.lft.to/lastmile_qr_scan"}, "is_disabled": 0, "fusion_lat": 0.0, "lat": 38.9128415, "is_reserved": 0}, {"lon": -77.0392385, "fusion_lon": 0.0, "bike_id": "e3c6e7a5673a53406fcd6312ee842d0c", "type": "electric_scooter", "name": "e3c6e7a5673a53406fcd6312ee842d0c", "rental_uris": {"android": "https://dc.lft.to/lastmile_qr_scan", "ios": "https://dc.lft.to/lastmile_qr_scan"}, "is_disabled": 0, "fusion_lat": 0.0, "lat": 38.9027795, "is_reserved": 0}, {"lon": -77.0258145, "fusion_lon": 0.0, "bike_id": "b9c1fd98af4e801cd602ad67e267cca0", "type": "electric_scooter", "name": "b9c1fd98af4e801cd602ad67e267cca0", "rental_uris": {"android": "https://dc.lft.to/lastmile_qr_scan", "ios": "https://dc.lft.to/lastmile_qr_scan"}, "is_disabled": 0, "fusion_lat": 0.0, "lat": 38.90429966666667, "is_reserved": 0}, {"lon": -77.02813866666666, "fusion_lon": 0.0, "bike_id": "e1187c9491e9c3232e72cbc37e89bec2", "type": "electric_bike", "name": "e1187c9491e9c3232e72cbc37e89bec2", "rental_uris": {"android": "https://dc.lft.to/lastmile_qr_scan", "ios": "https://dc.lft.to/lastmile_qr_scan"}, "is_disabled": 0, "fusion_lat": 0.0, "lat": 38.965667, "is_reserved": 0}, {"lon": -77.01605766666667, "fusion_lon": 0.0, "bike_id": "ab64c10cec04241ec87124b6124a8bf0", "type": "electric_scooter", "name": "ab64c10cec04241ec87124b6124a8bf0", "rental_uris": {"android": "https://dc.lft.to/lastmile_qr_scan", "ios": "https://dc.lft.to/lastmile_qr_scan"}, "is_disabled": 0, "fusion_lat": 0.0, "lat": 38.90325, "is_reserved": 0}, {"lon": -77.03215533333334, "fusion_lon": 0.0, "bike_id": "a13d9a3c0db00e8e37a919c15b48fadd", "type": "electric_scooter", "name": "a13d9a3c0db00e8e37a919c15b48fadd", "rental_uris": {"android": "https://dc.lft.to/lastmile_qr_scan", "ios": "https://dc.lft.to/lastmile_qr_scan"}, "is_disabled": 0, "fusion_lat": 0.0, "lat": 38.91429633333333, "is_reserved": 0}, {"lon": -76.997377, "fusion_lon": 0.0, "bike_id": "60ab6ee9e795d7aea80ace89a6a38f7e", "type": "electric_bike", "name": "60ab6ee9e795d7aea80ace89a6a38f7e", "rental_uris": {"android": "https://dc.lft.to/lastmile_qr_scan", "ios": "https://dc.lft.to/lastmile_qr_scan"}, "is_disabled": 0, "fusion_lat": 0.0, "lat": 39.0423905, "is_reserved": 0}, {"lon": -77.02288533333333, "fusion_lon": 0.0, "bike_id": "ed4d5fc4e20bd3210b08597242295166", "type": "electric_scooter", "name": "ed4d5fc4e20bd3210b08597242295166", "rental_uris": {"android": "https://dc.lft.to/lastmile_qr_scan", "ios": "https://dc.lft.to/lastmile_qr_scan"}, "is_disabled": 0, "fusion_lat": 0.0, "lat": 38.916084, "is_reserved": 0}, {"lon": -77.04392233333333, "fusion_lon": 0.0, "bike_id": "2c11cbf86cdaec9404377cd2ebfa0e75", "type": "electric_scooter", "name": "2c11cbf86cdaec9404377cd2ebfa0e75", "rental_uris": {"android": "https://dc.lft.to/lastmile_qr_scan", "ios": "https://dc.lft.to/lastmile_qr_scan"}, "is_disabled": 0, "fusion_lat": 0.0, "lat": 38.91922066666667, "is_reserved": 0}, {"lon": -76.98466833333333, "fusion_lon": 0.0, "bike_id": "eba1793d98d062156f66f848137056b4", "type": "electric_scooter", "name": "eba1793d98d062156f66f848137056b4", "rental_uris": {"android": "https://dc.lft.to/lastmile_qr_scan", "ios": "https://dc.lft.to/lastmile_qr_scan"}, "is_disabled": 0, "fusion_lat": 0.0, "lat": 38.90397633333333, "is_reserved": 0}, {"lon": -77.0249615, "fusion_lon": 0.0, "bike_id": "2da282095d978a8fd62d0403fe9f4c87", "type": "electric_scooter", "name": "2da282095d978a8fd62d0403fe9f4c87", "rental_uris": {"android": "https://dc.lft.to/lastmile_qr_scan", "ios": "https://dc.lft.to/lastmile_qr_scan"}, "is_disabled": 0, "fusion_lat": 0.0, "lat": 38.9180595, "is_reserved": 0}, {"lon": -77.03641433333334, "fusion_lon": 0.0, "bike_id": "bdb7326f7bfa595c1e8a2c51958c337d", "type": "electric_scooter", "name": "bdb7326f7bfa595c1e8a2c51958c337d", "rental_uris": {"android": "https://dc.lft.to/lastmile_qr_scan", "ios": "https://dc.lft.to/lastmile_qr_scan"}, "is_disabled": 0, "fusion_lat": 0.0, "lat": 38.918257833333335, "is_reserved": 0}, {"lon": -77.01159, "fusion_lon": 0.0, "bike_id": "479b0e519233140fd9b8d1bf0251501a", "type": "electric_scooter", "name": "479b0e519233140fd9b8d1bf0251501a", "rental_uris": {"android": "https://dc.lft.to/lastmile_qr_scan", "ios": "https://dc.lft.to/lastmile_qr_scan"}, "is_disabled": 0, "fusion_lat": 0.0, "lat": 38.912707, "is_reserved": 0}, {"lon": -77.01352233333333, "fusion_lon": 0.0, "bike_id": "d605d1553ec2358edb1b7fc5ef8ded1b", "type": "electric_scooter", "name": "d605d1553ec2358edb1b7fc5ef8ded1b", "rental_uris": {"android": "https://dc.lft.to/lastmile_qr_scan", "ios": "https://dc.lft.to/lastmile_qr_scan"}, "is_disabled": 0, "fusion_lat": 0.0, "lat": 38.8716045, "is_reserved": 0}, {"lon": -77.02798983333334, "fusion_lon": 0.0, "bike_id": "691d0429ce329a2c466ef8e884833eca", "type": "electric_scooter", "name": "691d0429ce329a2c466ef8e884833eca", "rental_uris": {"android": "https://dc.lft.to/lastmile_qr_scan", "ios": "https://dc.lft.to/lastmile_qr_scan"}, "is_disabled": 0, "fusion_lat": 0.0, "lat": 38.90470416666667, "is_reserved": 0}, {"lon": -76.996292, "fusion_lon": 0.0, "bike_id": "b51330582102fb9356b036f84d1c2b64", "type": "electric_scooter", "name": "b51330582102fb9356b036f84d1c2b64", "rental_uris": {"android": "https://dc.lft.to/lastmile_qr_scan", "ios": "https://dc.lft.to/lastmile_qr_scan"}, "is_disabled": 0, "fusion_lat": 0.0, "lat": 38.90066216666666, "is_reserved": 0}, {"lon": -77.03999783333333, "fusion_lon": 0.0, "bike_id": "46ae0db7456ecb75f764c2bad651330b", "type": "electric_scooter", "name": "46ae0db7456ecb75f764c2bad651330b", "rental_uris": {"android": "https://dc.lft.to/lastmile_qr_scan", "ios": "https://dc.lft.to/lastmile_qr_scan"}, "is_disabled": 0, "fusion_lat": 0.0, "lat": 38.924595, "is_reserved": 0}, {"lon": -76.97344033333333, "fusion_lon": 0.0, "bike_id": "635cfaec7098f52faa2fdcc654f1a860", "type": "electric_scooter", "name": "635cfaec7098f52faa2fdcc654f1a860", "rental_uris": {"android": "https://dc.lft.to/lastmile_qr_scan", "ios": "https://dc.lft.to/lastmile_qr_scan"}, "is_disabled": 0, "fusion_lat": 0.0, "lat": 38.86516916666667, "is_reserved": 0}, {"lon": -77.01368416666666, "fusion_lon": 0.0, "bike_id": "20ae88c468ba142b65b1292e3b9615c2", "type": "electric_scooter", "name": "20ae88c468ba142b65b1292e3b9615c2", "rental_uris": {"android": "https://dc.lft.to/lastmile_qr_scan", "ios": "https://dc.lft.to/lastmile_qr_scan"}, "is_disabled": 0, "fusion_lat": 0.0, "lat": 38.91917433333333, "is_reserved": 0}, {"lon": -76.9957945, "fusion_lon": 0.0, "bike_id": "14109f4a80cc91614516f39e78b6116b", "type": "electric_scooter", "name": "14109f4a80cc91614516f39e78b6116b", "rental_uris": {"android": "https://dc.lft.to/lastmile_qr_scan", "ios": "https://dc.lft.to/lastmile_qr_scan"}, "is_disabled": 0, "fusion_lat": 0.0, "lat": 38.85176833333333, "is_reserved": 0}, {"lon": -77.060704, "fusion_lon": 0.0, "bike_id": "f39011364a6b12d02654d01ddec2410b", "type": "electric_scooter", "name": "f39011364a6b12d02654d01ddec2410b", "rental_uris": {"android": "https://dc.lft.to/lastmile_qr_scan", "ios": "https://dc.lft.to/lastmile_qr_scan"}, "is_disabled": 0, "fusion_lat": 0.0, "lat": 38.906903666666665, "is_reserved": 0}, {"lon": -77.03189383333333, "fusion_lon": 0.0, "bike_id": "dbf2af6c49fafd6fda3d05ebfed91f3c", "type": "electric_scooter", "name": "dbf2af6c49fafd6fda3d05ebfed91f3c", "rental_uris": {"android": "https://dc.lft.to/lastmile_qr_scan", "ios": "https://dc.lft.to/lastmile_qr_scan"}, "is_disabled": 0, "fusion_lat": 0.0, "lat": 38.916121833333335, "is_reserved": 0}, {"lon": -77.021728, "fusion_lon": 0.0, "bike_id": "7ef292eaef8dee48b9a0ead16b8ec015", "type": "electric_scooter", "name": "7ef292eaef8dee48b9a0ead16b8ec015", "rental_uris": {"android": "https://dc.lft.to/lastmile_qr_scan", "ios": "https://dc.lft.to/lastmile_qr_scan"}, "is_disabled": 0, "fusion_lat": 0.0, "lat": 38.905697, "is_reserved": 0}, {"lon": -77.00293616666667, "fusion_lon": 0.0, "bike_id": "1e0888ece5b36592c3d48be553a8ab2a", "type": "electric_scooter", "name": "1e0888ece5b36592c3d48be553a8ab2a", "rental_uris": {"android": "https://dc.lft.to/lastmile_qr_scan", "ios": "https://dc.lft.to/lastmile_qr_scan"}, "is_disabled": 0, "fusion_lat": 0.0, "lat": 38.918203166666665, "is_reserved": 0}, {"lon": -77.002354, "fusion_lon": 0.0, "bike_id": "61f3b9ccb914515e2762c9c7d02f2a90", "type": "electric_scooter", "name": "61f3b9ccb914515e2762c9c7d02f2a90", "rental_uris": {"android": "https://dc.lft.to/lastmile_qr_scan", "ios": "https://dc.lft.to/lastmile_qr_scan"}, "is_disabled": 0, "fusion_lat": 0.0, "lat": 38.874743333333335, "is_reserved": 0}, {"lon": -76.987179, "fusion_lon": 0.0, "bike_id": "ecfe2d9f0a4e2554fb886980ab22deb5", "type": "electric_scooter", "name": "ecfe2d9f0a4e2554fb886980ab22deb5", "rental_uris": {"android": "https://dc.lft.to/lastmile_qr_scan", "ios": "https://dc.lft.to/lastmile_qr_scan"}, "is_disabled": 0, "fusion_lat": 0.0, "lat": 38.86628366666667, "is_reserved": 0}, {"lon": -76.97407766666667, "fusion_lon": 0.0, "bike_id": "11117a2e89d8f9a0caf79f4cea84537f", "type": "electric_bike", "name": "11117a2e89d8f9a0caf79f4cea84537f", "rental_uris": {"android": "https://dc.lft.to/lastmile_qr_scan", "ios": "https://dc.lft.to/lastmile_qr_scan"}, "is_disabled": 0, "fusion_lat": 0.0, "lat": 38.902114, "is_reserved": 0}, {"lon": -76.9842385, "fusion_lon": 0.0, "bike_id": "33c64e5027244dfdf0c45af5bf51a155", "type": "electric_bike", "name": "33c64e5027244dfdf0c45af5bf51a155", "rental_uris": {"android": "https://dc.lft.to/lastmile_qr_scan", "ios": "https://dc.lft.to/lastmile_qr_scan"}, "is_disabled": 0, "fusion_lat": 0.0, "lat": 38.926465666666665, "is_reserved": 0}, {"lon": -76.95507816666667, "fusion_lon": 0.0, "bike_id": "d0dba64537cd07ddda41361678e10ba2", "type": "electric_bike", "name": "d0dba64537cd07ddda41361678e10ba2", "rental_uris": {"android": "https://dc.lft.to/lastmile_qr_scan", "ios": "https://dc.lft.to/lastmile_qr_scan"}, "is_disabled": 0, "fusion_lat": 0.0, "lat": 38.939228, "is_reserved": 0}, {"lon": -77.0240645, "fusion_lon": 0.0, "bike_id": "f9ef26ed27fa7f8b6dc5385c10953ec2", "type": "electric_scooter", "name": "f9ef26ed27fa7f8b6dc5385c10953ec2", "rental_uris": {"android": "https://dc.lft.to/lastmile_qr_scan", "ios": "https://dc.lft.to/lastmile_qr_scan"}, "is_disabled": 0, "fusion_lat": 0.0, "lat": 38.879894, "is_reserved": 0}, {"lon": -76.99944383333333, "fusion_lon": 0.0, "bike_id": "7b15370bcfb7220c68492d1a412aac1f", "type": "electric_scooter", "name": "7b15370bcfb7220c68492d1a412aac1f", "rental_uris": {"android": "https://dc.lft.to/lastmile_qr_scan", "ios": "https://dc.lft.to/lastmile_qr_scan"}, "is_disabled": 0, "fusion_lat": 0.0, "lat": 38.84292333333333, "is_reserved": 0}, {"lon": -77.02401283333333, "fusion_lon": 0.0, "bike_id": "a0528813fd7d83b229125a6765c0b230", "type": "electric_scooter", "name": "a0528813fd7d83b229125a6765c0b230", "rental_uris": {"android": "https://dc.lft.to/lastmile_qr_scan", "ios": "https://dc.lft.to/lastmile_qr_scan"}, "is_disabled": 0, "fusion_lat": 0.0, "lat": 38.919245, "is_reserved": 0}, {"lon": -77.04264133333334, "fusion_lon": 0.0, "bike_id": "fd19cf1333ba444825a601fc0e54c382", "type": "electric_scooter", "name": "fd19cf1333ba444825a601fc0e54c382", "rental_uris": {"android": "https://dc.lft.to/lastmile_qr_scan", "ios": "https://dc.lft.to/lastmile_qr_scan"}, "is_disabled": 0, "fusion_lat": 0.0, "lat": 38.9086115, "is_reserved": 0}, {"lon": -77.032546, "fusion_lon": 0.0, "bike_id": "8476f423dbdc6ad8efdfafb9f2140d72", "type": "electric_scooter", "name": "8476f423dbdc6ad8efdfafb9f2140d72", "rental_uris": {"android": "https://dc.lft.to/lastmile_qr_scan", "ios": "https://dc.lft.to/lastmile_qr_scan"}, "is_disabled": 0, "fusion_lat": 0.0, "lat": 38.90563216666666, "is_reserved": 0}, {"lon": -77.01765416666667, "fusion_lon": 0.0, "bike_id": "7d33284265d3bdb1bcb74927899765cd", "type": "electric_scooter", "name": "7d33284265d3bdb1bcb74927899765cd", "rental_uris": {"android": "https://dc.lft.to/lastmile_qr_scan", "ios": "https://dc.lft.to/lastmile_qr_scan"}, "is_disabled": 0, "fusion_lat": 0.0, "lat": 38.9026535, "is_reserved": 0}, {"lon": -77.024828, "fusion_lon": 0.0, "bike_id": "fbe9a959323a6a4788e6fb71ea157853", "type": "electric_scooter", "name": "fbe9a959323a6a4788e6fb71ea157853", "rental_uris": {"android": "https://dc.lft.to/lastmile_qr_scan", "ios": "https://dc.lft.to/lastmile_qr_scan"}, "is_disabled": 0, "fusion_lat": 0.0, "lat": 38.938844333333336, "is_reserved": 0}, {"lon": -76.99514616666667, "fusion_lon": 0.0, "bike_id": "dad9609fbf24a8d77a8fe4afa7858131", "type": "electric_scooter", "name": "dad9609fbf24a8d77a8fe4afa7858131", "rental_uris": {"android": "https://dc.lft.to/lastmile_qr_scan", "ios": "https://dc.lft.to/lastmile_qr_scan"}, "is_disabled": 0, "fusion_lat": 0.0, "lat": 38.933822, "is_reserved": 0}, {"lon": -77.03860583333334, "fusion_lon": 0.0, "bike_id": "563a458afe0767eb1ef5b290e2d7e699", "type": "electric_scooter", "name": "563a458afe0767eb1ef5b290e2d7e699", "rental_uris": {"android": "https://dc.lft.to/lastmile_qr_scan", "ios": "https://dc.lft.to/lastmile_qr_scan"}, "is_disabled": 0, "fusion_lat": 0.0, "lat": 38.916894166666665, "is_reserved": 0}, {"lon": -77.053399, "fusion_lon": 0.0, "bike_id": "f57b11d3df5ae87900c8f240a642288f", "type": "electric_bike", "name": "f57b11d3df5ae87900c8f240a642288f", "rental_uris": {"android": "https://dc.lft.to/lastmile_qr_scan", "ios": "https://dc.lft.to/lastmile_qr_scan"}, "is_disabled": 0, "fusion_lat": 0.0, "lat": 39.0408795, "is_reserved": 0}, {"lon": -77.046774, "fusion_lon": 0.0, "bike_id": "397b3b87c281dc3baab8d9ebe04c7d01", "type": "electric_scooter", "name": "397b3b87c281dc3baab8d9ebe04c7d01", "rental_uris": {"android": "https://dc.lft.to/lastmile_qr_scan", "ios": "https://dc.lft.to/lastmile_qr_scan"}, "is_disabled": 0, "fusion_lat": 0.0, "lat": 38.89558383333333, "is_reserved": 0}, {"lon": -76.95093383333334, "fusion_lon": 0.0, "bike_id": "8d3f288f12bd0d67d5795d65fb838fd9", "type": "electric_scooter", "name": "8d3f288f12bd0d67d5795d65fb838fd9", "rental_uris": {"android": "https://dc.lft.to/lastmile_qr_scan", "ios": "https://dc.lft.to/lastmile_qr_scan"}, "is_disabled": 0, "fusion_lat": 0.0, "lat": 38.88450666666667, "is_reserved": 0}, {"lon": -77.05270216666666, "fusion_lon": 0.0, "bike_id": "3269f688c9c88db80c978419c7b73d49", "type": "electric_scooter", "name": "3269f688c9c88db80c978419c7b73d49", "rental_uris": {"android": "https://dc.lft.to/lastmile_qr_scan", "ios": "https://dc.lft.to/lastmile_qr_scan"}, "is_disabled": 0, "fusion_lat": 0.0, "lat": 38.925590666666665, "is_reserved": 0}, {"lon": -77.03349466666667, "fusion_lon": 0.0, "bike_id": "7ac4ed4f19bb737cbfad6e2d30273745", "type": "electric_scooter", "name": "7ac4ed4f19bb737cbfad6e2d30273745", "rental_uris": {"android": "https://dc.lft.to/lastmile_qr_scan", "ios": "https://dc.lft.to/lastmile_qr_scan"}, "is_disabled": 0, "fusion_lat": 0.0, "lat": 38.9358255, "is_reserved": 0}, {"lon": -77.01152683333333, "fusion_lon": 0.0, "bike_id": "d0fd6c7938f0833b5871ea44b6fb41ef", "type": "electric_scooter", "name": "d0fd6c7938f0833b5871ea44b6fb41ef", "rental_uris": {"android": "https://dc.lft.to/lastmile_qr_scan", "ios": "https://dc.lft.to/lastmile_qr_scan"}, "is_disabled": 0, "fusion_lat": 0.0, "lat": 38.9110895, "is_reserved": 0}, {"lon": -76.990335, "fusion_lon": 0.0, "bike_id": "c40a440d075c1c51c5a22af9a96e5088", "type": "electric_scooter", "name": "c40a440d075c1c51c5a22af9a96e5088", "rental_uris": {"android": "https://dc.lft.to/lastmile_qr_scan", "ios": "https://dc.lft.to/lastmile_qr_scan"}, "is_disabled": 0, "fusion_lat": 0.0, "lat": 38.89853316666667, "is_reserved": 0}, {"lon": -77.0266, "fusion_lon": 0.0, "bike_id": "737c65dd11c76f38ffc37f5cfbb8b973", "type": "electric_scooter", "name": "737c65dd11c76f38ffc37f5cfbb8b973", "rental_uris": {"android": "https://dc.lft.to/lastmile_qr_scan", "ios": "https://dc.lft.to/lastmile_qr_scan"}, "is_disabled": 0, "fusion_lat": 0.0, "lat": 38.9310095, "is_reserved": 0}, {"lon": -77.024984, "fusion_lon": 0.0, "bike_id": "b6adc0831ed6810f9d12943eb9e7444e", "type": "electric_scooter", "name": "b6adc0831ed6810f9d12943eb9e7444e", "rental_uris": {"android": "https://dc.lft.to/lastmile_qr_scan", "ios": "https://dc.lft.to/lastmile_qr_scan"}, "is_disabled": 0, "fusion_lat": 0.0, "lat": 38.939394, "is_reserved": 0}, {"lon": -77.03178833333334, "fusion_lon": 0.0, "bike_id": "751504f43cb58b1864486080b61a6e9b", "type": "electric_scooter", "name": "751504f43cb58b1864486080b61a6e9b", "rental_uris": {"android": "https://dc.lft.to/lastmile_qr_scan", "ios": "https://dc.lft.to/lastmile_qr_scan"}, "is_disabled": 0, "fusion_lat": 0.0, "lat": 38.9155025, "is_reserved": 0}, {"lon": -76.99909416666667, "fusion_lon": 0.0, "bike_id": "4efd547750a197c60ec3be3b2e7a94e0", "type": "electric_scooter", "name": "4efd547750a197c60ec3be3b2e7a94e0", "rental_uris": {"android": "https://dc.lft.to/lastmile_qr_scan", "ios": "https://dc.lft.to/lastmile_qr_scan"}, "is_disabled": 0, "fusion_lat": 0.0, "lat": 38.932139166666666, "is_reserved": 0}, {"lon": -77.0422865, "fusion_lon": 0.0, "bike_id": "39929a6ab2e801b24b4c2bf9e9d2f351", "type": "electric_scooter", "name": "39929a6ab2e801b24b4c2bf9e9d2f351", "rental_uris": {"android": "https://dc.lft.to/lastmile_qr_scan", "ios": "https://dc.lft.to/lastmile_qr_scan"}, "is_disabled": 0, "fusion_lat": 0.0, "lat": 38.911096666666666, "is_reserved": 0}, {"lon": -77.0392025, "fusion_lon": 0.0, "bike_id": "75a3985134ca05513255aaa9ed89a287", "type": "electric_scooter", "name": "75a3985134ca05513255aaa9ed89a287", "rental_uris": {"android": "https://dc.lft.to/lastmile_qr_scan", "ios": "https://dc.lft.to/lastmile_qr_scan"}, "is_disabled": 0, "fusion_lat": 0.0, "lat": 38.91110066666667, "is_reserved": 0}, {"lon": -77.03859216666666, "fusion_lon": 0.0, "bike_id": "5bc9f54e6619a337415c8403083a15e9", "type": "electric_scooter", "name": "5bc9f54e6619a337415c8403083a15e9", "rental_uris": {"android": "https://dc.lft.to/lastmile_qr_scan", "ios": "https://dc.lft.to/lastmile_qr_scan"}, "is_disabled": 0, "fusion_lat": 0.0, "lat": 38.917705, "is_reserved": 0}, {"lon": -77.05730116666666, "fusion_lon": 0.0, "bike_id": "963619e98e03c64dc2d9f920468d905c", "type": "electric_scooter", "name": "963619e98e03c64dc2d9f920468d905c", "rental_uris": {"android": "https://dc.lft.to/lastmile_qr_scan", "ios": "https://dc.lft.to/lastmile_qr_scan"}, "is_disabled": 0, "fusion_lat": 0.0, "lat": 38.9336515, "is_reserved": 0}, {"lon": -77.09673616666667, "fusion_lon": 0.0, "bike_id": "427055db17d637ec933679f6ee7f59a5", "type": "electric_bike", "name": "427055db17d637ec933679f6ee7f59a5", "rental_uris": {"android": "https://dc.lft.to/lastmile_qr_scan", "ios": "https://dc.lft.to/lastmile_qr_scan"}, "is_disabled": 0, "fusion_lat": 0.0, "lat": 38.94620166666667, "is_reserved": 0}, {"lon": -77.0094095, "fusion_lon": 0.0, "bike_id": "2178360b649a5f24fdbefe776a70559b", "type": "electric_scooter", "name": "2178360b649a5f24fdbefe776a70559b", "rental_uris": {"android": "https://dc.lft.to/lastmile_qr_scan", "ios": "https://dc.lft.to/lastmile_qr_scan"}, "is_disabled": 0, "fusion_lat": 0.0, "lat": 38.88353583333333, "is_reserved": 0}, {"lon": -77.05861366666667, "fusion_lon": 0.0, "bike_id": "78aadb9085062cce764e202171081d9b", "type": "electric_scooter", "name": "78aadb9085062cce764e202171081d9b", "rental_uris": {"android": "https://dc.lft.to/lastmile_qr_scan", "ios": "https://dc.lft.to/lastmile_qr_scan"}, "is_disabled": 0, "fusion_lat": 0.0, "lat": 38.93611466666667, "is_reserved": 0}, {"lon": -76.92596183333333, "fusion_lon": 0.0, "bike_id": "75a58c00ff2c9231a0884b6409ef22cf", "type": "electric_scooter", "name": "75a58c00ff2c9231a0884b6409ef22cf", "rental_uris": {"android": "https://dc.lft.to/lastmile_qr_scan", "ios": "https://dc.lft.to/lastmile_qr_scan"}, "is_disabled": 0, "fusion_lat": 0.0, "lat": 38.893593333333335, "is_reserved": 0}, {"lon": -77.01777616666666, "fusion_lon": 0.0, "bike_id": "f2d01f9fa5a2439d07b886691c77493c", "type": "electric_scooter", "name": "f2d01f9fa5a2439d07b886691c77493c", "rental_uris": {"android": "https://dc.lft.to/lastmile_qr_scan", "ios": "https://dc.lft.to/lastmile_qr_scan"}, "is_disabled": 0, "fusion_lat": 0.0, "lat": 38.88713633333333, "is_reserved": 0}, {"lon": -77.02591316666667, "fusion_lon": 0.0, "bike_id": "143ef818e73fd3b52dbc88deb724be75", "type": "electric_scooter", "name": "143ef818e73fd3b52dbc88deb724be75", "rental_uris": {"android": "https://dc.lft.to/lastmile_qr_scan", "ios": "https://dc.lft.to/lastmile_qr_scan"}, "is_disabled": 0, "fusion_lat": 0.0, "lat": 38.963966666666664, "is_reserved": 0}, {"lon": -77.0127915, "fusion_lon": 0.0, "bike_id": "edff364d02aa7a8d6709c1fe9b01b4b6", "type": "electric_scooter", "name": "edff364d02aa7a8d6709c1fe9b01b4b6", "rental_uris": {"android": "https://dc.lft.to/lastmile_qr_scan", "ios": "https://dc.lft.to/lastmile_qr_scan"}, "is_disabled": 0, "fusion_lat": 0.0, "lat": 38.873038666666666, "is_reserved": 0}, {"lon": -77.02386633333333, "fusion_lon": 0.0, "bike_id": "fb26cc3f2ce04a476bb5ad6d118e230a", "type": "electric_scooter", "name": "fb26cc3f2ce04a476bb5ad6d118e230a", "rental_uris": {"android": "https://dc.lft.to/lastmile_qr_scan", "ios": "https://dc.lft.to/lastmile_qr_scan"}, "is_disabled": 0, "fusion_lat": 0.0, "lat": 38.89229683333333, "is_reserved": 0}, {"lon": -76.99769716666667, "fusion_lon": 0.0, "bike_id": "72507715a0359a2941c34ccfc2da7517", "type": "electric_scooter", "name": "72507715a0359a2941c34ccfc2da7517", "rental_uris": {"android": "https://dc.lft.to/lastmile_qr_scan", "ios": "https://dc.lft.to/lastmile_qr_scan"}, "is_disabled": 0, "fusion_lat": 0.0, "lat": 38.91115883333333, "is_reserved": 0}, {"lon": -77.01817533333333, "fusion_lon": 0.0, "bike_id": "16d446384c9bc4c555eb67d3adfb7168", "type": "electric_scooter", "name": "16d446384c9bc4c555eb67d3adfb7168", "rental_uris": {"android": "https://dc.lft.to/lastmile_qr_scan", "ios": "https://dc.lft.to/lastmile_qr_scan"}, "is_disabled": 0, "fusion_lat": 0.0, "lat": 38.901127333333335, "is_reserved": 0}, {"lon": -76.9306895, "fusion_lon": 0.0, "bike_id": "73e59939d392261c1835dfa45bd1d1f8", "type": "electric_scooter", "name": "73e59939d392261c1835dfa45bd1d1f8", "rental_uris": {"android": "https://dc.lft.to/lastmile_qr_scan", "ios": "https://dc.lft.to/lastmile_qr_scan"}, "is_disabled": 0, "fusion_lat": 0.0, "lat": 38.901656, "is_reserved": 0}, {"lon": -77.04519366666666, "fusion_lon": 0.0, "bike_id": "06bdaff32fff675b6a1332824c761078", "type": "electric_scooter", "name": "06bdaff32fff675b6a1332824c761078", "rental_uris": {"android": "https://dc.lft.to/lastmile_qr_scan", "ios": "https://dc.lft.to/lastmile_qr_scan"}, "is_disabled": 0, "fusion_lat": 0.0, "lat": 38.91835183333333, "is_reserved": 0}, {"lon": -77.04998783333333, "fusion_lon": 0.0, "bike_id": "91dc897d376df6a1eaa8769e2cc53bef", "type": "electric_bike", "name": "91dc897d376df6a1eaa8769e2cc53bef", "rental_uris": {"android": "https://dc.lft.to/lastmile_qr_scan", "ios": "https://dc.lft.to/lastmile_qr_scan"}, "is_disabled": 0, "fusion_lat": 0.0, "lat": 38.837805333333336, "is_reserved": 0}, {"lon": -77.02844166666667, "fusion_lon": 0.0, "bike_id": "5035ad9ea6e382965ac02e208fcf7e3b", "type": "electric_scooter", "name": "5035ad9ea6e382965ac02e208fcf7e3b", "rental_uris": {"android": "https://dc.lft.to/lastmile_qr_scan", "ios": "https://dc.lft.to/lastmile_qr_scan"}, "is_disabled": 0, "fusion_lat": 0.0, "lat": 38.9171475, "is_reserved": 0}, {"lon": -77.07959483333333, "fusion_lon": 0.0, "bike_id": "da72152da4479c5bf8bd95c88a0210cc", "type": "electric_scooter", "name": "da72152da4479c5bf8bd95c88a0210cc", "rental_uris": {"android": "https://dc.lft.to/lastmile_qr_scan", "ios": "https://dc.lft.to/lastmile_qr_scan"}, "is_disabled": 0, "fusion_lat": 0.0, "lat": 38.945639166666666, "is_reserved": 0}, {"lon": -77.013152, "fusion_lon": 0.0, "bike_id": "a37bf75813eb3ca88252c4b3ebf829e2", "type": "electric_scooter", "name": "a37bf75813eb3ca88252c4b3ebf829e2", "rental_uris": {"android": "https://dc.lft.to/lastmile_qr_scan", "ios": "https://dc.lft.to/lastmile_qr_scan"}, "is_disabled": 0, "fusion_lat": 0.0, "lat": 38.9007645, "is_reserved": 0},