{"data": {"bikes": [{"lat": 38.8773085, "fusion_lat": 0.0, "is_disabled": 0, "fusion_lon": 0.0, "type": "electric_bike", "bike_id": "8b4dac07104fc3240f5c2cf7ebfb8a6e", "is_reserved": 0, "rental_uris": {"ios": "https://dc.lft.to/lastmile_qr_scan", "android": "https://dc.lft.to/lastmile_qr_scan"}, "name": "8b4dac07104fc3240f5c2cf7ebfb8a6e", "lon": -77.11846766666666}, {"lat": 38.90626316666667, "fusion_lat": 0.0, "is_disabled": 0, "fusion_lon": 0.0, "type": "electric_scooter", "bike_id": "d073126d16e3799d56bb5a12e4fde8a0", "is_reserved": 0, "rental_uris": {"ios": "https://dc.lft.to/lastmile_qr_scan", "android": "https://dc.lft.to/lastmile_qr_scan"}, "name": "d073126d16e3799d56bb5a12e4fde8a0", "lon": -77.03883183333333}, {"lat": 38.911366666666666, "fusion_lat": 0.0, "is_disabled": 0, "fusion_lon": 0.0, "type": "electric_scooter", "bike_id": "70be5dfc81aded292bb8770e125ae167", "is_reserved": 0, "rental_uris": {"ios": "https://dc.lft.to/lastmile_qr_scan", "android": "https://dc.lft.to/lastmile_qr_scan"}, "name": "70be5dfc81aded292bb8770e125ae167", "lon": -77.01086433333333}, {"lat": 38.9197395, "fusion_lat": 0.0, "is_disabled": 0, "fusion_lon": 0.0, "type": "electric_scooter", "bike_id": "d2af482d670236594bf5f21fc845f8f1", "is_reserved": 0, "rental_uris": {"ios": "https://dc.lft.to/lastmile_qr_scan", "android": "https://dc.lft.to/lastmile_qr_scan"}, "name": "d2af482d670236594bf5f21fc845f8f1", "lon": -77.02196716666667}, {"lat": 38.903499333333336, "fusion_lat": 0.0, "is_disabled": 0, "fusion_lon": 0.0, "type": "electric_scooter", "bike_id": "a54d6f323485b99b709bb53fe2ad2872", "is_reserved": 0, "rental_uris": {"ios": "https://dc.lft.to/lastmile_qr_scan", "android": "https://dc.lft.to/lastmile_qr_scan"}, "name": "a54d6f323485b99b709bb53fe2ad2872", "lon": -77.0262}, {"lat": 38.877070833333335, "fusion_lat": 0.0, "is_disabled": 0, "fusion_lon": 0.0, "type": "electric_scooter", "bike_id": "bbc5d04fd60a3f24b8ce8bad758fceba", "is_reserved": 0, "rental_uris": {"ios": "https://dc.lft.to/lastmile_qr_scan", "android": "https://dc.lft.to/lastmile_qr_scan"}, "name": "bbc5d04fd60a3f24b8ce8bad758fceba", "lon": -77.0176485}, {"lat": 38.9023385, "fusion_lat": 0.0, "is_disabled": 0, "fusion_lon": 0.0, "type": "electric_scooter", "bike_id": "2c752ec8b6c90b0c16e60c79d786a969", "is_reserved": 0, "rental_uris": {"ios": "https://dc.lft.to/lastmile_qr_scan", "android": "https://dc.lft.to/lastmile_qr_scan"}, "name": "2c752ec8b6c90b0c16e60c79d786a969", "lon": -77.014387}, {"lat": 38.90477283333333, "fusion_lat": 0.0, "is_disabled": 0, "fusion_lon": 0.0, "type": "electric_scooter", "bike_id": "141818b7ff19cee51fb849dfc0083f2d", "is_reserved": 0, "rental_uris": {"ios": "https://dc.lft.to/lastmile_qr_scan", "android": "https://dc.lft.to/lastmile_qr_scan"}, "name": "141818b7ff19cee51fb849dfc0083f2d", "lon": -77.03542216666666}, {"lat": 38.985036, "fusion_lat": 0.0, "is_disabled": 0, "fusion_lon": 0.0, "type": "electric_bike", "bike_id": "5278c5cd339a7796bf00eb937af1433e", "is_reserved": 0, "rental_uris": {"ios": "https://dc.lft.to/lastmile_qr_scan", "android": "https://dc.lft.to/lastmile_qr_scan"}, "name": "5278c5cd339a7796bf00eb937af1433e", "lon": -76.98199466666667}, {"lat": 38.9205825, "fusion_lat": 0.0, "is_disabled": 0, "fusion_lon": 0.0, "type": "electric_scooter", "bike_id": "929ba7ee16e2c544a700f4798636ee68", "is_reserved": 0, "rental_uris": {"ios": "https://dc.lft.to/lastmile_qr_scan", "android": "https://dc.lft.to/lastmile_qr_scan"}, "name": "929ba7ee16e2c544a700f4798636ee68", "lon": -77.01716983333333}, {"lat": 38.9243565, "fusion_lat": 0.0, "is_disabled": 0, "fusion_lon": 0.0, "type": "electric_scooter", "bike_id": "50f6821583d69d9707f7020d69eefd97", "is_reserved": 0, "rental_uris": {"ios": "https://dc.lft.to/lastmile_qr_scan", "android": "https://dc.lft.to/lastmile_qr_scan"}, "name": "50f6821583d69d9707f7020d69eefd97", "lon": -77.02020533333334}, {"lat": 38.924186, "fusion_lat": 0.0, "is_disabled": 0, "fusion_lon": 0.0, "type": "electric_scooter", "bike_id": "bcea35b86d1b170b0667e609c58baa97", "is_reserved": 0, "rental_uris": {"ios": "https://dc.lft.to/lastmile_qr_scan", "android": "https://dc.lft.to/lastmile_qr_scan"}, "name": "bcea35b86d1b170b0667e609c58baa97", "lon": -77.01956166666666}, {"lat": 38.9113445, "fusion_lat": 0.0, "is_disabled": 0, "fusion_lon": 0.0, "type": "electric_scooter", "bike_id": "26a406557d9a3bd4b190180eb7652bd0", "is_reserved": 0, "rental_uris": {"ios": "https://dc.lft.to/lastmile_qr_scan", "android": "https://dc.lft.to/lastmile_qr_scan"}, "name": "26a406557d9a3bd4b190180eb7652bd0", "lon": -77.028031}, {"lat": 38.8988505, "fusion_lat": 0.0, "is_disabled": 0, "fusion_lon": 0.0, "type": "electric_scooter", "bike_id": "5e606b9c6bd02a7762c40948b47c5724", "is_reserved": 0, "rental_uris": {"ios": "https://dc.lft.to/lastmile_qr_scan", "android": "https://dc.lft.to/lastmile_qr_scan"}, "name": "5e606b9c6bd02a7762c40948b47c5724", "lon": -76.93175816666667}, {"lat": 38.8655155, "fusion_lat": 0.0, "is_disabled": 0, "fusion_lon": 0.0, "type": "electric_bike", "bike_id": "a2805bd2b5b8804116970610597d081f", "is_reserved": 0, "rental_uris": {"ios": "https://dc.lft.to/lastmile_qr_scan", "android": "https://dc.lft.to/lastmile_qr_scan"}, "name": "a2805bd2b5b8804116970610597d081f", "lon": -76.941456}, {"lat": 38.90634933333333, "fusion_lat": 0.0, "is_disabled": 0, "fusion_lon": 0.0, "type": "electric_scooter", "bike_id": "fe7043d7e958a1b77cf35a424fa475b3", "is_reserved": 0, "rental_uris": {"ios": "https://dc.lft.to/lastmile_qr_scan", "android": "https://dc.lft.to/lastmile_qr_scan"}, "name": "fe7043d7e958a1b77cf35a424fa475b3", "lon": -77.034637}, {"lat": 38.91072966666667, "fusion_lat": 0.0, "is_disabled": 0, "fusion_lon": 0.0, "type": "electric_scooter", "bike_id": "e62cecb776fc15bf18455d02e67d555a", "is_reserved": 0, "rental_uris": {"ios": "https://dc.lft.to/lastmile_qr_scan", "android": "https://dc.lft.to/lastmile_qr_scan"}, "name": "e62cecb776fc15bf18455d02e67d555a", "lon": -77.01612833333333}, {"lat": 38.90722383333333, "fusion_lat": 0.0, "is_disabled": 0, "fusion_lon": 0.0, "type": "electric_scooter", "bike_id": "7d74a6bd8836c9da45c984fc7b3dac6b", "is_reserved": 0, "rental_uris": {"ios": "https://dc.lft.to/lastmile_qr_scan", "android": "https://dc.lft.to/lastmile_qr_scan"}, "name": "7d74a6bd8836c9da45c984fc7b3dac6b", "lon": -77.04375566666667}, {"lat": 38.898894, "fusion_lat": 0.0, "is_disabled": 0, "fusion_lon": 0.0, "type": "electric_scooter", "bike_id": "adbbbc058d2b6cf6789f5d845afb898b", "is_reserved": 0, "rental_uris": {"ios": "https://dc.lft.to/lastmile_qr_scan", "android": "https://dc.lft.to/lastmile_qr_scan"}, "name": "adbbbc058d2b6cf6789f5d845afb898b", "lon": -77.02965433333334}, {"lat": 38.913462333333335, "fusion_lat": 0.0, "is_disabled": 0, "fusion_lon": 0.0, "type": "electric_scooter", "bike_id": "e700c7dabda2ffa21b66bcda40eb03d7", "is_reserved": 0, "rental_uris": {"ios": "https://dc.lft.to/lastmile_qr_scan", "android": "https://dc.lft.to/lastmile_qr_scan"}, "name": "e700c7dabda2ffa21b66bcda40eb03d7", "lon": -77.01221433333333}, {"lat": 38.91888133333333, "fusion_lat": 0.0, "is_disabled": 0, "fusion_lon": 0.0, "type": "electric_scooter", "bike_id": "001e2e5bb19199782fe616b293b1f535", "is_reserved": 0, "rental_uris": {"ios": "https://dc.lft.to/lastmile_qr_scan", "android": "https://dc.lft.to/lastmile_qr_scan"}, "name": "001e2e5bb19199782fe616b293b1f535", "lon": -77.04127566666666}, {"lat": 38.90691, "fusion_lat": 0.0, "is_disabled": 0, "fusion_lon": 0.0, "type": "electric_bike", "bike_id": "b9fec596ea8ed676b5d14eb41cf422bf", "is_reserved": 0, "rental_uris": {"ios": "https://dc.lft.to/lastmile_qr_scan", "android": "https://dc.lft.to/lastmile_qr_scan"}, "name": "b9fec596ea8ed676b5d14eb41cf422bf", "lon": -76.95251966666666}, {"lat": 38.907346, "fusion_lat": 0.0, "is_disabled": 0, "fusion_lon": 0.0, "type": "electric_scooter", "bike_id": "452137760a129af83938d1b65c979fd5", "is_reserved": 0, "rental_uris": {"ios": "https://dc.lft.to/lastmile_qr_scan", "android": "https://dc.lft.to/lastmile_qr_scan"}, "name": "452137760a129af83938d1b65c979fd5", "lon": -77.03698083333333}, {"lat": 38.9064015, "fusion_lat": 0.0, "is_disabled": 0, "fusion_lon": 0.0, "type": "electric_scooter", "bike_id": "70f97ca71ff454a23c1c05d34ed30890", "is_reserved": 0, "rental_uris": {"ios": "https://dc.lft.to/lastmile_qr_scan", "android": "https://dc.lft.to/lastmile_qr_scan"}, "name": "70f97ca71ff454a23c1c05d34ed30890", "lon": -77.069049}, {"lat": 38.93053666666667, "fusion_lat": 0.0, "is_disabled": 0, "fusion_lon": 0.0, "type": "electric_scooter", "bike_id": "08f11d4a08b7fc5724d8beb61e4178fa", "is_reserved": 0, "rental_uris": {"ios": "https://dc.lft.to/lastmile_qr_scan", "android": "https://dc.lft.to/lastmile_qr_scan"}, "name": "08f11d4a08b7fc5724d8beb61e4178fa", "lon": -77.02981183333333}, {"lat": 38.931703666666664, "fusion_lat": 0.0, "is_disabled": 0, "fusion_lon": 0.0, "type": "electric_scooter", "bike_id": "d2eae412a0b444ba6ae6e0698a8c3af4", "is_reserved": 0, "rental_uris": {"ios": "https://dc.lft.to/lastmile_qr_scan", "android": "https://dc.lft.to/lastmile_qr_scan"}, "name": "d2eae412a0b444ba6ae6e0698a8c3af4", "lon": -77.03665366666667}, {"lat": 38.898473833333334, "fusion_lat": 0.0, "is_disabled": 0, "fusion_lon": 0.0, "type": "electric_scooter", "bike_id": "14204195e604ff22e535755a3f7092f7", "is_reserved": 0, "rental_uris": {"ios": "https://dc.lft.to/lastmile_qr_scan", "android": "https://dc.lft.to/lastmile_qr_scan"}, "name": "14204195e604ff22e535755a3f7092f7", "lon": -76.99032666666666}, {"lat": 38.89845316666667, "fusion_lat": 0.0, "is_disabled": 0, "fusion_lon": 0.0, "type": "electric_scooter", "bike_id": "fab6b278070ca800ed5d1c4eb6da7681", "is_reserved": 0, "rental_uris": {"ios": "https://dc.lft.to/lastmile_qr_scan", "android": "https://dc.lft.to/lastmile_qr_scan"}, "name": "fab6b278070ca800ed5d1c4eb6da7681", "lon": -77.04496366666666}, {"lat": 38.92243966666667, "fusion_lat": 0.0, "is_disabled": 0, "fusion_lon": 0.0, "type": "electric_scooter", "bike_id": "f779b60d22fa894fc3f38c1663bca54e", "is_reserved": 0, "rental_uris": {"ios": "https://dc.lft.to/lastmile_qr_scan", "android": "https://dc.lft.to/lastmile_qr_scan"}, "name": "f779b60d22fa894fc3f38c1663bca54e", "lon": -77.01950166666667}, {"lat": 38.89967883333333, "fusion_lat": 0.0, "is_disabled": 0, "fusion_lon": 0.0, "type": "electric_scooter", "bike_id": "412ea90268c53fb0dadee0a4e3664a7d", "is_reserved": 0, "rental_uris": {"ios": "https://dc.lft.to/lastmile_qr_scan", "android": "https://dc.lft.to/lastmile_qr_scan"}, "name": "412ea90268c53fb0dadee0a4e3664a7d", "lon": -77.03081733333333}, {"lat": 38.928610666666664, "fusion_lat": 0.0, "is_disabled": 0, "fusion_lon": 0.0, "type": "electric_scooter", "bike_id": "827967513676313153e249f752954e8a", "is_reserved": 0, "rental_uris": {"ios": "https://dc.lft.to/lastmile_qr_scan", "android": "https://dc.lft.to/lastmile_qr_scan"}, "name": "827967513676313153e249f752954e8a", "lon": -77.01375516666667}, {"lat": 38.88355416666667, "fusion_lat": 0.0, "is_disabled": 0, "fusion_lon": 0.0, "type": "electric_scooter", "bike_id": "4bfc273512ada394a921a2b5e29e6ef2", "is_reserved": 0, "rental_uris": {"ios": "https://dc.lft.to/lastmile_qr_scan", "android": "https://dc.lft.to/lastmile_qr_scan"}, "name": "4bfc273512ada394a921a2b5e29e6ef2", "lon": -76.95769933333334}, {"lat": 38.80632083333333, "fusion_lat": 0.0, "is_disabled": 0, "fusion_lon": 0.0, "type": "electric_bike", "bike_id": "23b03c3bca81b2dc56f7828451e125c0", "is_reserved": 0, "rental_uris": {"ios": "https://dc.lft.to/lastmile_qr_scan", "android": "https://dc.lft.to/lastmile_qr_scan"}, "name": "23b03c3bca81b2dc56f7828451e125c0", "lon": -77.06255266666666}, {"lat": 38.8996225, "fusion_lat": 0.0, "is_disabled": 0, "fusion_lon": 0.0, "type": "electric_scooter", "bike_id": "b0f65ccf97cfa32cf1603a70112216c1", "is_reserved": 0, "rental_uris": {"ios": "https://dc.lft.to/lastmile_qr_scan", "android": "https://dc.lft.to/lastmile_qr_scan"}, "name": "b0f65ccf97cfa32cf1603a70112216c1", "lon": -77.05567116666667}, {"lat": 38.924241333333335, "fusion_lat": 0.0, "is_disabled": 0, "fusion_lon": 0.0, "type": "electric_scooter", "bike_id": "399ccb30ed7e02f560122373a8067e5d", "is_reserved": 0, "rental_uris": {"ios": "https://dc.lft.to/lastmile_qr_scan", "android": "https://dc.lft.to/lastmile_qr_scan"}, "name": "399ccb30ed7e02f560122373a8067e5d", "lon": -77.020391}, {"lat": 38.920643166666665, "fusion_lat": 0.0, "is_disabled": 0, "fusion_lon": 0.0, "type": "electric_scooter", "bike_id": "472510ec7d99937050c3bf2e5a238bde", "is_reserved": 0, "rental_uris": {"ios": "https://dc.lft.to/lastmile_qr_scan", "android": "https://dc.lft.to/lastmile_qr_scan"}, "name": "472510ec7d99937050c3bf2e5a238bde", "lon": -77.02491016666667}, {"lat": 38.89269266666667, "fusion_lat": 0.0, "is_disabled": 0, "fusion_lon": 0.0, "type": "electric_scooter", "bike_id": "2ccc6d03078551e8c73df5f079401a70", "is_reserved": 0, "rental_uris": {"ios": "https://dc.lft.to/lastmile_qr_scan", "android": "https://dc.lft.to/lastmile_qr_scan"}, "name": "2ccc6d03078551e8c73df5f079401a70", "lon": -77.00369266666667}, {"lat": 38.919217333333336, "fusion_lat": 0.0, "is_disabled": 0, "fusion_lon": 0.0, "type": "electric_scooter", "bike_id": "d56cb22d7ef5fa0321b3ccbfe54715f0", "is_reserved": 0, "rental_uris": {"ios": "https://dc.lft.to/lastmile_qr_scan", "android": "https://dc.lft.to/lastmile_qr_scan"}, "name": "d56cb22d7ef5fa0321b3ccbfe54715f0", "lon": -77.0179245}, {"lat": 38.88708116666667, "fusion_lat": 0.0, "is_disabled": 0, "fusion_lon": 0.0, "type": "electric_scooter", "bike_id": "eddd3ceba5180dda3db803b394cb810c", "is_reserved": 0, "rental_uris": {"ios": "https://dc.lft.to/lastmile_qr_scan", "android": "https://dc.lft.to/lastmile_qr_scan"}, "name": "eddd3ceba5180dda3db803b394cb810c", "lon": -76.98380233333333}, {"lat": 38.919711166666666, "fusion_lat": 0.0, "is_disabled": 0, "fusion_lon": 0.0, "type": "electric_scooter", "bike_id": "8917d884105f5d16fd50d364984c39d1", "is_reserved": 0, "rental_uris": {"ios": "https://dc.lft.to/lastmile_qr_scan", "android": "https://dc.lft.to/lastmile_qr_scan"}, "name": "8917d884105f5d16fd50d364984c39d1", "lon": -77.023761}, {"lat": 38.9282365, "fusion_lat": 0.0, "is_disabled": 0, "fusion_lon": 0.0, "type": "electric_scooter", "bike_id": "fde501c0a21b5b6afca42021f97d55f7", "is_reserved": 0, "rental_uris": {"ios": "https://dc.lft.to/lastmile_qr_scan", "android": "https://dc.lft.to/lastmile_qr_scan"}, "name": "fde501c0a21b5b6afca42021f97d55f7", "lon": -77.0225835}, {"lat": 38.90305216666667, "fusion_lat": 0.0, "is_disabled": 0, "fusion_lon": 0.0, "type": "electric_scooter", "bike_id": "4ad262de1db95ec846385cca90e287b7", "is_reserved": 0, "rental_uris": {"ios": "https://dc.lft.to/lastmile_qr_scan", "android": "https://dc.lft.to/lastmile_qr_scan"}, "name": "4ad262de1db95ec846385cca90e287b7", "lon": -77.03451216666667}, {"lat": 38.901479333333334, "fusion_lat": 0.0, "is_disabled": 0, "fusion_lon": 0.0, "type": "electric_scooter", "bike_id": "2348407f47d5ad984f0ff53c479fbe01", "is_reserved": 0, "rental_uris": {"ios": "https://dc.lft.to/lastmile_qr_scan", "android": "https://dc.lft.to/lastmile_qr_scan"}, "name": "2348407f47d5ad984f0ff53c479fbe01", "lon": -77.0416995}, {"lat": 38.913658, "fusion_lat": 0.0, "is_disabled": 0, "fusion_lon": 0.0, "type": "electric_scooter", "bike_id": "611218e818d47f50326ef2d7cd8fc70a", "is_reserved": 0, "rental_uris": {"ios": "https://dc.lft.to/lastmile_qr_scan", "android": "https://dc.lft.to/lastmile_qr_scan"}, "name": "611218e818d47f50326ef2d7cd8fc70a", "lon": -77.04485733333334}, {"lat": 38.922872, "fusion_lat": 0.0, "is_disabled": 0, "fusion_lon": 0.0, "type": "electric_scooter", "bike_id": "7e3c526e2f24ce89aea9a5b3274b9447", "is_reserved": 0, "rental_uris": {"ios": "https://dc.lft.to/lastmile_qr_scan", "android": "https://dc.lft.to/lastmile_qr_scan"}, "name": "7e3c526e2f24ce89aea9a5b3274b9447", "lon": -77.0224435}, {"lat": 38.92467966666667, "fusion_lat": 0.0, "is_disabled": 0, "fusion_lon": 0.0, "type": "electric_scooter", "bike_id": "1ef4e099b85727df14455b0dbe0cffad", "is_reserved": 0, "rental_uris": {"ios": "https://dc.lft.to/lastmile_qr_scan", "android": "https://dc.lft.to/lastmile_qr_scan"}, "name": "1ef4e099b85727df14455b0dbe0cffad", "lon": -77.02211883333334}, {"lat": 38.935711166666664, "fusion_lat": 0.0, "is_disabled": 0, "fusion_lon": 0.0, "type": "electric_scooter", "bike_id": "416fb01d26f33cb498710f5778701c74", "is_reserved": 0, "rental_uris": {"ios": "https://dc.lft.to/lastmile_qr_scan", "android": "https://dc.lft.to/lastmile_qr_scan"}, "name": "416fb01d26f33cb498710f5778701c74", "lon": -77.03258833333334}, {"lat": 38.900220166666664, "fusion_lat": 0.0, "is_disabled": 0, "fusion_lon": 0.0, "type": "electric_scooter", "bike_id": "63f8acbb8fe622816610776c65e761c3", "is_reserved": 0, "rental_uris": {"ios": "https://dc.lft.to/lastmile_qr_scan", "android": "https://dc.lft.to/lastmile_qr_scan"}, "name": "63f8acbb8fe622816610776c65e761c3", "lon": -76.99868033333334}, {"lat": 38.912903, "fusion_lat": 0.0, "is_disabled": 0, "fusion_lon": 0.0, "type": "electric_scooter", "bike_id": "e71a27e76c70a190d0a39404a4703daa", "is_reserved": 0, "rental_uris": {"ios": "https://dc.lft.to/lastmile_qr_scan", "android": "https://dc.lft.to/lastmile_qr_scan"}, "name": "e71a27e76c70a190d0a39404a4703daa", "lon": -76.98696933333333}, {"lat": 38.91026016666667, "fusion_lat": 0.0, "is_disabled": 0, "fusion_lon": 0.0, "type": "electric_scooter", "bike_id": "f122767f35dca4ae7fc7d820e52dcd4d", "is_reserved": 0, "rental_uris": {"ios": "https://dc.lft.to/lastmile_qr_scan", "android": "https://dc.lft.to/lastmile_qr_scan"}, "name": "f122767f35dca4ae7fc7d820e52dcd4d", "lon": -77.02937283333333}, {"lat": 38.92831666666667, "fusion_lat": 0.0, "is_disabled": 0, "fusion_lon": 0.0, "type": "electric_scooter", "bike_id": "bd6172a57be54e14f7f5fc2333cc4358", "is_reserved": 0, "rental_uris": {"ios": "https://dc.lft.to/lastmile_qr_scan", "android": "https://dc.lft.to/lastmile_qr_scan"}, "name": "bd6172a57be54e14f7f5fc2333cc4358", "lon": -77.032332}, {"lat": 38.9168825, "fusion_lat": 0.0, "is_disabled": 0, "fusion_lon": 0.0, "type": "electric_scooter", "bike_id": "ae7f9b964c75c66b8373645ae6d5ea2b", "is_reserved": 0, "rental_uris": {"ios": "https://dc.lft.to/lastmile_qr_scan", "android": "https://dc.lft.to/lastmile_qr_scan"}, "name": "ae7f9b964c75c66b8373645ae6d5ea2b", "lon": -77.02723016666667}, {"lat": 38.906583499999996, "fusion_lat": 0.0, "is_disabled": 0, "fusion_lon": 0.0, "type": "electric_scooter", "bike_id": "98ba1d8fe07725246419cddcd243340f", "is_reserved": 0, "rental_uris": {"ios": "https://dc.lft.to/lastmile_qr_scan", "android": "https://dc.lft.to/lastmile_qr_scan"}, "name": "98ba1d8fe07725246419cddcd243340f", "lon": -77.07189116666666}, {"lat": 38.91406466666667, "fusion_lat": 0.0, "is_disabled": 0, "fusion_lon": 0.0, "type": "electric_scooter", "bike_id": "f95572ed370bb7877a76dcda90b6d9f4", "is_reserved": 0, "rental_uris": {"ios": "https://dc.lft.to/lastmile_qr_scan", "android": "https://dc.lft.to/lastmile_qr_scan"}, "name": "f95572ed370bb7877a76dcda90b6d9f4", "lon": -77.0106975}, {"lat": 38.901573, "fusion_lat": 0.0, "is_disabled": 0, "fusion_lon": 0.0, "type": "electric_scooter", "bike_id": "fee58c9880cce6b1d5c21ad843bbb39c", "is_reserved": 0, "rental_uris": {"ios": "https://dc.lft.to/lastmile_qr_scan", "android": "https://dc.lft.to/lastmile_qr_scan"}, "name": "fee58c9880cce6b1d5c21ad843bbb39c", "lon": -77.03446533333333}, {"lat": 38.906764333333335, "fusion_lat": 0.0, "is_disabled": 0, "fusion_lon": 0.0, "type": "electric_scooter", "bike_id": "54fac1f285d73d6da16a222aa2a268d6", "is_reserved": 0, "rental_uris": {"ios": "https://dc.lft.to/lastmile_qr_scan", "android": "https://dc.lft.to/lastmile_qr_scan"}, "name": "54fac1f285d73d6da16a222aa2a268d6", "lon": -77.06261616666667}, {"lat": 38.8921735, "fusion_lat": 0.0, "is_disabled": 0, "fusion_lon": 0.0, "type": "electric_scooter", "bike_id": "f775e66086cfc9b6efd3b83626541daa", "is_reserved": 0, "rental_uris": {"ios": "https://dc.lft.to/lastmile_qr_scan", "android": "https://dc.lft.to/lastmile_qr_scan"}, "name": "f775e66086cfc9b6efd3b83626541daa", "lon": -77.04873483333333}, {"lat": 38.89004, "fusion_lat": 0.0, "is_disabled": 0, "fusion_lon": 0.0, "type": "electric_scooter", "bike_id": "a3bf64788b0da842c894adbc0a8e463f", "is_reserved": 0, "rental_uris": {"ios": "https://dc.lft.to/lastmile_qr_scan", "android": "https://dc.lft.to/lastmile_qr_scan"}, "name": "a3bf64788b0da842c894adbc0a8e463f", "lon": -76.93747233333333}, {"lat": 38.92211416666667, "fusion_lat": 0.0, "is_disabled": 0, "fusion_lon": 0.0, "type": "electric_scooter", "bike_id": "922d147cdd0d8b0350c02df625a32110", "is_reserved": 0, "rental_uris": {"ios": "https://dc.lft.to/lastmile_qr_scan", "android": "https://dc.lft.to/lastmile_qr_scan"}, "name": "922d147cdd0d8b0350c02df625a32110", "lon": -77.01844683333333}, {"lat": 38.90030133333333, "fusion_lat": 0.0, "is_disabled": 0, "fusion_lon": 0.0, "type": "electric_scooter", "bike_id": "847f75e309d891d73075514706b0e942", "is_reserved": 0, "rental_uris": {"ios": "https://dc.lft.to/lastmile_qr_scan", "android": "https://dc.lft.to/lastmile_qr_scan"}, "name": "847f75e309d891d73075514706b0e942", "lon": -77.0115155}, {"lat": 38.922392333333335, "fusion_lat": 0.0, "is_disabled": 0, "fusion_lon": 0.0, "type": "electric_scooter", "bike_id": "5ec9876b05c7625d030732639c9240e8", "is_reserved": 0, "rental_uris": {"ios": "https://dc.lft.to/lastmile_qr_scan", "android": "https://dc.lft.to/lastmile_qr_scan"}, "name": "5ec9876b05c7625d030732639c9240e8", "lon": -77.036626}, {"lat": 38.929654166666666, "fusion_lat": 0.0, "is_disabled": 0, "fusion_lon": 0.0, "type": "electric_scooter", "bike_id": "9316d395e0fdf30d3fb6de0ed1882af4", "is_reserved": 0, "rental_uris": {"ios": "https://dc.lft.to/lastmile_qr_scan", "android": "https://dc.lft.to/lastmile_qr_scan"}, "name": "9316d395e0fdf30d3fb6de0ed1882af4", "lon": -77.03150283333333}, {"lat": 38.920620166666666, "fusion_lat": 0.0, "is_disabled": 0, "fusion_lon": 0.0, "type": "electric_scooter", "bike_id": "4bd2328fa49389329827faed9af2e30f", "is_reserved": 0, "rental_uris": {"ios": "https://dc.lft.to/lastmile_qr_scan", "android": "https://dc.lft.to/lastmile_qr_scan"}, "name": "4bd2328fa49389329827faed9af2e30f", "lon": -77.0419205}, {"lat": 38.93517533333333, "fusion_lat": 0.0, "is_disabled": 0, "fusion_lon": 0.0, "type": "electric_bike", "bike_id": "b44b2c9b2d7cd3ff8d93bcb85526c290", "is_reserved": 0, "rental_uris": {"ios": "https://dc.lft.to/lastmile_qr_scan", "android": "https://dc.lft.to/lastmile_qr_scan"}, "name": "b44b2c9b2d7cd3ff8d93bcb85526c290", "lon": -76.98348849999999}, {"lat": 38.89507716666667, "fusion_lat": 0.0, "is_disabled": 0, "fusion_lon": 0.0, "type": "electric_scooter", "bike_id": "5cb61c2708166b580b511470e4d25cff", "is_reserved": 0, "rental_uris": {"ios": "https://dc.lft.to/lastmile_qr_scan", "android": "https://dc.lft.to/lastmile_qr_scan"}, "name": "5cb61c2708166b580b511470e4d25cff", "lon": -76.94884266666666}, {"lat": 38.994928, "fusion_lat": 0.0, "is_disabled": 0, "fusion_lon": 0.0, "type": "electric_bike", "bike_id": "af52bf837224c7d2963a8dc4fa689705", "is_reserved": 0, "rental_uris": {"ios": "https://dc.lft.to/lastmile_qr_scan", "android": "https://dc.lft.to/lastmile_qr_scan"}, "name": "af52bf837224c7d2963a8dc4fa689705", "lon": -77.0012985}, {"lat": 38.919134666666665, "fusion_lat": 0.0, "is_disabled": 0, "fusion_lon": 0.0, "type": "electric_scooter", "bike_id": "c768914db3020a612ea90d6367506b3a", "is_reserved": 0, "rental_uris": {"ios": "https://dc.lft.to/lastmile_qr_scan", "android": "https://dc.lft.to/lastmile_qr_scan"}, "name": "c768914db3020a612ea90d6367506b3a", "lon": -77.03339116666666}, {"lat": 38.9246845, "fusion_lat": 0.0, "is_disabled": 0, "fusion_lon": 0.0, "type": "electric_scooter", "bike_id": "898ed32688e7348e998ac4271ff2c944", "is_reserved": 0, "rental_uris": {"ios": "https://dc.lft.to/lastmile_qr_scan", "android": "https://dc.lft.to/lastmile_qr_scan"}, "name": "898ed32688e7348e998ac4271ff2c944", "lon": -77.03706716666667}, {"lat": 38.92328533333333, "fusion_lat": 0.0, "is_disabled": 0, "fusion_lon": 0.0, "type": "electric_scooter", "bike_id": "0b41e37d9438e1edafc11602f6d2c12e", "is_reserved": 0, "rental_uris": {"ios": "https://dc.lft.to/lastmile_qr_scan", "android": "https://dc.lft.to/lastmile_qr_scan"}, "name": "0b41e37d9438e1edafc11602f6d2c12e", "lon": -77.0464575}, {"lat": 38.926420666666665, "fusion_lat": 0.0, "is_disabled": 0, "fusion_lon": 0.0, "type": "electric_scooter", "bike_id": "dc8f85a270b893b63817d0938be79fd3", "is_reserved": 0, "rental_uris": {"ios": "https://dc.lft.to/lastmile_qr_scan", "android": "https://dc.lft.to/lastmile_qr_scan"}, "name": "dc8f85a270b893b63817d0938be79fd3", "lon": -77.0144525}, {"lat": 38.895539666666664, "fusion_lat": 0.0, "is_disabled": 0, "fusion_lon": 0.0, "type": "electric_scooter", "bike_id": "f3dacbc6cd0ad112fcda8bea9200acb3", "is_reserved": 0, "rental_uris": {"ios": "https://dc.lft.to/lastmile_qr_scan", "android": "https://dc.lft.to/lastmile_qr_scan"}, "name": "f3dacbc6cd0ad112fcda8bea9200acb3", "lon": -77.00917233333334}, {"lat": 38.87844183333333, "fusion_lat": 0.0, "is_disabled": 0, "fusion_lon": 0.0, "type": "electric_scooter", "bike_id": "74a7db209e38453186ed2b145f4c25d0", "is_reserved": 0, "rental_uris": {"ios": "https://dc.lft.to/lastmile_qr_scan", "android": "https://dc.lft.to/lastmile_qr_scan"}, "name": "74a7db209e38453186ed2b145f4c25d0", "lon": -77.0197155}, {"lat": 38.95693583333333, "fusion_lat": 0.0, "is_disabled": 0, "fusion_lon": 0.0, "type": "electric_bike", "bike_id": "9cfba10a7f08aa86c22f8b8f1a36f718", "is_reserved": 0, "rental_uris": {"ios": "https://dc.lft.to/lastmile_qr_scan", "android": "https://dc.lft.to/lastmile_qr_scan"}, "name": "9cfba10a7f08aa86c22f8b8f1a36f718", "lon": -77.02399966666667}, {"lat": 38.90751133333333, "fusion_lat": 0.0, "is_disabled": 0, "fusion_lon": 0.0, "type": "electric_scooter", "bike_id": "1fcb979727bda0ae89640de7ef8277fc", "is_reserved": 0, "rental_uris": {"ios": "https://dc.lft.to/lastmile_qr_scan", "android": "https://dc.lft.to/lastmile_qr_scan"}, "name": "1fcb979727bda0ae89640de7ef8277fc", "lon": -77.01697666666666}, {"lat": 39.0053125, "fusion_lat": 0.0, "is_disabled": 0, "fusion_lon": 0.0, "type": "electric_bike", "bike_id": "d23b459e2873b670095d73b2695d7c89", "is_reserved": 0, "rental_uris": {"ios": "https://dc.lft.to/lastmile_qr_scan", "android": "https://dc.lft.to/lastmile_qr_scan"}, "name": "d23b459e2873b670095d73b2695d7c89", "lon": -77.10401383333334}, {"lat": 38.877383333333334, "fusion_lat": 0.0, "is_disabled": 0, "fusion_lon": 0.0, "type": "electric_bike", "bike_id": "fec60c9579b81782fcc9ff2c29ce0abf", "is_reserved": 0, "rental_uris": {"ios": "https://dc.lft.to/lastmile_qr_scan", "android": "https://dc.lft.to/lastmile_qr_scan"}, "name": "fec60c9579b81782fcc9ff2c29ce0abf", "lon": -77.14869683333333}, {"lat": 38.90599433333333, "fusion_lat": 0.0, "is_disabled": 0, "fusion_lon": 0.0, "type": "electric_scooter", "bike_id": "78c659de10652c92522935448b28ce95", "is_reserved": 0, "rental_uris": {"ios": "https://dc.lft.to/lastmile_qr_scan", "android": "https://dc.lft.to/lastmile_qr_scan"}, "name": "78c659de10652c92522935448b28ce95", "lon": -77.03394483333334}, {"lat": 38.951718, "fusion_lat": 0.0, "is_disabled": 0, "fusion_lon": 0.0, "type": "electric_scooter", "bike_id": "369de8666b291ea861c970e5f28e5899", "is_reserved": 0, "rental_uris": {"ios": "https://dc.lft.to/lastmile_qr_scan", "android": "https://dc.lft.to/lastmile_qr_scan"}, "name": "369de8666b291ea861c970e5f28e5899", "lon": -77.0377155}, {"lat": 38.923681, "fusion_lat": 0.0, "is_disabled": 0, "fusion_lon": 0.0, "type": "electric_scooter", "bike_id": "8109f03a5c2502eb28ed4f765a758396", "is_reserved": 0, "rental_uris": {"ios": "https://dc.lft.to/lastmile_qr_scan", "android": "https://dc.lft.to/lastmile_qr_scan"}, "name": "8109f03a5c2502eb28ed4f765a758396", "lon": -77.02122116666666}, {"lat": 38.918101666666665, "fusion_lat": 0.0, "is_disabled": 0, "fusion_lon": 0.0, "type": "electric_scooter", "bike_id": "1f1c0cadb940bd9bd5e6e3a5d4b2f531", "is_reserved": 0, "rental_uris": {"ios": "https://dc.lft.to/lastmile_qr_scan", "android": "https://dc.lft.to/lastmile_qr_scan"}, "name": "1f1c0cadb940bd9bd5e6e3a5d4b2f531", "lon": -77.02685716666667}, {"lat": 38.9290465, "fusion_lat": 0.0, "is_disabled": 0, "fusion_lon": 0.0, "type": "electric_scooter", "bike_id": "c9bcecd5aa2257a42ab437e131c7581f", "is_reserved": 0, "rental_uris": {"ios": "https://dc.lft.to/lastmile_qr_scan", "android": "https://dc.lft.to/lastmile_qr_scan"}, "name": "c9bcecd5aa2257a42ab437e131c7581f", "lon": -77.02163633333333}, {"lat": 38.85594283333333, "fusion_lat": 0.0, "is_disabled": 0, "fusion_lon": 0.0, "type": "electric_bike", "bike_id": "fc24624c80cbe3df6bc7c6cf95d0e062", "is_reserved": 0, "rental_uris": {"ios": "https://dc.lft.to/lastmile_qr_scan", "android": "https://dc.lft.to/lastmile_qr_scan"}, "name": "fc24624c80cbe3df6bc7c6cf95d0e062", "lon": -76.97268983333333}, {"lat": 38.92109683333334, "fusion_lat": 0.0, "is_disabled": 0, "fusion_lon": 0.0, "type": "electric_scooter", "bike_id": "864cec0db02895596626c4f139cba15c", "is_reserved": 0, "rental_uris": {"ios": "https://dc.lft.to/lastmile_qr_scan", "android": "https://dc.lft.to/lastmile_qr_scan"}, "name": "864cec0db02895596626c4f139cba15c", "lon": -77.02051366666667}, {"lat": 38.90683216666667, "fusion_lat": 0.0, "is_disabled": 0, "fusion_lon": 0.0, "type": "electric_scooter", "bike_id": "831594b6cf40fbe672f548c023972d98", "is_reserved": 0, "rental_uris": {"ios": "https://dc.lft.to/lastmile_qr_scan", "android": "https://dc.lft.to/lastmile_qr_scan"}, "name": "831594b6cf40fbe672f548c023972d98", "lon": -77.0101325}, {"lat": 38.9005415, "fusion_lat": 0.0, "is_disabled": 0, "fusion_lon": 0.0, "type": "electric_scooter", "bike_id": "c4c8a4e68e7fe87c75f9317a4f6fb70d", "is_reserved": 0, "rental_uris": {"ios": "https://dc.lft.to/lastmile_qr_scan", "android": "https://dc.lft.to/lastmile_qr_scan"}, "name": "c4c8a4e68e7fe87c75f9317a4f6fb70d", "lon": -77.04551033333334}, {"lat": 38.90348516666667, "fusion_lat": 0.0, "is_disabled": 0, "fusion_lon": 0.0, "type": "electric_scooter", "bike_id": "4da651af3d23a54f14c12e3d5f958229", "is_reserved": 0, "rental_uris": {"ios": "https://dc.lft.to/lastmile_qr_scan", "android": "https://dc.lft.to/lastmile_qr_scan"}, "name": "4da651af3d23a54f14c12e3d5f958229", "lon": -77.0261835}, {"lat": 38.930575166666664, "fusion_lat": 0.0, "is_disabled": 0, "fusion_lon": 0.0, "type": "electric_scooter", "bike_id": "c71085a7662c0efed266feb854b40d3d", "is_reserved": 0, "rental_uris": {"ios": "https://dc.lft.to/lastmile_qr_scan", "android": "https://dc.lft.to/lastmile_qr_scan"}, "name": "c71085a7662c0efed266feb854b40d3d", "lon": -77.0232265}, {"lat": 38.899585333333334, "fusion_lat": 0.0, "is_disabled": 0, "fusion_lon": 0.0, "type": "electric_scooter", "bike_id": "bbbb0fe63bd0e09860ed123ccee9b605", "is_reserved": 0, "rental_uris": {"ios": "https://dc.lft.to/lastmile_qr_scan", "android": "https://dc.lft.to/lastmile_qr_scan"}, "name": "bbbb0fe63bd0e09860ed123ccee9b605", "lon": -77.0150865}, {"lat": 38.924210333333335, "fusion_lat": 0.0, "is_disabled": 0, "fusion_lon": 0.0, "type": "electric_scooter", "bike_id": "3aa440d8c4aa8e7dff53e4de5ff7ef0d", "is_reserved": 0, "rental_uris": {"ios": "https://dc.lft.to/lastmile_qr_scan", "android": "https://dc.lft.to/lastmile_qr_scan"}, "name": "3aa440d8c4aa8e7dff53e4de5ff7ef0d", "lon": -77.02255616666666}, {"lat": 38.920565, "fusion_lat": 0.0, "is_disabled": 0, "fusion_lon": 0.0, "type": "electric_scooter", "bike_id": "edeb15cd29d29d7dadfc220f7941c24f", "is_reserved": 0, "rental_uris": {"ios": "https://dc.lft.to/lastmile_qr_scan", "android": "https://dc.lft.to/lastmile_qr_scan"}, "name": "edeb15cd29d29d7dadfc220f7941c24f", "lon": -77.02300916666667}, {"lat": 38.915512666666665, "fusion_lat": 0.0, "is_disabled": 0, "fusion_lon": 0.0, "type": "electric_scooter", "bike_id": "9a026ca9dfe07e62cd567280ef7ace8f", "is_reserved": 0, "rental_uris": {"ios": "https://dc.lft.to/lastmile_qr_scan", "android": "https://dc.lft.to/lastmile_qr_scan"}, "name": "9a026ca9dfe07e62cd567280ef7ace8f", "lon": -77.02429033333334}, {"lat": 38.9563655, "fusion_lat": 0.0, "is_disabled": 0, "fusion_lon": 0.0, "type": "electric_scooter", "bike_id": "cc64ec86da3b25b3514a6e5b9f8b6646", "is_reserved": 0, "rental_uris": {"ios": "https://dc.lft.to/lastmile_qr_scan", "android": "https://dc.lft.to/lastmile_qr_scan"}, "name": "cc64ec86da3b25b3514a6e5b9f8b6646", "lon": -77.036254}, {"lat": 38.9229425, "fusion_lat": 0.0, "is_disabled": 0, "fusion_lon": 0.0, "type": "electric_scooter", "bike_id": "2a45222cde68c27e19c53736a426b8d2", "is_reserved": 0, "rental_uris": {"ios": "https://dc.lft.to/lastmile_qr_scan", "android": "https://dc.lft.to/lastmile_qr_scan"}, "name": "2a45222cde68c27e19c53736a426b8d2", "lon": -77.042672}, {"lat": 38.91782333333333, "fusion_lat": 0.0, "is_disabled": 0, "fusion_lon": 0.0, "type": "electric_scooter", "bike_id": "dca30dbbb0e516264f6c205204ee43f1", "is_reserved": 0, "rental_uris": {"ios": "https://dc.lft.to/lastmile_qr_scan", "android": "https://dc.lft.to/lastmile_qr_scan"}, "name": "dca30dbbb0e516264f6c205204ee43f1", "lon": -77.0232215}, {"lat": 38.877904, "fusion_lat": 0.0, "is_disabled": 0, "fusion_lon": 0.0, "type": "electric_scooter", "bike_id": "9a2852f25ae1ca3c85eab31f266db948", "is_reserved": 0, "rental_uris": {"ios": "https://dc.lft.to/lastmile_qr_scan", "android": "https://dc.lft.to/lastmile_qr_scan"}, "name": "9a2852f25ae1ca3c85eab31f266db948", "lon": -76.9960855}, {"lat": 38.918898, "fusion_lat": 0.0, "is_disabled": 0, "fusion_lon": 0.0, "type": "electric_scooter", "bike_id": "99eaef38043f07f67062b9d28f89e59a", "is_reserved": 0, "rental_uris": {"ios": "https://dc.lft.to/lastmile_qr_scan", "android": "https://dc.lft.to/lastmile_qr_scan"}, "name": "99eaef38043f07f67062b9d28f89e59a", "lon": -76.96897333333334}, {"lat": 38.92399733333333, "fusion_lat": 0.0, "is_disabled": 0, "fusion_lon": 0.0, "type": "electric_scooter", "bike_id": "457f1a80bc62176c8721980599ca59be", "is_reserved": 0, "rental_uris": {"ios": "https://dc.lft.to/lastmile_qr_scan", "android": "https://dc.lft.to/lastmile_qr_scan"}, "name": "457f1a80bc62176c8721980599ca59be", "lon": -77.04048333333333}, {"lat": 38.91944633333333, "fusion_lat": 0.0, "is_disabled": 0, "fusion_lon": 0.0, "type": "electric_scooter", "bike_id": "8a26f640053123148d4a87466606ae60", "is_reserved": 0, "rental_uris": {"ios": "https://dc.lft.to/lastmile_qr_scan", "android": "https://dc.lft.to/lastmile_qr_scan"}, "name": "8a26f640053123148d4a87466606ae60", "lon": -77.02483033333333}, {"lat": 38.894807166666666, "fusion_lat": 0.0, "is_disabled": 0, "fusion_lon": 0.0, "type": "electric_scooter", "bike_id": "4f13107ce16eb5314662e92aba3fcea6", "is_reserved": 0, "rental_uris": {"ios": "https://dc.lft.to/lastmile_qr_scan", "android": "https://dc.lft.to/lastmile_qr_scan"}, "name": "4f13107ce16eb5314662e92aba3fcea6", "lon": -76.995126}, {"lat": 38.906877333333334, "fusion_lat": 0.0, "is_disabled": 0, "fusion_lon": 0.0, "type": "electric_scooter", "bike_id": "75ef86074e71be797047871626f8d50a", "is_reserved": 0, "rental_uris": {"ios": "https://dc.lft.to/lastmile_qr_scan", "android": "https://dc.lft.to/lastmile_qr_scan"}, "name": "75ef86074e71be797047871626f8d50a", "lon": -77.02714633333333}, {"lat": 38.919859333333335, "fusion_lat": 0.0, "is_disabled": 0, "fusion_lon": 0.0, "type": "electric_scooter", "bike_id": "cf4d7ab1002cbf7e72f1d143cfb49de0", "is_reserved": 0, "rental_uris": {"ios": "https://dc.lft.to/lastmile_qr_scan", "android": "https://dc.lft.to/lastmile_qr_scan"}, "name": "cf4d7ab1002cbf7e72f1d143cfb49de0", "lon": -77.04170016666667}, {"lat": 38.92464, "fusion_lat": 0.0, "is_disabled": 0, "fusion_lon": 0.0, "type": "electric_scooter", "bike_id": "d76a1a56b5eb33bdd27be7be5f802c62", "is_reserved": 0, "rental_uris": {"ios": "https://dc.lft.to/lastmile_qr_scan", "android": "https://dc.lft.to/lastmile_qr_scan"}, "name": "d76a1a56b5eb33bdd27be7be5f802c62", "lon": -77.02245366666666}, {"lat": 38.8857555, "fusion_lat": 0.0, "is_disabled": 0, "fusion_lon": 0.0, "type": "electric_scooter", "bike_id": "046be8233bde3e4b040c823cd349ac2c", "is_reserved": 0, "rental_uris": {"ios": "https://dc.lft.to/lastmile_qr_scan", "android": "https://dc.lft.to/lastmile_qr_scan"}, "name": "046be8233bde3e4b040c823cd349ac2c", "lon": -76.9543255}, {"lat": 38.91615216666667, "fusion_lat": 0.0, "is_disabled": 0, "fusion_lon": 0.0, "type": "electric_scooter", "bike_id": "2337bb8bb3b8c633c7b37c54b755b27d", "is_reserved": 0, "rental_uris": {"ios": "https://dc.lft.to/lastmile_qr_scan", "android": "https://dc.lft.to/lastmile_qr_scan"}, "name": "2337bb8bb3b8c633c7b37c54b755b27d", "lon": -77.02803816666666}, {"lat": 38.9070435, "fusion_lat": 0.0, "is_disabled": 0, "fusion_lon": 0.0, "type": "electric_scooter", "bike_id": "5cbbdf034410fba53c6f7dfb9f7a966c", "is_reserved": 0, "rental_uris": {"ios": "https://dc.lft.to/lastmile_qr_scan", "android": "https://dc.lft.to/lastmile_qr_scan"}, "name": "5cbbdf034410fba53c6f7dfb9f7a966c", "lon": -77.03184433333334}, {"lat": 38.89980883333333, "fusion_lat": 0.0, "is_disabled": 0, "fusion_lon": 0.0, "type": "electric_scooter", "bike_id": "f1250a4ee374cdf58fdc2e0e08ecd5a8", "is_reserved": 0, "rental_uris": {"ios": "https://dc.lft.to/lastmile_qr_scan", "android": "https://dc.lft.to/lastmile_qr_scan"}, "name": "f1250a4ee374cdf58fdc2e0e08ecd5a8", "lon": -77.041856}, {"lat": 38.91703866666667, "fusion_lat": 0.0, "is_disabled": 0, "fusion_lon": 0.0, "type": "electric_scooter", "bike_id": "83673b094f4223538b958fb1fdc4c5e1", "is_reserved": 0, "rental_uris": {"ios": "https://dc.lft.to/lastmile_qr_scan", "android": "https://dc.lft.to/lastmile_qr_scan"}, "name": "83673b094f4223538b958fb1fdc4c5e1", "lon": -77.0228695}, {"lat": 38.88849583333333, "fusion_lat": 0.0, "is_disabled": 0, "fusion_lon": 0.0, "type": "electric_scooter", "bike_id": "1f1811d2004793a53c26d1fba4b9299d", "is_reserved": 0, "rental_uris": {"ios": "https://dc.lft.to/lastmile_qr_scan", "android": "https://dc.lft.to/lastmile_qr_scan"}, "name": "1f1811d2004793a53c26d1fba4b9299d", "lon": -76.97732366666666}, {"lat": 38.9171165, "fusion_lat": 0.0, "is_disabled": 0, "fusion_lon": 0.0, "type": "electric_scooter", "bike_id": "be7820aaf8a64ebd00f8414bd4b1411b", "is_reserved": 0, "rental_uris": {"ios": "https://dc.lft.to/lastmile_qr_scan", "android": "https://dc.lft.to/lastmile_qr_scan"}, "name": "be7820aaf8a64ebd00f8414bd4b1411b", "lon": -77.026546}, {"lat": 38.87920966666667, "fusion_lat": 0.0, "is_disabled": 0, "fusion_lon": 0.0, "type": "electric_scooter", "bike_id": "7fbe36014bfb70782ba962fd5cf1d5ce", "is_reserved": 0, "rental_uris": {"ios": "https://dc.lft.to/lastmile_qr_scan", "android": "https://dc.lft.to/lastmile_qr_scan"}, "name": "7fbe36014bfb70782ba962fd5cf1d5ce", "lon": -77.0132715}, {"lat": 38.90881666666667, "fusion_lat": 0.0, "is_disabled": 0, "fusion_lon": 0.0, "type": "electric_scooter", "bike_id": "75315f5c08c4ed9ce4d5176fba6ac2d1", "is_reserved": 0, "rental_uris": {"ios": "https://dc.lft.to/lastmile_qr_scan", "android": "https://dc.lft.to/lastmile_qr_scan"}, "name": "75315f5c08c4ed9ce4d5176fba6ac2d1", "lon": -77.0230205}, {"lat": 38.92507716666667, "fusion_lat": 0.0, "is_disabled": 0, "fusion_lon": 0.0, "type": "electric_scooter", "bike_id": "d1dece2e326f40bf22c00d7291dcf651", "is_reserved": 0, "rental_uris": {"ios": "https://dc.lft.to/lastmile_qr_scan", "android": "https://dc.lft.to/lastmile_qr_scan"}, "name": "d1dece2e326f40bf22c00d7291dcf651", "lon": -77.02168283333333}, {"lat": 38.897922333333334, "fusion_lat": 0.0, "is_disabled": 0, "fusion_lon": 0.0, "type": "electric_scooter", "bike_id": "154c2ceda2a98530362e2904b824b690", "is_reserved": 0, "rental_uris": {"ios": "https://dc.lft.to/lastmile_qr_scan", "android": "https://dc.lft.to/lastmile_qr_scan"}, "name": "154c2ceda2a98530362e2904b824b690", "lon": -77.011885}, {"lat": 38.90951166666667, "fusion_lat": 0.0, "is_disabled": 0, "fusion_lon": 0.0, "type": "electric_scooter", "bike_id": "fc52fa1fc2c72923fc20003d4cd2133f", "is_reserved": 0, "rental_uris": {"ios": "https://dc.lft.to/lastmile_qr_scan", "android": "https://dc.lft.to/lastmile_qr_scan"}, "name": "fc52fa1fc2c72923fc20003d4cd2133f", "lon": -76.985352}, {"lat": 38.92023583333334, "fusion_lat": 0.0, "is_disabled": 0, "fusion_lon": 0.0, "type": "electric_scooter", "bike_id": "38aa21127389f9a5faa283d5c2e25e64", "is_reserved": 0, "rental_uris": {"ios": "https://dc.lft.to/lastmile_qr_scan", "android": "https://dc.lft.to/lastmile_qr_scan"}, "name": "38aa21127389f9a5faa283d5c2e25e64", "lon": -77.04194233333334}, {"lat": 38.90026666666667, "fusion_lat": 0.0, "is_disabled": 0, "fusion_lon": 0.0, "type": "electric_scooter", "bike_id": "9c223031e2aba92a9a6359a4997ce803", "is_reserved": 0, "rental_uris": {"ios": "https://dc.lft.to/lastmile_qr_scan", "android": "https://dc.lft.to/lastmile_qr_scan"}, "name": "9c223031e2aba92a9a6359a4997ce803", "lon": -77.01153883333333}, {"lat": 38.90524716666667, "fusion_lat": 0.0, "is_disabled": 0, "fusion_lon": 0.0, "type": "electric_scooter", "bike_id": "5d968f9379ee3fe5cbd5fdbbd1e147e8", "is_reserved": 0, "rental_uris": {"ios": "https://dc.lft.to/lastmile_qr_scan", "android": "https://dc.lft.to/lastmile_qr_scan"}, "name": "5d968f9379ee3fe5cbd5fdbbd1e147e8", "lon": -77.02963983333333}, {"lat": 38.898381666666666, "fusion_lat": 0.0, "is_disabled": 0, "fusion_lon": 0.0, "type": "electric_scooter", "bike_id": "d16aea3caed74665db845ed863f85f55", "is_reserved": 0, "rental_uris": {"ios": "https://dc.lft.to/lastmile_qr_scan", "android": "https://dc.lft.to/lastmile_qr_scan"}, "name": "d16aea3caed74665db845ed863f85f55", "lon": -77.02271166666667}, {"lat": 38.9022625, "fusion_lat": 0.0, "is_disabled": 0, "fusion_lon": 0.0, "type": "electric_scooter", "bike_id": "430f430ba83bb53c277c83c7117a039f", "is_reserved": 0, "rental_uris": {"ios": "https://dc.lft.to/lastmile_qr_scan", "android": "https://dc.lft.to/lastmile_qr_scan"}, "name": "430f430ba83bb53c277c83c7117a039f", "lon": -77.02685683333333}, {"lat": 38.94318616666666, "fusion_lat": 0.0, "is_disabled": 0, "fusion_lon": 0.0, "type": "electric_scooter", "bike_id": "d6ebff441a428963dc1dfc716a0ad05d", "is_reserved": 0, "rental_uris": {"ios": "https://dc.lft.to/lastmile_qr_scan", "android": "https://dc.lft.to/lastmile_qr_scan"}, "name": "d6ebff441a428963dc1dfc716a0ad05d", "lon": -77.073217}, {"lat": 38.915672666666666, "fusion_lat": 0.0, "is_disabled": 0, "fusion_lon": 0.0, "type": "electric_scooter", "bike_id": "bd22869074fcd3447c467edfd1db5641", "is_reserved": 0, "rental_uris": {"ios": "https://dc.lft.to/lastmile_qr_scan", "android": "https://dc.lft.to/lastmile_qr_scan"}, "name": "bd22869074fcd3447c467edfd1db5641", "lon": -77.04611766666666}, {"lat": 38.88476383333333, "fusion_lat": 0.0, "is_disabled": 0, "fusion_lon": 0.0, "type": "electric_scooter", "bike_id": "353c01cf993ae0f377b91b467da55e73", "is_reserved": 0, "rental_uris": {"ios": "https://dc.lft.to/lastmile_qr_scan", "android": "https://dc.lft.to/lastmile_qr_scan"}, "name": "353c01cf993ae0f377b91b467da55e73", "lon": -77.023692}, {"lat": 38.932856666666666, "fusion_lat": 0.0, "is_disabled": 0, "fusion_lon": 0.0, "type": "electric_scooter", "bike_id": "531e2aed0b843800ccb8e243d5c70785", "is_reserved": 0, "rental_uris": {"ios": "https://dc.lft.to/lastmile_qr_scan", "android": "https://dc.lft.to/lastmile_qr_scan"}, "name": "531e2aed0b843800ccb8e243d5c70785", "lon": -76.98645033333334}, {"lat": 38.97440816666666, "fusion_lat": 0.0, "is_disabled": 0, "fusion_lon": 0.0, "type": "electric_bike", "bike_id": "b9eee07658bd17a00f22dff1d6d2c0b5", "is_reserved": 0, "rental_uris": {"ios": "https://dc.lft.to/lastmile_qr_scan", "android": "https://dc.lft.to/lastmile_qr_scan"}, "name": "b9eee07658bd17a00f22dff1d6d2c0b5", "lon": -77.09611866666667}, {"lat": 38.924115, "fusion_lat": 0.0, "is_disabled": 0, "fusion_lon": 0.0, "type": "electric_scooter", "bike_id": "3e75b98d68c819471184963691997b03", "is_reserved": 0, "rental_uris": {"ios": "https://dc.lft.to/lastmile_qr_scan", "android": "https://dc.lft.to/lastmile_qr_scan"}, "name": "3e75b98d68c819471184963691997b03", "lon": -77.020056}, {"lat": 38.854528, "fusion_lat": 0.0, "is_disabled": 0, "fusion_lon": 0.0, "type": "electric_scooter", "bike_id": "68f128c6f5a31a454f8bee6bb0c5dd9f", "is_reserved": 0, "rental_uris": {"ios": "https://dc.lft.to/lastmile_qr_scan", "android": "https://dc.lft.to/lastmile_qr_scan"}, "name": "68f128c6f5a31a454f8bee6bb0c5dd9f", "lon": -76.98608666666667}, {"lat": 38.902054, "fusion_lat": 0.0, "is_disabled": 0, "fusion_lon": 0.0, "type": "electric_scooter", "bike_id": "e2d5687c10cc36f4059aad1d4c2716ca", "is_reserved": 0, "rental_uris": {"ios": "https://dc.lft.to/lastmile_qr_scan", "android": "https://dc.lft.to/lastmile_qr_scan"}, "name": "e2d5687c10cc36f4059aad1d4c2716ca", "lon": -77.023654}, {"lat": 38.91920566666667, "fusion_lat": 0.0, "is_disabled": 0, "fusion_lon": 0.0, "type": "electric_scooter", "bike_id": "d9878352f7dc5a6c2a7044532a89f0c2", "is_reserved": 0, "rental_uris": {"ios": "https://dc.lft.to/lastmile_qr_scan", "android": "https://dc.lft.to/lastmile_qr_scan"}, "name": "d9878352f7dc5a6c2a7044532a89f0c2", "lon": -77.03422283333333}, {"lat": 38.87468966666667, "fusion_lat": 0.0, "is_disabled": 0, "fusion_lon": 0.0, "type": "electric_scooter", "bike_id": "2887ee6d8b1432e6c22b811cbd16c5d3", "is_reserved": 0, "rental_uris": {"ios": "https://dc.lft.to/lastmile_qr_scan", "android": "https://dc.lft.to/lastmile_qr_scan"}, "name": "2887ee6d8b1432e6c22b811cbd16c5d3", "lon": -77.00518233333334}, {"lat": 38.9368705, "fusion_lat": 0.0, "is_disabled": 0, "fusion_lon": 0.0, "type": "electric_scooter", "bike_id": "4f9a0dd66781564026e5c0a61d27672a", "is_reserved": 0, "rental_uris": {"ios": "https://dc.lft.to/lastmile_qr_scan", "android": "https://dc.lft.to/lastmile_qr_scan"}, "name": "4f9a0dd66781564026e5c0a61d27672a", "lon": -77.0843325}, {"lat": 38.883326, "fusion_lat": 0.0, "is_disabled": 0, "fusion_lon": 0.0, "type": "electric_scooter", "bike_id": "7927bb236040e9592c855fb304f7e739", "is_reserved": 0, "rental_uris": {"ios": "https://dc.lft.to/lastmile_qr_scan", "android": "https://dc.lft.to/lastmile_qr_scan"}, "name": "7927bb236040e9592c855fb304f7e739", "lon": -77.01517233333334}, {"lat": 38.9020775, "fusion_lat": 0.0, "is_disabled": 0, "fusion_lon": 0.0, "type": "electric_scooter", "bike_id": "c21bd83948387afac11c4b7b35774122", "is_reserved": 0, "rental_uris": {"ios": "https://dc.lft.to/lastmile_qr_scan", "android": "https://dc.lft.to/lastmile_qr_scan"}, "name": "c21bd83948387afac11c4b7b35774122", "lon": -77.046786}, {"lat": 38.92479016666667, "fusion_lat": 0.0, "is_disabled": 0, "fusion_lon": 0.0, "type": "electric_scooter", "bike_id": "e57972825d2bcd5b934b2f232db0e71f", "is_reserved": 0, "rental_uris": {"ios": "https://dc.lft.to/lastmile_qr_scan", "android": "https://dc.lft.to/lastmile_qr_scan"}, "name": "e57972825d2bcd5b934b2f232db0e71f", "lon": -77.02566366666667}, {"lat": 38.887183666666665, "fusion_lat": 0.0, "is_disabled": 0, "fusion_lon": 0.0, "type": "electric_scooter", "bike_id": "95d7cc77f48db6682f0a39e787721031", "is_reserved": 0, "rental_uris": {"ios": "https://dc.lft.to/lastmile_qr_scan", "android": "https://dc.lft.to/lastmile_qr_scan"}, "name": "95d7cc77f48db6682f0a39e787721031", "lon": -76.99612133333333}, {"lat": 38.87661633333333, "fusion_lat": 0.0, "is_disabled": 0, "fusion_lon": 0.0, "type": "electric_scooter", "bike_id": "395f0a1f9455937bf06866c275fd0fa5", "is_reserved": 0, "rental_uris": {"ios": "https://dc.lft.to/lastmile_qr_scan", "android": "https://dc.lft.to/lastmile_qr_scan"}, "name": "395f0a1f9455937bf06866c275fd0fa5", "lon": -77.00757316666666}, {"lat": 38.87919333333333, "fusion_lat": 0.0, "is_disabled": 0, "fusion_lon": 0.0, "type": "electric_scooter", "bike_id": "42c63162808beba102fc45a2b98a1ddd", "is_reserved": 0, "rental_uris": {"ios": "https://dc.lft.to/lastmile_qr_scan", "android": "https://dc.lft.to/lastmile_qr_scan"}, "name": "42c63162808beba102fc45a2b98a1ddd", "lon": -77.0235335}, {"lat": 38.9446095, "fusion_lat": 0.0, "is_disabled": 0, "fusion_lon": 0.0, "type": "electric_scooter", "bike_id": "48d4803af06f7087602babb1a3068b8b", "is_reserved": 0, "rental_uris": {"ios": "https://dc.lft.to/lastmile_qr_scan", "android": "https://dc.lft.to/lastmile_qr_scan"}, "name": "48d4803af06f7087602babb1a3068b8b", "lon": -77.00657216666667}, {"lat": 38.90890866666667, "fusion_lat": 0.0, "is_disabled": 0, "fusion_lon": 0.0, "type": "electric_scooter", "bike_id": "75abab4918b965035b06278e3b3b77ab", "is_reserved": 0, "rental_uris": {"ios": "https://dc.lft.to/lastmile_qr_scan", "android": "https://dc.lft.to/lastmile_qr_scan"}, "name": "75abab4918b965035b06278e3b3b77ab", "lon": -77.03138483333333}, {"lat": 38.9020925, "fusion_lat": 0.0, "is_disabled": 0, "fusion_lon": 0.0, "type": "electric_scooter", "bike_id": "4105ae254120482efb68008905a5987d", "is_reserved": 0, "rental_uris": {"ios": "https://dc.lft.to/lastmile_qr_scan", "android": "https://dc.lft.to/lastmile_qr_scan"}, "name": "4105ae254120482efb68008905a5987d", "lon": -77.0502695}, {"lat": 38.89758783333333, "fusion_lat": 0.0, "is_disabled": 0, "fusion_lon": 0.0, "type": "electric_scooter", "bike_id": "bae7d54ff6362eb5a08eac1150ca8648", "is_reserved": 0, "rental_uris": {"ios": "https://dc.lft.to/lastmile_qr_scan", "android": "https://dc.lft.to/lastmile_qr_scan"}, "name": "bae7d54ff6362eb5a08eac1150ca8648", "lon": -77.01048183333333}, {"lat": 38.91537966666667, "fusion_lat": 0.0, "is_disabled": 0, "fusion_lon": 0.0, "type": "electric_scooter", "bike_id": "42a1352c7ca72c83feb0bb02e04dfc41", "is_reserved": 0, "rental_uris": {"ios": "https://dc.lft.to/lastmile_qr_scan", "android": "https://dc.lft.to/lastmile_qr_scan"}, "name": "42a1352c7ca72c83feb0bb02e04dfc41", "lon": -77.044223}, {"lat": 38.89901283333333, "fusion_lat": 0.0, "is_disabled": 0, "fusion_lon": 0.0, "type": "electric_scooter", "bike_id": "d29573638f12405b6a73e76c27736658", "is_reserved": 0, "rental_uris": {"ios": "https://dc.lft.to/lastmile_qr_scan", "android": "https://dc.lft.to/lastmile_qr_scan"}, "name": "d29573638f12405b6a73e76c27736658", "lon": -77.03342666666667}, {"lat": 38.894824, "fusion_lat": 0.0, "is_disabled": 0, "fusion_lon": 0.0, "type": "electric_scooter", "bike_id": "ab5a3f39c0973a2f8cb1a0fc32cd78a7", "is_reserved": 0, "rental_uris": {"ios": "https://dc.lft.to/lastmile_qr_scan", "android": "https://dc.lft.to/lastmile_qr_scan"}, "name": "ab5a3f39c0973a2f8cb1a0fc32cd78a7", "lon": -76.99517916666667}, {"lat": 38.91942983333333, "fusion_lat": 0.0, "is_disabled": 0, "fusion_lon": 0.0, "type": "electric_scooter", "bike_id": "d79e65ad856461214c640f1f04398129", "is_reserved": 0, "rental_uris": {"ios": "https://dc.lft.to/lastmile_qr_scan", "android": "https://dc.lft.to/lastmile_qr_scan"}, "name": "d79e65ad856461214c640f1f04398129", "lon": -77.01798916666667}, {"lat": 38.89671033333333, "fusion_lat": 0.0, "is_disabled": 0, "fusion_lon": 0.0, "type": "electric_scooter", "bike_id": "6cd4e07cc6fb5f65e5e0806b0c0cbf05", "is_reserved": 0, "rental_uris": {"ios": "https://dc.lft.to/lastmile_qr_scan", "android": "https://dc.lft.to/lastmile_qr_scan"}, "name": "6cd4e07cc6fb5f65e5e0806b0c0cbf05", "lon": -77.005166}, {"lat": 38.9078015, "fusion_lat": 0.0, "is_disabled": 0, "fusion_lon": 0.0, "type": "electric_scooter", "bike_id": "45070bbe6a45c109165f62174d527e8a", "is_reserved": 0, "rental_uris": {"ios": "https://dc.lft.to/lastmile_qr_scan", "android": "https://dc.lft.to/lastmile_qr_scan"}, "name": "45070bbe6a45c109165f62174d527e8a", "lon": -77.0723715}, {"lat": 38.90086316666667, "fusion_lat": 0.0, "is_disabled": 0, "fusion_lon": 0.0, "type": "electric_scooter", "bike_id": "7a4d1a401f1bbf10c3e00aa52189a2b3", "is_reserved": 0, "rental_uris": {"ios": "https://dc.lft.to/lastmile_qr_scan", "android": "https://dc.lft.to/lastmile_qr_scan"}, "name": "7a4d1a401f1bbf10c3e00aa52189a2b3", "lon": -76.98334733333333}, {"lat": 38.91818716666667, "fusion_lat": 0.0, "is_disabled": 0, "fusion_lon": 0.0, "type": "electric_scooter", "bike_id": "c59b0a93665c7094bc3266d20c75ddfa", "is_reserved": 0, "rental_uris": {"ios": "https://dc.lft.to/lastmile_qr_scan", "android": "https://dc.lft.to/lastmile_qr_scan"}, "name": "c59b0a93665c7094bc3266d20c75ddfa", "lon": -77.0248035}, {"lat": 38.894302, "fusion_lat": 0.0, "is_disabled": 0, "fusion_lon": 0.0, "type": "electric_scooter", "bike_id": "aca5680288bb5f8019c37f8e1600fc65", "is_reserved": 0, "rental_uris": {"ios": "https://dc.lft.to/lastmile_qr_scan", "android": "https://dc.lft.to/lastmile_qr_scan"}, "name": "aca5680288bb5f8019c37f8e1600fc65", "lon": -77.04468333333334}, {"lat": 38.907123, "fusion_lat": 0.0, "is_disabled": 0, "fusion_lon": 0.0, "type": "electric_scooter", "bike_id": "82ea5353e5e05ca69df6b90a34049308", "is_reserved": 0, "rental_uris": {"ios": "https://dc.lft.to/lastmile_qr_scan", "android": "https://dc.lft.to/lastmile_qr_scan"}, "name": "82ea5353e5e05ca69df6b90a34049308", "lon": -77.02803716666666}, {"lat": 38.8934255, "fusion_lat": 0.0, "is_disabled": 0, "fusion_lon": 0.0, "type": "electric_scooter", "bike_id": "7ad9eb14a4cb3bb11bc15ddf0164b5ea", "is_reserved": 0, "rental_uris": {"ios": "https://dc.lft.to/lastmile_qr_scan", "android": "https://dc.lft.to/lastmile_qr_scan"}, "name": "7ad9eb14a4cb3bb11bc15ddf0164b5ea", "lon": -77.04187933333333}, {"lat": 38.941932333333334, "fusion_lat": 0.0, "is_disabled": 0, "fusion_lon": 0.0, "type": "electric_scooter", "bike_id": "883b22b37a4cecd022fb12c60dd60f43", "is_reserved": 0, "rental_uris": {"ios": "https://dc.lft.to/lastmile_qr_scan", "android": "https://dc.lft.to/lastmile_qr_scan"}, "name": "883b22b37a4cecd022fb12c60dd60f43", "lon": -77.02845133333334}, {"lat": 38.89352683333333, "fusion_lat": 0.0, "is_disabled": 0, "fusion_lon": 0.0, "type": "electric_scooter", "bike_id": "b4c770f66eaba65ff1f6259d15239f8b", "is_reserved": 0, "rental_uris": {"ios": "https://dc.lft.to/lastmile_qr_scan", "android": "https://dc.lft.to/lastmile_qr_scan"}, "name": "b4c770f66eaba65ff1f6259d15239f8b", "lon": -77.00335433333333}, {"lat": 38.9076255, "fusion_lat": 0.0, "is_disabled": 0, "fusion_lon": 0.0, "type": "electric_bike", "bike_id": "974c9aecd3ec600e96ff75392daeb677", "is_reserved": 0, "rental_uris": {"ios": "https://dc.lft.to/lastmile_qr_scan", "android": "https://dc.lft.to/lastmile_qr_scan"}, "name": "974c9aecd3ec600e96ff75392daeb677", "lon": -77.06322433333334}, {"lat": 38.90256183333333, "fusion_lat": 0.0, "is_disabled": 0, "fusion_lon": 0.0, "type": "electric_scooter", "bike_id": "03d2bc5e000eac5491b77e44b3a7613c", "is_reserved": 0, "rental_uris": {"ios": "https://dc.lft.to/lastmile_qr_scan", "android": "https://dc.lft.to/lastmile_qr_scan"}, "name": "03d2bc5e000eac5491b77e44b3a7613c", "lon": -77.03946333333333}, {"lat": 38.8986615, "fusion_lat": 0.0, "is_disabled": 0, "fusion_lon": 0.0, "type": "electric_scooter", "bike_id": "8ae3824df4ddb706f273e3a9dc3975f1", "is_reserved": 0, "rental_uris": {"ios": "https://dc.lft.to/lastmile_qr_scan", "android": "https://dc.lft.to/lastmile_qr_scan"}, "name": "8ae3824df4ddb706f273e3a9dc3975f1", "lon": -77.04670883333333}, {"lat": 38.902428, "fusion_lat": 0.0, "is_disabled": 0, "fusion_lon": 0.0, "type": "electric_bike", "bike_id": "ba76437ad8fe84de0b18b476be7edd54", "is_reserved": 0, "rental_uris": {"ios": "https://dc.lft.to/lastmile_qr_scan", "android": "https://dc.lft.to/lastmile_qr_scan"}, "name": "ba76437ad8fe84de0b18b476be7edd54", "lon": -77.028763}, {"lat": 38.9048025, "fusion_lat": 0.0, "is_disabled": 0, "fusion_lon": 0.0, "type": "electric_scooter", "bike_id": "86d5a47730ac8f234f23d80b9ea7e282", "is_reserved": 0, "rental_uris": {"ios": "https://dc.lft.to/lastmile_qr_scan", "android": "https://dc.lft.to/lastmile_qr_scan"}, "name": "86d5a47730ac8f234f23d80b9ea7e282", "lon": -77.04483133333333}, {"lat": 38.91619083333333, "fusion_lat": 0.0, "is_disabled": 0, "fusion_lon": 0.0, "type": "electric_scooter", "bike_id": "ea623e1ae7e1e378ec5c8cbb9c5b37c7", "is_reserved": 0, "rental_uris": {"ios": "https://dc.lft.to/lastmile_qr_scan", "android": "https://dc.lft.to/lastmile_qr_scan"}, "name": "ea623e1ae7e1e378ec5c8cbb9c5b37c7", "lon": -77.01855333333333}, {"lat": 38.927834833333335, "fusion_lat": 0.0, "is_disabled": 0, "fusion_lon": 0.0, "type": "electric_scooter", "bike_id": "0dbb12b32500aa30d1742a567abe9af4", "is_reserved": 0, "rental_uris": {"ios": "https://dc.lft.to/lastmile_qr_scan", "android": "https://dc.lft.to/lastmile_qr_scan"}, "name": "0dbb12b32500aa30d1742a567abe9af4", "lon": -77.0314525}, {"lat": 38.88608716666667, "fusion_lat": 0.0, "is_disabled": 0, "fusion_lon": 0.0, "type": "electric_scooter", "bike_id": "2fa591bda0550780702c2cb745d4c8b3", "is_reserved": 0, "rental_uris": {"ios": "https://dc.lft.to/lastmile_qr_scan", "android": "https://dc.lft.to/lastmile_qr_scan"}, "name": "2fa591bda0550780702c2cb745d4c8b3", "lon": -77.0032765}, {"lat": 38.926203, "fusion_lat": 0.0, "is_disabled": 0, "fusion_lon": 0.0, "type": "electric_scooter", "bike_id": "6e6f7d132f438eac20001ffd0b59c675", "is_reserved": 0, "rental_uris": {"ios": "https://dc.lft.to/lastmile_qr_scan", "android": "https://dc.lft.to/lastmile_qr_scan"}, "name": "6e6f7d132f438eac20001ffd0b59c675", "lon": -77.03928466666666}, {"lat": 38.9248125, "fusion_lat": 0.0, "is_disabled": 0, "fusion_lon": 0.0, "type": "electric_scooter", "bike_id": "e54f62d9987e5e28e94f10bcd90c64db", "is_reserved": 0, "rental_uris": {"ios": "https://dc.lft.to/lastmile_qr_scan", "android": "https://dc.lft.to/lastmile_qr_scan"}, "name": "e54f62d9987e5e28e94f10bcd90c64db", "lon": -77.02713716666666}, {"lat": 38.89581116666667, "fusion_lat": 0.0, "is_disabled": 0, "fusion_lon": 0.0, "type": "electric_scooter", "bike_id": "033c2615440a5250df25d995e7d7c950", "is_reserved": 0, "rental_uris": {"ios": "https://dc.lft.to/lastmile_qr_scan", "android": "https://dc.lft.to/lastmile_qr_scan"}, "name": "033c2615440a5250df25d995e7d7c950", "lon": -77.02966033333334}, {"lat": 38.887684, "fusion_lat": 0.0, "is_disabled": 0, "fusion_lon": 0.0, "type": "electric_scooter", "bike_id": "4e6d3c1fda4965a395c667dea7d23d8a", "is_reserved": 0, "rental_uris": {"ios": "https://dc.lft.to/lastmile_qr_scan", "android": "https://dc.lft.to/lastmile_qr_scan"}, "name": "4e6d3c1fda4965a395c667dea7d23d8a", "lon": -77.000468}, {"lat": 38.967309666666665, "fusion_lat": 0.0, "is_disabled": 0, "fusion_lon": 0.0, "type": "electric_bike", "bike_id": "e86560aef89bb669fd4415281cd9cbad", "is_reserved": 0, "rental_uris": {"ios": "https://dc.lft.to/lastmile_qr_scan", "android": "https://dc.lft.to/lastmile_qr_scan"}, "name": "e86560aef89bb669fd4415281cd9cbad", "lon": -77.0890905}, {"lat": 38.9891115, "fusion_lat": 0.0, "is_disabled": 0, "fusion_lon": 0.0, "type": "electric_bike", "bike_id": "84dd4e04d8197ce454d6f70d8c845c21", "is_reserved": 0, "rental_uris": {"ios": "https://dc.lft.to/lastmile_qr_scan", "android": "https://dc.lft.to/lastmile_qr_scan"}, "name": "84dd4e04d8197ce454d6f70d8c845c21", "lon": -77.1012225}, {"lat": 38.9222895, "fusion_lat": 0.0, "is_disabled": 0, "fusion_lon": 0.0, "type": "electric_scooter", "bike_id": "4d4feff2fcc9b56fa8052fbd87d5e1db", "is_reserved": 0, "rental_uris": {"ios": "https://dc.lft.to/lastmile_qr_scan", "android": "https://dc.lft.to/lastmile_qr_scan"}, "name": "4d4feff2fcc9b56fa8052fbd87d5e1db", "lon": -77.02824333333334}, {"lat": 38.93256933333333, "fusion_lat": 0.0, "is_disabled": 0, "fusion_lon": 0.0, "type": "electric_scooter", "bike_id": "d088e011ee98a7a1f434a30aa7c74dd5", "is_reserved": 0, "rental_uris": {"ios": "https://dc.lft.to/lastmile_qr_scan", "android": "https://dc.lft.to/lastmile_qr_scan"}, "name": "d088e011ee98a7a1f434a30aa7c74dd5", "lon": -76.988779}, {"lat": 38.8824315, "fusion_lat": 0.0, "is_disabled": 0, "fusion_lon": 0.0, "type": "electric_bike", "bike_id": "f9fd3f3cd0352c3b2f19d80d122306f5", "is_reserved": 0, "rental_uris": {"ios": "https://dc.lft.to/lastmile_qr_scan", "android": "https://dc.lft.to/lastmile_qr_scan"}, "name": "f9fd3f3cd0352c3b2f19d80d122306f5", "lon": -76.96258566666667}, {"lat": 38.887652833333334, "fusion_lat": 0.0, "is_disabled": 0, "fusion_lon": 0.0, "type": "electric_scooter", "bike_id": "acd052a25f1323082a673fee189f09d8", "is_reserved": 0, "rental_uris": {"ios": "https://dc.lft.to/lastmile_qr_scan", "android": "https://dc.lft.to/lastmile_qr_scan"}, "name": "acd052a25f1323082a673fee189f09d8", "lon": -76.9773305}, {"lat": 38.904729, "fusion_lat": 0.0, "is_disabled": 0, "fusion_lon": 0.0, "type": "electric_scooter", "bike_id": "5d5d121c393d1f396f0a9e55e66d4179", "is_reserved": 0, "rental_uris": {"ios": "https://dc.lft.to/lastmile_qr_scan", "android": "https://dc.lft.to/lastmile_qr_scan"}, "name": "5d5d121c393d1f396f0a9e55e66d4179", "lon": -77.04870733333334}, {"lat": 38.8741565, "fusion_lat": 0.0, "is_disabled": 0, "fusion_lon": 0.0, "type": "electric_bike", "bike_id": "d64feb8c8fdb3c3d95d18c34d82a42c5", "is_reserved": 0, "rental_uris": {"ios": "https://dc.lft.to/lastmile_qr_scan", "android": "https://dc.lft.to/lastmile_qr_scan"}, "name": "d64feb8c8fdb3c3d95d18c34d82a42c5", "lon": -77.085776}, {"lat": 38.918688, "fusion_lat": 0.0, "is_disabled": 0, "fusion_lon": 0.0, "type": "electric_bike", "bike_id": "64a436088e7417a05947138f23502cb0", "is_reserved": 0, "rental_uris": {"ios": "https://dc.lft.to/lastmile_qr_scan", "android": "https://dc.lft.to/lastmile_qr_scan"}, "name": "64a436088e7417a05947138f23502cb0", "lon": -76.96431716666666}, {"lat": 38.917467, "fusion_lat": 0.0, "is_disabled": 0, "fusion_lon": 0.0, "type": "electric_scooter", "bike_id": "815b8c415c6813a3a1e761d083649a10", "is_reserved": 0, "rental_uris": {"ios": "https://dc.lft.to/lastmile_qr_scan", "android": "https://dc.lft.to/lastmile_qr_scan"}, "name": "815b8c415c6813a3a1e761d083649a10", "lon": -77.02830566666667}, {"lat": 38.8651045, "fusion_lat": 0.0, "is_disabled": 0, "fusion_lon": 0.0, "type": "electric_bike", "bike_id": "0a760231dbdcf1eb766e3edce341a93f", "is_reserved": 0, "rental_uris": {"ios": "https://dc.lft.to/lastmile_qr_scan", "android": "https://dc.lft.to/lastmile_qr_scan"}, "name": "0a760231dbdcf1eb766e3edce341a93f", "lon": -76.97327266666667}, {"lat": 38.90695866666667, "fusion_lat": 0.0, "is_disabled": 0, "fusion_lon": 0.0, "type": "electric_scooter", "bike_id": "e93579d16a79a7c4ca411ddab514dacc", "is_reserved": 0, "rental_uris": {"ios": "https://dc.lft.to/lastmile_qr_scan", "android": "https://dc.lft.to/lastmile_qr_scan"}, "name": "e93579d16a79a7c4ca411ddab514dacc", "lon": -77.02182433333333}, {"lat": 38.88514683333333, "fusion_lat": 0.0, "is_disabled": 0, "fusion_lon": 0.0, "type": "electric_scooter", "bike_id": "ccaa21d5d79dafb7b65860fdca158053", "is_reserved": 0, "rental_uris": {"ios": "https://dc.lft.to/lastmile_qr_scan", "android": "https://dc.lft.to/lastmile_qr_scan"}, "name": "ccaa21d5d79dafb7b65860fdca158053", "lon": -77.005613}, {"lat": 38.856446166666665, "fusion_lat": 0.0, "is_disabled": 0, "fusion_lon": 0.0, "type": "electric_bike", "bike_id": "631eadf13aaca656213992df345a9b78", "is_reserved": 0, "rental_uris": {"ios": "https://dc.lft.to/lastmile_qr_scan", "android": "https://dc.lft.to/lastmile_qr_scan"}, "name": "631eadf13aaca656213992df345a9b78", "lon": -77.08522983333333}, {"lat": 38.9074875, "fusion_lat": 0.0, "is_disabled": 0, "fusion_lon": 0.0, "type": "electric_scooter", "bike_id": "78fd6f8be75193d9d8a312ee3226b199", "is_reserved": 0, "rental_uris": {"ios": "https://dc.lft.to/lastmile_qr_scan", "android": "https://dc.lft.to/lastmile_qr_scan"}, "name": "78fd6f8be75193d9d8a312ee3226b199", "lon": -77.04549366666667}, {"lat": 38.896156833333336, "fusion_lat": 0.0, "is_disabled": 0, "fusion_lon": 0.0, "type": "electric_scooter", "bike_id": "4122ab81361c1b720d3fea52ed5b803b", "is_reserved": 0, "rental_uris": {"ios": "https://dc.lft.to/lastmile_qr_scan", "android": "https://dc.lft.to/lastmile_qr_scan"}, "name": "4122ab81361c1b720d3fea52ed5b803b", "lon": -77.02193833333334}, {"lat": 38.9126055, "fusion_lat": 0.0, "is_disabled": 0, "fusion_lon": 0.0, "type": "electric_scooter", "bike_id": "f7d041a5dc21e927a71d79d7eab35dc1", "is_reserved": 0, "rental_uris": {"ios": "https://dc.lft.to/lastmile_qr_scan", "android": "https://dc.lft.to/lastmile_qr_scan"}, "name": "f7d041a5dc21e927a71d79d7eab35dc1", "lon": -77.03868633333333}, {"lat": 38.9056975, "fusion_lat": 0.0, "is_disabled": 0, "fusion_lon": 0.0, "type": "electric_scooter", "bike_id": "a48867df6c2183ebb673662246b007ae", "is_reserved": 0, "rental_uris": {"ios": "https://dc.lft.to/lastmile_qr_scan", "android": "https://dc.lft.to/lastmile_qr_scan"}, "name": "a48867df6c2183ebb673662246b007ae", "lon": -77.03446883333334}, {"lat": 38.92552766666667, "fusion_lat": 0.0, "is_disabled": 0, "fusion_lon": 0.0, "type": "electric_scooter", "bike_id": "59ae776045b3823547f4a7ebf77d0f62", "is_reserved": 0, "rental_uris": {"ios": "https://dc.lft.to/lastmile_qr_scan", "android": "https://dc.lft.to/lastmile_qr_scan"}, "name": "59ae776045b3823547f4a7ebf77d0f62", "lon": -77.0417935}, {"lat": 38.900822166666664, "fusion_lat": 0.0, "is_disabled": 0, "fusion_lon": 0.0, "type": "electric_scooter", "bike_id": "b356a225ff329f2ce2af62795b30abe4", "is_reserved": 0, "rental_uris": {"ios": "https://dc.lft.to/lastmile_qr_scan", "android": "https://dc.lft.to/lastmile_qr_scan"}, "name": "b356a225ff329f2ce2af62795b30abe4", "lon": -77.02707933333333}, {"lat": 38.90062616666667, "fusion_lat": 0.0, "is_disabled": 0, "fusion_lon": 0.0, "type": "electric_scooter", "bike_id": "2b473ce92d35a41f4a990208b8891d72", "is_reserved": 0, "rental_uris": {"ios": "https://dc.lft.to/lastmile_qr_scan", "android": "https://dc.lft.to/lastmile_qr_scan"}, "name": "2b473ce92d35a41f4a990208b8891d72", "lon": -77.04876933333334}, {"lat": 38.91272166666667, "fusion_lat": 0.0, "is_disabled": 0, "fusion_lon": 0.0, "type": "electric_scooter", "bike_id": "bbaa71fb1b34188fe750da15f8a34b72", "is_reserved": 0, "rental_uris": {"ios": "https://dc.lft.to/lastmile_qr_scan", "android": "https://dc.lft.to/lastmile_qr_scan"}, "name": "bbaa71fb1b34188fe750da15f8a34b72", "lon": -77.0404305}, {"lat": 38.90655666666667, "fusion_lat": 0.0, "is_disabled": 0, "fusion_lon": 0.0, "type": "electric_scooter", "bike_id": "c9a4160f99a24e8b76b3006ab39858a6", "is_reserved": 0, "rental_uris": {"ios": "https://dc.lft.to/lastmile_qr_scan", "android": "https://dc.lft.to/lastmile_qr_scan"}, "name": "c9a4160f99a24e8b76b3006ab39858a6", "lon": -77.014106}, {"lat": 38.90011833333333, "fusion_lat": 0.0, "is_disabled": 0, "fusion_lon": 0.0, "type": "electric_scooter", "bike_id": "3cf2c7a5cf650c4456c805203053be04", "is_reserved": 0, "rental_uris": {"ios": "https://dc.lft.to/lastmile_qr_scan", "android": "https://dc.lft.to/lastmile_qr_scan"}, "name": "3cf2c7a5cf650c4456c805203053be04", "lon": -77.04483316666666}, {"lat": 38.922323166666665, "fusion_lat": 0.0, "is_disabled": 0, "fusion_lon": 0.0, "type": "electric_scooter", "bike_id": "986b1bc4c68f13d7e6bdd0c294ddff73", "is_reserved": 0, "rental_uris": {"ios": "https://dc.lft.to/lastmile_qr_scan", "android": "https://dc.lft.to/lastmile_qr_scan"}, "name": "986b1bc4c68f13d7e6bdd0c294ddff73", "lon": -77.03356}, {"lat": 38.895566, "fusion_lat": 0.0, "is_disabled": 0, "fusion_lon": 0.0, "type": "electric_scooter", "bike_id": "00792dd22dc3299b4471c295675d2574", "is_reserved": 0, "rental_uris": {"ios": "https://dc.lft.to/lastmile_qr_scan", "android": "https://dc.lft.to/lastmile_qr_scan"}, "name": "00792dd22dc3299b4471c295675d2574", "lon": -77.04671183333333}, {"lat": 38.9095595, "fusion_lat": 0.0, "is_disabled": 0, "fusion_lon": 0.0, "type": "electric_scooter", "bike_id": "4f00dcc42d80a92b3f084bd1990b9ae6", "is_reserved": 0, "rental_uris": {"ios": "https://dc.lft.to/lastmile_qr_scan", "android": "https://dc.lft.to/lastmile_qr_scan"}, "name": "4f00dcc42d80a92b3f084bd1990b9ae6", "lon": -77.02412416666667}, {"lat": 38.936891333333335, "fusion_lat": 0.0, "is_disabled": 0, "fusion_lon": 0.0, "type": "electric_bike", "bike_id": "116e9dc3e30411fb1bd4edf14a3435fc", "is_reserved": 0, "rental_uris": {"ios": "https://dc.lft.to/lastmile_qr_scan", "android": "https://dc.lft.to/lastmile_qr_scan"}, "name": "116e9dc3e30411fb1bd4edf14a3435fc", "lon": -76.99060866666667}, {"lat": 38.815403833333335, "fusion_lat": 0.0, "is_disabled": 0, "fusion_lon": 0.0, "type": "electric_bike", "bike_id": "ec45155b924cb073e557d5e98c74eebf", "is_reserved": 0, "rental_uris": {"ios": "https://dc.lft.to/lastmile_qr_scan", "android": "https://dc.lft.to/lastmile_qr_scan"}, "name": "ec45155b924cb073e557d5e98c74eebf", "lon": -77.0464465}, {"lat": 38.90161333333333, "fusion_lat": 0.0, "is_disabled": 0, "fusion_lon": 0.0, "type": "electric_scooter", "bike_id": "80f2fb07315be6b6dd6d2e4ebefc4a3e", "is_reserved": 0, "rental_uris": {"ios": "https://dc.lft.to/lastmile_qr_scan", "android": "https://dc.lft.to/lastmile_qr_scan"}, "name": "80f2fb07315be6b6dd6d2e4ebefc4a3e", "lon": -77.02205933333333}, {"lat": 38.89724, "fusion_lat": 0.0, "is_disabled": 0, "fusion_lon": 0.0, "type": "electric_scooter", "bike_id": "a8a34aa2717060a2f0b493ebe4c95f87", "is_reserved": 0, "rental_uris": {"ios": "https://dc.lft.to/lastmile_qr_scan", "android": "https://dc.lft.to/lastmile_qr_scan"}, "name": "a8a34aa2717060a2f0b493ebe4c95f87", "lon": -76.97853533333333}, {"lat": 38.932433, "fusion_lat": 0.0, "is_disabled": 0, "fusion_lon": 0.0, "type": "electric_scooter", "bike_id": "746dd7f97fb25a4a42943e5c9df369ef", "is_reserved": 0, "rental_uris": {"ios": "https://dc.lft.to/lastmile_qr_scan", "android": "https://dc.lft.to/lastmile_qr_scan"}, "name": "746dd7f97fb25a4a42943e5c9df369ef", "lon": -77.03277716666666}, {"lat": 38.96153533333333, "fusion_lat": 0.0, "is_disabled": 0, "fusion_lon": 0.0, "type": "electric_bike", "bike_id": "7fe54181811e2d90facb7d03295c59ba", "is_reserved": 0, "rental_uris": {"ios": "https://dc.lft.to/lastmile_qr_scan", "android": "https://dc.lft.to/lastmile_qr_scan"}, "name": "7fe54181811e2d90facb7d03295c59ba", "lon": -77.03244133333334}, {"lat": 38.902484, "fusion_lat": 0.0, "is_disabled": 0, "fusion_lon": 0.0, "type": "electric_scooter", "bike_id": "83d2fa02fae3303301468b3799c2faf5", "is_reserved": 0, "rental_uris": {"ios": "https://dc.lft.to/lastmile_qr_scan", "android": "https://dc.lft.to/lastmile_qr_scan"}, "name": "83d2fa02fae3303301468b3799c2faf5", "lon": -77.03199516666666}, {"lat": 38.925380833333335, "fusion_lat": 0.0, "is_disabled": 0, "fusion_lon": 0.0, "type": "electric_scooter", "bike_id": "908cde281e2be915054d835dc427de6e", "is_reserved": 0, "rental_uris": {"ios": "https://dc.lft.to/lastmile_qr_scan", "android": "https://dc.lft.to/lastmile_qr_scan"}, "name": "908cde281e2be915054d835dc427de6e", "lon": -77.03437933333333}, {"lat": 38.895409, "fusion_lat": 0.0, "is_disabled": 0, "fusion_lon": 0.0, "type": "electric_scooter", "bike_id": "fe9ffdcde8c5115aff45edefe0dd9458", "is_reserved": 0, "rental_uris": {"ios": "https://dc.lft.to/lastmile_qr_scan", "android": "https://dc.lft.to/lastmile_qr_scan"}, "name": "fe9ffdcde8c5115aff45edefe0dd9458", "lon": -76.98335516666667}, {"lat": 38.90958766666667, "fusion_lat": 0.0, "is_disabled": 0, "fusion_lon": 0.0, "type": "electric_scooter", "bike_id": "0da5baa489c3b0f97ff302d8f8d81cdf", "is_reserved": 0, "rental_uris": {"ios": "https://dc.lft.to/lastmile_qr_scan", "android": "https://dc.lft.to/lastmile_qr_scan"}, "name": "0da5baa489c3b0f97ff302d8f8d81cdf", "lon": -77.02416316666667}, {"lat": 38.9229645, "fusion_lat": 0.0, "is_disabled": 0, "fusion_lon": 0.0, "type": "electric_scooter", "bike_id": "f1a19a11317c81f7a4d8a36a0d16c955", "is_reserved": 0, "rental_uris": {"ios": "https://dc.lft.to/lastmile_qr_scan", "android": "https://dc.lft.to/lastmile_qr_scan"}, "name": "f1a19a11317c81f7a4d8a36a0d16c955", "lon": -77.03200216666667}, {"lat": 38.903598333333335, "fusion_lat": 0.0, "is_disabled": 0, "fusion_lon": 0.0, "type": "electric_scooter", "bike_id": "f89be86807b97ee3c728a6e8073025ef", "is_reserved": 0, "rental_uris": {"ios": "https://dc.lft.to/lastmile_qr_scan", "android": "https://dc.lft.to/lastmile_qr_scan"}, "name": "f89be86807b97ee3c728a6e8073025ef", "lon": -77.0271245}, {"lat": 38.919214333333336, "fusion_lat": 0.0, "is_disabled": 0, "fusion_lon": 0.0, "type": "electric_scooter", "bike_id": "fd03a3869a2faa02e7667f902cd1f5d5", "is_reserved": 0, "rental_uris": {"ios": "https://dc.lft.to/lastmile_qr_scan", "android": "https://dc.lft.to/lastmile_qr_scan"}, "name": "fd03a3869a2faa02e7667f902cd1f5d5", "lon": -77.08062916666667}, {"lat": 38.922527333333335, "fusion_lat": 0.0, "is_disabled": 0, "fusion_lon": 0.0, "type": "electric_scooter", "bike_id": "c2e6d7b80d3882024a81d773f3ac5b1a", "is_reserved": 0, "rental_uris": {"ios": "https://dc.lft.to/lastmile_qr_scan", "android": "https://dc.lft.to/lastmile_qr_scan"}, "name": "c2e6d7b80d3882024a81d773f3ac5b1a", "lon": -77.01950633333334}, {"lat": 38.897189833333336, "fusion_lat": 0.0, "is_disabled": 0, "fusion_lon": 0.0, "type": "electric_scooter", "bike_id": "d531c7acfd7e8260b45776307d99be0e", "is_reserved": 0, "rental_uris": {"ios": "https://dc.lft.to/lastmile_qr_scan", "android": "https://dc.lft.to/lastmile_qr_scan"}, "name": "d531c7acfd7e8260b45776307d99be0e", "lon": -77.00793966666667}, {"lat": 38.89978216666667, "fusion_lat": 0.0, "is_disabled": 0, "fusion_lon": 0.0, "type": "electric_scooter", "bike_id": "710ddbb400954e9d26540cdf48105f58", "is_reserved": 0, "rental_uris": {"ios": "https://dc.lft.to/lastmile_qr_scan", "android": "https://dc.lft.to/lastmile_qr_scan"}, "name": "710ddbb400954e9d26540cdf48105f58", "lon": -77.04187266666666}, {"lat": 38.926004166666665, "fusion_lat": 0.0, "is_disabled": 0, "fusion_lon": 0.0, "type": "electric_scooter", "bike_id": "3788342f0e728370a4e00f7b68d0a5b4", "is_reserved": 0, "rental_uris": {"ios": "https://dc.lft.to/lastmile_qr_scan", "android": "https://dc.lft.to/lastmile_qr_scan"}, "name": "3788342f0e728370a4e00f7b68d0a5b4", "lon": -77.02156616666667}, {"lat": 38.91538666666667, "fusion_lat": 0.0, "is_disabled": 0, "fusion_lon": 0.0, "type": "electric_scooter", "bike_id": "5715b09b92136dc7407b31a57c041841", "is_reserved": 0, "rental_uris": {"ios": "https://dc.lft.to/lastmile_qr_scan", "android": "https://dc.lft.to/lastmile_qr_scan"}, "name": "5715b09b92136dc7407b31a57c041841", "lon": -77.0754625}, {"lat": 38.9415, "fusion_lat": 0.0, "is_disabled": 0, "fusion_lon": 0.0, "type": "electric_bike", "bike_id": "2aab725bd34d626cba0aa7e79732755a", "is_reserved": 0, "rental_uris": {"ios": "https://dc.lft.to/lastmile_qr_scan", "android": "https://dc.lft.to/lastmile_qr_scan"}, "name": "2aab725bd34d626cba0aa7e79732755a", "lon": -77.00195766666667}, {"lat": 38.915539833333334, "fusion_lat": 0.0, "is_disabled": 0, "fusion_lon": 0.0, "type": "electric_scooter", "bike_id": "ab434b63c148279325e5cd759fd0fa7f", "is_reserved": 0, "rental_uris": {"ios": "https://dc.lft.to/lastmile_qr_scan", "android": "https://dc.lft.to/lastmile_qr_scan"}, "name": "ab434b63c148279325e5cd759fd0fa7f", "lon": -77.067693}, {"lat": 38.90026983333333, "fusion_lat": 0.0, "is_disabled": 0, "fusion_lon": 0.0, "type": "electric_bike", "bike_id": "78d173390959929b9cb3c5789ca4d6ee", "is_reserved": 0, "rental_uris": {"ios": "https://dc.lft.to/lastmile_qr_scan", "android": "https://dc.lft.to/lastmile_qr_scan"}, "name": "78d173390959929b9cb3c5789ca4d6ee", "lon": -76.97222516666666}, {"lat": 38.9987725, "fusion_lat": 0.0, "is_disabled": 0, "fusion_lon": 0.0, "type": "electric_bike", "bike_id": "1bc570af6e92175357a3654b43772059", "is_reserved": 0, "rental_uris": {"ios": "https://dc.lft.to/lastmile_qr_scan", "android": "https://dc.lft.to/lastmile_qr_scan"}, "name": "1bc570af6e92175357a3654b43772059", "lon": -76.91067016666666}, {"lat": 38.866197666666665, "fusion_lat": 0.0, "is_disabled": 0, "fusion_lon": 0.0, "type": "electric_bike", "bike_id": "89fb07ec5b5032c8f69bbfde7631b784", "is_reserved": 0, "rental_uris": {"ios": "https://dc.lft.to/lastmile_qr_scan", "android": "https://dc.lft.to/lastmile_qr_scan"}, "name": "89fb07ec5b5032c8f69bbfde7631b784", "lon": -76.9456935}, {"lat": 38.924212833333335, "fusion_lat": 0.0, "is_disabled": 0, "fusion_lon": 0.0, "type": "electric_scooter", "bike_id": "4d28482fd20db999e83a6d51288f1bff", "is_reserved": 0, "rental_uris": {"ios": "https://dc.lft.to/lastmile_qr_scan", "android": "https://dc.lft.to/lastmile_qr_scan"}, "name": "4d28482fd20db999e83a6d51288f1bff", "lon": -77.022651}, {"lat": 38.915700333333334, "fusion_lat": 0.0, "is_disabled": 0, "fusion_lon": 0.0, "type": "electric_scooter", "bike_id": "7768d508df6f832459255caf330b923f", "is_reserved": 0, "rental_uris": {"ios": "https://dc.lft.to/lastmile_qr_scan", "android": "https://dc.lft.to/lastmile_qr_scan"}, "name": "7768d508df6f832459255caf330b923f", "lon": -77.04617233333333}, {"lat": 38.908143833333334, "fusion_lat": 0.0, "is_disabled": 0, "fusion_lon": 0.0, "type": "electric_scooter", "bike_id": "fd1fc5e89c6101ab8d44325e14346f7b", "is_reserved": 0, "rental_uris": {"ios": "https://dc.lft.to/lastmile_qr_scan", "android": "https://dc.lft.to/lastmile_qr_scan"}, "name": "fd1fc5e89c6101ab8d44325e14346f7b", "lon": -77.029539}, {"lat": 38.905824333333335, "fusion_lat": 0.0, "is_disabled": 0, "fusion_lon": 0.0, "type": "electric_scooter", "bike_id": "d9b44b76e04d27592bd6de4659574f3d", "is_reserved": 0, "rental_uris": {"ios": "https://dc.lft.to/lastmile_qr_scan", "android": "https://dc.lft.to/lastmile_qr_scan"}, "name": "d9b44b76e04d27592bd6de4659574f3d", "lon": -76.99090283333334}, {"lat": 38.9118525, "fusion_lat": 0.0, "is_disabled": 0, "fusion_lon": 0.0, "type": "electric_scooter", "bike_id": "eea746a0cf7804cb3ba890a4853f3e61", "is_reserved": 0, "rental_uris": {"ios": "https://dc.lft.to/lastmile_qr_scan", "android": "https://dc.lft.to/lastmile_qr_scan"}, "name": "eea746a0cf7804cb3ba890a4853f3e61", "lon": -77.06618333333333}, {"lat": 38.924154333333334, "fusion_lat": 0.0, "is_disabled": 0, "fusion_lon": 0.0, "type": "electric_scooter", "bike_id": "454dec3567952fa713da6d05aabb462c", "is_reserved": 0, "rental_uris": {"ios": "https://dc.lft.to/lastmile_qr_scan", "android": "https://dc.lft.to/lastmile_qr_scan"}, "name": "454dec3567952fa713da6d05aabb462c", "lon": -77.02128}, {"lat": 38.885573, "fusion_lat": 0.0, "is_disabled": 0, "fusion_lon": 0.0, "type": "electric_scooter", "bike_id": "829998dbfa6a0a55c3dfa36ce14d4070", "is_reserved": 0, "rental_uris": {"ios": "https://dc.lft.to/lastmile_qr_scan", "android": "https://dc.lft.to/lastmile_qr_scan"}, "name": "829998dbfa6a0a55c3dfa36ce14d4070", "lon": -77.01993566666667}, {"lat": 38.9108895, "fusion_lat": 0.0, "is_disabled": 0, "fusion_lon": 0.0, "type": "electric_bike", "bike_id": "a82b4417e403c3b64f2f8a5433401822", "is_reserved": 0, "rental_uris": {"ios": "https://dc.lft.to/lastmile_qr_scan", "android": "https://dc.lft.to/lastmile_qr_scan"}, "name": "a82b4417e403c3b64f2f8a5433401822", "lon": -77.021805}, {"lat": 38.91401316666666, "fusion_lat": 0.0, "is_disabled": 0, "fusion_lon": 0.0, "type": "electric_scooter", "bike_id": "18d86a2d8956aaff7a993dd5988fae81", "is_reserved": 0, "rental_uris": {"ios": "https://dc.lft.to/lastmile_qr_scan", "android": "https://dc.lft.to/lastmile_qr_scan"}, "name": "18d86a2d8956aaff7a993dd5988fae81", "lon": -77.01803233333334}, {"lat": 38.896169, "fusion_lat": 0.0, "is_disabled": 0, "fusion_lon": 0.0, "type": "electric_bike", "bike_id": "1fe22fe9c4d07af26139e1c35bf22556", "is_reserved": 0, "rental_uris": {"ios": "https://dc.lft.to/lastmile_qr_scan", "android": "https://dc.lft.to/lastmile_qr_scan"}, "name": "1fe22fe9c4d07af26139e1c35bf22556", "lon": -76.90745783333334}, {"lat": 38.8850965, "fusion_lat": 0.0, "is_disabled": 0, "fusion_lon": 0.0, "type": "electric_scooter", "bike_id": "5204903f04b27786951f8c33fe43d504", "is_reserved": 0, "rental_uris": {"ios": "https://dc.lft.to/lastmile_qr_scan", "android": "https://dc.lft.to/lastmile_qr_scan"}, "name": "5204903f04b27786951f8c33fe43d504", "lon": -76.92440133333334}, {"lat": 38.902562333333336, "fusion_lat": 0.0, "is_disabled": 0, "fusion_lon": 0.0, "type": "electric_scooter", "bike_id": "a720e30310846a5dc5afbc6242931ab8", "is_reserved": 0, "rental_uris": {"ios": "https://dc.lft.to/lastmile_qr_scan", "android": "https://dc.lft.to/lastmile_qr_scan"}, "name": "a720e30310846a5dc5afbc6242931ab8", "lon": -76.97694783333333}, {"lat": 38.90590816666667, "fusion_lat": 0.0, "is_disabled": 0, "fusion_lon": 0.0, "type": "electric_scooter", "bike_id": "5ececb924089856a2eba09800ff1abe2", "is_reserved": 0, "rental_uris": {"ios": "https://dc.lft.to/lastmile_qr_scan", "android": "https://dc.lft.to/lastmile_qr_scan"}, "name": "5ececb924089856a2eba09800ff1abe2", "lon": -77.07006833333334}, {"lat": 38.88722516666667, "fusion_lat": 0.0, "is_disabled": 0, "fusion_lon": 0.0, "type": "electric_scooter", "bike_id": "ecce51af31dab1cb481e19268e8a53cf", "is_reserved": 0, "rental_uris": {"ios": "https://dc.lft.to/lastmile_qr_scan", "android": "https://dc.lft.to/lastmile_qr_scan"}, "name": "ecce51af31dab1cb481e19268e8a53cf", "lon": -77.03206233333333}, {"lat": 38.93532166666667, "fusion_lat": 0.0, "is_disabled": 0, "fusion_lon": 0.0, "type": "electric_scooter", "bike_id": "9fa51503dbc41a5a586f5734d7938a21", "is_reserved": 0, "rental_uris": {"ios": "https://dc.lft.to/lastmile_qr_scan", "android": "https://dc.lft.to/lastmile_qr_scan"}, "name": "9fa51503dbc41a5a586f5734d7938a21", "lon": -77.03478366666667}, {"lat": 38.9216975, "fusion_lat": 0.0, "is_disabled": 0, "fusion_lon": 0.0, "type": "electric_scooter", "bike_id": "2f9bd7ae43fba7df66e14820b9dfa737", "is_reserved": 0, "rental_uris": {"ios": "https://dc.lft.to/lastmile_qr_scan", "android": "https://dc.lft.to/lastmile_qr_scan"}, "name": "2f9bd7ae43fba7df66e14820b9dfa737", "lon": -77.04014033333333}, {"lat": 38.90167733333333, "fusion_lat": 0.0, "is_disabled": 0, "fusion_lon": 0.0, "type": "electric_scooter", "bike_id": "2b3dfddc36815aaf2be36e48e63fcda0", "is_reserved": 0, "rental_uris": {"ios": "https://dc.lft.to/lastmile_qr_scan", "android": "https://dc.lft.to/lastmile_qr_scan"}, "name": "2b3dfddc36815aaf2be36e48e63fcda0", "lon": -77.02228983333333}, {"lat": 38.9575305, "fusion_lat": 0.0, "is_disabled": 0, "fusion_lon": 0.0, "type": "electric_scooter", "bike_id": "6a78f5e96ae2f72e6d81e0ade6b08082", "is_reserved": 0, "rental_uris": {"ios": "https://dc.lft.to/lastmile_qr_scan", "android": "https://dc.lft.to/lastmile_qr_scan"}, "name": "6a78f5e96ae2f72e6d81e0ade6b08082", "lon": -77.02206583333333}, {"lat": 38.924107, "fusion_lat": 0.0, "is_disabled": 0, "fusion_lon": 0.0, "type": "electric_scooter", "bike_id": "451886c5e816d90a1470105fcef7e1f0", "is_reserved": 0, "rental_uris": {"ios": "https://dc.lft.to/lastmile_qr_scan", "android": "https://dc.lft.to/lastmile_qr_scan"}, "name": "451886c5e816d90a1470105fcef7e1f0", "lon": -77.0200595}, {"lat": 38.88527033333333, "fusion_lat": 0.0, "is_disabled": 0, "fusion_lon": 0.0, "type": "electric_scooter", "bike_id": "f9d1d276de83540883eb4606b12e81c3", "is_reserved": 0, "rental_uris": {"ios": "https://dc.lft.to/lastmile_qr_scan", "android": "https://dc.lft.to/lastmile_qr_scan"}, "name": "f9d1d276de83540883eb4606b12e81c3", "lon": -76.980545}, {"lat": 38.90247266666667, "fusion_lat": 0.0, "is_disabled": 0, "fusion_lon": 0.0, "type": "electric_scooter", "bike_id": "1a0faee440cb75f824e5a534d90c7749", "is_reserved": 0, "rental_uris": {"ios": "https://dc.lft.to/lastmile_qr_scan", "android": "https://dc.lft.to/lastmile_qr_scan"}, "name": "1a0faee440cb75f824e5a534d90c7749", "lon": -77.03890333333334}, {"lat": 38.920469, "fusion_lat": 0.0, "is_disabled": 0, "fusion_lon": 0.0, "type": "electric_scooter", "bike_id": "76aa100df13b74b4c50e643dd6abebad", "is_reserved": 0, "rental_uris": {"ios": "https://dc.lft.to/lastmile_qr_scan", "android": "https://dc.lft.to/lastmile_qr_scan"}, "name": "76aa100df13b74b4c50e643dd6abebad", "lon": -77.04189383333333}, {"lat": 38.89882266666667, "fusion_lat": 0.0, "is_disabled": 0, "fusion_lon": 0.0, "type": "electric_scooter", "bike_id": "0ae3c783182ba43d129ea7abb42e00d9", "is_reserved": 0, "rental_uris": {"ios": "https://dc.lft.to/lastmile_qr_scan", "android": "https://dc.lft.to/lastmile_qr_scan"}, "name": "0ae3c783182ba43d129ea7abb42e00d9", "lon": -76.931738}, {"lat": 38.924104666666665, "fusion_lat": 0.0, "is_disabled": 0, "fusion_lon": 0.0, "type": "electric_scooter", "bike_id": "866fb48c0f55d4ee830af29511c517b6", "is_reserved": 0, "rental_uris": {"ios": "https://dc.lft.to/lastmile_qr_scan", "android": "https://dc.lft.to/lastmile_qr_scan"}, "name": "866fb48c0f55d4ee830af29511c517b6", "lon": -77.0227915}, {"lat": 38.8791405, "fusion_lat": 0.0, "is_disabled": 0, "fusion_lon": 0.0, "type": "electric_scooter", "bike_id": "6e0f6862daea91e2c0297cba4e37ee43", "is_reserved": 0, "rental_uris": {"ios": "https://dc.lft.to/lastmile_qr_scan", "android": "https://dc.lft.to/lastmile_qr_scan"}, "name": "6e0f6862daea91e2c0297cba4e37ee43", "lon": -77.01737066666666}, {"lat": 38.89737483333333, "fusion_lat": 0.0, "is_disabled": 0, "fusion_lon": 0.0, "type": "electric_scooter", "bike_id": "4064e0e5f5531132f2b97cc241fb2166", "is_reserved": 0, "rental_uris": {"ios": "https://dc.lft.to/lastmile_qr_scan", "android": "https://dc.lft.to/lastmile_qr_scan"}, "name": "4064e0e5f5531132f2b97cc241fb2166", "lon": -76.991726}, {"lat": 38.92813533333333, "fusion_lat": 0.0, "is_disabled": 0, "fusion_lon": 0.0, "type": "electric_scooter", "bike_id": "a3c93971023d65ef35f867082c010746", "is_reserved": 0, "rental_uris": {"ios": "https://dc.lft.to/lastmile_qr_scan", "android": "https://dc.lft.to/lastmile_qr_scan"}, "name": "a3c93971023d65ef35f867082c010746", "lon": -77.0364295}, {"lat": 38.910364666666666, "fusion_lat": 0.0, "is_disabled": 0, "fusion_lon": 0.0, "type": "electric_scooter", "bike_id": "993e4dc1c97ddfa0521f60f4a51c6890", "is_reserved": 0, "rental_uris": {"ios": "https://dc.lft.to/lastmile_qr_scan", "android": "https://dc.lft.to/lastmile_qr_scan"}, "name": "993e4dc1c97ddfa0521f60f4a51c6890", "lon": -77.04407616666667}, {"lat": 38.945519166666664, "fusion_lat": 0.0, "is_disabled": 0, "fusion_lon": 0.0, "type": "electric_scooter", "bike_id": "c1ba91ab95d28359afc702eceff44d59", "is_reserved": 0, "rental_uris": {"ios": "https://dc.lft.to/lastmile_qr_scan", "android": "https://dc.lft.to/lastmile_qr_scan"}, "name": "c1ba91ab95d28359afc702eceff44d59", "lon": -77.06409066666667}, {"lat": 38.86419633333333, "fusion_lat": 0.0, "is_disabled": 0, "fusion_lon": 0.0, "type": "electric_scooter", "bike_id": "1d908b9c91991d42f3736ed66d3c4034", "is_reserved": 0, "rental_uris": {"ios": "https://dc.lft.to/lastmile_qr_scan", "android": "https://dc.lft.to/lastmile_qr_scan"}, "name": "1d908b9c91991d42f3736ed66d3c4034", "lon": -76.97443833333334}, {"lat": 38.90988333333333, "fusion_lat": 0.0, "is_disabled": 0, "fusion_lon": 0.0, "type": "electric_scooter", "bike_id": "ac784be90bdee12d8695767f50e1573d", "is_reserved": 0, "rental_uris": {"ios": "https://dc.lft.to/lastmile_qr_scan", "android": "https://dc.lft.to/lastmile_qr_scan"}, "name": "ac784be90bdee12d8695767f50e1573d", "lon": -77.0047215}, {"lat": 38.92581416666667, "fusion_lat": 0.0, "is_disabled": 0, "fusion_lon": 0.0, "type": "electric_scooter", "bike_id": "75af8a8c8284df54db56dec732a989bf", "is_reserved": 0, "rental_uris": {"ios": "https://dc.lft.to/lastmile_qr_scan", "android": "https://dc.lft.to/lastmile_qr_scan"}, "name": "75af8a8c8284df54db56dec732a989bf", "lon": -77.02497883333334}, {"lat": 38.9324685, "fusion_lat": 0.0, "is_disabled": 0, "fusion_lon": 0.0, "type": "electric_scooter", "bike_id": "3a5f0349e28c0aeaa88d089a19a0e3f6", "is_reserved": 0, "rental_uris": {"ios": "https://dc.lft.to/lastmile_qr_scan", "android": "https://dc.lft.to/lastmile_qr_scan"}, "name": "3a5f0349e28c0aeaa88d089a19a0e3f6", "lon": -77.03278933333333}, {"lat": 38.88394533333334, "fusion_lat": 0.0, "is_disabled": 0, "fusion_lon": 0.0, "type": "electric_scooter", "bike_id": "adf0fcba78db0e5580e017c6b93a53a7", "is_reserved": 0, "rental_uris": {"ios": "https://dc.lft.to/lastmile_qr_scan", "android": "https://dc.lft.to/lastmile_qr_scan"}, "name": "adf0fcba78db0e5580e017c6b93a53a7", "lon": -77.04450916666667}, {"lat": 38.833504, "fusion_lat": 0.0, "is_disabled": 0, "fusion_lon": 0.0, "type": "electric_bike", "bike_id": "f8a99a5c724d56fe6881122567ac360c", "is_reserved": 0, "rental_uris": {"ios": "https://dc.lft.to/lastmile_qr_scan", "android": "https://dc.lft.to/lastmile_qr_scan"}, "name": "f8a99a5c724d56fe6881122567ac360c", "lon": -77.04962883333333}, {"lat": 38.94633833333333, "fusion_lat": 0.0, "is_disabled": 0, "fusion_lon": 0.0, "type": "electric_scooter", "bike_id": "b649bc263618d692775fcd0f9095a0c1", "is_reserved": 0, "rental_uris": {"ios": "https://dc.lft.to/lastmile_qr_scan", "android": "https://dc.lft.to/lastmile_qr_scan"}, "name": "b649bc263618d692775fcd0f9095a0c1", "lon": -77.0226815}, {"lat": 38.928023333333336, "fusion_lat": 0.0, "is_disabled": 0, "fusion_lon": 0.0, "type": "electric_bike", "bike_id": "2beb451c1fdeb9831eea101595d84843", "is_reserved": 0, "rental_uris": {"ios": "https://dc.lft.to/lastmile_qr_scan", "android": "https://dc.lft.to/lastmile_qr_scan"}, "name": "2beb451c1fdeb9831eea101595d84843", "lon": -77.2294075}, {"lat": 38.887085, "fusion_lat": 0.0, "is_disabled": 0, "fusion_lon": 0.0, "type": "electric_scooter", "bike_id": "376753922c73749038906c9837534d71", "is_reserved": 0, "rental_uris": {"ios": "https://dc.lft.to/lastmile_qr_scan", "android": "https://dc.lft.to/lastmile_qr_scan"}, "name": "376753922c73749038906c9837534d71", "lon": -76.98346316666667}, {"lat": 38.89911466666667, "fusion_lat": 0.0, "is_disabled": 0, "fusion_lon": 0.0, "type": "electric_scooter", "bike_id": "4bce35cb959fdfd64872094d266f59c6", "is_reserved": 0, "rental_uris": {"ios": "https://dc.lft.to/lastmile_qr_scan", "android": "https://dc.lft.to/lastmile_qr_scan"}, "name": "4bce35cb959fdfd64872094d266f59c6", "lon": -77.04036366666666}, {"lat": 38.92313266666667, "fusion_lat": 0.0, "is_disabled": 0, "fusion_lon": 0.0, "type": "electric_scooter", "bike_id": "8a24b283d47b9d14014f464256fdb382", "is_reserved": 0, "rental_uris": {"ios": "https://dc.lft.to/lastmile_qr_scan", "android": "https://dc.lft.to/lastmile_qr_scan"}, "name": "8a24b283d47b9d14014f464256fdb382", "lon": -77.03805516666667}, {"lat": 38.895442833333334, "fusion_lat": 0.0, "is_disabled": 0, "fusion_lon": 0.0, "type": "electric_scooter", "bike_id": "a05d4d526ed2b8a440be6f37c1ffccc4", "is_reserved": 0, "rental_uris": {"ios": "https://dc.lft.to/lastmile_qr_scan", "android": "https://dc.lft.to/lastmile_qr_scan"}, "name": "a05d4d526ed2b8a440be6f37c1ffccc4", "lon": -76.9833745}, {"lat": 38.91112483333333, "fusion_lat": 0.0, "is_disabled": 0, "fusion_lon": 0.0, "type": "electric_scooter", "bike_id": "8de461ca70b9a1bd08382f9509b89521", "is_reserved": 0, "rental_uris": {"ios": "https://dc.lft.to/lastmile_qr_scan", "android": "https://dc.lft.to/lastmile_qr_scan"}, "name": "8de461ca70b9a1bd08382f9509b89521", "lon": -77.032634}, {"lat": 38.9284645, "fusion_lat": 0.0, "is_disabled": 0, "fusion_lon": 0.0, "type": "electric_scooter", "bike_id": "03fd4a8a4280a5e9e1b7f8ebe425a85a", "is_reserved": 0, "rental_uris": {"ios": "https://dc.lft.to/lastmile_qr_scan", "android": "https://dc.lft.to/lastmile_qr_scan"}, "name": "03fd4a8a4280a5e9e1b7f8ebe425a85a", "lon": -77.014088}, {"lat": 38.90152333333333, "fusion_lat": 0.0, "is_disabled": 0, "fusion_lon": 0.0, "type": "electric_scooter", "bike_id": "91cae48c6bb7d8893d6d720ba4d90917", "is_reserved": 0, "rental_uris": {"ios": "https://dc.lft.to/lastmile_qr_scan", "android": "https://dc.lft.to/lastmile_qr_scan"}, "name": "91cae48c6bb7d8893d6d720ba4d90917", "lon": -77.05912983333333}, {"lat": 38.95183083333333, "fusion_lat": 0.0, "is_disabled": 0, "fusion_lon": 0.0, "type": "electric_bike", "bike_id": "e444e1b51f75d25e399f5adb0458319b", "is_reserved": 0, "rental_uris": {"ios": "https://dc.lft.to/lastmile_qr_scan", "android": "https://dc.lft.to/lastmile_qr_scan"}, "name": "e444e1b51f75d25e399f5adb0458319b", "lon": -76.935431}, {"lat": 38.923728, "fusion_lat": 0.0, "is_disabled": 0, "fusion_lon": 0.0, "type": "electric_scooter", "bike_id": "4ab9e29aa615031ce5e8c32fa145d2e9", "is_reserved": 0, "rental_uris": {"ios": "https://dc.lft.to/lastmile_qr_scan", "android": "https://dc.lft.to/lastmile_qr_scan"}, "name": "4ab9e29aa615031ce5e8c32fa145d2e9", "lon": -77.08059783333333}, {"lat": 38.89836733333333, "fusion_lat": 0.0, "is_disabled": 0, "fusion_lon": 0.0, "type": "electric_scooter", "bike_id": "13e08aac587e54bcd113c93d47768016", "is_reserved": 0, "rental_uris": {"ios": "https://dc.lft.to/lastmile_qr_scan", "android": "https://dc.lft.to/lastmile_qr_scan"}, "name": "13e08aac587e54bcd113c93d47768016", "lon": -77.04807533333333}, {"lat": 38.9041395, "fusion_lat": 0.0, "is_disabled": 0, "fusion_lon": 0.0, "type": "electric_scooter", "bike_id": "ba65407df865cd95f6f45c9ba6a57f04", "is_reserved": 0, "rental_uris": {"ios": "https://dc.lft.to/lastmile_qr_scan", "android": "https://dc.lft.to/lastmile_qr_scan"}, "name": "ba65407df865cd95f6f45c9ba6a57f04", "lon": -77.0296605}, {"lat": 38.9170685, "fusion_lat": 0.0, "is_disabled": 0, "fusion_lon": 0.0, "type": "electric_scooter", "bike_id": "e2318c5c62e8696d3a0bd60b54c92ab6", "is_reserved": 0, "rental_uris": {"ios": "https://dc.lft.to/lastmile_qr_scan", "android": "https://dc.lft.to/lastmile_qr_scan"}, "name": "e2318c5c62e8696d3a0bd60b54c92ab6", "lon": -77.03245466666667}, {"lat": 38.8851505, "fusion_lat": 0.0, "is_disabled": 0, "fusion_lon": 0.0, "type": "electric_scooter", "bike_id": "c7f580ec2bbb042c9103060a9f281e00", "is_reserved": 0, "rental_uris": {"ios": "https://dc.lft.to/lastmile_qr_scan", "android": "https://dc.lft.to/lastmile_qr_scan"}, "name": "c7f580ec2bbb042c9103060a9f281e00", "lon": -77.00562366666666}, {"lat": 38.9184305, "fusion_lat": 0.0, "is_disabled": 0, "fusion_lon": 0.0, "type": "electric_scooter", "bike_id": "8b541dda2620c486423fe5c3934fc1d2", "is_reserved": 0, "rental_uris": {"ios": "https://dc.lft.to/lastmile_qr_scan", "android": "https://dc.lft.to/lastmile_qr_scan"}, "name": "8b541dda2620c486423fe5c3934fc1d2", "lon": -77.03186216666667}, {"lat": 38.84623783333333, "fusion_lat": 0.0, "is_disabled": 0, "fusion_lon": 0.0, "type": "electric_bike", "bike_id": "200eaae3415eb158297e9b9435d153f2", "is_reserved": 0, "rental_uris": {"ios": "https://dc.lft.to/lastmile_qr_scan", "android": "https://dc.lft.to/lastmile_qr_scan"}, "name": "200eaae3415eb158297e9b9435d153f2", "lon": -77.06932683333334}, {"lat": 38.89964616666666, "fusion_lat": 0.0, "is_disabled": 0, "fusion_lon": 0.0, "type": "electric_scooter", "bike_id": "bf83559ae3490fe42fc7b1cb6eee5d7e", "is_reserved": 0, "rental_uris": {"ios": "https://dc.lft.to/lastmile_qr_scan", "android": "https://dc.lft.to/lastmile_qr_scan"}, "name": "bf83559ae3490fe42fc7b1cb6eee5d7e", "lon": -76.93758566666666}, {"lat": 38.898333666666666, "fusion_lat": 0.0, "is_disabled": 0, "fusion_lon": 0.0, "type": "electric_scooter", "bike_id": "ec0fbb2f3a2dc0e554cd951041edb20d", "is_reserved": 0, "rental_uris": {"ios": "https://dc.lft.to/lastmile_qr_scan", "android": "https://dc.lft.to/lastmile_qr_scan"}, "name": "ec0fbb2f3a2dc0e554cd951041edb20d", "lon": -77.048023}, {"lat": 38.83039766666667, "fusion_lat": 0.0, "is_disabled": 0, "fusion_lon": 0.0, "type": "electric_bike", "bike_id": "62391b05b9feaf36bfbb3d127390df0a", "is_reserved": 0, "rental_uris": {"ios": "https://dc.lft.to/lastmile_qr_scan", "android": "https://dc.lft.to/lastmile_qr_scan"}, "name": "62391b05b9feaf36bfbb3d127390df0a", "lon": -77.008187}, {"lat": 38.89031083333333, "fusion_lat": 0.0, "is_disabled": 0, "fusion_lon": 0.0, "type": "electric_scooter", "bike_id": "d06d01177ee817fcf961c10e9b271d1e", "is_reserved": 0, "rental_uris": {"ios": "https://dc.lft.to/lastmile_qr_scan", "android": "https://dc.lft.to/lastmile_qr_scan"}, "name": "d06d01177ee817fcf961c10e9b271d1e", "lon": -76.937532}, {"lat": 38.89621316666667, "fusion_lat": 0.0, "is_disabled": 0, "fusion_lon": 0.0, "type": "electric_scooter", "bike_id": "b08c13bc91c9e0376379aa2f0cdbd2f8", "is_reserved": 0, "rental_uris": {"ios": "https://dc.lft.to/lastmile_qr_scan", "android": "https://dc.lft.to/lastmile_qr_scan"}, "name": "b08c13bc91c9e0376379aa2f0cdbd2f8", "lon": -77.00348716666667}, {"lat": 38.903527, "fusion_lat": 0.0, "is_disabled": 0, "fusion_lon": 0.0, "type": "electric_scooter", "bike_id": "25fd57f542d22fd2fe0c4db145f496cd", "is_reserved": 0, "rental_uris": {"ios": "https://dc.lft.to/lastmile_qr_scan", "android": "https://dc.lft.to/lastmile_qr_scan"}, "name": "25fd57f542d22fd2fe0c4db145f496cd", "lon": -77.0110835}, {"lat": 38.92149, "fusion_lat": 0.0, "is_disabled": 0, "fusion_lon": 0.0, "type": "electric_scooter", "bike_id": "5525cd7b358f7700e51ea32c41cb8be6", "is_reserved": 0, "rental_uris": {"ios": "https://dc.lft.to/lastmile_qr_scan", "android": "https://dc.lft.to/lastmile_qr_scan"}, "name": "5525cd7b358f7700e51ea32c41cb8be6", "lon": -77.01787766666666}, {"lat": 38.895709833333335, "fusion_lat": 0.0, "is_disabled": 0, "fusion_lon": 0.0, "type": "electric_scooter", "bike_id": "1c0c0cb17c0e9ce9bc53c0cf3d3c07fe", "is_reserved": 0, "rental_uris": {"ios": "https://dc.lft.to/lastmile_qr_scan", "android": "https://dc.lft.to/lastmile_qr_scan"}, "name": "1c0c0cb17c0e9ce9bc53c0cf3d3c07fe", "lon": -77.04154816666667}, {"lat": 38.9142545, "fusion_lat": 0.0, "is_disabled": 0, "fusion_lon": 0.0, "type": "electric_scooter", "bike_id": "400251cb4984f37e939f21cefbda445a", "is_reserved": 0, "rental_uris": {"ios": "https://dc.lft.to/lastmile_qr_scan", "android": "https://dc.lft.to/lastmile_qr_scan"}, "name": "400251cb4984f37e939f21cefbda445a", "lon": -77.01804583333333}, {"lat": 38.925617, "fusion_lat": 0.0, "is_disabled": 0, "fusion_lon": 0.0, "type": "electric_scooter", "bike_id": "a13ad4001e0c9fa8b6e27bc1270bd4e4", "is_reserved": 0, "rental_uris": {"ios": "https://dc.lft.to/lastmile_qr_scan", "android": "https://dc.lft.to/lastmile_qr_scan"}, "name": "a13ad4001e0c9fa8b6e27bc1270bd4e4", "lon": -77.03772433333333}, {"lat": 38.899439666666666, "fusion_lat": 0.0, "is_disabled": 0, "fusion_lon": 0.0, "type": "electric_scooter", "bike_id": "b47017744e7f777f1ba07e58ffc60443", "is_reserved": 0, "rental_uris": {"ios": "https://dc.lft.to/lastmile_qr_scan", "android": "https://dc.lft.to/lastmile_qr_scan"}, "name": "b47017744e7f777f1ba07e58ffc60443", "lon": -77.04713933333333}, {"lat": 38.9066215, "fusion_lat": 0.0, "is_disabled": 0, "fusion_lon": 0.0, "type": "electric_scooter", "bike_id": "aae80a4a2059518345030797e32e615d", "is_reserved": 0, "rental_uris": {"ios": "https://dc.lft.to/lastmile_qr_scan", "android": "https://dc.lft.to/lastmile_qr_scan"}, "name": "aae80a4a2059518345030797e32e615d", "lon": -77.02502016666666}, {"lat": 38.925312, "fusion_lat": 0.0, "is_disabled": 0, "fusion_lon": 0.0, "type": "electric_bike", "bike_id": "35f6e792d4d083d68b1e029d3a6412ff", "is_reserved": 0, "rental_uris": {"ios": "https://dc.lft.to/lastmile_qr_scan", "android": "https://dc.lft.to/lastmile_qr_scan"}, "name": "35f6e792d4d083d68b1e029d3a6412ff", "lon": -77.07327033333334}, {"lat": 38.91110466666667, "fusion_lat": 0.0, "is_disabled": 0, "fusion_lon": 0.0, "type": "electric_scooter", "bike_id": "f2967da77e9483b9b57cb9ba081b1bf3", "is_reserved": 0, "rental_uris": {"ios": "https://dc.lft.to/lastmile_qr_scan", "android": "https://dc.lft.to/lastmile_qr_scan"}, "name": "f2967da77e9483b9b57cb9ba081b1bf3", "lon": -77.038272}, {"lat": 38.9207235, "fusion_lat": 0.0, "is_disabled": 0, "fusion_lon": 0.0, "type": "electric_scooter", "bike_id": "8a564a5e7ab3a25fb5e57bad4db60cb5", "is_reserved": 0, "rental_uris": {"ios": "https://dc.lft.to/lastmile_qr_scan", "android": "https://dc.lft.to/lastmile_qr_scan"}, "name": "8a564a5e7ab3a25fb5e57bad4db60cb5", "lon": -77.03876033333333},