{"data": {"bikes": [{"rental_uris": {"ios": "https://dc.lft.to/lastmile_qr_scan", "android": "https://dc.lft.to/lastmile_qr_scan"}, "fusion_lon": 0.0, "type": "electric_scooter", "is_reserved": 0, "lon": -77.02693916666666, "is_disabled": 0, "fusion_lat": 0.0, "bike_id": "c15cc3adf70f1b7850083fb5b4d589c7", "name": "c15cc3adf70f1b7850083fb5b4d589c7", "lat": 38.97243866666667}, {"rental_uris": {"ios": "https://dc.lft.to/lastmile_qr_scan", "android": "https://dc.lft.to/lastmile_qr_scan"}, "fusion_lon": 0.0, "type": "electric_bike", "is_reserved": 0, "lon": -77.00191666666667, "is_disabled": 0, "fusion_lat": 0.0, "bike_id": "131c7366e06ac2da12553f656e3b2ee2", "name": "131c7366e06ac2da12553f656e3b2ee2", "lat": 38.941471166666666}, {"rental_uris": {"ios": "https://dc.lft.to/lastmile_qr_scan", "android": "https://dc.lft.to/lastmile_qr_scan"}, "fusion_lon": 0.0, "type": "electric_scooter", "is_reserved": 0, "lon": -77.02006633333333, "is_disabled": 0, "fusion_lat": 0.0, "bike_id": "aec15723e5e0aa68d9ea87d4060f8992", "name": "aec15723e5e0aa68d9ea87d4060f8992", "lat": 38.88565116666667}, {"rental_uris": {"ios": "https://dc.lft.to/lastmile_qr_scan", "android": "https://dc.lft.to/lastmile_qr_scan"}, "fusion_lon": 0.0, "type": "electric_bike", "is_reserved": 0, "lon": -76.91086716666666, "is_disabled": 0, "fusion_lat": 0.0, "bike_id": "3a9169287eebe5c610a966cb65cfac88", "name": "3a9169287eebe5c610a966cb65cfac88", "lat": 38.99878316666667}, {"rental_uris": {"ios": "https://dc.lft.to/lastmile_qr_scan", "android": "https://dc.lft.to/lastmile_qr_scan"}, "fusion_lon": 0.0, "type": "electric_scooter", "is_reserved": 0, "lon": -77.02175466666667, "is_disabled": 0, "fusion_lat": 0.0, "bike_id": "d2c52238e5487a24d3b0141c70cb724e", "name": "d2c52238e5487a24d3b0141c70cb724e", "lat": 38.916158333333335}, {"rental_uris": {"ios": "https://dc.lft.to/lastmile_qr_scan", "android": "https://dc.lft.to/lastmile_qr_scan"}, "fusion_lon": 0.0, "type": "electric_scooter", "is_reserved": 0, "lon": -76.99093966666666, "is_disabled": 0, "fusion_lat": 0.0, "bike_id": "95f924c8bae8e56cafb0ea2029665861", "name": "95f924c8bae8e56cafb0ea2029665861", "lat": 38.9058405}, {"rental_uris": {"ios": "https://dc.lft.to/lastmile_qr_scan", "android": "https://dc.lft.to/lastmile_qr_scan"}, "fusion_lon": 0.0, "type": "electric_bike", "is_reserved": 0, "lon": -76.945753, "is_disabled": 0, "fusion_lat": 0.0, "bike_id": "0de2c551bd749964cead1e3bd92ac9ad", "name": "0de2c551bd749964cead1e3bd92ac9ad", "lat": 38.86618433333334}, {"rental_uris": {"ios": "https://dc.lft.to/lastmile_qr_scan", "android": "https://dc.lft.to/lastmile_qr_scan"}, "fusion_lon": 0.0, "type": "electric_scooter", "is_reserved": 0, "lon": -77.06615966666666, "is_disabled": 0, "fusion_lat": 0.0, "bike_id": "a2b33d3cde0d2d2b1067b5d301139870", "name": "a2b33d3cde0d2d2b1067b5d301139870", "lat": 38.911883333333336}, {"rental_uris": {"ios": "https://dc.lft.to/lastmile_qr_scan", "android": "https://dc.lft.to/lastmile_qr_scan"}, "fusion_lon": 0.0, "type": "electric_scooter", "is_reserved": 0, "lon": -77.04785466666667, "is_disabled": 0, "fusion_lat": 0.0, "bike_id": "48145917d5fc6c37c2b5b6c49da291d9", "name": "48145917d5fc6c37c2b5b6c49da291d9", "lat": 38.91259683333333}, {"rental_uris": {"ios": "https://dc.lft.to/lastmile_qr_scan", "android": "https://dc.lft.to/lastmile_qr_scan"}, "fusion_lon": 0.0, "type": "electric_bike", "is_reserved": 0, "lon": -76.972217, "is_disabled": 0, "fusion_lat": 0.0, "bike_id": "a1d13bd4bc6ecf57f15b990028de3e36", "name": "a1d13bd4bc6ecf57f15b990028de3e36", "lat": 38.9002845}, {"rental_uris": {"ios": "https://dc.lft.to/lastmile_qr_scan", "android": "https://dc.lft.to/lastmile_qr_scan"}, "fusion_lon": 0.0, "type": "electric_scooter", "is_reserved": 0, "lon": -77.07543583333333, "is_disabled": 0, "fusion_lat": 0.0, "bike_id": "df04964ef78362d51b559e48fcbca3da", "name": "df04964ef78362d51b559e48fcbca3da", "lat": 38.9153575}, {"rental_uris": {"ios": "https://dc.lft.to/lastmile_qr_scan", "android": "https://dc.lft.to/lastmile_qr_scan"}, "fusion_lon": 0.0, "type": "electric_scooter", "is_reserved": 0, "lon": -77.0298445, "is_disabled": 0, "fusion_lat": 0.0, "bike_id": "d68e4e378874372dfb5671ba7dd4d281", "name": "d68e4e378874372dfb5671ba7dd4d281", "lat": 38.91551033333333}, {"rental_uris": {"ios": "https://dc.lft.to/lastmile_qr_scan", "android": "https://dc.lft.to/lastmile_qr_scan"}, "fusion_lon": 0.0, "type": "electric_scooter", "is_reserved": 0, "lon": -77.07140683333333, "is_disabled": 0, "fusion_lat": 0.0, "bike_id": "ed99c684366f5745da9e0e2c8df98a6f", "name": "ed99c684366f5745da9e0e2c8df98a6f", "lat": 38.92029016666667}, {"rental_uris": {"ios": "https://dc.lft.to/lastmile_qr_scan", "android": "https://dc.lft.to/lastmile_qr_scan"}, "fusion_lon": 0.0, "type": "electric_scooter", "is_reserved": 0, "lon": -77.02509933333333, "is_disabled": 0, "fusion_lat": 0.0, "bike_id": "b7d125aab165556db65169f41d102fe3", "name": "b7d125aab165556db65169f41d102fe3", "lat": 38.884872666666666}, {"rental_uris": {"ios": "https://dc.lft.to/lastmile_qr_scan", "android": "https://dc.lft.to/lastmile_qr_scan"}, "fusion_lon": 0.0, "type": "electric_scooter", "is_reserved": 0, "lon": -77.00201483333333, "is_disabled": 0, "fusion_lat": 0.0, "bike_id": "1ec98eb0f5df167fa212b6e836730a8b", "name": "1ec98eb0f5df167fa212b6e836730a8b", "lat": 38.930857}, {"rental_uris": {"ios": "https://dc.lft.to/lastmile_qr_scan", "android": "https://dc.lft.to/lastmile_qr_scan"}, "fusion_lon": 0.0, "type": "electric_scooter", "is_reserved": 0, "lon": -77.03494633333334, "is_disabled": 0, "fusion_lat": 0.0, "bike_id": "304a9013d8aac727e270261de9ba9c05", "name": "304a9013d8aac727e270261de9ba9c05", "lat": 38.918650166666666}, {"rental_uris": {"ios": "https://dc.lft.to/lastmile_qr_scan", "android": "https://dc.lft.to/lastmile_qr_scan"}, "fusion_lon": 0.0, "type": "electric_scooter", "is_reserved": 0, "lon": -77.01726366666666, "is_disabled": 0, "fusion_lat": 0.0, "bike_id": "78567a343d734bac4c69b971524f531e", "name": "78567a343d734bac4c69b971524f531e", "lat": 38.920496666666665}, {"rental_uris": {"ios": "https://dc.lft.to/lastmile_qr_scan", "android": "https://dc.lft.to/lastmile_qr_scan"}, "fusion_lon": 0.0, "type": "electric_scooter", "is_reserved": 0, "lon": -77.046475, "is_disabled": 0, "fusion_lat": 0.0, "bike_id": "fa4398efd6f135a8d9731a3ee91bc3b0", "name": "fa4398efd6f135a8d9731a3ee91bc3b0", "lat": 38.9164585}, {"rental_uris": {"ios": "https://dc.lft.to/lastmile_qr_scan", "android": "https://dc.lft.to/lastmile_qr_scan"}, "fusion_lon": 0.0, "type": "electric_scooter", "is_reserved": 0, "lon": -77.009222, "is_disabled": 0, "fusion_lat": 0.0, "bike_id": "15dd8a76bb1bb02064dbacbe5b185673", "name": "15dd8a76bb1bb02064dbacbe5b185673", "lat": 38.91471216666667}, {"rental_uris": {"ios": "https://dc.lft.to/lastmile_qr_scan", "android": "https://dc.lft.to/lastmile_qr_scan"}, "fusion_lon": 0.0, "type": "electric_scooter", "is_reserved": 0, "lon": -77.04808033333333, "is_disabled": 0, "fusion_lat": 0.0, "bike_id": "a8b4944703878c568dfda7fd1150f660", "name": "a8b4944703878c568dfda7fd1150f660", "lat": 38.916292}, {"rental_uris": {"ios": "https://dc.lft.to/lastmile_qr_scan", "android": "https://dc.lft.to/lastmile_qr_scan"}, "fusion_lon": 0.0, "type": "electric_scooter", "is_reserved": 0, "lon": -77.02336983333333, "is_disabled": 0, "fusion_lat": 0.0, "bike_id": "7845f795f4d4c6be0ca4902315bf0593", "name": "7845f795f4d4c6be0ca4902315bf0593", "lat": 38.91696733333333}, {"rental_uris": {"ios": "https://dc.lft.to/lastmile_qr_scan", "android": "https://dc.lft.to/lastmile_qr_scan"}, "fusion_lon": 0.0, "type": "electric_scooter", "is_reserved": 0, "lon": -77.04099516666666, "is_disabled": 0, "fusion_lat": 0.0, "bike_id": "2a0437fc18b54744431118be20ff08c0", "name": "2a0437fc18b54744431118be20ff08c0", "lat": 38.90118433333333}, {"rental_uris": {"ios": "https://dc.lft.to/lastmile_qr_scan", "android": "https://dc.lft.to/lastmile_qr_scan"}, "fusion_lon": 0.0, "type": "electric_scooter", "is_reserved": 0, "lon": -77.03559316666667, "is_disabled": 0, "fusion_lat": 0.0, "bike_id": "7f57bfe5337e874db2c6777af8b130d5", "name": "7f57bfe5337e874db2c6777af8b130d5", "lat": 38.9046425}, {"rental_uris": {"ios": "https://dc.lft.to/lastmile_qr_scan", "android": "https://dc.lft.to/lastmile_qr_scan"}, "fusion_lon": 0.0, "type": "electric_scooter", "is_reserved": 0, "lon": -77.0317355, "is_disabled": 0, "fusion_lat": 0.0, "bike_id": "632ed3dce6c11e12020d1c88a0a40f75", "name": "632ed3dce6c11e12020d1c88a0a40f75", "lat": 38.91646733333333}, {"rental_uris": {"ios": "https://dc.lft.to/lastmile_qr_scan", "android": "https://dc.lft.to/lastmile_qr_scan"}, "fusion_lon": 0.0, "type": "electric_scooter", "is_reserved": 0, "lon": -77.03901816666666, "is_disabled": 0, "fusion_lat": 0.0, "bike_id": "5d571a22f5acc9befd9e83c34d03453c", "name": "5d571a22f5acc9befd9e83c34d03453c", "lat": 38.9066125}, {"rental_uris": {"ios": "https://dc.lft.to/lastmile_qr_scan", "android": "https://dc.lft.to/lastmile_qr_scan"}, "fusion_lon": 0.0, "type": "electric_scooter", "is_reserved": 0, "lon": -77.032631, "is_disabled": 0, "fusion_lat": 0.0, "bike_id": "8e2a98ed3ea58d5456bb714672948164", "name": "8e2a98ed3ea58d5456bb714672948164", "lat": 38.9353525}, {"rental_uris": {"ios": "https://dc.lft.to/lastmile_qr_scan", "android": "https://dc.lft.to/lastmile_qr_scan"}, "fusion_lon": 0.0, "type": "electric_scooter", "is_reserved": 0, "lon": -77.0106265, "is_disabled": 0, "fusion_lat": 0.0, "bike_id": "0aab7c02f2e2df4f1a0405c099371f28", "name": "0aab7c02f2e2df4f1a0405c099371f28", "lat": 38.91157366666667}, {"rental_uris": {"ios": "https://dc.lft.to/lastmile_qr_scan", "android": "https://dc.lft.to/lastmile_qr_scan"}, "fusion_lon": 0.0, "type": "electric_scooter", "is_reserved": 0, "lon": -77.036442, "is_disabled": 0, "fusion_lat": 0.0, "bike_id": "df119f479a1fd49f106a3d6cc2307c56", "name": "df119f479a1fd49f106a3d6cc2307c56", "lat": 38.915716333333336}, {"rental_uris": {"ios": "https://dc.lft.to/lastmile_qr_scan", "android": "https://dc.lft.to/lastmile_qr_scan"}, "fusion_lon": 0.0, "type": "electric_bike", "is_reserved": 0, "lon": -76.98192333333333, "is_disabled": 0, "fusion_lat": 0.0, "bike_id": "64b5fc8620b176fff4192279cc8af910", "name": "64b5fc8620b176fff4192279cc8af910", "lat": 38.98495283333333}, {"rental_uris": {"ios": "https://dc.lft.to/lastmile_qr_scan", "android": "https://dc.lft.to/lastmile_qr_scan"}, "fusion_lon": 0.0, "type": "electric_scooter", "is_reserved": 0, "lon": -77.01725116666667, "is_disabled": 0, "fusion_lat": 0.0, "bike_id": "586a09ac86212c9cc128a8a9477477bd", "name": "586a09ac86212c9cc128a8a9477477bd", "lat": 38.920637666666664}, {"rental_uris": {"ios": "https://dc.lft.to/lastmile_qr_scan", "android": "https://dc.lft.to/lastmile_qr_scan"}, "fusion_lon": 0.0, "type": "electric_scooter", "is_reserved": 0, "lon": -77.01528483333334, "is_disabled": 0, "fusion_lat": 0.0, "bike_id": "47680ca0c8940707fcf71c52be6880cd", "name": "47680ca0c8940707fcf71c52be6880cd", "lat": 38.887364166666664}, {"rental_uris": {"ios": "https://dc.lft.to/lastmile_qr_scan", "android": "https://dc.lft.to/lastmile_qr_scan"}, "fusion_lon": 0.0, "type": "electric_scooter", "is_reserved": 0, "lon": -77.0264725, "is_disabled": 0, "fusion_lat": 0.0, "bike_id": "12a8f66152ed379a5e0eec7a74d94900", "name": "12a8f66152ed379a5e0eec7a74d94900", "lat": 38.881232}, {"rental_uris": {"ios": "https://dc.lft.to/lastmile_qr_scan", "android": "https://dc.lft.to/lastmile_qr_scan"}, "fusion_lon": 0.0, "type": "electric_scooter", "is_reserved": 0, "lon": -77.03183066666666, "is_disabled": 0, "fusion_lat": 0.0, "bike_id": "644c9d6b5022f820d42020061af37b52", "name": "644c9d6b5022f820d42020061af37b52", "lat": 38.913242833333335}, {"rental_uris": {"ios": "https://dc.lft.to/lastmile_qr_scan", "android": "https://dc.lft.to/lastmile_qr_scan"}, "fusion_lon": 0.0, "type": "electric_bike", "is_reserved": 0, "lon": -77.118461, "is_disabled": 0, "fusion_lat": 0.0, "bike_id": "ba46dc949f4e5b6fe827d05862c4cb70", "name": "ba46dc949f4e5b6fe827d05862c4cb70", "lat": 38.87732}, {"rental_uris": {"ios": "https://dc.lft.to/lastmile_qr_scan", "android": "https://dc.lft.to/lastmile_qr_scan"}, "fusion_lon": 0.0, "type": "electric_scooter", "is_reserved": 0, "lon": -76.99458066666666, "is_disabled": 0, "fusion_lat": 0.0, "bike_id": "190adfac5ff437943b050ea39d17f9c4", "name": "190adfac5ff437943b050ea39d17f9c4", "lat": 38.89722616666667}, {"rental_uris": {"ios": "https://dc.lft.to/lastmile_qr_scan", "android": "https://dc.lft.to/lastmile_qr_scan"}, "fusion_lon": 0.0, "type": "electric_scooter", "is_reserved": 0, "lon": -77.02491683333334, "is_disabled": 0, "fusion_lat": 0.0, "bike_id": "7489033e6dd9e1000fabb891dcc39ea7", "name": "7489033e6dd9e1000fabb891dcc39ea7", "lat": 38.91804583333333}, {"rental_uris": {"ios": "https://dc.lft.to/lastmile_qr_scan", "android": "https://dc.lft.to/lastmile_qr_scan"}, "fusion_lon": 0.0, "type": "electric_bike", "is_reserved": 0, "lon": -76.91718633333333, "is_disabled": 0, "fusion_lat": 0.0, "bike_id": "07220a468afcd03ee543d3daa5865444", "name": "07220a468afcd03ee543d3daa5865444", "lat": 38.880251666666666}, {"rental_uris": {"ios": "https://dc.lft.to/lastmile_qr_scan", "android": "https://dc.lft.to/lastmile_qr_scan"}, "fusion_lon": 0.0, "type": "electric_scooter", "is_reserved": 0, "lon": -77.04556183333334, "is_disabled": 0, "fusion_lat": 0.0, "bike_id": "bcc68b8f97cc1867f985e9c7b38d7bd4", "name": "bcc68b8f97cc1867f985e9c7b38d7bd4", "lat": 38.90752033333333}, {"rental_uris": {"ios": "https://dc.lft.to/lastmile_qr_scan", "android": "https://dc.lft.to/lastmile_qr_scan"}, "fusion_lon": 0.0, "type": "electric_scooter", "is_reserved": 0, "lon": -76.94967833333334, "is_disabled": 0, "fusion_lat": 0.0, "bike_id": "1d5bae3a69b90fa834ee6f4b90748053", "name": "1d5bae3a69b90fa834ee6f4b90748053", "lat": 38.90483433333333}, {"rental_uris": {"ios": "https://dc.lft.to/lastmile_qr_scan", "android": "https://dc.lft.to/lastmile_qr_scan"}, "fusion_lon": 0.0, "type": "electric_scooter", "is_reserved": 0, "lon": -77.02415266666667, "is_disabled": 0, "fusion_lat": 0.0, "bike_id": "7d16dfba27ac4692da8ad426764b440d", "name": "7d16dfba27ac4692da8ad426764b440d", "lat": 38.90959866666667}, {"rental_uris": {"ios": "https://dc.lft.to/lastmile_qr_scan", "android": "https://dc.lft.to/lastmile_qr_scan"}, "fusion_lon": 0.0, "type": "electric_scooter", "is_reserved": 0, "lon": -77.03836183333334, "is_disabled": 0, "fusion_lat": 0.0, "bike_id": "27b2617303ad3baaef086e4f1560f3ae", "name": "27b2617303ad3baaef086e4f1560f3ae", "lat": 38.903922333333334}, {"rental_uris": {"ios": "https://dc.lft.to/lastmile_qr_scan", "android": "https://dc.lft.to/lastmile_qr_scan"}, "fusion_lon": 0.0, "type": "electric_scooter", "is_reserved": 0, "lon": -77.0270615, "is_disabled": 0, "fusion_lat": 0.0, "bike_id": "72cdd17391f21715e23d2584891852e7", "name": "72cdd17391f21715e23d2584891852e7", "lat": 38.90673966666667}, {"rental_uris": {"ios": "https://dc.lft.to/lastmile_qr_scan", "android": "https://dc.lft.to/lastmile_qr_scan"}, "fusion_lon": 0.0, "type": "electric_scooter", "is_reserved": 0, "lon": -77.04192016666667, "is_disabled": 0, "fusion_lat": 0.0, "bike_id": "0b600615885398f1e35c0fd6bb1ce711", "name": "0b600615885398f1e35c0fd6bb1ce711", "lat": 38.9204955}, {"rental_uris": {"ios": "https://dc.lft.to/lastmile_qr_scan", "android": "https://dc.lft.to/lastmile_qr_scan"}, "fusion_lon": 0.0, "type": "electric_scooter", "is_reserved": 0, "lon": -77.019384, "is_disabled": 0, "fusion_lat": 0.0, "bike_id": "1bf4601a74e6bc42e2a1d21663fb70c0", "name": "1bf4601a74e6bc42e2a1d21663fb70c0", "lat": 38.87636916666666}, {"rental_uris": {"ios": "https://dc.lft.to/lastmile_qr_scan", "android": "https://dc.lft.to/lastmile_qr_scan"}, "fusion_lon": 0.0, "type": "electric_scooter", "is_reserved": 0, "lon": -77.02102733333334, "is_disabled": 0, "fusion_lat": 0.0, "bike_id": "71428ad0ddab97d4b58f77a1419898d6", "name": "71428ad0ddab97d4b58f77a1419898d6", "lat": 38.90606}, {"rental_uris": {"ios": "https://dc.lft.to/lastmile_qr_scan", "android": "https://dc.lft.to/lastmile_qr_scan"}, "fusion_lon": 0.0, "type": "electric_scooter", "is_reserved": 0, "lon": -77.00491066666666, "is_disabled": 0, "fusion_lat": 0.0, "bike_id": "bddacb6c3fa74c43084f75841efd4fc0", "name": "bddacb6c3fa74c43084f75841efd4fc0", "lat": 38.878363666666665}, {"rental_uris": {"ios": "https://dc.lft.to/lastmile_qr_scan", "android": "https://dc.lft.to/lastmile_qr_scan"}, "fusion_lon": 0.0, "type": "electric_scooter", "is_reserved": 0, "lon": -77.03347483333333, "is_disabled": 0, "fusion_lat": 0.0, "bike_id": "ebf399daa5abd5783a30cac327911150", "name": "ebf399daa5abd5783a30cac327911150", "lat": 38.895292166666664}, {"rental_uris": {"ios": "https://dc.lft.to/lastmile_qr_scan", "android": "https://dc.lft.to/lastmile_qr_scan"}, "fusion_lon": 0.0, "type": "electric_scooter", "is_reserved": 0, "lon": -77.00538616666667, "is_disabled": 0, "fusion_lat": 0.0, "bike_id": "37e3480bb46a1d9f47297e6b6b42cbad", "name": "37e3480bb46a1d9f47297e6b6b42cbad", "lat": 38.87543633333333}, {"rental_uris": {"ios": "https://dc.lft.to/lastmile_qr_scan", "android": "https://dc.lft.to/lastmile_qr_scan"}, "fusion_lon": 0.0, "type": "electric_scooter", "is_reserved": 0, "lon": -77.0373345, "is_disabled": 0, "fusion_lat": 0.0, "bike_id": "5ab267d15dbacd6d599747b0af0e911a", "name": "5ab267d15dbacd6d599747b0af0e911a", "lat": 38.92587233333333}, {"rental_uris": {"ios": "https://dc.lft.to/lastmile_qr_scan", "android": "https://dc.lft.to/lastmile_qr_scan"}, "fusion_lon": 0.0, "type": "electric_scooter", "is_reserved": 0, "lon": -77.02513516666667, "is_disabled": 0, "fusion_lat": 0.0, "bike_id": "5345931cb86516f8a1fc38e84ecd3b11", "name": "5345931cb86516f8a1fc38e84ecd3b11", "lat": 38.9209195}, {"rental_uris": {"ios": "https://dc.lft.to/lastmile_qr_scan", "android": "https://dc.lft.to/lastmile_qr_scan"}, "fusion_lon": 0.0, "type": "electric_scooter", "is_reserved": 0, "lon": -76.98548116666667, "is_disabled": 0, "fusion_lat": 0.0, "bike_id": "b1657a431c81e92668bf7aee01623302", "name": "b1657a431c81e92668bf7aee01623302", "lat": 38.886063}, {"rental_uris": {"ios": "https://dc.lft.to/lastmile_qr_scan", "android": "https://dc.lft.to/lastmile_qr_scan"}, "fusion_lon": 0.0, "type": "electric_scooter", "is_reserved": 0, "lon": -77.038506, "is_disabled": 0, "fusion_lat": 0.0, "bike_id": "231878fa30344e28451c5923783fb20a", "name": "231878fa30344e28451c5923783fb20a", "lat": 38.91658133333333}, {"rental_uris": {"ios": "https://dc.lft.to/lastmile_qr_scan", "android": "https://dc.lft.to/lastmile_qr_scan"}, "fusion_lon": 0.0, "type": "electric_scooter", "is_reserved": 0, "lon": -77.029039, "is_disabled": 0, "fusion_lat": 0.0, "bike_id": "3eef68110d5c35ebe9b639e0119cbf7e", "name": "3eef68110d5c35ebe9b639e0119cbf7e", "lat": 38.9110365}, {"rental_uris": {"ios": "https://dc.lft.to/lastmile_qr_scan", "android": "https://dc.lft.to/lastmile_qr_scan"}, "fusion_lon": 0.0, "type": "electric_scooter", "is_reserved": 0, "lon": -76.99343566666667, "is_disabled": 0, "fusion_lat": 0.0, "bike_id": "8efffe64680b5539f4794f8e006baf0e", "name": "8efffe64680b5539f4794f8e006baf0e", "lat": 38.88121266666667}, {"rental_uris": {"ios": "https://dc.lft.to/lastmile_qr_scan", "android": "https://dc.lft.to/lastmile_qr_scan"}, "fusion_lon": 0.0, "type": "electric_scooter", "is_reserved": 0, "lon": -77.02574466666667, "is_disabled": 0, "fusion_lat": 0.0, "bike_id": "d7faaff1945cbcb26178b5cdc4da5f39", "name": "d7faaff1945cbcb26178b5cdc4da5f39", "lat": 38.9044385}, {"rental_uris": {"ios": "https://dc.lft.to/lastmile_qr_scan", "android": "https://dc.lft.to/lastmile_qr_scan"}, "fusion_lon": 0.0, "type": "electric_scooter", "is_reserved": 0, "lon": -76.98336433333333, "is_disabled": 0, "fusion_lat": 0.0, "bike_id": "62384f432e4fd99422c59bd96d53ee00", "name": "62384f432e4fd99422c59bd96d53ee00", "lat": 38.895437}, {"rental_uris": {"ios": "https://dc.lft.to/lastmile_qr_scan", "android": "https://dc.lft.to/lastmile_qr_scan"}, "fusion_lon": 0.0, "type": "electric_scooter", "is_reserved": 0, "lon": -77.03019916666666, "is_disabled": 0, "fusion_lat": 0.0, "bike_id": "d0adcde07556d81497665c27333f7162", "name": "d0adcde07556d81497665c27333f7162", "lat": 38.892199}, {"rental_uris": {"ios": "https://dc.lft.to/lastmile_qr_scan", "android": "https://dc.lft.to/lastmile_qr_scan"}, "fusion_lon": 0.0, "type": "electric_scooter", "is_reserved": 0, "lon": -77.08048283333333, "is_disabled": 0, "fusion_lat": 0.0, "bike_id": "c42a6a4c6dceb57956edcce26caa0efc", "name": "c42a6a4c6dceb57956edcce26caa0efc", "lat": 38.923668666666664}, {"rental_uris": {"ios": "https://dc.lft.to/lastmile_qr_scan", "android": "https://dc.lft.to/lastmile_qr_scan"}, "fusion_lon": 0.0, "type": "electric_scooter", "is_reserved": 0, "lon": -77.01403316666666, "is_disabled": 0, "fusion_lat": 0.0, "bike_id": "f4c7804616fdd24ebc298c6a7618fc36", "name": "f4c7804616fdd24ebc298c6a7618fc36", "lat": 38.92806016666667}, {"rental_uris": {"ios": "https://dc.lft.to/lastmile_qr_scan", "android": "https://dc.lft.to/lastmile_qr_scan"}, "fusion_lon": 0.0, "type": "electric_bike", "is_reserved": 0, "lon": -76.93544966666667, "is_disabled": 0, "fusion_lat": 0.0, "bike_id": "4f5c45649e1b81f4c802a30dc7867b81", "name": "4f5c45649e1b81f4c802a30dc7867b81", "lat": 38.951863833333334}, {"rental_uris": {"ios": "https://dc.lft.to/lastmile_qr_scan", "android": "https://dc.lft.to/lastmile_qr_scan"}, "fusion_lon": 0.0, "type": "electric_scooter", "is_reserved": 0, "lon": -77.01115033333333, "is_disabled": 0, "fusion_lat": 0.0, "bike_id": "6a663008e5dc9755f3275deb58a3a97a", "name": "6a663008e5dc9755f3275deb58a3a97a", "lat": 38.885084666666664}, {"rental_uris": {"ios": "https://dc.lft.to/lastmile_qr_scan", "android": "https://dc.lft.to/lastmile_qr_scan"}, "fusion_lon": 0.0, "type": "electric_scooter", "is_reserved": 0, "lon": -77.03800883333334, "is_disabled": 0, "fusion_lat": 0.0, "bike_id": "a870ea834b1ed04e61e42b9e22b5777f", "name": "a870ea834b1ed04e61e42b9e22b5777f", "lat": 38.92316116666667}, {"rental_uris": {"ios": "https://dc.lft.to/lastmile_qr_scan", "android": "https://dc.lft.to/lastmile_qr_scan"}, "fusion_lon": 0.0, "type": "electric_bike", "is_reserved": 0, "lon": -77.10803366666667, "is_disabled": 0, "fusion_lat": 0.0, "bike_id": "1e348c14262b8c424cf7e293754704cf", "name": "1e348c14262b8c424cf7e293754704cf", "lat": 38.856268}, {"rental_uris": {"ios": "https://dc.lft.to/lastmile_qr_scan", "android": "https://dc.lft.to/lastmile_qr_scan"}, "fusion_lon": 0.0, "type": "electric_scooter", "is_reserved": 0, "lon": -77.02411183333334, "is_disabled": 0, "fusion_lat": 0.0, "bike_id": "c2ddb98649fa31f6ccf1793084cb93c4", "name": "c2ddb98649fa31f6ccf1793084cb93c4", "lat": 38.90960066666667}, {"rental_uris": {"ios": "https://dc.lft.to/lastmile_qr_scan", "android": "https://dc.lft.to/lastmile_qr_scan"}, "fusion_lon": 0.0, "type": "electric_scooter", "is_reserved": 0, "lon": -77.032388, "is_disabled": 0, "fusion_lat": 0.0, "bike_id": "2c7658de1979203b907dea0092d0e43f", "name": "2c7658de1979203b907dea0092d0e43f", "lat": 38.902417}, {"rental_uris": {"ios": "https://dc.lft.to/lastmile_qr_scan", "android": "https://dc.lft.to/lastmile_qr_scan"}, "fusion_lon": 0.0, "type": "electric_bike", "is_reserved": 0, "lon": -76.99755233333333, "is_disabled": 0, "fusion_lat": 0.0, "bike_id": "c655b29cea8f8edb6db396aefe9bad0d", "name": "c655b29cea8f8edb6db396aefe9bad0d", "lat": 38.92260783333333}, {"rental_uris": {"ios": "https://dc.lft.to/lastmile_qr_scan", "android": "https://dc.lft.to/lastmile_qr_scan"}, "fusion_lon": 0.0, "type": "electric_scooter", "is_reserved": 0, "lon": -77.04206633333334, "is_disabled": 0, "fusion_lat": 0.0, "bike_id": "4dfd04cc2ca0e9d2c7b32703a446ae49", "name": "4dfd04cc2ca0e9d2c7b32703a446ae49", "lat": 38.899716833333336}, {"rental_uris": {"ios": "https://dc.lft.to/lastmile_qr_scan", "android": "https://dc.lft.to/lastmile_qr_scan"}, "fusion_lon": 0.0, "type": "electric_scooter", "is_reserved": 0, "lon": -77.02680416666666, "is_disabled": 0, "fusion_lat": 0.0, "bike_id": "a302b3202dd4db1b49850d94d254320e", "name": "a302b3202dd4db1b49850d94d254320e", "lat": 38.903493}, {"rental_uris": {"ios": "https://dc.lft.to/lastmile_qr_scan", "android": "https://dc.lft.to/lastmile_qr_scan"}, "fusion_lon": 0.0, "type": "electric_scooter", "is_reserved": 0, "lon": -77.0168065, "is_disabled": 0, "fusion_lat": 0.0, "bike_id": "e22c7265b1a12b32d84e1b51e11b96de", "name": "e22c7265b1a12b32d84e1b51e11b96de", "lat": 38.92041966666667}, {"rental_uris": {"ios": "https://dc.lft.to/lastmile_qr_scan", "android": "https://dc.lft.to/lastmile_qr_scan"}, "fusion_lon": 0.0, "type": "electric_scooter", "is_reserved": 0, "lon": -77.017685, "is_disabled": 0, "fusion_lat": 0.0, "bike_id": "c348101b53fea288d760c1d61740211a", "name": "c348101b53fea288d760c1d61740211a", "lat": 38.90241983333333}, {"rental_uris": {"ios": "https://dc.lft.to/lastmile_qr_scan", "android": "https://dc.lft.to/lastmile_qr_scan"}, "fusion_lon": 0.0, "type": "electric_scooter", "is_reserved": 0, "lon": -77.03735783333333, "is_disabled": 0, "fusion_lat": 0.0, "bike_id": "ffd813a57ec0a89d0be04be57bf74367", "name": "ffd813a57ec0a89d0be04be57bf74367", "lat": 38.917053333333335}, {"rental_uris": {"ios": "https://dc.lft.to/lastmile_qr_scan", "android": "https://dc.lft.to/lastmile_qr_scan"}, "fusion_lon": 0.0, "type": "electric_scooter", "is_reserved": 0, "lon": -77.03439083333333, "is_disabled": 0, "fusion_lat": 0.0, "bike_id": "39fd062862c08a8940b19a5ea32d31de", "name": "39fd062862c08a8940b19a5ea32d31de", "lat": 38.925327833333334}, {"rental_uris": {"ios": "https://dc.lft.to/lastmile_qr_scan", "android": "https://dc.lft.to/lastmile_qr_scan"}, "fusion_lon": 0.0, "type": "electric_scooter", "is_reserved": 0, "lon": -77.007952, "is_disabled": 0, "fusion_lat": 0.0, "bike_id": "f367d096017018425c2c2dc5b40b2c5b", "name": "f367d096017018425c2c2dc5b40b2c5b", "lat": 38.8971675}, {"rental_uris": {"ios": "https://dc.lft.to/lastmile_qr_scan", "android": "https://dc.lft.to/lastmile_qr_scan"}, "fusion_lon": 0.0, "type": "electric_scooter", "is_reserved": 0, "lon": -76.98336016666667, "is_disabled": 0, "fusion_lat": 0.0, "bike_id": "f5be8d39e9ffb3bbfdc552f511fdc120", "name": "f5be8d39e9ffb3bbfdc552f511fdc120", "lat": 38.8954325}, {"rental_uris": {"ios": "https://dc.lft.to/lastmile_qr_scan", "android": "https://dc.lft.to/lastmile_qr_scan"}, "fusion_lon": 0.0, "type": "electric_scooter", "is_reserved": 0, "lon": -77.03271983333333, "is_disabled": 0, "fusion_lat": 0.0, "bike_id": "8ae2d42125bd27acd7cd047be5eeeaa3", "name": "8ae2d42125bd27acd7cd047be5eeeaa3", "lat": 38.902391333333334}, {"rental_uris": {"ios": "https://dc.lft.to/lastmile_qr_scan", "android": "https://dc.lft.to/lastmile_qr_scan"}, "fusion_lon": 0.0, "type": "electric_scooter", "is_reserved": 0, "lon": -77.05022216666667, "is_disabled": 0, "fusion_lat": 0.0, "bike_id": "e173934b9fbb80532d56d2c11cbcdcaf", "name": "e173934b9fbb80532d56d2c11cbcdcaf", "lat": 38.892598666666665}, {"rental_uris": {"ios": "https://dc.lft.to/lastmile_qr_scan", "android": "https://dc.lft.to/lastmile_qr_scan"}, "fusion_lon": 0.0, "type": "electric_scooter", "is_reserved": 0, "lon": -77.03423216666667, "is_disabled": 0, "fusion_lat": 0.0, "bike_id": "d72d4339f0f4bbc2cab317c0de808e0c", "name": "d72d4339f0f4bbc2cab317c0de808e0c", "lat": 38.909565}, {"rental_uris": {"ios": "https://dc.lft.to/lastmile_qr_scan", "android": "https://dc.lft.to/lastmile_qr_scan"}, "fusion_lon": 0.0, "type": "electric_scooter", "is_reserved": 0, "lon": -77.02304316666667, "is_disabled": 0, "fusion_lat": 0.0, "bike_id": "8afd76b065e64745ff07bdc860d5e84f", "name": "8afd76b065e64745ff07bdc860d5e84f", "lat": 38.8985135}, {"rental_uris": {"ios": "https://dc.lft.to/lastmile_qr_scan", "android": "https://dc.lft.to/lastmile_qr_scan"}, "fusion_lon": 0.0, "type": "electric_scooter", "is_reserved": 0, "lon": -77.03251633333333, "is_disabled": 0, "fusion_lat": 0.0, "bike_id": "1a1e4dd22c098583c276f2252eba28fe", "name": "1a1e4dd22c098583c276f2252eba28fe", "lat": 38.9011155}, {"rental_uris": {"ios": "https://dc.lft.to/lastmile_qr_scan", "android": "https://dc.lft.to/lastmile_qr_scan"}, "fusion_lon": 0.0, "type": "electric_scooter", "is_reserved": 0, "lon": -77.035562, "is_disabled": 0, "fusion_lat": 0.0, "bike_id": "600fb894151b0fa0e74e6a818bbaafc9", "name": "600fb894151b0fa0e74e6a818bbaafc9", "lat": 38.92740516666667}, {"rental_uris": {"ios": "https://dc.lft.to/lastmile_qr_scan", "android": "https://dc.lft.to/lastmile_qr_scan"}, "fusion_lon": 0.0, "type": "electric_scooter", "is_reserved": 0, "lon": -77.003368, "is_disabled": 0, "fusion_lat": 0.0, "bike_id": "4e11ef69b30b7cfcd7ac1c62c1c64d40", "name": "4e11ef69b30b7cfcd7ac1c62c1c64d40", "lat": 38.89350433333333}, {"rental_uris": {"ios": "https://dc.lft.to/lastmile_qr_scan", "android": "https://dc.lft.to/lastmile_qr_scan"}, "fusion_lon": 0.0, "type": "electric_scooter", "is_reserved": 0, "lon": -77.00450116666667, "is_disabled": 0, "fusion_lat": 0.0, "bike_id": "33bb233ac5e730cd33b8fa881aba4c1c", "name": "33bb233ac5e730cd33b8fa881aba4c1c", "lat": 38.914388}, {"rental_uris": {"ios": "https://dc.lft.to/lastmile_qr_scan", "android": "https://dc.lft.to/lastmile_qr_scan"}, "fusion_lon": 0.0, "type": "electric_scooter", "is_reserved": 0, "lon": -77.024459, "is_disabled": 0, "fusion_lat": 0.0, "bike_id": "54de675d0f1687ee8bbbad0aae919e20", "name": "54de675d0f1687ee8bbbad0aae919e20", "lat": 38.94979216666667}, {"rental_uris": {"ios": "https://dc.lft.to/lastmile_qr_scan", "android": "https://dc.lft.to/lastmile_qr_scan"}, "fusion_lon": 0.0, "type": "electric_scooter", "is_reserved": 0, "lon": -77.038508, "is_disabled": 0, "fusion_lat": 0.0, "bike_id": "7c50fbcf1d969a767489595706dd7cfa", "name": "7c50fbcf1d969a767489595706dd7cfa", "lat": 38.931283666666666}, {"rental_uris": {"ios": "https://dc.lft.to/lastmile_qr_scan", "android": "https://dc.lft.to/lastmile_qr_scan"}, "fusion_lon": 0.0, "type": "electric_scooter", "is_reserved": 0, "lon": -77.01952583333333, "is_disabled": 0, "fusion_lat": 0.0, "bike_id": "eaf86d1368949d38fb66d1dd2a4e0851", "name": "eaf86d1368949d38fb66d1dd2a4e0851", "lat": 38.92316233333333}, {"rental_uris": {"ios": "https://dc.lft.to/lastmile_qr_scan", "android": "https://dc.lft.to/lastmile_qr_scan"}, "fusion_lon": 0.0, "type": "electric_scooter", "is_reserved": 0, "lon": -77.02130566666666, "is_disabled": 0, "fusion_lat": 0.0, "bike_id": "eecb371201fdc881c5497252dd708b98", "name": "eecb371201fdc881c5497252dd708b98", "lat": 38.93656283333333}, {"rental_uris": {"ios": "https://dc.lft.to/lastmile_qr_scan", "android": "https://dc.lft.to/lastmile_qr_scan"}, "fusion_lon": 0.0, "type": "electric_scooter", "is_reserved": 0, "lon": -77.0179795, "is_disabled": 0, "fusion_lat": 0.0, "bike_id": "162523b4b457b4dab430d29d0f8e5994", "name": "162523b4b457b4dab430d29d0f8e5994", "lat": 38.91419616666667}, {"rental_uris": {"ios": "https://dc.lft.to/lastmile_qr_scan", "android": "https://dc.lft.to/lastmile_qr_scan"}, "fusion_lon": 0.0, "type": "electric_scooter", "is_reserved": 0, "lon": -77.046838, "is_disabled": 0, "fusion_lat": 0.0, "bike_id": "ede9cfe8dd8f9cfefcca9b9d4809a370", "name": "ede9cfe8dd8f9cfefcca9b9d4809a370", "lat": 38.896073666666666}, {"rental_uris": {"ios": "https://dc.lft.to/lastmile_qr_scan", "android": "https://dc.lft.to/lastmile_qr_scan"}, "fusion_lon": 0.0, "type": "electric_scooter", "is_reserved": 0, "lon": -77.02529483333333, "is_disabled": 0, "fusion_lat": 0.0, "bike_id": "fd59710d9198d2c90c2437b8b6d24fbd", "name": "fd59710d9198d2c90c2437b8b6d24fbd", "lat": 38.918197666666664}, {"rental_uris": {"ios": "https://dc.lft.to/lastmile_qr_scan", "android": "https://dc.lft.to/lastmile_qr_scan"}, "fusion_lon": 0.0, "type": "electric_scooter", "is_reserved": 0, "lon": -77.029476, "is_disabled": 0, "fusion_lat": 0.0, "bike_id": "12a1e5fa9b7bdbceaac6e29c13b0c8e1", "name": "12a1e5fa9b7bdbceaac6e29c13b0c8e1", "lat": 38.901758}, {"rental_uris": {"ios": "https://dc.lft.to/lastmile_qr_scan", "android": "https://dc.lft.to/lastmile_qr_scan"}, "fusion_lon": 0.0, "type": "electric_scooter", "is_reserved": 0, "lon": -76.9933615, "is_disabled": 0, "fusion_lat": 0.0, "bike_id": "c31b6f0ac690f48be628caa3bf705c0b", "name": "c31b6f0ac690f48be628caa3bf705c0b", "lat": 38.900560166666665}, {"rental_uris": {"ios": "https://dc.lft.to/lastmile_qr_scan", "android": "https://dc.lft.to/lastmile_qr_scan"}, "fusion_lon": 0.0, "type": "electric_scooter", "is_reserved": 0, "lon": -76.92507633333334, "is_disabled": 0, "fusion_lat": 0.0, "bike_id": "1464093571f463d07e0b0dbce99753e0", "name": "1464093571f463d07e0b0dbce99753e0", "lat": 38.886011}, {"rental_uris": {"ios": "https://dc.lft.to/lastmile_qr_scan", "android": "https://dc.lft.to/lastmile_qr_scan"}, "fusion_lon": 0.0, "type": "electric_scooter", "is_reserved": 0, "lon": -77.04512816666667, "is_disabled": 0, "fusion_lat": 0.0, "bike_id": "ccb159642da3338c9f4c54a6ac548ff7", "name": "ccb159642da3338c9f4c54a6ac548ff7", "lat": 38.91490733333333}, {"rental_uris": {"ios": "https://dc.lft.to/lastmile_qr_scan", "android": "https://dc.lft.to/lastmile_qr_scan"}, "fusion_lon": 0.0, "type": "electric_scooter", "is_reserved": 0, "lon": -77.03862783333334, "is_disabled": 0, "fusion_lat": 0.0, "bike_id": "cd76397cf26f2a569800a6ab3fed5cef", "name": "cd76397cf26f2a569800a6ab3fed5cef", "lat": 38.91254883333333}, {"rental_uris": {"ios": "https://dc.lft.to/lastmile_qr_scan", "android": "https://dc.lft.to/lastmile_qr_scan"}, "fusion_lon": 0.0, "type": "electric_scooter", "is_reserved": 0, "lon": -77.05474583333333, "is_disabled": 0, "fusion_lat": 0.0, "bike_id": "f731aefd9760a944c332efb69eaccf3a", "name": "f731aefd9760a944c332efb69eaccf3a", "lat": 38.893930833333336}, {"rental_uris": {"ios": "https://dc.lft.to/lastmile_qr_scan", "android": "https://dc.lft.to/lastmile_qr_scan"}, "fusion_lon": 0.0, "type": "electric_scooter", "is_reserved": 0, "lon": -76.98838083333334, "is_disabled": 0, "fusion_lat": 0.0, "bike_id": "9ca9060bf375cc3c893155f2a7692c87", "name": "9ca9060bf375cc3c893155f2a7692c87", "lat": 38.9003705}, {"rental_uris": {"ios": "https://dc.lft.to/lastmile_qr_scan", "android": "https://dc.lft.to/lastmile_qr_scan"}, "fusion_lon": 0.0, "type": "electric_scooter", "is_reserved": 0, "lon": -77.028182, "is_disabled": 0, "fusion_lat": 0.0, "bike_id": "d9fefd16053c9532403b08c1f69a3c72", "name": "d9fefd16053c9532403b08c1f69a3c72", "lat": 38.9023915}, {"rental_uris": {"ios": "https://dc.lft.to/lastmile_qr_scan", "android": "https://dc.lft.to/lastmile_qr_scan"}, "fusion_lon": 0.0, "type": "electric_scooter", "is_reserved": 0, "lon": -77.02816916666667, "is_disabled": 0, "fusion_lat": 0.0, "bike_id": "fa355b61c3ce1ebd5833a88f1c339286", "name": "fa355b61c3ce1ebd5833a88f1c339286", "lat": 38.956414}, {"rental_uris": {"ios": "https://dc.lft.to/lastmile_qr_scan", "android": "https://dc.lft.to/lastmile_qr_scan"}, "fusion_lon": 0.0, "type": "electric_scooter", "is_reserved": 0, "lon": -77.07237683333334, "is_disabled": 0, "fusion_lat": 0.0, "bike_id": "3b99981e6971dcbb11da37975b9542a5", "name": "3b99981e6971dcbb11da37975b9542a5", "lat": 38.93950683333333}, {"rental_uris": {"ios": "https://dc.lft.to/lastmile_qr_scan", "android": "https://dc.lft.to/lastmile_qr_scan"}, "fusion_lon": 0.0, "type": "electric_scooter", "is_reserved": 0, "lon": -77.0281495, "is_disabled": 0, "fusion_lat": 0.0, "bike_id": "4bf1a0643fe258d1bb0bd2cd7a1c3ff8", "name": "4bf1a0643fe258d1bb0bd2cd7a1c3ff8", "lat": 38.920659}, {"rental_uris": {"ios": "https://dc.lft.to/lastmile_qr_scan", "android": "https://dc.lft.to/lastmile_qr_scan"}, "fusion_lon": 0.0, "type": "electric_scooter", "is_reserved": 0, "lon": -77.0120935, "is_disabled": 0, "fusion_lat": 0.0, "bike_id": "4da894e7943e2120540ad1059b9b2a25", "name": "4da894e7943e2120540ad1059b9b2a25", "lat": 38.921187333333336}, {"rental_uris": {"ios": "https://dc.lft.to/lastmile_qr_scan", "android": "https://dc.lft.to/lastmile_qr_scan"}, "fusion_lon": 0.0, "type": "electric_scooter", "is_reserved": 0, "lon": -77.02565333333334, "is_disabled": 0, "fusion_lat": 0.0, "bike_id": "715dae9eb68fdba60fa88ecfd5ad26bf", "name": "715dae9eb68fdba60fa88ecfd5ad26bf", "lat": 38.89952516666666}, {"rental_uris": {"ios": "https://dc.lft.to/lastmile_qr_scan", "android": "https://dc.lft.to/lastmile_qr_scan"}, "fusion_lon": 0.0, "type": "electric_scooter", "is_reserved": 0, "lon": -77.04819966666666, "is_disabled": 0, "fusion_lat": 0.0, "bike_id": "177c1c1a3b1e3dde4b50f4dc55550048", "name": "177c1c1a3b1e3dde4b50f4dc55550048", "lat": 38.9020295}, {"rental_uris": {"ios": "https://dc.lft.to/lastmile_qr_scan", "android": "https://dc.lft.to/lastmile_qr_scan"}, "fusion_lon": 0.0, "type": "electric_scooter", "is_reserved": 0, "lon": -76.99908016666667, "is_disabled": 0, "fusion_lat": 0.0, "bike_id": "38a64cbf6500b18fc0816184fb848cbf", "name": "38a64cbf6500b18fc0816184fb848cbf", "lat": 38.920952666666665}, {"rental_uris": {"ios": "https://dc.lft.to/lastmile_qr_scan", "android": "https://dc.lft.to/lastmile_qr_scan"}, "fusion_lon": 0.0, "type": "electric_scooter", "is_reserved": 0, "lon": -76.9961235, "is_disabled": 0, "fusion_lat": 0.0, "bike_id": "85515f7936c2dbf5caf662ec7e79257d", "name": "85515f7936c2dbf5caf662ec7e79257d", "lat": 38.89618333333333}, {"rental_uris": {"ios": "https://dc.lft.to/lastmile_qr_scan", "android": "https://dc.lft.to/lastmile_qr_scan"}, "fusion_lon": 0.0, "type": "electric_scooter", "is_reserved": 0, "lon": -77.02033133333333, "is_disabled": 0, "fusion_lat": 0.0, "bike_id": "7285ccf01e7b64230e0c4eb4cb860f0a", "name": "7285ccf01e7b64230e0c4eb4cb860f0a", "lat": 38.926823166666665}, {"rental_uris": {"ios": "https://dc.lft.to/lastmile_qr_scan", "android": "https://dc.lft.to/lastmile_qr_scan"}, "fusion_lon": 0.0, "type": "electric_scooter", "is_reserved": 0, "lon": -77.01526783333334, "is_disabled": 0, "fusion_lat": 0.0, "bike_id": "56545bac9ef2e0ce205e6fe188d0a66f", "name": "56545bac9ef2e0ce205e6fe188d0a66f", "lat": 38.893033333333335}, {"rental_uris": {"ios": "https://dc.lft.to/lastmile_qr_scan", "android": "https://dc.lft.to/lastmile_qr_scan"}, "fusion_lon": 0.0, "type": "electric_scooter", "is_reserved": 0, "lon": -77.027613, "is_disabled": 0, "fusion_lat": 0.0, "bike_id": "daafabcb7a8051abd40d49f419198f3d", "name": "daafabcb7a8051abd40d49f419198f3d", "lat": 38.910434333333335}, {"rental_uris": {"ios": "https://dc.lft.to/lastmile_qr_scan", "android": "https://dc.lft.to/lastmile_qr_scan"}, "fusion_lon": 0.0, "type": "electric_scooter", "is_reserved": 0, "lon": -77.0088875, "is_disabled": 0, "fusion_lat": 0.0, "bike_id": "d7bdba48fdd6ff86e5dba3507f23b4da", "name": "d7bdba48fdd6ff86e5dba3507f23b4da", "lat": 38.92480716666667}, {"rental_uris": {"ios": "https://dc.lft.to/lastmile_qr_scan", "android": "https://dc.lft.to/lastmile_qr_scan"}, "fusion_lon": 0.0, "type": "electric_scooter", "is_reserved": 0, "lon": -77.01374166666666, "is_disabled": 0, "fusion_lat": 0.0, "bike_id": "c8cd761578364d596f09d0f52cb21528", "name": "c8cd761578364d596f09d0f52cb21528", "lat": 38.88717033333333}, {"rental_uris": {"ios": "https://dc.lft.to/lastmile_qr_scan", "android": "https://dc.lft.to/lastmile_qr_scan"}, "fusion_lon": 0.0, "type": "electric_scooter", "is_reserved": 0, "lon": -77.01994866666666, "is_disabled": 0, "fusion_lat": 0.0, "bike_id": "d286a8bee660613e4314bed98a939d88", "name": "d286a8bee660613e4314bed98a939d88", "lat": 38.913579}, {"rental_uris": {"ios": "https://dc.lft.to/lastmile_qr_scan", "android": "https://dc.lft.to/lastmile_qr_scan"}, "fusion_lon": 0.0, "type": "electric_scooter", "is_reserved": 0, "lon": -77.0179765, "is_disabled": 0, "fusion_lat": 0.0, "bike_id": "424f36cba21171a694f1e45f320f9bff", "name": "424f36cba21171a694f1e45f320f9bff", "lat": 38.91941533333333}, {"rental_uris": {"ios": "https://dc.lft.to/lastmile_qr_scan", "android": "https://dc.lft.to/lastmile_qr_scan"}, "fusion_lon": 0.0, "type": "electric_scooter", "is_reserved": 0, "lon": -77.04483316666666, "is_disabled": 0, "fusion_lat": 0.0, "bike_id": "77b40be217e7b0bbff1f7eb6d5042fe5", "name": "77b40be217e7b0bbff1f7eb6d5042fe5", "lat": 38.913588833333336}, {"rental_uris": {"ios": "https://dc.lft.to/lastmile_qr_scan", "android": "https://dc.lft.to/lastmile_qr_scan"}, "fusion_lon": 0.0, "type": "electric_scooter", "is_reserved": 0, "lon": -77.032287, "is_disabled": 0, "fusion_lat": 0.0, "bike_id": "3847b0598f3516ce560bf3411f50bfe7", "name": "3847b0598f3516ce560bf3411f50bfe7", "lat": 38.91930716666667}, {"rental_uris": {"ios": "https://dc.lft.to/lastmile_qr_scan", "android": "https://dc.lft.to/lastmile_qr_scan"}, "fusion_lon": 0.0, "type": "electric_scooter", "is_reserved": 0, "lon": -76.997905, "is_disabled": 0, "fusion_lat": 0.0, "bike_id": "7c3816e2dbc94540dabec9df5b25eaf8", "name": "7c3816e2dbc94540dabec9df5b25eaf8", "lat": 38.90559316666667}, {"rental_uris": {"ios": "https://dc.lft.to/lastmile_qr_scan", "android": "https://dc.lft.to/lastmile_qr_scan"}, "fusion_lon": 0.0, "type": "electric_scooter", "is_reserved": 0, "lon": -76.9881925, "is_disabled": 0, "fusion_lat": 0.0, "bike_id": "0ff7497436faa6f400c8e65d18fbece8", "name": "0ff7497436faa6f400c8e65d18fbece8", "lat": 38.900375}, {"rental_uris": {"ios": "https://dc.lft.to/lastmile_qr_scan", "android": "https://dc.lft.to/lastmile_qr_scan"}, "fusion_lon": 0.0, "type": "electric_scooter", "is_reserved": 0, "lon": -77.04434433333333, "is_disabled": 0, "fusion_lat": 0.0, "bike_id": "65d0efeef4ea64c9cf507a58096eaca2", "name": "65d0efeef4ea64c9cf507a58096eaca2", "lat": 38.9114035}, {"rental_uris": {"ios": "https://dc.lft.to/lastmile_qr_scan", "android": "https://dc.lft.to/lastmile_qr_scan"}, "fusion_lon": 0.0, "type": "electric_scooter", "is_reserved": 0, "lon": -77.05759183333333, "is_disabled": 0, "fusion_lat": 0.0, "bike_id": "a39e3e5b9c3b85c16a6e0870d3aff796", "name": "a39e3e5b9c3b85c16a6e0870d3aff796", "lat": 38.9248565}, {"rental_uris": {"ios": "https://dc.lft.to/lastmile_qr_scan", "android": "https://dc.lft.to/lastmile_qr_scan"}, "fusion_lon": 0.0, "type": "electric_scooter", "is_reserved": 0, "lon": -77.04054983333333, "is_disabled": 0, "fusion_lat": 0.0, "bike_id": "be3538f6ec31a2b95082f72846e5bf3c", "name": "be3538f6ec31a2b95082f72846e5bf3c", "lat": 38.917698333333334}, {"rental_uris": {"ios": "https://dc.lft.to/lastmile_qr_scan", "android": "https://dc.lft.to/lastmile_qr_scan"}, "fusion_lon": 0.0, "type": "electric_scooter", "is_reserved": 0, "lon": -77.04531133333333, "is_disabled": 0, "fusion_lat": 0.0, "bike_id": "f5286f6d88aacb51d9a1b7e3c0849353", "name": "f5286f6d88aacb51d9a1b7e3c0849353", "lat": 38.9006355}, {"rental_uris": {"ios": "https://dc.lft.to/lastmile_qr_scan", "android": "https://dc.lft.to/lastmile_qr_scan"}, "fusion_lon": 0.0, "type": "electric_scooter", "is_reserved": 0, "lon": -77.03864516666667, "is_disabled": 0, "fusion_lat": 0.0, "bike_id": "d1ba7652a93781821c58765583b5e99c", "name": "d1ba7652a93781821c58765583b5e99c", "lat": 38.9125585}, {"rental_uris": {"ios": "https://dc.lft.to/lastmile_qr_scan", "android": "https://dc.lft.to/lastmile_qr_scan"}, "fusion_lon": 0.0, "type": "electric_scooter", "is_reserved": 0, "lon": -77.03643116666667, "is_disabled": 0, "fusion_lat": 0.0, "bike_id": "588f5a3eb46bf59a7c6f766c39488ff8", "name": "588f5a3eb46bf59a7c6f766c39488ff8", "lat": 38.928015}, {"rental_uris": {"ios": "https://dc.lft.to/lastmile_qr_scan", "android": "https://dc.lft.to/lastmile_qr_scan"}, "fusion_lon": 0.0, "type": "electric_scooter", "is_reserved": 0, "lon": -77.0295975, "is_disabled": 0, "fusion_lat": 0.0, "bike_id": "dbc068e37a592d3d84bbc9eb05dfbd38", "name": "dbc068e37a592d3d84bbc9eb05dfbd38", "lat": 38.926866}, {"rental_uris": {"ios": "https://dc.lft.to/lastmile_qr_scan", "android": "https://dc.lft.to/lastmile_qr_scan"}, "fusion_lon": 0.0, "type": "electric_scooter", "is_reserved": 0, "lon": -77.020487, "is_disabled": 0, "fusion_lat": 0.0, "bike_id": "bffa7b953fb0f96ef33a61f991c31eb4", "name": "bffa7b953fb0f96ef33a61f991c31eb4", "lat": 38.919052666666666}, {"rental_uris": {"ios": "https://dc.lft.to/lastmile_qr_scan", "android": "https://dc.lft.to/lastmile_qr_scan"}, "fusion_lon": 0.0, "type": "electric_scooter", "is_reserved": 0, "lon": -77.018647, "is_disabled": 0, "fusion_lat": 0.0, "bike_id": "88df679b78862c5cbc800db835d18a0f", "name": "88df679b78862c5cbc800db835d18a0f", "lat": 38.95148183333333}, {"rental_uris": {"ios": "https://dc.lft.to/lastmile_qr_scan", "android": "https://dc.lft.to/lastmile_qr_scan"}, "fusion_lon": 0.0, "type": "electric_scooter", "is_reserved": 0, "lon": -77.03928766666667, "is_disabled": 0, "fusion_lat": 0.0, "bike_id": "c9fa248dfe844040dc8bf964febad22e", "name": "c9fa248dfe844040dc8bf964febad22e", "lat": 38.900477333333335}, {"rental_uris": {"ios": "https://dc.lft.to/lastmile_qr_scan", "android": "https://dc.lft.to/lastmile_qr_scan"}, "fusion_lon": 0.0, "type": "electric_scooter", "is_reserved": 0, "lon": -77.0570385, "is_disabled": 0, "fusion_lat": 0.0, "bike_id": "2fe0d5dea124d942db7a094202c4fb61", "name": "2fe0d5dea124d942db7a094202c4fb61", "lat": 38.926010833333336}, {"rental_uris": {"ios": "https://dc.lft.to/lastmile_qr_scan", "android": "https://dc.lft.to/lastmile_qr_scan"}, "fusion_lon": 0.0, "type": "electric_scooter", "is_reserved": 0, "lon": -77.00982266666666, "is_disabled": 0, "fusion_lat": 0.0, "bike_id": "2a97bf6744db305724f375657fc88847", "name": "2a97bf6744db305724f375657fc88847", "lat": 38.903755833333335}, {"rental_uris": {"ios": "https://dc.lft.to/lastmile_qr_scan", "android": "https://dc.lft.to/lastmile_qr_scan"}, "fusion_lon": 0.0, "type": "electric_scooter", "is_reserved": 0, "lon": -76.98162183333334, "is_disabled": 0, "fusion_lat": 0.0, "bike_id": "7eee4908423013179bd4872711d41192", "name": "7eee4908423013179bd4872711d41192", "lat": 38.86232916666667}, {"rental_uris": {"ios": "https://dc.lft.to/lastmile_qr_scan", "android": "https://dc.lft.to/lastmile_qr_scan"}, "fusion_lon": 0.0, "type": "electric_scooter", "is_reserved": 0, "lon": -77.03785833333333, "is_disabled": 0, "fusion_lat": 0.0, "bike_id": "98d099439f58fe99085549277759dade", "name": "98d099439f58fe99085549277759dade", "lat": 38.91231033333333}, {"rental_uris": {"ios": "https://dc.lft.to/lastmile_qr_scan", "android": "https://dc.lft.to/lastmile_qr_scan"}, "fusion_lon": 0.0, "type": "electric_scooter", "is_reserved": 0, "lon": -77.04761033333334, "is_disabled": 0, "fusion_lat": 0.0, "bike_id": "2dcc87a7439c8f912e29274c62796f2b", "name": "2dcc87a7439c8f912e29274c62796f2b", "lat": 38.91754133333333}, {"rental_uris": {"ios": "https://dc.lft.to/lastmile_qr_scan", "android": "https://dc.lft.to/lastmile_qr_scan"}, "fusion_lon": 0.0, "type": "electric_scooter", "is_reserved": 0, "lon": -77.03898083333333, "is_disabled": 0, "fusion_lat": 0.0, "bike_id": "0fef5c7cf6b800906fd09c6ed800b203", "name": "0fef5c7cf6b800906fd09c6ed800b203", "lat": 38.91703616666667}, {"rental_uris": {"ios": "https://dc.lft.to/lastmile_qr_scan", "android": "https://dc.lft.to/lastmile_qr_scan"}, "fusion_lon": 0.0, "type": "electric_scooter", "is_reserved": 0, "lon": -77.04987633333333, "is_disabled": 0, "fusion_lat": 0.0, "bike_id": "d11ed55930ca417f2aacd325f8494b9e", "name": "d11ed55930ca417f2aacd325f8494b9e", "lat": 38.8972785}, {"rental_uris": {"ios": "https://dc.lft.to/lastmile_qr_scan", "android": "https://dc.lft.to/lastmile_qr_scan"}, "fusion_lon": 0.0, "type": "electric_scooter", "is_reserved": 0, "lon": -77.01794766666667, "is_disabled": 0, "fusion_lat": 0.0, "bike_id": "5494a768a8334a9605af9102e6e9154e", "name": "5494a768a8334a9605af9102e6e9154e", "lat": 38.91989483333333}, {"rental_uris": {"ios": "https://dc.lft.to/lastmile_qr_scan", "android": "https://dc.lft.to/lastmile_qr_scan"}, "fusion_lon": 0.0, "type": "electric_scooter", "is_reserved": 0, "lon": -77.038935, "is_disabled": 0, "fusion_lat": 0.0, "bike_id": "c81e04120b4e39d5f7c52a1d05a79436", "name": "c81e04120b4e39d5f7c52a1d05a79436", "lat": 38.924982666666665}, {"rental_uris": {"ios": "https://dc.lft.to/lastmile_qr_scan", "android": "https://dc.lft.to/lastmile_qr_scan"}, "fusion_lon": 0.0, "type": "electric_scooter", "is_reserved": 0, "lon": -77.03008516666667, "is_disabled": 0, "fusion_lat": 0.0, "bike_id": "3e98131591f1163fb63f001f24df9040", "name": "3e98131591f1163fb63f001f24df9040", "lat": 38.93110083333333}, {"rental_uris": {"ios": "https://dc.lft.to/lastmile_qr_scan", "android": "https://dc.lft.to/lastmile_qr_scan"}, "fusion_lon": 0.0, "type": "electric_scooter", "is_reserved": 0, "lon": -77.0215695, "is_disabled": 0, "fusion_lat": 0.0, "bike_id": "0046485774175deca196d33d3560718f", "name": "0046485774175deca196d33d3560718f", "lat": 38.92609483333333}, {"rental_uris": {"ios": "https://dc.lft.to/lastmile_qr_scan", "android": "https://dc.lft.to/lastmile_qr_scan"}, "fusion_lon": 0.0, "type": "electric_bike", "is_reserved": 0, "lon": -77.061582, "is_disabled": 0, "fusion_lat": 0.0, "bike_id": "237901f3a1539822246d368785c86f65", "name": "237901f3a1539822246d368785c86f65", "lat": 38.90570983333333}, {"rental_uris": {"ios": "https://dc.lft.to/lastmile_qr_scan", "android": "https://dc.lft.to/lastmile_qr_scan"}, "fusion_lon": 0.0, "type": "electric_scooter", "is_reserved": 0, "lon": -77.05614583333333, "is_disabled": 0, "fusion_lat": 0.0, "bike_id": "12be1a9750d5e9e6dc55c8361ccda198", "name": "12be1a9750d5e9e6dc55c8361ccda198", "lat": 38.9316285}, {"rental_uris": {"ios": "https://dc.lft.to/lastmile_qr_scan", "android": "https://dc.lft.to/lastmile_qr_scan"}, "fusion_lon": 0.0, "type": "electric_scooter", "is_reserved": 0, "lon": -77.0271945, "is_disabled": 0, "fusion_lat": 0.0, "bike_id": "3ba243a131f582d857c81c3eca6bbf94", "name": "3ba243a131f582d857c81c3eca6bbf94", "lat": 38.904203333333335}, {"rental_uris": {"ios": "https://dc.lft.to/lastmile_qr_scan", "android": "https://dc.lft.to/lastmile_qr_scan"}, "fusion_lon": 0.0, "type": "electric_scooter", "is_reserved": 0, "lon": -77.02600283333334, "is_disabled": 0, "fusion_lat": 0.0, "bike_id": "64843548b17291adb1892256e65afd70", "name": "64843548b17291adb1892256e65afd70", "lat": 38.905957}, {"rental_uris": {"ios": "https://dc.lft.to/lastmile_qr_scan", "android": "https://dc.lft.to/lastmile_qr_scan"}, "fusion_lon": 0.0, "type": "electric_scooter", "is_reserved": 0, "lon": -76.93748566666666, "is_disabled": 0, "fusion_lat": 0.0, "bike_id": "5c638b4a979ab4224965878a59ea2457", "name": "5c638b4a979ab4224965878a59ea2457", "lat": 38.89005683333333}, {"rental_uris": {"ios": "https://dc.lft.to/lastmile_qr_scan", "android": "https://dc.lft.to/lastmile_qr_scan"}, "fusion_lon": 0.0, "type": "electric_scooter", "is_reserved": 0, "lon": -76.9359445, "is_disabled": 0, "fusion_lat": 0.0, "bike_id": "e3c1df1cb7f5a01702655e05bafd2697", "name": "e3c1df1cb7f5a01702655e05bafd2697", "lat": 38.909445833333336}, {"rental_uris": {"ios": "https://dc.lft.to/lastmile_qr_scan", "android": "https://dc.lft.to/lastmile_qr_scan"}, "fusion_lon": 0.0, "type": "electric_scooter", "is_reserved": 0, "lon": -77.01897716666667, "is_disabled": 0, "fusion_lat": 0.0, "bike_id": "5a87f043c1dc5051adb41d5232dc1797", "name": "5a87f043c1dc5051adb41d5232dc1797", "lat": 38.90330983333333}, {"rental_uris": {"ios": "https://dc.lft.to/lastmile_qr_scan", "android": "https://dc.lft.to/lastmile_qr_scan"}, "fusion_lon": 0.0, "type": "electric_scooter", "is_reserved": 0, "lon": -77.03348483333333, "is_disabled": 0, "fusion_lat": 0.0, "bike_id": "47b8490997994f49cfa23019c46ca42e", "name": "47b8490997994f49cfa23019c46ca42e", "lat": 38.90263183333333}, {"rental_uris": {"ios": "https://dc.lft.to/lastmile_qr_scan", "android": "https://dc.lft.to/lastmile_qr_scan"}, "fusion_lon": 0.0, "type": "electric_bike", "is_reserved": 0, "lon": -76.951357, "is_disabled": 0, "fusion_lat": 0.0, "bike_id": "5d8a8f52fdd3da0e842b31be77fec5ed", "name": "5d8a8f52fdd3da0e842b31be77fec5ed", "lat": 39.084326833333336}, {"rental_uris": {"ios": "https://dc.lft.to/lastmile_qr_scan", "android": "https://dc.lft.to/lastmile_qr_scan"}, "fusion_lon": 0.0, "type": "electric_scooter", "is_reserved": 0, "lon": -77.06356666666667, "is_disabled": 0, "fusion_lat": 0.0, "bike_id": "7c3922bfbb65000460e84d8386e8f44d", "name": "7c3922bfbb65000460e84d8386e8f44d", "lat": 38.908081}, {"rental_uris": {"ios": "https://dc.lft.to/lastmile_qr_scan", "android": "https://dc.lft.to/lastmile_qr_scan"}, "fusion_lon": 0.0, "type": "electric_scooter", "is_reserved": 0, "lon": -77.01947433333333, "is_disabled": 0, "fusion_lat": 0.0, "bike_id": "a2a99990460359432614881dee77ed57", "name": "a2a99990460359432614881dee77ed57", "lat": 38.92423616666667}, {"rental_uris": {"ios": "https://dc.lft.to/lastmile_qr_scan", "android": "https://dc.lft.to/lastmile_qr_scan"}, "fusion_lon": 0.0, "type": "electric_scooter", "is_reserved": 0, "lon": -77.06709316666667, "is_disabled": 0, "fusion_lat": 0.0, "bike_id": "b5e1847e870daced34adc3c428461cb0", "name": "b5e1847e870daced34adc3c428461cb0", "lat": 38.91365316666667}, {"rental_uris": {"ios": "https://dc.lft.to/lastmile_qr_scan", "android": "https://dc.lft.to/lastmile_qr_scan"}, "fusion_lon": 0.0, "type": "electric_scooter", "is_reserved": 0, "lon": -77.04306866666667, "is_disabled": 0, "fusion_lat": 0.0, "bike_id": "45ffff84ffc41ee9056c43c1f97498de", "name": "45ffff84ffc41ee9056c43c1f97498de", "lat": 38.923552666666666}, {"rental_uris": {"ios": "https://dc.lft.to/lastmile_qr_scan", "android": "https://dc.lft.to/lastmile_qr_scan"}, "fusion_lon": 0.0, "type": "electric_bike", "is_reserved": 0, "lon": -76.93199016666667, "is_disabled": 0, "fusion_lat": 0.0, "bike_id": "cec05dd67671896a10f2fc1582c363a7", "name": "cec05dd67671896a10f2fc1582c363a7", "lat": 38.879525666666666}, {"rental_uris": {"ios": "https://dc.lft.to/lastmile_qr_scan", "android": "https://dc.lft.to/lastmile_qr_scan"}, "fusion_lon": 0.0, "type": "electric_scooter", "is_reserved": 0, "lon": -77.0149295, "is_disabled": 0, "fusion_lat": 0.0, "bike_id": "f0991b8f05b842ed57cd3aad25614799", "name": "f0991b8f05b842ed57cd3aad25614799", "lat": 38.926865166666666}, {"rental_uris": {"ios": "https://dc.lft.to/lastmile_qr_scan", "android": "https://dc.lft.to/lastmile_qr_scan"}, "fusion_lon": 0.0, "type": "electric_bike", "is_reserved": 0, "lon": -76.97223083333333, "is_disabled": 0, "fusion_lat": 0.0, "bike_id": "fd94fddd7a5a4d9674a37c9267c8792d", "name": "fd94fddd7a5a4d9674a37c9267c8792d", "lat": 38.915276}, {"rental_uris": {"ios": "https://dc.lft.to/lastmile_qr_scan", "android": "https://dc.lft.to/lastmile_qr_scan"}, "fusion_lon": 0.0, "type": "electric_scooter", "is_reserved": 0, "lon": -77.02556833333334, "is_disabled": 0, "fusion_lat": 0.0, "bike_id": "201c743a1bfdbc5fe05e33b8d5f632cc", "name": "201c743a1bfdbc5fe05e33b8d5f632cc", "lat": 38.92473433333333}, {"rental_uris": {"ios": "https://dc.lft.to/lastmile_qr_scan", "android": "https://dc.lft.to/lastmile_qr_scan"}, "fusion_lon": 0.0, "type": "electric_scooter", "is_reserved": 0, "lon": -77.034341, "is_disabled": 0, "fusion_lat": 0.0, "bike_id": "452eeba8c8ebbcb18e0e30c38824a840", "name": "452eeba8c8ebbcb18e0e30c38824a840", "lat": 38.92735366666667}, {"rental_uris": {"ios": "https://dc.lft.to/lastmile_qr_scan", "android": "https://dc.lft.to/lastmile_qr_scan"}, "fusion_lon": 0.0, "type": "electric_scooter", "is_reserved": 0, "lon": -77.06901016666667, "is_disabled": 0, "fusion_lat": 0.0, "bike_id": "ad3c84dc71172131df78d20f411ab34b", "name": "ad3c84dc71172131df78d20f411ab34b", "lat": 38.90725583333333}, {"rental_uris": {"ios": "https://dc.lft.to/lastmile_qr_scan", "android": "https://dc.lft.to/lastmile_qr_scan"}, "fusion_lon": 0.0, "type": "electric_scooter", "is_reserved": 0, "lon": -76.9824335, "is_disabled": 0, "fusion_lat": 0.0, "bike_id": "61b02df2a0971482a6fc4a3eaeb7c9ad", "name": "61b02df2a0971482a6fc4a3eaeb7c9ad", "lat": 38.90883066666667}, {"rental_uris": {"ios": "https://dc.lft.to/lastmile_qr_scan", "android": "https://dc.lft.to/lastmile_qr_scan"}, "fusion_lon": 0.0, "type": "electric_bike", "is_reserved": 0, "lon": -76.95696116666667, "is_disabled": 0, "fusion_lat": 0.0, "bike_id": "ce01f9fce00edf54bce8354d6a37993d", "name": "ce01f9fce00edf54bce8354d6a37993d", "lat": 38.88870766666667}, {"rental_uris": {"ios": "https://dc.lft.to/lastmile_qr_scan", "android": "https://dc.lft.to/lastmile_qr_scan"}, "fusion_lon": 0.0, "type": "electric_scooter", "is_reserved": 0, "lon": -77.05481433333334, "is_disabled": 0, "fusion_lat": 0.0, "bike_id": "0f04fe6427598ab4e63c4c943891d248", "name": "0f04fe6427598ab4e63c4c943891d248", "lat": 38.9281875}, {"rental_uris": {"ios": "https://dc.lft.to/lastmile_qr_scan", "android": "https://dc.lft.to/lastmile_qr_scan"}, "fusion_lon": 0.0, "type": "electric_scooter", "is_reserved": 0, "lon": -77.03993466666667, "is_disabled": 0, "fusion_lat": 0.0, "bike_id": "711c3b068c2e486a6601085c6c9f412d", "name": "711c3b068c2e486a6601085c6c9f412d", "lat": 38.896359333333336}, {"rental_uris": {"ios": "https://dc.lft.to/lastmile_qr_scan", "android": "https://dc.lft.to/lastmile_qr_scan"}, "fusion_lon": 0.0, "type": "electric_scooter", "is_reserved": 0, "lon": -77.02406916666666, "is_disabled": 0, "fusion_lat": 0.0, "bike_id": "fe7f343a9cde029448fe7c55ed8cf07d", "name": "fe7f343a9cde029448fe7c55ed8cf07d", "lat": 38.91700616666667}, {"rental_uris": {"ios": "https://dc.lft.to/lastmile_qr_scan", "android": "https://dc.lft.to/lastmile_qr_scan"}, "fusion_lon": 0.0, "type": "electric_scooter", "is_reserved": 0, "lon": -76.97825216666666, "is_disabled": 0, "fusion_lat": 0.0, "bike_id": "4661b2d7c8dfeba113703880dcca4e93", "name": "4661b2d7c8dfeba113703880dcca4e93", "lat": 38.89398416666667}, {"rental_uris": {"ios": "https://dc.lft.to/lastmile_qr_scan", "android": "https://dc.lft.to/lastmile_qr_scan"}, "fusion_lon": 0.0, "type": "electric_scooter", "is_reserved": 0, "lon": -77.01606983333333, "is_disabled": 0, "fusion_lat": 0.0, "bike_id": "4729db448c90d6bb1d29e8f71a13c0c2", "name": "4729db448c90d6bb1d29e8f71a13c0c2", "lat": 38.89962}, {"rental_uris": {"ios": "https://dc.lft.to/lastmile_qr_scan", "android": "https://dc.lft.to/lastmile_qr_scan"}, "fusion_lon": 0.0, "type": "electric_scooter", "is_reserved": 0, "lon": -76.987046, "is_disabled": 0, "fusion_lat": 0.0, "bike_id": "069e42e44370c44460b11bc1eb62e4b1", "name": "069e42e44370c44460b11bc1eb62e4b1", "lat": 38.900547}, {"rental_uris": {"ios": "https://dc.lft.to/lastmile_qr_scan", "android": "https://dc.lft.to/lastmile_qr_scan"}, "fusion_lon": 0.0, "type": "electric_scooter", "is_reserved": 0, "lon": -77.095021, "is_disabled": 0, "fusion_lat": 0.0, "bike_id": "07e9b236e51d9ba40e246cafa8df5236", "name": "07e9b236e51d9ba40e246cafa8df5236", "lat": 38.94484516666667}, {"rental_uris": {"ios": "https://dc.lft.to/lastmile_qr_scan", "android": "https://dc.lft.to/lastmile_qr_scan"}, "fusion_lon": 0.0, "type": "electric_scooter", "is_reserved": 0, "lon": -77.02866666666667, "is_disabled": 0, "fusion_lat": 0.0, "bike_id": "53f12745838f906275b6cba4a6d3727f", "name": "53f12745838f906275b6cba4a6d3727f", "lat": 38.896232166666664}, {"rental_uris": {"ios": "https://dc.lft.to/lastmile_qr_scan", "android": "https://dc.lft.to/lastmile_qr_scan"}, "fusion_lon": 0.0, "type": "electric_scooter", "is_reserved": 0, "lon": -77.0196945, "is_disabled": 0, "fusion_lat": 0.0, "bike_id": "df8377f58ed1a9ccb33ba28a6684494d", "name": "df8377f58ed1a9ccb33ba28a6684494d", "lat": 38.898966}, {"rental_uris": {"ios": "https://dc.lft.to/lastmile_qr_scan", "android": "https://dc.lft.to/lastmile_qr_scan"}, "fusion_lon": 0.0, "type": "electric_scooter", "is_reserved": 0, "lon": -77.019151, "is_disabled": 0, "fusion_lat": 0.0, "bike_id": "ddd568492398673b13603eb33b3bb2de", "name": "ddd568492398673b13603eb33b3bb2de", "lat": 38.89729616666666}, {"rental_uris": {"ios": "https://dc.lft.to/lastmile_qr_scan", "android": "https://dc.lft.to/lastmile_qr_scan"}, "fusion_lon": 0.0, "type": "electric_scooter", "is_reserved": 0, "lon": -77.02242983333333, "is_disabled": 0, "fusion_lat": 0.0, "bike_id": "a10d9a378456525d361f7daa7a72cebc", "name": "a10d9a378456525d361f7daa7a72cebc", "lat": 38.92465}, {"rental_uris": {"ios": "https://dc.lft.to/lastmile_qr_scan", "android": "https://dc.lft.to/lastmile_qr_scan"}, "fusion_lon": 0.0, "type": "electric_scooter", "is_reserved": 0, "lon": -77.0168185, "is_disabled": 0, "fusion_lat": 0.0, "bike_id": "16876f18486f1b2c6c62452739ae537a", "name": "16876f18486f1b2c6c62452739ae537a", "lat": 38.877113}, {"rental_uris": {"ios": "https://dc.lft.to/lastmile_qr_scan", "android": "https://dc.lft.to/lastmile_qr_scan"}, "fusion_lon": 0.0, "type": "electric_scooter", "is_reserved": 0, "lon": -77.0295745, "is_disabled": 0, "fusion_lat": 0.0, "bike_id": "984abb732cf115f74e0ddfe0c5c90ca2", "name": "984abb732cf115f74e0ddfe0c5c90ca2", "lat": 38.9017755}, {"rental_uris": {"ios": "https://dc.lft.to/lastmile_qr_scan", "android": "https://dc.lft.to/lastmile_qr_scan"}, "fusion_lon": 0.0, "type": "electric_scooter", "is_reserved": 0, "lon": -77.0384495, "is_disabled": 0, "fusion_lat": 0.0, "bike_id": "ca5842dcbac846976f036f7abe6a80b6", "name": "ca5842dcbac846976f036f7abe6a80b6", "lat": 38.9264575}, {"rental_uris": {"ios": "https://dc.lft.to/lastmile_qr_scan", "android": "https://dc.lft.to/lastmile_qr_scan"}, "fusion_lon": 0.0, "type": "electric_bike", "is_reserved": 0, "lon": -76.98602116666666, "is_disabled": 0, "fusion_lat": 0.0, "bike_id": "5b98d69c67c3626d3f9f5ed333433c47", "name": "5b98d69c67c3626d3f9f5ed333433c47", "lat": 38.929774}, {"rental_uris": {"ios": "https://dc.lft.to/lastmile_qr_scan", "android": "https://dc.lft.to/lastmile_qr_scan"}, "fusion_lon": 0.0, "type": "electric_scooter", "is_reserved": 0, "lon": -77.01264033333334, "is_disabled": 0, "fusion_lat": 0.0, "bike_id": "1c0ad50514cbc32abcd38c46d68b4815", "name": "1c0ad50514cbc32abcd38c46d68b4815", "lat": 38.89817716666667}, {"rental_uris": {"ios": "https://dc.lft.to/lastmile_qr_scan", "android": "https://dc.lft.to/lastmile_qr_scan"}, "fusion_lon": 0.0, "type": "electric_scooter", "is_reserved": 0, "lon": -76.99158316666667, "is_disabled": 0, "fusion_lat": 0.0, "bike_id": "b4fc50a06a68dec37152b0a2b7d267a5", "name": "b4fc50a06a68dec37152b0a2b7d267a5", "lat": 38.9003545}, {"rental_uris": {"ios": "https://dc.lft.to/lastmile_qr_scan", "android": "https://dc.lft.to/lastmile_qr_scan"}, "fusion_lon": 0.0, "type": "electric_bike", "is_reserved": 0, "lon": -77.076575, "is_disabled": 0, "fusion_lat": 0.0, "bike_id": "924d86ab8bb5eaed669679f478cc5cda", "name": "924d86ab8bb5eaed669679f478cc5cda", "lat": 38.80977633333333}, {"rental_uris": {"ios": "https://dc.lft.to/lastmile_qr_scan", "android": "https://dc.lft.to/lastmile_qr_scan"}, "fusion_lon": 0.0, "type": "electric_scooter", "is_reserved": 0, "lon": -77.06029266666667, "is_disabled": 0, "fusion_lat": 0.0, "bike_id": "264079624b5345949932c66907d597ac", "name": "264079624b5345949932c66907d597ac", "lat": 38.903556}, {"rental_uris": {"ios": "https://dc.lft.to/lastmile_qr_scan", "android": "https://dc.lft.to/lastmile_qr_scan"}, "fusion_lon": 0.0, "type": "electric_scooter", "is_reserved": 0, "lon": -77.032015, "is_disabled": 0, "fusion_lat": 0.0, "bike_id": "f90697d7d6497bf4e5b43a2b3ed5709c", "name": "f90697d7d6497bf4e5b43a2b3ed5709c", "lat": 38.92045566666667}, {"rental_uris": {"ios": "https://dc.lft.to/lastmile_qr_scan", "android": "https://dc.lft.to/lastmile_qr_scan"}, "fusion_lon": 0.0, "type": "electric_scooter", "is_reserved": 0, "lon": -77.03336666666667, "is_disabled": 0, "fusion_lat": 0.0, "bike_id": "1f253c9a7c04fac6b7e3aa43b10328cd", "name": "1f253c9a7c04fac6b7e3aa43b10328cd", "lat": 38.919147}, {"rental_uris": {"ios": "https://dc.lft.to/lastmile_qr_scan", "android": "https://dc.lft.to/lastmile_qr_scan"}, "fusion_lon": 0.0, "type": "electric_scooter", "is_reserved": 0, "lon": -77.021329, "is_disabled": 0, "fusion_lat": 0.0, "bike_id": "1ecc9913316bd2f9e5ae9923f486e641", "name": "1ecc9913316bd2f9e5ae9923f486e641", "lat": 38.924097833333335}, {"rental_uris": {"ios": "https://dc.lft.to/lastmile_qr_scan", "android": "https://dc.lft.to/lastmile_qr_scan"}, "fusion_lon": 0.0, "type": "electric_bike", "is_reserved": 0, "lon": -76.922422, "is_disabled": 0, "fusion_lat": 0.0, "bike_id": "312de8dc54ab7b7edb10fc19a28a8db5", "name": "312de8dc54ab7b7edb10fc19a28a8db5", "lat": 39.01064566666667}, {"rental_uris": {"ios": "https://dc.lft.to/lastmile_qr_scan", "android": "https://dc.lft.to/lastmile_qr_scan"}, "fusion_lon": 0.0, "type": "electric_scooter", "is_reserved": 0, "lon": -77.03666316666667, "is_disabled": 0, "fusion_lat": 0.0, "bike_id": "a5dacde2c237e22458ebc0d650f6725f", "name": "a5dacde2c237e22458ebc0d650f6725f", "lat": 38.915642166666665}, {"rental_uris": {"ios": "https://dc.lft.to/lastmile_qr_scan", "android": "https://dc.lft.to/lastmile_qr_scan"}, "fusion_lon": 0.0, "type": "electric_scooter", "is_reserved": 0, "lon": -77.0297985, "is_disabled": 0, "fusion_lat": 0.0, "bike_id": "f6b89417633b0aca19e3271d293f4e34", "name": "f6b89417633b0aca19e3271d293f4e34", "lat": 38.90389116666667}, {"rental_uris": {"ios": "https://dc.lft.to/lastmile_qr_scan", "android": "https://dc.lft.to/lastmile_qr_scan"}, "fusion_lon": 0.0, "type": "electric_scooter", "is_reserved": 0, "lon": -76.93134666666667, "is_disabled": 0, "fusion_lat": 0.0, "bike_id": "7aef218059b5ea960ca2b67f54d0b523", "name": "7aef218059b5ea960ca2b67f54d0b523", "lat": 38.878415833333335}, {"rental_uris": {"ios": "https://dc.lft.to/lastmile_qr_scan", "android": "https://dc.lft.to/lastmile_qr_scan"}, "fusion_lon": 0.0, "type": "electric_scooter", "is_reserved": 0, "lon": -77.02203483333334, "is_disabled": 0, "fusion_lat": 0.0, "bike_id": "458e716c60334248d2bba8cbf9f92480", "name": "458e716c60334248d2bba8cbf9f92480", "lat": 38.931383333333336}, {"rental_uris": {"ios": "https://dc.lft.to/lastmile_qr_scan", "android": "https://dc.lft.to/lastmile_qr_scan"}, "fusion_lon": 0.0, "type": "electric_scooter", "is_reserved": 0, "lon": -77.07236433333334, "is_disabled": 0, "fusion_lat": 0.0, "bike_id": "502d112c200f1bef274ebbd11d0df033", "name": "502d112c200f1bef274ebbd11d0df033", "lat": 38.93956133333333}, {"rental_uris": {"ios": "https://dc.lft.to/lastmile_qr_scan", "android": "https://dc.lft.to/lastmile_qr_scan"}, "fusion_lon": 0.0, "type": "electric_scooter", "is_reserved": 0, "lon": -77.03204583333333, "is_disabled": 0, "fusion_lat": 0.0, "bike_id": "f6088b451dff9ac17611265cf7fdeb3c", "name": "f6088b451dff9ac17611265cf7fdeb3c", "lat": 38.91728633333334}, {"rental_uris": {"ios": "https://dc.lft.to/lastmile_qr_scan", "android": "https://dc.lft.to/lastmile_qr_scan"}, "fusion_lon": 0.0, "type": "electric_scooter", "is_reserved": 0, "lon": -77.034609, "is_disabled": 0, "fusion_lat": 0.0, "bike_id": "eed2fe0e6ac9fec4452cc8aa70fec903", "name": "eed2fe0e6ac9fec4452cc8aa70fec903", "lat": 38.91053733333333}, {"rental_uris": {"ios": "https://dc.lft.to/lastmile_qr_scan", "android": "https://dc.lft.to/lastmile_qr_scan"}, "fusion_lon": 0.0, "type": "electric_scooter", "is_reserved": 0, "lon": -77.0032065, "is_disabled": 0, "fusion_lat": 0.0, "bike_id": "933355e5da28fe95657100e8d332423f", "name": "933355e5da28fe95657100e8d332423f", "lat": 38.88741683333333}, {"rental_uris": {"ios": "https://dc.lft.to/lastmile_qr_scan", "android": "https://dc.lft.to/lastmile_qr_scan"}, "fusion_lon": 0.0, "type": "electric_scooter", "is_reserved": 0, "lon": -77.0254255, "is_disabled": 0, "fusion_lat": 0.0, "bike_id": "4bb2816f48a60b5cecbdeea77db48ade", "name": "4bb2816f48a60b5cecbdeea77db48ade", "lat": 38.89589}, {"rental_uris": {"ios": "https://dc.lft.to/lastmile_qr_scan", "android": "https://dc.lft.to/lastmile_qr_scan"}, "fusion_lon": 0.0, "type": "electric_scooter", "is_reserved": 0, "lon": -76.9938835, "is_disabled": 0, "fusion_lat": 0.0, "bike_id": "3b80046ea4a36bcb4bd310bea3a40184", "name": "3b80046ea4a36bcb4bd310bea3a40184", "lat": 38.91013366666667}, {"rental_uris": {"ios": "https://dc.lft.to/lastmile_qr_scan", "android": "https://dc.lft.to/lastmile_qr_scan"}, "fusion_lon": 0.0, "type": "electric_scooter", "is_reserved": 0, "lon": -77.02113883333334, "is_disabled": 0, "fusion_lat": 0.0, "bike_id": "60150e3bd8e26e2289dd1f84cd39b081", "name": "60150e3bd8e26e2289dd1f84cd39b081", "lat": 38.903075666666666}, {"rental_uris": {"ios": "https://dc.lft.to/lastmile_qr_scan", "android": "https://dc.lft.to/lastmile_qr_scan"}, "fusion_lon": 0.0, "type": "electric_scooter", "is_reserved": 0, "lon": -77.02384516666666, "is_disabled": 0, "fusion_lat": 0.0, "bike_id": "004f0ae59569a8f133836aeb862ccb1c", "name": "004f0ae59569a8f133836aeb862ccb1c", "lat": 38.91978066666667}, {"rental_uris": {"ios": "https://dc.lft.to/lastmile_qr_scan", "android": "https://dc.lft.to/lastmile_qr_scan"}, "fusion_lon": 0.0, "type": "electric_scooter", "is_reserved": 0, "lon": -77.03289166666667, "is_disabled": 0, "fusion_lat": 0.0, "bike_id": "fd7aae039c83442e39338c289aca14ac", "name": "fd7aae039c83442e39338c289aca14ac", "lat": 38.903796166666666}, {"rental_uris": {"ios": "https://dc.lft.to/lastmile_qr_scan", "android": "https://dc.lft.to/lastmile_qr_scan"}, "fusion_lon": 0.0, "type": "electric_scooter", "is_reserved": 0, "lon": -77.032642, "is_disabled": 0, "fusion_lat": 0.0, "bike_id": "00b318dba473593e090295baa747b80a", "name": "00b318dba473593e090295baa747b80a", "lat": 38.937509666666664}, {"rental_uris": {"ios": "https://dc.lft.to/lastmile_qr_scan", "android": "https://dc.lft.to/lastmile_qr_scan"}, "fusion_lon": 0.0, "type": "electric_scooter", "is_reserved": 0, "lon": -77.02046183333333, "is_disabled": 0, "fusion_lat": 0.0, "bike_id": "37cb249572a6a61deaca87a1f58ba4ce", "name": "37cb249572a6a61deaca87a1f58ba4ce", "lat": 38.9235695}, {"rental_uris": {"ios": "https://dc.lft.to/lastmile_qr_scan", "android": "https://dc.lft.to/lastmile_qr_scan"}, "fusion_lon": 0.0, "type": "electric_scooter", "is_reserved": 0, "lon": -77.02688816666667, "is_disabled": 0, "fusion_lat": 0.0, "bike_id": "383386f5c0248501b1cbca49cc7e3866", "name": "383386f5c0248501b1cbca49cc7e3866", "lat": 38.90072966666666}, {"rental_uris": {"ios": "https://dc.lft.to/lastmile_qr_scan", "android": "https://dc.lft.to/lastmile_qr_scan"}, "fusion_lon": 0.0, "type": "electric_scooter", "is_reserved": 0, "lon": -77.0206165, "is_disabled": 0, "fusion_lat": 0.0, "bike_id": "75c2fbfbd287264e840e279bb179e360", "name": "75c2fbfbd287264e840e279bb179e360", "lat": 38.9210775}, {"rental_uris": {"ios": "https://dc.lft.to/lastmile_qr_scan", "android": "https://dc.lft.to/lastmile_qr_scan"}, "fusion_lon": 0.0, "type": "electric_scooter", "is_reserved": 0, "lon": -77.02689783333334, "is_disabled": 0, "fusion_lat": 0.0, "bike_id": "a90d703009ae953439e8e21c7fd4957b", "name": "a90d703009ae953439e8e21c7fd4957b", "lat": 38.9182115}, {"rental_uris": {"ios": "https://dc.lft.to/lastmile_qr_scan", "android": "https://dc.lft.to/lastmile_qr_scan"}, "fusion_lon": 0.0, "type": "electric_bike", "is_reserved": 0, "lon": -76.97279916666666, "is_disabled": 0, "fusion_lat": 0.0, "bike_id": "302fe870fc5f499aabd17ee37aef4b73", "name": "302fe870fc5f499aabd17ee37aef4b73", "lat": 38.85588633333333}, {"rental_uris": {"ios": "https://dc.lft.to/lastmile_qr_scan", "android": "https://dc.lft.to/lastmile_qr_scan"}, "fusion_lon": 0.0, "type": "electric_scooter", "is_reserved": 0, "lon": -77.03501766666666, "is_disabled": 0, "fusion_lat": 0.0, "bike_id": "fde1c6fb07561e45fa8db5418cee93e2", "name": "fde1c6fb07561e45fa8db5418cee93e2", "lat": 38.92334783333333}, {"rental_uris": {"ios": "https://dc.lft.to/lastmile_qr_scan", "android": "https://dc.lft.to/lastmile_qr_scan"}, "fusion_lon": 0.0, "type": "electric_scooter", "is_reserved": 0, "lon": -77.0058185, "is_disabled": 0, "fusion_lat": 0.0, "bike_id": "42e32b2eaa76840105900c9fce1f9ed7", "name": "42e32b2eaa76840105900c9fce1f9ed7", "lat": 38.876211833333336}, {"rental_uris": {"ios": "https://dc.lft.to/lastmile_qr_scan", "android": "https://dc.lft.to/lastmile_qr_scan"}, "fusion_lon": 0.0, "type": "electric_scooter", "is_reserved": 0, "lon": -77.01009483333333, "is_disabled": 0, "fusion_lat": 0.0, "bike_id": "7310453f8f3aaeb5316afbd945408756", "name": "7310453f8f3aaeb5316afbd945408756", "lat": 38.90686016666667}, {"rental_uris": {"ios": "https://dc.lft.to/lastmile_qr_scan", "android": "https://dc.lft.to/lastmile_qr_scan"}, "fusion_lon": 0.0, "type": "electric_scooter", "is_reserved": 0, "lon": -77.02123083333333, "is_disabled": 0, "fusion_lat": 0.0, "bike_id": "a3ffd153e33122517524283ba44128c7", "name": "a3ffd153e33122517524283ba44128c7", "lat": 38.9236685}, {"rental_uris": {"ios": "https://dc.lft.to/lastmile_qr_scan", "android": "https://dc.lft.to/lastmile_qr_scan"}, "fusion_lon": 0.0, "type": "electric_bike", "is_reserved": 0, "lon": -77.11327533333333, "is_disabled": 0, "fusion_lat": 0.0, "bike_id": "ebcdaa30679a508b3b8fa91dd68dc776", "name": "ebcdaa30679a508b3b8fa91dd68dc776", "lat": 38.804045}, {"rental_uris": {"ios": "https://dc.lft.to/lastmile_qr_scan", "android": "https://dc.lft.to/lastmile_qr_scan"}, "fusion_lon": 0.0, "type": "electric_scooter", "is_reserved": 0, "lon": -77.021592, "is_disabled": 0, "fusion_lat": 0.0, "bike_id": "f54a3cd2172979aa94fe700e5d5b4d98", "name": "f54a3cd2172979aa94fe700e5d5b4d98", "lat": 38.929051}, {"rental_uris": {"ios": "https://dc.lft.to/lastmile_qr_scan", "android": "https://dc.lft.to/lastmile_qr_scan"}, "fusion_lon": 0.0, "type": "electric_scooter", "is_reserved": 0, "lon": -77.0513165, "is_disabled": 0, "fusion_lat": 0.0, "bike_id": "ba6345a907244c43c7792469b7a481b1", "name": "ba6345a907244c43c7792469b7a481b1", "lat": 38.90712116666667}, {"rental_uris": {"ios": "https://dc.lft.to/lastmile_qr_scan", "android": "https://dc.lft.to/lastmile_qr_scan"}, "fusion_lon": 0.0, "type": "electric_scooter", "is_reserved": 0, "lon": -76.99219983333333, "is_disabled": 0, "fusion_lat": 0.0, "bike_id": "8311691ea85808e53e4d4ea9f3e93dad", "name": "8311691ea85808e53e4d4ea9f3e93dad", "lat": 38.89737366666667}, {"rental_uris": {"ios": "https://dc.lft.to/lastmile_qr_scan", "android": "https://dc.lft.to/lastmile_qr_scan"}, "fusion_lon": 0.0, "type": "electric_scooter", "is_reserved": 0, "lon": -77.04167466666667, "is_disabled": 0, "fusion_lat": 0.0, "bike_id": "0cfce754ea53dc7a3786977581f6a607", "name": "0cfce754ea53dc7a3786977581f6a607", "lat": 38.91951916666667}, {"rental_uris": {"ios": "https://dc.lft.to/lastmile_qr_scan", "android": "https://dc.lft.to/lastmile_qr_scan"}, "fusion_lon": 0.0, "type": "electric_scooter", "is_reserved": 0, "lon": -77.02812916666667, "is_disabled": 0, "fusion_lat": 0.0, "bike_id": "bb2e1873a185fd5c10db5a2fe2653aac", "name": "bb2e1873a185fd5c10db5a2fe2653aac", "lat": 38.89912116666667}, {"rental_uris": {"ios": "https://dc.lft.to/lastmile_qr_scan", "android": "https://dc.lft.to/lastmile_qr_scan"}, "fusion_lon": 0.0, "type": "electric_scooter", "is_reserved": 0, "lon": -77.0150715, "is_disabled": 0, "fusion_lat": 0.0, "bike_id": "c5c882cd4bd9ec9f91af0df50fd16ffe", "name": "c5c882cd4bd9ec9f91af0df50fd16ffe", "lat": 38.89959}, {"rental_uris": {"ios": "https://dc.lft.to/lastmile_qr_scan", "android": "https://dc.lft.to/lastmile_qr_scan"}, "fusion_lon": 0.0, "type": "electric_scooter", "is_reserved": 0, "lon": -77.04055166666667, "is_disabled": 0, "fusion_lat": 0.0, "bike_id": "677f5838aafd2e7d651e84cf0149e924", "name": "677f5838aafd2e7d651e84cf0149e924", "lat": 38.902519833333336}, {"rental_uris": {"ios": "https://dc.lft.to/lastmile_qr_scan", "android": "https://dc.lft.to/lastmile_qr_scan"}, "fusion_lon": 0.0, "type": "electric_scooter", "is_reserved": 0, "lon": -77.01713516666666, "is_disabled": 0, "fusion_lat": 0.0, "bike_id": "a88d158be531aaed8fc9f50162ff61a0", "name": "a88d158be531aaed8fc9f50162ff61a0", "lat": 38.902480833333335}, {"rental_uris": {"ios": "https://dc.lft.to/lastmile_qr_scan", "android": "https://dc.lft.to/lastmile_qr_scan"}, "fusion_lon": 0.0, "type": "electric_scooter", "is_reserved": 0, "lon": -77.0419095, "is_disabled": 0, "fusion_lat": 0.0, "bike_id": "3aaf6391abc81d57aff8ca1160ead13d", "name": "3aaf6391abc81d57aff8ca1160ead13d", "lat": 38.904729333333336}, {"rental_uris": {"ios": "https://dc.lft.to/lastmile_qr_scan", "android": "https://dc.lft.to/lastmile_qr_scan"}, "fusion_lon": 0.0, "type": "electric_scooter", "is_reserved": 0, "lon": -77.03205566666666, "is_disabled": 0, "fusion_lat": 0.0, "bike_id": "845d2a2408a2155c33cfc012151195e8", "name": "845d2a2408a2155c33cfc012151195e8", "lat": 38.902012166666665}, {"rental_uris": {"ios": "https://dc.lft.to/lastmile_qr_scan", "android": "https://dc.lft.to/lastmile_qr_scan"}, "fusion_lon": 0.0, "type": "electric_scooter", "is_reserved": 0, "lon": -77.00579683333333, "is_disabled": 0, "fusion_lat": 0.0, "bike_id": "51809375175919ab9810280506c5a582", "name": "51809375175919ab9810280506c5a582", "lat": 38.87621883333333}, {"rental_uris": {"ios": "https://dc.lft.to/lastmile_qr_scan", "android": "https://dc.lft.to/lastmile_qr_scan"}, "fusion_lon": 0.0, "type": "electric_scooter", "is_reserved": 0, "lon": -77.01144883333333, "is_disabled": 0, "fusion_lat": 0.0, "bike_id": "3987cbd9211770215439dea4c351e222", "name": "3987cbd9211770215439dea4c351e222", "lat": 38.929601}, {"rental_uris": {"ios": "https://dc.lft.to/lastmile_qr_scan", "android": "https://dc.lft.to/lastmile_qr_scan"}, "fusion_lon": 0.0, "type": "electric_bike", "is_reserved": 0, "lon": -77.04726033333333, "is_disabled": 0, "fusion_lat": 0.0, "bike_id": "7dfdde45d3876cf73780d921b0daee42", "name": "7dfdde45d3876cf73780d921b0daee42", "lat": 38.92009783333334}, {"rental_uris": {"ios": "https://dc.lft.to/lastmile_qr_scan", "android": "https://dc.lft.to/lastmile_qr_scan"}, "fusion_lon": 0.0, "type": "electric_scooter", "is_reserved": 0, "lon": -77.01810366666666, "is_disabled": 0, "fusion_lat": 0.0, "bike_id": "3316f1fca4da2fd97262830c2ce3905f", "name": "3316f1fca4da2fd97262830c2ce3905f", "lat": 38.920726}, {"rental_uris": {"ios": "https://dc.lft.to/lastmile_qr_scan", "android": "https://dc.lft.to/lastmile_qr_scan"}, "fusion_lon": 0.0, "type": "electric_scooter", "is_reserved": 0, "lon": -77.015357, "is_disabled": 0, "fusion_lat": 0.0, "bike_id": "99a03971af6ff52837ca0c92cf151051", "name": "99a03971af6ff52837ca0c92cf151051", "lat": 38.89194333333333}, {"rental_uris": {"ios": "https://dc.lft.to/lastmile_qr_scan", "android": "https://dc.lft.to/lastmile_qr_scan"}, "fusion_lon": 0.0, "type": "electric_bike", "is_reserved": 0, "lon": -77.05077416666667, "is_disabled": 0, "fusion_lat": 0.0, "bike_id": "fe090e5c5a462741d9362fe3858a4793", "name": "fe090e5c5a462741d9362fe3858a4793", "lat": 38.813267333333336}, {"rental_uris": {"ios": "https://dc.lft.to/lastmile_qr_scan", "android": "https://dc.lft.to/lastmile_qr_scan"}, "fusion_lon": 0.0, "type": "electric_scooter", "is_reserved": 0, "lon": -77.03218266666667, "is_disabled": 0, "fusion_lat": 0.0, "bike_id": "9f3e39d765dab01dd0291884c87ffcb0", "name": "9f3e39d765dab01dd0291884c87ffcb0", "lat": 38.9163915}, {"rental_uris": {"ios": "https://dc.lft.to/lastmile_qr_scan", "android": "https://dc.lft.to/lastmile_qr_scan"}, "fusion_lon": 0.0, "type": "electric_scooter", "is_reserved": 0, "lon": -77.0482935, "is_disabled": 0, "fusion_lat": 0.0, "bike_id": "bbfb780e49d32b9d9a94196eeb652e4e", "name": "bbfb780e49d32b9d9a94196eeb652e4e", "lat": 38.904386833333334}, {"rental_uris": {"ios": "https://dc.lft.to/lastmile_qr_scan", "android": "https://dc.lft.to/lastmile_qr_scan"}, "fusion_lon": 0.0, "type": "electric_scooter", "is_reserved": 0, "lon": -77.044141, "is_disabled": 0, "fusion_lat": 0.0, "bike_id": "63b1ec5688d7eed96228f155564cfc0f", "name": "63b1ec5688d7eed96228f155564cfc0f", "lat": 38.901341}, {"rental_uris": {"ios": "https://dc.lft.to/lastmile_qr_scan", "android": "https://dc.lft.to/lastmile_qr_scan"}, "fusion_lon": 0.0, "type": "electric_scooter", "is_reserved": 0, "lon": -77.01857366666667, "is_disabled": 0, "fusion_lat": 0.0, "bike_id": "8822c1d8f8331ae5e957541dee9e55b1", "name": "8822c1d8f8331ae5e957541dee9e55b1", "lat": 38.949192333333336}, {"rental_uris": {"ios": "https://dc.lft.to/lastmile_qr_scan", "android": "https://dc.lft.to/lastmile_qr_scan"}, "fusion_lon": 0.0, "type": "electric_scooter", "is_reserved": 0, "lon": -77.05343633333334, "is_disabled": 0, "fusion_lat": 0.0, "bike_id": "57b68ebeb8e4378de14dcd90031a6d8e", "name": "57b68ebeb8e4378de14dcd90031a6d8e", "lat": 38.90231383333333}, {"rental_uris": {"ios": "https://dc.lft.to/lastmile_qr_scan", "android": "https://dc.lft.to/lastmile_qr_scan"}, "fusion_lon": 0.0, "type": "electric_scooter", "is_reserved": 0, "lon": -76.94905316666667, "is_disabled": 0, "fusion_lat": 0.0, "bike_id": "9deef5c551ae38eebd5f10a047adc368", "name": "9deef5c551ae38eebd5f10a047adc368", "lat": 38.896649333333336}, {"rental_uris": {"ios": "https://dc.lft.to/lastmile_qr_scan", "android": "https://dc.lft.to/lastmile_qr_scan"}, "fusion_lon": 0.0, "type": "electric_scooter", "is_reserved": 0, "lon": -76.99839433333334, "is_disabled": 0, "fusion_lat": 0.0, "bike_id": "66d58d58ec532c3efbabc9934cec4306", "name": "66d58d58ec532c3efbabc9934cec4306", "lat": 38.90299133333333}, {"rental_uris": {"ios": "https://dc.lft.to/lastmile_qr_scan", "android": "https://dc.lft.to/lastmile_qr_scan"}, "fusion_lon": 0.0, "type": "electric_scooter", "is_reserved": 0, "lon": -77.02339566666667, "is_disabled": 0, "fusion_lat": 0.0, "bike_id": "bded79993aa1e4102f84ed1b10e7f2b8", "name": "bded79993aa1e4102f84ed1b10e7f2b8", "lat": 38.90842983333334}, {"rental_uris": {"ios": "https://dc.lft.to/lastmile_qr_scan", "android": "https://dc.lft.to/lastmile_qr_scan"}, "fusion_lon": 0.0, "type": "electric_scooter", "is_reserved": 0, "lon": -77.00073683333333, "is_disabled": 0, "fusion_lat": 0.0, "bike_id": "05a0681fc34cca6b4e354d9e864a3f41", "name": "05a0681fc34cca6b4e354d9e864a3f41", "lat": 38.9073725}, {"rental_uris": {"ios": "https://dc.lft.to/lastmile_qr_scan", "android": "https://dc.lft.to/lastmile_qr_scan"}, "fusion_lon": 0.0, "type": "electric_scooter", "is_reserved": 0, "lon": -77.04192783333333, "is_disabled": 0, "fusion_lat": 0.0, "bike_id": "429a935e2984ed6f883283cef851fbc7", "name": "429a935e2984ed6f883283cef851fbc7", "lat": 38.92045783333333}, {"rental_uris": {"ios": "https://dc.lft.to/lastmile_qr_scan", "android": "https://dc.lft.to/lastmile_qr_scan"}, "fusion_lon": 0.0, "type": "electric_scooter", "is_reserved": 0, "lon": -77.03658783333333, "is_disabled": 0, "fusion_lat": 0.0, "bike_id": "ed9ad65bdb315cc06563177c34103df5", "name": "ed9ad65bdb315cc06563177c34103df5", "lat": 38.922829166666666}, {"rental_uris": {"ios": "https://dc.lft.to/lastmile_qr_scan", "android": "https://dc.lft.to/lastmile_qr_scan"}, "fusion_lon": 0.0, "type": "electric_scooter", "is_reserved": 0, "lon": -77.02930283333333, "is_disabled": 0, "fusion_lat": 0.0, "bike_id": "dc14173ec03ce2982688031143c9eddf", "name": "dc14173ec03ce2982688031143c9eddf", "lat": 38.895237}, {"rental_uris": {"ios": "https://dc.lft.to/lastmile_qr_scan", "android": "https://dc.lft.to/lastmile_qr_scan"}, "fusion_lon": 0.0, "type": "electric_scooter", "is_reserved": 0, "lon": -77.04370683333333, "is_disabled": 0, "fusion_lat": 0.0, "bike_id": "660069214ca304b7a4631b2ea66b465f", "name": "660069214ca304b7a4631b2ea66b465f", "lat": 38.921195833333336}, {"rental_uris": {"ios": "https://dc.lft.to/lastmile_qr_scan", "android": "https://dc.lft.to/lastmile_qr_scan"}, "fusion_lon": 0.0, "type": "electric_scooter", "is_reserved": 0, "lon": -77.00337116666667, "is_disabled": 0, "fusion_lat": 0.0, "bike_id": "d0ff934103c697535fbd43897ac155b6", "name": "d0ff934103c697535fbd43897ac155b6", "lat": 38.8935335}, {"rental_uris": {"ios": "https://dc.lft.to/lastmile_qr_scan", "android": "https://dc.lft.to/lastmile_qr_scan"}, "fusion_lon": 0.0, "type": "electric_scooter", "is_reserved": 0, "lon": -77.0338345, "is_disabled": 0, "fusion_lat": 0.0, "bike_id": "dfdf9aa9f82cd6ed7636931f2a92b39c", "name": "dfdf9aa9f82cd6ed7636931f2a92b39c", "lat": 38.92161183333333}, {"rental_uris": {"ios": "https://dc.lft.to/lastmile_qr_scan", "android": "https://dc.lft.to/lastmile_qr_scan"}, "fusion_lon": 0.0, "type": "electric_scooter", "is_reserved": 0, "lon": -76.99554366666666, "is_disabled": 0, "fusion_lat": 0.0, "bike_id": "a059dfeff607a3f66007de929857c716", "name": "a059dfeff607a3f66007de929857c716", "lat": 38.92313383333333}, {"rental_uris": {"ios": "https://dc.lft.to/lastmile_qr_scan", "android": "https://dc.lft.to/lastmile_qr_scan"}, "fusion_lon": 0.0, "type": "electric_scooter", "is_reserved": 0, "lon": -77.02006283333333, "is_disabled": 0, "fusion_lat": 0.0, "bike_id": "dddf054735a85ce9479d6960ab08fd71", "name": "dddf054735a85ce9479d6960ab08fd71", "lat": 38.88562483333333}, {"rental_uris": {"ios": "https://dc.lft.to/lastmile_qr_scan", "android": "https://dc.lft.to/lastmile_qr_scan"}, "fusion_lon": 0.0, "type": "electric_scooter", "is_reserved": 0, "lon": -77.01055183333334, "is_disabled": 0, "fusion_lat": 0.0, "bike_id": "fce338947e0a9eb8d3df29706531d853", "name": "fce338947e0a9eb8d3df29706531d853", "lat": 38.877347666666665}, {"rental_uris": {"ios": "https://dc.lft.to/lastmile_qr_scan", "android": "https://dc.lft.to/lastmile_qr_scan"}, "fusion_lon": 0.0, "type": "electric_scooter", "is_reserved": 0, "lon": -77.02138233333334, "is_disabled": 0, "fusion_lat": 0.0, "bike_id": "d93324296c07e75099813ef487deb47b", "name": "d93324296c07e75099813ef487deb47b", "lat": 38.91914583333333}, {"rental_uris": {"ios": "https://dc.lft.to/lastmile_qr_scan", "android": "https://dc.lft.to/lastmile_qr_scan"}, "fusion_lon": 0.0, "type": "electric_scooter", "is_reserved": 0, "lon": -77.02648733333334, "is_disabled": 0, "fusion_lat": 0.0, "bike_id": "af009cce23f2e7ce9fd490b4155cd854", "name": "af009cce23f2e7ce9fd490b4155cd854", "lat": 38.930944333333336}, {"rental_uris": {"ios": "https://dc.lft.to/lastmile_qr_scan", "android": "https://dc.lft.to/lastmile_qr_scan"}, "fusion_lon": 0.0, "type": "electric_scooter", "is_reserved": 0, "lon": -76.9763735, "is_disabled": 0, "fusion_lat": 0.0, "bike_id": "4dcc3c8438fb6e3c97f416dfbe4fce6d", "name": "4dcc3c8438fb6e3c97f416dfbe4fce6d", "lat": 38.886891166666665}, {"rental_uris": {"ios": "https://dc.lft.to/lastmile_qr_scan", "android": "https://dc.lft.to/lastmile_qr_scan"}, "fusion_lon": 0.0, "type": "electric_scooter", "is_reserved": 0, "lon": -77.0382705, "is_disabled": 0, "fusion_lat": 0.0, "bike_id": "53307d227252309fe2846dfe27359881", "name": "53307d227252309fe2846dfe27359881", "lat": 38.90379}, {"rental_uris": {"ios": "https://dc.lft.to/lastmile_qr_scan", "android": "https://dc.lft.to/lastmile_qr_scan"}, "fusion_lon": 0.0, "type": "electric_scooter", "is_reserved": 0, "lon": -76.92946183333333, "is_disabled": 0, "fusion_lat": 0.0, "bike_id": "dde19228b51785f6660b455fe14e3155", "name": "dde19228b51785f6660b455fe14e3155", "lat": 38.90178783333333}, {"rental_uris": {"ios": "https://dc.lft.to/lastmile_qr_scan", "android": "https://dc.lft.to/lastmile_qr_scan"}, "fusion_lon": 0.0, "type": "electric_scooter", "is_reserved": 0, "lon": -77.02192016666666, "is_disabled": 0, "fusion_lat": 0.0, "bike_id": "a8d40a08ae70317da2cc22375be1be2d", "name": "a8d40a08ae70317da2cc22375be1be2d", "lat": 38.913275666666664}, {"rental_uris": {"ios": "https://dc.lft.to/lastmile_qr_scan", "android": "https://dc.lft.to/lastmile_qr_scan"}, "fusion_lon": 0.0, "type": "electric_scooter", "is_reserved": 0, "lon": -77.05514866666667, "is_disabled": 0, "fusion_lat": 0.0, "bike_id": "baab48edf3096d0d63f22237218c4ed1", "name": "baab48edf3096d0d63f22237218c4ed1", "lat": 38.92947816666667}, {"rental_uris": {"ios": "https://dc.lft.to/lastmile_qr_scan", "android": "https://dc.lft.to/lastmile_qr_scan"}, "fusion_lon": 0.0, "type": "electric_scooter", "is_reserved": 0, "lon": -77.03639116666666, "is_disabled": 0, "fusion_lat": 0.0, "bike_id": "809dbcc7f3e06ab0894bcc56faa58b60", "name": "809dbcc7f3e06ab0894bcc56faa58b60", "lat": 38.927885833333335}, {"rental_uris": {"ios": "https://dc.lft.to/lastmile_qr_scan", "android": "https://dc.lft.to/lastmile_qr_scan"}, "fusion_lon": 0.0, "type": "electric_bike", "is_reserved": 0, "lon": -77.0210355, "is_disabled": 0, "fusion_lat": 0.0, "bike_id": "da5c629c27b25573333f2211d6b4c4c3", "name": "da5c629c27b25573333f2211d6b4c4c3", "lat": 39.022970666666666}, {"rental_uris": {"ios": "https://dc.lft.to/lastmile_qr_scan", "android": "https://dc.lft.to/lastmile_qr_scan"}, "fusion_lon": 0.0, "type": "electric_bike", "is_reserved": 0, "lon": -76.95210433333334, "is_disabled": 0, "fusion_lat": 0.0, "bike_id": "cd449bb0bc5352231f4198a0966fbabb", "name": "cd449bb0bc5352231f4198a0966fbabb", "lat": 38.8655265}, {"rental_uris": {"ios": "https://dc.lft.to/lastmile_qr_scan", "android": "https://dc.lft.to/lastmile_qr_scan"}, "fusion_lon": 0.0, "type": "electric_scooter", "is_reserved": 0, "lon": -77.031888, "is_disabled": 0, "fusion_lat": 0.0, "bike_id": "1bffa845d232e028526aa897b84d36e7", "name": "1bffa845d232e028526aa897b84d36e7", "lat": 38.90290183333333}, {"rental_uris": {"ios": "https://dc.lft.to/lastmile_qr_scan", "android": "https://dc.lft.to/lastmile_qr_scan"}, "fusion_lon": 0.0, "type": "electric_scooter", "is_reserved": 0, "lon": -77.02341433333333, "is_disabled": 0, "fusion_lat": 0.0, "bike_id": "35a685562d4f378de9de2bbe71ab5d4e", "name": "35a685562d4f378de9de2bbe71ab5d4e", "lat": 38.90200766666667}, {"rental_uris": {"ios": "https://dc.lft.to/lastmile_qr_scan", "android": "https://dc.lft.to/lastmile_qr_scan"}, "fusion_lon": 0.0, "type": "electric_scooter", "is_reserved": 0, "lon": -77.02075716666667, "is_disabled": 0, "fusion_lat": 0.0, "bike_id": "6e50d110debc3735b811bb28c818b876", "name": "6e50d110debc3735b811bb28c818b876", "lat": 38.92137266666667}, {"rental_uris": {"ios": "https://dc.lft.to/lastmile_qr_scan", "android": "https://dc.lft.to/lastmile_qr_scan"}, "fusion_lon": 0.0, "type": "electric_bike", "is_reserved": 0, "lon": -76.98665583333333, "is_disabled": 0, "fusion_lat": 0.0, "bike_id": "c4d0cd94d4d9eb4326d86e182d650283", "name": "c4d0cd94d4d9eb4326d86e182d650283", "lat": 38.974737}, {"rental_uris": {"ios": "https://dc.lft.to/lastmile_qr_scan", "android": "https://dc.lft.to/lastmile_qr_scan"}, "fusion_lon": 0.0, "type": "electric_bike", "is_reserved": 0, "lon": -77.09443616666667, "is_disabled": 0, "fusion_lat": 0.0, "bike_id": "5aac2c35921dfb83e56bbe07eff64cf7", "name": "5aac2c35921dfb83e56bbe07eff64cf7", "lat": 38.894224333333334}, {"rental_uris": {"ios": "https://dc.lft.to/lastmile_qr_scan", "android": "https://dc.lft.to/lastmile_qr_scan"}, "fusion_lon": 0.0, "type": "electric_scooter", "is_reserved": 0, "lon": -77.038938, "is_disabled": 0, "fusion_lat": 0.0, "bike_id": "e285598cabe610b73bd3885c65c03fdb", "name": "e285598cabe610b73bd3885c65c03fdb", "lat": 38.9024525}, {"rental_uris": {"ios": "https://dc.lft.to/lastmile_qr_scan", "android": "https://dc.lft.to/lastmile_qr_scan"}, "fusion_lon": 0.0, "type": "electric_scooter", "is_reserved": 0, "lon": -77.00355883333333, "is_disabled": 0, "fusion_lat": 0.0, "bike_id": "18b8b859d50468e7dd5e21cb7837f88d", "name": "18b8b859d50468e7dd5e21cb7837f88d", "lat": 38.896239666666666}, {"rental_uris": {"ios": "https://dc.lft.to/lastmile_qr_scan", "android": "https://dc.lft.to/lastmile_qr_scan"}, "fusion_lon": 0.0, "type": "electric_scooter", "is_reserved": 0, "lon": -77.01813066666666, "is_disabled": 0, "fusion_lat": 0.0, "bike_id": "1f7639ad6bf253cb9b9b8af0f16dfba9", "name": "1f7639ad6bf253cb9b9b8af0f16dfba9", "lat": 38.901337833333336}, {"rental_uris": {"ios": "https://dc.lft.to/lastmile_qr_scan", "android": "https://dc.lft.to/lastmile_qr_scan"}, "fusion_lon": 0.0, "type": "electric_scooter", "is_reserved": 0, "lon": -77.02444516666667, "is_disabled": 0, "fusion_lat": 0.0, "bike_id": "4e562b43c8eaba729dedf214dccbcdf6", "name": "4e562b43c8eaba729dedf214dccbcdf6", "lat": 38.8943315}, {"rental_uris": {"ios": "https://dc.lft.to/lastmile_qr_scan", "android": "https://dc.lft.to/lastmile_qr_scan"}, "fusion_lon": 0.0, "type": "electric_scooter", "is_reserved": 0, "lon": -77.044986, "is_disabled": 0, "fusion_lat": 0.0, "bike_id": "23f0dd298227646049145f55e8691c03", "name": "23f0dd298227646049145f55e8691c03", "lat": 38.9000335}, {"rental_uris": {"ios": "https://dc.lft.to/lastmile_qr_scan", "android": "https://dc.lft.to/lastmile_qr_scan"}, "fusion_lon": 0.0, "type": "electric_scooter", "is_reserved": 0, "lon": -77.07149783333334, "is_disabled": 0, "fusion_lat": 0.0, "bike_id": "843fba001c3c03bdf4a93cd1d5c1484c", "name": "843fba001c3c03bdf4a93cd1d5c1484c", "lat": 38.9201465}, {"rental_uris": {"ios": "https://dc.lft.to/lastmile_qr_scan", "android": "https://dc.lft.to/lastmile_qr_scan"}, "fusion_lon": 0.0, "type": "electric_scooter", "is_reserved": 0, "lon": -77.0354065, "is_disabled": 0, "fusion_lat": 0.0, "bike_id": "7fc2b08ec2710efaf9c1b26478bbe765", "name": "7fc2b08ec2710efaf9c1b26478bbe765", "lat": 38.92414183333333}, {"rental_uris": {"ios": "https://dc.lft.to/lastmile_qr_scan", "android": "https://dc.lft.to/lastmile_qr_scan"}, "fusion_lon": 0.0, "type": "electric_bike", "is_reserved": 0, "lon": -77.08821983333333, "is_disabled": 0, "fusion_lat": 0.0, "bike_id": "7806d0c38bdf1853059fdca682324e82", "name": "7806d0c38bdf1853059fdca682324e82", "lat": 38.90968516666667}, {"rental_uris": {"ios": "https://dc.lft.to/lastmile_qr_scan", "android": "https://dc.lft.to/lastmile_qr_scan"}, "fusion_lon": 0.0, "type": "electric_scooter", "is_reserved": 0, "lon": -77.02982366666667, "is_disabled": 0, "fusion_lat": 0.0, "bike_id": "f334bb011657d7d498a1a468b91c4db4", "name": "f334bb011657d7d498a1a468b91c4db4", "lat": 38.91549083333334}, {"rental_uris": {"ios": "https://dc.lft.to/lastmile_qr_scan", "android": "https://dc.lft.to/lastmile_qr_scan"}, "fusion_lon": 0.0, "type": "electric_scooter", "is_reserved": 0, "lon": -77.04138983333333, "is_disabled": 0, "fusion_lat": 0.0, "bike_id": "72da089a6a236b55e4b6e2cb255a6de1", "name": "72da089a6a236b55e4b6e2cb255a6de1", "lat": 38.897228}, {"rental_uris": {"ios": "https://dc.lft.to/lastmile_qr_scan", "android": "https://dc.lft.to/lastmile_qr_scan"}, "fusion_lon": 0.0, "type": "electric_scooter", "is_reserved": 0, "lon": -77.03280216666667, "is_disabled": 0, "fusion_lat": 0.0, "bike_id": "31506c13972533733133daa726ceca0e", "name": "31506c13972533733133daa726ceca0e", "lat": 38.94749983333333}, {"rental_uris": {"ios": "https://dc.lft.to/lastmile_qr_scan", "android": "https://dc.lft.to/lastmile_qr_scan"}, "fusion_lon": 0.0, "type": "electric_scooter", "is_reserved": 0, "lon": -77.00000616666667, "is_disabled": 0, "fusion_lat": 0.0, "bike_id": "9cb6cc457c80acf70bfcb235a19dd267", "name": "9cb6cc457c80acf70bfcb235a19dd267", "lat": 38.888693833333335}, {"rental_uris": {"ios": "https://dc.lft.to/lastmile_qr_scan", "android": "https://dc.lft.to/lastmile_qr_scan"}, "fusion_lon": 0.0, "type": "electric_scooter", "is_reserved": 0, "lon": -77.032712, "is_disabled": 0, "fusion_lat": 0.0, "bike_id": "408c0b9ee86b160df7a1b7b1c356ff02", "name": "408c0b9ee86b160df7a1b7b1c356ff02", "lat": 38.93247383333333}, {"rental_uris": {"ios": "https://dc.lft.to/lastmile_qr_scan", "android": "https://dc.lft.to/lastmile_qr_scan"}, "fusion_lon": 0.0, "type": "electric_scooter", "is_reserved": 0, "lon": -77.03787933333334, "is_disabled": 0, "fusion_lat": 0.0, "bike_id": "1a71a1d823d0dafff0b7748b65af6bfb", "name": "1a71a1d823d0dafff0b7748b65af6bfb", "lat": 38.9302}, {"rental_uris": {"ios": "https://dc.lft.to/lastmile_qr_scan", "android": "https://dc.lft.to/lastmile_qr_scan"}, "fusion_lon": 0.0, "type": "electric_scooter", "is_reserved": 0, "lon": -77.04178016666667, "is_disabled": 0, "fusion_lat": 0.0, "bike_id": "11b86ce6a0ae094cbd779ae898d6ec9b", "name": "11b86ce6a0ae094cbd779ae898d6ec9b", "lat": 38.91340783333333}, {"rental_uris": {"ios": "https://dc.lft.to/lastmile_qr_scan", "android": "https://dc.lft.to/lastmile_qr_scan"}, "fusion_lon": 0.0, "type": "electric_scooter", "is_reserved": 0, "lon": -77.02414066666667, "is_disabled": 0, "fusion_lat": 0.0, "bike_id": "08f37f37d0904b7d2a1a388984726cef", "name": "08f37f37d0904b7d2a1a388984726cef", "lat": 38.909583833333336}, {"rental_uris": {"ios": "https://dc.lft.to/lastmile_qr_scan", "android": "https://dc.lft.to/lastmile_qr_scan"}, "fusion_lon": 0.0, "type": "electric_scooter", "is_reserved": 0, "lon": -77.0450645, "is_disabled": 0, "fusion_lat": 0.0, "bike_id": "3a076f76354c0d683f758dbc3db0fcb6", "name": "3a076f76354c0d683f758dbc3db0fcb6", "lat": 38.90012183333333}, {"rental_uris": {"ios": "https://dc.lft.to/lastmile_qr_scan", "android": "https://dc.lft.to/lastmile_qr_scan"}, "fusion_lon": 0.0, "type": "electric_scooter", "is_reserved": 0, "lon": -77.01418733333334, "is_disabled": 0, "fusion_lat": 0.0, "bike_id": "0d6f50f9aa602265963fa738efc1f448", "name": "0d6f50f9aa602265963fa738efc1f448", "lat": 38.906489666666666}, {"rental_uris": {"ios": "https://dc.lft.to/lastmile_qr_scan", "android": "https://dc.lft.to/lastmile_qr_scan"}, "fusion_lon": 0.0, "type": "electric_bike", "is_reserved": 0, "lon": -77.04640016666667, "is_disabled": 0, "fusion_lat": 0.0, "bike_id": "0e999cf76412e36a22774e044b571704", "name": "0e999cf76412e36a22774e044b571704", "lat": 38.815460333333334}, {"rental_uris": {"ios": "https://dc.lft.to/lastmile_qr_scan", "android": "https://dc.lft.to/lastmile_qr_scan"}, "fusion_lon": 0.0, "type": "electric_scooter", "is_reserved": 0, "lon": -77.04170466666666, "is_disabled": 0, "fusion_lat": 0.0, "bike_id": "7c46812e13f2df1a3ad231ef411c40cd", "name": "7c46812e13f2df1a3ad231ef411c40cd", "lat": 38.9254565}, {"rental_uris": {"ios": "https://dc.lft.to/lastmile_qr_scan", "android": "https://dc.lft.to/lastmile_qr_scan"}, "fusion_lon": 0.0, "type": "electric_scooter", "is_reserved": 0, "lon": -77.03372833333333, "is_disabled": 0, "fusion_lat": 0.0, "bike_id": "0a525d0ba1c37e06e94bbc8f93f12402", "name": "0a525d0ba1c37e06e94bbc8f93f12402", "lat": 38.92235016666667}, {"rental_uris": {"ios": "https://dc.lft.to/lastmile_qr_scan", "android": "https://dc.lft.to/lastmile_qr_scan"}, "fusion_lon": 0.0, "type": "electric_scooter", "is_reserved": 0, "lon": -76.97851916666667, "is_disabled": 0, "fusion_lat": 0.0, "bike_id": "a8e0f422843967f8d8a1eb51d9067948", "name": "a8e0f422843967f8d8a1eb51d9067948", "lat": 38.89721016666667}, {"rental_uris": {"ios": "https://dc.lft.to/lastmile_qr_scan", "android": "https://dc.lft.to/lastmile_qr_scan"}, "fusion_lon": 0.0, "type": "electric_scooter", "is_reserved": 0, "lon": -77.0466055, "is_disabled": 0, "fusion_lat": 0.0, "bike_id": "ae5d8a4a10961043bd3348c0fcc432ae", "name": "ae5d8a4a10961043bd3348c0fcc432ae", "lat": 38.89852916666667}, {"rental_uris": {"ios": "https://dc.lft.to/lastmile_qr_scan", "android": "https://dc.lft.to/lastmile_qr_scan"}, "fusion_lon": 0.0, "type": "electric_scooter", "is_reserved": 0, "lon": -77.0435735, "is_disabled": 0, "fusion_lat": 0.0, "bike_id": "917f8f5177dbbbdab514622684f77152", "name": "917f8f5177dbbbdab514622684f77152", "lat": 38.928384666666666}, {"rental_uris": {"ios": "https://dc.lft.to/lastmile_qr_scan", "android": "https://dc.lft.to/lastmile_qr_scan"}, "fusion_lon": 0.0, "type": "electric_bike", "is_reserved": 0, "lon": -77.09020283333334, "is_disabled": 0, "fusion_lat": 0.0, "bike_id": "f68bb2139a307e764538bd3f7a65fea2", "name": "f68bb2139a307e764538bd3f7a65fea2", "lat": 38.9264855}, {"rental_uris": {"ios": "https://dc.lft.to/lastmile_qr_scan", "android": "https://dc.lft.to/lastmile_qr_scan"}, "fusion_lon": 0.0, "type": "electric_bike", "is_reserved": 0, "lon": -76.98417266666667, "is_disabled": 0, "fusion_lat": 0.0, "bike_id": "328402b8b05fa601a0300b67c2b7ef77", "name": "328402b8b05fa601a0300b67c2b7ef77", "lat": 38.97411116666667}, {"rental_uris": {"ios": "https://dc.lft.to/lastmile_qr_scan", "android": "https://dc.lft.to/lastmile_qr_scan"}, "fusion_lon": 0.0, "type": "electric_scooter", "is_reserved": 0, "lon": -77.03985566666667, "is_disabled": 0, "fusion_lat": 0.0, "bike_id": "befeb4457e63a59337c4ccf3f8889545", "name": "befeb4457e63a59337c4ccf3f8889545", "lat": 38.8990635}, {"rental_uris": {"ios": "https://dc.lft.to/lastmile_qr_scan", "android": "https://dc.lft.to/lastmile_qr_scan"}, "fusion_lon": 0.0, "type": "electric_scooter", "is_reserved": 0, "lon": -76.9748985, "is_disabled": 0, "fusion_lat": 0.0, "bike_id": "5059864443ac513c77316284d3f01ab9", "name": "5059864443ac513c77316284d3f01ab9", "lat": 38.90340616666667},