{"data": {"bikes": [{"name": "9f5cfddc6b9ef10dcac0ee4a33eacac4", "lon": -77.035, "lat": 38.93275766666667, "type": "electric_scooter", "fusion_lon": 0.0, "is_reserved": 0, "bike_id": "9f5cfddc6b9ef10dcac0ee4a33eacac4", "fusion_lat": 0.0, "is_disabled": 0, "rental_uris": {"ios": "https://dc.lft.to/lastmile_qr_scan", "android": "https://dc.lft.to/lastmile_qr_scan"}}, {"name": "98a4e762c2696e8dbd44edd0293861e6", "lon": -77.02815383333333, "lat": 38.916262, "type": "electric_scooter", "fusion_lon": 0.0, "is_reserved": 0, "bike_id": "98a4e762c2696e8dbd44edd0293861e6", "fusion_lat": 0.0, "is_disabled": 0, "rental_uris": {"ios": "https://dc.lft.to/lastmile_qr_scan", "android": "https://dc.lft.to/lastmile_qr_scan"}}, {"name": "7994e4ba8a451ea14f48b093d3903723", "lon": -77.035169, "lat": 38.90665516666667, "type": "electric_scooter", "fusion_lon": 0.0, "is_reserved": 0, "bike_id": "7994e4ba8a451ea14f48b093d3903723", "fusion_lat": 0.0, "is_disabled": 0, "rental_uris": {"ios": "https://dc.lft.to/lastmile_qr_scan", "android": "https://dc.lft.to/lastmile_qr_scan"}}, {"name": "3ee55d78eaf05f26b2557c78aed71854", "lon": -77.07794433333333, "lat": 38.84882016666667, "type": "electric_bike", "fusion_lon": 0.0, "is_reserved": 0, "bike_id": "3ee55d78eaf05f26b2557c78aed71854", "fusion_lat": 0.0, "is_disabled": 0, "rental_uris": {"ios": "https://dc.lft.to/lastmile_qr_scan", "android": "https://dc.lft.to/lastmile_qr_scan"}}, {"name": "69704efc5884f1c71763b6b2761a6d7c", "lon": -77.02477266666666, "lat": 38.90971116666667, "type": "electric_scooter", "fusion_lon": 0.0, "is_reserved": 0, "bike_id": "69704efc5884f1c71763b6b2761a6d7c", "fusion_lat": 0.0, "is_disabled": 0, "rental_uris": {"ios": "https://dc.lft.to/lastmile_qr_scan", "android": "https://dc.lft.to/lastmile_qr_scan"}}, {"name": "da9af96a4808b857a1e1a62645aeb8c7", "lon": -77.02552883333334, "lat": 38.942243500000004, "type": "electric_scooter", "fusion_lon": 0.0, "is_reserved": 0, "bike_id": "da9af96a4808b857a1e1a62645aeb8c7", "fusion_lat": 0.0, "is_disabled": 0, "rental_uris": {"ios": "https://dc.lft.to/lastmile_qr_scan", "android": "https://dc.lft.to/lastmile_qr_scan"}}, {"name": "8dd2f0532be75a934eb3a138693f67c0", "lon": -76.98093283333333, "lat": 38.95356666666667, "type": "electric_bike", "fusion_lon": 0.0, "is_reserved": 0, "bike_id": "8dd2f0532be75a934eb3a138693f67c0", "fusion_lat": 0.0, "is_disabled": 0, "rental_uris": {"ios": "https://dc.lft.to/lastmile_qr_scan", "android": "https://dc.lft.to/lastmile_qr_scan"}}, {"name": "30f1e124ffe283e5fe69547ec406201c", "lon": -77.02618166666667, "lat": 38.896871833333336, "type": "electric_scooter", "fusion_lon": 0.0, "is_reserved": 0, "bike_id": "30f1e124ffe283e5fe69547ec406201c", "fusion_lat": 0.0, "is_disabled": 0, "rental_uris": {"ios": "https://dc.lft.to/lastmile_qr_scan", "android": "https://dc.lft.to/lastmile_qr_scan"}}, {"name": "46e3cf10a3194dd02bede5938cfb4ce5", "lon": -77.023156, "lat": 38.907309833333336, "type": "electric_scooter", "fusion_lon": 0.0, "is_reserved": 0, "bike_id": "46e3cf10a3194dd02bede5938cfb4ce5", "fusion_lat": 0.0, "is_disabled": 0, "rental_uris": {"ios": "https://dc.lft.to/lastmile_qr_scan", "android": "https://dc.lft.to/lastmile_qr_scan"}}, {"name": "c1e04bf5c220f8eb592d630a20b0f54e", "lon": -77.00204533333333, "lat": 38.90242666666666, "type": "electric_scooter", "fusion_lon": 0.0, "is_reserved": 0, "bike_id": "c1e04bf5c220f8eb592d630a20b0f54e", "fusion_lat": 0.0, "is_disabled": 0, "rental_uris": {"ios": "https://dc.lft.to/lastmile_qr_scan", "android": "https://dc.lft.to/lastmile_qr_scan"}}, {"name": "66dfd4d0059762cff5d5fac3a5b7970b", "lon": -77.04343816666666, "lat": 38.908004166666665, "type": "electric_scooter", "fusion_lon": 0.0, "is_reserved": 0, "bike_id": "66dfd4d0059762cff5d5fac3a5b7970b", "fusion_lat": 0.0, "is_disabled": 0, "rental_uris": {"ios": "https://dc.lft.to/lastmile_qr_scan", "android": "https://dc.lft.to/lastmile_qr_scan"}}, {"name": "e26f6a981849debe0349d9bac6b6effc", "lon": -77.03860733333333, "lat": 38.91554766666667, "type": "electric_scooter", "fusion_lon": 0.0, "is_reserved": 0, "bike_id": "e26f6a981849debe0349d9bac6b6effc", "fusion_lat": 0.0, "is_disabled": 0, "rental_uris": {"ios": "https://dc.lft.to/lastmile_qr_scan", "android": "https://dc.lft.to/lastmile_qr_scan"}}, {"name": "6e92cd460a03ffe7630992941c562e01", "lon": -76.99530983333334, "lat": 38.92667633333333, "type": "electric_scooter", "fusion_lon": 0.0, "is_reserved": 0, "bike_id": "6e92cd460a03ffe7630992941c562e01", "fusion_lat": 0.0, "is_disabled": 0, "rental_uris": {"ios": "https://dc.lft.to/lastmile_qr_scan", "android": "https://dc.lft.to/lastmile_qr_scan"}}, {"name": "d1513c661fd4af60048b60873102cf8e", "lon": -77.032398, "lat": 38.91550566666667, "type": "electric_scooter", "fusion_lon": 0.0, "is_reserved": 0, "bike_id": "d1513c661fd4af60048b60873102cf8e", "fusion_lat": 0.0, "is_disabled": 0, "rental_uris": {"ios": "https://dc.lft.to/lastmile_qr_scan", "android": "https://dc.lft.to/lastmile_qr_scan"}}, {"name": "64bed035313861b75bd7a4cb20e4f0a4", "lon": -77.021971, "lat": 38.9112495, "type": "electric_scooter", "fusion_lon": 0.0, "is_reserved": 0, "bike_id": "64bed035313861b75bd7a4cb20e4f0a4", "fusion_lat": 0.0, "is_disabled": 0, "rental_uris": {"ios": "https://dc.lft.to/lastmile_qr_scan", "android": "https://dc.lft.to/lastmile_qr_scan"}}, {"name": "da87c02ddd2c538063b5721f11732683", "lon": -77.09799783333334, "lat": 38.8503365, "type": "electric_bike", "fusion_lon": 0.0, "is_reserved": 0, "bike_id": "da87c02ddd2c538063b5721f11732683", "fusion_lat": 0.0, "is_disabled": 0, "rental_uris": {"ios": "https://dc.lft.to/lastmile_qr_scan", "android": "https://dc.lft.to/lastmile_qr_scan"}}, {"name": "423e89dfd207fea0c721e0da0a419e4c", "lon": -77.03306433333333, "lat": 38.926243666666664, "type": "electric_bike", "fusion_lon": 0.0, "is_reserved": 0, "bike_id": "423e89dfd207fea0c721e0da0a419e4c", "fusion_lat": 0.0, "is_disabled": 0, "rental_uris": {"ios": "https://dc.lft.to/lastmile_qr_scan", "android": "https://dc.lft.to/lastmile_qr_scan"}}, {"name": "f14163f173c76fc9c4bff49f72cd1574", "lon": -76.9938235, "lat": 38.877638, "type": "electric_scooter", "fusion_lon": 0.0, "is_reserved": 0, "bike_id": "f14163f173c76fc9c4bff49f72cd1574", "fusion_lat": 0.0, "is_disabled": 0, "rental_uris": {"ios": "https://dc.lft.to/lastmile_qr_scan", "android": "https://dc.lft.to/lastmile_qr_scan"}}, {"name": "1dbf2c9e156c982950a43108304fbca7", "lon": -77.03079766666667, "lat": 38.911112, "type": "electric_scooter", "fusion_lon": 0.0, "is_reserved": 0, "bike_id": "1dbf2c9e156c982950a43108304fbca7", "fusion_lat": 0.0, "is_disabled": 0, "rental_uris": {"ios": "https://dc.lft.to/lastmile_qr_scan", "android": "https://dc.lft.to/lastmile_qr_scan"}}, {"name": "69d5ec7926624dcf58424e6748463856", "lon": -77.05589683333334, "lat": 38.936065166666666, "type": "electric_scooter", "fusion_lon": 0.0, "is_reserved": 0, "bike_id": "69d5ec7926624dcf58424e6748463856", "fusion_lat": 0.0, "is_disabled": 0, "rental_uris": {"ios": "https://dc.lft.to/lastmile_qr_scan", "android": "https://dc.lft.to/lastmile_qr_scan"}}, {"name": "db249e07c58a87cdada4c954d6587179", "lon": -77.04484783333334, "lat": 38.9240675, "type": "electric_scooter", "fusion_lon": 0.0, "is_reserved": 0, "bike_id": "db249e07c58a87cdada4c954d6587179", "fusion_lat": 0.0, "is_disabled": 0, "rental_uris": {"ios": "https://dc.lft.to/lastmile_qr_scan", "android": "https://dc.lft.to/lastmile_qr_scan"}}, {"name": "613aa76ef43181719abfc9f492c3f84d", "lon": -77.02208716666667, "lat": 38.89983683333333, "type": "electric_scooter", "fusion_lon": 0.0, "is_reserved": 0, "bike_id": "613aa76ef43181719abfc9f492c3f84d", "fusion_lat": 0.0, "is_disabled": 0, "rental_uris": {"ios": "https://dc.lft.to/lastmile_qr_scan", "android": "https://dc.lft.to/lastmile_qr_scan"}}, {"name": "20b77f11c81fa35a9495587de93184ab", "lon": -77.05223966666667, "lat": 38.92479816666667, "type": "electric_scooter", "fusion_lon": 0.0, "is_reserved": 0, "bike_id": "20b77f11c81fa35a9495587de93184ab", "fusion_lat": 0.0, "is_disabled": 0, "rental_uris": {"ios": "https://dc.lft.to/lastmile_qr_scan", "android": "https://dc.lft.to/lastmile_qr_scan"}}, {"name": "d2c5eaa4878c09ec9f35b1dc2bc97f28", "lon": -77.005979, "lat": 38.906501166666665, "type": "electric_scooter", "fusion_lon": 0.0, "is_reserved": 0, "bike_id": "d2c5eaa4878c09ec9f35b1dc2bc97f28", "fusion_lat": 0.0, "is_disabled": 0, "rental_uris": {"ios": "https://dc.lft.to/lastmile_qr_scan", "android": "https://dc.lft.to/lastmile_qr_scan"}}, {"name": "b54894b3a09418e3e237b800af9bc39b", "lon": -77.00916816666667, "lat": 38.82784683333333, "type": "electric_scooter", "fusion_lon": 0.0, "is_reserved": 0, "bike_id": "b54894b3a09418e3e237b800af9bc39b", "fusion_lat": 0.0, "is_disabled": 0, "rental_uris": {"ios": "https://dc.lft.to/lastmile_qr_scan", "android": "https://dc.lft.to/lastmile_qr_scan"}}, {"name": "24a7fdbe47ef70eb030061d268ae329a", "lon": -77.02691016666667, "lat": 38.90974083333333, "type": "electric_scooter", "fusion_lon": 0.0, "is_reserved": 0, "bike_id": "24a7fdbe47ef70eb030061d268ae329a", "fusion_lat": 0.0, "is_disabled": 0, "rental_uris": {"ios": "https://dc.lft.to/lastmile_qr_scan", "android": "https://dc.lft.to/lastmile_qr_scan"}}, {"name": "4377a03805b1a428203ad7b720cca7b0", "lon": -77.02689016666666, "lat": 38.904865666666666, "type": "electric_scooter", "fusion_lon": 0.0, "is_reserved": 0, "bike_id": "4377a03805b1a428203ad7b720cca7b0", "fusion_lat": 0.0, "is_disabled": 0, "rental_uris": {"ios": "https://dc.lft.to/lastmile_qr_scan", "android": "https://dc.lft.to/lastmile_qr_scan"}}, {"name": "bf466771fb14ede8f4c2ecc0cea6d681", "lon": -77.031015, "lat": 38.9507435, "type": "electric_scooter", "fusion_lon": 0.0, "is_reserved": 0, "bike_id": "bf466771fb14ede8f4c2ecc0cea6d681", "fusion_lat": 0.0, "is_disabled": 0, "rental_uris": {"ios": "https://dc.lft.to/lastmile_qr_scan", "android": "https://dc.lft.to/lastmile_qr_scan"}}, {"name": "437f85985b96e7746602c3fe06df599f", "lon": -77.04533383333333, "lat": 38.934641166666665, "type": "electric_bike", "fusion_lon": 0.0, "is_reserved": 0, "bike_id": "437f85985b96e7746602c3fe06df599f", "fusion_lat": 0.0, "is_disabled": 0, "rental_uris": {"ios": "https://dc.lft.to/lastmile_qr_scan", "android": "https://dc.lft.to/lastmile_qr_scan"}}, {"name": "fe47f7608270e5edb88c2bf0c1ca5122", "lon": -76.9690775, "lat": 38.846139666666666, "type": "electric_bike", "fusion_lon": 0.0, "is_reserved": 0, "bike_id": "fe47f7608270e5edb88c2bf0c1ca5122", "fusion_lat": 0.0, "is_disabled": 0, "rental_uris": {"ios": "https://dc.lft.to/lastmile_qr_scan", "android": "https://dc.lft.to/lastmile_qr_scan"}}, {"name": "934c56bf8b3f358193ce7267d7f71380", "lon": -76.997759, "lat": 38.8621205, "type": "electric_bike", "fusion_lon": 0.0, "is_reserved": 0, "bike_id": "934c56bf8b3f358193ce7267d7f71380", "fusion_lat": 0.0, "is_disabled": 0, "rental_uris": {"ios": "https://dc.lft.to/lastmile_qr_scan", "android": "https://dc.lft.to/lastmile_qr_scan"}}, {"name": "dddd0be45cf5a033c2ab8e0fe3a48fe9", "lon": -77.072596, "lat": 38.933461, "type": "electric_bike", "fusion_lon": 0.0, "is_reserved": 0, "bike_id": "dddd0be45cf5a033c2ab8e0fe3a48fe9", "fusion_lat": 0.0, "is_disabled": 0, "rental_uris": {"ios": "https://dc.lft.to/lastmile_qr_scan", "android": "https://dc.lft.to/lastmile_qr_scan"}}, {"name": "2d1ba2e26d87c370957a2311a04f2905", "lon": -77.0839695, "lat": 38.9080445, "type": "electric_scooter", "fusion_lon": 0.0, "is_reserved": 0, "bike_id": "2d1ba2e26d87c370957a2311a04f2905", "fusion_lat": 0.0, "is_disabled": 0, "rental_uris": {"ios": "https://dc.lft.to/lastmile_qr_scan", "android": "https://dc.lft.to/lastmile_qr_scan"}}, {"name": "165fdba99e447a25e9b37ddf7a2f1dcb", "lon": -77.00561716666667, "lat": 38.8789815, "type": "electric_scooter", "fusion_lon": 0.0, "is_reserved": 0, "bike_id": "165fdba99e447a25e9b37ddf7a2f1dcb", "fusion_lat": 0.0, "is_disabled": 0, "rental_uris": {"ios": "https://dc.lft.to/lastmile_qr_scan", "android": "https://dc.lft.to/lastmile_qr_scan"}}, {"name": "a4d9c8769e1699ce10f0ab01ef8d23f7", "lon": -77.03473416666667, "lat": 38.9061175, "type": "electric_scooter", "fusion_lon": 0.0, "is_reserved": 0, "bike_id": "a4d9c8769e1699ce10f0ab01ef8d23f7", "fusion_lat": 0.0, "is_disabled": 0, "rental_uris": {"ios": "https://dc.lft.to/lastmile_qr_scan", "android": "https://dc.lft.to/lastmile_qr_scan"}}, {"name": "fecbde408cbd59a9af7e8ff7532a20cd", "lon": -77.04487033333334, "lat": 38.8428795, "type": "electric_bike", "fusion_lon": 0.0, "is_reserved": 0, "bike_id": "fecbde408cbd59a9af7e8ff7532a20cd", "fusion_lat": 0.0, "is_disabled": 0, "rental_uris": {"ios": "https://dc.lft.to/lastmile_qr_scan", "android": "https://dc.lft.to/lastmile_qr_scan"}}, {"name": "611b6dceb2101e662f88ed14ed80cddb", "lon": -76.94933933333333, "lat": 38.89346416666667, "type": "electric_scooter", "fusion_lon": 0.0, "is_reserved": 0, "bike_id": "611b6dceb2101e662f88ed14ed80cddb", "fusion_lat": 0.0, "is_disabled": 0, "rental_uris": {"ios": "https://dc.lft.to/lastmile_qr_scan", "android": "https://dc.lft.to/lastmile_qr_scan"}}, {"name": "dd2a3aa41c5355607d0c2b1284617bbb", "lon": -77.04504016666667, "lat": 38.9119125, "type": "electric_scooter", "fusion_lon": 0.0, "is_reserved": 0, "bike_id": "dd2a3aa41c5355607d0c2b1284617bbb", "fusion_lat": 0.0, "is_disabled": 0, "rental_uris": {"ios": "https://dc.lft.to/lastmile_qr_scan", "android": "https://dc.lft.to/lastmile_qr_scan"}}, {"name": "59530a321db9389056562b5ce8be646e", "lon": -77.02795066666667, "lat": 38.8970815, "type": "electric_scooter", "fusion_lon": 0.0, "is_reserved": 0, "bike_id": "59530a321db9389056562b5ce8be646e", "fusion_lat": 0.0, "is_disabled": 0, "rental_uris": {"ios": "https://dc.lft.to/lastmile_qr_scan", "android": "https://dc.lft.to/lastmile_qr_scan"}}, {"name": "7d76de6f55b52e52d6b6e9422cf45688", "lon": -76.998346, "lat": 38.88474816666667, "type": "electric_scooter", "fusion_lon": 0.0, "is_reserved": 0, "bike_id": "7d76de6f55b52e52d6b6e9422cf45688", "fusion_lat": 0.0, "is_disabled": 0, "rental_uris": {"ios": "https://dc.lft.to/lastmile_qr_scan", "android": "https://dc.lft.to/lastmile_qr_scan"}}, {"name": "a2f4e89cbf6e6eaf23b95664449fba24", "lon": -77.04259366666666, "lat": 38.9086875, "type": "electric_scooter", "fusion_lon": 0.0, "is_reserved": 0, "bike_id": "a2f4e89cbf6e6eaf23b95664449fba24", "fusion_lat": 0.0, "is_disabled": 0, "rental_uris": {"ios": "https://dc.lft.to/lastmile_qr_scan", "android": "https://dc.lft.to/lastmile_qr_scan"}}, {"name": "c3636c5675d9adfcd06ee3780ad41584", "lon": -77.00214766666667, "lat": 38.914488166666665, "type": "electric_scooter", "fusion_lon": 0.0, "is_reserved": 0, "bike_id": "c3636c5675d9adfcd06ee3780ad41584", "fusion_lat": 0.0, "is_disabled": 0, "rental_uris": {"ios": "https://dc.lft.to/lastmile_qr_scan", "android": "https://dc.lft.to/lastmile_qr_scan"}}, {"name": "fcf9b8716830708c8dfa2ce71a51cbf4", "lon": -77.02094416666667, "lat": 38.93714683333334, "type": "electric_bike", "fusion_lon": 0.0, "is_reserved": 0, "bike_id": "fcf9b8716830708c8dfa2ce71a51cbf4", "fusion_lat": 0.0, "is_disabled": 0, "rental_uris": {"ios": "https://dc.lft.to/lastmile_qr_scan", "android": "https://dc.lft.to/lastmile_qr_scan"}}, {"name": "202568c43aaedaf925eb12d83c6d0fc1", "lon": -77.0345055, "lat": 38.91012583333333, "type": "electric_scooter", "fusion_lon": 0.0, "is_reserved": 0, "bike_id": "202568c43aaedaf925eb12d83c6d0fc1", "fusion_lat": 0.0, "is_disabled": 0, "rental_uris": {"ios": "https://dc.lft.to/lastmile_qr_scan", "android": "https://dc.lft.to/lastmile_qr_scan"}}, {"name": "2ab961f58d41aaf9c1dd8601ff97f1a7", "lon": -76.9698565, "lat": 38.85616016666667, "type": "electric_scooter", "fusion_lon": 0.0, "is_reserved": 0, "bike_id": "2ab961f58d41aaf9c1dd8601ff97f1a7", "fusion_lat": 0.0, "is_disabled": 0, "rental_uris": {"ios": "https://dc.lft.to/lastmile_qr_scan", "android": "https://dc.lft.to/lastmile_qr_scan"}}, {"name": "190232582ce2d8c29d7a4a0b7050969f", "lon": -77.024199, "lat": 38.95736016666667, "type": "electric_scooter", "fusion_lon": 0.0, "is_reserved": 0, "bike_id": "190232582ce2d8c29d7a4a0b7050969f", "fusion_lat": 0.0, "is_disabled": 0, "rental_uris": {"ios": "https://dc.lft.to/lastmile_qr_scan", "android": "https://dc.lft.to/lastmile_qr_scan"}}, {"name": "df50143414646a7c3912be172ed03c98", "lon": -77.02156166666667, "lat": 38.90167683333333, "type": "electric_scooter", "fusion_lon": 0.0, "is_reserved": 0, "bike_id": "df50143414646a7c3912be172ed03c98", "fusion_lat": 0.0, "is_disabled": 0, "rental_uris": {"ios": "https://dc.lft.to/lastmile_qr_scan", "android": "https://dc.lft.to/lastmile_qr_scan"}}, {"name": "7f94478db5ddd0906018a9fe6b59767a", "lon": -77.03498283333333, "lat": 38.917022833333334, "type": "electric_scooter", "fusion_lon": 0.0, "is_reserved": 0, "bike_id": "7f94478db5ddd0906018a9fe6b59767a", "fusion_lat": 0.0, "is_disabled": 0, "rental_uris": {"ios": "https://dc.lft.to/lastmile_qr_scan", "android": "https://dc.lft.to/lastmile_qr_scan"}}, {"name": "d730656837c65470bdd53064c18a0810", "lon": -76.9463615, "lat": 38.898423333333334, "type": "electric_scooter", "fusion_lon": 0.0, "is_reserved": 0, "bike_id": "d730656837c65470bdd53064c18a0810", "fusion_lat": 0.0, "is_disabled": 0, "rental_uris": {"ios": "https://dc.lft.to/lastmile_qr_scan", "android": "https://dc.lft.to/lastmile_qr_scan"}}, {"name": "ddd9b1964fe593ef1c3bf7fd90869ad8", "lon": -77.0219835, "lat": 38.902041833333335, "type": "electric_scooter", "fusion_lon": 0.0, "is_reserved": 0, "bike_id": "ddd9b1964fe593ef1c3bf7fd90869ad8", "fusion_lat": 0.0, "is_disabled": 0, "rental_uris": {"ios": "https://dc.lft.to/lastmile_qr_scan", "android": "https://dc.lft.to/lastmile_qr_scan"}}, {"name": "8ffb1ff06fec5a27588d63ffd8656a78", "lon": -77.046541, "lat": 38.915885833333334, "type": "electric_scooter", "fusion_lon": 0.0, "is_reserved": 0, "bike_id": "8ffb1ff06fec5a27588d63ffd8656a78", "fusion_lat": 0.0, "is_disabled": 0, "rental_uris": {"ios": "https://dc.lft.to/lastmile_qr_scan", "android": "https://dc.lft.to/lastmile_qr_scan"}}, {"name": "7709f189af992355f6f1be405ce1cd43", "lon": -76.98708, "lat": 38.866998833333334, "type": "electric_scooter", "fusion_lon": 0.0, "is_reserved": 0, "bike_id": "7709f189af992355f6f1be405ce1cd43", "fusion_lat": 0.0, "is_disabled": 0, "rental_uris": {"ios": "https://dc.lft.to/lastmile_qr_scan", "android": "https://dc.lft.to/lastmile_qr_scan"}}, {"name": "ebf73525c0e43e38b78758f4faf764e0", "lon": -77.05119133333334, "lat": 38.89957316666667, "type": "electric_scooter", "fusion_lon": 0.0, "is_reserved": 0, "bike_id": "ebf73525c0e43e38b78758f4faf764e0", "fusion_lat": 0.0, "is_disabled": 0, "rental_uris": {"ios": "https://dc.lft.to/lastmile_qr_scan", "android": "https://dc.lft.to/lastmile_qr_scan"}}, {"name": "bce3c87e2adf21e0f3bba92ea2d0d163", "lon": -77.05405183333333, "lat": 38.9281565, "type": "electric_scooter", "fusion_lon": 0.0, "is_reserved": 0, "bike_id": "bce3c87e2adf21e0f3bba92ea2d0d163", "fusion_lat": 0.0, "is_disabled": 0, "rental_uris": {"ios": "https://dc.lft.to/lastmile_qr_scan", "android": "https://dc.lft.to/lastmile_qr_scan"}}, {"name": "ad53e024da42f7d186ff7c653e5b02d3", "lon": -77.02368616666666, "lat": 38.89220366666667, "type": "electric_scooter", "fusion_lon": 0.0, "is_reserved": 0, "bike_id": "ad53e024da42f7d186ff7c653e5b02d3", "fusion_lat": 0.0, "is_disabled": 0, "rental_uris": {"ios": "https://dc.lft.to/lastmile_qr_scan", "android": "https://dc.lft.to/lastmile_qr_scan"}}, {"name": "2e00705c2284c1d4410ff32cd3f4fbce", "lon": -77.03268666666666, "lat": 38.931521833333335, "type": "electric_scooter", "fusion_lon": 0.0, "is_reserved": 0, "bike_id": "2e00705c2284c1d4410ff32cd3f4fbce", "fusion_lat": 0.0, "is_disabled": 0, "rental_uris": {"ios": "https://dc.lft.to/lastmile_qr_scan", "android": "https://dc.lft.to/lastmile_qr_scan"}}, {"name": "8702ad0d80932fe0dfc8ed58c18f8726", "lon": -76.990624, "lat": 38.86356683333333, "type": "electric_scooter", "fusion_lon": 0.0, "is_reserved": 0, "bike_id": "8702ad0d80932fe0dfc8ed58c18f8726", "fusion_lat": 0.0, "is_disabled": 0, "rental_uris": {"ios": "https://dc.lft.to/lastmile_qr_scan", "android": "https://dc.lft.to/lastmile_qr_scan"}}, {"name": "e01557d951aa284b40d5e061ab5baf3f", "lon": -77.01190183333334, "lat": 38.9154935, "type": "electric_scooter", "fusion_lon": 0.0, "is_reserved": 0, "bike_id": "e01557d951aa284b40d5e061ab5baf3f", "fusion_lat": 0.0, "is_disabled": 0, "rental_uris": {"ios": "https://dc.lft.to/lastmile_qr_scan", "android": "https://dc.lft.to/lastmile_qr_scan"}}, {"name": "d39b1f9b7c78bde35eacd2249c8acd00", "lon": -76.99405983333334, "lat": 38.92091116666667, "type": "electric_scooter", "fusion_lon": 0.0, "is_reserved": 0, "bike_id": "d39b1f9b7c78bde35eacd2249c8acd00", "fusion_lat": 0.0, "is_disabled": 0, "rental_uris": {"ios": "https://dc.lft.to/lastmile_qr_scan", "android": "https://dc.lft.to/lastmile_qr_scan"}}, {"name": "a44ca2023a56469344dee3dfae1b01be", "lon": -76.95365683333333, "lat": 38.89208583333333, "type": "electric_scooter", "fusion_lon": 0.0, "is_reserved": 0, "bike_id": "a44ca2023a56469344dee3dfae1b01be", "fusion_lat": 0.0, "is_disabled": 0, "rental_uris": {"ios": "https://dc.lft.to/lastmile_qr_scan", "android": "https://dc.lft.to/lastmile_qr_scan"}}, {"name": "7c060ce5ee6ed95f48a311f1c139e576", "lon": -77.0271615, "lat": 38.90683033333333, "type": "electric_scooter", "fusion_lon": 0.0, "is_reserved": 0, "bike_id": "7c060ce5ee6ed95f48a311f1c139e576", "fusion_lat": 0.0, "is_disabled": 0, "rental_uris": {"ios": "https://dc.lft.to/lastmile_qr_scan", "android": "https://dc.lft.to/lastmile_qr_scan"}}, {"name": "a51851ae079790cd7a991b6e2be9623f", "lon": -77.008814, "lat": 38.87645633333333, "type": "electric_scooter", "fusion_lon": 0.0, "is_reserved": 0, "bike_id": "a51851ae079790cd7a991b6e2be9623f", "fusion_lat": 0.0, "is_disabled": 0, "rental_uris": {"ios": "https://dc.lft.to/lastmile_qr_scan", "android": "https://dc.lft.to/lastmile_qr_scan"}}, {"name": "836416612bae33af899792fc6d79830c", "lon": -77.10720016666667, "lat": 38.85558116666667, "type": "electric_bike", "fusion_lon": 0.0, "is_reserved": 0, "bike_id": "836416612bae33af899792fc6d79830c", "fusion_lat": 0.0, "is_disabled": 0, "rental_uris": {"ios": "https://dc.lft.to/lastmile_qr_scan", "android": "https://dc.lft.to/lastmile_qr_scan"}}, {"name": "8c95add39272a6b617818767c8643db7", "lon": -77.0359495, "lat": 38.928551666666664, "type": "electric_scooter", "fusion_lon": 0.0, "is_reserved": 0, "bike_id": "8c95add39272a6b617818767c8643db7", "fusion_lat": 0.0, "is_disabled": 0, "rental_uris": {"ios": "https://dc.lft.to/lastmile_qr_scan", "android": "https://dc.lft.to/lastmile_qr_scan"}}, {"name": "34069b9a7395ce744a69d28c64ba70ac", "lon": -77.03537183333333, "lat": 38.92320183333333, "type": "electric_scooter", "fusion_lon": 0.0, "is_reserved": 0, "bike_id": "34069b9a7395ce744a69d28c64ba70ac", "fusion_lat": 0.0, "is_disabled": 0, "rental_uris": {"ios": "https://dc.lft.to/lastmile_qr_scan", "android": "https://dc.lft.to/lastmile_qr_scan"}}, {"name": "56634b036e823a754cedc54a6e6b29b1", "lon": -77.02794466666667, "lat": 38.93081333333333, "type": "electric_scooter", "fusion_lon": 0.0, "is_reserved": 0, "bike_id": "56634b036e823a754cedc54a6e6b29b1", "fusion_lat": 0.0, "is_disabled": 0, "rental_uris": {"ios": "https://dc.lft.to/lastmile_qr_scan", "android": "https://dc.lft.to/lastmile_qr_scan"}}, {"name": "639bbb68c7e9fded689e3eef74a1522f", "lon": -77.0232005, "lat": 38.94092783333333, "type": "electric_scooter", "fusion_lon": 0.0, "is_reserved": 0, "bike_id": "639bbb68c7e9fded689e3eef74a1522f", "fusion_lat": 0.0, "is_disabled": 0, "rental_uris": {"ios": "https://dc.lft.to/lastmile_qr_scan", "android": "https://dc.lft.to/lastmile_qr_scan"}}, {"name": "3578a04ea0928bc0219f0b6d32db69b2", "lon": -76.98987416666667, "lat": 38.864934, "type": "electric_scooter", "fusion_lon": 0.0, "is_reserved": 0, "bike_id": "3578a04ea0928bc0219f0b6d32db69b2", "fusion_lat": 0.0, "is_disabled": 0, "rental_uris": {"ios": "https://dc.lft.to/lastmile_qr_scan", "android": "https://dc.lft.to/lastmile_qr_scan"}}, {"name": "9dab64d40e538f5b76f03fe732f5c160", "lon": -77.0219565, "lat": 38.902156833333336, "type": "electric_scooter", "fusion_lon": 0.0, "is_reserved": 0, "bike_id": "9dab64d40e538f5b76f03fe732f5c160", "fusion_lat": 0.0, "is_disabled": 0, "rental_uris": {"ios": "https://dc.lft.to/lastmile_qr_scan", "android": "https://dc.lft.to/lastmile_qr_scan"}}, {"name": "0df6d4120c6eeb2230267fc361020216", "lon": -77.007688, "lat": 38.92675166666667, "type": "electric_scooter", "fusion_lon": 0.0, "is_reserved": 0, "bike_id": "0df6d4120c6eeb2230267fc361020216", "fusion_lat": 0.0, "is_disabled": 0, "rental_uris": {"ios": "https://dc.lft.to/lastmile_qr_scan", "android": "https://dc.lft.to/lastmile_qr_scan"}}, {"name": "d4486a1a515913b545b5cc959375c5dd", "lon": -77.02165616666667, "lat": 38.8973595, "type": "electric_scooter", "fusion_lon": 0.0, "is_reserved": 0, "bike_id": "d4486a1a515913b545b5cc959375c5dd", "fusion_lat": 0.0, "is_disabled": 0, "rental_uris": {"ios": "https://dc.lft.to/lastmile_qr_scan", "android": "https://dc.lft.to/lastmile_qr_scan"}}, {"name": "c8c94dd0a2f54a847fafce02c14e1ae9", "lon": -77.02294483333333, "lat": 38.916915333333336, "type": "electric_scooter", "fusion_lon": 0.0, "is_reserved": 0, "bike_id": "c8c94dd0a2f54a847fafce02c14e1ae9", "fusion_lat": 0.0, "is_disabled": 0, "rental_uris": {"ios": "https://dc.lft.to/lastmile_qr_scan", "android": "https://dc.lft.to/lastmile_qr_scan"}}, {"name": "b6bfd9894e7c30bf8b82484b6b7f949c", "lon": -77.02981483333333, "lat": 38.90721966666667, "type": "electric_scooter", "fusion_lon": 0.0, "is_reserved": 0, "bike_id": "b6bfd9894e7c30bf8b82484b6b7f949c", "fusion_lat": 0.0, "is_disabled": 0, "rental_uris": {"ios": "https://dc.lft.to/lastmile_qr_scan", "android": "https://dc.lft.to/lastmile_qr_scan"}}, {"name": "b8eb67a035df086a2518b15f7820ba62", "lon": -77.055012, "lat": 38.89985733333333, "type": "electric_scooter", "fusion_lon": 0.0, "is_reserved": 0, "bike_id": "b8eb67a035df086a2518b15f7820ba62", "fusion_lat": 0.0, "is_disabled": 0, "rental_uris": {"ios": "https://dc.lft.to/lastmile_qr_scan", "android": "https://dc.lft.to/lastmile_qr_scan"}}, {"name": "d832498a57eabada3bc3ffa14bd5ca8e", "lon": -77.04190066666666, "lat": 38.92022383333333, "type": "electric_scooter", "fusion_lon": 0.0, "is_reserved": 0, "bike_id": "d832498a57eabada3bc3ffa14bd5ca8e", "fusion_lat": 0.0, "is_disabled": 0, "rental_uris": {"ios": "https://dc.lft.to/lastmile_qr_scan", "android": "https://dc.lft.to/lastmile_qr_scan"}}, {"name": "3bfaea1bf2d2233f332c2fbde35f1f52", "lon": -77.02736616666667, "lat": 38.928501833333335, "type": "electric_scooter", "fusion_lon": 0.0, "is_reserved": 0, "bike_id": "3bfaea1bf2d2233f332c2fbde35f1f52", "fusion_lat": 0.0, "is_disabled": 0, "rental_uris": {"ios": "https://dc.lft.to/lastmile_qr_scan", "android": "https://dc.lft.to/lastmile_qr_scan"}}, {"name": "49ddc224a6a44ad9e6653bfb50105c43", "lon": -77.0008945, "lat": 38.920258, "type": "electric_scooter", "fusion_lon": 0.0, "is_reserved": 0, "bike_id": "49ddc224a6a44ad9e6653bfb50105c43", "fusion_lat": 0.0, "is_disabled": 0, "rental_uris": {"ios": "https://dc.lft.to/lastmile_qr_scan", "android": "https://dc.lft.to/lastmile_qr_scan"}}, {"name": "39e40aceb18f763e5218f31c50d1bbc0", "lon": -77.01762583333333, "lat": 38.876855, "type": "electric_scooter", "fusion_lon": 0.0, "is_reserved": 0, "bike_id": "39e40aceb18f763e5218f31c50d1bbc0", "fusion_lat": 0.0, "is_disabled": 0, "rental_uris": {"ios": "https://dc.lft.to/lastmile_qr_scan", "android": "https://dc.lft.to/lastmile_qr_scan"}}, {"name": "053181dea0f642fced9abd6864f20b26", "lon": -77.03836066666666, "lat": 38.9144725, "type": "electric_scooter", "fusion_lon": 0.0, "is_reserved": 0, "bike_id": "053181dea0f642fced9abd6864f20b26", "fusion_lat": 0.0, "is_disabled": 0, "rental_uris": {"ios": "https://dc.lft.to/lastmile_qr_scan", "android": "https://dc.lft.to/lastmile_qr_scan"}}, {"name": "2ebf77744ad2a2b08ea70c6409c4c698", "lon": -77.050039, "lat": 38.89236866666667, "type": "electric_scooter", "fusion_lon": 0.0, "is_reserved": 0, "bike_id": "2ebf77744ad2a2b08ea70c6409c4c698", "fusion_lat": 0.0, "is_disabled": 0, "rental_uris": {"ios": "https://dc.lft.to/lastmile_qr_scan", "android": "https://dc.lft.to/lastmile_qr_scan"}}, {"name": "6ffa69fec5a2ee2c9e0c8e7d8033c684", "lon": -76.99300516666666, "lat": 38.900226833333335, "type": "electric_scooter", "fusion_lon": 0.0, "is_reserved": 0, "bike_id": "6ffa69fec5a2ee2c9e0c8e7d8033c684", "fusion_lat": 0.0, "is_disabled": 0, "rental_uris": {"ios": "https://dc.lft.to/lastmile_qr_scan", "android": "https://dc.lft.to/lastmile_qr_scan"}}, {"name": "39b02033d8365ac1b82fe3ebb1980e6b", "lon": -77.01408766666667, "lat": 38.8874325, "type": "electric_scooter", "fusion_lon": 0.0, "is_reserved": 0, "bike_id": "39b02033d8365ac1b82fe3ebb1980e6b", "fusion_lat": 0.0, "is_disabled": 0, "rental_uris": {"ios": "https://dc.lft.to/lastmile_qr_scan", "android": "https://dc.lft.to/lastmile_qr_scan"}}, {"name": "1bd9a0df7d655185effe3c087b4feae7", "lon": -77.0375855, "lat": 38.9169095, "type": "electric_scooter", "fusion_lon": 0.0, "is_reserved": 0, "bike_id": "1bd9a0df7d655185effe3c087b4feae7", "fusion_lat": 0.0, "is_disabled": 0, "rental_uris": {"ios": "https://dc.lft.to/lastmile_qr_scan", "android": "https://dc.lft.to/lastmile_qr_scan"}}, {"name": "1d8d97a206ba5a705579446ab668c7cf", "lon": -77.03650183333333, "lat": 38.90383116666667, "type": "electric_scooter", "fusion_lon": 0.0, "is_reserved": 0, "bike_id": "1d8d97a206ba5a705579446ab668c7cf", "fusion_lat": 0.0, "is_disabled": 0, "rental_uris": {"ios": "https://dc.lft.to/lastmile_qr_scan", "android": "https://dc.lft.to/lastmile_qr_scan"}}, {"name": "c2f5833be5d086e0112fc9dfb852ed24", "lon": -77.094734, "lat": 38.88617, "type": "electric_bike", "fusion_lon": 0.0, "is_reserved": 0, "bike_id": "c2f5833be5d086e0112fc9dfb852ed24", "fusion_lat": 0.0, "is_disabled": 0, "rental_uris": {"ios": "https://dc.lft.to/lastmile_qr_scan", "android": "https://dc.lft.to/lastmile_qr_scan"}}, {"name": "67767af596d789ea05c9ef4c62ae913f", "lon": -77.0268445, "lat": 38.90232433333333, "type": "electric_scooter", "fusion_lon": 0.0, "is_reserved": 0, "bike_id": "67767af596d789ea05c9ef4c62ae913f", "fusion_lat": 0.0, "is_disabled": 0, "rental_uris": {"ios": "https://dc.lft.to/lastmile_qr_scan", "android": "https://dc.lft.to/lastmile_qr_scan"}}, {"name": "77023c5a05f162b183d6241239a3bd85", "lon": -76.93729533333334, "lat": 38.89011566666667, "type": "electric_scooter", "fusion_lon": 0.0, "is_reserved": 0, "bike_id": "77023c5a05f162b183d6241239a3bd85", "fusion_lat": 0.0, "is_disabled": 0, "rental_uris": {"ios": "https://dc.lft.to/lastmile_qr_scan", "android": "https://dc.lft.to/lastmile_qr_scan"}}, {"name": "5f40dfd906d65650082662ddd7618670", "lon": -77.03544383333333, "lat": 38.907630833333336, "type": "electric_scooter", "fusion_lon": 0.0, "is_reserved": 0, "bike_id": "5f40dfd906d65650082662ddd7618670", "fusion_lat": 0.0, "is_disabled": 0, "rental_uris": {"ios": "https://dc.lft.to/lastmile_qr_scan", "android": "https://dc.lft.to/lastmile_qr_scan"}}, {"name": "b19773bc836891cfa92175ab05a68ecf", "lon": -77.0289455, "lat": 38.887472833333334, "type": "electric_scooter", "fusion_lon": 0.0, "is_reserved": 0, "bike_id": "b19773bc836891cfa92175ab05a68ecf", "fusion_lat": 0.0, "is_disabled": 0, "rental_uris": {"ios": "https://dc.lft.to/lastmile_qr_scan", "android": "https://dc.lft.to/lastmile_qr_scan"}}, {"name": "16150fba2572af11d610ce47eb6d8170", "lon": -77.0412785, "lat": 38.92177983333333, "type": "electric_scooter", "fusion_lon": 0.0, "is_reserved": 0, "bike_id": "16150fba2572af11d610ce47eb6d8170", "fusion_lat": 0.0, "is_disabled": 0, "rental_uris": {"ios": "https://dc.lft.to/lastmile_qr_scan", "android": "https://dc.lft.to/lastmile_qr_scan"}}, {"name": "08514ecdfe68a6af9cc8f2486f2abaa8", "lon": -77.03259066666666, "lat": 38.92760083333334, "type": "electric_scooter", "fusion_lon": 0.0, "is_reserved": 0, "bike_id": "08514ecdfe68a6af9cc8f2486f2abaa8", "fusion_lat": 0.0, "is_disabled": 0, "rental_uris": {"ios": "https://dc.lft.to/lastmile_qr_scan", "android": "https://dc.lft.to/lastmile_qr_scan"}}, {"name": "c5d9aadeac680094f61f6d1b268b030c", "lon": -77.003414, "lat": 38.8898055, "type": "electric_scooter", "fusion_lon": 0.0, "is_reserved": 0, "bike_id": "c5d9aadeac680094f61f6d1b268b030c", "fusion_lat": 0.0, "is_disabled": 0, "rental_uris": {"ios": "https://dc.lft.to/lastmile_qr_scan", "android": "https://dc.lft.to/lastmile_qr_scan"}}, {"name": "72e3e8dbac9843ad2ed4aa97d9d2ac17", "lon": -77.02198083333333, "lat": 38.911229, "type": "electric_scooter", "fusion_lon": 0.0, "is_reserved": 0, "bike_id": "72e3e8dbac9843ad2ed4aa97d9d2ac17", "fusion_lat": 0.0, "is_disabled": 0, "rental_uris": {"ios": "https://dc.lft.to/lastmile_qr_scan", "android": "https://dc.lft.to/lastmile_qr_scan"}}, {"name": "8a15ead13916275de50f179668f14b97", "lon": -76.98843783333334, "lat": 38.90033016666667, "type": "electric_scooter", "fusion_lon": 0.0, "is_reserved": 0, "bike_id": "8a15ead13916275de50f179668f14b97", "fusion_lat": 0.0, "is_disabled": 0, "rental_uris": {"ios": "https://dc.lft.to/lastmile_qr_scan", "android": "https://dc.lft.to/lastmile_qr_scan"}}, {"name": "9e0a49e3db7c20fab310fd006a970461", "lon": -77.02363616666666, "lat": 38.90220583333333, "type": "electric_scooter", "fusion_lon": 0.0, "is_reserved": 0, "bike_id": "9e0a49e3db7c20fab310fd006a970461", "fusion_lat": 0.0, "is_disabled": 0, "rental_uris": {"ios": "https://dc.lft.to/lastmile_qr_scan", "android": "https://dc.lft.to/lastmile_qr_scan"}}, {"name": "d64cf44c28fdc65a659aecc8f3dd5b80", "lon": -77.04183133333333, "lat": 38.892215666666665, "type": "electric_scooter", "fusion_lon": 0.0, "is_reserved": 0, "bike_id": "d64cf44c28fdc65a659aecc8f3dd5b80", "fusion_lat": 0.0, "is_disabled": 0, "rental_uris": {"ios": "https://dc.lft.to/lastmile_qr_scan", "android": "https://dc.lft.to/lastmile_qr_scan"}}, {"name": "59cd55179fc263985b6c72671c5bad86", "lon": -77.04645883333333, "lat": 38.905548, "type": "electric_scooter", "fusion_lon": 0.0, "is_reserved": 0, "bike_id": "59cd55179fc263985b6c72671c5bad86", "fusion_lat": 0.0, "is_disabled": 0, "rental_uris": {"ios": "https://dc.lft.to/lastmile_qr_scan", "android": "https://dc.lft.to/lastmile_qr_scan"}}, {"name": "b388099e85cabc04c951fbdc852fb07e", "lon": -77.03831933333333, "lat": 38.92156683333333, "type": "electric_scooter", "fusion_lon": 0.0, "is_reserved": 0, "bike_id": "b388099e85cabc04c951fbdc852fb07e", "fusion_lat": 0.0, "is_disabled": 0, "rental_uris": {"ios": "https://dc.lft.to/lastmile_qr_scan", "android": "https://dc.lft.to/lastmile_qr_scan"}}, {"name": "b6986e689ec23a0b5a77b411bb3d134d", "lon": -77.03247166666667, "lat": 38.929587166666664, "type": "electric_scooter", "fusion_lon": 0.0, "is_reserved": 0, "bike_id": "b6986e689ec23a0b5a77b411bb3d134d", "fusion_lat": 0.0, "is_disabled": 0, "rental_uris": {"ios": "https://dc.lft.to/lastmile_qr_scan", "android": "https://dc.lft.to/lastmile_qr_scan"}}, {"name": "b10df51f7ec4bda567eadbaff9b7ea66", "lon": -77.0312635, "lat": 38.91558933333334, "type": "electric_scooter", "fusion_lon": 0.0, "is_reserved": 0, "bike_id": "b10df51f7ec4bda567eadbaff9b7ea66", "fusion_lat": 0.0, "is_disabled": 0, "rental_uris": {"ios": "https://dc.lft.to/lastmile_qr_scan", "android": "https://dc.lft.to/lastmile_qr_scan"}}, {"name": "d2cea7a07b3f84241caecee9dbdc10c8", "lon": -77.03152916666667, "lat": 38.911825666666665, "type": "electric_scooter", "fusion_lon": 0.0, "is_reserved": 0, "bike_id": "d2cea7a07b3f84241caecee9dbdc10c8", "fusion_lat": 0.0, "is_disabled": 0, "rental_uris": {"ios": "https://dc.lft.to/lastmile_qr_scan", "android": "https://dc.lft.to/lastmile_qr_scan"}}, {"name": "5f0df9671a368198baa9e9dd2bb5f61e", "lon": -77.03938566666666, "lat": 38.914135, "type": "electric_scooter", "fusion_lon": 0.0, "is_reserved": 0, "bike_id": "5f0df9671a368198baa9e9dd2bb5f61e", "fusion_lat": 0.0, "is_disabled": 0, "rental_uris": {"ios": "https://dc.lft.to/lastmile_qr_scan", "android": "https://dc.lft.to/lastmile_qr_scan"}}, {"name": "ee9afd0c205896e3a17c098ff1a448d5", "lon": -77.0204695, "lat": 38.915583166666664, "type": "electric_scooter", "fusion_lon": 0.0, "is_reserved": 0, "bike_id": "ee9afd0c205896e3a17c098ff1a448d5", "fusion_lat": 0.0, "is_disabled": 0, "rental_uris": {"ios": "https://dc.lft.to/lastmile_qr_scan", "android": "https://dc.lft.to/lastmile_qr_scan"}}, {"name": "7695843b83d8b32232370a7c7537258d", "lon": -77.0341115, "lat": 38.920435, "type": "electric_scooter", "fusion_lon": 0.0, "is_reserved": 0, "bike_id": "7695843b83d8b32232370a7c7537258d", "fusion_lat": 0.0, "is_disabled": 0, "rental_uris": {"ios": "https://dc.lft.to/lastmile_qr_scan", "android": "https://dc.lft.to/lastmile_qr_scan"}}, {"name": "212e46776fa8fea3b25af2846c6f394f", "lon": -77.0321555, "lat": 38.936173, "type": "electric_scooter", "fusion_lon": 0.0, "is_reserved": 0, "bike_id": "212e46776fa8fea3b25af2846c6f394f", "fusion_lat": 0.0, "is_disabled": 0, "rental_uris": {"ios": "https://dc.lft.to/lastmile_qr_scan", "android": "https://dc.lft.to/lastmile_qr_scan"}}, {"name": "13f9f2ec79ec6825ce9a41d471b845a5", "lon": -77.02158816666666, "lat": 38.926115, "type": "electric_scooter", "fusion_lon": 0.0, "is_reserved": 0, "bike_id": "13f9f2ec79ec6825ce9a41d471b845a5", "fusion_lat": 0.0, "is_disabled": 0, "rental_uris": {"ios": "https://dc.lft.to/lastmile_qr_scan", "android": "https://dc.lft.to/lastmile_qr_scan"}}, {"name": "25a730c1b473a9f182345c280202e13d", "lon": -76.95017366666667, "lat": 38.8938865, "type": "electric_scooter", "fusion_lon": 0.0, "is_reserved": 0, "bike_id": "25a730c1b473a9f182345c280202e13d", "fusion_lat": 0.0, "is_disabled": 0, "rental_uris": {"ios": "https://dc.lft.to/lastmile_qr_scan", "android": "https://dc.lft.to/lastmile_qr_scan"}}, {"name": "aae10d5692a32cdd1088e2616b2a5b24", "lon": -77.03584766666667, "lat": 38.92807033333333, "type": "electric_scooter", "fusion_lon": 0.0, "is_reserved": 0, "bike_id": "aae10d5692a32cdd1088e2616b2a5b24", "fusion_lat": 0.0, "is_disabled": 0, "rental_uris": {"ios": "https://dc.lft.to/lastmile_qr_scan", "android": "https://dc.lft.to/lastmile_qr_scan"}}, {"name": "6707cf6440c7bf98f41f8ae1ec40469f", "lon": -77.03469866666667, "lat": 38.920586166666666, "type": "electric_scooter", "fusion_lon": 0.0, "is_reserved": 0, "bike_id": "6707cf6440c7bf98f41f8ae1ec40469f", "fusion_lat": 0.0, "is_disabled": 0, "rental_uris": {"ios": "https://dc.lft.to/lastmile_qr_scan", "android": "https://dc.lft.to/lastmile_qr_scan"}}, {"name": "535976b26763a40a8521d63d045cf312", "lon": -77.02708433333333, "lat": 38.92458666666667, "type": "electric_scooter", "fusion_lon": 0.0, "is_reserved": 0, "bike_id": "535976b26763a40a8521d63d045cf312", "fusion_lat": 0.0, "is_disabled": 0, "rental_uris": {"ios": "https://dc.lft.to/lastmile_qr_scan", "android": "https://dc.lft.to/lastmile_qr_scan"}}, {"name": "3eb15eea28ca02a3036fe244b6ae286d", "lon": -76.98824333333333, "lat": 38.900290166666665, "type": "electric_scooter", "fusion_lon": 0.0, "is_reserved": 0, "bike_id": "3eb15eea28ca02a3036fe244b6ae286d", "fusion_lat": 0.0, "is_disabled": 0, "rental_uris": {"ios": "https://dc.lft.to/lastmile_qr_scan", "android": "https://dc.lft.to/lastmile_qr_scan"}}, {"name": "523bd495cdf7d452298f6986c64a59ef", "lon": -77.041296, "lat": 38.92315966666666, "type": "electric_scooter", "fusion_lon": 0.0, "is_reserved": 0, "bike_id": "523bd495cdf7d452298f6986c64a59ef", "fusion_lat": 0.0, "is_disabled": 0, "rental_uris": {"ios": "https://dc.lft.to/lastmile_qr_scan", "android": "https://dc.lft.to/lastmile_qr_scan"}}, {"name": "5b49574614589b571fde5bd244c6c10e", "lon": -77.016551, "lat": 38.8812825, "type": "electric_scooter", "fusion_lon": 0.0, "is_reserved": 0, "bike_id": "5b49574614589b571fde5bd244c6c10e", "fusion_lat": 0.0, "is_disabled": 0, "rental_uris": {"ios": "https://dc.lft.to/lastmile_qr_scan", "android": "https://dc.lft.to/lastmile_qr_scan"}}, {"name": "79983bfb4637fe265f61c3ef3e996838", "lon": -77.0272465, "lat": 38.94084083333333, "type": "electric_scooter", "fusion_lon": 0.0, "is_reserved": 0, "bike_id": "79983bfb4637fe265f61c3ef3e996838", "fusion_lat": 0.0, "is_disabled": 0, "rental_uris": {"ios": "https://dc.lft.to/lastmile_qr_scan", "android": "https://dc.lft.to/lastmile_qr_scan"}}, {"name": "84b233a7296872061b28d906128b8b4c", "lon": -77.0499815, "lat": 38.892304833333334, "type": "electric_scooter", "fusion_lon": 0.0, "is_reserved": 0, "bike_id": "84b233a7296872061b28d906128b8b4c", "fusion_lat": 0.0, "is_disabled": 0, "rental_uris": {"ios": "https://dc.lft.to/lastmile_qr_scan", "android": "https://dc.lft.to/lastmile_qr_scan"}}, {"name": "f00f0ba93304c06e83b4861236eb2611", "lon": -77.10087433333334, "lat": 38.959557833333335, "type": "electric_bike", "fusion_lon": 0.0, "is_reserved": 0, "bike_id": "f00f0ba93304c06e83b4861236eb2611", "fusion_lat": 0.0, "is_disabled": 0, "rental_uris": {"ios": "https://dc.lft.to/lastmile_qr_scan", "android": "https://dc.lft.to/lastmile_qr_scan"}}, {"name": "0474f003dec062bd5b323e24456f6e64", "lon": -77.0378545, "lat": 38.924775, "type": "electric_scooter", "fusion_lon": 0.0, "is_reserved": 0, "bike_id": "0474f003dec062bd5b323e24456f6e64", "fusion_lat": 0.0, "is_disabled": 0, "rental_uris": {"ios": "https://dc.lft.to/lastmile_qr_scan", "android": "https://dc.lft.to/lastmile_qr_scan"}}, {"name": "63452115546ba9f70a66dc0e619c9eae", "lon": -77.001327, "lat": 38.905097, "type": "electric_scooter", "fusion_lon": 0.0, "is_reserved": 0, "bike_id": "63452115546ba9f70a66dc0e619c9eae", "fusion_lat": 0.0, "is_disabled": 0, "rental_uris": {"ios": "https://dc.lft.to/lastmile_qr_scan", "android": "https://dc.lft.to/lastmile_qr_scan"}}, {"name": "6315f176a03c40ce0bbb6dccf9678bb5", "lon": -77.02365133333333, "lat": 38.925144833333334, "type": "electric_scooter", "fusion_lon": 0.0, "is_reserved": 0, "bike_id": "6315f176a03c40ce0bbb6dccf9678bb5", "fusion_lat": 0.0, "is_disabled": 0, "rental_uris": {"ios": "https://dc.lft.to/lastmile_qr_scan", "android": "https://dc.lft.to/lastmile_qr_scan"}}, {"name": "63848966bf61faebf3e0a1f3a389369b", "lon": -76.99791216666667, "lat": 38.900042, "type": "electric_scooter", "fusion_lon": 0.0, "is_reserved": 0, "bike_id": "63848966bf61faebf3e0a1f3a389369b", "fusion_lat": 0.0, "is_disabled": 0, "rental_uris": {"ios": "https://dc.lft.to/lastmile_qr_scan", "android": "https://dc.lft.to/lastmile_qr_scan"}}, {"name": "50c0f5992bd83d4f4853eeecd069f23c", "lon": -77.03585716666667, "lat": 38.91270766666667, "type": "electric_scooter", "fusion_lon": 0.0, "is_reserved": 0, "bike_id": "50c0f5992bd83d4f4853eeecd069f23c", "fusion_lat": 0.0, "is_disabled": 0, "rental_uris": {"ios": "https://dc.lft.to/lastmile_qr_scan", "android": "https://dc.lft.to/lastmile_qr_scan"}}, {"name": "b8beb5bf741703453011c1f80913fa31", "lon": -76.9778945, "lat": 38.88864566666667, "type": "electric_bike", "fusion_lon": 0.0, "is_reserved": 0, "bike_id": "b8beb5bf741703453011c1f80913fa31", "fusion_lat": 0.0, "is_disabled": 0, "rental_uris": {"ios": "https://dc.lft.to/lastmile_qr_scan", "android": "https://dc.lft.to/lastmile_qr_scan"}}, {"name": "e96ed9836084bb8ef4c9f3acc97154c4", "lon": -76.98978633333333, "lat": 38.86516683333333, "type": "electric_scooter", "fusion_lon": 0.0, "is_reserved": 0, "bike_id": "e96ed9836084bb8ef4c9f3acc97154c4", "fusion_lat": 0.0, "is_disabled": 0, "rental_uris": {"ios": "https://dc.lft.to/lastmile_qr_scan", "android": "https://dc.lft.to/lastmile_qr_scan"}}, {"name": "ef5e49c9517478948b4e634678de2fc6", "lon": -77.026824, "lat": 38.912675166666666, "type": "electric_scooter", "fusion_lon": 0.0, "is_reserved": 0, "bike_id": "ef5e49c9517478948b4e634678de2fc6", "fusion_lat": 0.0, "is_disabled": 0, "rental_uris": {"ios": "https://dc.lft.to/lastmile_qr_scan", "android": "https://dc.lft.to/lastmile_qr_scan"}}, {"name": "ce683a0809f5e808da312523d92f37d8", "lon": -77.0515185, "lat": 38.90536733333333, "type": "electric_scooter", "fusion_lon": 0.0, "is_reserved": 0, "bike_id": "ce683a0809f5e808da312523d92f37d8", "fusion_lat": 0.0, "is_disabled": 0, "rental_uris": {"ios": "https://dc.lft.to/lastmile_qr_scan", "android": "https://dc.lft.to/lastmile_qr_scan"}}, {"name": "67177bf23c9924aa6996a3012b250e54", "lon": -77.02300683333333, "lat": 38.9179035, "type": "electric_scooter", "fusion_lon": 0.0, "is_reserved": 0, "bike_id": "67177bf23c9924aa6996a3012b250e54", "fusion_lat": 0.0, "is_disabled": 0, "rental_uris": {"ios": "https://dc.lft.to/lastmile_qr_scan", "android": "https://dc.lft.to/lastmile_qr_scan"}}, {"name": "71fa596585ac2fa252d2c53f8a41d945", "lon": -77.081937, "lat": 38.85568133333334, "type": "electric_bike", "fusion_lon": 0.0, "is_reserved": 0, "bike_id": "71fa596585ac2fa252d2c53f8a41d945", "fusion_lat": 0.0, "is_disabled": 0, "rental_uris": {"ios": "https://dc.lft.to/lastmile_qr_scan", "android": "https://dc.lft.to/lastmile_qr_scan"}}, {"name": "28365c4fd71384ff1c1b18379c1b5d45", "lon": -76.98716066666667, "lat": 38.866251, "type": "electric_scooter", "fusion_lon": 0.0, "is_reserved": 0, "bike_id": "28365c4fd71384ff1c1b18379c1b5d45", "fusion_lat": 0.0, "is_disabled": 0, "rental_uris": {"ios": "https://dc.lft.to/lastmile_qr_scan", "android": "https://dc.lft.to/lastmile_qr_scan"}}, {"name": "14f2c4ce9bea58d92abd7a1cb8dee283", "lon": -76.9518555, "lat": 38.907404666666665, "type": "electric_scooter", "fusion_lon": 0.0, "is_reserved": 0, "bike_id": "14f2c4ce9bea58d92abd7a1cb8dee283", "fusion_lat": 0.0, "is_disabled": 0, "rental_uris": {"ios": "https://dc.lft.to/lastmile_qr_scan", "android": "https://dc.lft.to/lastmile_qr_scan"}}, {"name": "54a148280d955f68e729a92637b549af", "lon": -76.98826883333334, "lat": 38.90043433333334, "type": "electric_scooter", "fusion_lon": 0.0, "is_reserved": 0, "bike_id": "54a148280d955f68e729a92637b549af", "fusion_lat": 0.0, "is_disabled": 0, "rental_uris": {"ios": "https://dc.lft.to/lastmile_qr_scan", "android": "https://dc.lft.to/lastmile_qr_scan"}}, {"name": "b669b3f62c61bba2c92a0226e314864b", "lon": -77.00349066666666, "lat": 38.8870685, "type": "electric_scooter", "fusion_lon": 0.0, "is_reserved": 0, "bike_id": "b669b3f62c61bba2c92a0226e314864b", "fusion_lat": 0.0, "is_disabled": 0, "rental_uris": {"ios": "https://dc.lft.to/lastmile_qr_scan", "android": "https://dc.lft.to/lastmile_qr_scan"}}, {"name": "d1e936291cba74907df3434eb6f1cd46", "lon": -76.995987, "lat": 38.88573516666666, "type": "electric_scooter", "fusion_lon": 0.0, "is_reserved": 0, "bike_id": "d1e936291cba74907df3434eb6f1cd46", "fusion_lat": 0.0, "is_disabled": 0, "rental_uris": {"ios": "https://dc.lft.to/lastmile_qr_scan", "android": "https://dc.lft.to/lastmile_qr_scan"}}, {"name": "09a108fa80f50e88150ef5e0ef4feedb", "lon": -77.00499216666667, "lat": 38.896869333333335, "type": "electric_scooter", "fusion_lon": 0.0, "is_reserved": 0, "bike_id": "09a108fa80f50e88150ef5e0ef4feedb", "fusion_lat": 0.0, "is_disabled": 0, "rental_uris": {"ios": "https://dc.lft.to/lastmile_qr_scan", "android": "https://dc.lft.to/lastmile_qr_scan"}}, {"name": "38c087ec9e20731d73e289f87caf46fb", "lon": -76.92329816666667, "lat": 38.871089833333336, "type": "electric_bike", "fusion_lon": 0.0, "is_reserved": 0, "bike_id": "38c087ec9e20731d73e289f87caf46fb", "fusion_lat": 0.0, "is_disabled": 0, "rental_uris": {"ios": "https://dc.lft.to/lastmile_qr_scan", "android": "https://dc.lft.to/lastmile_qr_scan"}}, {"name": "d00c75205283c46c04099992403b8f54", "lon": -77.007742, "lat": 38.9266855, "type": "electric_scooter", "fusion_lon": 0.0, "is_reserved": 0, "bike_id": "d00c75205283c46c04099992403b8f54", "fusion_lat": 0.0, "is_disabled": 0, "rental_uris": {"ios": "https://dc.lft.to/lastmile_qr_scan", "android": "https://dc.lft.to/lastmile_qr_scan"}}, {"name": "45dd0cb9afb0134e34813692e96bd54a", "lon": -77.02344933333333, "lat": 38.94613966666667, "type": "electric_scooter", "fusion_lon": 0.0, "is_reserved": 0, "bike_id": "45dd0cb9afb0134e34813692e96bd54a", "fusion_lat": 0.0, "is_disabled": 0, "rental_uris": {"ios": "https://dc.lft.to/lastmile_qr_scan", "android": "https://dc.lft.to/lastmile_qr_scan"}}, {"name": "5b1939ea2b50856781334fab208acad5", "lon": -77.02488216666667, "lat": 38.941829166666665, "type": "electric_scooter", "fusion_lon": 0.0, "is_reserved": 0, "bike_id": "5b1939ea2b50856781334fab208acad5", "fusion_lat": 0.0, "is_disabled": 0, "rental_uris": {"ios": "https://dc.lft.to/lastmile_qr_scan", "android": "https://dc.lft.to/lastmile_qr_scan"}}, {"name": "86176c8adf16ac27009e9d66ff1af276", "lon": -77.02802933333334, "lat": 38.93297466666667, "type": "electric_scooter", "fusion_lon": 0.0, "is_reserved": 0, "bike_id": "86176c8adf16ac27009e9d66ff1af276", "fusion_lat": 0.0, "is_disabled": 0, "rental_uris": {"ios": "https://dc.lft.to/lastmile_qr_scan", "android": "https://dc.lft.to/lastmile_qr_scan"}}, {"name": "4a19e12458f78c487373962abef42926", "lon": -76.99872816666667, "lat": 38.900332666666664, "type": "electric_scooter", "fusion_lon": 0.0, "is_reserved": 0, "bike_id": "4a19e12458f78c487373962abef42926", "fusion_lat": 0.0, "is_disabled": 0, "rental_uris": {"ios": "https://dc.lft.to/lastmile_qr_scan", "android": "https://dc.lft.to/lastmile_qr_scan"}}, {"name": "b5e78f0414aeadbab3e408498d5f10c4", "lon": -77.0519355, "lat": 38.903818, "type": "electric_scooter", "fusion_lon": 0.0, "is_reserved": 0, "bike_id": "b5e78f0414aeadbab3e408498d5f10c4", "fusion_lat": 0.0, "is_disabled": 0, "rental_uris": {"ios": "https://dc.lft.to/lastmile_qr_scan", "android": "https://dc.lft.to/lastmile_qr_scan"}}, {"name": "232816741e30e2a398e3bc04d25db911", "lon": -77.0286205, "lat": 38.90441883333333, "type": "electric_scooter", "fusion_lon": 0.0, "is_reserved": 0, "bike_id": "232816741e30e2a398e3bc04d25db911", "fusion_lat": 0.0, "is_disabled": 0, "rental_uris": {"ios": "https://dc.lft.to/lastmile_qr_scan", "android": "https://dc.lft.to/lastmile_qr_scan"}}, {"name": "d79d6f1d3da5f48fc951a02b0438863d", "lon": -76.94424716666667, "lat": 38.966209, "type": "electric_bike", "fusion_lon": 0.0, "is_reserved": 0, "bike_id": "d79d6f1d3da5f48fc951a02b0438863d", "fusion_lat": 0.0, "is_disabled": 0, "rental_uris": {"ios": "https://dc.lft.to/lastmile_qr_scan", "android": "https://dc.lft.to/lastmile_qr_scan"}}, {"name": "b7a258f6f4f0e93f566104bfd97ba161", "lon": -77.02392433333333, "lat": 38.91744883333333, "type": "electric_scooter", "fusion_lon": 0.0, "is_reserved": 0, "bike_id": "b7a258f6f4f0e93f566104bfd97ba161", "fusion_lat": 0.0, "is_disabled": 0, "rental_uris": {"ios": "https://dc.lft.to/lastmile_qr_scan", "android": "https://dc.lft.to/lastmile_qr_scan"}}, {"name": "e536e9f643e3883147f0ed0734a6f5d5", "lon": -77.033667, "lat": 38.928818166666666, "type": "electric_scooter", "fusion_lon": 0.0, "is_reserved": 0, "bike_id": "e536e9f643e3883147f0ed0734a6f5d5", "fusion_lat": 0.0, "is_disabled": 0, "rental_uris": {"ios": "https://dc.lft.to/lastmile_qr_scan", "android": "https://dc.lft.to/lastmile_qr_scan"}}, {"name": "0def7a5035d692acd25775c93e0e4b45", "lon": -77.02418133333333, "lat": 38.92183566666667, "type": "electric_scooter", "fusion_lon": 0.0, "is_reserved": 0, "bike_id": "0def7a5035d692acd25775c93e0e4b45", "fusion_lat": 0.0, "is_disabled": 0, "rental_uris": {"ios": "https://dc.lft.to/lastmile_qr_scan", "android": "https://dc.lft.to/lastmile_qr_scan"}}, {"name": "904c19bb629b6469f5cc98d0fdaaea46", "lon": -77.05132283333333, "lat": 38.90714583333333, "type": "electric_scooter", "fusion_lon": 0.0, "is_reserved": 0, "bike_id": "904c19bb629b6469f5cc98d0fdaaea46", "fusion_lat": 0.0, "is_disabled": 0, "rental_uris": {"ios": "https://dc.lft.to/lastmile_qr_scan", "android": "https://dc.lft.to/lastmile_qr_scan"}}, {"name": "816f613d9130aa9ef023ec2d9e287f15", "lon": -76.986914, "lat": 38.8625705, "type": "electric_scooter", "fusion_lon": 0.0, "is_reserved": 0, "bike_id": "816f613d9130aa9ef023ec2d9e287f15", "fusion_lat": 0.0, "is_disabled": 0, "rental_uris": {"ios": "https://dc.lft.to/lastmile_qr_scan", "android": "https://dc.lft.to/lastmile_qr_scan"}}, {"name": "6a0de91108e72350a3999badb2a9e8ce", "lon": -77.02279866666667, "lat": 38.909599666666665, "type": "electric_scooter", "fusion_lon": 0.0, "is_reserved": 0, "bike_id": "6a0de91108e72350a3999badb2a9e8ce", "fusion_lat": 0.0, "is_disabled": 0, "rental_uris": {"ios": "https://dc.lft.to/lastmile_qr_scan", "android": "https://dc.lft.to/lastmile_qr_scan"}}, {"name": "10637a680aabed19ce28429ac38b3d90", "lon": -77.03452583333333, "lat": 38.90815383333333, "type": "electric_scooter", "fusion_lon": 0.0, "is_reserved": 0, "bike_id": "10637a680aabed19ce28429ac38b3d90", "fusion_lat": 0.0, "is_disabled": 0, "rental_uris": {"ios": "https://dc.lft.to/lastmile_qr_scan", "android": "https://dc.lft.to/lastmile_qr_scan"}}, {"name": "9bf77627b1e7e79d17045763a79b4c21", "lon": -77.001969, "lat": 38.895414333333335, "type": "electric_scooter", "fusion_lon": 0.0, "is_reserved": 0, "bike_id": "9bf77627b1e7e79d17045763a79b4c21", "fusion_lat": 0.0, "is_disabled": 0, "rental_uris": {"ios": "https://dc.lft.to/lastmile_qr_scan", "android": "https://dc.lft.to/lastmile_qr_scan"}}, {"name": "9a54b7e06d691e1f30303007ab2888c0", "lon": -77.058601, "lat": 38.93606483333333, "type": "electric_scooter", "fusion_lon": 0.0, "is_reserved": 0, "bike_id": "9a54b7e06d691e1f30303007ab2888c0", "fusion_lat": 0.0, "is_disabled": 0, "rental_uris": {"ios": "https://dc.lft.to/lastmile_qr_scan", "android": "https://dc.lft.to/lastmile_qr_scan"}}, {"name": "e95089063288359adcc897c14decd48b", "lon": -77.02709416666667, "lat": 38.916706833333336, "type": "electric_scooter", "fusion_lon": 0.0, "is_reserved": 0, "bike_id": "e95089063288359adcc897c14decd48b", "fusion_lat": 0.0, "is_disabled": 0, "rental_uris": {"ios": "https://dc.lft.to/lastmile_qr_scan", "android": "https://dc.lft.to/lastmile_qr_scan"}}, {"name": "709edb28c2f8ddb5638a188a43a2ec60", "lon": -77.02972733333333, "lat": 38.92201566666667, "type": "electric_scooter", "fusion_lon": 0.0, "is_reserved": 0, "bike_id": "709edb28c2f8ddb5638a188a43a2ec60", "fusion_lat": 0.0, "is_disabled": 0, "rental_uris": {"ios": "https://dc.lft.to/lastmile_qr_scan", "android": "https://dc.lft.to/lastmile_qr_scan"}}, {"name": "634024b1de9acd8692bededdd3490aa8", "lon": -76.99365533333334, "lat": 38.928375, "type": "electric_scooter", "fusion_lon": 0.0, "is_reserved": 0, "bike_id": "634024b1de9acd8692bededdd3490aa8", "fusion_lat": 0.0, "is_disabled": 0, "rental_uris": {"ios": "https://dc.lft.to/lastmile_qr_scan", "android": "https://dc.lft.to/lastmile_qr_scan"}}, {"name": "a0f863b30edea6b9e62ef8169ad537c4", "lon": -77.03838, "lat": 38.907205166666664, "type": "electric_scooter", "fusion_lon": 0.0, "is_reserved": 0, "bike_id": "a0f863b30edea6b9e62ef8169ad537c4", "fusion_lat": 0.0, "is_disabled": 0, "rental_uris": {"ios": "https://dc.lft.to/lastmile_qr_scan", "android": "https://dc.lft.to/lastmile_qr_scan"}}, {"name": "36b70ef369218321ead254049788d495", "lon": -77.03527266666667, "lat": 38.918191666666665, "type": "electric_scooter", "fusion_lon": 0.0, "is_reserved": 0, "bike_id": "36b70ef369218321ead254049788d495", "fusion_lat": 0.0, "is_disabled": 0, "rental_uris": {"ios": "https://dc.lft.to/lastmile_qr_scan", "android": "https://dc.lft.to/lastmile_qr_scan"}}, {"name": "16f86aa1a254e25209fe7265adf18700", "lon": -77.034506, "lat": 38.921396666666666, "type": "electric_scooter", "fusion_lon": 0.0, "is_reserved": 0, "bike_id": "16f86aa1a254e25209fe7265adf18700", "fusion_lat": 0.0, "is_disabled": 0, "rental_uris": {"ios": "https://dc.lft.to/lastmile_qr_scan", "android": "https://dc.lft.to/lastmile_qr_scan"}}, {"name": "88c9eae66daef23c53f86eca987dca6e", "lon": -77.04327383333333, "lat": 38.892228, "type": "electric_scooter", "fusion_lon": 0.0, "is_reserved": 0, "bike_id": "88c9eae66daef23c53f86eca987dca6e", "fusion_lat": 0.0, "is_disabled": 0, "rental_uris": {"ios": "https://dc.lft.to/lastmile_qr_scan", "android": "https://dc.lft.to/lastmile_qr_scan"}}, {"name": "eb0e9ba35fb18f48b15ecd684b686531", "lon": -77.0297885, "lat": 38.937017166666664, "type": "electric_bike", "fusion_lon": 0.0, "is_reserved": 0, "bike_id": "eb0e9ba35fb18f48b15ecd684b686531", "fusion_lat": 0.0, "is_disabled": 0, "rental_uris": {"ios": "https://dc.lft.to/lastmile_qr_scan", "android": "https://dc.lft.to/lastmile_qr_scan"}}, {"name": "0c691e21df94856bc751da5f3ce44b42", "lon": -77.03323866666666, "lat": 38.9215285, "type": "electric_scooter", "fusion_lon": 0.0, "is_reserved": 0, "bike_id": "0c691e21df94856bc751da5f3ce44b42", "fusion_lat": 0.0, "is_disabled": 0, "rental_uris": {"ios": "https://dc.lft.to/lastmile_qr_scan", "android": "https://dc.lft.to/lastmile_qr_scan"}}, {"name": "c62213ddb664218b0f99cf4ba5eeb5b9", "lon": -76.99506483333333, "lat": 38.8791675, "type": "electric_scooter", "fusion_lon": 0.0, "is_reserved": 0, "bike_id": "c62213ddb664218b0f99cf4ba5eeb5b9", "fusion_lat": 0.0, "is_disabled": 0, "rental_uris": {"ios": "https://dc.lft.to/lastmile_qr_scan", "android": "https://dc.lft.to/lastmile_qr_scan"}}, {"name": "7afc7df01a56ab12caf15590384aa7cb", "lon": -77.02321616666667, "lat": 38.91786233333333, "type": "electric_scooter", "fusion_lon": 0.0, "is_reserved": 0, "bike_id": "7afc7df01a56ab12caf15590384aa7cb", "fusion_lat": 0.0, "is_disabled": 0, "rental_uris": {"ios": "https://dc.lft.to/lastmile_qr_scan", "android": "https://dc.lft.to/lastmile_qr_scan"}}, {"name": "a10a5972ec22d1c829017885f5f60470", "lon": -76.99906366666667, "lat": 38.94691433333333, "type": "electric_scooter", "fusion_lon": 0.0, "is_reserved": 0, "bike_id": "a10a5972ec22d1c829017885f5f60470", "fusion_lat": 0.0, "is_disabled": 0, "rental_uris": {"ios": "https://dc.lft.to/lastmile_qr_scan", "android": "https://dc.lft.to/lastmile_qr_scan"}}, {"name": "1bc42cf5ca9c7885df436c291a7054ff", "lon": -77.03315666666667, "lat": 38.913216166666665, "type": "electric_scooter", "fusion_lon": 0.0, "is_reserved": 0, "bike_id": "1bc42cf5ca9c7885df436c291a7054ff", "fusion_lat": 0.0, "is_disabled": 0, "rental_uris": {"ios": "https://dc.lft.to/lastmile_qr_scan", "android": "https://dc.lft.to/lastmile_qr_scan"}}, {"name": "773910aa6f21e41ef3cd2364406c0281", "lon": -77.04431716666667, "lat": 38.9218255, "type": "electric_scooter", "fusion_lon": 0.0, "is_reserved": 0, "bike_id": "773910aa6f21e41ef3cd2364406c0281", "fusion_lat": 0.0, "is_disabled": 0, "rental_uris": {"ios": "https://dc.lft.to/lastmile_qr_scan", "android": "https://dc.lft.to/lastmile_qr_scan"}}, {"name": "a317f39eb36b1f10bf9526f5eaa7b2fa", "lon": -77.02098216666667, "lat": 38.92155566666667, "type": "electric_scooter", "fusion_lon": 0.0, "is_reserved": 0, "bike_id": "a317f39eb36b1f10bf9526f5eaa7b2fa", "fusion_lat": 0.0, "is_disabled": 0, "rental_uris": {"ios": "https://dc.lft.to/lastmile_qr_scan", "android": "https://dc.lft.to/lastmile_qr_scan"}}, {"name": "cc044472446de40efaac5d2f87545f7c", "lon": -76.9950965, "lat": 38.8625325, "type": "electric_scooter", "fusion_lon": 0.0, "is_reserved": 0, "bike_id": "cc044472446de40efaac5d2f87545f7c", "fusion_lat": 0.0, "is_disabled": 0, "rental_uris": {"ios": "https://dc.lft.to/lastmile_qr_scan", "android": "https://dc.lft.to/lastmile_qr_scan"}}, {"name": "2a2e154a6e48ce5b7486d240fe69a263", "lon": -77.023506, "lat": 38.94616633333333, "type": "electric_scooter", "fusion_lon": 0.0, "is_reserved": 0, "bike_id": "2a2e154a6e48ce5b7486d240fe69a263", "fusion_lat": 0.0, "is_disabled": 0, "rental_uris": {"ios": "https://dc.lft.to/lastmile_qr_scan", "android": "https://dc.lft.to/lastmile_qr_scan"}}, {"name": "eaf0e284a56d63fdd1de0d2df365b76e", "lon": -76.9905905, "lat": 38.86356333333333, "type": "electric_scooter", "fusion_lon": 0.0, "is_reserved": 0, "bike_id": "eaf0e284a56d63fdd1de0d2df365b76e", "fusion_lat": 0.0, "is_disabled": 0, "rental_uris": {"ios": "https://dc.lft.to/lastmile_qr_scan", "android": "https://dc.lft.to/lastmile_qr_scan"}}, {"name": "3bce707ad410728483c967acdaf6d77f", "lon": -77.026921, "lat": 38.9097185, "type": "electric_scooter", "fusion_lon": 0.0, "is_reserved": 0, "bike_id": "3bce707ad410728483c967acdaf6d77f", "fusion_lat": 0.0, "is_disabled": 0, "rental_uris": {"ios": "https://dc.lft.to/lastmile_qr_scan", "android": "https://dc.lft.to/lastmile_qr_scan"}}, {"name": "961c26f838f4318cab0f131d35abba7e", "lon": -77.044806, "lat": 38.92426116666667, "type": "electric_scooter", "fusion_lon": 0.0, "is_reserved": 0, "bike_id": "961c26f838f4318cab0f131d35abba7e", "fusion_lat": 0.0, "is_disabled": 0, "rental_uris": {"ios": "https://dc.lft.to/lastmile_qr_scan", "android": "https://dc.lft.to/lastmile_qr_scan"}}, {"name": "7a662dfbf668288682dc95934393eb74", "lon": -77.09452516666667, "lat": 38.807547166666666, "type": "electric_bike", "fusion_lon": 0.0, "is_reserved": 0, "bike_id": "7a662dfbf668288682dc95934393eb74", "fusion_lat": 0.0, "is_disabled": 0, "rental_uris": {"ios": "https://dc.lft.to/lastmile_qr_scan", "android": "https://dc.lft.to/lastmile_qr_scan"}}, {"name": "2f7eb23669078972c8fdb899b6d6f63c", "lon": -77.063315, "lat": 38.944225833333334, "type": "electric_scooter", "fusion_lon": 0.0, "is_reserved": 0, "bike_id": "2f7eb23669078972c8fdb899b6d6f63c", "fusion_lat": 0.0, "is_disabled": 0, "rental_uris": {"ios": "https://dc.lft.to/lastmile_qr_scan", "android": "https://dc.lft.to/lastmile_qr_scan"}}, {"name": "9c22d5a5f45cf493a5873ae0db4a1bfb", "lon": -77.02172116666667, "lat": 38.90560516666667, "type": "electric_scooter", "fusion_lon": 0.0, "is_reserved": 0, "bike_id": "9c22d5a5f45cf493a5873ae0db4a1bfb", "fusion_lat": 0.0, "is_disabled": 0, "rental_uris": {"ios": "https://dc.lft.to/lastmile_qr_scan", "android": "https://dc.lft.to/lastmile_qr_scan"}}, {"name": "ce2f04d11b0ac568993cb653835102f0", "lon": -77.04138383333333, "lat": 38.89353716666667, "type": "electric_scooter", "fusion_lon": 0.0, "is_reserved": 0, "bike_id": "ce2f04d11b0ac568993cb653835102f0", "fusion_lat": 0.0, "is_disabled": 0, "rental_uris": {"ios": "https://dc.lft.to/lastmile_qr_scan", "android": "https://dc.lft.to/lastmile_qr_scan"}}, {"name": "9f5f512a9ca4659e6db7d5df8becc97b", "lon": -77.027293, "lat": 38.94086316666667, "type": "electric_scooter", "fusion_lon": 0.0, "is_reserved": 0, "bike_id": "9f5f512a9ca4659e6db7d5df8becc97b", "fusion_lat": 0.0, "is_disabled": 0, "rental_uris": {"ios": "https://dc.lft.to/lastmile_qr_scan", "android": "https://dc.lft.to/lastmile_qr_scan"}}, {"name": "711f448ecf9745743cacb0998f310d8d", "lon": -76.89528266666667, "lat": 38.94550433333333, "type": "electric_bike", "fusion_lon": 0.0, "is_reserved": 0, "bike_id": "711f448ecf9745743cacb0998f310d8d", "fusion_lat": 0.0, "is_disabled": 0, "rental_uris": {"ios": "https://dc.lft.to/lastmile_qr_scan", "android": "https://dc.lft.to/lastmile_qr_scan"}}, {"name": "0236d1b5b2e7785a90f25345f25f76c3", "lon": -76.98242583333334, "lat": 38.86457216666667, "type": "electric_scooter", "fusion_lon": 0.0, "is_reserved": 0, "bike_id": "0236d1b5b2e7785a90f25345f25f76c3", "fusion_lat": 0.0, "is_disabled": 0, "rental_uris": {"ios": "https://dc.lft.to/lastmile_qr_scan", "android": "https://dc.lft.to/lastmile_qr_scan"}}, {"name": "f2d39fc16b40c62fc35b26a6e4bc07da", "lon": -77.0325345, "lat": 38.939723666666666, "type": "electric_scooter", "fusion_lon": 0.0, "is_reserved": 0, "bike_id": "f2d39fc16b40c62fc35b26a6e4bc07da", "fusion_lat": 0.0, "is_disabled": 0, "rental_uris": {"ios": "https://dc.lft.to/lastmile_qr_scan", "android": "https://dc.lft.to/lastmile_qr_scan"}}, {"name": "9728e3b05220f7757c9d841687293692", "lon": -76.99541083333334, "lat": 38.8793475, "type": "electric_scooter", "fusion_lon": 0.0, "is_reserved": 0, "bike_id": "9728e3b05220f7757c9d841687293692", "fusion_lat": 0.0, "is_disabled": 0, "rental_uris": {"ios": "https://dc.lft.to/lastmile_qr_scan", "android": "https://dc.lft.to/lastmile_qr_scan"}}, {"name": "41cc033c0c390c230f00d086c245213f", "lon": -77.0635275, "lat": 38.94446683333334, "type": "electric_scooter", "fusion_lon": 0.0, "is_reserved": 0, "bike_id": "41cc033c0c390c230f00d086c245213f", "fusion_lat": 0.0, "is_disabled": 0, "rental_uris": {"ios": "https://dc.lft.to/lastmile_qr_scan", "android": "https://dc.lft.to/lastmile_qr_scan"}}, {"name": "069aab66a2545cb9d3fe1b1e1d3a578e", "lon": -77.01673283333334, "lat": 38.881099166666665, "type": "electric_scooter", "fusion_lon": 0.0, "is_reserved": 0, "bike_id": "069aab66a2545cb9d3fe1b1e1d3a578e", "fusion_lat": 0.0, "is_disabled": 0, "rental_uris": {"ios": "https://dc.lft.to/lastmile_qr_scan", "android": "https://dc.lft.to/lastmile_qr_scan"}}, {"name": "4c09d6a7c9a9e650391262c75d801037", "lon": -77.04313766666667, "lat": 38.928816166666664, "type": "electric_bike", "fusion_lon": 0.0, "is_reserved": 0, "bike_id": "4c09d6a7c9a9e650391262c75d801037", "fusion_lat": 0.0, "is_disabled": 0, "rental_uris": {"ios": "https://dc.lft.to/lastmile_qr_scan", "android": "https://dc.lft.to/lastmile_qr_scan"}}, {"name": "4787eb3fadcd32363678cdf0ef18f307", "lon": -76.98433233333333, "lat": 38.855113, "type": "electric_bike", "fusion_lon": 0.0, "is_reserved": 0, "bike_id": "4787eb3fadcd32363678cdf0ef18f307", "fusion_lat": 0.0, "is_disabled": 0, "rental_uris": {"ios": "https://dc.lft.to/lastmile_qr_scan", "android": "https://dc.lft.to/lastmile_qr_scan"}}, {"name": "94d7d648fceaf63ec8ed0ee7c44e2885", "lon": -77.06270683333334, "lat": 38.90548616666667, "type": "electric_scooter", "fusion_lon": 0.0, "is_reserved": 0, "bike_id": "94d7d648fceaf63ec8ed0ee7c44e2885", "fusion_lat": 0.0, "is_disabled": 0, "rental_uris": {"ios": "https://dc.lft.to/lastmile_qr_scan", "android": "https://dc.lft.to/lastmile_qr_scan"}}, {"name": "d810ab5700e86cf1a9b4d6e214f3e4b1", "lon": -77.028087, "lat": 38.923609166666665, "type": "electric_scooter", "fusion_lon": 0.0, "is_reserved": 0, "bike_id": "d810ab5700e86cf1a9b4d6e214f3e4b1", "fusion_lat": 0.0, "is_disabled": 0, "rental_uris": {"ios": "https://dc.lft.to/lastmile_qr_scan", "android": "https://dc.lft.to/lastmile_qr_scan"}}, {"name": "af3eb722f7a9e67208948b8a8ef1dd2c", "lon": -77.01771516666666, "lat": 38.8771735, "type": "electric_scooter", "fusion_lon": 0.0, "is_reserved": 0, "bike_id": "af3eb722f7a9e67208948b8a8ef1dd2c", "fusion_lat": 0.0, "is_disabled": 0, "rental_uris": {"ios": "https://dc.lft.to/lastmile_qr_scan", "android": "https://dc.lft.to/lastmile_qr_scan"}}, {"name": "84f57b92ddff72e6ac5d6fb039f37735", "lon": -77.03332416666667, "lat": 38.89830416666667, "type": "electric_scooter", "fusion_lon": 0.0, "is_reserved": 0, "bike_id": "84f57b92ddff72e6ac5d6fb039f37735", "fusion_lat": 0.0, "is_disabled": 0, "rental_uris": {"ios": "https://dc.lft.to/lastmile_qr_scan", "android": "https://dc.lft.to/lastmile_qr_scan"}}, {"name": "8ca5e86c0c8f58187c121e6e3da4f04c", "lon": -77.02389766666667, "lat": 38.916319333333334, "type": "electric_scooter", "fusion_lon": 0.0, "is_reserved": 0, "bike_id": "8ca5e86c0c8f58187c121e6e3da4f04c", "fusion_lat": 0.0, "is_disabled": 0, "rental_uris": {"ios": "https://dc.lft.to/lastmile_qr_scan", "android": "https://dc.lft.to/lastmile_qr_scan"}}, {"name": "80b34dab267b592d0340ae84fbceac1f", "lon": -76.992592, "lat": 38.862472833333335, "type": "electric_scooter", "fusion_lon": 0.0, "is_reserved": 0, "bike_id": "80b34dab267b592d0340ae84fbceac1f", "fusion_lat": 0.0, "is_disabled": 0, "rental_uris": {"ios": "https://dc.lft.to/lastmile_qr_scan", "android": "https://dc.lft.to/lastmile_qr_scan"}}, {"name": "e08b3c5f5e2aad9295fef6fb5731a609", "lon": -77.033755, "lat": 38.899296, "type": "electric_scooter", "fusion_lon": 0.0, "is_reserved": 0, "bike_id": "e08b3c5f5e2aad9295fef6fb5731a609", "fusion_lat": 0.0, "is_disabled": 0, "rental_uris": {"ios": "https://dc.lft.to/lastmile_qr_scan", "android": "https://dc.lft.to/lastmile_qr_scan"}}, {"name": "cc37408692a560c3f0bce61a7e537eb1", "lon": -77.0464225, "lat": 38.91946983333333, "type": "electric_scooter", "fusion_lon": 0.0, "is_reserved": 0, "bike_id": "cc37408692a560c3f0bce61a7e537eb1", "fusion_lat": 0.0, "is_disabled": 0, "rental_uris": {"ios": "https://dc.lft.to/lastmile_qr_scan", "android": "https://dc.lft.to/lastmile_qr_scan"}}, {"name": "13caf4040ca658df96e6d3c2e6307680", "lon": -77.04526783333333, "lat": 38.90269033333333, "type": "electric_scooter", "fusion_lon": 0.0, "is_reserved": 0, "bike_id": "13caf4040ca658df96e6d3c2e6307680", "fusion_lat": 0.0, "is_disabled": 0, "rental_uris": {"ios": "https://dc.lft.to/lastmile_qr_scan", "android": "https://dc.lft.to/lastmile_qr_scan"}}, {"name": "391eef8d07059facc1e4e47709bbe95c", "lon": -77.05816183333333, "lat": 38.93562383333333, "type": "electric_scooter", "fusion_lon": 0.0, "is_reserved": 0, "bike_id": "391eef8d07059facc1e4e47709bbe95c", "fusion_lat": 0.0, "is_disabled": 0, "rental_uris": {"ios": "https://dc.lft.to/lastmile_qr_scan", "android": "https://dc.lft.to/lastmile_qr_scan"}}, {"name": "f9ac5f23a7f6728578620327dcfdb6af", "lon": -76.98361116666666, "lat": 38.89607183333333, "type": "electric_bike", "fusion_lon": 0.0, "is_reserved": 0, "bike_id": "f9ac5f23a7f6728578620327dcfdb6af", "fusion_lat": 0.0, "is_disabled": 0, "rental_uris": {"ios": "https://dc.lft.to/lastmile_qr_scan", "android": "https://dc.lft.to/lastmile_qr_scan"}}, {"name": "93fef3143d8528d3ae9730188c2cdb73", "lon": -77.00199, "lat": 38.936809333333336, "type": "electric_bike", "fusion_lon": 0.0, "is_reserved": 0, "bike_id": "93fef3143d8528d3ae9730188c2cdb73", "fusion_lat": 0.0, "is_disabled": 0, "rental_uris": {"ios": "https://dc.lft.to/lastmile_qr_scan", "android": "https://dc.lft.to/lastmile_qr_scan"}}, {"name": "ed36f03a9bd7758e6f520d74775f4596", "lon": -77.022944, "lat": 38.9275475, "type": "electric_scooter", "fusion_lon": 0.0, "is_reserved": 0, "bike_id": "ed36f03a9bd7758e6f520d74775f4596", "fusion_lat": 0.0, "is_disabled": 0, "rental_uris": {"ios": "https://dc.lft.to/lastmile_qr_scan", "android": "https://dc.lft.to/lastmile_qr_scan"}}, {"name": "9aa284becb5c84fe32ad728b1203c4dd", "lon": -76.96056433333334, "lat": 38.8840805, "type": "electric_bike", "fusion_lon": 0.0, "is_reserved": 0, "bike_id": "9aa284becb5c84fe32ad728b1203c4dd", "fusion_lat": 0.0, "is_disabled": 0, "rental_uris": {"ios": "https://dc.lft.to/lastmile_qr_scan", "android": "https://dc.lft.to/lastmile_qr_scan"}}, {"name": "15701b7dcf58437f9bd6ce55948e4640", "lon": -77.0216825, "lat": 38.905587833333335, "type": "electric_scooter", "fusion_lon": 0.0, "is_reserved": 0, "bike_id": "15701b7dcf58437f9bd6ce55948e4640", "fusion_lat": 0.0, "is_disabled": 0, "rental_uris": {"ios": "https://dc.lft.to/lastmile_qr_scan", "android": "https://dc.lft.to/lastmile_qr_scan"}}, {"name": "ee3005ab7da826aeed95767971a82d91", "lon": -77.07729733333333, "lat": 38.943568166666665, "type": "electric_bike", "fusion_lon": 0.0, "is_reserved": 0, "bike_id": "ee3005ab7da826aeed95767971a82d91", "fusion_lat": 0.0, "is_disabled": 0, "rental_uris": {"ios": "https://dc.lft.to/lastmile_qr_scan", "android": "https://dc.lft.to/lastmile_qr_scan"}}, {"name": "9b4434aef892b3ed22fb9c75ef848ae9", "lon": -76.93747266666666, "lat": 38.890521, "type": "electric_scooter", "fusion_lon": 0.0, "is_reserved": 0, "bike_id": "9b4434aef892b3ed22fb9c75ef848ae9", "fusion_lat": 0.0, "is_disabled": 0, "rental_uris": {"ios": "https://dc.lft.to/lastmile_qr_scan", "android": "https://dc.lft.to/lastmile_qr_scan"}}, {"name": "486f06decdfeb442dde669a6f151a999", "lon": -76.99515516666666, "lat": 38.88375583333333, "type": "electric_scooter", "fusion_lon": 0.0, "is_reserved": 0, "bike_id": "486f06decdfeb442dde669a6f151a999", "fusion_lat": 0.0, "is_disabled": 0, "rental_uris": {"ios": "https://dc.lft.to/lastmile_qr_scan", "android": "https://dc.lft.to/lastmile_qr_scan"}}, {"name": "4d8fc39019e230d84f90bbc99a34375d", "lon": -77.029755, "lat": 38.91678066666667, "type": "electric_scooter", "fusion_lon": 0.0, "is_reserved": 0, "bike_id": "4d8fc39019e230d84f90bbc99a34375d", "fusion_lat": 0.0, "is_disabled": 0, "rental_uris": {"ios": "https://dc.lft.to/lastmile_qr_scan", "android": "https://dc.lft.to/lastmile_qr_scan"}}, {"name": "0b15004047229ed567bd1c9f10aba387", "lon": -76.993318, "lat": 38.871383333333334, "type": "electric_scooter", "fusion_lon": 0.0, "is_reserved": 0, "bike_id": "0b15004047229ed567bd1c9f10aba387", "fusion_lat": 0.0, "is_disabled": 0, "rental_uris": {"ios": "https://dc.lft.to/lastmile_qr_scan", "android": "https://dc.lft.to/lastmile_qr_scan"}}, {"name": "11e41ac0ad64156035d5fc8d8c024dc4", "lon": -76.98869466666666, "lat": 38.954859166666665, "type": "electric_bike", "fusion_lon": 0.0, "is_reserved": 0, "bike_id": "11e41ac0ad64156035d5fc8d8c024dc4", "fusion_lat": 0.0, "is_disabled": 0, "rental_uris": {"ios": "https://dc.lft.to/lastmile_qr_scan", "android": "https://dc.lft.to/lastmile_qr_scan"}}, {"name": "acf29d4e89993e03b757cf6a55adb048", "lon": -76.94800116666667, "lat": 38.89397833333334, "type": "electric_bike", "fusion_lon": 0.0, "is_reserved": 0, "bike_id": "acf29d4e89993e03b757cf6a55adb048", "fusion_lat": 0.0, "is_disabled": 0, "rental_uris": {"ios": "https://dc.lft.to/lastmile_qr_scan", "android": "https://dc.lft.to/lastmile_qr_scan"}}, {"name": "ad6e15b1f997ac31ed42011b2d595637", "lon": -77.01696783333334, "lat": 38.97500483333334, "type": "electric_scooter", "fusion_lon": 0.0, "is_reserved": 0, "bike_id": "ad6e15b1f997ac31ed42011b2d595637", "fusion_lat": 0.0, "is_disabled": 0, "rental_uris": {"ios": "https://dc.lft.to/lastmile_qr_scan", "android": "https://dc.lft.to/lastmile_qr_scan"}}, {"name": "8879ad335491bf05990834aaac7a28d2", "lon": -77.02603533333334, "lat": 38.93140316666667, "type": "electric_scooter", "fusion_lon": 0.0, "is_reserved": 0, "bike_id": "8879ad335491bf05990834aaac7a28d2", "fusion_lat": 0.0, "is_disabled": 0, "rental_uris": {"ios": "https://dc.lft.to/lastmile_qr_scan", "android": "https://dc.lft.to/lastmile_qr_scan"}}, {"name": "0170a9aa82f5de0bf33e960e35a73921", "lon": -77.034538, "lat": 38.90978333333334, "type": "electric_scooter", "fusion_lon": 0.0, "is_reserved": 0, "bike_id": "0170a9aa82f5de0bf33e960e35a73921", "fusion_lat": 0.0, "is_disabled": 0, "rental_uris": {"ios": "https://dc.lft.to/lastmile_qr_scan", "android": "https://dc.lft.to/lastmile_qr_scan"}}, {"name": "3550c13b376ed8ae713ab2237d07d439", "lon": -77.03340833333333, "lat": 38.92050483333333, "type": "electric_scooter", "fusion_lon": 0.0, "is_reserved": 0, "bike_id": "3550c13b376ed8ae713ab2237d07d439", "fusion_lat": 0.0, "is_disabled": 0, "rental_uris": {"ios": "https://dc.lft.to/lastmile_qr_scan", "android": "https://dc.lft.to/lastmile_qr_scan"}}, {"name": "59cad819e8a06232f05d106ca31a9b11", "lon": -76.96527566666667, "lat": 38.87627916666667, "type": "electric_scooter", "fusion_lon": 0.0, "is_reserved": 0, "bike_id": "59cad819e8a06232f05d106ca31a9b11", "fusion_lat": 0.0, "is_disabled": 0, "rental_uris": {"ios": "https://dc.lft.to/lastmile_qr_scan", "android": "https://dc.lft.to/lastmile_qr_scan"}}, {"name": "1253ede4385d8f6eee8bc8b12951907b", "lon": -77.040616, "lat": 38.911126833333334, "type": "electric_scooter", "fusion_lon": 0.0, "is_reserved": 0, "bike_id": "1253ede4385d8f6eee8bc8b12951907b", "fusion_lat": 0.0, "is_disabled": 0, "rental_uris": {"ios": "https://dc.lft.to/lastmile_qr_scan", "android": "https://dc.lft.to/lastmile_qr_scan"}}, {"name": "31b276f1fe5ab93c1c76fb4c16bbbb0a", "lon": -77.001983, "lat": 38.9023255, "type": "electric_scooter", "fusion_lon": 0.0, "is_reserved": 0, "bike_id": "31b276f1fe5ab93c1c76fb4c16bbbb0a", "fusion_lat": 0.0, "is_disabled": 0, "rental_uris": {"ios": "https://dc.lft.to/lastmile_qr_scan", "android": "https://dc.lft.to/lastmile_qr_scan"}}, {"name": "cccf544ce40d1c9338541f4e57d55bde", "lon": -77.0327485, "lat": 38.9285025, "type": "electric_scooter", "fusion_lon": 0.0, "is_reserved": 0, "bike_id": "cccf544ce40d1c9338541f4e57d55bde", "fusion_lat": 0.0, "is_disabled": 0, "rental_uris": {"ios": "https://dc.lft.to/lastmile_qr_scan", "android": "https://dc.lft.to/lastmile_qr_scan"}}, {"name": "f25a7a750dbe747844c506838f6454f5", "lon": -76.93728883333333, "lat": 38.89014916666667, "type": "electric_scooter", "fusion_lon": 0.0, "is_reserved": 0, "bike_id": "f25a7a750dbe747844c506838f6454f5", "fusion_lat": 0.0, "is_disabled": 0, "rental_uris": {"ios": "https://dc.lft.to/lastmile_qr_scan", "android": "https://dc.lft.to/lastmile_qr_scan"}}, {"name": "f8925baaea0cad0d2f62181a339459f0", "lon": -77.077951, "lat": 38.996006333333334, "type": "electric_bike", "fusion_lon": 0.0, "is_reserved": 0, "bike_id": "f8925baaea0cad0d2f62181a339459f0", "fusion_lat": 0.0, "is_disabled": 0, "rental_uris": {"ios": "https://dc.lft.to/lastmile_qr_scan", "android": "https://dc.lft.to/lastmile_qr_scan"}}, {"name": "b631a178027410ca414b2b9c4cc02de5", "lon": -77.11797333333334, "lat": 38.873768166666665, "type": "electric_bike", "fusion_lon": 0.0, "is_reserved": 0, "bike_id": "b631a178027410ca414b2b9c4cc02de5", "fusion_lat": 0.0, "is_disabled": 0, "rental_uris": {"ios": "https://dc.lft.to/lastmile_qr_scan", "android": "https://dc.lft.to/lastmile_qr_scan"}}, {"name": "8abc106b8f824533f0d2cf269de3f57a", "lon": -76.97007733333334, "lat": 38.86366916666667, "type": "electric_bike", "fusion_lon": 0.0, "is_reserved": 0, "bike_id": "8abc106b8f824533f0d2cf269de3f57a", "fusion_lat": 0.0, "is_disabled": 0, "rental_uris": {"ios": "https://dc.lft.to/lastmile_qr_scan", "android": "https://dc.lft.to/lastmile_qr_scan"}}, {"name": "1a5bf180d00a31a7ce0a04ccc7ad56e0", "lon": -77.00714133333334, "lat": 38.884896, "type": "electric_scooter", "fusion_lon": 0.0, "is_reserved": 0, "bike_id": "1a5bf180d00a31a7ce0a04ccc7ad56e0", "fusion_lat": 0.0, "is_disabled": 0, "rental_uris": {"ios": "https://dc.lft.to/lastmile_qr_scan", "android": "https://dc.lft.to/lastmile_qr_scan"}}, {"name": "05e598509794387b185c42c9ad0f3202", "lon": -77.02711283333333, "lat": 38.90112366666666, "type": "electric_scooter", "fusion_lon": 0.0, "is_reserved": 0, "bike_id": "05e598509794387b185c42c9ad0f3202", "fusion_lat": 0.0, "is_disabled": 0, "rental_uris": {"ios": "https://dc.lft.to/lastmile_qr_scan", "android": "https://dc.lft.to/lastmile_qr_scan"}}, {"name": "17362bb7a2705bd55aa3b6c3a474927b", "lon": -77.03455333333333, "lat": 38.9081175, "type": "electric_scooter", "fusion_lon": 0.0, "is_reserved": 0, "bike_id": "17362bb7a2705bd55aa3b6c3a474927b", "fusion_lat": 0.0, "is_disabled": 0, "rental_uris": {"ios": "https://dc.lft.to/lastmile_qr_scan", "android": "https://dc.lft.to/lastmile_qr_scan"}}, {"name": "99652788885173dfdd0bac3fccf03274", "lon": -77.0112965, "lat": 38.9158865, "type": "electric_scooter", "fusion_lon": 0.0, "is_reserved": 0, "bike_id": "99652788885173dfdd0bac3fccf03274", "fusion_lat": 0.0, "is_disabled": 0, "rental_uris": {"ios": "https://dc.lft.to/lastmile_qr_scan", "android": "https://dc.lft.to/lastmile_qr_scan"}}, {"name": "6bbb5beaef00c13a707f3e6bf42c157b", "lon": -76.96528483333333, "lat": 38.876313333333336, "type": "electric_scooter", "fusion_lon": 0.0, "is_reserved": 0, "bike_id": "6bbb5beaef00c13a707f3e6bf42c157b", "fusion_lat": 0.0, "is_disabled": 0, "rental_uris": {"ios": "https://dc.lft.to/lastmile_qr_scan", "android": "https://dc.lft.to/lastmile_qr_scan"}}, {"name": "07477ab75008e70473f58625d81f630e", "lon": -76.99936783333334, "lat": 38.9002085, "type": "electric_scooter", "fusion_lon": 0.0, "is_reserved": 0, "bike_id": "07477ab75008e70473f58625d81f630e", "fusion_lat": 0.0, "is_disabled": 0, "rental_uris": {"ios": "https://dc.lft.to/lastmile_qr_scan", "android": "https://dc.lft.to/lastmile_qr_scan"}}, {"name": "ef1621925de26683f270d492aad2894d", "lon": -76.99861866666667, "lat": 38.90029066666666, "type": "electric_scooter", "fusion_lon": 0.0, "is_reserved": 0, "bike_id": "ef1621925de26683f270d492aad2894d", "fusion_lat": 0.0, "is_disabled": 0, "rental_uris": {"ios": "https://dc.lft.to/lastmile_qr_scan", "android": "https://dc.lft.to/lastmile_qr_scan"}}, {"name": "54922853c6154e0a4853b3bf6db3713c", "lon": -77.0243385, "lat": 38.9027745, "type": "electric_scooter", "fusion_lon": 0.0, "is_reserved": 0, "bike_id": "54922853c6154e0a4853b3bf6db3713c", "fusion_lat": 0.0, "is_disabled": 0, "rental_uris": {"ios": "https://dc.lft.to/lastmile_qr_scan", "android": "https://dc.lft.to/lastmile_qr_scan"}}, {"name": "b58fc9cf3c4d28b14fc005b5a03eeb83", "lon": -77.032507, "lat": 38.9059495, "type": "electric_scooter", "fusion_lon": 0.0, "is_reserved": 0, "bike_id": "b58fc9cf3c4d28b14fc005b5a03eeb83", "fusion_lat": 0.0, "is_disabled": 0, "rental_uris": {"ios": "https://dc.lft.to/lastmile_qr_scan", "android": "https://dc.lft.to/lastmile_qr_scan"}}, {"name": "fb6653816f6c255c9acfaa7fc3924ccd", "lon": -77.00592133333333, "lat": 38.875508333333336, "type": "electric_scooter", "fusion_lon": 0.0, "is_reserved": 0, "bike_id": "fb6653816f6c255c9acfaa7fc3924ccd", "fusion_lat": 0.0, "is_disabled": 0, "rental_uris": {"ios": "https://dc.lft.to/lastmile_qr_scan", "android": "https://dc.lft.to/lastmile_qr_scan"}}, {"name": "916a2fe6fd4ac3d623e784b454928c04", "lon": -77.0320875, "lat": 38.8958755, "type": "electric_scooter", "fusion_lon": 0.0, "is_reserved": 0, "bike_id": "916a2fe6fd4ac3d623e784b454928c04", "fusion_lat": 0.0, "is_disabled": 0, "rental_uris": {"ios": "https://dc.lft.to/lastmile_qr_scan", "android": "https://dc.lft.to/lastmile_qr_scan"}}, {"name": "8107a60bc235514b3c90ce5f61118615", "lon": -77.05856616666667, "lat": 38.9360865, "type": "electric_scooter", "fusion_lon": 0.0, "is_reserved": 0, "bike_id": "8107a60bc235514b3c90ce5f61118615", "fusion_lat": 0.0, "is_disabled": 0, "rental_uris": {"ios": "https://dc.lft.to/lastmile_qr_scan", "android": "https://dc.lft.to/lastmile_qr_scan"}}, {"name": "a284141df37965f122aafb76a46b29ce", "lon": -76.9934865, "lat": 38.9148265, "type": "electric_scooter", "fusion_lon": 0.0, "is_reserved": 0, "bike_id": "a284141df37965f122aafb76a46b29ce", "fusion_lat": 0.0, "is_disabled": 0, "rental_uris": {"ios": "https://dc.lft.to/lastmile_qr_scan", "android": "https://dc.lft.to/lastmile_qr_scan"}}, {"name": "0f311d9138acc7309a4176727259d3bb", "lon": -77.01295466666667, "lat": 38.90077616666667, "type": "electric_scooter", "fusion_lon": 0.0, "is_reserved": 0, "bike_id": "0f311d9138acc7309a4176727259d3bb", "fusion_lat": 0.0, "is_disabled": 0, "rental_uris": {"ios": "https://dc.lft.to/lastmile_qr_scan", "android": "https://dc.lft.to/lastmile_qr_scan"}}, {"name": "05f27d32ed927e02ff894cc9a25213fd", "lon": -77.0326055, "lat": 38.938815, "type": "electric_scooter", "fusion_lon": 0.0, "is_reserved": 0, "bike_id": "05f27d32ed927e02ff894cc9a25213fd", "fusion_lat": 0.0, "is_disabled": 0, "rental_uris": {"ios": "https://dc.lft.to/lastmile_qr_scan", "android": "https://dc.lft.to/lastmile_qr_scan"}}, {"name": "81781e8be08e154246b14eb33582a23f", "lon": -77.052559, "lat": 38.92373683333334, "type": "electric_scooter", "fusion_lon": 0.0, "is_reserved": 0, "bike_id": "81781e8be08e154246b14eb33582a23f", "fusion_lat": 0.0, "is_disabled": 0, "rental_uris": {"ios": "https://dc.lft.to/lastmile_qr_scan", "android": "https://dc.lft.to/lastmile_qr_scan"}}, {"name": "1a83b6772fe8bffbeb41f874054ffdc3", "lon": -77.00059283333333, "lat": 38.8768255, "type": "electric_bike", "fusion_lon": 0.0, "is_reserved": 0, "bike_id": "1a83b6772fe8bffbeb41f874054ffdc3", "fusion_lat": 0.0, "is_disabled": 0, "rental_uris": {"ios": "https://dc.lft.to/lastmile_qr_scan", "android": "https://dc.lft.to/lastmile_qr_scan"}}, {"name": "576e02f355dbc18866df919e5fdeb225", "lon": -77.03706466666667, "lat": 38.92773016666666, "type": "electric_scooter", "fusion_lon": 0.0, "is_reserved": 0, "bike_id": "576e02f355dbc18866df919e5fdeb225", "fusion_lat": 0.0, "is_disabled": 0, "rental_uris": {"ios": "https://dc.lft.to/lastmile_qr_scan", "android": "https://dc.lft.to/lastmile_qr_scan"}}, {"name": "5c398a9fc56da4459c640675907388d5", "lon": -77.07576966666667, "lat": 38.93860266666667, "type": "electric_scooter", "fusion_lon": 0.0, "is_reserved": 0, "bike_id": "5c398a9fc56da4459c640675907388d5", "fusion_lat": 0.0, "is_disabled": 0, "rental_uris": {"ios": "https://dc.lft.to/lastmile_qr_scan", "android": "https://dc.lft.to/lastmile_qr_scan"}}, {"name": "545ea9cb9e175571bd42dd6887ed3498", "lon": -77.04124083333333, "lat": 38.9163075, "type": "electric_scooter", "fusion_lon": 0.0, "is_reserved": 0, "bike_id": "545ea9cb9e175571bd42dd6887ed3498", "fusion_lat": 0.0, "is_disabled": 0, "rental_uris": {"ios": "https://dc.lft.to/lastmile_qr_scan", "android": "https://dc.lft.to/lastmile_qr_scan"}}, {"name": "56ffaa377a705982a5bface2ba516957", "lon": -77.02720816666667, "lat": 38.9495705, "type": "electric_scooter", "fusion_lon": 0.0, "is_reserved": 0, "bike_id": "56ffaa377a705982a5bface2ba516957", "fusion_lat": 0.0, "is_disabled": 0, "rental_uris": {"ios": "https://dc.lft.to/lastmile_qr_scan", "android": "https://dc.lft.to/lastmile_qr_scan"}}, {"name": "5da37fffff9ff2d6166f184f07b5dc35", "lon": -77.01590233333333, "lat": 38.94933133333333, "type": "electric_scooter", "fusion_lon": 0.0, "is_reserved": 0, "bike_id": "5da37fffff9ff2d6166f184f07b5dc35", "fusion_lat": 0.0, "is_disabled": 0, "rental_uris": {"ios": "https://dc.lft.to/lastmile_qr_scan", "android": "https://dc.lft.to/lastmile_qr_scan"}}, {"name": "d8d0f5e7d38089a109d1f012fa44ad8b", "lon": -77.02389216666667, "lat": 38.9084415, "type": "electric_scooter", "fusion_lon": 0.0, "is_reserved": 0, "bike_id": "d8d0f5e7d38089a109d1f012fa44ad8b", "fusion_lat": 0.0, "is_disabled": 0, "rental_uris": {"ios": "https://dc.lft.to/lastmile_qr_scan", "android": "https://dc.lft.to/lastmile_qr_scan"}}, {"name": "50b3f2b2133837d3a82f13c6b95df128", "lon": -77.00066733333334, "lat": 38.891654333333335, "type": "electric_scooter", "fusion_lon": 0.0, "is_reserved": 0, "bike_id": "50b3f2b2133837d3a82f13c6b95df128", "fusion_lat": 0.0, "is_disabled": 0, "rental_uris": {"ios": "https://dc.lft.to/lastmile_qr_scan", "android": "https://dc.lft.to/lastmile_qr_scan"}}, {"name": "d0a687ab5be1d8dc23ca341ede780b5a", "lon": -77.03180833333333, "lat": 38.90772066666667, "type": "electric_scooter", "fusion_lon": 0.0, "is_reserved": 0, "bike_id": "d0a687ab5be1d8dc23ca341ede780b5a", "fusion_lat": 0.0, "is_disabled": 0, "rental_uris": {"ios": "https://dc.lft.to/lastmile_qr_scan", "android": "https://dc.lft.to/lastmile_qr_scan"}}, {"name": "a3c0cae0f8c9fe740597dda3d1609d50", "lon": -76.98108933333333, "lat": 38.877308166666666, "type": "electric_bike", "fusion_lon": 0.0, "is_reserved": 0, "bike_id": "a3c0cae0f8c9fe740597dda3d1609d50", "fusion_lat": 0.0, "is_disabled": 0, "rental_uris": {"ios": "https://dc.lft.to/lastmile_qr_scan", "android": "https://dc.lft.to/lastmile_qr_scan"}}, {"name": "547a60e19feb2f49707b9b373edeb79c", "lon": -77.02371116666667, "lat": 38.907506166666664, "type": "electric_scooter", "fusion_lon": 0.0, "is_reserved": 0, "bike_id": "547a60e19feb2f49707b9b373edeb79c", "fusion_lat": 0.0, "is_disabled": 0, "rental_uris": {"ios": "https://dc.lft.to/lastmile_qr_scan", "android": "https://dc.lft.to/lastmile_qr_scan"}}, {"name": "e5419f29a6a11800633ce0d7da8109a1", "lon": -77.03095666666667, "lat": 38.90429116666667, "type": "electric_scooter", "fusion_lon": 0.0, "is_reserved": 0, "bike_id": "e5419f29a6a11800633ce0d7da8109a1", "fusion_lat": 0.0, "is_disabled": 0, "rental_uris": {"ios": "https://dc.lft.to/lastmile_qr_scan", "android": "https://dc.lft.to/lastmile_qr_scan"}}, {"name": "f12793e108492f30bb1526744ff3dfb7", "lon": -76.99069966666667, "lat": 38.9042175, "type": "electric_scooter", "fusion_lon": 0.0, "is_reserved": 0, "bike_id": "f12793e108492f30bb1526744ff3dfb7", "fusion_lat": 0.0, "is_disabled": 0, "rental_uris": {"ios": "https://dc.lft.to/lastmile_qr_scan", "android": "https://dc.lft.to/lastmile_qr_scan"}}, {"name": "d13ce0e9d64e1bd65749ca88abaf06e1", "lon": -77.02526466666667, "lat": 38.909651333333336, "type": "electric_scooter", "fusion_lon": 0.0, "is_reserved": 0, "bike_id": "d13ce0e9d64e1bd65749ca88abaf06e1", "fusion_lat": 0.0, "is_disabled": 0, "rental_uris": {"ios": "https://dc.lft.to/lastmile_qr_scan", "android": "https://dc.lft.to/lastmile_qr_scan"}}, {"name": "0fb2bdde3fd98459ca6e64f49973a238", "lon": -77.05879383333334, "lat": 38.918239, "type": "electric_scooter", "fusion_lon": 0.0, "is_reserved": 0, "bike_id": "0fb2bdde3fd98459ca6e64f49973a238", "fusion_lat": 0.0, "is_disabled": 0, "rental_uris": {"ios": "https://dc.lft.to/lastmile_qr_scan", "android": "https://dc.lft.to/lastmile_qr_scan"}}, {"name": "807c7a460a8c473c2ee25a41aa5b16b7", "lon": -76.93343783333333, "lat": 38.88813716666667, "type": "electric_scooter", "fusion_lon": 0.0, "is_reserved": 0, "bike_id": "807c7a460a8c473c2ee25a41aa5b16b7", "fusion_lat": 0.0, "is_disabled": 0, "rental_uris": {"ios": "https://dc.lft.to/lastmile_qr_scan", "android": "https://dc.lft.to/lastmile_qr_scan"}}, {"name": "7814cb1bc09e0708e64b5d2c3832d005", "lon": -77.03241183333333, "lat": 38.91555366666667, "type": "electric_scooter", "fusion_lon": 0.0, "is_reserved": 0, "bike_id": "7814cb1bc09e0708e64b5d2c3832d005", "fusion_lat": 0.0, "is_disabled": 0, "rental_uris": {"ios": "https://dc.lft.to/lastmile_qr_scan", "android": "https://dc.lft.to/lastmile_qr_scan"}}, {"name": "c38b669f00f20d8a95903252d9586277", "lon": -77.0500265, "lat": 38.8923225, "type": "electric_scooter", "fusion_lon": 0.0, "is_reserved": 0, "bike_id": "c38b669f00f20d8a95903252d9586277", "fusion_lat": 0.0, "is_disabled": 0, "rental_uris": {"ios": "https://dc.lft.to/lastmile_qr_scan", "android": "https://dc.lft.to/lastmile_qr_scan"}}, {"name": "9a85c5333177746663bb7148037fc6d8", "lon": -77.02209983333333, "lat": 38.905737, "type": "electric_scooter", "fusion_lon": 0.0, "is_reserved": 0, "bike_id": "9a85c5333177746663bb7148037fc6d8", "fusion_lat": 0.0, "is_disabled": 0, "rental_uris": {"ios": "https://dc.lft.to/lastmile_qr_scan", "android": "https://dc.lft.to/lastmile_qr_scan"}}, {"name": "afcd0a8b7200f4ea1a84a7304d80eb02", "lon": -77.04018566666667, "lat": 38.922003333333336, "type": "electric_scooter", "fusion_lon": 0.0, "is_reserved": 0, "bike_id": "afcd0a8b7200f4ea1a84a7304d80eb02", "fusion_lat": 0.0, "is_disabled": 0, "rental_uris": {"ios": "https://dc.lft.to/lastmile_qr_scan", "android": "https://dc.lft.to/lastmile_qr_scan"}}, {"name": "807aefddb8884b6d8790a4c203db89c7", "lon": -76.98396016666666, "lat": 38.86699433333333, "type": "electric_scooter", "fusion_lon": 0.0, "is_reserved": 0, "bike_id": "807aefddb8884b6d8790a4c203db89c7", "fusion_lat": 0.0, "is_disabled": 0, "rental_uris": {"ios": "https://dc.lft.to/lastmile_qr_scan", "android": "https://dc.lft.to/lastmile_qr_scan"}}, {"name": "e833d3cd6653032431d6d0300f42f9ae", "lon": -77.012414, "lat": 38.9155315, "type": "electric_scooter", "fusion_lon": 0.0, "is_reserved": 0, "bike_id": "e833d3cd6653032431d6d0300f42f9ae", "fusion_lat": 0.0, "is_disabled": 0, "rental_uris": {"ios": "https://dc.lft.to/lastmile_qr_scan", "android": "https://dc.lft.to/lastmile_qr_scan"}}, {"name": "fbd6464f82568874ffc7801b9306f2fa", "lon": -77.043193, "lat": 38.90498483333333, "type": "electric_scooter", "fusion_lon": 0.0, "is_reserved": 0, "bike_id": "fbd6464f82568874ffc7801b9306f2fa", "fusion_lat": 0.0, "is_disabled": 0, "rental_uris": {"ios": "https://dc.lft.to/lastmile_qr_scan", "android": "https://dc.lft.to/lastmile_qr_scan"}}, {"name": "bc9db55353229b8745c8c582665cf9f7", "lon": -77.02369166666666, "lat": 38.9021995, "type": "electric_scooter", "fusion_lon": 0.0, "is_reserved": 0, "bike_id": "bc9db55353229b8745c8c582665cf9f7", "fusion_lat": 0.0, "is_disabled": 0, "rental_uris": {"ios": "https://dc.lft.to/lastmile_qr_scan", "android": "https://dc.lft.to/lastmile_qr_scan"}}, {"name": "588276d8d78813787e1b05d9dcefff30", "lon": -77.02678516666667, "lat": 38.89612916666667, "type": "electric_scooter", "fusion_lon": 0.0, "is_reserved": 0, "bike_id": "588276d8d78813787e1b05d9dcefff30", "fusion_lat": 0.0, "is_disabled": 0, "rental_uris": {"ios": "https://dc.lft.to/lastmile_qr_scan", "android": "https://dc.lft.to/lastmile_qr_scan"}}, {"name": "e49d44e4ade507fd11daaca7f0e7f326", "lon": -76.9511415, "lat": 38.8878595, "type": "electric_scooter", "fusion_lon": 0.0, "is_reserved": 0, "bike_id": "e49d44e4ade507fd11daaca7f0e7f326", "fusion_lat": 0.0, "is_disabled": 0, "rental_uris": {"ios": "https://dc.lft.to/lastmile_qr_scan", "android": "https://dc.lft.to/lastmile_qr_scan"}}, {"name": "02705646f2e9007b3f427915e0e970c6", "lon": -77.03130916666667, "lat": 38.914956333333336, "type": "electric_scooter", "fusion_lon": 0.0, "is_reserved": 0, "bike_id": "02705646f2e9007b3f427915e0e970c6", "fusion_lat": 0.0, "is_disabled": 0, "rental_uris": {"ios": "https://dc.lft.to/lastmile_qr_scan", "android": "https://dc.lft.to/lastmile_qr_scan"}}, {"name": "511ca1abbfb9911bfdb0d48c7986cb4e", "lon": -77.038287, "lat": 38.918153333333336, "type": "electric_scooter", "fusion_lon": 0.0, "is_reserved": 0, "bike_id": "511ca1abbfb9911bfdb0d48c7986cb4e", "fusion_lat": 0.0, "is_disabled": 0, "rental_uris": {"ios": "https://dc.lft.to/lastmile_qr_scan", "android": "https://dc.lft.to/lastmile_qr_scan"}}, {"name": "48598c521ddc7155e48bd5a248d7d3b1", "lon": -77.037983, "lat": 38.9305735, "type": "electric_scooter", "fusion_lon": 0.0, "is_reserved": 0, "bike_id": "48598c521ddc7155e48bd5a248d7d3b1", "fusion_lat": 0.0, "is_disabled": 0, "rental_uris": {"ios": "https://dc.lft.to/lastmile_qr_scan", "android": "https://dc.lft.to/lastmile_qr_scan"}}, {"name": "e61b6e3a06e27867893147ccc36fa99d", "lon": -76.94951816666666, "lat": 38.90493683333333, "type": "electric_scooter", "fusion_lon": 0.0, "is_reserved": 0, "bike_id": "e61b6e3a06e27867893147ccc36fa99d", "fusion_lat": 0.0, "is_disabled": 0, "rental_uris": {"ios": "https://dc.lft.to/lastmile_qr_scan", "android": "https://dc.lft.to/lastmile_qr_scan"}}, {"name": "af272e8bed8197fba4ff9ea689b3c0d7", "lon": -77.0442635, "lat": 38.921286, "type": "electric_scooter", "fusion_lon": 0.0, "is_reserved": 0, "bike_id": "af272e8bed8197fba4ff9ea689b3c0d7", "fusion_lat": 0.0, "is_disabled": 0, "rental_uris": {"ios": "https://dc.lft.to/lastmile_qr_scan", "android": "https://dc.lft.to/lastmile_qr_scan"}}, {"name": "6669c0c997b2b59c0e4a0ca13c45ccb9", "lon": -76.975935, "lat": 38.903356, "type": "electric_bike", "fusion_lon": 0.0, "is_reserved": 0, "bike_id": "6669c0c997b2b59c0e4a0ca13c45ccb9", "fusion_lat": 0.0, "is_disabled": 0, "rental_uris": {"ios": "https://dc.lft.to/lastmile_qr_scan", "android": "https://dc.lft.to/lastmile_qr_scan"}}, {"name": "84bfd418eda8e9d67e775e7ee6079042", "lon": -77.05057366666666, "lat": 38.92419366666667, "type": "electric_scooter", "fusion_lon": 0.0, "is_reserved": 0, "bike_id": "84bfd418eda8e9d67e775e7ee6079042", "fusion_lat": 0.0, "is_disabled": 0, "rental_uris": {"ios": "https://dc.lft.to/lastmile_qr_scan", "android": "https://dc.lft.to/lastmile_qr_scan"}}, {"name": "3013fcde5675c6d50eeb331b5c8b7b57", "lon": -77.00599633333333, "lat": 38.9064965, "type": "electric_bike", "fusion_lon": 0.0, "is_reserved": 0, "bike_id": "3013fcde5675c6d50eeb331b5c8b7b57", "fusion_lat": 0.0, "is_disabled": 0, "rental_uris": {"ios": "https://dc.lft.to/lastmile_qr_scan", "android": "https://dc.lft.to/lastmile_qr_scan"}}, {"name": "97c57f4a05b40b2e97747f7291ba385b", "lon": -77.03833183333333, "lat": 38.90717033333333, "type": "electric_scooter", "fusion_lon": 0.0, "is_reserved": 0, "bike_id": "97c57f4a05b40b2e97747f7291ba385b", "fusion_lat": 0.0, "is_disabled": 0, "rental_uris": {"ios": "https://dc.lft.to/lastmile_qr_scan", "android": "https://dc.lft.to/lastmile_qr_scan"}}, {"name": "d573fb54c5d4caa338a9557d7dac2586", "lon": -77.016456, "lat": 38.879186833333335, "type": "electric_scooter", "fusion_lon": 0.0, "is_reserved": 0, "bike_id": "d573fb54c5d4caa338a9557d7dac2586", "fusion_lat": 0.0, "is_disabled": 0, "rental_uris": {"ios": "https://dc.lft.to/lastmile_qr_scan", "android": "https://dc.lft.to/lastmile_qr_scan"}}, {"name": "715fd1d4ddca218ef1ea9a686ac0156a", "lon": -77.03897233333333, "lat": 38.90786883333333, "type": "electric_scooter", "fusion_lon": 0.0, "is_reserved": 0, "bike_id": "715fd1d4ddca218ef1ea9a686ac0156a", "fusion_lat": 0.0, "is_disabled": 0, "rental_uris": {"ios": "https://dc.lft.to/lastmile_qr_scan", "android": "https://dc.lft.to/lastmile_qr_scan"}}, {"name": "3263d68a946463cddbff03822ad02ccb", "lon": -77.008912, "lat": 38.903499833333335, "type": "electric_scooter", "fusion_lon": 0.0, "is_reserved": 0, "bike_id": "3263d68a946463cddbff03822ad02ccb", "fusion_lat": 0.0, "is_disabled": 0, "rental_uris": {"ios": "https://dc.lft.to/lastmile_qr_scan", "android": "https://dc.lft.to/lastmile_qr_scan"}}, {"name": "7ac9dedf18a10bd658a2faa3b34955c7", "lon": -77.03210933333334, "lat": 38.90971416666667, "type": "electric_scooter", "fusion_lon": 0.0, "is_reserved": 0, "bike_id": "7ac9dedf18a10bd658a2faa3b34955c7", "fusion_lat": 0.0, "is_disabled": 0, "rental_uris": {"ios": "https://dc.lft.to/lastmile_qr_scan", "android": "https://dc.lft.to/lastmile_qr_scan"}}, {"name": "bc24e7217d60bcdad72493f222385f12", "lon": -76.99596316666667, "lat": 38.856886833333334, "type": "electric_scooter", "fusion_lon": 0.0, "is_reserved": 0, "bike_id": "bc24e7217d60bcdad72493f222385f12", "fusion_lat": 0.0, "is_disabled": 0, "rental_uris": {"ios": "https://dc.lft.to/lastmile_qr_scan", "android": "https://dc.lft.to/lastmile_qr_scan"}}, {"name": "2408d4916c0108d31ba8be90eba0ee60", "lon": -77.04476216666667, "lat": 38.91105966666667, "type": "electric_scooter", "fusion_lon": 0.0, "is_reserved": 0, "bike_id": "2408d4916c0108d31ba8be90eba0ee60", "fusion_lat": 0.0, "is_disabled": 0, "rental_uris": {"ios": "https://dc.lft.to/lastmile_qr_scan", "android": "https://dc.lft.to/lastmile_qr_scan"}}, {"name": "01f12629362c31d85e7991060ac55f99", "lon": -77.03188283333333, "lat": 38.9135225, "type": "electric_scooter", "fusion_lon": 0.0, "is_reserved": 0, "bike_id": "01f12629362c31d85e7991060ac55f99", "fusion_lat": 0.0, "is_disabled": 0, "rental_uris": {"ios": "https://dc.lft.to/lastmile_qr_scan", "android": "https://dc.lft.to/lastmile_qr_scan"}}, {"name": "e776eb9208c616a8c8623a09136e4c11", "lon": -77.00833433333334, "lat": 38.829086833333335, "type": "electric_bike", "fusion_lon": 0.0, "is_reserved": 0, "bike_id": "e776eb9208c616a8c8623a09136e4c11", "fusion_lat": 0.0, "is_disabled": 0, "rental_uris": {"ios": "https://dc.lft.to/lastmile_qr_scan", "android": "https://dc.lft.to/lastmile_qr_scan"}}, {"name": "28fffc719a0366771ba65639b62badb3", "lon": -77.0379965, "lat": 38.915472333333334, "type": "electric_scooter", "fusion_lon": 0.0, "is_reserved": 0, "bike_id": "28fffc719a0366771ba65639b62badb3", "fusion_lat": 0.0, "is_disabled": 0, "rental_uris": {"ios": "https://dc.lft.to/lastmile_qr_scan", "android": "https://dc.lft.to/lastmile_qr_scan"}}, {"name": "316f7441dabba15d06632774da9e5f34", "lon": -77.0344235, "lat": 38.90971566666666, "type": "electric_scooter", "fusion_lon": 0.0, "is_reserved": 0, "bike_id": "316f7441dabba15d06632774da9e5f34", "fusion_lat": 0.0, "is_disabled": 0, "rental_uris": {"ios": "https://dc.lft.to/lastmile_qr_scan", "android": "https://dc.lft.to/lastmile_qr_scan"}}, {"name": "b7b042c5f9a84da37f03a0ad3aaddf92", "lon": -76.94941333333334, "lat": 38.8950785, "type": "electric_scooter", "fusion_lon": 0.0, "is_reserved": 0, "bike_id": "b7b042c5f9a84da37f03a0ad3aaddf92", "fusion_lat": 0.0, "is_disabled": 0, "rental_uris": {"ios": "https://dc.lft.to/lastmile_qr_scan", "android": "https://dc.lft.to/lastmile_qr_scan"}}, {"name": "d5b5bd9b5d32494896db137c8e7c8709", "lon": -77.00058766666666, "lat": 38.876634, "type": "electric_scooter", "fusion_lon": 0.0, "is_reserved": 0, "bike_id": "d5b5bd9b5d32494896db137c8e7c8709", "fusion_lat": 0.0, "is_disabled": 0, "rental_uris": {"ios": "https://dc.lft.to/lastmile_qr_scan", "android": "https://dc.lft.to/lastmile_qr_scan"}}, {"name": "8c419ecd8b7ef4660e9631eb88ba1d39", "lon": -77.071957, "lat": 38.95951683333333, "type": "electric_scooter", "fusion_lon": 0.0, "is_reserved": 0, "bike_id": "8c419ecd8b7ef4660e9631eb88ba1d39", "fusion_lat": 0.0, "is_disabled": 0, "rental_uris": {"ios": "https://dc.lft.to/lastmile_qr_scan", "android": "https://dc.lft.to/lastmile_qr_scan"}},