{"data": {"bikes": [{"fusion_lon": 0.0, "name": "03100026f69674f70a3c85da356b43b5", "rental_uris": {"android": "https://dc.lft.to/lastmile_qr_scan", "ios": "https://dc.lft.to/lastmile_qr_scan"}, "lat": 38.920441833333335, "bike_id": "03100026f69674f70a3c85da356b43b5", "is_disabled": 0, "lon": -77.01685383333333, "is_reserved": 0, "fusion_lat": 0.0, "type": "electric_scooter"}, {"fusion_lon": 0.0, "name": "99d1f97b941aaae95bb6a7114e8acb6a", "rental_uris": {"android": "https://dc.lft.to/lastmile_qr_scan", "ios": "https://dc.lft.to/lastmile_qr_scan"}, "lat": 38.91922533333333, "bike_id": "99d1f97b941aaae95bb6a7114e8acb6a", "is_disabled": 0, "lon": -77.01926783333333, "is_reserved": 0, "fusion_lat": 0.0, "type": "electric_scooter"}, {"fusion_lon": 0.0, "name": "7c6bece7876b1e0b8e5efe3a2723e791", "rental_uris": {"android": "https://dc.lft.to/lastmile_qr_scan", "ios": "https://dc.lft.to/lastmile_qr_scan"}, "lat": 38.89621866666667, "bike_id": "7c6bece7876b1e0b8e5efe3a2723e791", "is_disabled": 0, "lon": -76.99852516666667, "is_reserved": 0, "fusion_lat": 0.0, "type": "electric_scooter"}, {"fusion_lon": 0.0, "name": "95df87293f0f4358e60ff9148184c78d", "rental_uris": {"android": "https://dc.lft.to/lastmile_qr_scan", "ios": "https://dc.lft.to/lastmile_qr_scan"}, "lat": 38.87964616666667, "bike_id": "95df87293f0f4358e60ff9148184c78d", "is_disabled": 0, "lon": -77.0242115, "is_reserved": 0, "fusion_lat": 0.0, "type": "electric_scooter"}, {"fusion_lon": 0.0, "name": "0eb78a3188a07adb7a4ef7e582cd4f92", "rental_uris": {"android": "https://dc.lft.to/lastmile_qr_scan", "ios": "https://dc.lft.to/lastmile_qr_scan"}, "lat": 38.886, "bike_id": "0eb78a3188a07adb7a4ef7e582cd4f92", "is_disabled": 0, "lon": -77.00584183333333, "is_reserved": 0, "fusion_lat": 0.0, "type": "electric_scooter"}, {"fusion_lon": 0.0, "name": "be2ed6d9901602cdcb7c6cab4dcfd2fd", "rental_uris": {"android": "https://dc.lft.to/lastmile_qr_scan", "ios": "https://dc.lft.to/lastmile_qr_scan"}, "lat": 38.903929166666664, "bike_id": "be2ed6d9901602cdcb7c6cab4dcfd2fd", "is_disabled": 0, "lon": -77.04831816666666, "is_reserved": 0, "fusion_lat": 0.0, "type": "electric_scooter"}, {"fusion_lon": 0.0, "name": "7e5cbf7a8fd24b98fbd4cff783b28d49", "rental_uris": {"android": "https://dc.lft.to/lastmile_qr_scan", "ios": "https://dc.lft.to/lastmile_qr_scan"}, "lat": 38.89263483333333, "bike_id": "7e5cbf7a8fd24b98fbd4cff783b28d49", "is_disabled": 0, "lon": -77.00213733333334, "is_reserved": 0, "fusion_lat": 0.0, "type": "electric_scooter"}, {"fusion_lon": 0.0, "name": "12e845df153d18ad53aad79fcd6bd958", "rental_uris": {"android": "https://dc.lft.to/lastmile_qr_scan", "ios": "https://dc.lft.to/lastmile_qr_scan"}, "lat": 38.905797, "bike_id": "12e845df153d18ad53aad79fcd6bd958", "is_disabled": 0, "lon": -77.04536983333334, "is_reserved": 0, "fusion_lat": 0.0, "type": "electric_scooter"}, {"fusion_lon": 0.0, "name": "2af1cb2a5d1a1dd072c7338f4abdcf35", "rental_uris": {"android": "https://dc.lft.to/lastmile_qr_scan", "ios": "https://dc.lft.to/lastmile_qr_scan"}, "lat": 38.905624, "bike_id": "2af1cb2a5d1a1dd072c7338f4abdcf35", "is_disabled": 0, "lon": -77.0346785, "is_reserved": 0, "fusion_lat": 0.0, "type": "electric_scooter"}, {"fusion_lon": 0.0, "name": "c28a6d68e0088557de14250a88cce685", "rental_uris": {"android": "https://dc.lft.to/lastmile_qr_scan", "ios": "https://dc.lft.to/lastmile_qr_scan"}, "lat": 38.8686785, "bike_id": "c28a6d68e0088557de14250a88cce685", "is_disabled": 0, "lon": -76.98665383333334, "is_reserved": 0, "fusion_lat": 0.0, "type": "electric_scooter"}, {"fusion_lon": 0.0, "name": "f30269f000a7277c83e1c946d8b04a76", "rental_uris": {"android": "https://dc.lft.to/lastmile_qr_scan", "ios": "https://dc.lft.to/lastmile_qr_scan"}, "lat": 38.896075833333335, "bike_id": "f30269f000a7277c83e1c946d8b04a76", "is_disabled": 0, "lon": -77.05080866666667, "is_reserved": 0, "fusion_lat": 0.0, "type": "electric_scooter"}, {"fusion_lon": 0.0, "name": "cda306ae766869c7b63ecb218f8f2109", "rental_uris": {"android": "https://dc.lft.to/lastmile_qr_scan", "ios": "https://dc.lft.to/lastmile_qr_scan"}, "lat": 38.8974905, "bike_id": "cda306ae766869c7b63ecb218f8f2109", "is_disabled": 0, "lon": -76.97689583333333, "is_reserved": 0, "fusion_lat": 0.0, "type": "electric_scooter"}, {"fusion_lon": 0.0, "name": "d7602d709ac05b2b0fdbc4ce263533a3", "rental_uris": {"android": "https://dc.lft.to/lastmile_qr_scan", "ios": "https://dc.lft.to/lastmile_qr_scan"}, "lat": 38.90142633333333, "bike_id": "d7602d709ac05b2b0fdbc4ce263533a3", "is_disabled": 0, "lon": -76.99159666666667, "is_reserved": 0, "fusion_lat": 0.0, "type": "electric_scooter"}, {"fusion_lon": 0.0, "name": "0173ebff67d5457d486d0afba8dfd891", "rental_uris": {"android": "https://dc.lft.to/lastmile_qr_scan", "ios": "https://dc.lft.to/lastmile_qr_scan"}, "lat": 38.883984, "bike_id": "0173ebff67d5457d486d0afba8dfd891", "is_disabled": 0, "lon": -76.99623916666667, "is_reserved": 0, "fusion_lat": 0.0, "type": "electric_scooter"}, {"fusion_lon": 0.0, "name": "a28f39de5bbe39fd6b8076d6cecc6c04", "rental_uris": {"android": "https://dc.lft.to/lastmile_qr_scan", "ios": "https://dc.lft.to/lastmile_qr_scan"}, "lat": 38.9015285, "bike_id": "a28f39de5bbe39fd6b8076d6cecc6c04", "is_disabled": 0, "lon": -76.9742395, "is_reserved": 0, "fusion_lat": 0.0, "type": "electric_scooter"}, {"fusion_lon": 0.0, "name": "66deb7d81886657f366370c480c15b89", "rental_uris": {"android": "https://dc.lft.to/lastmile_qr_scan", "ios": "https://dc.lft.to/lastmile_qr_scan"}, "lat": 38.908855333333335, "bike_id": "66deb7d81886657f366370c480c15b89", "is_disabled": 0, "lon": -77.02295583333333, "is_reserved": 0, "fusion_lat": 0.0, "type": "electric_scooter"}, {"fusion_lon": 0.0, "name": "8f4db182e39f906a29a59a9bc8198694", "rental_uris": {"android": "https://dc.lft.to/lastmile_qr_scan", "ios": "https://dc.lft.to/lastmile_qr_scan"}, "lat": 38.902743666666666, "bike_id": "8f4db182e39f906a29a59a9bc8198694", "is_disabled": 0, "lon": -77.032646, "is_reserved": 0, "fusion_lat": 0.0, "type": "electric_scooter"}, {"fusion_lon": 0.0, "name": "c756ea99f52a2b6eeb4ec3d3e95ec47c", "rental_uris": {"android": "https://dc.lft.to/lastmile_qr_scan", "ios": "https://dc.lft.to/lastmile_qr_scan"}, "lat": 38.91535016666667, "bike_id": "c756ea99f52a2b6eeb4ec3d3e95ec47c", "is_disabled": 0, "lon": -77.044694, "is_reserved": 0, "fusion_lat": 0.0, "type": "electric_scooter"}, {"fusion_lon": 0.0, "name": "c68ea4842550fe0976bada4a3f5f3e51", "rental_uris": {"android": "https://dc.lft.to/lastmile_qr_scan", "ios": "https://dc.lft.to/lastmile_qr_scan"}, "lat": 38.960317833333335, "bike_id": "c68ea4842550fe0976bada4a3f5f3e51", "is_disabled": 0, "lon": -77.0332395, "is_reserved": 0, "fusion_lat": 0.0, "type": "electric_scooter"}, {"fusion_lon": 0.0, "name": "ba7515aaec4247315284bcaa84cde152", "rental_uris": {"android": "https://dc.lft.to/lastmile_qr_scan", "ios": "https://dc.lft.to/lastmile_qr_scan"}, "lat": 38.878803166666664, "bike_id": "ba7515aaec4247315284bcaa84cde152", "is_disabled": 0, "lon": -77.016151, "is_reserved": 0, "fusion_lat": 0.0, "type": "electric_scooter"}, {"fusion_lon": 0.0, "name": "1cd7f5906e108c6953828843d7b6c6a2", "rental_uris": {"android": "https://dc.lft.to/lastmile_qr_scan", "ios": "https://dc.lft.to/lastmile_qr_scan"}, "lat": 38.914838333333336, "bike_id": "1cd7f5906e108c6953828843d7b6c6a2", "is_disabled": 0, "lon": -77.01889233333333, "is_reserved": 0, "fusion_lat": 0.0, "type": "electric_scooter"}, {"fusion_lon": 0.0, "name": "06cdf328b071548dabe6e3097432e231", "rental_uris": {"android": "https://dc.lft.to/lastmile_qr_scan", "ios": "https://dc.lft.to/lastmile_qr_scan"}, "lat": 38.934026833333334, "bike_id": "06cdf328b071548dabe6e3097432e231", "is_disabled": 0, "lon": -77.03826933333333, "is_reserved": 0, "fusion_lat": 0.0, "type": "electric_scooter"}, {"fusion_lon": 0.0, "name": "ba2198c9abe31aa166af3679ed355107", "rental_uris": {"android": "https://dc.lft.to/lastmile_qr_scan", "ios": "https://dc.lft.to/lastmile_qr_scan"}, "lat": 38.906136333333336, "bike_id": "ba2198c9abe31aa166af3679ed355107", "is_disabled": 0, "lon": -77.03966116666666, "is_reserved": 0, "fusion_lat": 0.0, "type": "electric_scooter"}, {"fusion_lon": 0.0, "name": "8478cf572899b6bf39a78690f2e6666e", "rental_uris": {"android": "https://dc.lft.to/lastmile_qr_scan", "ios": "https://dc.lft.to/lastmile_qr_scan"}, "lat": 38.95889116666667, "bike_id": "8478cf572899b6bf39a78690f2e6666e", "is_disabled": 0, "lon": -76.97048083333334, "is_reserved": 0, "fusion_lat": 0.0, "type": "electric_bike"}, {"fusion_lon": 0.0, "name": "479cd1c5a89c6b86bbc2634bb3de4957", "rental_uris": {"android": "https://dc.lft.to/lastmile_qr_scan", "ios": "https://dc.lft.to/lastmile_qr_scan"}, "lat": 38.876637, "bike_id": "479cd1c5a89c6b86bbc2634bb3de4957", "is_disabled": 0, "lon": -77.011688, "is_reserved": 0, "fusion_lat": 0.0, "type": "electric_scooter"}, {"fusion_lon": 0.0, "name": "0146ad671a5400b1e77919135d94e60e", "rental_uris": {"android": "https://dc.lft.to/lastmile_qr_scan", "ios": "https://dc.lft.to/lastmile_qr_scan"}, "lat": 38.930138666666664, "bike_id": "0146ad671a5400b1e77919135d94e60e", "is_disabled": 0, "lon": -77.06189833333333, "is_reserved": 0, "fusion_lat": 0.0, "type": "electric_scooter"}, {"fusion_lon": 0.0, "name": "63f2c899ced62d97c03479287615f048", "rental_uris": {"android": "https://dc.lft.to/lastmile_qr_scan", "ios": "https://dc.lft.to/lastmile_qr_scan"}, "lat": 38.8860325, "bike_id": "63f2c899ced62d97c03479287615f048", "is_disabled": 0, "lon": -77.045134, "is_reserved": 0, "fusion_lat": 0.0, "type": "electric_scooter"}, {"fusion_lon": 0.0, "name": "ff9645e7d226c32a61042b774bc003cf", "rental_uris": {"android": "https://dc.lft.to/lastmile_qr_scan", "ios": "https://dc.lft.to/lastmile_qr_scan"}, "lat": 38.92645566666667, "bike_id": "ff9645e7d226c32a61042b774bc003cf", "is_disabled": 0, "lon": -77.0250405, "is_reserved": 0, "fusion_lat": 0.0, "type": "electric_scooter"}, {"fusion_lon": 0.0, "name": "ae6ea65818e905004ff8a669f3088394", "rental_uris": {"android": "https://dc.lft.to/lastmile_qr_scan", "ios": "https://dc.lft.to/lastmile_qr_scan"}, "lat": 38.923548, "bike_id": "ae6ea65818e905004ff8a669f3088394", "is_disabled": 0, "lon": -77.05422533333333, "is_reserved": 0, "fusion_lat": 0.0, "type": "electric_scooter"}, {"fusion_lon": 0.0, "name": "4e2c593a4909488d5114c49916ebc3fa", "rental_uris": {"android": "https://dc.lft.to/lastmile_qr_scan", "ios": "https://dc.lft.to/lastmile_qr_scan"}, "lat": 38.896907166666665, "bike_id": "4e2c593a4909488d5114c49916ebc3fa", "is_disabled": 0, "lon": -77.005012, "is_reserved": 0, "fusion_lat": 0.0, "type": "electric_scooter"}, {"fusion_lon": 0.0, "name": "60343154eaee0b13251075cfd936ced4", "rental_uris": {"android": "https://dc.lft.to/lastmile_qr_scan", "ios": "https://dc.lft.to/lastmile_qr_scan"}, "lat": 38.95184783333333, "bike_id": "60343154eaee0b13251075cfd936ced4", "is_disabled": 0, "lon": -77.0261195, "is_reserved": 0, "fusion_lat": 0.0, "type": "electric_scooter"}, {"fusion_lon": 0.0, "name": "794ab84cdbebfe23f3f89c9e72134bdb", "rental_uris": {"android": "https://dc.lft.to/lastmile_qr_scan", "ios": "https://dc.lft.to/lastmile_qr_scan"}, "lat": 38.923659666666666, "bike_id": "794ab84cdbebfe23f3f89c9e72134bdb", "is_disabled": 0, "lon": -77.01951966666667, "is_reserved": 0, "fusion_lat": 0.0, "type": "electric_scooter"}, {"fusion_lon": 0.0, "name": "3ea8f7a34218eaaab862aa2ab3506c14", "rental_uris": {"android": "https://dc.lft.to/lastmile_qr_scan", "ios": "https://dc.lft.to/lastmile_qr_scan"}, "lat": 38.9112125, "bike_id": "3ea8f7a34218eaaab862aa2ab3506c14", "is_disabled": 0, "lon": -77.00602783333333, "is_reserved": 0, "fusion_lat": 0.0, "type": "electric_scooter"}, {"fusion_lon": 0.0, "name": "2bc6fe244a5f02e088d08e880bad6f88", "rental_uris": {"android": "https://dc.lft.to/lastmile_qr_scan", "ios": "https://dc.lft.to/lastmile_qr_scan"}, "lat": 38.90113866666667, "bike_id": "2bc6fe244a5f02e088d08e880bad6f88", "is_disabled": 0, "lon": -77.044804, "is_reserved": 0, "fusion_lat": 0.0, "type": "electric_scooter"}, {"fusion_lon": 0.0, "name": "3db2e47d98b70dc87ec2a3b2befbcabe", "rental_uris": {"android": "https://dc.lft.to/lastmile_qr_scan", "ios": "https://dc.lft.to/lastmile_qr_scan"}, "lat": 38.9349785, "bike_id": "3db2e47d98b70dc87ec2a3b2befbcabe", "is_disabled": 0, "lon": -77.04458883333334, "is_reserved": 0, "fusion_lat": 0.0, "type": "electric_scooter"}, {"fusion_lon": 0.0, "name": "3cc918a15adbbc81b1942a27bd2b7cef", "rental_uris": {"android": "https://dc.lft.to/lastmile_qr_scan", "ios": "https://dc.lft.to/lastmile_qr_scan"}, "lat": 38.89827966666667, "bike_id": "3cc918a15adbbc81b1942a27bd2b7cef", "is_disabled": 0, "lon": -76.99087316666666, "is_reserved": 0, "fusion_lat": 0.0, "type": "electric_bike"}, {"fusion_lon": 0.0, "name": "0df3883d0db7fe691d38600ff677fa86", "rental_uris": {"android": "https://dc.lft.to/lastmile_qr_scan", "ios": "https://dc.lft.to/lastmile_qr_scan"}, "lat": 38.862468, "bike_id": "0df3883d0db7fe691d38600ff677fa86", "is_disabled": 0, "lon": -76.99499466666667, "is_reserved": 0, "fusion_lat": 0.0, "type": "electric_scooter"}, {"fusion_lon": 0.0, "name": "6a3217caef734d46b2244d300720df39", "rental_uris": {"android": "https://dc.lft.to/lastmile_qr_scan", "ios": "https://dc.lft.to/lastmile_qr_scan"}, "lat": 38.89710816666667, "bike_id": "6a3217caef734d46b2244d300720df39", "is_disabled": 0, "lon": -76.99118233333333, "is_reserved": 0, "fusion_lat": 0.0, "type": "electric_scooter"}, {"fusion_lon": 0.0, "name": "146f5a7b27d5eb5930ae93561ba337b6", "rental_uris": {"android": "https://dc.lft.to/lastmile_qr_scan", "ios": "https://dc.lft.to/lastmile_qr_scan"}, "lat": 38.9899, "bike_id": "146f5a7b27d5eb5930ae93561ba337b6", "is_disabled": 0, "lon": -77.03363383333334, "is_reserved": 0, "fusion_lat": 0.0, "type": "electric_scooter"}, {"fusion_lon": 0.0, "name": "5580a4561896f852ca5ceaa9782a83dd", "rental_uris": {"android": "https://dc.lft.to/lastmile_qr_scan", "ios": "https://dc.lft.to/lastmile_qr_scan"}, "lat": 38.923329, "bike_id": "5580a4561896f852ca5ceaa9782a83dd", "is_disabled": 0, "lon": -77.01961466666667, "is_reserved": 0, "fusion_lat": 0.0, "type": "electric_scooter"}, {"fusion_lon": 0.0, "name": "556a9833f2d0093d677820f3fe651add", "rental_uris": {"android": "https://dc.lft.to/lastmile_qr_scan", "ios": "https://dc.lft.to/lastmile_qr_scan"}, "lat": 38.91955516666667, "bike_id": "556a9833f2d0093d677820f3fe651add", "is_disabled": 0, "lon": -77.024719, "is_reserved": 0, "fusion_lat": 0.0, "type": "electric_scooter"}, {"fusion_lon": 0.0, "name": "7d82083d840ecc64f954be51c583b479", "rental_uris": {"android": "https://dc.lft.to/lastmile_qr_scan", "ios": "https://dc.lft.to/lastmile_qr_scan"}, "lat": 38.91656116666667, "bike_id": "7d82083d840ecc64f954be51c583b479", "is_disabled": 0, "lon": -77.0254285, "is_reserved": 0, "fusion_lat": 0.0, "type": "electric_scooter"}, {"fusion_lon": 0.0, "name": "70408405cfa502cce0c8d44914256280", "rental_uris": {"android": "https://dc.lft.to/lastmile_qr_scan", "ios": "https://dc.lft.to/lastmile_qr_scan"}, "lat": 38.89883666666667, "bike_id": "70408405cfa502cce0c8d44914256280", "is_disabled": 0, "lon": -76.98835083333333, "is_reserved": 0, "fusion_lat": 0.0, "type": "electric_scooter"}, {"fusion_lon": 0.0, "name": "19ba0134377a1694a90c88bdf82c48b4", "rental_uris": {"android": "https://dc.lft.to/lastmile_qr_scan", "ios": "https://dc.lft.to/lastmile_qr_scan"}, "lat": 38.899078833333334, "bike_id": "19ba0134377a1694a90c88bdf82c48b4", "is_disabled": 0, "lon": -77.03285333333334, "is_reserved": 0, "fusion_lat": 0.0, "type": "electric_scooter"}, {"fusion_lon": 0.0, "name": "4f21c546cbe88e3e48739ef24bddd1c7", "rental_uris": {"android": "https://dc.lft.to/lastmile_qr_scan", "ios": "https://dc.lft.to/lastmile_qr_scan"}, "lat": 38.9260265, "bike_id": "4f21c546cbe88e3e48739ef24bddd1c7", "is_disabled": 0, "lon": -77.02153733333333, "is_reserved": 0, "fusion_lat": 0.0, "type": "electric_scooter"}, {"fusion_lon": 0.0, "name": "0e211fc2655559de765791ceb6e7f224", "rental_uris": {"android": "https://dc.lft.to/lastmile_qr_scan", "ios": "https://dc.lft.to/lastmile_qr_scan"}, "lat": 38.96124233333333, "bike_id": "0e211fc2655559de765791ceb6e7f224", "is_disabled": 0, "lon": -77.02796416666666, "is_reserved": 0, "fusion_lat": 0.0, "type": "electric_scooter"}, {"fusion_lon": 0.0, "name": "7bd8858ef5b1fd938f51708a25803144", "rental_uris": {"android": "https://dc.lft.to/lastmile_qr_scan", "ios": "https://dc.lft.to/lastmile_qr_scan"}, "lat": 38.90563183333333, "bike_id": "7bd8858ef5b1fd938f51708a25803144", "is_disabled": 0, "lon": -77.03464783333334, "is_reserved": 0, "fusion_lat": 0.0, "type": "electric_scooter"}, {"fusion_lon": 0.0, "name": "68d3102f3c8b1330206825b4067498f9", "rental_uris": {"android": "https://dc.lft.to/lastmile_qr_scan", "ios": "https://dc.lft.to/lastmile_qr_scan"}, "lat": 38.88269183333333, "bike_id": "68d3102f3c8b1330206825b4067498f9", "is_disabled": 0, "lon": -76.99198666666666, "is_reserved": 0, "fusion_lat": 0.0, "type": "electric_scooter"}, {"fusion_lon": 0.0, "name": "389cec65d7c0aa2f4f8bbaff5088cbf8", "rental_uris": {"android": "https://dc.lft.to/lastmile_qr_scan", "ios": "https://dc.lft.to/lastmile_qr_scan"}, "lat": 38.93532316666667, "bike_id": "389cec65d7c0aa2f4f8bbaff5088cbf8", "is_disabled": 0, "lon": -77.02848583333333, "is_reserved": 0, "fusion_lat": 0.0, "type": "electric_scooter"}, {"fusion_lon": 0.0, "name": "788c7e67b08a8932fdb623c3ec978974", "rental_uris": {"android": "https://dc.lft.to/lastmile_qr_scan", "ios": "https://dc.lft.to/lastmile_qr_scan"}, "lat": 38.8974905, "bike_id": "788c7e67b08a8932fdb623c3ec978974", "is_disabled": 0, "lon": -77.02595533333333, "is_reserved": 0, "fusion_lat": 0.0, "type": "electric_scooter"}, {"fusion_lon": 0.0, "name": "395fa84c30fdc87f2e7f48e705c21cd1", "rental_uris": {"android": "https://dc.lft.to/lastmile_qr_scan", "ios": "https://dc.lft.to/lastmile_qr_scan"}, "lat": 38.908401166666664, "bike_id": "395fa84c30fdc87f2e7f48e705c21cd1", "is_disabled": 0, "lon": -77.03939583333333, "is_reserved": 0, "fusion_lat": 0.0, "type": "electric_scooter"}, {"fusion_lon": 0.0, "name": "229cf5f38a63a9c8d74739c7099c183a", "rental_uris": {"android": "https://dc.lft.to/lastmile_qr_scan", "ios": "https://dc.lft.to/lastmile_qr_scan"}, "lat": 38.896209166666665, "bike_id": "229cf5f38a63a9c8d74739c7099c183a", "is_disabled": 0, "lon": -77.01163, "is_reserved": 0, "fusion_lat": 0.0, "type": "electric_scooter"}, {"fusion_lon": 0.0, "name": "90bdf1b31bcf22a12cd04e980f1b603b", "rental_uris": {"android": "https://dc.lft.to/lastmile_qr_scan", "ios": "https://dc.lft.to/lastmile_qr_scan"}, "lat": 38.90576933333333, "bike_id": "90bdf1b31bcf22a12cd04e980f1b603b", "is_disabled": 0, "lon": -77.00390783333333, "is_reserved": 0, "fusion_lat": 0.0, "type": "electric_scooter"}, {"fusion_lon": 0.0, "name": "434511a7798dce87f8ada120d4505c27", "rental_uris": {"android": "https://dc.lft.to/lastmile_qr_scan", "ios": "https://dc.lft.to/lastmile_qr_scan"}, "lat": 38.900737666666664, "bike_id": "434511a7798dce87f8ada120d4505c27", "is_disabled": 0, "lon": -76.92747383333334, "is_reserved": 0, "fusion_lat": 0.0, "type": "electric_scooter"}, {"fusion_lon": 0.0, "name": "84853058fb93f8c85269060f39c9fa1c", "rental_uris": {"android": "https://dc.lft.to/lastmile_qr_scan", "ios": "https://dc.lft.to/lastmile_qr_scan"}, "lat": 38.89955833333333, "bike_id": "84853058fb93f8c85269060f39c9fa1c", "is_disabled": 0, "lon": -77.04783533333334, "is_reserved": 0, "fusion_lat": 0.0, "type": "electric_scooter"}, {"fusion_lon": 0.0, "name": "b5abd35f42f9c34c490a7a130d062b67", "rental_uris": {"android": "https://dc.lft.to/lastmile_qr_scan", "ios": "https://dc.lft.to/lastmile_qr_scan"}, "lat": 38.876385, "bike_id": "b5abd35f42f9c34c490a7a130d062b67", "is_disabled": 0, "lon": -77.01657083333333, "is_reserved": 0, "fusion_lat": 0.0, "type": "electric_scooter"}, {"fusion_lon": 0.0, "name": "bd9252c53211543eff7b5e56f2a499dc", "rental_uris": {"android": "https://dc.lft.to/lastmile_qr_scan", "ios": "https://dc.lft.to/lastmile_qr_scan"}, "lat": 38.878597166666665, "bike_id": "bd9252c53211543eff7b5e56f2a499dc", "is_disabled": 0, "lon": -76.99163816666666, "is_reserved": 0, "fusion_lat": 0.0, "type": "electric_scooter"}, {"fusion_lon": 0.0, "name": "9e90c4eb04607fbd16c162fd7e144468", "rental_uris": {"android": "https://dc.lft.to/lastmile_qr_scan", "ios": "https://dc.lft.to/lastmile_qr_scan"}, "lat": 38.91460083333333, "bike_id": "9e90c4eb04607fbd16c162fd7e144468", "is_disabled": 0, "lon": -77.04168483333333, "is_reserved": 0, "fusion_lat": 0.0, "type": "electric_scooter"}, {"fusion_lon": 0.0, "name": "455a5012e8b0a40fe968dd82d0fbd767", "rental_uris": {"android": "https://dc.lft.to/lastmile_qr_scan", "ios": "https://dc.lft.to/lastmile_qr_scan"}, "lat": 38.90681583333333, "bike_id": "455a5012e8b0a40fe968dd82d0fbd767", "is_disabled": 0, "lon": -77.0380575, "is_reserved": 0, "fusion_lat": 0.0, "type": "electric_scooter"}, {"fusion_lon": 0.0, "name": "4c0c1774416b4dc89242d13ee832e295", "rental_uris": {"android": "https://dc.lft.to/lastmile_qr_scan", "ios": "https://dc.lft.to/lastmile_qr_scan"}, "lat": 38.893552666666665, "bike_id": "4c0c1774416b4dc89242d13ee832e295", "is_disabled": 0, "lon": -77.00332683333333, "is_reserved": 0, "fusion_lat": 0.0, "type": "electric_scooter"}, {"fusion_lon": 0.0, "name": "f4734ae32a7b3d0157ce563d28aed58c", "rental_uris": {"android": "https://dc.lft.to/lastmile_qr_scan", "ios": "https://dc.lft.to/lastmile_qr_scan"}, "lat": 38.896167, "bike_id": "f4734ae32a7b3d0157ce563d28aed58c", "is_disabled": 0, "lon": -76.90753016666666, "is_reserved": 0, "fusion_lat": 0.0, "type": "electric_bike"}, {"fusion_lon": 0.0, "name": "533549be3aef9d6940bf39716ff83202", "rental_uris": {"android": "https://dc.lft.to/lastmile_qr_scan", "ios": "https://dc.lft.to/lastmile_qr_scan"}, "lat": 38.900843333333334, "bike_id": "533549be3aef9d6940bf39716ff83202", "is_disabled": 0, "lon": -77.04468483333333, "is_reserved": 0, "fusion_lat": 0.0, "type": "electric_scooter"}, {"fusion_lon": 0.0, "name": "be160db9509ee8d4ba7cf02a8ade65b9", "rental_uris": {"android": "https://dc.lft.to/lastmile_qr_scan", "ios": "https://dc.lft.to/lastmile_qr_scan"}, "lat": 38.903177166666666, "bike_id": "be160db9509ee8d4ba7cf02a8ade65b9", "is_disabled": 0, "lon": -76.9814565, "is_reserved": 0, "fusion_lat": 0.0, "type": "electric_scooter"}, {"fusion_lon": 0.0, "name": "9a8638bf56e65a53b7c12bf4d64cd182", "rental_uris": {"android": "https://dc.lft.to/lastmile_qr_scan", "ios": "https://dc.lft.to/lastmile_qr_scan"}, "lat": 38.8935765, "bike_id": "9a8638bf56e65a53b7c12bf4d64cd182", "is_disabled": 0, "lon": -77.0033715, "is_reserved": 0, "fusion_lat": 0.0, "type": "electric_scooter"}, {"fusion_lon": 0.0, "name": "ea21d4a84f4f9879c9f61ba605bb73d8", "rental_uris": {"android": "https://dc.lft.to/lastmile_qr_scan", "ios": "https://dc.lft.to/lastmile_qr_scan"}, "lat": 38.920308666666664, "bike_id": "ea21d4a84f4f9879c9f61ba605bb73d8", "is_disabled": 0, "lon": -77.0111665, "is_reserved": 0, "fusion_lat": 0.0, "type": "electric_scooter"}, {"fusion_lon": 0.0, "name": "f6ade2eea890c712e1fe3313b4dc6f84", "rental_uris": {"android": "https://dc.lft.to/lastmile_qr_scan", "ios": "https://dc.lft.to/lastmile_qr_scan"}, "lat": 38.89539766666667, "bike_id": "f6ade2eea890c712e1fe3313b4dc6f84", "is_disabled": 0, "lon": -77.01109033333333, "is_reserved": 0, "fusion_lat": 0.0, "type": "electric_scooter"}, {"fusion_lon": 0.0, "name": "b8f2e9f66cd69af6f24dd141ccb97a62", "rental_uris": {"android": "https://dc.lft.to/lastmile_qr_scan", "ios": "https://dc.lft.to/lastmile_qr_scan"}, "lat": 38.899284, "bike_id": "b8f2e9f66cd69af6f24dd141ccb97a62", "is_disabled": 0, "lon": -77.033444, "is_reserved": 0, "fusion_lat": 0.0, "type": "electric_scooter"}, {"fusion_lon": 0.0, "name": "147a376ee6f44d4c794bdad49b3c1b2a", "rental_uris": {"android": "https://dc.lft.to/lastmile_qr_scan", "ios": "https://dc.lft.to/lastmile_qr_scan"}, "lat": 38.9202785, "bike_id": "147a376ee6f44d4c794bdad49b3c1b2a", "is_disabled": 0, "lon": -77.02804266666666, "is_reserved": 0, "fusion_lat": 0.0, "type": "electric_scooter"}, {"fusion_lon": 0.0, "name": "2cf92fcac0b787994875c6332580d050", "rental_uris": {"android": "https://dc.lft.to/lastmile_qr_scan", "ios": "https://dc.lft.to/lastmile_qr_scan"}, "lat": 38.9100955, "bike_id": "2cf92fcac0b787994875c6332580d050", "is_disabled": 0, "lon": -76.99402133333334, "is_reserved": 0, "fusion_lat": 0.0, "type": "electric_scooter"}, {"fusion_lon": 0.0, "name": "081fba39fbf8a448c08effcd1b7cfeca", "rental_uris": {"android": "https://dc.lft.to/lastmile_qr_scan", "ios": "https://dc.lft.to/lastmile_qr_scan"}, "lat": 38.9169835, "bike_id": "081fba39fbf8a448c08effcd1b7cfeca", "is_disabled": 0, "lon": -77.04334066666667, "is_reserved": 0, "fusion_lat": 0.0, "type": "electric_scooter"}, {"fusion_lon": 0.0, "name": "d05859570d98380ca65a81add9f87761", "rental_uris": {"android": "https://dc.lft.to/lastmile_qr_scan", "ios": "https://dc.lft.to/lastmile_qr_scan"}, "lat": 38.890481, "bike_id": "d05859570d98380ca65a81add9f87761", "is_disabled": 0, "lon": -76.937498, "is_reserved": 0, "fusion_lat": 0.0, "type": "electric_scooter"}, {"fusion_lon": 0.0, "name": "35a38cb77e5a8002a6726dc8fd6b3efc", "rental_uris": {"android": "https://dc.lft.to/lastmile_qr_scan", "ios": "https://dc.lft.to/lastmile_qr_scan"}, "lat": 38.9157285, "bike_id": "35a38cb77e5a8002a6726dc8fd6b3efc", "is_disabled": 0, "lon": -77.0448865, "is_reserved": 0, "fusion_lat": 0.0, "type": "electric_scooter"}, {"fusion_lon": 0.0, "name": "987016e638bc24cd539499a83b6a7533", "rental_uris": {"android": "https://dc.lft.to/lastmile_qr_scan", "ios": "https://dc.lft.to/lastmile_qr_scan"}, "lat": 38.91977383333333, "bike_id": "987016e638bc24cd539499a83b6a7533", "is_disabled": 0, "lon": -77.02175616666666, "is_reserved": 0, "fusion_lat": 0.0, "type": "electric_scooter"}, {"fusion_lon": 0.0, "name": "ddb9e4ff9dea830e4e4ed953df51daaf", "rental_uris": {"android": "https://dc.lft.to/lastmile_qr_scan", "ios": "https://dc.lft.to/lastmile_qr_scan"}, "lat": 38.880780666666666, "bike_id": "ddb9e4ff9dea830e4e4ed953df51daaf", "is_disabled": 0, "lon": -76.99165683333334, "is_reserved": 0, "fusion_lat": 0.0, "type": "electric_scooter"}, {"fusion_lon": 0.0, "name": "1429930fae32cd8f50f3d3fe68e36d32", "rental_uris": {"android": "https://dc.lft.to/lastmile_qr_scan", "ios": "https://dc.lft.to/lastmile_qr_scan"}, "lat": 38.9033355, "bike_id": "1429930fae32cd8f50f3d3fe68e36d32", "is_disabled": 0, "lon": -76.97532816666667, "is_reserved": 0, "fusion_lat": 0.0, "type": "electric_bike"}, {"fusion_lon": 0.0, "name": "65d25a08e4c6a25c4be5e84324467dbd", "rental_uris": {"android": "https://dc.lft.to/lastmile_qr_scan", "ios": "https://dc.lft.to/lastmile_qr_scan"}, "lat": 38.90518083333333, "bike_id": "65d25a08e4c6a25c4be5e84324467dbd", "is_disabled": 0, "lon": -77.04494783333334, "is_reserved": 0, "fusion_lat": 0.0, "type": "electric_scooter"}, {"fusion_lon": 0.0, "name": "adc8cb75029882927ee014db63886d38", "rental_uris": {"android": "https://dc.lft.to/lastmile_qr_scan", "ios": "https://dc.lft.to/lastmile_qr_scan"}, "lat": 38.88837316666667, "bike_id": "adc8cb75029882927ee014db63886d38", "is_disabled": 0, "lon": -76.986843, "is_reserved": 0, "fusion_lat": 0.0, "type": "electric_scooter"}, {"fusion_lon": 0.0, "name": "452ce9480bacf64da118d1c7197e9ab1", "rental_uris": {"android": "https://dc.lft.to/lastmile_qr_scan", "ios": "https://dc.lft.to/lastmile_qr_scan"}, "lat": 38.9169745, "bike_id": "452ce9480bacf64da118d1c7197e9ab1", "is_disabled": 0, "lon": -77.03589133333334, "is_reserved": 0, "fusion_lat": 0.0, "type": "electric_scooter"}, {"fusion_lon": 0.0, "name": "022501eb3bc5b93d378e676b9aecbf78", "rental_uris": {"android": "https://dc.lft.to/lastmile_qr_scan", "ios": "https://dc.lft.to/lastmile_qr_scan"}, "lat": 38.92700166666667, "bike_id": "022501eb3bc5b93d378e676b9aecbf78", "is_disabled": 0, "lon": -77.020787, "is_reserved": 0, "fusion_lat": 0.0, "type": "electric_scooter"}, {"fusion_lon": 0.0, "name": "455571b80f4cc7391b9c3224282fad29", "rental_uris": {"android": "https://dc.lft.to/lastmile_qr_scan", "ios": "https://dc.lft.to/lastmile_qr_scan"}, "lat": 38.904224666666664, "bike_id": "455571b80f4cc7391b9c3224282fad29", "is_disabled": 0, "lon": -77.05328233333333, "is_reserved": 0, "fusion_lat": 0.0, "type": "electric_scooter"}, {"fusion_lon": 0.0, "name": "4b37706aca459f5a1226a44c014dd2e9", "rental_uris": {"android": "https://dc.lft.to/lastmile_qr_scan", "ios": "https://dc.lft.to/lastmile_qr_scan"}, "lat": 38.91020316666667, "bike_id": "4b37706aca459f5a1226a44c014dd2e9", "is_disabled": 0, "lon": -76.993733, "is_reserved": 0, "fusion_lat": 0.0, "type": "electric_scooter"}, {"fusion_lon": 0.0, "name": "e58d5ce99dcc0f1b21c108f9844fc573", "rental_uris": {"android": "https://dc.lft.to/lastmile_qr_scan", "ios": "https://dc.lft.to/lastmile_qr_scan"}, "lat": 38.9206355, "bike_id": "e58d5ce99dcc0f1b21c108f9844fc573", "is_disabled": 0, "lon": -77.022979, "is_reserved": 0, "fusion_lat": 0.0, "type": "electric_scooter"}, {"fusion_lon": 0.0, "name": "78267c6e1b65db44d74b05b715f34ab9", "rental_uris": {"android": "https://dc.lft.to/lastmile_qr_scan", "ios": "https://dc.lft.to/lastmile_qr_scan"}, "lat": 38.90557416666667, "bike_id": "78267c6e1b65db44d74b05b715f34ab9", "is_disabled": 0, "lon": -77.045574, "is_reserved": 0, "fusion_lat": 0.0, "type": "electric_scooter"}, {"fusion_lon": 0.0, "name": "2927f12030ebfd66bbea762782d237b2", "rental_uris": {"android": "https://dc.lft.to/lastmile_qr_scan", "ios": "https://dc.lft.to/lastmile_qr_scan"}, "lat": 38.916904833333334, "bike_id": "2927f12030ebfd66bbea762782d237b2", "is_disabled": 0, "lon": -77.03826683333334, "is_reserved": 0, "fusion_lat": 0.0, "type": "electric_scooter"}, {"fusion_lon": 0.0, "name": "e4df0a8060be242a2254d22028faa09f", "rental_uris": {"android": "https://dc.lft.to/lastmile_qr_scan", "ios": "https://dc.lft.to/lastmile_qr_scan"}, "lat": 38.90621983333333, "bike_id": "e4df0a8060be242a2254d22028faa09f", "is_disabled": 0, "lon": -76.993265, "is_reserved": 0, "fusion_lat": 0.0, "type": "electric_scooter"}, {"fusion_lon": 0.0, "name": "036d370bb511524a92f99df2f2979663", "rental_uris": {"android": "https://dc.lft.to/lastmile_qr_scan", "ios": "https://dc.lft.to/lastmile_qr_scan"}, "lat": 38.900734666666665, "bike_id": "036d370bb511524a92f99df2f2979663", "is_disabled": 0, "lon": -77.021881, "is_reserved": 0, "fusion_lat": 0.0, "type": "electric_scooter"}, {"fusion_lon": 0.0, "name": "c04b6d1306fd15308491f34faeffda28", "rental_uris": {"android": "https://dc.lft.to/lastmile_qr_scan", "ios": "https://dc.lft.to/lastmile_qr_scan"}, "lat": 38.87528483333333, "bike_id": "c04b6d1306fd15308491f34faeffda28", "is_disabled": 0, "lon": -77.01224466666666, "is_reserved": 0, "fusion_lat": 0.0, "type": "electric_scooter"}, {"fusion_lon": 0.0, "name": "b605b6992e9ec8ec1512cbc0130b0cdb", "rental_uris": {"android": "https://dc.lft.to/lastmile_qr_scan", "ios": "https://dc.lft.to/lastmile_qr_scan"}, "lat": 38.907211333333336, "bike_id": "b605b6992e9ec8ec1512cbc0130b0cdb", "is_disabled": 0, "lon": -77.03955283333333, "is_reserved": 0, "fusion_lat": 0.0, "type": "electric_scooter"}, {"fusion_lon": 0.0, "name": "3102f5a522baf4ea430a01833f4577a9", "rental_uris": {"android": "https://dc.lft.to/lastmile_qr_scan", "ios": "https://dc.lft.to/lastmile_qr_scan"}, "lat": 38.97315483333333, "bike_id": "3102f5a522baf4ea430a01833f4577a9", "is_disabled": 0, "lon": -77.02705333333333, "is_reserved": 0, "fusion_lat": 0.0, "type": "electric_scooter"}, {"fusion_lon": 0.0, "name": "be329c05d49ec730dbbc0b4a00732bb0", "rental_uris": {"android": "https://dc.lft.to/lastmile_qr_scan", "ios": "https://dc.lft.to/lastmile_qr_scan"}, "lat": 38.92259383333333, "bike_id": "be329c05d49ec730dbbc0b4a00732bb0", "is_disabled": 0, "lon": -76.98649, "is_reserved": 0, "fusion_lat": 0.0, "type": "electric_scooter"}, {"fusion_lon": 0.0, "name": "33d39a28efa30b21e6b0ce2d2b61b7b2", "rental_uris": {"android": "https://dc.lft.to/lastmile_qr_scan", "ios": "https://dc.lft.to/lastmile_qr_scan"}, "lat": 38.903802666666664, "bike_id": "33d39a28efa30b21e6b0ce2d2b61b7b2", "is_disabled": 0, "lon": -77.04499633333333, "is_reserved": 0, "fusion_lat": 0.0, "type": "electric_scooter"}, {"fusion_lon": 0.0, "name": "823d8ff3528f6d8db0977cb7705aee10", "rental_uris": {"android": "https://dc.lft.to/lastmile_qr_scan", "ios": "https://dc.lft.to/lastmile_qr_scan"}, "lat": 38.90231966666666, "bike_id": "823d8ff3528f6d8db0977cb7705aee10", "is_disabled": 0, "lon": -77.03470316666667, "is_reserved": 0, "fusion_lat": 0.0, "type": "electric_scooter"}, {"fusion_lon": 0.0, "name": "fb67351ab6ac114ab09fab47a81ab70b", "rental_uris": {"android": "https://dc.lft.to/lastmile_qr_scan", "ios": "https://dc.lft.to/lastmile_qr_scan"}, "lat": 38.911135, "bike_id": "fb67351ab6ac114ab09fab47a81ab70b", "is_disabled": 0, "lon": -77.0382865, "is_reserved": 0, "fusion_lat": 0.0, "type": "electric_scooter"}, {"fusion_lon": 0.0, "name": "bc7b21133168159f93483b67b1c8cafc", "rental_uris": {"android": "https://dc.lft.to/lastmile_qr_scan", "ios": "https://dc.lft.to/lastmile_qr_scan"}, "lat": 38.924767833333334, "bike_id": "bc7b21133168159f93483b67b1c8cafc", "is_disabled": 0, "lon": -77.022186, "is_reserved": 0, "fusion_lat": 0.0, "type": "electric_scooter"}, {"fusion_lon": 0.0, "name": "c9e129fefedb81c8fd254eb6bb942ed5", "rental_uris": {"android": "https://dc.lft.to/lastmile_qr_scan", "ios": "https://dc.lft.to/lastmile_qr_scan"}, "lat": 38.89367166666667, "bike_id": "c9e129fefedb81c8fd254eb6bb942ed5", "is_disabled": 0, "lon": -77.00331216666666, "is_reserved": 0, "fusion_lat": 0.0, "type": "electric_scooter"}, {"fusion_lon": 0.0, "name": "a929e2c9b51d066c67053167e04e830c", "rental_uris": {"android": "https://dc.lft.to/lastmile_qr_scan", "ios": "https://dc.lft.to/lastmile_qr_scan"}, "lat": 38.92614866666667, "bike_id": "a929e2c9b51d066c67053167e04e830c", "is_disabled": 0, "lon": -77.02160483333333, "is_reserved": 0, "fusion_lat": 0.0, "type": "electric_scooter"}, {"fusion_lon": 0.0, "name": "e376bd7f43733d8d67f64b55a7bf335e", "rental_uris": {"android": "https://dc.lft.to/lastmile_qr_scan", "ios": "https://dc.lft.to/lastmile_qr_scan"}, "lat": 38.91293066666667, "bike_id": "e376bd7f43733d8d67f64b55a7bf335e", "is_disabled": 0, "lon": -76.98539733333334, "is_reserved": 0, "fusion_lat": 0.0, "type": "electric_scooter"}, {"fusion_lon": 0.0, "name": "712a71bc3569901318f6d2cf3b8ecfcb", "rental_uris": {"android": "https://dc.lft.to/lastmile_qr_scan", "ios": "https://dc.lft.to/lastmile_qr_scan"}, "lat": 38.95575083333333, "bike_id": "712a71bc3569901318f6d2cf3b8ecfcb", "is_disabled": 0, "lon": -77.07009433333333, "is_reserved": 0, "fusion_lat": 0.0, "type": "electric_scooter"}, {"fusion_lon": 0.0, "name": "bfeb10c27b7e8f3409527055c4969837", "rental_uris": {"android": "https://dc.lft.to/lastmile_qr_scan", "ios": "https://dc.lft.to/lastmile_qr_scan"}, "lat": 38.956616, "bike_id": "bfeb10c27b7e8f3409527055c4969837", "is_disabled": 0, "lon": -77.08368733333333, "is_reserved": 0, "fusion_lat": 0.0, "type": "electric_scooter"}, {"fusion_lon": 0.0, "name": "1ac5d44afa36e220755f434fb8d8b4d6", "rental_uris": {"android": "https://dc.lft.to/lastmile_qr_scan", "ios": "https://dc.lft.to/lastmile_qr_scan"}, "lat": 38.87682016666667, "bike_id": "1ac5d44afa36e220755f434fb8d8b4d6", "is_disabled": 0, "lon": -77.00606116666667, "is_reserved": 0, "fusion_lat": 0.0, "type": "electric_scooter"}, {"fusion_lon": 0.0, "name": "430ed9b84ee62159b54f4fe90429ff74", "rental_uris": {"android": "https://dc.lft.to/lastmile_qr_scan", "ios": "https://dc.lft.to/lastmile_qr_scan"}, "lat": 38.87854983333333, "bike_id": "430ed9b84ee62159b54f4fe90429ff74", "is_disabled": 0, "lon": -77.02233083333333, "is_reserved": 0, "fusion_lat": 0.0, "type": "electric_scooter"}, {"fusion_lon": 0.0, "name": "b0b3897cc2244f82275d38574856ab41", "rental_uris": {"android": "https://dc.lft.to/lastmile_qr_scan", "ios": "https://dc.lft.to/lastmile_qr_scan"}, "lat": 38.8961005, "bike_id": "b0b3897cc2244f82275d38574856ab41", "is_disabled": 0, "lon": -77.022182, "is_reserved": 0, "fusion_lat": 0.0, "type": "electric_scooter"}, {"fusion_lon": 0.0, "name": "64504cf006a3f122546651fddc17e44a", "rental_uris": {"android": "https://dc.lft.to/lastmile_qr_scan", "ios": "https://dc.lft.to/lastmile_qr_scan"}, "lat": 38.908993, "bike_id": "64504cf006a3f122546651fddc17e44a", "is_disabled": 0, "lon": -77.04397516666667, "is_reserved": 0, "fusion_lat": 0.0, "type": "electric_scooter"}, {"fusion_lon": 0.0, "name": "b61393c33868b48f9a84e10a8425451a", "rental_uris": {"android": "https://dc.lft.to/lastmile_qr_scan", "ios": "https://dc.lft.to/lastmile_qr_scan"}, "lat": 38.90152066666667, "bike_id": "b61393c33868b48f9a84e10a8425451a", "is_disabled": 0, "lon": -77.044429, "is_reserved": 0, "fusion_lat": 0.0, "type": "electric_scooter"}, {"fusion_lon": 0.0, "name": "19a57b243fed805b734c77b2a85119f2", "rental_uris": {"android": "https://dc.lft.to/lastmile_qr_scan", "ios": "https://dc.lft.to/lastmile_qr_scan"}, "lat": 38.91022916666667, "bike_id": "19a57b243fed805b734c77b2a85119f2", "is_disabled": 0, "lon": -77.04287883333333, "is_reserved": 0, "fusion_lat": 0.0, "type": "electric_scooter"}, {"fusion_lon": 0.0, "name": "9fdbd37989c69e3485e8b0594cf1b4cb", "rental_uris": {"android": "https://dc.lft.to/lastmile_qr_scan", "ios": "https://dc.lft.to/lastmile_qr_scan"}, "lat": 38.907515333333336, "bike_id": "9fdbd37989c69e3485e8b0594cf1b4cb", "is_disabled": 0, "lon": -77.04164766666666, "is_reserved": 0, "fusion_lat": 0.0, "type": "electric_scooter"}, {"fusion_lon": 0.0, "name": "01eab4188473cf3b9d0865112828d6c8", "rental_uris": {"android": "https://dc.lft.to/lastmile_qr_scan", "ios": "https://dc.lft.to/lastmile_qr_scan"}, "lat": 38.88522616666667, "bike_id": "01eab4188473cf3b9d0865112828d6c8", "is_disabled": 0, "lon": -76.920015, "is_reserved": 0, "fusion_lat": 0.0, "type": "electric_scooter"}, {"fusion_lon": 0.0, "name": "37befe5233b738d20b9343c78cef2e04", "rental_uris": {"android": "https://dc.lft.to/lastmile_qr_scan", "ios": "https://dc.lft.to/lastmile_qr_scan"}, "lat": 38.941959833333335, "bike_id": "37befe5233b738d20b9343c78cef2e04", "is_disabled": 0, "lon": -77.03555383333334, "is_reserved": 0, "fusion_lat": 0.0, "type": "electric_scooter"}, {"fusion_lon": 0.0, "name": "42e7559b8c82727de064988d54961656", "rental_uris": {"android": "https://dc.lft.to/lastmile_qr_scan", "ios": "https://dc.lft.to/lastmile_qr_scan"}, "lat": 38.928839833333335, "bike_id": "42e7559b8c82727de064988d54961656", "is_disabled": 0, "lon": -77.01363483333333, "is_reserved": 0, "fusion_lat": 0.0, "type": "electric_scooter"}, {"fusion_lon": 0.0, "name": "9867ffa36c31883395042a770390322f", "rental_uris": {"android": "https://dc.lft.to/lastmile_qr_scan", "ios": "https://dc.lft.to/lastmile_qr_scan"}, "lat": 38.90833666666666, "bike_id": "9867ffa36c31883395042a770390322f", "is_disabled": 0, "lon": -77.03853066666667, "is_reserved": 0, "fusion_lat": 0.0, "type": "electric_scooter"}, {"fusion_lon": 0.0, "name": "e9031fdef82e66bb9576e22692e24aed", "rental_uris": {"android": "https://dc.lft.to/lastmile_qr_scan", "ios": "https://dc.lft.to/lastmile_qr_scan"}, "lat": 38.91127016666667, "bike_id": "e9031fdef82e66bb9576e22692e24aed", "is_disabled": 0, "lon": -77.0219685, "is_reserved": 0, "fusion_lat": 0.0, "type": "electric_scooter"}, {"fusion_lon": 0.0, "name": "97141a22f25024d0b7be46b8f89e12c5", "rental_uris": {"android": "https://dc.lft.to/lastmile_qr_scan", "ios": "https://dc.lft.to/lastmile_qr_scan"}, "lat": 38.929757333333335, "bike_id": "97141a22f25024d0b7be46b8f89e12c5", "is_disabled": 0, "lon": -77.02790433333334, "is_reserved": 0, "fusion_lat": 0.0, "type": "electric_scooter"}, {"fusion_lon": 0.0, "name": "2ae35de1dd5ae769a2b28b5697ddb274", "rental_uris": {"android": "https://dc.lft.to/lastmile_qr_scan", "ios": "https://dc.lft.to/lastmile_qr_scan"}, "lat": 38.9246995, "bike_id": "2ae35de1dd5ae769a2b28b5697ddb274", "is_disabled": 0, "lon": -77.0220555, "is_reserved": 0, "fusion_lat": 0.0, "type": "electric_scooter"}, {"fusion_lon": 0.0, "name": "19fa597e04b430b33ab154b5436853d4", "rental_uris": {"android": "https://dc.lft.to/lastmile_qr_scan", "ios": "https://dc.lft.to/lastmile_qr_scan"}, "lat": 38.87683, "bike_id": "19fa597e04b430b33ab154b5436853d4", "is_disabled": 0, "lon": -77.000709, "is_reserved": 0, "fusion_lat": 0.0, "type": "electric_scooter"}, {"fusion_lon": 0.0, "name": "507366dd3e9d217cf4ce9e54e565f0ce", "rental_uris": {"android": "https://dc.lft.to/lastmile_qr_scan", "ios": "https://dc.lft.to/lastmile_qr_scan"}, "lat": 38.926046166666666, "bike_id": "507366dd3e9d217cf4ce9e54e565f0ce", "is_disabled": 0, "lon": -77.02157633333333, "is_reserved": 0, "fusion_lat": 0.0, "type": "electric_scooter"}, {"fusion_lon": 0.0, "name": "72d9f95635fa3f5ad9aa15adcc8f92b5", "rental_uris": {"android": "https://dc.lft.to/lastmile_qr_scan", "ios": "https://dc.lft.to/lastmile_qr_scan"}, "lat": 38.92041716666667, "bike_id": "72d9f95635fa3f5ad9aa15adcc8f92b5", "is_disabled": 0, "lon": -76.99122766666666, "is_reserved": 0, "fusion_lat": 0.0, "type": "electric_bike"}, {"fusion_lon": 0.0, "name": "4e7c1d1f47954ec9ff91ff83f11cbe13", "rental_uris": {"android": "https://dc.lft.to/lastmile_qr_scan", "ios": "https://dc.lft.to/lastmile_qr_scan"}, "lat": 38.9576305, "bike_id": "4e7c1d1f47954ec9ff91ff83f11cbe13", "is_disabled": 0, "lon": -77.0091485, "is_reserved": 0, "fusion_lat": 0.0, "type": "electric_scooter"}, {"fusion_lon": 0.0, "name": "9fded28657b2943e5ec2b0640c4cdd2d", "rental_uris": {"android": "https://dc.lft.to/lastmile_qr_scan", "ios": "https://dc.lft.to/lastmile_qr_scan"}, "lat": 38.92011, "bike_id": "9fded28657b2943e5ec2b0640c4cdd2d", "is_disabled": 0, "lon": -77.03778983333333, "is_reserved": 0, "fusion_lat": 0.0, "type": "electric_scooter"}, {"fusion_lon": 0.0, "name": "e8f71ed2eade07407bd69b8c1106c333", "rental_uris": {"android": "https://dc.lft.to/lastmile_qr_scan", "ios": "https://dc.lft.to/lastmile_qr_scan"}, "lat": 38.954233, "bike_id": "e8f71ed2eade07407bd69b8c1106c333", "is_disabled": 0, "lon": -77.00729583333333, "is_reserved": 0, "fusion_lat": 0.0, "type": "electric_scooter"}, {"fusion_lon": 0.0, "name": "f41044aa0d534550c333e4d22c5df41e", "rental_uris": {"android": "https://dc.lft.to/lastmile_qr_scan", "ios": "https://dc.lft.to/lastmile_qr_scan"}, "lat": 38.896210833333335, "bike_id": "f41044aa0d534550c333e4d22c5df41e", "is_disabled": 0, "lon": -77.023906, "is_reserved": 0, "fusion_lat": 0.0, "type": "electric_scooter"}, {"fusion_lon": 0.0, "name": "2e79f6cc9dc47ce378716542bff2ab0e", "rental_uris": {"android": "https://dc.lft.to/lastmile_qr_scan", "ios": "https://dc.lft.to/lastmile_qr_scan"}, "lat": 38.89232966666667, "bike_id": "2e79f6cc9dc47ce378716542bff2ab0e", "is_disabled": 0, "lon": -77.02383983333333, "is_reserved": 0, "fusion_lat": 0.0, "type": "electric_scooter"}, {"fusion_lon": 0.0, "name": "59d44b692837ed13fa8206abf726852f", "rental_uris": {"android": "https://dc.lft.to/lastmile_qr_scan", "ios": "https://dc.lft.to/lastmile_qr_scan"}, "lat": 38.92346083333333, "bike_id": "59d44b692837ed13fa8206abf726852f", "is_disabled": 0, "lon": -77.01908833333333, "is_reserved": 0, "fusion_lat": 0.0, "type": "electric_scooter"}, {"fusion_lon": 0.0, "name": "b959eac1b1a981a381be8223978ab48c", "rental_uris": {"android": "https://dc.lft.to/lastmile_qr_scan", "ios": "https://dc.lft.to/lastmile_qr_scan"}, "lat": 38.9175305, "bike_id": "b959eac1b1a981a381be8223978ab48c", "is_disabled": 0, "lon": -77.02109266666666, "is_reserved": 0, "fusion_lat": 0.0, "type": "electric_scooter"}, {"fusion_lon": 0.0, "name": "7ad818ca47036888da796c187e3ec47e", "rental_uris": {"android": "https://dc.lft.to/lastmile_qr_scan", "ios": "https://dc.lft.to/lastmile_qr_scan"}, "lat": 38.92613333333333, "bike_id": "7ad818ca47036888da796c187e3ec47e", "is_disabled": 0, "lon": -77.02156633333334, "is_reserved": 0, "fusion_lat": 0.0, "type": "electric_scooter"}, {"fusion_lon": 0.0, "name": "d1bc57fd5ecf78b6c93482528f52f44b", "rental_uris": {"android": "https://dc.lft.to/lastmile_qr_scan", "ios": "https://dc.lft.to/lastmile_qr_scan"}, "lat": 38.87662, "bike_id": "d1bc57fd5ecf78b6c93482528f52f44b", "is_disabled": 0, "lon": -76.99316183333333, "is_reserved": 0, "fusion_lat": 0.0, "type": "electric_scooter"}, {"fusion_lon": 0.0, "name": "d898e0cb47a9580eb1684fc2b505b7ad", "rental_uris": {"android": "https://dc.lft.to/lastmile_qr_scan", "ios": "https://dc.lft.to/lastmile_qr_scan"}, "lat": 38.943699333333335, "bike_id": "d898e0cb47a9580eb1684fc2b505b7ad", "is_disabled": 0, "lon": -77.06099316666666, "is_reserved": 0, "fusion_lat": 0.0, "type": "electric_scooter"}, {"fusion_lon": 0.0, "name": "fa5c0072556a5a939f9d23079c9c71fe", "rental_uris": {"android": "https://dc.lft.to/lastmile_qr_scan", "ios": "https://dc.lft.to/lastmile_qr_scan"}, "lat": 38.900292, "bike_id": "fa5c0072556a5a939f9d23079c9c71fe", "is_disabled": 0, "lon": -76.9906225, "is_reserved": 0, "fusion_lat": 0.0, "type": "electric_bike"}, {"fusion_lon": 0.0, "name": "e16ad42aaf4a8f283f83071e0ab882c2", "rental_uris": {"android": "https://dc.lft.to/lastmile_qr_scan", "ios": "https://dc.lft.to/lastmile_qr_scan"}, "lat": 38.922694666666665, "bike_id": "e16ad42aaf4a8f283f83071e0ab882c2", "is_disabled": 0, "lon": -77.03392183333334, "is_reserved": 0, "fusion_lat": 0.0, "type": "electric_scooter"}, {"fusion_lon": 0.0, "name": "f52bcbbc4b84cc5871c4cf76061cac87", "rental_uris": {"android": "https://dc.lft.to/lastmile_qr_scan", "ios": "https://dc.lft.to/lastmile_qr_scan"}, "lat": 38.926010166666664, "bike_id": "f52bcbbc4b84cc5871c4cf76061cac87", "is_disabled": 0, "lon": -77.03657366666667, "is_reserved": 0, "fusion_lat": 0.0, "type": "electric_scooter"}, {"fusion_lon": 0.0, "name": "d5e83436d05e1da8597fb90f30a7c2c2", "rental_uris": {"android": "https://dc.lft.to/lastmile_qr_scan", "ios": "https://dc.lft.to/lastmile_qr_scan"}, "lat": 38.921729166666665, "bike_id": "d5e83436d05e1da8597fb90f30a7c2c2", "is_disabled": 0, "lon": -77.02668433333334, "is_reserved": 0, "fusion_lat": 0.0, "type": "electric_scooter"}, {"fusion_lon": 0.0, "name": "8fcca26c5fa598835c081a287a047dde", "rental_uris": {"android": "https://dc.lft.to/lastmile_qr_scan", "ios": "https://dc.lft.to/lastmile_qr_scan"}, "lat": 38.90878166666667, "bike_id": "8fcca26c5fa598835c081a287a047dde", "is_disabled": 0, "lon": -77.07532, "is_reserved": 0, "fusion_lat": 0.0, "type": "electric_scooter"}, {"fusion_lon": 0.0, "name": "d3c98d2c561141faa4a7124e7baf4ac2", "rental_uris": {"android": "https://dc.lft.to/lastmile_qr_scan", "ios": "https://dc.lft.to/lastmile_qr_scan"}, "lat": 38.8983925, "bike_id": "d3c98d2c561141faa4a7124e7baf4ac2", "is_disabled": 0, "lon": -77.02431216666666, "is_reserved": 0, "fusion_lat": 0.0, "type": "electric_scooter"}, {"fusion_lon": 0.0, "name": "746184f71f77aae5d0699de239ea3647", "rental_uris": {"android": "https://dc.lft.to/lastmile_qr_scan", "ios": "https://dc.lft.to/lastmile_qr_scan"}, "lat": 38.88436866666667, "bike_id": "746184f71f77aae5d0699de239ea3647", "is_disabled": 0, "lon": -77.02557016666667, "is_reserved": 0, "fusion_lat": 0.0, "type": "electric_scooter"}, {"fusion_lon": 0.0, "name": "e70c08fa3dccca43fe60ea91777ccac1", "rental_uris": {"android": "https://dc.lft.to/lastmile_qr_scan", "ios": "https://dc.lft.to/lastmile_qr_scan"}, "lat": 38.879388166666665, "bike_id": "e70c08fa3dccca43fe60ea91777ccac1", "is_disabled": 0, "lon": -77.0037645, "is_reserved": 0, "fusion_lat": 0.0, "type": "electric_scooter"}, {"fusion_lon": 0.0, "name": "94edd3d165a82d5114f4949f51fb4b4b", "rental_uris": {"android": "https://dc.lft.to/lastmile_qr_scan", "ios": "https://dc.lft.to/lastmile_qr_scan"}, "lat": 38.89581183333333, "bike_id": "94edd3d165a82d5114f4949f51fb4b4b", "is_disabled": 0, "lon": -76.94846016666666, "is_reserved": 0, "fusion_lat": 0.0, "type": "electric_scooter"}, {"fusion_lon": 0.0, "name": "3020c43db5e4193439faf8646b0ec27f", "rental_uris": {"android": "https://dc.lft.to/lastmile_qr_scan", "ios": "https://dc.lft.to/lastmile_qr_scan"}, "lat": 38.883410166666664, "bike_id": "3020c43db5e4193439faf8646b0ec27f", "is_disabled": 0, "lon": -76.94289483333333, "is_reserved": 0, "fusion_lat": 0.0, "type": "electric_scooter"}, {"fusion_lon": 0.0, "name": "6eb15c02f1449c101ccbe99fc7bdc3cd", "rental_uris": {"android": "https://dc.lft.to/lastmile_qr_scan", "ios": "https://dc.lft.to/lastmile_qr_scan"}, "lat": 38.900399666666665, "bike_id": "6eb15c02f1449c101ccbe99fc7bdc3cd", "is_disabled": 0, "lon": -76.97224783333333, "is_reserved": 0, "fusion_lat": 0.0, "type": "electric_bike"}, {"fusion_lon": 0.0, "name": "97270cabf35d0192725f4ac696f4f0c6", "rental_uris": {"android": "https://dc.lft.to/lastmile_qr_scan", "ios": "https://dc.lft.to/lastmile_qr_scan"}, "lat": 38.90285983333333, "bike_id": "97270cabf35d0192725f4ac696f4f0c6", "is_disabled": 0, "lon": -77.03455666666666, "is_reserved": 0, "fusion_lat": 0.0, "type": "electric_scooter"}, {"fusion_lon": 0.0, "name": "1c1844a8077e9b8987999014100683a8", "rental_uris": {"android": "https://dc.lft.to/lastmile_qr_scan", "ios": "https://dc.lft.to/lastmile_qr_scan"}, "lat": 38.898791333333335, "bike_id": "1c1844a8077e9b8987999014100683a8", "is_disabled": 0, "lon": -76.9318605, "is_reserved": 0, "fusion_lat": 0.0, "type": "electric_bike"}, {"fusion_lon": 0.0, "name": "3d4fa25bcb400967670bf9882d65e6ed", "rental_uris": {"android": "https://dc.lft.to/lastmile_qr_scan", "ios": "https://dc.lft.to/lastmile_qr_scan"}, "lat": 38.91521783333334, "bike_id": "3d4fa25bcb400967670bf9882d65e6ed", "is_disabled": 0, "lon": -77.012245, "is_reserved": 0, "fusion_lat": 0.0, "type": "electric_scooter"}, {"fusion_lon": 0.0, "name": "10cfb99b46513373c09b51fc49f4a44a", "rental_uris": {"android": "https://dc.lft.to/lastmile_qr_scan", "ios": "https://dc.lft.to/lastmile_qr_scan"}, "lat": 38.96500533333333, "bike_id": "10cfb99b46513373c09b51fc49f4a44a", "is_disabled": 0, "lon": -77.00256466666667, "is_reserved": 0, "fusion_lat": 0.0, "type": "electric_scooter"}, {"fusion_lon": 0.0, "name": "2869c8087aba533d0e9bc4353604181f", "rental_uris": {"android": "https://dc.lft.to/lastmile_qr_scan", "ios": "https://dc.lft.to/lastmile_qr_scan"}, "lat": 38.90368483333334, "bike_id": "2869c8087aba533d0e9bc4353604181f", "is_disabled": 0, "lon": -77.03194683333334, "is_reserved": 0, "fusion_lat": 0.0, "type": "electric_scooter"}, {"fusion_lon": 0.0, "name": "dabf66e23ac01eb8dfae571b85ba3b9c", "rental_uris": {"android": "https://dc.lft.to/lastmile_qr_scan", "ios": "https://dc.lft.to/lastmile_qr_scan"}, "lat": 38.924677333333335, "bike_id": "dabf66e23ac01eb8dfae571b85ba3b9c", "is_disabled": 0, "lon": -77.02201583333333, "is_reserved": 0, "fusion_lat": 0.0, "type": "electric_scooter"}, {"fusion_lon": 0.0, "name": "6c12fabe0c08ab461eaba9f105cbb7b8", "rental_uris": {"android": "https://dc.lft.to/lastmile_qr_scan", "ios": "https://dc.lft.to/lastmile_qr_scan"}, "lat": 38.8960445, "bike_id": "6c12fabe0c08ab461eaba9f105cbb7b8", "is_disabled": 0, "lon": -77.0459775, "is_reserved": 0, "fusion_lat": 0.0, "type": "electric_scooter"}, {"fusion_lon": 0.0, "name": "1438be0f8273128dc454cdeca15a5b78", "rental_uris": {"android": "https://dc.lft.to/lastmile_qr_scan", "ios": "https://dc.lft.to/lastmile_qr_scan"}, "lat": 38.894231833333336, "bike_id": "1438be0f8273128dc454cdeca15a5b78", "is_disabled": 0, "lon": -76.9977535, "is_reserved": 0, "fusion_lat": 0.0, "type": "electric_scooter"}, {"fusion_lon": 0.0, "name": "d355678106d013a71f73c03fb2813517", "rental_uris": {"android": "https://dc.lft.to/lastmile_qr_scan", "ios": "https://dc.lft.to/lastmile_qr_scan"}, "lat": 39.038115833333336, "bike_id": "d355678106d013a71f73c03fb2813517", "is_disabled": 0, "lon": -77.04230716666666, "is_reserved": 0, "fusion_lat": 0.0, "type": "electric_bike"}, {"fusion_lon": 0.0, "name": "f7d57f2d401299e57dc3c0340d4fe521", "rental_uris": {"android": "https://dc.lft.to/lastmile_qr_scan", "ios": "https://dc.lft.to/lastmile_qr_scan"}, "lat": 38.905561666666664, "bike_id": "f7d57f2d401299e57dc3c0340d4fe521", "is_disabled": 0, "lon": -77.035059, "is_reserved": 0, "fusion_lat": 0.0, "type": "electric_scooter"}, {"fusion_lon": 0.0, "name": "463477f37d467d479f36ba5113fee37f", "rental_uris": {"android": "https://dc.lft.to/lastmile_qr_scan", "ios": "https://dc.lft.to/lastmile_qr_scan"}, "lat": 38.88218033333333, "bike_id": "463477f37d467d479f36ba5113fee37f", "is_disabled": 0, "lon": -76.939265, "is_reserved": 0, "fusion_lat": 0.0, "type": "electric_scooter"}, {"fusion_lon": 0.0, "name": "ca468eca6d50e2944a0f586223243aeb", "rental_uris": {"android": "https://dc.lft.to/lastmile_qr_scan", "ios": "https://dc.lft.to/lastmile_qr_scan"}, "lat": 38.902437166666665, "bike_id": "ca468eca6d50e2944a0f586223243aeb", "is_disabled": 0, "lon": -76.97404466666667, "is_reserved": 0, "fusion_lat": 0.0, "type": "electric_scooter"}, {"fusion_lon": 0.0, "name": "f350f812c92b193dbf883b7d40bb80d1", "rental_uris": {"android": "https://dc.lft.to/lastmile_qr_scan", "ios": "https://dc.lft.to/lastmile_qr_scan"}, "lat": 38.876392, "bike_id": "f350f812c92b193dbf883b7d40bb80d1", "is_disabled": 0, "lon": -77.00260516666667, "is_reserved": 0, "fusion_lat": 0.0, "type": "electric_scooter"}, {"fusion_lon": 0.0, "name": "03ab271ac266ca7852b9b304d7832d41", "rental_uris": {"android": "https://dc.lft.to/lastmile_qr_scan", "ios": "https://dc.lft.to/lastmile_qr_scan"}, "lat": 38.89224983333333, "bike_id": "03ab271ac266ca7852b9b304d7832d41", "is_disabled": 0, "lon": -77.04368816666667, "is_reserved": 0, "fusion_lat": 0.0, "type": "electric_scooter"}, {"fusion_lon": 0.0, "name": "c9ba5ddf7b279ddf8c205de5e16e6f4d", "rental_uris": {"android": "https://dc.lft.to/lastmile_qr_scan", "ios": "https://dc.lft.to/lastmile_qr_scan"}, "lat": 38.94304183333333, "bike_id": "c9ba5ddf7b279ddf8c205de5e16e6f4d", "is_disabled": 0, "lon": -77.03459866666667, "is_reserved": 0, "fusion_lat": 0.0, "type": "electric_scooter"}, {"fusion_lon": 0.0, "name": "559cafc958d3f0732c285b34b0a5bbe7", "rental_uris": {"android": "https://dc.lft.to/lastmile_qr_scan", "ios": "https://dc.lft.to/lastmile_qr_scan"}, "lat": 38.90266316666667, "bike_id": "559cafc958d3f0732c285b34b0a5bbe7", "is_disabled": 0, "lon": -77.044316, "is_reserved": 0, "fusion_lat": 0.0, "type": "electric_scooter"}, {"fusion_lon": 0.0, "name": "2b56a985c32beb091acbeb8711819cc4", "rental_uris": {"android": "https://dc.lft.to/lastmile_qr_scan", "ios": "https://dc.lft.to/lastmile_qr_scan"}, "lat": 38.9148625, "bike_id": "2b56a985c32beb091acbeb8711819cc4", "is_disabled": 0, "lon": -77.04503783333334, "is_reserved": 0, "fusion_lat": 0.0, "type": "electric_scooter"}, {"fusion_lon": 0.0, "name": "8cb2b21e42157e88150a7e08875dd1dc", "rental_uris": {"android": "https://dc.lft.to/lastmile_qr_scan", "ios": "https://dc.lft.to/lastmile_qr_scan"}, "lat": 38.9003665, "bike_id": "8cb2b21e42157e88150a7e08875dd1dc", "is_disabled": 0, "lon": -77.02411266666667, "is_reserved": 0, "fusion_lat": 0.0, "type": "electric_scooter"}, {"fusion_lon": 0.0, "name": "09bdb5bd62bd1197426bacef25d84a1d", "rental_uris": {"android": "https://dc.lft.to/lastmile_qr_scan", "ios": "https://dc.lft.to/lastmile_qr_scan"}, "lat": 38.91580283333333, "bike_id": "09bdb5bd62bd1197426bacef25d84a1d", "is_disabled": 0, "lon": -77.012327, "is_reserved": 0, "fusion_lat": 0.0, "type": "electric_scooter"}, {"fusion_lon": 0.0, "name": "fe0470762f92446bbd2ee311febbbcf9", "rental_uris": {"android": "https://dc.lft.to/lastmile_qr_scan", "ios": "https://dc.lft.to/lastmile_qr_scan"}, "lat": 38.90395816666667, "bike_id": "fe0470762f92446bbd2ee311febbbcf9", "is_disabled": 0, "lon": -77.0385615, "is_reserved": 0, "fusion_lat": 0.0, "type": "electric_scooter"}, {"fusion_lon": 0.0, "name": "faad30d930fc3c8b45f056c0cc47cfa7", "rental_uris": {"android": "https://dc.lft.to/lastmile_qr_scan", "ios": "https://dc.lft.to/lastmile_qr_scan"}, "lat": 38.9034105, "bike_id": "faad30d930fc3c8b45f056c0cc47cfa7", "is_disabled": 0, "lon": -77.04466566666666, "is_reserved": 0, "fusion_lat": 0.0, "type": "electric_scooter"}, {"fusion_lon": 0.0, "name": "c8a8e763f27c1c24a77c7db6004be4ac", "rental_uris": {"android": "https://dc.lft.to/lastmile_qr_scan", "ios": "https://dc.lft.to/lastmile_qr_scan"}, "lat": 38.8768765, "bike_id": "c8a8e763f27c1c24a77c7db6004be4ac", "is_disabled": 0, "lon": -77.0006785, "is_reserved": 0, "fusion_lat": 0.0, "type": "electric_scooter"}, {"fusion_lon": 0.0, "name": "ab3b7a49cb67bf5853827bd07c9b52f4", "rental_uris": {"android": "https://dc.lft.to/lastmile_qr_scan", "ios": "https://dc.lft.to/lastmile_qr_scan"}, "lat": 38.898973166666664, "bike_id": "ab3b7a49cb67bf5853827bd07c9b52f4", "is_disabled": 0, "lon": -77.02167333333334, "is_reserved": 0, "fusion_lat": 0.0, "type": "electric_scooter"}, {"fusion_lon": 0.0, "name": "8b1c6b313e688e920ff1b6f04f72ad46", "rental_uris": {"android": "https://dc.lft.to/lastmile_qr_scan", "ios": "https://dc.lft.to/lastmile_qr_scan"}, "lat": 38.926541, "bike_id": "8b1c6b313e688e920ff1b6f04f72ad46", "is_disabled": 0, "lon": -77.035366, "is_reserved": 0, "fusion_lat": 0.0, "type": "electric_scooter"}, {"fusion_lon": 0.0, "name": "612041667e16ea389f5a7a2342f6f8fa", "rental_uris": {"android": "https://dc.lft.to/lastmile_qr_scan", "ios": "https://dc.lft.to/lastmile_qr_scan"}, "lat": 38.9156955, "bike_id": "612041667e16ea389f5a7a2342f6f8fa", "is_disabled": 0, "lon": -77.06789233333333, "is_reserved": 0, "fusion_lat": 0.0, "type": "electric_scooter"}, {"fusion_lon": 0.0, "name": "782d8e9b23d5609c83d4fb673048bafa", "rental_uris": {"android": "https://dc.lft.to/lastmile_qr_scan", "ios": "https://dc.lft.to/lastmile_qr_scan"}, "lat": 38.90507183333333, "bike_id": "782d8e9b23d5609c83d4fb673048bafa", "is_disabled": 0, "lon": -77.06652283333334, "is_reserved": 0, "fusion_lat": 0.0, "type": "electric_scooter"}, {"fusion_lon": 0.0, "name": "9a472dc68e4e6012aa9c7b316a492608", "rental_uris": {"android": "https://dc.lft.to/lastmile_qr_scan", "ios": "https://dc.lft.to/lastmile_qr_scan"}, "lat": 38.928510333333335, "bike_id": "9a472dc68e4e6012aa9c7b316a492608", "is_disabled": 0, "lon": -77.01421133333334, "is_reserved": 0, "fusion_lat": 0.0, "type": "electric_scooter"}, {"fusion_lon": 0.0, "name": "9fc92eb9729580e4c32399ffe29c0483", "rental_uris": {"android": "https://dc.lft.to/lastmile_qr_scan", "ios": "https://dc.lft.to/lastmile_qr_scan"}, "lat": 38.904376666666664, "bike_id": "9fc92eb9729580e4c32399ffe29c0483", "is_disabled": 0, "lon": -77.04341516666666, "is_reserved": 0, "fusion_lat": 0.0, "type": "electric_scooter"}, {"fusion_lon": 0.0, "name": "2e6b20121a31acbea38a9d5edc7fef31", "rental_uris": {"android": "https://dc.lft.to/lastmile_qr_scan", "ios": "https://dc.lft.to/lastmile_qr_scan"}, "lat": 38.90166466666667, "bike_id": "2e6b20121a31acbea38a9d5edc7fef31", "is_disabled": 0, "lon": -77.02186966666666, "is_reserved": 0, "fusion_lat": 0.0, "type": "electric_scooter"}, {"fusion_lon": 0.0, "name": "e5a801baf708d3c7993754c73e8d174e", "rental_uris": {"android": "https://dc.lft.to/lastmile_qr_scan", "ios": "https://dc.lft.to/lastmile_qr_scan"}, "lat": 38.91126516666667, "bike_id": "e5a801baf708d3c7993754c73e8d174e", "is_disabled": 0, "lon": -77.04420033333334, "is_reserved": 0, "fusion_lat": 0.0, "type": "electric_scooter"}, {"fusion_lon": 0.0, "name": "2f1bc8ab3996c5e03a3dea91c0f62faf", "rental_uris": {"android": "https://dc.lft.to/lastmile_qr_scan", "ios": "https://dc.lft.to/lastmile_qr_scan"}, "lat": 38.89827283333333, "bike_id": "2f1bc8ab3996c5e03a3dea91c0f62faf", "is_disabled": 0, "lon": -77.007458, "is_reserved": 0, "fusion_lat": 0.0, "type": "electric_scooter"}, {"fusion_lon": 0.0, "name": "e7514797b69b90f89cea979b96d3dd39", "rental_uris": {"android": "https://dc.lft.to/lastmile_qr_scan", "ios": "https://dc.lft.to/lastmile_qr_scan"}, "lat": 38.90336633333333, "bike_id": "e7514797b69b90f89cea979b96d3dd39", "is_disabled": 0, "lon": -76.97592033333333, "is_reserved": 0, "fusion_lat": 0.0, "type": "electric_scooter"}, {"fusion_lon": 0.0, "name": "a8ce1c7d11e8684621d083d672dfabb5", "rental_uris": {"android": "https://dc.lft.to/lastmile_qr_scan", "ios": "https://dc.lft.to/lastmile_qr_scan"}, "lat": 38.903979666666665, "bike_id": "a8ce1c7d11e8684621d083d672dfabb5", "is_disabled": 0, "lon": -77.0042645, "is_reserved": 0, "fusion_lat": 0.0, "type": "electric_scooter"}, {"fusion_lon": 0.0, "name": "942a17dc19750f4cb1dd9e216f274481", "rental_uris": {"android": "https://dc.lft.to/lastmile_qr_scan", "ios": "https://dc.lft.to/lastmile_qr_scan"}, "lat": 38.917114833333336, "bike_id": "942a17dc19750f4cb1dd9e216f274481", "is_disabled": 0, "lon": -77.028937, "is_reserved": 0, "fusion_lat": 0.0, "type": "electric_scooter"}, {"fusion_lon": 0.0, "name": "016be7fdd71fd876a6e918591dc22068", "rental_uris": {"android": "https://dc.lft.to/lastmile_qr_scan", "ios": "https://dc.lft.to/lastmile_qr_scan"}, "lat": 38.9507995, "bike_id": "016be7fdd71fd876a6e918591dc22068", "is_disabled": 0, "lon": -77.0298775, "is_reserved": 0, "fusion_lat": 0.0, "type": "electric_scooter"}, {"fusion_lon": 0.0, "name": "edbbe94fa43a3508bdaf6b4c34bc62d7", "rental_uris": {"android": "https://dc.lft.to/lastmile_qr_scan", "ios": "https://dc.lft.to/lastmile_qr_scan"}, "lat": 38.90028183333333, "bike_id": "edbbe94fa43a3508bdaf6b4c34bc62d7", "is_disabled": 0, "lon": -76.9868935, "is_reserved": 0, "fusion_lat": 0.0, "type": "electric_scooter"}, {"fusion_lon": 0.0, "name": "8bb6f5298dfa89559c603db9814ccecd", "rental_uris": {"android": "https://dc.lft.to/lastmile_qr_scan", "ios": "https://dc.lft.to/lastmile_qr_scan"}, "lat": 38.854384333333336, "bike_id": "8bb6f5298dfa89559c603db9814ccecd", "is_disabled": 0, "lon": -77.08316733333334, "is_reserved": 0, "fusion_lat": 0.0, "type": "electric_bike"}, {"fusion_lon": 0.0, "name": "f6182647f4901075a520bfe98269e0b3", "rental_uris": {"android": "https://dc.lft.to/lastmile_qr_scan", "ios": "https://dc.lft.to/lastmile_qr_scan"}, "lat": 38.92616616666667, "bike_id": "f6182647f4901075a520bfe98269e0b3", "is_disabled": 0, "lon": -77.02160183333334, "is_reserved": 0, "fusion_lat": 0.0, "type": "electric_scooter"}, {"fusion_lon": 0.0, "name": "099eed9be56a03e27b9fde7a4f6f48a9", "rental_uris": {"android": "https://dc.lft.to/lastmile_qr_scan", "ios": "https://dc.lft.to/lastmile_qr_scan"}, "lat": 38.94678433333333, "bike_id": "099eed9be56a03e27b9fde7a4f6f48a9", "is_disabled": 0, "lon": -76.99329033333333, "is_reserved": 0, "fusion_lat": 0.0, "type": "electric_bike"}, {"fusion_lon": 0.0, "name": "022c4d692305d6a53d9afb36d487251b", "rental_uris": {"android": "https://dc.lft.to/lastmile_qr_scan", "ios": "https://dc.lft.to/lastmile_qr_scan"}, "lat": 38.92681416666667, "bike_id": "022c4d692305d6a53d9afb36d487251b", "is_disabled": 0, "lon": -76.99559566666667, "is_reserved": 0, "fusion_lat": 0.0, "type": "electric_scooter"}, {"fusion_lon": 0.0, "name": "84e647303a610a128e1e04d9910fdf02", "rental_uris": {"android": "https://dc.lft.to/lastmile_qr_scan", "ios": "https://dc.lft.to/lastmile_qr_scan"}, "lat": 38.99893433333333, "bike_id": "84e647303a610a128e1e04d9910fdf02", "is_disabled": 0, "lon": -76.90861833333334, "is_reserved": 0, "fusion_lat": 0.0, "type": "electric_bike"}, {"fusion_lon": 0.0, "name": "7462ea358ceabc53795141a50734ce69", "rental_uris": {"android": "https://dc.lft.to/lastmile_qr_scan", "ios": "https://dc.lft.to/lastmile_qr_scan"}, "lat": 38.897111, "bike_id": "7462ea358ceabc53795141a50734ce69", "is_disabled": 0, "lon": -76.99117516666666, "is_reserved": 0, "fusion_lat": 0.0, "type": "electric_scooter"}, {"fusion_lon": 0.0, "name": "0f844edae945313d5cdb5a3c4544a71d", "rental_uris": {"android": "https://dc.lft.to/lastmile_qr_scan", "ios": "https://dc.lft.to/lastmile_qr_scan"}, "lat": 38.87041133333334, "bike_id": "0f844edae945313d5cdb5a3c4544a71d", "is_disabled": 0, "lon": -77.229059, "is_reserved": 0, "fusion_lat": 0.0, "type": "electric_bike"}, {"fusion_lon": 0.0, "name": "1364603651966423727fc9a8ec18f666", "rental_uris": {"android": "https://dc.lft.to/lastmile_qr_scan", "ios": "https://dc.lft.to/lastmile_qr_scan"}, "lat": 38.935341333333334, "bike_id": "1364603651966423727fc9a8ec18f666", "is_disabled": 0, "lon": -77.02305233333334, "is_reserved": 0, "fusion_lat": 0.0, "type": "electric_scooter"}, {"fusion_lon": 0.0, "name": "1c8e4d4c2d95a112ce251769ede5dede", "rental_uris": {"android": "https://dc.lft.to/lastmile_qr_scan", "ios": "https://dc.lft.to/lastmile_qr_scan"}, "lat": 38.896393333333336, "bike_id": "1c8e4d4c2d95a112ce251769ede5dede", "is_disabled": 0, "lon": -77.03213783333334, "is_reserved": 0, "fusion_lat": 0.0, "type": "electric_scooter"}, {"fusion_lon": 0.0, "name": "fcac19cb0d01153436b63496e6a9ef0f", "rental_uris": {"android": "https://dc.lft.to/lastmile_qr_scan", "ios": "https://dc.lft.to/lastmile_qr_scan"}, "lat": 38.92437066666667, "bike_id": "fcac19cb0d01153436b63496e6a9ef0f", "is_disabled": 0, "lon": -77.037866, "is_reserved": 0, "fusion_lat": 0.0, "type": "electric_scooter"}, {"fusion_lon": 0.0, "name": "11e5b85a1f9a2f1246986b1b958c759d", "rental_uris": {"android": "https://dc.lft.to/lastmile_qr_scan", "ios": "https://dc.lft.to/lastmile_qr_scan"}, "lat": 38.902417666666665, "bike_id": "11e5b85a1f9a2f1246986b1b958c759d", "is_disabled": 0, "lon": -77.01512733333334, "is_reserved": 0, "fusion_lat": 0.0, "type": "electric_scooter"}, {"fusion_lon": 0.0, "name": "719b56c8c9388bf2ec1484433c6fd2cc", "rental_uris": {"android": "https://dc.lft.to/lastmile_qr_scan", "ios": "https://dc.lft.to/lastmile_qr_scan"}, "lat": 38.925685666666666, "bike_id": "719b56c8c9388bf2ec1484433c6fd2cc", "is_disabled": 0, "lon": -76.9995555, "is_reserved": 0, "fusion_lat": 0.0, "type": "electric_scooter"}, {"fusion_lon": 0.0, "name": "2006a42ed207c88d6fbdf23b2a9f0488", "rental_uris": {"android": "https://dc.lft.to/lastmile_qr_scan", "ios": "https://dc.lft.to/lastmile_qr_scan"}, "lat": 38.92039883333333, "bike_id": "2006a42ed207c88d6fbdf23b2a9f0488", "is_disabled": 0, "lon": -77.0168665, "is_reserved": 0, "fusion_lat": 0.0, "type": "electric_scooter"}, {"fusion_lon": 0.0, "name": "c81f74e281db72c703e7aad06f3991b2", "rental_uris": {"android": "https://dc.lft.to/lastmile_qr_scan", "ios": "https://dc.lft.to/lastmile_qr_scan"}, "lat": 38.88288583333333, "bike_id": "c81f74e281db72c703e7aad06f3991b2", "is_disabled": 0, "lon": -77.02550583333333, "is_reserved": 0, "fusion_lat": 0.0, "type": "electric_scooter"}, {"fusion_lon": 0.0, "name": "85442064a90ea4b32af687eb841e4df0", "rental_uris": {"android": "https://dc.lft.to/lastmile_qr_scan", "ios": "https://dc.lft.to/lastmile_qr_scan"}, "lat": 38.901242833333335, "bike_id": "85442064a90ea4b32af687eb841e4df0", "is_disabled": 0, "lon": -77.04993083333333, "is_reserved": 0, "fusion_lat": 0.0, "type": "electric_scooter"}, {"fusion_lon": 0.0, "name": "b98539885ef3bfb4cfd2a1c914544dba", "rental_uris": {"android": "https://dc.lft.to/lastmile_qr_scan", "ios": "https://dc.lft.to/lastmile_qr_scan"}, "lat": 38.898920833333335, "bike_id": "b98539885ef3bfb4cfd2a1c914544dba", "is_disabled": 0, "lon": -77.0297355, "is_reserved": 0, "fusion_lat": 0.0, "type": "electric_scooter"}, {"fusion_lon": 0.0, "name": "af1e32dc1dc1fa7210b0ba2244436501", "rental_uris": {"android": "https://dc.lft.to/lastmile_qr_scan", "ios": "https://dc.lft.to/lastmile_qr_scan"}, "lat": 38.899541666666664, "bike_id": "af1e32dc1dc1fa7210b0ba2244436501", "is_disabled": 0, "lon": -77.05023566666667, "is_reserved": 0, "fusion_lat": 0.0, "type": "electric_scooter"}, {"fusion_lon": 0.0, "name": "8e040ec5617839b749dd924d6a4c2a7b", "rental_uris": {"android": "https://dc.lft.to/lastmile_qr_scan", "ios": "https://dc.lft.to/lastmile_qr_scan"}, "lat": 38.8807495, "bike_id": "8e040ec5617839b749dd924d6a4c2a7b", "is_disabled": 0, "lon": -77.0118195, "is_reserved": 0, "fusion_lat": 0.0, "type": "electric_scooter"}, {"fusion_lon": 0.0, "name": "90bb6472f0b99654832bf27ff5f3ddb4", "rental_uris": {"android": "https://dc.lft.to/lastmile_qr_scan", "ios": "https://dc.lft.to/lastmile_qr_scan"}, "lat": 38.9006075, "bike_id": "90bb6472f0b99654832bf27ff5f3ddb4", "is_disabled": 0, "lon": -76.98701, "is_reserved": 0, "fusion_lat": 0.0, "type": "electric_scooter"}, {"fusion_lon": 0.0, "name": "1237539574d6103cab001f73f37c765a", "rental_uris": {"android": "https://dc.lft.to/lastmile_qr_scan", "ios": "https://dc.lft.to/lastmile_qr_scan"}, "lat": 38.85814, "bike_id": "1237539574d6103cab001f73f37c765a", "is_disabled": 0, "lon": -76.98911216666667, "is_reserved": 0, "fusion_lat": 0.0, "type": "electric_scooter"}, {"fusion_lon": 0.0, "name": "9d74d9978df9dead6d586ac9f76b9349", "rental_uris": {"android": "https://dc.lft.to/lastmile_qr_scan", "ios": "https://dc.lft.to/lastmile_qr_scan"}, "lat": 38.9003325, "bike_id": "9d74d9978df9dead6d586ac9f76b9349", "is_disabled": 0, "lon": -77.01199766666667, "is_reserved": 0, "fusion_lat": 0.0, "type": "electric_scooter"}, {"fusion_lon": 0.0, "name": "1c0aa610e173e34f4abd06ca56eeb901", "rental_uris": {"android": "https://dc.lft.to/lastmile_qr_scan", "ios": "https://dc.lft.to/lastmile_qr_scan"}, "lat": 38.91571666666667, "bike_id": "1c0aa610e173e34f4abd06ca56eeb901", "is_disabled": 0, "lon": -77.05020883333333, "is_reserved": 0, "fusion_lat": 0.0, "type": "electric_scooter"}, {"fusion_lon": 0.0, "name": "dc9e30d1f0a389b882c5f9720a7fa84c", "rental_uris": {"android": "https://dc.lft.to/lastmile_qr_scan", "ios": "https://dc.lft.to/lastmile_qr_scan"}, "lat": 38.90844233333333, "bike_id": "dc9e30d1f0a389b882c5f9720a7fa84c", "is_disabled": 0, "lon": -77.04011783333333, "is_reserved": 0, "fusion_lat": 0.0, "type": "electric_scooter"}, {"fusion_lon": 0.0, "name": "ab12a3febf8b00b2767e2b0eaaf22b53", "rental_uris": {"android": "https://dc.lft.to/lastmile_qr_scan", "ios": "https://dc.lft.to/lastmile_qr_scan"}, "lat": 38.906048, "bike_id": "ab12a3febf8b00b2767e2b0eaaf22b53", "is_disabled": 0, "lon": -77.12875, "is_reserved": 0, "fusion_lat": 0.0, "type": "electric_bike"}, {"fusion_lon": 0.0, "name": "3d683c1b5b975235cf2a36e5a1d470e5", "rental_uris": {"android": "https://dc.lft.to/lastmile_qr_scan", "ios": "https://dc.lft.to/lastmile_qr_scan"}, "lat": 38.9056455, "bike_id": "3d683c1b5b975235cf2a36e5a1d470e5", "is_disabled": 0, "lon": -77.04489433333333, "is_reserved": 0, "fusion_lat": 0.0, "type": "electric_bike"}, {"fusion_lon": 0.0, "name": "bbdece4b92907201456d329c657f49f6", "rental_uris": {"android": "https://dc.lft.to/lastmile_qr_scan", "ios": "https://dc.lft.to/lastmile_qr_scan"}, "lat": 38.89128783333334, "bike_id": "bbdece4b92907201456d329c657f49f6", "is_disabled": 0, "lon": -76.9405955, "is_reserved": 0, "fusion_lat": 0.0, "type": "electric_bike"}, {"fusion_lon": 0.0, "name": "0d1ec365427a9d8207a3344f6808f110", "rental_uris": {"android": "https://dc.lft.to/lastmile_qr_scan", "ios": "https://dc.lft.to/lastmile_qr_scan"}, "lat": 38.91350383333333, "bike_id": "0d1ec365427a9d8207a3344f6808f110", "is_disabled": 0, "lon": -77.03359183333333, "is_reserved": 0, "fusion_lat": 0.0, "type": "electric_scooter"}, {"fusion_lon": 0.0, "name": "9c9effd975cc5a51c24a7fc4a2b640df", "rental_uris": {"android": "https://dc.lft.to/lastmile_qr_scan", "ios": "https://dc.lft.to/lastmile_qr_scan"}, "lat": 38.89354616666667, "bike_id": "9c9effd975cc5a51c24a7fc4a2b640df", "is_disabled": 0, "lon": -77.01519716666667, "is_reserved": 0, "fusion_lat": 0.0, "type": "electric_scooter"}, {"fusion_lon": 0.0, "name": "607de1b9f9ed48f6112a299e804638c0", "rental_uris": {"android": "https://dc.lft.to/lastmile_qr_scan", "ios": "https://dc.lft.to/lastmile_qr_scan"}, "lat": 38.92479433333333, "bike_id": "607de1b9f9ed48f6112a299e804638c0", "is_disabled": 0, "lon": -77.03826266666667, "is_reserved": 0, "fusion_lat": 0.0, "type": "electric_scooter"}, {"fusion_lon": 0.0, "name": "5ccb0aed83487e37e4eb284d837185ad", "rental_uris": {"android": "https://dc.lft.to/lastmile_qr_scan", "ios": "https://dc.lft.to/lastmile_qr_scan"}, "lat": 38.89871933333333, "bike_id": "5ccb0aed83487e37e4eb284d837185ad", "is_disabled": 0, "lon": -77.03207733333333, "is_reserved": 0, "fusion_lat": 0.0, "type": "electric_scooter"}, {"fusion_lon": 0.0, "name": "5eb0c9cf6891b13aad794438a3b28555", "rental_uris": {"android": "https://dc.lft.to/lastmile_qr_scan", "ios": "https://dc.lft.to/lastmile_qr_scan"}, "lat": 38.91623833333333, "bike_id": "5eb0c9cf6891b13aad794438a3b28555", "is_disabled": 0, "lon": -77.0486035, "is_reserved": 0, "fusion_lat": 0.0, "type": "electric_scooter"}, {"fusion_lon": 0.0, "name": "d5ef470aedf8a9a85fe66df27cab79b2", "rental_uris": {"android": "https://dc.lft.to/lastmile_qr_scan", "ios": "https://dc.lft.to/lastmile_qr_scan"}, "lat": 38.91559683333333, "bike_id": "d5ef470aedf8a9a85fe66df27cab79b2", "is_disabled": 0, "lon": -77.00681533333334, "is_reserved": 0, "fusion_lat": 0.0, "type": "electric_scooter"}, {"fusion_lon": 0.0, "name": "758417490309bff07bb4d13bd73ff8d0", "rental_uris": {"android": "https://dc.lft.to/lastmile_qr_scan", "ios": "https://dc.lft.to/lastmile_qr_scan"}, "lat": 38.904794333333335, "bike_id": "758417490309bff07bb4d13bd73ff8d0", "is_disabled": 0, "lon": -77.03569216666666, "is_reserved": 0, "fusion_lat": 0.0, "type": "electric_scooter"}, {"fusion_lon": 0.0, "name": "53915ee9468bf794f750cec3adf081fc", "rental_uris": {"android": "https://dc.lft.to/lastmile_qr_scan", "ios": "https://dc.lft.to/lastmile_qr_scan"}, "lat": 38.89471283333334, "bike_id": "53915ee9468bf794f750cec3adf081fc", "is_disabled": 0, "lon": -77.02200133333334, "is_reserved": 0, "fusion_lat": 0.0, "type": "electric_scooter"}, {"fusion_lon": 0.0, "name": "d28d0a11ae1d73b50e4a556d24075b73", "rental_uris": {"android": "https://dc.lft.to/lastmile_qr_scan", "ios": "https://dc.lft.to/lastmile_qr_scan"}, "lat": 38.9007695, "bike_id": "d28d0a11ae1d73b50e4a556d24075b73", "is_disabled": 0, "lon": -77.0494075, "is_reserved": 0, "fusion_lat": 0.0, "type": "electric_scooter"}, {"fusion_lon": 0.0, "name": "3ef120b0fb248836047a992eeef693a4", "rental_uris": {"android": "https://dc.lft.to/lastmile_qr_scan", "ios": "https://dc.lft.to/lastmile_qr_scan"}, "lat": 38.903605166666665, "bike_id": "3ef120b0fb248836047a992eeef693a4", "is_disabled": 0, "lon": -77.043545, "is_reserved": 0, "fusion_lat": 0.0, "type": "electric_scooter"}, {"fusion_lon": 0.0, "name": "23dd04459bd8980381dcfc6b15d82792", "rental_uris": {"android": "https://dc.lft.to/lastmile_qr_scan", "ios": "https://dc.lft.to/lastmile_qr_scan"}, "lat": 38.9233425, "bike_id": "23dd04459bd8980381dcfc6b15d82792", "is_disabled": 0, "lon": -77.05681116666666, "is_reserved": 0, "fusion_lat": 0.0, "type": "electric_scooter"}, {"fusion_lon": 0.0, "name": "13b4bb5bb52b4a4d1d90f305911128d1", "rental_uris": {"android": "https://dc.lft.to/lastmile_qr_scan", "ios": "https://dc.lft.to/lastmile_qr_scan"}, "lat": 38.90561133333333, "bike_id": "13b4bb5bb52b4a4d1d90f305911128d1", "is_disabled": 0, "lon": -77.04331366666666, "is_reserved": 0, "fusion_lat": 0.0, "type": "electric_scooter"}, {"fusion_lon": 0.0, "name": "ffc37d7742d6668d0c2f34c7199f313f", "rental_uris": {"android": "https://dc.lft.to/lastmile_qr_scan", "ios": "https://dc.lft.to/lastmile_qr_scan"}, "lat": 38.90272516666667, "bike_id": "ffc37d7742d6668d0c2f34c7199f313f", "is_disabled": 0, "lon": -77.0303565, "is_reserved": 0, "fusion_lat": 0.0, "type": "electric_scooter"}, {"fusion_lon": 0.0, "name": "d614de5e3760c6e8d1e27f8ef3874055", "rental_uris": {"android": "https://dc.lft.to/lastmile_qr_scan", "ios": "https://dc.lft.to/lastmile_qr_scan"}, "lat": 38.8191435, "bike_id": "d614de5e3760c6e8d1e27f8ef3874055", "is_disabled": 0, "lon": -77.12663, "is_reserved": 0, "fusion_lat": 0.0, "type": "electric_bike"}, {"fusion_lon": 0.0, "name": "0c036338ce0b848bbacacef6ecbd9a33", "rental_uris": {"android": "https://dc.lft.to/lastmile_qr_scan", "ios": "https://dc.lft.to/lastmile_qr_scan"}, "lat": 38.94334466666667, "bike_id": "0c036338ce0b848bbacacef6ecbd9a33", "is_disabled": 0, "lon": -77.0268775, "is_reserved": 0, "fusion_lat": 0.0, "type": "electric_scooter"}, {"fusion_lon": 0.0, "name": "ee11acbee40db6354c3abe2ddad61d95", "rental_uris": {"android": "https://dc.lft.to/lastmile_qr_scan", "ios": "https://dc.lft.to/lastmile_qr_scan"}, "lat": 38.90640233333333, "bike_id": "ee11acbee40db6354c3abe2ddad61d95", "is_disabled": 0, "lon": -77.00891416666667, "is_reserved": 0, "fusion_lat": 0.0, "type": "electric_scooter"}, {"fusion_lon": 0.0, "name": "a0451dc1f14b2ccacfc13d1ec5541d7d", "rental_uris": {"android": "https://dc.lft.to/lastmile_qr_scan", "ios": "https://dc.lft.to/lastmile_qr_scan"}, "lat": 38.917977, "bike_id": "a0451dc1f14b2ccacfc13d1ec5541d7d", "is_disabled": 0, "lon": -77.032078, "is_reserved": 0, "fusion_lat": 0.0, "type": "electric_scooter"}, {"fusion_lon": 0.0, "name": "bf9d5a5aaa4c933f581f95f1e51b46c6", "rental_uris": {"android": "https://dc.lft.to/lastmile_qr_scan", "ios": "https://dc.lft.to/lastmile_qr_scan"}, "lat": 38.90439033333333, "bike_id": "bf9d5a5aaa4c933f581f95f1e51b46c6", "is_disabled": 0, "lon": -77.0466305, "is_reserved": 0, "fusion_lat": 0.0, "type": "electric_scooter"}, {"fusion_lon": 0.0, "name": "5c837416885c6fb6b0a469fb7e251db5", "rental_uris": {"android": "https://dc.lft.to/lastmile_qr_scan", "ios": "https://dc.lft.to/lastmile_qr_scan"}, "lat": 38.896101333333334, "bike_id": "5c837416885c6fb6b0a469fb7e251db5", "is_disabled": 0, "lon": -77.0451365, "is_reserved": 0, "fusion_lat": 0.0, "type": "electric_scooter"}, {"fusion_lon": 0.0, "name": "8529afa669ce676e269ef530db04de88", "rental_uris": {"android": "https://dc.lft.to/lastmile_qr_scan", "ios": "https://dc.lft.to/lastmile_qr_scan"}, "lat": 38.90084366666667, "bike_id": "8529afa669ce676e269ef530db04de88", "is_disabled": 0, "lon": -77.04708316666667, "is_reserved": 0, "fusion_lat": 0.0, "type": "electric_scooter"}, {"fusion_lon": 0.0, "name": "f35c06e8b7970f0781ff84d618a7ff3c", "rental_uris": {"android": "https://dc.lft.to/lastmile_qr_scan", "ios": "https://dc.lft.to/lastmile_qr_scan"}, "lat": 38.92421616666667, "bike_id": "f35c06e8b7970f0781ff84d618a7ff3c", "is_disabled": 0, "lon": -77.04557, "is_reserved": 0, "fusion_lat": 0.0, "type": "electric_scooter"}, {"fusion_lon": 0.0, "name": "2bec49d257d067f57708f1a069e28167", "rental_uris": {"android": "https://dc.lft.to/lastmile_qr_scan", "ios": "https://dc.lft.to/lastmile_qr_scan"}, "lat": 38.897155, "bike_id": "2bec49d257d067f57708f1a069e28167", "is_disabled": 0, "lon": -77.02814716666667, "is_reserved": 0, "fusion_lat": 0.0, "type": "electric_scooter"}, {"fusion_lon": 0.0, "name": "784356cba6ce4f49de1609725e1d2e4c", "rental_uris": {"android": "https://dc.lft.to/lastmile_qr_scan", "ios": "https://dc.lft.to/lastmile_qr_scan"}, "lat": 38.9067115, "bike_id": "784356cba6ce4f49de1609725e1d2e4c", "is_disabled": 0, "lon": -76.98025416666667, "is_reserved": 0, "fusion_lat": 0.0, "type": "electric_scooter"}, {"fusion_lon": 0.0, "name": "2d27adbd1de3cfce2a454a5dc2f62b94", "rental_uris": {"android": "https://dc.lft.to/lastmile_qr_scan", "ios": "https://dc.lft.to/lastmile_qr_scan"}, "lat": 38.91582, "bike_id": "2d27adbd1de3cfce2a454a5dc2f62b94", "is_disabled": 0, "lon": -77.01233583333334, "is_reserved": 0, "fusion_lat": 0.0, "type": "electric_scooter"}, {"fusion_lon": 0.0, "name": "ea5fb488eee0545aa1695a5043fb0d68", "rental_uris": {"android": "https://dc.lft.to/lastmile_qr_scan", "ios": "https://dc.lft.to/lastmile_qr_scan"}, "lat": 38.89740333333334, "bike_id": "ea5fb488eee0545aa1695a5043fb0d68", "is_disabled": 0, "lon": -77.03352866666667, "is_reserved": 0, "fusion_lat": 0.0, "type": "electric_scooter"}, {"fusion_lon": 0.0, "name": "539fc2e323de27ece7c6ac784d691609", "rental_uris": {"android": "https://dc.lft.to/lastmile_qr_scan", "ios": "https://dc.lft.to/lastmile_qr_scan"}, "lat": 38.92490316666667, "bike_id": "539fc2e323de27ece7c6ac784d691609", "is_disabled": 0, "lon": -77.02243183333333, "is_reserved": 0, "fusion_lat": 0.0, "type": "electric_scooter"}, {"fusion_lon": 0.0, "name": "cef2b1f07ab7a456e247750c2294da71", "rental_uris": {"android": "https://dc.lft.to/lastmile_qr_scan", "ios": "https://dc.lft.to/lastmile_qr_scan"}, "lat": 38.916367666666666, "bike_id": "cef2b1f07ab7a456e247750c2294da71", "is_disabled": 0, "lon": -77.039284, "is_reserved": 0, "fusion_lat": 0.0, "type": "electric_scooter"}, {"fusion_lon": 0.0, "name": "56f4d6d20f78e9c5d24f40fea7b4a742", "rental_uris": {"android": "https://dc.lft.to/lastmile_qr_scan", "ios": "https://dc.lft.to/lastmile_qr_scan"}, "lat": 38.92468366666667, "bike_id": "56f4d6d20f78e9c5d24f40fea7b4a742", "is_disabled": 0, "lon": -77.022229, "is_reserved": 0, "fusion_lat": 0.0, "type": "electric_scooter"}, {"fusion_lon": 0.0, "name": "361b195f3b9deca19781b4b629e6a91d", "rental_uris": {"android": "https://dc.lft.to/lastmile_qr_scan", "ios": "https://dc.lft.to/lastmile_qr_scan"}, "lat": 38.9224075, "bike_id": "361b195f3b9deca19781b4b629e6a91d", "is_disabled": 0, "lon": -77.02144433333333, "is_reserved": 0, "fusion_lat": 0.0, "type": "electric_scooter"}, {"fusion_lon": 0.0, "name": "e0cc8315a4eb698cbecb7af7fb72e762", "rental_uris": {"android": "https://dc.lft.to/lastmile_qr_scan", "ios": "https://dc.lft.to/lastmile_qr_scan"}, "lat": 38.89837833333333, "bike_id": "e0cc8315a4eb698cbecb7af7fb72e762", "is_disabled": 0, "lon": -77.02815483333333, "is_reserved": 0, "fusion_lat": 0.0, "type": "electric_scooter"}, {"fusion_lon": 0.0, "name": "7b8f99836f342c827baca52e2e633ae3", "rental_uris": {"android": "https://dc.lft.to/lastmile_qr_scan", "ios": "https://dc.lft.to/lastmile_qr_scan"}, "lat": 38.86478483333333, "bike_id": "7b8f99836f342c827baca52e2e633ae3", "is_disabled": 0, "lon": -76.98233766666667, "is_reserved": 0, "fusion_lat": 0.0, "type": "electric_scooter"}, {"fusion_lon": 0.0, "name": "e18c8716ca9729f56bc46ff55611ad31", "rental_uris": {"android": "https://dc.lft.to/lastmile_qr_scan", "ios": "https://dc.lft.to/lastmile_qr_scan"}, "lat": 38.875605, "bike_id": "e18c8716ca9729f56bc46ff55611ad31", "is_disabled": 0, "lon": -77.00604683333333, "is_reserved": 0, "fusion_lat": 0.0, "type": "electric_scooter"}, {"fusion_lon": 0.0, "name": "3f603735260da3376c59f657718099df", "rental_uris": {"android": "https://dc.lft.to/lastmile_qr_scan", "ios": "https://dc.lft.to/lastmile_qr_scan"}, "lat": 38.85708183333333, "bike_id": "3f603735260da3376c59f657718099df", "is_disabled": 0, "lon": -76.981305, "is_reserved": 0, "fusion_lat": 0.0, "type": "electric_scooter"}, {"fusion_lon": 0.0, "name": "ddcc1ea68d67653cb0504e85019f0dd5", "rental_uris": {"android": "https://dc.lft.to/lastmile_qr_scan", "ios": "https://dc.lft.to/lastmile_qr_scan"}, "lat": 38.92603416666667, "bike_id": "ddcc1ea68d67653cb0504e85019f0dd5", "is_disabled": 0, "lon": -77.024889, "is_reserved": 0, "fusion_lat": 0.0, "type": "electric_scooter"}, {"fusion_lon": 0.0, "name": "cb6d42a50e3a6de8ab9d51bac57d4e94", "rental_uris": {"android": "https://dc.lft.to/lastmile_qr_scan", "ios": "https://dc.lft.to/lastmile_qr_scan"}, "lat": 38.918852333333334, "bike_id": "cb6d42a50e3a6de8ab9d51bac57d4e94", "is_disabled": 0, "lon": -77.01895733333333, "is_reserved": 0, "fusion_lat": 0.0, "type": "electric_scooter"}, {"fusion_lon": 0.0, "name": "4a3fd03c6faa171f587d76f44137f4f8", "rental_uris": {"android": "https://dc.lft.to/lastmile_qr_scan", "ios": "https://dc.lft.to/lastmile_qr_scan"}, "lat": 38.92420333333333, "bike_id": "4a3fd03c6faa171f587d76f44137f4f8", "is_disabled": 0, "lon": -77.0200895, "is_reserved": 0, "fusion_lat": 0.0, "type": "electric_scooter"}, {"fusion_lon": 0.0, "name": "133ee9a3ecec53ec036037585b1d4f5f", "rental_uris": {"android": "https://dc.lft.to/lastmile_qr_scan", "ios": "https://dc.lft.to/lastmile_qr_scan"}, "lat": 38.90167483333333, "bike_id": "133ee9a3ecec53ec036037585b1d4f5f", "is_disabled": 0, "lon": -76.980597, "is_reserved": 0, "fusion_lat": 0.0, "type": "electric_scooter"}, {"fusion_lon": 0.0, "name": "898a7f8f76a6dcce044176201b8f4827", "rental_uris": {"android": "https://dc.lft.to/lastmile_qr_scan", "ios": "https://dc.lft.to/lastmile_qr_scan"}, "lat": 38.880749333333334, "bike_id": "898a7f8f76a6dcce044176201b8f4827", "is_disabled": 0, "lon": -76.99166033333333, "is_reserved": 0, "fusion_lat": 0.0, "type": "electric_scooter"}, {"fusion_lon": 0.0, "name": "9161f2bd35487afe7ea4d15423d858b6", "rental_uris": {"android": "https://dc.lft.to/lastmile_qr_scan", "ios": "https://dc.lft.to/lastmile_qr_scan"}, "lat": 38.89740033333333, "bike_id": "9161f2bd35487afe7ea4d15423d858b6", "is_disabled": 0, "lon": -77.02151266666667, "is_reserved": 0, "fusion_lat": 0.0, "type": "electric_scooter"}, {"fusion_lon": 0.0, "name": "b46e5957df2359ebf0854a4ed392458a", "rental_uris": {"android": "https://dc.lft.to/lastmile_qr_scan", "ios": "https://dc.lft.to/lastmile_qr_scan"}, "lat": 38.894229833333334, "bike_id": "b46e5957df2359ebf0854a4ed392458a", "is_disabled": 0, "lon": -77.05005616666666, "is_reserved": 0, "fusion_lat": 0.0, "type": "electric_scooter"}, {"fusion_lon": 0.0, "name": "90e051d1316fdb40c5aaee8f386b89c8", "rental_uris": {"android": "https://dc.lft.to/lastmile_qr_scan", "ios": "https://dc.lft.to/lastmile_qr_scan"}, "lat": 38.922484, "bike_id": "90e051d1316fdb40c5aaee8f386b89c8", "is_disabled": 0, "lon": -77.03045533333334, "is_reserved": 0, "fusion_lat": 0.0, "type": "electric_scooter"}, {"fusion_lon": 0.0, "name": "9a23d6f629381eb492004fd21f99a51f", "rental_uris": {"android": "https://dc.lft.to/lastmile_qr_scan", "ios": "https://dc.lft.to/lastmile_qr_scan"}, "lat": 38.931928, "bike_id": "9a23d6f629381eb492004fd21f99a51f", "is_disabled": 0, "lon": -77.02834133333333, "is_reserved": 0, "fusion_lat": 0.0, "type": "electric_scooter"}, {"fusion_lon": 0.0, "name": "9741ed3a9fb4c8a9d137b29e8e7e4bdb", "rental_uris": {"android": "https://dc.lft.to/lastmile_qr_scan", "ios": "https://dc.lft.to/lastmile_qr_scan"}, "lat": 38.928641666666664, "bike_id": "9741ed3a9fb4c8a9d137b29e8e7e4bdb", "is_disabled": 0, "lon": -77.05430983333333, "is_reserved": 0, "fusion_lat": 0.0, "type": "electric_scooter"}, {"fusion_lon": 0.0, "name": "6b42b651bd3f6ca49833710cd48db17c", "rental_uris": {"android": "https://dc.lft.to/lastmile_qr_scan", "ios": "https://dc.lft.to/lastmile_qr_scan"}, "lat": 38.86508516666667, "bike_id": "6b42b651bd3f6ca49833710cd48db17c", "is_disabled": 0, "lon": -76.96901483333333, "is_reserved": 0, "fusion_lat": 0.0, "type": "electric_scooter"}, {"fusion_lon": 0.0, "name": "7df3d82cbc87585ba89e2cb34650bd8f", "rental_uris": {"android": "https://dc.lft.to/lastmile_qr_scan", "ios": "https://dc.lft.to/lastmile_qr_scan"}, "lat": 38.949292666666665, "bike_id": "7df3d82cbc87585ba89e2cb34650bd8f", "is_disabled": 0, "lon": -76.95914433333333, "is_reserved": 0, "fusion_lat": 0.0, "type": "electric_bike"}, {"fusion_lon": 0.0, "name": "b480bddaf2bfd19455a039a2688e81fe", "rental_uris": {"android": "https://dc.lft.to/lastmile_qr_scan", "ios": "https://dc.lft.to/lastmile_qr_scan"}, "lat": 38.95633933333333, "bike_id": "b480bddaf2bfd19455a039a2688e81fe", "is_disabled": 0, "lon": -77.02951366666667, "is_reserved": 0, "fusion_lat": 0.0, "type": "electric_scooter"}, {"fusion_lon": 0.0, "name": "00f99ba4b8feb97d88262ee3399f4db3", "rental_uris": {"android": "https://dc.lft.to/lastmile_qr_scan", "ios": "https://dc.lft.to/lastmile_qr_scan"}, "lat": 38.90203833333333, "bike_id": "00f99ba4b8feb97d88262ee3399f4db3", "is_disabled": 0, "lon": -77.06125, "is_reserved": 0, "fusion_lat": 0.0, "type": "electric_scooter"}, {"fusion_lon": 0.0, "name": "ef0e99bdb0c5d9bc4ab3911a2961c2e3", "rental_uris": {"android": "https://dc.lft.to/lastmile_qr_scan", "ios": "https://dc.lft.to/lastmile_qr_scan"}, "lat": 38.92623416666667, "bike_id": "ef0e99bdb0c5d9bc4ab3911a2961c2e3", "is_disabled": 0, "lon": -77.005859, "is_reserved": 0, "fusion_lat": 0.0, "type": "electric_bike"}, {"fusion_lon": 0.0, "name": "8962cc7406a34278bf711d8c49abba2c", "rental_uris": {"android": "https://dc.lft.to/lastmile_qr_scan", "ios": "https://dc.lft.to/lastmile_qr_scan"}, "lat": 38.873132, "bike_id": "8962cc7406a34278bf711d8c49abba2c", "is_disabled": 0, "lon": -77.0138895, "is_reserved": 0, "fusion_lat": 0.0, "type": "electric_scooter"}, {"fusion_lon": 0.0, "name": "7cb48b432342f889fecfc453cbf58e18", "rental_uris": {"android": "https://dc.lft.to/lastmile_qr_scan", "ios": "https://dc.lft.to/lastmile_qr_scan"}, "lat": 38.9112285, "bike_id": "7cb48b432342f889fecfc453cbf58e18", "is_disabled": 0, "lon": -77.0436375, "is_reserved": 0, "fusion_lat": 0.0, "type": "electric_scooter"}, {"fusion_lon": 0.0, "name": "cb8b0f18bc49ef51c47d55185b075562", "rental_uris": {"android": "https://dc.lft.to/lastmile_qr_scan", "ios": "https://dc.lft.to/lastmile_qr_scan"}, "lat": 38.893683333333335, "bike_id": "cb8b0f18bc49ef51c47d55185b075562", "is_disabled": 0, "lon": -76.98459666666666, "is_reserved": 0, "fusion_lat": 0.0, "type": "electric_scooter"}, {"fusion_lon": 0.0, "name": "2db998162e090720c296a34ad6ebbeee", "rental_uris": {"android": "https://dc.lft.to/lastmile_qr_scan", "ios": "https://dc.lft.to/lastmile_qr_scan"}, "lat": 38.896199833333334, "bike_id": "2db998162e090720c296a34ad6ebbeee", "is_disabled": 0, "lon": -76.92976416666667, "is_reserved": 0, "fusion_lat": 0.0, "type": "electric_scooter"}, {"fusion_lon": 0.0, "name": "0257ce3eabb1e19befb4792531f16e9d", "rental_uris": {"android": "https://dc.lft.to/lastmile_qr_scan", "ios": "https://dc.lft.to/lastmile_qr_scan"}, "lat": 38.88073933333333, "bike_id": "0257ce3eabb1e19befb4792531f16e9d", "is_disabled": 0, "lon": -77.037186, "is_reserved": 0, "fusion_lat": 0.0, "type": "electric_scooter"}, {"fusion_lon": 0.0, "name": "c5bbf4fd91bc3b6a3b194b6481ab42a4", "rental_uris": {"android": "https://dc.lft.to/lastmile_qr_scan", "ios": "https://dc.lft.to/lastmile_qr_scan"}, "lat": 38.90269583333333, "bike_id": "c5bbf4fd91bc3b6a3b194b6481ab42a4", "is_disabled": 0, "lon": -77.03070133333334, "is_reserved": 0, "fusion_lat": 0.0, "type": "electric_scooter"}, {"fusion_lon": 0.0, "name": "63a6ac5ff4491c196d9b79d5471458e7", "rental_uris": {"android": "https://dc.lft.to/lastmile_qr_scan", "ios": "https://dc.lft.to/lastmile_qr_scan"}, "lat": 38.895610166666664, "bike_id": "63a6ac5ff4491c196d9b79d5471458e7", "is_disabled": 0, "lon": -77.12731633333334, "is_reserved": 0, "fusion_lat": 0.0, "type": "electric_bike"}, {"fusion_lon": 0.0, "name": "660ecd9ae9a82b7d9069dbbb7257ca1f", "rental_uris": {"android": "https://dc.lft.to/lastmile_qr_scan", "ios": "https://dc.lft.to/lastmile_qr_scan"}, "lat": 38.92672616666667, "bike_id": "660ecd9ae9a82b7d9069dbbb7257ca1f", "is_disabled": 0, "lon": -77.02989566666666, "is_reserved": 0, "fusion_lat": 0.0, "type": "electric_scooter"}, {"fusion_lon": 0.0, "name": "080c9e713e82f48bfb0dbd1e56dda200", "rental_uris": {"android": "https://dc.lft.to/lastmile_qr_scan", "ios": "https://dc.lft.to/lastmile_qr_scan"}, "lat": 38.941518333333335, "bike_id": "080c9e713e82f48bfb0dbd1e56dda200", "is_disabled": 0, "lon": -77.00196783333334, "is_reserved": 0, "fusion_lat": 0.0, "type": "electric_bike"}, {"fusion_lon": 0.0, "name": "cd5dbb71203e17a37d74b00739bc5d49", "rental_uris": {"android": "https://dc.lft.to/lastmile_qr_scan", "ios": "https://dc.lft.to/lastmile_qr_scan"}, "lat": 38.91552316666667, "bike_id": "cd5dbb71203e17a37d74b00739bc5d49", "is_disabled": 0, "lon": -77.03660383333333, "is_reserved": 0, "fusion_lat": 0.0, "type": "electric_scooter"}, {"fusion_lon": 0.0, "name": "977146a3d76da14bd5035a02e3c30b01", "rental_uris": {"android": "https://dc.lft.to/lastmile_qr_scan", "ios": "https://dc.lft.to/lastmile_qr_scan"}, "lat": 38.9058405, "bike_id": "977146a3d76da14bd5035a02e3c30b01", "is_disabled": 0, "lon": -77.03483533333333, "is_reserved": 0, "fusion_lat": 0.0, "type": "electric_scooter"}, {"fusion_lon": 0.0, "name": "1086b45f55d6f8a83c74bd711866f946", "rental_uris": {"android": "https://dc.lft.to/lastmile_qr_scan", "ios": "https://dc.lft.to/lastmile_qr_scan"}, "lat": 38.91934116666667, "bike_id": "1086b45f55d6f8a83c74bd711866f946", "is_disabled": 0, "lon": -77.03179016666667, "is_reserved": 0, "fusion_lat": 0.0, "type": "electric_scooter"}, {"fusion_lon": 0.0, "name": "26926c6959bca0763f802ab76b251117", "rental_uris": {"android": "https://dc.lft.to/lastmile_qr_scan", "ios": "https://dc.lft.to/lastmile_qr_scan"}, "lat": 38.912718166666664, "bike_id": "26926c6959bca0763f802ab76b251117", "is_disabled": 0, "lon": -77.0167875, "is_reserved": 0, "fusion_lat": 0.0, "type": "electric_scooter"}, {"fusion_lon": 0.0, "name": "bd6affdecb71b50a3930089ad5d5c0ed", "rental_uris": {"android": "https://dc.lft.to/lastmile_qr_scan", "ios": "https://dc.lft.to/lastmile_qr_scan"}, "lat": 38.901473833333334, "bike_id": "bd6affdecb71b50a3930089ad5d5c0ed", "is_disabled": 0, "lon": -77.04159083333333, "is_reserved": 0, "fusion_lat": 0.0, "type": "electric_scooter"}, {"fusion_lon": 0.0, "name": "7d8f9a89069ceaf40e73a5ce0822b6b3", "rental_uris": {"android": "https://dc.lft.to/lastmile_qr_scan", "ios": "https://dc.lft.to/lastmile_qr_scan"}, "lat": 38.89901316666667, "bike_id": "7d8f9a89069ceaf40e73a5ce0822b6b3", "is_disabled": 0, "lon": -76.97605033333333, "is_reserved": 0, "fusion_lat": 0.0, "type": "electric_scooter"}, {"fusion_lon": 0.0, "name": "0daf0b536555616226f401ecfde3c57b", "rental_uris": {"android": "https://dc.lft.to/lastmile_qr_scan", "ios": "https://dc.lft.to/lastmile_qr_scan"}, "lat": 38.929344, "bike_id": "0daf0b536555616226f401ecfde3c57b", "is_disabled": 0, "lon": -77.03256, "is_reserved": 0, "fusion_lat": 0.0, "type": "electric_scooter"}, {"fusion_lon": 0.0, "name": "dd040a31a4250854981bb512b0be14ee", "rental_uris": {"android": "https://dc.lft.to/lastmile_qr_scan", "ios": "https://dc.lft.to/lastmile_qr_scan"}, "lat": 38.92931433333333, "bike_id": "dd040a31a4250854981bb512b0be14ee", "is_disabled": 0, "lon": -77.0326995, "is_reserved": 0, "fusion_lat": 0.0, "type": "electric_scooter"}, {"fusion_lon": 0.0, "name": "b5d0305dd828c98189c795cba4036bd0", "rental_uris": {"android": "https://dc.lft.to/lastmile_qr_scan", "ios": "https://dc.lft.to/lastmile_qr_scan"}, "lat": 38.90499233333333, "bike_id": "b5d0305dd828c98189c795cba4036bd0", "is_disabled": 0, "lon": -77.04345583333334, "is_reserved": 0, "fusion_lat": 0.0, "type": "electric_scooter"}, {"fusion_lon": 0.0, "name": "cde33e2fedc78068b88d56ec10add125", "rental_uris": {"android": "https://dc.lft.to/lastmile_qr_scan", "ios": "https://dc.lft.to/lastmile_qr_scan"}, "lat": 38.913648, "bike_id": "cde33e2fedc78068b88d56ec10add125", "is_disabled": 0, "lon": -77.091922, "is_reserved": 0, "fusion_lat": 0.0, "type": "electric_scooter"}, {"fusion_lon": 0.0, "name": "e896304c9e12b06973d4a8b2ee3558bc", "rental_uris": {"android": "https://dc.lft.to/lastmile_qr_scan", "ios": "https://dc.lft.to/lastmile_qr_scan"}, "lat": 38.865277166666665, "bike_id": "e896304c9e12b06973d4a8b2ee3558bc", "is_disabled": 0, "lon": -76.96903433333334, "is_reserved": 0, "fusion_lat": 0.0, "type": "electric_scooter"}, {"fusion_lon": 0.0, "name": "929cf1029f4dd8a0433bd016b861551d", "rental_uris": {"android": "https://dc.lft.to/lastmile_qr_scan", "ios": "https://dc.lft.to/lastmile_qr_scan"}, "lat": 38.89616183333333, "bike_id": "929cf1029f4dd8a0433bd016b861551d", "is_disabled": 0, "lon": -77.04077533333333, "is_reserved": 0, "fusion_lat": 0.0, "type": "electric_scooter"}, {"fusion_lon": 0.0, "name": "c9d9a1037bed2e6958cd6c0d6bbb5ab1", "rental_uris": {"android": "https://dc.lft.to/lastmile_qr_scan", "ios": "https://dc.lft.to/lastmile_qr_scan"}, "lat": 38.88437733333333, "bike_id": "c9d9a1037bed2e6958cd6c0d6bbb5ab1", "is_disabled": 0, "lon": -76.95768433333333, "is_reserved": 0, "fusion_lat": 0.0, "type": "electric_scooter"}, {"fusion_lon": 0.0, "name": "45c67fc7fd2711c7b84736548ac2b987", "rental_uris": {"android": "https://dc.lft.to/lastmile_qr_scan", "ios": "https://dc.lft.to/lastmile_qr_scan"}, "lat": 38.8922395, "bike_id": "45c67fc7fd2711c7b84736548ac2b987", "is_disabled": 0, "lon": -77.02560283333334, "is_reserved": 0, "fusion_lat": 0.0, "type": "electric_scooter"}, {"fusion_lon": 0.0, "name": "48f17b9269bc2b9681818ca3fac869ab", "rental_uris": {"android": "https://dc.lft.to/lastmile_qr_scan", "ios": "https://dc.lft.to/lastmile_qr_scan"}, "lat": 38.90729066666667, "bike_id": "48f17b9269bc2b9681818ca3fac869ab", "is_disabled": 0, "lon": -77.05018533333333, "is_reserved": 0, "fusion_lat": 0.0, "type": "electric_scooter"}, {"fusion_lon": 0.0, "name": "9122db3b9c95af793b9a137f2c98ec6b", "rental_uris": {"android": "https://dc.lft.to/lastmile_qr_scan", "ios": "https://dc.lft.to/lastmile_qr_scan"}, "lat": 38.8898855, "bike_id": "9122db3b9c95af793b9a137f2c98ec6b", "is_disabled": 0, "lon": -77.003151, "is_reserved": 0, "fusion_lat": 0.0, "type": "electric_scooter"}, {"fusion_lon": 0.0, "name": "3899a5578f0cfbaf93cdf9443967bba8", "rental_uris": {"android": "https://dc.lft.to/lastmile_qr_scan", "ios": "https://dc.lft.to/lastmile_qr_scan"}, "lat": 38.903829, "bike_id": "3899a5578f0cfbaf93cdf9443967bba8", "is_disabled": 0, "lon": -77.0341215, "is_reserved": 0, "fusion_lat": 0.0, "type": "electric_scooter"}, {"fusion_lon": 0.0, "name": "ef64b2fbd8287130c80e8e4f7ac5adfc", "rental_uris": {"android": "https://dc.lft.to/lastmile_qr_scan", "ios": "https://dc.lft.to/lastmile_qr_scan"}, "lat": 38.961231, "bike_id": "ef64b2fbd8287130c80e8e4f7ac5adfc", "is_disabled": 0, "lon": -77.02787833333333, "is_reserved": 0, "fusion_lat": 0.0, "type": "electric_scooter"}, {"fusion_lon": 0.0, "name": "8bf54d9887ded8d9954882ea0b7e82e2", "rental_uris": {"android": "https://dc.lft.to/lastmile_qr_scan", "ios": "https://dc.lft.to/lastmile_qr_scan"}, "lat": 38.907285, "bike_id": "8bf54d9887ded8d9954882ea0b7e82e2", "is_disabled": 0, "lon": -77.03944033333333, "is_reserved": 0, "fusion_lat": 0.0, "type": "electric_scooter"}, {"fusion_lon": 0.0, "name": "3aa6ef34fe888e3592750086eb174539", "rental_uris": {"android": "https://dc.lft.to/lastmile_qr_scan", "ios": "https://dc.lft.to/lastmile_qr_scan"}, "lat": 38.9325155, "bike_id": "3aa6ef34fe888e3592750086eb174539", "is_disabled": 0, "lon": -77.03099066666667, "is_reserved": 0, "fusion_lat": 0.0, "type": "electric_scooter"}, {"fusion_lon": 0.0, "name": "9dfe2ecf4c3b480c6a12fe8d9db686ca", "rental_uris": {"android": "https://dc.lft.to/lastmile_qr_scan", "ios": "https://dc.lft.to/lastmile_qr_scan"}, "lat": 38.895761, "bike_id": "9dfe2ecf4c3b480c6a12fe8d9db686ca", "is_disabled": 0, "lon": -77.02202633333333, "is_reserved": 0, "fusion_lat": 0.0, "type": "electric_scooter"}, {"fusion_lon": 0.0, "name": "27a0996b9db80394e2f729657152b52c", "rental_uris": {"android": "https://dc.lft.to/lastmile_qr_scan", "ios": "https://dc.lft.to/lastmile_qr_scan"}, "lat": 38.89975833333333, "bike_id": "27a0996b9db80394e2f729657152b52c", "is_disabled": 0, "lon": -77.048574, "is_reserved": 0, "fusion_lat": 0.0, "type": "electric_scooter"}, {"fusion_lon": 0.0, "name": "845719e240e696ab07a2d387a63184f2", "rental_uris": {"android": "https://dc.lft.to/lastmile_qr_scan", "ios": "https://dc.lft.to/lastmile_qr_scan"}, "lat": 38.902716, "bike_id": "845719e240e696ab07a2d387a63184f2", "is_disabled": 0, "lon": -77.04597983333333, "is_reserved": 0, "fusion_lat": 0.0, "type": "electric_scooter"}, {"fusion_lon": 0.0, "name": "28e75286bc68dd5dfc7f0a45d24f0156", "rental_uris": {"android": "https://dc.lft.to/lastmile_qr_scan", "ios": "https://dc.lft.to/lastmile_qr_scan"}, "lat": 38.90055133333333, "bike_id": "28e75286bc68dd5dfc7f0a45d24f0156", "is_disabled": 0, "lon": -77.0482935, "is_reserved": 0, "fusion_lat": 0.0, "type": "electric_scooter"}, {"fusion_lon": 0.0, "name": "90807eb8dddd051f646cbecbce5e206c", "rental_uris": {"android": "https://dc.lft.to/lastmile_qr_scan", "ios": "https://dc.lft.to/lastmile_qr_scan"}, "lat": 38.922564333333334, "bike_id": "90807eb8dddd051f646cbecbce5e206c", "is_disabled": 0, "lon": -77.02972666666666, "is_reserved": 0, "fusion_lat": 0.0, "type": "electric_scooter"}, {"fusion_lon": 0.0, "name": "62cac59c23cba484d45aa40620bf2c26", "rental_uris": {"android": "https://dc.lft.to/lastmile_qr_scan", "ios": "https://dc.lft.to/lastmile_qr_scan"}, "lat": 38.90799716666667, "bike_id": "62cac59c23cba484d45aa40620bf2c26", "is_disabled": 0, "lon": -77.083857, "is_reserved": 0, "fusion_lat": 0.0, "type": "electric_scooter"},