{"data": {"bikes": [{"is_reserved": 0, "rental_uris": {"ios": "https://dc.lft.to/lastmile_qr_scan", "android": "https://dc.lft.to/lastmile_qr_scan"}, "name": "0a13a6b9da765e503273ecd2ef26b238", "bike_id": "0a13a6b9da765e503273ecd2ef26b238", "type": "electric_scooter", "lat": 38.912574, "fusion_lon": 0.0, "is_disabled": 0, "fusion_lat": 0.0, "lon": -77.03864966666667}, {"is_reserved": 0, "rental_uris": {"ios": "https://dc.lft.to/lastmile_qr_scan", "android": "https://dc.lft.to/lastmile_qr_scan"}, "name": "993b6a4cfa012d389e2c3a1243d0c46c", "bike_id": "993b6a4cfa012d389e2c3a1243d0c46c", "type": "electric_scooter", "lat": 38.8904745, "fusion_lon": 0.0, "is_disabled": 0, "fusion_lat": 0.0, "lon": -76.9374675}, {"is_reserved": 0, "rental_uris": {"ios": "https://dc.lft.to/lastmile_qr_scan", "android": "https://dc.lft.to/lastmile_qr_scan"}, "name": "8b1a93c9e91bd8829da9ea918d4b1494", "bike_id": "8b1a93c9e91bd8829da9ea918d4b1494", "type": "electric_scooter", "lat": 38.92472183333334, "fusion_lon": 0.0, "is_disabled": 0, "fusion_lat": 0.0, "lon": -77.02715383333333}, {"is_reserved": 0, "rental_uris": {"ios": "https://dc.lft.to/lastmile_qr_scan", "android": "https://dc.lft.to/lastmile_qr_scan"}, "name": "11a7082b9581e0b094ff5b75e0ff851b", "bike_id": "11a7082b9581e0b094ff5b75e0ff851b", "type": "electric_scooter", "lat": 38.908205, "fusion_lon": 0.0, "is_disabled": 0, "fusion_lat": 0.0, "lon": -77.0344635}, {"is_reserved": 0, "rental_uris": {"ios": "https://dc.lft.to/lastmile_qr_scan", "android": "https://dc.lft.to/lastmile_qr_scan"}, "name": "4d6ed1654573bfb8b6bf81d77e9dab98", "bike_id": "4d6ed1654573bfb8b6bf81d77e9dab98", "type": "electric_scooter", "lat": 38.906163, "fusion_lon": 0.0, "is_disabled": 0, "fusion_lat": 0.0, "lon": -77.043407}, {"is_reserved": 0, "rental_uris": {"ios": "https://dc.lft.to/lastmile_qr_scan", "android": "https://dc.lft.to/lastmile_qr_scan"}, "name": "ba092f0a0ad60a6edf1ee325b9bbe010", "bike_id": "ba092f0a0ad60a6edf1ee325b9bbe010", "type": "electric_bike", "lat": 38.85784666666667, "fusion_lon": 0.0, "is_disabled": 0, "fusion_lat": 0.0, "lon": -77.09965016666666}, {"is_reserved": 0, "rental_uris": {"ios": "https://dc.lft.to/lastmile_qr_scan", "android": "https://dc.lft.to/lastmile_qr_scan"}, "name": "4a36030db93ed805f3c026f50d298526", "bike_id": "4a36030db93ed805f3c026f50d298526", "type": "electric_scooter", "lat": 38.89457866666667, "fusion_lon": 0.0, "is_disabled": 0, "fusion_lat": 0.0, "lon": -77.046758}, {"is_reserved": 0, "rental_uris": {"ios": "https://dc.lft.to/lastmile_qr_scan", "android": "https://dc.lft.to/lastmile_qr_scan"}, "name": "34e4bb3af0b3d7b120c1ace2cec83458", "bike_id": "34e4bb3af0b3d7b120c1ace2cec83458", "type": "electric_scooter", "lat": 38.88437483333333, "fusion_lon": 0.0, "is_disabled": 0, "fusion_lat": 0.0, "lon": -76.95755283333334}, {"is_reserved": 0, "rental_uris": {"ios": "https://dc.lft.to/lastmile_qr_scan", "android": "https://dc.lft.to/lastmile_qr_scan"}, "name": "f487c3affb2a6d95a11bdf34ff8fba8d", "bike_id": "f487c3affb2a6d95a11bdf34ff8fba8d", "type": "electric_scooter", "lat": 38.892526333333336, "fusion_lon": 0.0, "is_disabled": 0, "fusion_lat": 0.0, "lon": -77.0279155}, {"is_reserved": 0, "rental_uris": {"ios": "https://dc.lft.to/lastmile_qr_scan", "android": "https://dc.lft.to/lastmile_qr_scan"}, "name": "761e47ed3d22ef862277321eedc3615c", "bike_id": "761e47ed3d22ef862277321eedc3615c", "type": "electric_bike", "lat": 38.8551095, "fusion_lon": 0.0, "is_disabled": 0, "fusion_lat": 0.0, "lon": -76.98389}, {"is_reserved": 0, "rental_uris": {"ios": "https://dc.lft.to/lastmile_qr_scan", "android": "https://dc.lft.to/lastmile_qr_scan"}, "name": "9cf60f078b4a6a2385571feb305264a8", "bike_id": "9cf60f078b4a6a2385571feb305264a8", "type": "electric_scooter", "lat": 38.905197333333334, "fusion_lon": 0.0, "is_disabled": 0, "fusion_lat": 0.0, "lon": -77.0517005}, {"is_reserved": 0, "rental_uris": {"ios": "https://dc.lft.to/lastmile_qr_scan", "android": "https://dc.lft.to/lastmile_qr_scan"}, "name": "c7645f58f8c44b39f17530ce79cd35e6", "bike_id": "c7645f58f8c44b39f17530ce79cd35e6", "type": "electric_scooter", "lat": 38.897578833333334, "fusion_lon": 0.0, "is_disabled": 0, "fusion_lat": 0.0, "lon": -76.94181716666667}, {"is_reserved": 0, "rental_uris": {"ios": "https://dc.lft.to/lastmile_qr_scan", "android": "https://dc.lft.to/lastmile_qr_scan"}, "name": "e62fafd2830de40d0efe6b9ac998a5a7", "bike_id": "e62fafd2830de40d0efe6b9ac998a5a7", "type": "electric_scooter", "lat": 38.898214333333335, "fusion_lon": 0.0, "is_disabled": 0, "fusion_lat": 0.0, "lon": -77.03186366666667}, {"is_reserved": 0, "rental_uris": {"ios": "https://dc.lft.to/lastmile_qr_scan", "android": "https://dc.lft.to/lastmile_qr_scan"}, "name": "fb53849d23e7d2c2ff79395c24dbe529", "bike_id": "fb53849d23e7d2c2ff79395c24dbe529", "type": "electric_scooter", "lat": 38.906267666666665, "fusion_lon": 0.0, "is_disabled": 0, "fusion_lat": 0.0, "lon": -77.043513}, {"is_reserved": 0, "rental_uris": {"ios": "https://dc.lft.to/lastmile_qr_scan", "android": "https://dc.lft.to/lastmile_qr_scan"}, "name": "fe760453e775d0d229df78fd60eea11a", "bike_id": "fe760453e775d0d229df78fd60eea11a", "type": "electric_scooter", "lat": 38.90510783333333, "fusion_lon": 0.0, "is_disabled": 0, "fusion_lat": 0.0, "lon": -77.062083}, {"is_reserved": 0, "rental_uris": {"ios": "https://dc.lft.to/lastmile_qr_scan", "android": "https://dc.lft.to/lastmile_qr_scan"}, "name": "3ccca94754137fbc2844a60e1a6d1557", "bike_id": "3ccca94754137fbc2844a60e1a6d1557", "type": "electric_scooter", "lat": 38.9056205, "fusion_lon": 0.0, "is_disabled": 0, "fusion_lat": 0.0, "lon": -77.04661666666667}, {"is_reserved": 0, "rental_uris": {"ios": "https://dc.lft.to/lastmile_qr_scan", "android": "https://dc.lft.to/lastmile_qr_scan"}, "name": "0bbcaf12ccef64ad2228cbd0cf25f61b", "bike_id": "0bbcaf12ccef64ad2228cbd0cf25f61b", "type": "electric_scooter", "lat": 38.907221, "fusion_lon": 0.0, "is_disabled": 0, "fusion_lat": 0.0, "lon": -77.04899233333333}, {"is_reserved": 0, "rental_uris": {"ios": "https://dc.lft.to/lastmile_qr_scan", "android": "https://dc.lft.to/lastmile_qr_scan"}, "name": "ab054385db57d863a30b0c0ea96e2a18", "bike_id": "ab054385db57d863a30b0c0ea96e2a18", "type": "electric_scooter", "lat": 38.898839333333335, "fusion_lon": 0.0, "is_disabled": 0, "fusion_lat": 0.0, "lon": -76.93178933333333}, {"is_reserved": 0, "rental_uris": {"ios": "https://dc.lft.to/lastmile_qr_scan", "android": "https://dc.lft.to/lastmile_qr_scan"}, "name": "dbdabd8551ea1c6ea28eee25311e9580", "bike_id": "dbdabd8551ea1c6ea28eee25311e9580", "type": "electric_scooter", "lat": 38.92070116666667, "fusion_lon": 0.0, "is_disabled": 0, "fusion_lat": 0.0, "lon": -77.04377066666666}, {"is_reserved": 0, "rental_uris": {"ios": "https://dc.lft.to/lastmile_qr_scan", "android": "https://dc.lft.to/lastmile_qr_scan"}, "name": "dae53cbab1ceba8fcabc5b655918fa03", "bike_id": "dae53cbab1ceba8fcabc5b655918fa03", "type": "electric_scooter", "lat": 38.91452433333333, "fusion_lon": 0.0, "is_disabled": 0, "fusion_lat": 0.0, "lon": -77.0461065}, {"is_reserved": 0, "rental_uris": {"ios": "https://dc.lft.to/lastmile_qr_scan", "android": "https://dc.lft.to/lastmile_qr_scan"}, "name": "6b574609b2340eea7cb5418bc1dc4b0d", "bike_id": "6b574609b2340eea7cb5418bc1dc4b0d", "type": "electric_scooter", "lat": 38.92346933333334, "fusion_lon": 0.0, "is_disabled": 0, "fusion_lat": 0.0, "lon": -77.03514066666666}, {"is_reserved": 0, "rental_uris": {"ios": "https://dc.lft.to/lastmile_qr_scan", "android": "https://dc.lft.to/lastmile_qr_scan"}, "name": "e5223b8af40f635d05aea0caa9efaa72", "bike_id": "e5223b8af40f635d05aea0caa9efaa72", "type": "electric_bike", "lat": 38.85052983333333, "fusion_lon": 0.0, "is_disabled": 0, "fusion_lat": 0.0, "lon": -76.973164}, {"is_reserved": 0, "rental_uris": {"ios": "https://dc.lft.to/lastmile_qr_scan", "android": "https://dc.lft.to/lastmile_qr_scan"}, "name": "3f7b225151226b7a206c8a0bfeb2285a", "bike_id": "3f7b225151226b7a206c8a0bfeb2285a", "type": "electric_scooter", "lat": 38.940251833333335, "fusion_lon": 0.0, "is_disabled": 0, "fusion_lat": 0.0, "lon": -77.07170316666667}, {"is_reserved": 0, "rental_uris": {"ios": "https://dc.lft.to/lastmile_qr_scan", "android": "https://dc.lft.to/lastmile_qr_scan"}, "name": "9d917272831f1fb0b50cd84aa438a600", "bike_id": "9d917272831f1fb0b50cd84aa438a600", "type": "electric_scooter", "lat": 38.922419166666664, "fusion_lon": 0.0, "is_disabled": 0, "fusion_lat": 0.0, "lon": -77.04570766666667}, {"is_reserved": 0, "rental_uris": {"ios": "https://dc.lft.to/lastmile_qr_scan", "android": "https://dc.lft.to/lastmile_qr_scan"}, "name": "f3e59bb6c7900be4b5a3afdeda0dd2f1", "bike_id": "f3e59bb6c7900be4b5a3afdeda0dd2f1", "type": "electric_scooter", "lat": 38.902176833333336, "fusion_lon": 0.0, "is_disabled": 0, "fusion_lat": 0.0, "lon": -77.047075}, {"is_reserved": 0, "rental_uris": {"ios": "https://dc.lft.to/lastmile_qr_scan", "android": "https://dc.lft.to/lastmile_qr_scan"}, "name": "b0113332d4eab5258a940bfb907da59c", "bike_id": "b0113332d4eab5258a940bfb907da59c", "type": "electric_scooter", "lat": 38.919998666666665, "fusion_lon": 0.0, "is_disabled": 0, "fusion_lat": 0.0, "lon": -77.047554}, {"is_reserved": 0, "rental_uris": {"ios": "https://dc.lft.to/lastmile_qr_scan", "android": "https://dc.lft.to/lastmile_qr_scan"}, "name": "ccc3c25c95a1cec585c73cf6667eca64", "bike_id": "ccc3c25c95a1cec585c73cf6667eca64", "type": "electric_scooter", "lat": 38.90449516666666, "fusion_lon": 0.0, "is_disabled": 0, "fusion_lat": 0.0, "lon": -77.0414715}, {"is_reserved": 0, "rental_uris": {"ios": "https://dc.lft.to/lastmile_qr_scan", "android": "https://dc.lft.to/lastmile_qr_scan"}, "name": "f96283e05d1a1dda7dbbd02685df652c", "bike_id": "f96283e05d1a1dda7dbbd02685df652c", "type": "electric_scooter", "lat": 38.917609166666665, "fusion_lon": 0.0, "is_disabled": 0, "fusion_lat": 0.0, "lon": -77.0238705}, {"is_reserved": 0, "rental_uris": {"ios": "https://dc.lft.to/lastmile_qr_scan", "android": "https://dc.lft.to/lastmile_qr_scan"}, "name": "187aded636ad3036559aba7a24d48e2c", "bike_id": "187aded636ad3036559aba7a24d48e2c", "type": "electric_scooter", "lat": 38.91400083333333, "fusion_lon": 0.0, "is_disabled": 0, "fusion_lat": 0.0, "lon": -77.03064066666667}, {"is_reserved": 0, "rental_uris": {"ios": "https://dc.lft.to/lastmile_qr_scan", "android": "https://dc.lft.to/lastmile_qr_scan"}, "name": "a17d40454ba24403b6b3e0b1d99321ce", "bike_id": "a17d40454ba24403b6b3e0b1d99321ce", "type": "electric_scooter", "lat": 38.91467733333333, "fusion_lon": 0.0, "is_disabled": 0, "fusion_lat": 0.0, "lon": -77.03188533333334}, {"is_reserved": 0, "rental_uris": {"ios": "https://dc.lft.to/lastmile_qr_scan", "android": "https://dc.lft.to/lastmile_qr_scan"}, "name": "e3ad870a81067d0295ac9700352830cd", "bike_id": "e3ad870a81067d0295ac9700352830cd", "type": "electric_scooter", "lat": 38.9232465, "fusion_lon": 0.0, "is_disabled": 0, "fusion_lat": 0.0, "lon": -77.03960966666666}, {"is_reserved": 0, "rental_uris": {"ios": "https://dc.lft.to/lastmile_qr_scan", "android": "https://dc.lft.to/lastmile_qr_scan"}, "name": "679b59c4817de9cef5582f9242ae4a8b", "bike_id": "679b59c4817de9cef5582f9242ae4a8b", "type": "electric_bike", "lat": 38.886771333333336, "fusion_lon": 0.0, "is_disabled": 0, "fusion_lat": 0.0, "lon": -77.16239066666667}, {"is_reserved": 0, "rental_uris": {"ios": "https://dc.lft.to/lastmile_qr_scan", "android": "https://dc.lft.to/lastmile_qr_scan"}, "name": "1eb49a81142b657359fe4d522761efa3", "bike_id": "1eb49a81142b657359fe4d522761efa3", "type": "electric_scooter", "lat": 38.896165833333335, "fusion_lon": 0.0, "is_disabled": 0, "fusion_lat": 0.0, "lon": -76.9559395}, {"is_reserved": 0, "rental_uris": {"ios": "https://dc.lft.to/lastmile_qr_scan", "android": "https://dc.lft.to/lastmile_qr_scan"}, "name": "58038ba1c1e9508e93d9256b8499dba1", "bike_id": "58038ba1c1e9508e93d9256b8499dba1", "type": "electric_scooter", "lat": 38.927574166666666, "fusion_lon": 0.0, "is_disabled": 0, "fusion_lat": 0.0, "lon": -77.032196}, {"is_reserved": 0, "rental_uris": {"ios": "https://dc.lft.to/lastmile_qr_scan", "android": "https://dc.lft.to/lastmile_qr_scan"}, "name": "efa7e0eac0453a309daf26a995e0c3e4", "bike_id": "efa7e0eac0453a309daf26a995e0c3e4", "type": "electric_scooter", "lat": 38.907129833333336, "fusion_lon": 0.0, "is_disabled": 0, "fusion_lat": 0.0, "lon": -77.03450733333334}, {"is_reserved": 0, "rental_uris": {"ios": "https://dc.lft.to/lastmile_qr_scan", "android": "https://dc.lft.to/lastmile_qr_scan"}, "name": "8c50c69de02181dc86b4a2e5b95101be", "bike_id": "8c50c69de02181dc86b4a2e5b95101be", "type": "electric_scooter", "lat": 38.9214885, "fusion_lon": 0.0, "is_disabled": 0, "fusion_lat": 0.0, "lon": -77.0421555}, {"is_reserved": 0, "rental_uris": {"ios": "https://dc.lft.to/lastmile_qr_scan", "android": "https://dc.lft.to/lastmile_qr_scan"}, "name": "55c3b8604d8eee4abc219e5228eb7592", "bike_id": "55c3b8604d8eee4abc219e5228eb7592", "type": "electric_scooter", "lat": 38.9188865, "fusion_lon": 0.0, "is_disabled": 0, "fusion_lat": 0.0, "lon": -77.03906683333334}, {"is_reserved": 0, "rental_uris": {"ios": "https://dc.lft.to/lastmile_qr_scan", "android": "https://dc.lft.to/lastmile_qr_scan"}, "name": "603a39afb6f6ef01ef11326b7997fe95", "bike_id": "603a39afb6f6ef01ef11326b7997fe95", "type": "electric_scooter", "lat": 38.92148916666667, "fusion_lon": 0.0, "is_disabled": 0, "fusion_lat": 0.0, "lon": -77.043402}, {"is_reserved": 0, "rental_uris": {"ios": "https://dc.lft.to/lastmile_qr_scan", "android": "https://dc.lft.to/lastmile_qr_scan"}, "name": "88482421538fcb663845f78cf506b9f2", "bike_id": "88482421538fcb663845f78cf506b9f2", "type": "electric_scooter", "lat": 38.919025500000004, "fusion_lon": 0.0, "is_disabled": 0, "fusion_lat": 0.0, "lon": -77.070831}, {"is_reserved": 0, "rental_uris": {"ios": "https://dc.lft.to/lastmile_qr_scan", "android": "https://dc.lft.to/lastmile_qr_scan"}, "name": "0330e099b0191a3c1b551c72342178e5", "bike_id": "0330e099b0191a3c1b551c72342178e5", "type": "electric_scooter", "lat": 38.899568, "fusion_lon": 0.0, "is_disabled": 0, "fusion_lat": 0.0, "lon": -77.0248735}, {"is_reserved": 0, "rental_uris": {"ios": "https://dc.lft.to/lastmile_qr_scan", "android": "https://dc.lft.to/lastmile_qr_scan"}, "name": "956a6fc2582986c23c0abc3de6367c1f", "bike_id": "956a6fc2582986c23c0abc3de6367c1f", "type": "electric_scooter", "lat": 38.93736533333333, "fusion_lon": 0.0, "is_disabled": 0, "fusion_lat": 0.0, "lon": -77.03265433333333}, {"is_reserved": 0, "rental_uris": {"ios": "https://dc.lft.to/lastmile_qr_scan", "android": "https://dc.lft.to/lastmile_qr_scan"}, "name": "a2ce7ae03b5fa94a797d2b20b87b1dec", "bike_id": "a2ce7ae03b5fa94a797d2b20b87b1dec", "type": "electric_scooter", "lat": 38.921066, "fusion_lon": 0.0, "is_disabled": 0, "fusion_lat": 0.0, "lon": -77.04685816666667}, {"is_reserved": 0, "rental_uris": {"ios": "https://dc.lft.to/lastmile_qr_scan", "android": "https://dc.lft.to/lastmile_qr_scan"}, "name": "af91f07669109f9013d4de98ad98995b", "bike_id": "af91f07669109f9013d4de98ad98995b", "type": "electric_scooter", "lat": 38.91593683333333, "fusion_lon": 0.0, "is_disabled": 0, "fusion_lat": 0.0, "lon": -77.04980033333334}, {"is_reserved": 0, "rental_uris": {"ios": "https://dc.lft.to/lastmile_qr_scan", "android": "https://dc.lft.to/lastmile_qr_scan"}, "name": "3848673386749bc34a2bc661fd559fb2", "bike_id": "3848673386749bc34a2bc661fd559fb2", "type": "electric_scooter", "lat": 38.92913316666667, "fusion_lon": 0.0, "is_disabled": 0, "fusion_lat": 0.0, "lon": -77.03262583333333}, {"is_reserved": 0, "rental_uris": {"ios": "https://dc.lft.to/lastmile_qr_scan", "android": "https://dc.lft.to/lastmile_qr_scan"}, "name": "436bf117a417e19f7da07984914cbe75", "bike_id": "436bf117a417e19f7da07984914cbe75", "type": "electric_scooter", "lat": 38.90728266666667, "fusion_lon": 0.0, "is_disabled": 0, "fusion_lat": 0.0, "lon": -77.039936}, {"is_reserved": 0, "rental_uris": {"ios": "https://dc.lft.to/lastmile_qr_scan", "android": "https://dc.lft.to/lastmile_qr_scan"}, "name": "dd383168c0778f95454d7db8c583003c", "bike_id": "dd383168c0778f95454d7db8c583003c", "type": "electric_scooter", "lat": 38.930121666666665, "fusion_lon": 0.0, "is_disabled": 0, "fusion_lat": 0.0, "lon": -77.05513833333333}, {"is_reserved": 0, "rental_uris": {"ios": "https://dc.lft.to/lastmile_qr_scan", "android": "https://dc.lft.to/lastmile_qr_scan"}, "name": "97c4816062aa1be38ae5e42009ccfa3a", "bike_id": "97c4816062aa1be38ae5e42009ccfa3a", "type": "electric_scooter", "lat": 38.916955333333334, "fusion_lon": 0.0, "is_disabled": 0, "fusion_lat": 0.0, "lon": -77.03268866666667}, {"is_reserved": 0, "rental_uris": {"ios": "https://dc.lft.to/lastmile_qr_scan", "android": "https://dc.lft.to/lastmile_qr_scan"}, "name": "1c351d34d6641de24bffca0214333a6a", "bike_id": "1c351d34d6641de24bffca0214333a6a", "type": "electric_scooter", "lat": 38.892274666666665, "fusion_lon": 0.0, "is_disabled": 0, "fusion_lat": 0.0, "lon": -77.0444835}, {"is_reserved": 0, "rental_uris": {"ios": "https://dc.lft.to/lastmile_qr_scan", "android": "https://dc.lft.to/lastmile_qr_scan"}, "name": "f28c7d7cb6b45b08efedce1222af2fb7", "bike_id": "f28c7d7cb6b45b08efedce1222af2fb7", "type": "electric_scooter", "lat": 38.921209833333336, "fusion_lon": 0.0, "is_disabled": 0, "fusion_lat": 0.0, "lon": -77.01791283333333}, {"is_reserved": 0, "rental_uris": {"ios": "https://dc.lft.to/lastmile_qr_scan", "android": "https://dc.lft.to/lastmile_qr_scan"}, "name": "c28a9eca3e825564fc4533af68ea8bb2", "bike_id": "c28a9eca3e825564fc4533af68ea8bb2", "type": "electric_scooter", "lat": 38.895339, "fusion_lon": 0.0, "is_disabled": 0, "fusion_lat": 0.0, "lon": -76.948912}, {"is_reserved": 0, "rental_uris": {"ios": "https://dc.lft.to/lastmile_qr_scan", "android": "https://dc.lft.to/lastmile_qr_scan"}, "name": "05882cbb5cd03c136861d59a4aab4cde", "bike_id": "05882cbb5cd03c136861d59a4aab4cde", "type": "electric_scooter", "lat": 38.87245083333333, "fusion_lon": 0.0, "is_disabled": 0, "fusion_lat": 0.0, "lon": -76.97723233333333}, {"is_reserved": 0, "rental_uris": {"ios": "https://dc.lft.to/lastmile_qr_scan", "android": "https://dc.lft.to/lastmile_qr_scan"}, "name": "4b01f8364676ca303dd88744b521c6a6", "bike_id": "4b01f8364676ca303dd88744b521c6a6", "type": "electric_scooter", "lat": 38.85454516666667, "fusion_lon": 0.0, "is_disabled": 0, "fusion_lat": 0.0, "lon": -76.9722805}, {"is_reserved": 0, "rental_uris": {"ios": "https://dc.lft.to/lastmile_qr_scan", "android": "https://dc.lft.to/lastmile_qr_scan"}, "name": "33e0f43141915d48391f90c59cbc9f71", "bike_id": "33e0f43141915d48391f90c59cbc9f71", "type": "electric_scooter", "lat": 38.927957666666664, "fusion_lon": 0.0, "is_disabled": 0, "fusion_lat": 0.0, "lon": -77.03695766666667}, {"is_reserved": 0, "rental_uris": {"ios": "https://dc.lft.to/lastmile_qr_scan", "android": "https://dc.lft.to/lastmile_qr_scan"}, "name": "99fa4ab4bb89fb408fec42c68b8c8052", "bike_id": "99fa4ab4bb89fb408fec42c68b8c8052", "type": "electric_scooter", "lat": 38.88496516666667, "fusion_lon": 0.0, "is_disabled": 0, "fusion_lat": 0.0, "lon": -77.00347316666667}, {"is_reserved": 0, "rental_uris": {"ios": "https://dc.lft.to/lastmile_qr_scan", "android": "https://dc.lft.to/lastmile_qr_scan"}, "name": "396a89ebca5ad3a2fad9da529e3da674", "bike_id": "396a89ebca5ad3a2fad9da529e3da674", "type": "electric_scooter", "lat": 38.88611783333333, "fusion_lon": 0.0, "is_disabled": 0, "fusion_lat": 0.0, "lon": -77.00582183333333}, {"is_reserved": 0, "rental_uris": {"ios": "https://dc.lft.to/lastmile_qr_scan", "android": "https://dc.lft.to/lastmile_qr_scan"}, "name": "32407374448371889f3a9e524a2c74fc", "bike_id": "32407374448371889f3a9e524a2c74fc", "type": "electric_scooter", "lat": 38.88991633333333, "fusion_lon": 0.0, "is_disabled": 0, "fusion_lat": 0.0, "lon": -76.95560133333333}, {"is_reserved": 0, "rental_uris": {"ios": "https://dc.lft.to/lastmile_qr_scan", "android": "https://dc.lft.to/lastmile_qr_scan"}, "name": "8c9320b5b56a2421b738336e02554f91", "bike_id": "8c9320b5b56a2421b738336e02554f91", "type": "electric_bike", "lat": 38.855160166666664, "fusion_lon": 0.0, "is_disabled": 0, "fusion_lat": 0.0, "lon": -76.98420683333333}, {"is_reserved": 0, "rental_uris": {"ios": "https://dc.lft.to/lastmile_qr_scan", "android": "https://dc.lft.to/lastmile_qr_scan"}, "name": "2741d926a8531dbb8aaec8d28395b908", "bike_id": "2741d926a8531dbb8aaec8d28395b908", "type": "electric_scooter", "lat": 38.90679933333333, "fusion_lon": 0.0, "is_disabled": 0, "fusion_lat": 0.0, "lon": -77.07196083333334}, {"is_reserved": 0, "rental_uris": {"ios": "https://dc.lft.to/lastmile_qr_scan", "android": "https://dc.lft.to/lastmile_qr_scan"}, "name": "b3957d7090b6abdb16e56340d71b2e69", "bike_id": "b3957d7090b6abdb16e56340d71b2e69", "type": "electric_bike", "lat": 38.95313933333333, "fusion_lon": 0.0, "is_disabled": 0, "fusion_lat": 0.0, "lon": -76.999043}, {"is_reserved": 0, "rental_uris": {"ios": "https://dc.lft.to/lastmile_qr_scan", "android": "https://dc.lft.to/lastmile_qr_scan"}, "name": "d650b5d8e0fb4c1c3e775bec122d7ef8", "bike_id": "d650b5d8e0fb4c1c3e775bec122d7ef8", "type": "electric_scooter", "lat": 38.916987666666664, "fusion_lon": 0.0, "is_disabled": 0, "fusion_lat": 0.0, "lon": -77.0429065}, {"is_reserved": 0, "rental_uris": {"ios": "https://dc.lft.to/lastmile_qr_scan", "android": "https://dc.lft.to/lastmile_qr_scan"}, "name": "7a9aeb384f0a151a89ba2b350b397fd1", "bike_id": "7a9aeb384f0a151a89ba2b350b397fd1", "type": "electric_scooter", "lat": 38.92582766666666, "fusion_lon": 0.0, "is_disabled": 0, "fusion_lat": 0.0, "lon": -77.033639}, {"is_reserved": 0, "rental_uris": {"ios": "https://dc.lft.to/lastmile_qr_scan", "android": "https://dc.lft.to/lastmile_qr_scan"}, "name": "698179280027ccb431624fd246bcb7a8", "bike_id": "698179280027ccb431624fd246bcb7a8", "type": "electric_scooter", "lat": 38.8929335, "fusion_lon": 0.0, "is_disabled": 0, "fusion_lat": 0.0, "lon": -76.99852416666667}, {"is_reserved": 0, "rental_uris": {"ios": "https://dc.lft.to/lastmile_qr_scan", "android": "https://dc.lft.to/lastmile_qr_scan"}, "name": "317cccbcaf4d12fc27776a823f6ac72b", "bike_id": "317cccbcaf4d12fc27776a823f6ac72b", "type": "electric_scooter", "lat": 38.9343565, "fusion_lon": 0.0, "is_disabled": 0, "fusion_lat": 0.0, "lon": -77.03998416666667}, {"is_reserved": 0, "rental_uris": {"ios": "https://dc.lft.to/lastmile_qr_scan", "android": "https://dc.lft.to/lastmile_qr_scan"}, "name": "546779a4b3c8f26b2cd6be928d740b6c", "bike_id": "546779a4b3c8f26b2cd6be928d740b6c", "type": "electric_scooter", "lat": 38.92867733333333, "fusion_lon": 0.0, "is_disabled": 0, "fusion_lat": 0.0, "lon": -77.01363633333334}, {"is_reserved": 0, "rental_uris": {"ios": "https://dc.lft.to/lastmile_qr_scan", "android": "https://dc.lft.to/lastmile_qr_scan"}, "name": "991b577a4dc9ae50f465c6d95da86fe0", "bike_id": "991b577a4dc9ae50f465c6d95da86fe0", "type": "electric_scooter", "lat": 38.917823166666665, "fusion_lon": 0.0, "is_disabled": 0, "fusion_lat": 0.0, "lon": -77.02306816666666}, {"is_reserved": 0, "rental_uris": {"ios": "https://dc.lft.to/lastmile_qr_scan", "android": "https://dc.lft.to/lastmile_qr_scan"}, "name": "e15fda4b66e2630cd377f715a4bfc475", "bike_id": "e15fda4b66e2630cd377f715a4bfc475", "type": "electric_scooter", "lat": 38.8973195, "fusion_lon": 0.0, "is_disabled": 0, "fusion_lat": 0.0, "lon": -77.0460315}, {"is_reserved": 0, "rental_uris": {"ios": "https://dc.lft.to/lastmile_qr_scan", "android": "https://dc.lft.to/lastmile_qr_scan"}, "name": "9d3919cbd40a1c1f4d851cc26272a1d8", "bike_id": "9d3919cbd40a1c1f4d851cc26272a1d8", "type": "electric_bike", "lat": 38.837194333333336, "fusion_lon": 0.0, "is_disabled": 0, "fusion_lat": 0.0, "lon": -76.997665}, {"is_reserved": 0, "rental_uris": {"ios": "https://dc.lft.to/lastmile_qr_scan", "android": "https://dc.lft.to/lastmile_qr_scan"}, "name": "2e35602497bab033cbb3eddb13b10f04", "bike_id": "2e35602497bab033cbb3eddb13b10f04", "type": "electric_scooter", "lat": 38.892399, "fusion_lon": 0.0, "is_disabled": 0, "fusion_lat": 0.0, "lon": -77.048768}, {"is_reserved": 0, "rental_uris": {"ios": "https://dc.lft.to/lastmile_qr_scan", "android": "https://dc.lft.to/lastmile_qr_scan"}, "name": "21ee49eac4210794532dfc1cb48d6069", "bike_id": "21ee49eac4210794532dfc1cb48d6069", "type": "electric_scooter", "lat": 38.903772333333336, "fusion_lon": 0.0, "is_disabled": 0, "fusion_lat": 0.0, "lon": -77.0417785}, {"is_reserved": 0, "rental_uris": {"ios": "https://dc.lft.to/lastmile_qr_scan", "android": "https://dc.lft.to/lastmile_qr_scan"}, "name": "e81ee4780e6c212aff61d62443cded99", "bike_id": "e81ee4780e6c212aff61d62443cded99", "type": "electric_scooter", "lat": 38.9223735, "fusion_lon": 0.0, "is_disabled": 0, "fusion_lat": 0.0, "lon": -77.02984166666667}, {"is_reserved": 0, "rental_uris": {"ios": "https://dc.lft.to/lastmile_qr_scan", "android": "https://dc.lft.to/lastmile_qr_scan"}, "name": "ebaec2667444f879fbb6bb007a4a9cd5", "bike_id": "ebaec2667444f879fbb6bb007a4a9cd5", "type": "electric_scooter", "lat": 38.898390666666664, "fusion_lon": 0.0, "is_disabled": 0, "fusion_lat": 0.0, "lon": -76.93104933333333}, {"is_reserved": 0, "rental_uris": {"ios": "https://dc.lft.to/lastmile_qr_scan", "android": "https://dc.lft.to/lastmile_qr_scan"}, "name": "f18bd8a5fe9ff6eba012f0fdc1f50df8", "bike_id": "f18bd8a5fe9ff6eba012f0fdc1f50df8", "type": "electric_bike", "lat": 38.966064833333334, "fusion_lon": 0.0, "is_disabled": 0, "fusion_lat": 0.0, "lon": -76.98330783333333}, {"is_reserved": 0, "rental_uris": {"ios": "https://dc.lft.to/lastmile_qr_scan", "android": "https://dc.lft.to/lastmile_qr_scan"}, "name": "8533b8af7d830b5029c05fc91968b54c", "bike_id": "8533b8af7d830b5029c05fc91968b54c", "type": "electric_scooter", "lat": 38.937358, "fusion_lon": 0.0, "is_disabled": 0, "fusion_lat": 0.0, "lon": -77.032657}, {"is_reserved": 0, "rental_uris": {"ios": "https://dc.lft.to/lastmile_qr_scan", "android": "https://dc.lft.to/lastmile_qr_scan"}, "name": "3173862136c3d42f79a2ff4ef99ccee9", "bike_id": "3173862136c3d42f79a2ff4ef99ccee9", "type": "electric_scooter", "lat": 38.93827183333333, "fusion_lon": 0.0, "is_disabled": 0, "fusion_lat": 0.0, "lon": -77.0617545}, {"is_reserved": 0, "rental_uris": {"ios": "https://dc.lft.to/lastmile_qr_scan", "android": "https://dc.lft.to/lastmile_qr_scan"}, "name": "feff196a9fb875af441d7ce6bf940ad0", "bike_id": "feff196a9fb875af441d7ce6bf940ad0", "type": "electric_scooter", "lat": 38.900586833333335, "fusion_lon": 0.0, "is_disabled": 0, "fusion_lat": 0.0, "lon": -77.04588533333333}, {"is_reserved": 0, "rental_uris": {"ios": "https://dc.lft.to/lastmile_qr_scan", "android": "https://dc.lft.to/lastmile_qr_scan"}, "name": "298f8c1bebb1176070d283bd459de11b", "bike_id": "298f8c1bebb1176070d283bd459de11b", "type": "electric_scooter", "lat": 38.922501, "fusion_lon": 0.0, "is_disabled": 0, "fusion_lat": 0.0, "lon": -77.01951066666666}, {"is_reserved": 0, "rental_uris": {"ios": "https://dc.lft.to/lastmile_qr_scan", "android": "https://dc.lft.to/lastmile_qr_scan"}, "name": "1820c3f6b0390b037ef5118e3e046562", "bike_id": "1820c3f6b0390b037ef5118e3e046562", "type": "electric_scooter", "lat": 38.89935933333334, "fusion_lon": 0.0, "is_disabled": 0, "fusion_lat": 0.0, "lon": -77.00345766666666}, {"is_reserved": 0, "rental_uris": {"ios": "https://dc.lft.to/lastmile_qr_scan", "android": "https://dc.lft.to/lastmile_qr_scan"}, "name": "d40fe1ae0a3624c6d452d39fbc281f1f", "bike_id": "d40fe1ae0a3624c6d452d39fbc281f1f", "type": "electric_scooter", "lat": 38.905334833333335, "fusion_lon": 0.0, "is_disabled": 0, "fusion_lat": 0.0, "lon": -77.06779233333333}, {"is_reserved": 0, "rental_uris": {"ios": "https://dc.lft.to/lastmile_qr_scan", "android": "https://dc.lft.to/lastmile_qr_scan"}, "name": "8cf345bd3010cf4b77b1c26873adc7a4", "bike_id": "8cf345bd3010cf4b77b1c26873adc7a4", "type": "electric_bike", "lat": 38.891892666666664, "fusion_lon": 0.0, "is_disabled": 0, "fusion_lat": 0.0, "lon": -77.12265616666667}, {"is_reserved": 0, "rental_uris": {"ios": "https://dc.lft.to/lastmile_qr_scan", "android": "https://dc.lft.to/lastmile_qr_scan"}, "name": "4411420101bfd661a2e7063aa4d929da", "bike_id": "4411420101bfd661a2e7063aa4d929da", "type": "electric_scooter", "lat": 38.8936695, "fusion_lon": 0.0, "is_disabled": 0, "fusion_lat": 0.0, "lon": -77.047973}, {"is_reserved": 0, "rental_uris": {"ios": "https://dc.lft.to/lastmile_qr_scan", "android": "https://dc.lft.to/lastmile_qr_scan"}, "name": "53d25bbbe654f3a9d081493a95217c7a", "bike_id": "53d25bbbe654f3a9d081493a95217c7a", "type": "electric_scooter", "lat": 38.858080333333334, "fusion_lon": 0.0, "is_disabled": 0, "fusion_lat": 0.0, "lon": -76.98655616666667}, {"is_reserved": 0, "rental_uris": {"ios": "https://dc.lft.to/lastmile_qr_scan", "android": "https://dc.lft.to/lastmile_qr_scan"}, "name": "86d47815d890bfb353e54e27c8631a73", "bike_id": "86d47815d890bfb353e54e27c8631a73", "type": "electric_scooter", "lat": 38.907814333333334, "fusion_lon": 0.0, "is_disabled": 0, "fusion_lat": 0.0, "lon": -77.03825833333333}, {"is_reserved": 0, "rental_uris": {"ios": "https://dc.lft.to/lastmile_qr_scan", "android": "https://dc.lft.to/lastmile_qr_scan"}, "name": "728c27fa3f201aa468933b95db436181", "bike_id": "728c27fa3f201aa468933b95db436181", "type": "electric_scooter", "lat": 38.91001166666667, "fusion_lon": 0.0, "is_disabled": 0, "fusion_lat": 0.0, "lon": -77.03449283333333}, {"is_reserved": 0, "rental_uris": {"ios": "https://dc.lft.to/lastmile_qr_scan", "android": "https://dc.lft.to/lastmile_qr_scan"}, "name": "d8f26b9b003e4c94db30c71b9c5ed3bb", "bike_id": "d8f26b9b003e4c94db30c71b9c5ed3bb", "type": "electric_scooter", "lat": 38.907238166666666, "fusion_lon": 0.0, "is_disabled": 0, "fusion_lat": 0.0, "lon": -77.023276}, {"is_reserved": 0, "rental_uris": {"ios": "https://dc.lft.to/lastmile_qr_scan", "android": "https://dc.lft.to/lastmile_qr_scan"}, "name": "aae8161116519f425eeb7205ffe443ec", "bike_id": "aae8161116519f425eeb7205ffe443ec", "type": "electric_scooter", "lat": 38.9308485, "fusion_lon": 0.0, "is_disabled": 0, "fusion_lat": 0.0, "lon": -77.0279015}, {"is_reserved": 0, "rental_uris": {"ios": "https://dc.lft.to/lastmile_qr_scan", "android": "https://dc.lft.to/lastmile_qr_scan"}, "name": "9288e30dfe0414d8d343e0e70aca6312", "bike_id": "9288e30dfe0414d8d343e0e70aca6312", "type": "electric_scooter", "lat": 38.9003305, "fusion_lon": 0.0, "is_disabled": 0, "fusion_lat": 0.0, "lon": -77.00574983333334}, {"is_reserved": 0, "rental_uris": {"ios": "https://dc.lft.to/lastmile_qr_scan", "android": "https://dc.lft.to/lastmile_qr_scan"}, "name": "a93953f96f6ff1ae8d9f5469ced1f2ed", "bike_id": "a93953f96f6ff1ae8d9f5469ced1f2ed", "type": "electric_bike", "lat": 38.92465166666667, "fusion_lon": 0.0, "is_disabled": 0, "fusion_lat": 0.0, "lon": -77.208354}, {"is_reserved": 0, "rental_uris": {"ios": "https://dc.lft.to/lastmile_qr_scan", "android": "https://dc.lft.to/lastmile_qr_scan"}, "name": "9265b39d3ef4e78f22f7fca9fe62ee90", "bike_id": "9265b39d3ef4e78f22f7fca9fe62ee90", "type": "electric_scooter", "lat": 38.963944166666664, "fusion_lon": 0.0, "is_disabled": 0, "fusion_lat": 0.0, "lon": -77.02589016666667}, {"is_reserved": 0, "rental_uris": {"ios": "https://dc.lft.to/lastmile_qr_scan", "android": "https://dc.lft.to/lastmile_qr_scan"}, "name": "5a6a79bc9ec2d92ba0320b93cec77eb4", "bike_id": "5a6a79bc9ec2d92ba0320b93cec77eb4", "type": "electric_scooter", "lat": 38.95184233333333, "fusion_lon": 0.0, "is_disabled": 0, "fusion_lat": 0.0, "lon": -77.02613316666667}, {"is_reserved": 0, "rental_uris": {"ios": "https://dc.lft.to/lastmile_qr_scan", "android": "https://dc.lft.to/lastmile_qr_scan"}, "name": "79ea1e5e0c67effd569902588928220e", "bike_id": "79ea1e5e0c67effd569902588928220e", "type": "electric_scooter", "lat": 38.92356, "fusion_lon": 0.0, "is_disabled": 0, "fusion_lat": 0.0, "lon": -77.04143083333334}, {"is_reserved": 0, "rental_uris": {"ios": "https://dc.lft.to/lastmile_qr_scan", "android": "https://dc.lft.to/lastmile_qr_scan"}, "name": "d7afc5ffc820e35f3123bac290822e9d", "bike_id": "d7afc5ffc820e35f3123bac290822e9d", "type": "electric_scooter", "lat": 38.890549666666665, "fusion_lon": 0.0, "is_disabled": 0, "fusion_lat": 0.0, "lon": -76.94341416666667}, {"is_reserved": 0, "rental_uris": {"ios": "https://dc.lft.to/lastmile_qr_scan", "android": "https://dc.lft.to/lastmile_qr_scan"}, "name": "3fe6620c0c0356a6fe57b12429717e7d", "bike_id": "3fe6620c0c0356a6fe57b12429717e7d", "type": "electric_scooter", "lat": 38.903340666666665, "fusion_lon": 0.0, "is_disabled": 0, "fusion_lat": 0.0, "lon": -77.0260465}, {"is_reserved": 0, "rental_uris": {"ios": "https://dc.lft.to/lastmile_qr_scan", "android": "https://dc.lft.to/lastmile_qr_scan"}, "name": "6363298850696ce414bc4373cdae146c", "bike_id": "6363298850696ce414bc4373cdae146c", "type": "electric_scooter", "lat": 38.915247666666666, "fusion_lon": 0.0, "is_disabled": 0, "fusion_lat": 0.0, "lon": -77.01999216666667}, {"is_reserved": 0, "rental_uris": {"ios": "https://dc.lft.to/lastmile_qr_scan", "android": "https://dc.lft.to/lastmile_qr_scan"}, "name": "68de0a5d834480ffa256d21ba2144544", "bike_id": "68de0a5d834480ffa256d21ba2144544", "type": "electric_scooter", "lat": 38.884842166666665, "fusion_lon": 0.0, "is_disabled": 0, "fusion_lat": 0.0, "lon": -76.945267}, {"is_reserved": 0, "rental_uris": {"ios": "https://dc.lft.to/lastmile_qr_scan", "android": "https://dc.lft.to/lastmile_qr_scan"}, "name": "a9fe671d31c6b495eb7f902d2c1eb6d8", "bike_id": "a9fe671d31c6b495eb7f902d2c1eb6d8", "type": "electric_scooter", "lat": 38.92468383333333, "fusion_lon": 0.0, "is_disabled": 0, "fusion_lat": 0.0, "lon": -77.05760316666667}, {"is_reserved": 0, "rental_uris": {"ios": "https://dc.lft.to/lastmile_qr_scan", "android": "https://dc.lft.to/lastmile_qr_scan"}, "name": "fbfa4fed8f7a413ceaa73cd35b187790", "bike_id": "fbfa4fed8f7a413ceaa73cd35b187790", "type": "electric_scooter", "lat": 38.90018466666667, "fusion_lon": 0.0, "is_disabled": 0, "fusion_lat": 0.0, "lon": -77.002297}, {"is_reserved": 0, "rental_uris": {"ios": "https://dc.lft.to/lastmile_qr_scan", "android": "https://dc.lft.to/lastmile_qr_scan"}, "name": "20b2856f75a26083cfb041ea526d13c2", "bike_id": "20b2856f75a26083cfb041ea526d13c2", "type": "electric_scooter", "lat": 38.90875416666667, "fusion_lon": 0.0, "is_disabled": 0, "fusion_lat": 0.0, "lon": -76.99783666666667}, {"is_reserved": 0, "rental_uris": {"ios": "https://dc.lft.to/lastmile_qr_scan", "android": "https://dc.lft.to/lastmile_qr_scan"}, "name": "4670dbf61c1bfba4b228ee6bf7af4e7b", "bike_id": "4670dbf61c1bfba4b228ee6bf7af4e7b", "type": "electric_scooter", "lat": 38.9210975, "fusion_lon": 0.0, "is_disabled": 0, "fusion_lat": 0.0, "lon": -77.04206666666667}, {"is_reserved": 0, "rental_uris": {"ios": "https://dc.lft.to/lastmile_qr_scan", "android": "https://dc.lft.to/lastmile_qr_scan"}, "name": "4d4dc784c3d57d3085c3bb85c473c9a8", "bike_id": "4d4dc784c3d57d3085c3bb85c473c9a8", "type": "electric_scooter", "lat": 38.93632483333333, "fusion_lon": 0.0, "is_disabled": 0, "fusion_lat": 0.0, "lon": -77.05882616666666}, {"is_reserved": 0, "rental_uris": {"ios": "https://dc.lft.to/lastmile_qr_scan", "android": "https://dc.lft.to/lastmile_qr_scan"}, "name": "5c5f0f01bf919b1150a4855bd1a59fba", "bike_id": "5c5f0f01bf919b1150a4855bd1a59fba", "type": "electric_scooter", "lat": 38.924708833333334, "fusion_lon": 0.0, "is_disabled": 0, "fusion_lat": 0.0, "lon": -77.033798}, {"is_reserved": 0, "rental_uris": {"ios": "https://dc.lft.to/lastmile_qr_scan", "android": "https://dc.lft.to/lastmile_qr_scan"}, "name": "955c002132e4771692eb21b13e68e470", "bike_id": "955c002132e4771692eb21b13e68e470", "type": "electric_scooter", "lat": 38.89600316666667, "fusion_lon": 0.0, "is_disabled": 0, "fusion_lat": 0.0, "lon": -76.9552435}, {"is_reserved": 0, "rental_uris": {"ios": "https://dc.lft.to/lastmile_qr_scan", "android": "https://dc.lft.to/lastmile_qr_scan"}, "name": "c7b5c7f411e94ed17031d7372cdf68fc", "bike_id": "c7b5c7f411e94ed17031d7372cdf68fc", "type": "electric_scooter", "lat": 38.90014133333333, "fusion_lon": 0.0, "is_disabled": 0, "fusion_lat": 0.0, "lon": -77.01194433333333}, {"is_reserved": 0, "rental_uris": {"ios": "https://dc.lft.to/lastmile_qr_scan", "android": "https://dc.lft.to/lastmile_qr_scan"}, "name": "b72416da832027ed221aae1e1ad1e0f5", "bike_id": "b72416da832027ed221aae1e1ad1e0f5", "type": "electric_scooter", "lat": 38.8901315, "fusion_lon": 0.0, "is_disabled": 0, "fusion_lat": 0.0, "lon": -76.9374405}, {"is_reserved": 0, "rental_uris": {"ios": "https://dc.lft.to/lastmile_qr_scan", "android": "https://dc.lft.to/lastmile_qr_scan"}, "name": "e3a423a9dfcd87b226abfbd7457c4c39", "bike_id": "e3a423a9dfcd87b226abfbd7457c4c39", "type": "electric_scooter", "lat": 38.922322333333334, "fusion_lon": 0.0, "is_disabled": 0, "fusion_lat": 0.0, "lon": -77.04136216666667}, {"is_reserved": 0, "rental_uris": {"ios": "https://dc.lft.to/lastmile_qr_scan", "android": "https://dc.lft.to/lastmile_qr_scan"}, "name": "7e64bcbf52ed86e7f6c7c3ff8316176d", "bike_id": "7e64bcbf52ed86e7f6c7c3ff8316176d", "type": "electric_scooter", "lat": 38.89723766666667, "fusion_lon": 0.0, "is_disabled": 0, "fusion_lat": 0.0, "lon": -77.04703116666667}, {"is_reserved": 0, "rental_uris": {"ios": "https://dc.lft.to/lastmile_qr_scan", "android": "https://dc.lft.to/lastmile_qr_scan"}, "name": "8524abde34cdcaa32af5147eeb56a92e", "bike_id": "8524abde34cdcaa32af5147eeb56a92e", "type": "electric_scooter", "lat": 38.92114933333333, "fusion_lon": 0.0, "is_disabled": 0, "fusion_lat": 0.0, "lon": -77.042045}, {"is_reserved": 0, "rental_uris": {"ios": "https://dc.lft.to/lastmile_qr_scan", "android": "https://dc.lft.to/lastmile_qr_scan"}, "name": "87278991f4c391dfcaab96ac95f6edfc", "bike_id": "87278991f4c391dfcaab96ac95f6edfc", "type": "electric_scooter", "lat": 38.9266305, "fusion_lon": 0.0, "is_disabled": 0, "fusion_lat": 0.0, "lon": -77.05360683333333}, {"is_reserved": 0, "rental_uris": {"ios": "https://dc.lft.to/lastmile_qr_scan", "android": "https://dc.lft.to/lastmile_qr_scan"}, "name": "99674c66a56287a9c6a75133e7c924d6", "bike_id": "99674c66a56287a9c6a75133e7c924d6", "type": "electric_scooter", "lat": 38.8922425, "fusion_lon": 0.0, "is_disabled": 0, "fusion_lat": 0.0, "lon": -77.0485915}, {"is_reserved": 0, "rental_uris": {"ios": "https://dc.lft.to/lastmile_qr_scan", "android": "https://dc.lft.to/lastmile_qr_scan"}, "name": "3c332b04aca8c8a577d3b76b0f63ccab", "bike_id": "3c332b04aca8c8a577d3b76b0f63ccab", "type": "electric_scooter", "lat": 38.887665, "fusion_lon": 0.0, "is_disabled": 0, "fusion_lat": 0.0, "lon": -76.9559935}, {"is_reserved": 0, "rental_uris": {"ios": "https://dc.lft.to/lastmile_qr_scan", "android": "https://dc.lft.to/lastmile_qr_scan"}, "name": "2fc468f83ea519e6f87dd1c323744d49", "bike_id": "2fc468f83ea519e6f87dd1c323744d49", "type": "electric_scooter", "lat": 38.909270666666664, "fusion_lon": 0.0, "is_disabled": 0, "fusion_lat": 0.0, "lon": -77.03191333333334}, {"is_reserved": 0, "rental_uris": {"ios": "https://dc.lft.to/lastmile_qr_scan", "android": "https://dc.lft.to/lastmile_qr_scan"}, "name": "0835e07bd91b2f4fc596bb3fd75b5fb7", "bike_id": "0835e07bd91b2f4fc596bb3fd75b5fb7", "type": "electric_scooter", "lat": 38.924688833333335, "fusion_lon": 0.0, "is_disabled": 0, "fusion_lat": 0.0, "lon": -77.03659183333333}, {"is_reserved": 0, "rental_uris": {"ios": "https://dc.lft.to/lastmile_qr_scan", "android": "https://dc.lft.to/lastmile_qr_scan"}, "name": "4d35fa58ae374a4dc9c8b73acbf1aaac", "bike_id": "4d35fa58ae374a4dc9c8b73acbf1aaac", "type": "electric_scooter", "lat": 38.88707816666667, "fusion_lon": 0.0, "is_disabled": 0, "fusion_lat": 0.0, "lon": -77.0316515}, {"is_reserved": 0, "rental_uris": {"ios": "https://dc.lft.to/lastmile_qr_scan", "android": "https://dc.lft.to/lastmile_qr_scan"}, "name": "06a35e5a14aaf638cb74f0a15a4502ca", "bike_id": "06a35e5a14aaf638cb74f0a15a4502ca", "type": "electric_scooter", "lat": 38.916857666666665, "fusion_lon": 0.0, "is_disabled": 0, "fusion_lat": 0.0, "lon": -77.03123483333333}, {"is_reserved": 0, "rental_uris": {"ios": "https://dc.lft.to/lastmile_qr_scan", "android": "https://dc.lft.to/lastmile_qr_scan"}, "name": "1671c3cd0b70a7b73978ceb5f344578d", "bike_id": "1671c3cd0b70a7b73978ceb5f344578d", "type": "electric_scooter", "lat": 38.92148516666666, "fusion_lon": 0.0, "is_disabled": 0, "fusion_lat": 0.0, "lon": -76.96921166666667}, {"is_reserved": 0, "rental_uris": {"ios": "https://dc.lft.to/lastmile_qr_scan", "android": "https://dc.lft.to/lastmile_qr_scan"}, "name": "152d9352fcfbfea8a480f1d059576b38", "bike_id": "152d9352fcfbfea8a480f1d059576b38", "type": "electric_bike", "lat": 38.86168116666666, "fusion_lon": 0.0, "is_disabled": 0, "fusion_lat": 0.0, "lon": -76.950666}, {"is_reserved": 0, "rental_uris": {"ios": "https://dc.lft.to/lastmile_qr_scan", "android": "https://dc.lft.to/lastmile_qr_scan"}, "name": "b819f12c61305b0f3e91aa910cdd0117", "bike_id": "b819f12c61305b0f3e91aa910cdd0117", "type": "electric_scooter", "lat": 38.9284435, "fusion_lon": 0.0, "is_disabled": 0, "fusion_lat": 0.0, "lon": -77.05440816666666}, {"is_reserved": 0, "rental_uris": {"ios": "https://dc.lft.to/lastmile_qr_scan", "android": "https://dc.lft.to/lastmile_qr_scan"}, "name": "f74cf64e5a093bd5cb12e41d409fdf6d", "bike_id": "f74cf64e5a093bd5cb12e41d409fdf6d", "type": "electric_scooter", "lat": 38.92341283333333, "fusion_lon": 0.0, "is_disabled": 0, "fusion_lat": 0.0, "lon": -77.05675266666667}, {"is_reserved": 0, "rental_uris": {"ios": "https://dc.lft.to/lastmile_qr_scan", "android": "https://dc.lft.to/lastmile_qr_scan"}, "name": "5f045e75744dc17e50d52ba49c7fa89d", "bike_id": "5f045e75744dc17e50d52ba49c7fa89d", "type": "electric_scooter", "lat": 38.89194916666667, "fusion_lon": 0.0, "is_disabled": 0, "fusion_lat": 0.0, "lon": -77.02454}, {"is_reserved": 0, "rental_uris": {"ios": "https://dc.lft.to/lastmile_qr_scan", "android": "https://dc.lft.to/lastmile_qr_scan"}, "name": "1275685ef62606cdaaf02e59aa40e527", "bike_id": "1275685ef62606cdaaf02e59aa40e527", "type": "electric_scooter", "lat": 38.92443033333333, "fusion_lon": 0.0, "is_disabled": 0, "fusion_lat": 0.0, "lon": -77.041101}, {"is_reserved": 0, "rental_uris": {"ios": "https://dc.lft.to/lastmile_qr_scan", "android": "https://dc.lft.to/lastmile_qr_scan"}, "name": "915c2bf5532e9ab58140bdec3fb025a7", "bike_id": "915c2bf5532e9ab58140bdec3fb025a7", "type": "electric_scooter", "lat": 38.92871916666667, "fusion_lon": 0.0, "is_disabled": 0, "fusion_lat": 0.0, "lon": -77.032785}, {"is_reserved": 0, "rental_uris": {"ios": "https://dc.lft.to/lastmile_qr_scan", "android": "https://dc.lft.to/lastmile_qr_scan"}, "name": "62873c7f106aa746dfd4fa2e202c660a", "bike_id": "62873c7f106aa746dfd4fa2e202c660a", "type": "electric_scooter", "lat": 38.911951, "fusion_lon": 0.0, "is_disabled": 0, "fusion_lat": 0.0, "lon": -77.06092066666666}, {"is_reserved": 0, "rental_uris": {"ios": "https://dc.lft.to/lastmile_qr_scan", "android": "https://dc.lft.to/lastmile_qr_scan"}, "name": "e3734aa8b283c62cdc60b0ac397eb0eb", "bike_id": "e3734aa8b283c62cdc60b0ac397eb0eb", "type": "electric_scooter", "lat": 38.894663333333334, "fusion_lon": 0.0, "is_disabled": 0, "fusion_lat": 0.0, "lon": -77.02181716666666}, {"is_reserved": 0, "rental_uris": {"ios": "https://dc.lft.to/lastmile_qr_scan", "android": "https://dc.lft.to/lastmile_qr_scan"}, "name": "c53a360744abffd86c673912f5b1e996", "bike_id": "c53a360744abffd86c673912f5b1e996", "type": "electric_scooter", "lat": 38.9031955, "fusion_lon": 0.0, "is_disabled": 0, "fusion_lat": 0.0, "lon": -77.03805933333334}, {"is_reserved": 0, "rental_uris": {"ios": "https://dc.lft.to/lastmile_qr_scan", "android": "https://dc.lft.to/lastmile_qr_scan"}, "name": "55ad3e261f0a41b5a3953dd38542da3d", "bike_id": "55ad3e261f0a41b5a3953dd38542da3d", "type": "electric_scooter", "lat": 38.9154645, "fusion_lon": 0.0, "is_disabled": 0, "fusion_lat": 0.0, "lon": -77.03842716666666}, {"is_reserved": 0, "rental_uris": {"ios": "https://dc.lft.to/lastmile_qr_scan", "android": "https://dc.lft.to/lastmile_qr_scan"}, "name": "00f80551a768eba52e265e0b9d729921", "bike_id": "00f80551a768eba52e265e0b9d729921", "type": "electric_scooter", "lat": 38.906146666666665, "fusion_lon": 0.0, "is_disabled": 0, "fusion_lat": 0.0, "lon": -77.01881566666667}, {"is_reserved": 0, "rental_uris": {"ios": "https://dc.lft.to/lastmile_qr_scan", "android": "https://dc.lft.to/lastmile_qr_scan"}, "name": "c854a037fab34590a1df2131a8a32240", "bike_id": "c854a037fab34590a1df2131a8a32240", "type": "electric_scooter", "lat": 38.898304333333336, "fusion_lon": 0.0, "is_disabled": 0, "fusion_lat": 0.0, "lon": -77.022358}, {"is_reserved": 0, "rental_uris": {"ios": "https://dc.lft.to/lastmile_qr_scan", "android": "https://dc.lft.to/lastmile_qr_scan"}, "name": "76404514503604b53c5cf3c9e969650f", "bike_id": "76404514503604b53c5cf3c9e969650f", "type": "electric_scooter", "lat": 38.860490666666664, "fusion_lon": 0.0, "is_disabled": 0, "fusion_lat": 0.0, "lon": -77.0572865}, {"is_reserved": 0, "rental_uris": {"ios": "https://dc.lft.to/lastmile_qr_scan", "android": "https://dc.lft.to/lastmile_qr_scan"}, "name": "20db0775772c6eac5cfa1a024c5730cd", "bike_id": "20db0775772c6eac5cfa1a024c5730cd", "type": "electric_scooter", "lat": 38.905304666666666, "fusion_lon": 0.0, "is_disabled": 0, "fusion_lat": 0.0, "lon": -77.0476975}, {"is_reserved": 0, "rental_uris": {"ios": "https://dc.lft.to/lastmile_qr_scan", "android": "https://dc.lft.to/lastmile_qr_scan"}, "name": "efe4c757ddfa5d27d98ed509fb9aa5f4", "bike_id": "efe4c757ddfa5d27d98ed509fb9aa5f4", "type": "electric_scooter", "lat": 38.9228495, "fusion_lon": 0.0, "is_disabled": 0, "fusion_lat": 0.0, "lon": -77.03662883333334}, {"is_reserved": 0, "rental_uris": {"ios": "https://dc.lft.to/lastmile_qr_scan", "android": "https://dc.lft.to/lastmile_qr_scan"}, "name": "c2045f3022d05c9742e49a08c27d143d", "bike_id": "c2045f3022d05c9742e49a08c27d143d", "type": "electric_scooter", "lat": 38.92715483333333, "fusion_lon": 0.0, "is_disabled": 0, "fusion_lat": 0.0, "lon": -77.03636483333334}, {"is_reserved": 0, "rental_uris": {"ios": "https://dc.lft.to/lastmile_qr_scan", "android": "https://dc.lft.to/lastmile_qr_scan"}, "name": "08673611ef704ed1885e634222aec8d2", "bike_id": "08673611ef704ed1885e634222aec8d2", "type": "electric_scooter", "lat": 38.91867216666667, "fusion_lon": 0.0, "is_disabled": 0, "fusion_lat": 0.0, "lon": -77.04253333333334}, {"is_reserved": 0, "rental_uris": {"ios": "https://dc.lft.to/lastmile_qr_scan", "android": "https://dc.lft.to/lastmile_qr_scan"}, "name": "1ff742550d48da8ba1af9034298eedb4", "bike_id": "1ff742550d48da8ba1af9034298eedb4", "type": "electric_scooter", "lat": 38.91280116666667, "fusion_lon": 0.0, "is_disabled": 0, "fusion_lat": 0.0, "lon": -77.04508766666666}, {"is_reserved": 0, "rental_uris": {"ios": "https://dc.lft.to/lastmile_qr_scan", "android": "https://dc.lft.to/lastmile_qr_scan"}, "name": "dc29c9563a8a0e2e47ae358694bf83d1", "bike_id": "dc29c9563a8a0e2e47ae358694bf83d1", "type": "electric_scooter", "lat": 38.9203905, "fusion_lon": 0.0, "is_disabled": 0, "fusion_lat": 0.0, "lon": -76.97901916666666}, {"is_reserved": 0, "rental_uris": {"ios": "https://dc.lft.to/lastmile_qr_scan", "android": "https://dc.lft.to/lastmile_qr_scan"}, "name": "b113d19779d1df39cd30ab16c52c41e4", "bike_id": "b113d19779d1df39cd30ab16c52c41e4", "type": "electric_scooter", "lat": 38.90616383333333, "fusion_lon": 0.0, "is_disabled": 0, "fusion_lat": 0.0, "lon": -77.039571}, {"is_reserved": 0, "rental_uris": {"ios": "https://dc.lft.to/lastmile_qr_scan", "android": "https://dc.lft.to/lastmile_qr_scan"}, "name": "520e622a57058392249683444cc561f1", "bike_id": "520e622a57058392249683444cc561f1", "type": "electric_scooter", "lat": 38.91764633333333, "fusion_lon": 0.0, "is_disabled": 0, "fusion_lat": 0.0, "lon": -77.03648166666666}, {"is_reserved": 0, "rental_uris": {"ios": "https://dc.lft.to/lastmile_qr_scan", "android": "https://dc.lft.to/lastmile_qr_scan"}, "name": "3b0fc03a09cd29418d5d3f6eb897b25c", "bike_id": "3b0fc03a09cd29418d5d3f6eb897b25c", "type": "electric_scooter", "lat": 38.89930283333333, "fusion_lon": 0.0, "is_disabled": 0, "fusion_lat": 0.0, "lon": -77.05415333333333}, {"is_reserved": 0, "rental_uris": {"ios": "https://dc.lft.to/lastmile_qr_scan", "android": "https://dc.lft.to/lastmile_qr_scan"}, "name": "5e867423b3263c6c1635cb72d30287e0", "bike_id": "5e867423b3263c6c1635cb72d30287e0", "type": "electric_scooter", "lat": 38.9042245, "fusion_lon": 0.0, "is_disabled": 0, "fusion_lat": 0.0, "lon": -77.04501616666667}, {"is_reserved": 0, "rental_uris": {"ios": "https://dc.lft.to/lastmile_qr_scan", "android": "https://dc.lft.to/lastmile_qr_scan"}, "name": "1e778cb7299ee0f0e9559a2e9ddc19d7", "bike_id": "1e778cb7299ee0f0e9559a2e9ddc19d7", "type": "electric_scooter", "lat": 38.87486883333333, "fusion_lon": 0.0, "is_disabled": 0, "fusion_lat": 0.0, "lon": -77.00175883333333}, {"is_reserved": 0, "rental_uris": {"ios": "https://dc.lft.to/lastmile_qr_scan", "android": "https://dc.lft.to/lastmile_qr_scan"}, "name": "c7d66a6f25554a02f5d9ffeec038c035", "bike_id": "c7d66a6f25554a02f5d9ffeec038c035", "type": "electric_scooter", "lat": 38.918813, "fusion_lon": 0.0, "is_disabled": 0, "fusion_lat": 0.0, "lon": -76.97147683333333}, {"is_reserved": 0, "rental_uris": {"ios": "https://dc.lft.to/lastmile_qr_scan", "android": "https://dc.lft.to/lastmile_qr_scan"}, "name": "59946649ec0a9bd64aa5768bddc53451", "bike_id": "59946649ec0a9bd64aa5768bddc53451", "type": "electric_scooter", "lat": 38.887055833333335, "fusion_lon": 0.0, "is_disabled": 0, "fusion_lat": 0.0, "lon": -77.03190716666667}, {"is_reserved": 0, "rental_uris": {"ios": "https://dc.lft.to/lastmile_qr_scan", "android": "https://dc.lft.to/lastmile_qr_scan"}, "name": "20dbaf0df06b41c41e04da74ad193a09", "bike_id": "20dbaf0df06b41c41e04da74ad193a09", "type": "electric_scooter", "lat": 38.93083, "fusion_lon": 0.0, "is_disabled": 0, "fusion_lat": 0.0, "lon": -77.02792683333334}, {"is_reserved": 0, "rental_uris": {"ios": "https://dc.lft.to/lastmile_qr_scan", "android": "https://dc.lft.to/lastmile_qr_scan"}, "name": "8a98513fdb7c6a3be3e900a0378e2e4b", "bike_id": "8a98513fdb7c6a3be3e900a0378e2e4b", "type": "electric_scooter", "lat": 38.933374666666666, "fusion_lon": 0.0, "is_disabled": 0, "fusion_lat": 0.0, "lon": -76.9949695}, {"is_reserved": 0, "rental_uris": {"ios": "https://dc.lft.to/lastmile_qr_scan", "android": "https://dc.lft.to/lastmile_qr_scan"}, "name": "88c5e6d4df17a8ab18fe8230b561698d", "bike_id": "88c5e6d4df17a8ab18fe8230b561698d", "type": "electric_scooter", "lat": 38.8962755, "fusion_lon": 0.0, "is_disabled": 0, "fusion_lat": 0.0, "lon": -77.03289016666666}, {"is_reserved": 0, "rental_uris": {"ios": "https://dc.lft.to/lastmile_qr_scan", "android": "https://dc.lft.to/lastmile_qr_scan"}, "name": "6a16829e3db709dc209e50c0c973cf39", "bike_id": "6a16829e3db709dc209e50c0c973cf39", "type": "electric_scooter", "lat": 38.912566, "fusion_lon": 0.0, "is_disabled": 0, "fusion_lat": 0.0, "lon": -77.04467083333333}, {"is_reserved": 0, "rental_uris": {"ios": "https://dc.lft.to/lastmile_qr_scan", "android": "https://dc.lft.to/lastmile_qr_scan"}, "name": "f9c3cdb71db226d82924d0bfcfc3680c", "bike_id": "f9c3cdb71db226d82924d0bfcfc3680c", "type": "electric_scooter", "lat": 38.908568333333335, "fusion_lon": 0.0, "is_disabled": 0, "fusion_lat": 0.0, "lon": -77.02453233333334}, {"is_reserved": 0, "rental_uris": {"ios": "https://dc.lft.to/lastmile_qr_scan", "android": "https://dc.lft.to/lastmile_qr_scan"}, "name": "a057685d85b528541cb1aa98e434d97c", "bike_id": "a057685d85b528541cb1aa98e434d97c", "type": "electric_scooter", "lat": 38.94329483333333, "fusion_lon": 0.0, "is_disabled": 0, "fusion_lat": 0.0, "lon": -77.073882}, {"is_reserved": 0, "rental_uris": {"ios": "https://dc.lft.to/lastmile_qr_scan", "android": "https://dc.lft.to/lastmile_qr_scan"}, "name": "9e5590e7da05ca9e711a1341fbc3a011", "bike_id": "9e5590e7da05ca9e711a1341fbc3a011", "type": "electric_scooter", "lat": 38.8636475, "fusion_lon": 0.0, "is_disabled": 0, "fusion_lat": 0.0, "lon": -76.99039683333334}, {"is_reserved": 0, "rental_uris": {"ios": "https://dc.lft.to/lastmile_qr_scan", "android": "https://dc.lft.to/lastmile_qr_scan"}, "name": "474c306daef329880d107603826980bf", "bike_id": "474c306daef329880d107603826980bf", "type": "electric_scooter", "lat": 38.88721283333334, "fusion_lon": 0.0, "is_disabled": 0, "fusion_lat": 0.0, "lon": -76.95476533333333}, {"is_reserved": 0, "rental_uris": {"ios": "https://dc.lft.to/lastmile_qr_scan", "android": "https://dc.lft.to/lastmile_qr_scan"}, "name": "c711c99134027b66ccb5e4b90737bbbb", "bike_id": "c711c99134027b66ccb5e4b90737bbbb", "type": "electric_scooter", "lat": 38.9158765, "fusion_lon": 0.0, "is_disabled": 0, "fusion_lat": 0.0, "lon": -77.03227783333334}, {"is_reserved": 0, "rental_uris": {"ios": "https://dc.lft.to/lastmile_qr_scan", "android": "https://dc.lft.to/lastmile_qr_scan"}, "name": "e842bb90614498dbcac7591a85dcb252", "bike_id": "e842bb90614498dbcac7591a85dcb252", "type": "electric_scooter", "lat": 38.899809833333336, "fusion_lon": 0.0, "is_disabled": 0, "fusion_lat": 0.0, "lon": -77.05571366666666}, {"is_reserved": 0, "rental_uris": {"ios": "https://dc.lft.to/lastmile_qr_scan", "android": "https://dc.lft.to/lastmile_qr_scan"}, "name": "9909b953c9f595aa84d12039660f2d6e", "bike_id": "9909b953c9f595aa84d12039660f2d6e", "type": "electric_scooter", "lat": 38.89494083333334, "fusion_lon": 0.0, "is_disabled": 0, "fusion_lat": 0.0, "lon": -77.022924}, {"is_reserved": 0, "rental_uris": {"ios": "https://dc.lft.to/lastmile_qr_scan", "android": "https://dc.lft.to/lastmile_qr_scan"}, "name": "26aa18b288f0877ddbf3f2823a795b07", "bike_id": "26aa18b288f0877ddbf3f2823a795b07", "type": "electric_bike", "lat": 38.87483433333333, "fusion_lon": 0.0, "is_disabled": 0, "fusion_lat": 0.0, "lon": -77.00080833333334}, {"is_reserved": 0, "rental_uris": {"ios": "https://dc.lft.to/lastmile_qr_scan", "android": "https://dc.lft.to/lastmile_qr_scan"}, "name": "82888ff064cd333854ff53e359bd0d45", "bike_id": "82888ff064cd333854ff53e359bd0d45", "type": "electric_scooter", "lat": 38.8968255, "fusion_lon": 0.0, "is_disabled": 0, "fusion_lat": 0.0, "lon": -76.9361155}, {"is_reserved": 0, "rental_uris": {"ios": "https://dc.lft.to/lastmile_qr_scan", "android": "https://dc.lft.to/lastmile_qr_scan"}, "name": "346e9656a50f1992041122170b29be21", "bike_id": "346e9656a50f1992041122170b29be21", "type": "electric_scooter", "lat": 38.915559, "fusion_lon": 0.0, "is_disabled": 0, "fusion_lat": 0.0, "lon": -77.03034316666667}, {"is_reserved": 0, "rental_uris": {"ios": "https://dc.lft.to/lastmile_qr_scan", "android": "https://dc.lft.to/lastmile_qr_scan"}, "name": "3357932e763067ef4abab75a728fe766", "bike_id": "3357932e763067ef4abab75a728fe766", "type": "electric_scooter", "lat": 38.928491333333334, "fusion_lon": 0.0, "is_disabled": 0, "fusion_lat": 0.0, "lon": -77.01382183333334}, {"is_reserved": 0, "rental_uris": {"ios": "https://dc.lft.to/lastmile_qr_scan", "android": "https://dc.lft.to/lastmile_qr_scan"}, "name": "3487a76ef18dfc4dc6b924398a94979f", "bike_id": "3487a76ef18dfc4dc6b924398a94979f", "type": "electric_scooter", "lat": 38.8875105, "fusion_lon": 0.0, "is_disabled": 0, "fusion_lat": 0.0, "lon": -77.021504}, {"is_reserved": 0, "rental_uris": {"ios": "https://dc.lft.to/lastmile_qr_scan", "android": "https://dc.lft.to/lastmile_qr_scan"}, "name": "748bf3a72274904e9528f3366ff674e6", "bike_id": "748bf3a72274904e9528f3366ff674e6", "type": "electric_scooter", "lat": 38.89685466666667, "fusion_lon": 0.0, "is_disabled": 0, "fusion_lat": 0.0, "lon": -76.99624216666666}, {"is_reserved": 0, "rental_uris": {"ios": "https://dc.lft.to/lastmile_qr_scan", "android": "https://dc.lft.to/lastmile_qr_scan"}, "name": "5578c6dbb2a3b18bbc5bc2127b5ccc68", "bike_id": "5578c6dbb2a3b18bbc5bc2127b5ccc68", "type": "electric_scooter", "lat": 38.8637225, "fusion_lon": 0.0, "is_disabled": 0, "fusion_lat": 0.0, "lon": -76.9905}, {"is_reserved": 0, "rental_uris": {"ios": "https://dc.lft.to/lastmile_qr_scan", "android": "https://dc.lft.to/lastmile_qr_scan"}, "name": "e0cb3bea47f8bfc9cda0668d2e7aa18c", "bike_id": "e0cb3bea47f8bfc9cda0668d2e7aa18c", "type": "electric_scooter", "lat": 38.92482483333333, "fusion_lon": 0.0, "is_disabled": 0, "fusion_lat": 0.0, "lon": -77.02722283333334}, {"is_reserved": 0, "rental_uris": {"ios": "https://dc.lft.to/lastmile_qr_scan", "android": "https://dc.lft.to/lastmile_qr_scan"}, "name": "8e01cf373c853d788b7674dae60ec262", "bike_id": "8e01cf373c853d788b7674dae60ec262", "type": "electric_scooter", "lat": 38.92073166666667, "fusion_lon": 0.0, "is_disabled": 0, "fusion_lat": 0.0, "lon": -77.02316816666666}, {"is_reserved": 0, "rental_uris": {"ios": "https://dc.lft.to/lastmile_qr_scan", "android": "https://dc.lft.to/lastmile_qr_scan"}, "name": "4f4c976839af0125f3717358f0ea2815", "bike_id": "4f4c976839af0125f3717358f0ea2815", "type": "electric_scooter", "lat": 38.90517, "fusion_lon": 0.0, "is_disabled": 0, "fusion_lat": 0.0, "lon": -77.065492}, {"is_reserved": 0, "rental_uris": {"ios": "https://dc.lft.to/lastmile_qr_scan", "android": "https://dc.lft.to/lastmile_qr_scan"}, "name": "843dcec2e2c2781062c8588ffd4e67a5", "bike_id": "843dcec2e2c2781062c8588ffd4e67a5", "type": "electric_scooter", "lat": 38.8966275, "fusion_lon": 0.0, "is_disabled": 0, "fusion_lat": 0.0, "lon": -76.98092466666667}, {"is_reserved": 0, "rental_uris": {"ios": "https://dc.lft.to/lastmile_qr_scan", "android": "https://dc.lft.to/lastmile_qr_scan"}, "name": "401fda89866231b316864127d05be7a1", "bike_id": "401fda89866231b316864127d05be7a1", "type": "electric_scooter", "lat": 38.871181166666666, "fusion_lon": 0.0, "is_disabled": 0, "fusion_lat": 0.0, "lon": -77.01072533333334}, {"is_reserved": 0, "rental_uris": {"ios": "https://dc.lft.to/lastmile_qr_scan", "android": "https://dc.lft.to/lastmile_qr_scan"}, "name": "ef07e9dcd16ea21659751933a1143fea", "bike_id": "ef07e9dcd16ea21659751933a1143fea", "type": "electric_bike", "lat": 38.9518415, "fusion_lon": 0.0, "is_disabled": 0, "fusion_lat": 0.0, "lon": -76.9354295}, {"is_reserved": 0, "rental_uris": {"ios": "https://dc.lft.to/lastmile_qr_scan", "android": "https://dc.lft.to/lastmile_qr_scan"}, "name": "71229f6de0aed5e6ef233609c855bad3", "bike_id": "71229f6de0aed5e6ef233609c855bad3", "type": "electric_scooter", "lat": 38.91258883333333, "fusion_lon": 0.0, "is_disabled": 0, "fusion_lat": 0.0, "lon": -77.03629416666666}, {"is_reserved": 0, "rental_uris": {"ios": "https://dc.lft.to/lastmile_qr_scan", "android": "https://dc.lft.to/lastmile_qr_scan"}, "name": "0127a7e2b72ad011b25ee91c4699947c", "bike_id": "0127a7e2b72ad011b25ee91c4699947c", "type": "electric_bike", "lat": 38.877320166666664, "fusion_lon": 0.0, "is_disabled": 0, "fusion_lat": 0.0, "lon": -77.118528}, {"is_reserved": 0, "rental_uris": {"ios": "https://dc.lft.to/lastmile_qr_scan", "android": "https://dc.lft.to/lastmile_qr_scan"}, "name": "8b26aa644cf42ce1ff849e1580254d37", "bike_id": "8b26aa644cf42ce1ff849e1580254d37", "type": "electric_scooter", "lat": 38.900257, "fusion_lon": 0.0, "is_disabled": 0, "fusion_lat": 0.0, "lon": -77.00721716666666}, {"is_reserved": 0, "rental_uris": {"ios": "https://dc.lft.to/lastmile_qr_scan", "android": "https://dc.lft.to/lastmile_qr_scan"}, "name": "0d7685380ee80d9250b83aceb88983e3", "bike_id": "0d7685380ee80d9250b83aceb88983e3", "type": "electric_scooter", "lat": 38.8979905, "fusion_lon": 0.0, "is_disabled": 0, "fusion_lat": 0.0, "lon": -77.02199416666667}, {"is_reserved": 0, "rental_uris": {"ios": "https://dc.lft.to/lastmile_qr_scan", "android": "https://dc.lft.to/lastmile_qr_scan"}, "name": "f5505b74dcc316b9a34d40abff1a106e", "bike_id": "f5505b74dcc316b9a34d40abff1a106e", "type": "electric_scooter", "lat": 38.90346066666667, "fusion_lon": 0.0, "is_disabled": 0, "fusion_lat": 0.0, "lon": -77.03450816666667}, {"is_reserved": 0, "rental_uris": {"ios": "https://dc.lft.to/lastmile_qr_scan", "android": "https://dc.lft.to/lastmile_qr_scan"}, "name": "977dd08dece945a188a0b17ff101ab64", "bike_id": "977dd08dece945a188a0b17ff101ab64", "type": "electric_scooter", "lat": 38.87230816666667, "fusion_lon": 0.0, "is_disabled": 0, "fusion_lat": 0.0, "lon": -77.0176345}, {"is_reserved": 0, "rental_uris": {"ios": "https://dc.lft.to/lastmile_qr_scan", "android": "https://dc.lft.to/lastmile_qr_scan"}, "name": "901822b6f6c2e0556278e4b5e720178c", "bike_id": "901822b6f6c2e0556278e4b5e720178c", "type": "electric_scooter", "lat": 38.92929516666667, "fusion_lon": 0.0, "is_disabled": 0, "fusion_lat": 0.0, "lon": -77.03265983333333}, {"is_reserved": 0, "rental_uris": {"ios": "https://dc.lft.to/lastmile_qr_scan", "android": "https://dc.lft.to/lastmile_qr_scan"}, "name": "b2c0a0df527f0fea535d38048052f99b", "bike_id": "b2c0a0df527f0fea535d38048052f99b", "type": "electric_scooter", "lat": 38.92598516666666, "fusion_lon": 0.0, "is_disabled": 0, "fusion_lat": 0.0, "lon": -77.05762833333333}, {"is_reserved": 0, "rental_uris": {"ios": "https://dc.lft.to/lastmile_qr_scan", "android": "https://dc.lft.to/lastmile_qr_scan"}, "name": "2a5f126f22a2f8025e77cb9e5277ef84", "bike_id": "2a5f126f22a2f8025e77cb9e5277ef84", "type": "electric_scooter", "lat": 38.90118733333333, "fusion_lon": 0.0, "is_disabled": 0, "fusion_lat": 0.0, "lon": -77.016239}, {"is_reserved": 0, "rental_uris": {"ios": "https://dc.lft.to/lastmile_qr_scan", "android": "https://dc.lft.to/lastmile_qr_scan"}, "name": "7fee55651972676fdd11ffdb6766f2ef", "bike_id": "7fee55651972676fdd11ffdb6766f2ef", "type": "electric_scooter", "lat": 38.89626, "fusion_lon": 0.0, "is_disabled": 0, "fusion_lat": 0.0, "lon": -77.02959516666667}, {"is_reserved": 0, "rental_uris": {"ios": "https://dc.lft.to/lastmile_qr_scan", "android": "https://dc.lft.to/lastmile_qr_scan"}, "name": "a41029ba1d2fe904b235cda7ae1eda85", "bike_id": "a41029ba1d2fe904b235cda7ae1eda85", "type": "electric_scooter", "lat": 38.8844415, "fusion_lon": 0.0, "is_disabled": 0, "fusion_lat": 0.0, "lon": -77.03039666666666}, {"is_reserved": 0, "rental_uris": {"ios": "https://dc.lft.to/lastmile_qr_scan", "android": "https://dc.lft.to/lastmile_qr_scan"}, "name": "30a7cd11812aa85f559b2534e5e3d7e4", "bike_id": "30a7cd11812aa85f559b2534e5e3d7e4", "type": "electric_scooter", "lat": 38.901854, "fusion_lon": 0.0, "is_disabled": 0, "fusion_lat": 0.0, "lon": -77.00011066666667}, {"is_reserved": 0, "rental_uris": {"ios": "https://dc.lft.to/lastmile_qr_scan", "android": "https://dc.lft.to/lastmile_qr_scan"}, "name": "f1ade42c997e94b17853a7c6d6b031fb", "bike_id": "f1ade42c997e94b17853a7c6d6b031fb", "type": "electric_scooter", "lat": 38.892756, "fusion_lon": 0.0, "is_disabled": 0, "fusion_lat": 0.0, "lon": -77.02594016666667}, {"is_reserved": 0, "rental_uris": {"ios": "https://dc.lft.to/lastmile_qr_scan", "android": "https://dc.lft.to/lastmile_qr_scan"}, "name": "14e1c96ec5d133ddcc77ffad6aff6664", "bike_id": "14e1c96ec5d133ddcc77ffad6aff6664", "type": "electric_bike", "lat": 38.93210333333333, "fusion_lon": 0.0, "is_disabled": 0, "fusion_lat": 0.0, "lon": -76.97428533333333}, {"is_reserved": 0, "rental_uris": {"ios": "https://dc.lft.to/lastmile_qr_scan", "android": "https://dc.lft.to/lastmile_qr_scan"}, "name": "4a8ea2746d2001ae3cf9d1c35c5f2f8e", "bike_id": "4a8ea2746d2001ae3cf9d1c35c5f2f8e", "type": "electric_scooter", "lat": 38.923658, "fusion_lon": 0.0, "is_disabled": 0, "fusion_lat": 0.0, "lon": -77.0575405}, {"is_reserved": 0, "rental_uris": {"ios": "https://dc.lft.to/lastmile_qr_scan", "android": "https://dc.lft.to/lastmile_qr_scan"}, "name": "fc8bf69f681e42c086e9502940f0f13c", "bike_id": "fc8bf69f681e42c086e9502940f0f13c", "type": "electric_scooter", "lat": 38.90433983333333, "fusion_lon": 0.0, "is_disabled": 0, "fusion_lat": 0.0, "lon": -77.02835016666667}, {"is_reserved": 0, "rental_uris": {"ios": "https://dc.lft.to/lastmile_qr_scan", "android": "https://dc.lft.to/lastmile_qr_scan"}, "name": "c413e77153d3952554ac4f6817ba55ab", "bike_id": "c413e77153d3952554ac4f6817ba55ab", "type": "electric_scooter", "lat": 38.932608, "fusion_lon": 0.0, "is_disabled": 0, "fusion_lat": 0.0, "lon": -77.0325435}, {"is_reserved": 0, "rental_uris": {"ios": "https://dc.lft.to/lastmile_qr_scan", "android": "https://dc.lft.to/lastmile_qr_scan"}, "name": "18af6d821cef662250144200771b3e81", "bike_id": "18af6d821cef662250144200771b3e81", "type": "electric_bike", "lat": 38.9669945, "fusion_lon": 0.0, "is_disabled": 0, "fusion_lat": 0.0, "lon": -77.10226366666667}, {"is_reserved": 0, "rental_uris": {"ios": "https://dc.lft.to/lastmile_qr_scan", "android": "https://dc.lft.to/lastmile_qr_scan"}, "name": "214f775579281696c58eec39bb8496a4", "bike_id": "214f775579281696c58eec39bb8496a4", "type": "electric_scooter", "lat": 38.903675666666665, "fusion_lon": 0.0, "is_disabled": 0, "fusion_lat": 0.0, "lon": -77.04181416666667}, {"is_reserved": 0, "rental_uris": {"ios": "https://dc.lft.to/lastmile_qr_scan", "android": "https://dc.lft.to/lastmile_qr_scan"}, "name": "30a635ad8ff75979aba9903e2ec5892f", "bike_id": "30a635ad8ff75979aba9903e2ec5892f", "type": "electric_scooter", "lat": 38.921176333333335, "fusion_lon": 0.0, "is_disabled": 0, "fusion_lat": 0.0, "lon": -77.04215983333333}, {"is_reserved": 0, "rental_uris": {"ios": "https://dc.lft.to/lastmile_qr_scan", "android": "https://dc.lft.to/lastmile_qr_scan"}, "name": "e83588b7d23cc7eb1dbf04c3cafd634e", "bike_id": "e83588b7d23cc7eb1dbf04c3cafd634e", "type": "electric_bike", "lat": 38.861609, "fusion_lon": 0.0, "is_disabled": 0, "fusion_lat": 0.0, "lon": -77.130951}, {"is_reserved": 0, "rental_uris": {"ios": "https://dc.lft.to/lastmile_qr_scan", "android": "https://dc.lft.to/lastmile_qr_scan"}, "name": "908bb0faeb88a292046054971bb12ff1", "bike_id": "908bb0faeb88a292046054971bb12ff1", "type": "electric_scooter", "lat": 38.88721366666667, "fusion_lon": 0.0, "is_disabled": 0, "fusion_lat": 0.0, "lon": -77.0138145}, {"is_reserved": 0, "rental_uris": {"ios": "https://dc.lft.to/lastmile_qr_scan", "android": "https://dc.lft.to/lastmile_qr_scan"}, "name": "a77ac366ef4f9586b327101065d3b120", "bike_id": "a77ac366ef4f9586b327101065d3b120", "type": "electric_scooter", "lat": 38.91399416666667, "fusion_lon": 0.0, "is_disabled": 0, "fusion_lat": 0.0, "lon": -77.02955966666667}, {"is_reserved": 0, "rental_uris": {"ios": "https://dc.lft.to/lastmile_qr_scan", "android": "https://dc.lft.to/lastmile_qr_scan"}, "name": "b21895e5bed7d37e15158f561909c2a7", "bike_id": "b21895e5bed7d37e15158f561909c2a7", "type": "electric_scooter", "lat": 38.91784666666667, "fusion_lon": 0.0, "is_disabled": 0, "fusion_lat": 0.0, "lon": -77.04028766666667}, {"is_reserved": 0, "rental_uris": {"ios": "https://dc.lft.to/lastmile_qr_scan", "android": "https://dc.lft.to/lastmile_qr_scan"}, "name": "bf6fc16b549b7bc0313169a9ad49c75f", "bike_id": "bf6fc16b549b7bc0313169a9ad49c75f", "type": "electric_scooter", "lat": 38.8892755, "fusion_lon": 0.0, "is_disabled": 0, "fusion_lat": 0.0, "lon": -76.97376316666667}, {"is_reserved": 0, "rental_uris": {"ios": "https://dc.lft.to/lastmile_qr_scan", "android": "https://dc.lft.to/lastmile_qr_scan"}, "name": "4e6d7e065ee7c349431a1caee12643c4", "bike_id": "4e6d7e065ee7c349431a1caee12643c4", "type": "electric_scooter", "lat": 38.91401883333333, "fusion_lon": 0.0, "is_disabled": 0, "fusion_lat": 0.0, "lon": -77.02052216666667}, {"is_reserved": 0, "rental_uris": {"ios": "https://dc.lft.to/lastmile_qr_scan", "android": "https://dc.lft.to/lastmile_qr_scan"}, "name": "0edc51d57c9f52436af3e5b4878c48f1", "bike_id": "0edc51d57c9f52436af3e5b4878c48f1", "type": "electric_scooter", "lat": 38.91708833333333, "fusion_lon": 0.0, "is_disabled": 0, "fusion_lat": 0.0, "lon": -77.038894}, {"is_reserved": 0, "rental_uris": {"ios": "https://dc.lft.to/lastmile_qr_scan", "android": "https://dc.lft.to/lastmile_qr_scan"}, "name": "ebf3d9b79353f81794a9e1f5fe63418c", "bike_id": "ebf3d9b79353f81794a9e1f5fe63418c", "type": "electric_scooter", "lat": 38.95633316666667, "fusion_lon": 0.0, "is_disabled": 0, "fusion_lat": 0.0, "lon": -77.03308183333333}, {"is_reserved": 0, "rental_uris": {"ios": "https://dc.lft.to/lastmile_qr_scan", "android": "https://dc.lft.to/lastmile_qr_scan"}, "name": "54adcafa484fdb4d136afa290cd97bf0", "bike_id": "54adcafa484fdb4d136afa290cd97bf0", "type": "electric_scooter", "lat": 38.924196, "fusion_lon": 0.0, "is_disabled": 0, "fusion_lat": 0.0, "lon": -77.05642966666667}, {"is_reserved": 0, "rental_uris": {"ios": "https://dc.lft.to/lastmile_qr_scan", "android": "https://dc.lft.to/lastmile_qr_scan"}, "name": "9c18f441e17d81f08daba4577d07aeac", "bike_id": "9c18f441e17d81f08daba4577d07aeac", "type": "electric_scooter", "lat": 38.905461333333335, "fusion_lon": 0.0, "is_disabled": 0, "fusion_lat": 0.0, "lon": -77.00576016666666}, {"is_reserved": 0, "rental_uris": {"ios": "https://dc.lft.to/lastmile_qr_scan", "android": "https://dc.lft.to/lastmile_qr_scan"}, "name": "bb7c1a49cd55c2b99f4f1b9f45851a4d", "bike_id": "bb7c1a49cd55c2b99f4f1b9f45851a4d", "type": "electric_scooter", "lat": 38.91266066666667, "fusion_lon": 0.0, "is_disabled": 0, "fusion_lat": 0.0, "lon": -77.01682533333333}, {"is_reserved": 0, "rental_uris": {"ios": "https://dc.lft.to/lastmile_qr_scan", "android": "https://dc.lft.to/lastmile_qr_scan"}, "name": "03fa9eab267a145b64d8f1ab79d763ab", "bike_id": "03fa9eab267a145b64d8f1ab79d763ab", "type": "electric_scooter", "lat": 38.902853, "fusion_lon": 0.0, "is_disabled": 0, "fusion_lat": 0.0, "lon": -77.03839283333333}, {"is_reserved": 0, "rental_uris": {"ios": "https://dc.lft.to/lastmile_qr_scan", "android": "https://dc.lft.to/lastmile_qr_scan"}, "name": "5f436d13d68f52499f40fa863ef80da6", "bike_id": "5f436d13d68f52499f40fa863ef80da6", "type": "electric_scooter", "lat": 38.936041, "fusion_lon": 0.0, "is_disabled": 0, "fusion_lat": 0.0, "lon": -77.03817366666667}, {"is_reserved": 0, "rental_uris": {"ios": "https://dc.lft.to/lastmile_qr_scan", "android": "https://dc.lft.to/lastmile_qr_scan"}, "name": "a60b3a7cc96bfb59f4fd4bade469567c", "bike_id": "a60b3a7cc96bfb59f4fd4bade469567c", "type": "electric_scooter", "lat": 38.91819666666667, "fusion_lon": 0.0, "is_disabled": 0, "fusion_lat": 0.0, "lon": -77.03162066666667}, {"is_reserved": 0, "rental_uris": {"ios": "https://dc.lft.to/lastmile_qr_scan", "android": "https://dc.lft.to/lastmile_qr_scan"}, "name": "d240069d70f61e63c1d574535a0bad99", "bike_id": "d240069d70f61e63c1d574535a0bad99", "type": "electric_scooter", "lat": 38.903997, "fusion_lon": 0.0, "is_disabled": 0, "fusion_lat": 0.0, "lon": -77.038449}, {"is_reserved": 0, "rental_uris": {"ios": "https://dc.lft.to/lastmile_qr_scan", "android": "https://dc.lft.to/lastmile_qr_scan"}, "name": "54b152042bc945c2e420f7bccc06cd86", "bike_id": "54b152042bc945c2e420f7bccc06cd86", "type": "electric_scooter", "lat": 38.84585516666667, "fusion_lon": 0.0, "is_disabled": 0, "fusion_lat": 0.0, "lon": -76.98161916666666}, {"is_reserved": 0, "rental_uris": {"ios": "https://dc.lft.to/lastmile_qr_scan", "android": "https://dc.lft.to/lastmile_qr_scan"}, "name": "b22ed00c9fa7cdb83ba1aba0fb1e9f54", "bike_id": "b22ed00c9fa7cdb83ba1aba0fb1e9f54", "type": "electric_scooter", "lat": 38.92184783333333, "fusion_lon": 0.0, "is_disabled": 0, "fusion_lat": 0.0, "lon": -77.04710483333334}, {"is_reserved": 0, "rental_uris": {"ios": "https://dc.lft.to/lastmile_qr_scan", "android": "https://dc.lft.to/lastmile_qr_scan"}, "name": "906dd359185444465173c0e95d0babc3", "bike_id": "906dd359185444465173c0e95d0babc3", "type": "electric_scooter", "lat": 38.9053955, "fusion_lon": 0.0, "is_disabled": 0, "fusion_lat": 0.0, "lon": -77.056958}, {"is_reserved": 0, "rental_uris": {"ios": "https://dc.lft.to/lastmile_qr_scan", "android": "https://dc.lft.to/lastmile_qr_scan"}, "name": "71dcb1d2386cd3e450375fe034d761a7", "bike_id": "71dcb1d2386cd3e450375fe034d761a7", "type": "electric_scooter", "lat": 38.896790833333334, "fusion_lon": 0.0, "is_disabled": 0, "fusion_lat": 0.0, "lon": -77.0255885}, {"is_reserved": 0, "rental_uris": {"ios": "https://dc.lft.to/lastmile_qr_scan", "android": "https://dc.lft.to/lastmile_qr_scan"}, "name": "35b3250e2a653358b28a94dfb607a19d", "bike_id": "35b3250e2a653358b28a94dfb607a19d", "type": "electric_scooter", "lat": 38.9007935, "fusion_lon": 0.0, "is_disabled": 0, "fusion_lat": 0.0, "lon": -77.0129065}, {"is_reserved": 0, "rental_uris": {"ios": "https://dc.lft.to/lastmile_qr_scan", "android": "https://dc.lft.to/lastmile_qr_scan"}, "name": "f6c0ae0db84b401f953cbb21efeffedf", "bike_id": "f6c0ae0db84b401f953cbb21efeffedf", "type": "electric_scooter", "lat": 38.923658333333336, "fusion_lon": 0.0, "is_disabled": 0, "fusion_lat": 0.0, "lon": -77.04128266666666}, {"is_reserved": 0, "rental_uris": {"ios": "https://dc.lft.to/lastmile_qr_scan", "android": "https://dc.lft.to/lastmile_qr_scan"}, "name": "1a2a2cc83587db9a0994266e949c1f0b", "bike_id": "1a2a2cc83587db9a0994266e949c1f0b", "type": "electric_scooter", "lat": 38.901062, "fusion_lon": 0.0, "is_disabled": 0, "fusion_lat": 0.0, "lon": -77.02883316666667}, {"is_reserved": 0, "rental_uris": {"ios": "https://dc.lft.to/lastmile_qr_scan", "android": "https://dc.lft.to/lastmile_qr_scan"}, "name": "db79c2e37f149988bc5c2054cb93cd62", "bike_id": "db79c2e37f149988bc5c2054cb93cd62", "type": "electric_scooter", "lat": 38.885087166666665, "fusion_lon": 0.0, "is_disabled": 0, "fusion_lat": 0.0, "lon": -77.00571666666667}, {"is_reserved": 0, "rental_uris": {"ios": "https://dc.lft.to/lastmile_qr_scan", "android": "https://dc.lft.to/lastmile_qr_scan"}, "name": "7b5e028487b9c8486b1186e9d0d75bda", "bike_id": "7b5e028487b9c8486b1186e9d0d75bda", "type": "electric_scooter", "lat": 38.89820816666667, "fusion_lon": 0.0, "is_disabled": 0, "fusion_lat": 0.0, "lon": -76.996939}, {"is_reserved": 0, "rental_uris": {"ios": "https://dc.lft.to/lastmile_qr_scan", "android": "https://dc.lft.to/lastmile_qr_scan"}, "name": "4997ea44b85e60a399afb3eec939ce4b", "bike_id": "4997ea44b85e60a399afb3eec939ce4b", "type": "electric_bike", "lat": 39.05636916666667, "fusion_lon": 0.0, "is_disabled": 0, "fusion_lat": 0.0, "lon": -77.12525983333333}, {"is_reserved": 0, "rental_uris": {"ios": "https://dc.lft.to/lastmile_qr_scan", "android": "https://dc.lft.to/lastmile_qr_scan"}, "name": "bdb7aac31566c7e6d85c3b4c6cc49b9d", "bike_id": "bdb7aac31566c7e6d85c3b4c6cc49b9d", "type": "electric_scooter", "lat": 38.9140045, "fusion_lon": 0.0, "is_disabled": 0, "fusion_lat": 0.0, "lon": -77.03896983333334}, {"is_reserved": 0, "rental_uris": {"ios": "https://dc.lft.to/lastmile_qr_scan", "android": "https://dc.lft.to/lastmile_qr_scan"}, "name": "bb6fa62e4dcebeca151e5b1c31854f30", "bike_id": "bb6fa62e4dcebeca151e5b1c31854f30", "type": "electric_scooter", "lat": 38.90514966666667, "fusion_lon": 0.0, "is_disabled": 0, "fusion_lat": 0.0, "lon": -77.06137816666667}, {"is_reserved": 0, "rental_uris": {"ios": "https://dc.lft.to/lastmile_qr_scan", "android": "https://dc.lft.to/lastmile_qr_scan"}, "name": "4da3df2576daed3345358010309a3bf9", "bike_id": "4da3df2576daed3345358010309a3bf9", "type": "electric_scooter", "lat": 38.90783066666667, "fusion_lon": 0.0, "is_disabled": 0, "fusion_lat": 0.0, "lon": -77.0382815}, {"is_reserved": 0, "rental_uris": {"ios": "https://dc.lft.to/lastmile_qr_scan", "android": "https://dc.lft.to/lastmile_qr_scan"}, "name": "835221cbf96bc1e5fe93c52b77756314", "bike_id": "835221cbf96bc1e5fe93c52b77756314", "type": "electric_scooter", "lat": 38.927569166666665, "fusion_lon": 0.0, "is_disabled": 0, "fusion_lat": 0.0, "lon": -77.03219266666666}, {"is_reserved": 0, "rental_uris": {"ios": "https://dc.lft.to/lastmile_qr_scan", "android": "https://dc.lft.to/lastmile_qr_scan"}, "name": "6058ffcbee1cbf0bb4753b25b55cc770", "bike_id": "6058ffcbee1cbf0bb4753b25b55cc770", "type": "electric_scooter", "lat": 38.930901666666664, "fusion_lon": 0.0, "is_disabled": 0, "fusion_lat": 0.0, "lon": -77.02549333333333}, {"is_reserved": 0, "rental_uris": {"ios": "https://dc.lft.to/lastmile_qr_scan", "android": "https://dc.lft.to/lastmile_qr_scan"}, "name": "29a962421989807b96a2558675ee0802", "bike_id": "29a962421989807b96a2558675ee0802", "type": "electric_scooter", "lat": 38.95611866666667, "fusion_lon": 0.0, "is_disabled": 0, "fusion_lat": 0.0, "lon": -77.027598}, {"is_reserved": 0, "rental_uris": {"ios": "https://dc.lft.to/lastmile_qr_scan", "android": "https://dc.lft.to/lastmile_qr_scan"}, "name": "f4f6b9eaa749729ec443e7cb645d8e7d", "bike_id": "f4f6b9eaa749729ec443e7cb645d8e7d", "type": "electric_bike", "lat": 38.88638016666667, "fusion_lon": 0.0, "is_disabled": 0, "fusion_lat": 0.0, "lon": -76.95477633333333}, {"is_reserved": 0, "rental_uris": {"ios": "https://dc.lft.to/lastmile_qr_scan", "android": "https://dc.lft.to/lastmile_qr_scan"}, "name": "1120510d12277c2126a6e2414661d6fa", "bike_id": "1120510d12277c2126a6e2414661d6fa", "type": "electric_scooter", "lat": 38.9225225, "fusion_lon": 0.0, "is_disabled": 0, "fusion_lat": 0.0, "lon": -77.04244333333334}, {"is_reserved": 0, "rental_uris": {"ios": "https://dc.lft.to/lastmile_qr_scan", "android": "https://dc.lft.to/lastmile_qr_scan"}, "name": "4f7c476c97555e918e12481e878c86b4", "bike_id": "4f7c476c97555e918e12481e878c86b4", "type": "electric_scooter", "lat": 38.930549666666664, "fusion_lon": 0.0, "is_disabled": 0, "fusion_lat": 0.0, "lon": -77.03747466666667}, {"is_reserved": 0, "rental_uris": {"ios": "https://dc.lft.to/lastmile_qr_scan", "android": "https://dc.lft.to/lastmile_qr_scan"}, "name": "998eece9be3128e7ec588bcc080ab7b4", "bike_id": "998eece9be3128e7ec588bcc080ab7b4", "type": "electric_scooter", "lat": 38.9192635, "fusion_lon": 0.0, "is_disabled": 0, "fusion_lat": 0.0, "lon": -77.0318125}, {"is_reserved": 0, "rental_uris": {"ios": "https://dc.lft.to/lastmile_qr_scan", "android": "https://dc.lft.to/lastmile_qr_scan"}, "name": "e72df04b2727d7f1fab3466c2ae255e8", "bike_id": "e72df04b2727d7f1fab3466c2ae255e8", "type": "electric_scooter", "lat": 38.92417533333333, "fusion_lon": 0.0, "is_disabled": 0, "fusion_lat": 0.0, "lon": -77.02238783333334}, {"is_reserved": 0, "rental_uris": {"ios": "https://dc.lft.to/lastmile_qr_scan", "android": "https://dc.lft.to/lastmile_qr_scan"}, "name": "97b3d16e663da31e79dec59455657261", "bike_id": "97b3d16e663da31e79dec59455657261", "type": "electric_bike", "lat": 38.922799, "fusion_lon": 0.0, "is_disabled": 0, "fusion_lat": 0.0, "lon": -77.02241183333334}, {"is_reserved": 0, "rental_uris": {"ios": "https://dc.lft.to/lastmile_qr_scan", "android": "https://dc.lft.to/lastmile_qr_scan"}, "name": "25d8e5686055f5d552847599644513f9", "bike_id": "25d8e5686055f5d552847599644513f9", "type": "electric_scooter", "lat": 38.874977333333334, "fusion_lon": 0.0, "is_disabled": 0, "fusion_lat": 0.0, "lon": -76.99798516666667}, {"is_reserved": 0, "rental_uris": {"ios": "https://dc.lft.to/lastmile_qr_scan", "android": "https://dc.lft.to/lastmile_qr_scan"}, "name": "1cdc14f6b417375983878fe4775d1bc7", "bike_id": "1cdc14f6b417375983878fe4775d1bc7", "type": "electric_scooter", "lat": 38.8990005, "fusion_lon": 0.0, "is_disabled": 0, "fusion_lat": 0.0, "lon": -76.93361816666666}, {"is_reserved": 0, "rental_uris": {"ios": "https://dc.lft.to/lastmile_qr_scan", "android": "https://dc.lft.to/lastmile_qr_scan"}, "name": "a1344a213f72841a81865255a83c740d", "bike_id": "a1344a213f72841a81865255a83c740d", "type": "electric_scooter", "lat": 38.904001666666666, "fusion_lon": 0.0, "is_disabled": 0, "fusion_lat": 0.0, "lon": -77.02076083333333}, {"is_reserved": 0, "rental_uris": {"ios": "https://dc.lft.to/lastmile_qr_scan", "android": "https://dc.lft.to/lastmile_qr_scan"}, "name": "51a07f95dc143c9ff95de2c86df80a36", "bike_id": "51a07f95dc143c9ff95de2c86df80a36", "type": "electric_scooter", "lat": 38.940128, "fusion_lon": 0.0, "is_disabled": 0, "fusion_lat": 0.0, "lon": -77.07177433333334}, {"is_reserved": 0, "rental_uris": {"ios": "https://dc.lft.to/lastmile_qr_scan", "android": "https://dc.lft.to/lastmile_qr_scan"}, "name": "e85efbe0893dd9aa1e610acaa77aec44", "bike_id": "e85efbe0893dd9aa1e610acaa77aec44", "type": "electric_scooter", "lat": 38.8919765, "fusion_lon": 0.0, "is_disabled": 0, "fusion_lat": 0.0, "lon": -77.02383516666667}, {"is_reserved": 0, "rental_uris": {"ios": "https://dc.lft.to/lastmile_qr_scan", "android": "https://dc.lft.to/lastmile_qr_scan"}, "name": "240fc44fe7df5100e2f6a544cd2c1542", "bike_id": "240fc44fe7df5100e2f6a544cd2c1542", "type": "electric_scooter", "lat": 38.8580695, "fusion_lon": 0.0, "is_disabled": 0, "fusion_lat": 0.0, "lon": -76.989938}, {"is_reserved": 0, "rental_uris": {"ios": "https://dc.lft.to/lastmile_qr_scan", "android": "https://dc.lft.to/lastmile_qr_scan"}, "name": "09f443e4bf0082687c283ce64534699a", "bike_id": "09f443e4bf0082687c283ce64534699a", "type": "electric_scooter", "lat": 38.89739333333333, "fusion_lon": 0.0, "is_disabled": 0, "fusion_lat": 0.0, "lon": -77.0453455}, {"is_reserved": 0, "rental_uris": {"ios": "https://dc.lft.to/lastmile_qr_scan", "android": "https://dc.lft.to/lastmile_qr_scan"}, "name": "6fb56942421b2787252c8b7d930cd09e", "bike_id": "6fb56942421b2787252c8b7d930cd09e", "type": "electric_scooter", "lat": 38.897877, "fusion_lon": 0.0, "is_disabled": 0, "fusion_lat": 0.0, "lon": -77.0319865}, {"is_reserved": 0, "rental_uris": {"ios": "https://dc.lft.to/lastmile_qr_scan", "android": "https://dc.lft.to/lastmile_qr_scan"}, "name": "b7c62af62015449a96fa91764d4546f1", "bike_id": "b7c62af62015449a96fa91764d4546f1", "type": "electric_scooter", "lat": 38.903637333333336, "fusion_lon": 0.0, "is_disabled": 0, "fusion_lat": 0.0, "lon": -77.03585083333333}, {"is_reserved": 0, "rental_uris": {"ios": "https://dc.lft.to/lastmile_qr_scan", "android": "https://dc.lft.to/lastmile_qr_scan"}, "name": "803d5d0085fe12a5b6825bc46260941c", "bike_id": "803d5d0085fe12a5b6825bc46260941c", "type": "electric_scooter", "lat": 38.88521033333333, "fusion_lon": 0.0, "is_disabled": 0, "fusion_lat": 0.0, "lon": -77.03343583333333}, {"is_reserved": 0, "rental_uris": {"ios": "https://dc.lft.to/lastmile_qr_scan", "android": "https://dc.lft.to/lastmile_qr_scan"}, "name": "07c1b596ed46b3ef425aca45bf1c0de0", "bike_id": "07c1b596ed46b3ef425aca45bf1c0de0", "type": "electric_scooter", "lat": 38.89725116666666, "fusion_lon": 0.0, "is_disabled": 0, "fusion_lat": 0.0, "lon": -77.03262133333334}, {"is_reserved": 0, "rental_uris": {"ios": "https://dc.lft.to/lastmile_qr_scan", "android": "https://dc.lft.to/lastmile_qr_scan"}, "name": "3e04d41c9203244b6e26e2d721fef492", "bike_id": "3e04d41c9203244b6e26e2d721fef492", "type": "electric_scooter", "lat": 38.89845366666667, "fusion_lon": 0.0, "is_disabled": 0, "fusion_lat": 0.0, "lon": -77.04384116666667}, {"is_reserved": 0, "rental_uris": {"ios": "https://dc.lft.to/lastmile_qr_scan", "android": "https://dc.lft.to/lastmile_qr_scan"}, "name": "03a70b7a73319fadeb402506101a06ff", "bike_id": "03a70b7a73319fadeb402506101a06ff", "type": "electric_scooter", "lat": 38.91012, "fusion_lon": 0.0, "is_disabled": 0, "fusion_lat": 0.0, "lon": -77.08896916666667}, {"is_reserved": 0, "rental_uris": {"ios": "https://dc.lft.to/lastmile_qr_scan", "android": "https://dc.lft.to/lastmile_qr_scan"}, "name": "7606a8e9b261179f45680289a808731f", "bike_id": "7606a8e9b261179f45680289a808731f", "type": "electric_scooter", "lat": 38.9000805, "fusion_lon": 0.0, "is_disabled": 0, "fusion_lat": 0.0, "lon": -76.99837683333334}, {"is_reserved": 0, "rental_uris": {"ios": "https://dc.lft.to/lastmile_qr_scan", "android": "https://dc.lft.to/lastmile_qr_scan"}, "name": "0f1ebc09468f6acf1e0b8d47d0ada04c", "bike_id": "0f1ebc09468f6acf1e0b8d47d0ada04c", "type": "electric_scooter", "lat": 38.910052, "fusion_lon": 0.0, "is_disabled": 0, "fusion_lat": 0.0, "lon": -77.03436316666667}, {"is_reserved": 0, "rental_uris": {"ios": "https://dc.lft.to/lastmile_qr_scan", "android": "https://dc.lft.to/lastmile_qr_scan"}, "name": "11e76c7b28ba312166a8914a741f2ab6", "bike_id": "11e76c7b28ba312166a8914a741f2ab6", "type": "electric_bike", "lat": 38.872332666666665, "fusion_lon": 0.0, "is_disabled": 0, "fusion_lat": 0.0, "lon": -77.01176566666666}, {"is_reserved": 0, "rental_uris": {"ios": "https://dc.lft.to/lastmile_qr_scan", "android": "https://dc.lft.to/lastmile_qr_scan"}, "name": "f61045de456fcb570acbdf1f4f0b1a04", "bike_id": "f61045de456fcb570acbdf1f4f0b1a04", "type": "electric_scooter", "lat": 38.913753666666665, "fusion_lon": 0.0, "is_disabled": 0, "fusion_lat": 0.0, "lon": -77.00451216666667}, {"is_reserved": 0, "rental_uris": {"ios": "https://dc.lft.to/lastmile_qr_scan", "android": "https://dc.lft.to/lastmile_qr_scan"}, "name": "e7c9a6ffd866494b0844312ac9557a6c", "bike_id": "e7c9a6ffd866494b0844312ac9557a6c", "type": "electric_scooter", "lat": 38.897073166666665, "fusion_lon": 0.0, "is_disabled": 0, "fusion_lat": 0.0, "lon": -77.00643466666666}, {"is_reserved": 0, "rental_uris": {"ios": "https://dc.lft.to/lastmile_qr_scan", "android": "https://dc.lft.to/lastmile_qr_scan"}, "name": "45946133ad52fb22645c9890a9a7bfee", "bike_id": "45946133ad52fb22645c9890a9a7bfee", "type": "electric_scooter", "lat": 38.89196333333334, "fusion_lon": 0.0, "is_disabled": 0, "fusion_lat": 0.0, "lon": -77.0245735}, {"is_reserved": 0, "rental_uris": {"ios": "https://dc.lft.to/lastmile_qr_scan", "android": "https://dc.lft.to/lastmile_qr_scan"}, "name": "73896305307976b7ba4f0d3247766b1e", "bike_id": "73896305307976b7ba4f0d3247766b1e", "type": "electric_scooter", "lat": 38.9509675, "fusion_lon": 0.0, "is_disabled": 0, "fusion_lat": 0.0, "lon": -77.02339483333333}, {"is_reserved": 0, "rental_uris": {"ios": "https://dc.lft.to/lastmile_qr_scan", "android": "https://dc.lft.to/lastmile_qr_scan"}, "name": "779de2e4d2aa13fbee0a1bfa3aee251e", "bike_id": "779de2e4d2aa13fbee0a1bfa3aee251e", "type": "electric_bike", "lat": 38.86173483333334, "fusion_lon": 0.0, "is_disabled": 0, "fusion_lat": 0.0, "lon": -77.13146933333333}, {"is_reserved": 0, "rental_uris": {"ios": "https://dc.lft.to/lastmile_qr_scan", "android": "https://dc.lft.to/lastmile_qr_scan"}, "name": "63453e632b422ad3ab08a4bf5cbbff7d", "bike_id": "63453e632b422ad3ab08a4bf5cbbff7d", "type": "electric_scooter", "lat": 38.865738666666665, "fusion_lon": 0.0, "is_disabled": 0, "fusion_lat": 0.0, "lon": -76.9894975}, {"is_reserved": 0, "rental_uris": {"ios": "https://dc.lft.to/lastmile_qr_scan", "android": "https://dc.lft.to/lastmile_qr_scan"}, "name": "091db93aca6424130563fc868d5b1027", "bike_id": "091db93aca6424130563fc868d5b1027", "type": "electric_bike", "lat": 38.89854066666667, "fusion_lon": 0.0, "is_disabled": 0, "fusion_lat": 0.0, "lon": -76.9319265}, {"is_reserved": 0, "rental_uris": {"ios": "https://dc.lft.to/lastmile_qr_scan", "android": "https://dc.lft.to/lastmile_qr_scan"}, "name": "3f2a6122a82578f961cecd95ed6b82d6", "bike_id": "3f2a6122a82578f961cecd95ed6b82d6", "type": "electric_scooter", "lat": 38.9050465, "fusion_lon": 0.0, "is_disabled": 0, "fusion_lat": 0.0, "lon": -77.0433455}, {"is_reserved": 0, "rental_uris": {"ios": "https://dc.lft.to/lastmile_qr_scan", "android": "https://dc.lft.to/lastmile_qr_scan"}, "name": "7eb4f5fad9f8cf622c9cbef5664a351b", "bike_id": "7eb4f5fad9f8cf622c9cbef5664a351b", "type": "electric_scooter", "lat": 38.915459, "fusion_lon": 0.0, "is_disabled": 0, "fusion_lat": 0.0, "lon": -77.0384415}, {"is_reserved": 0, "rental_uris": {"ios": "https://dc.lft.to/lastmile_qr_scan", "android": "https://dc.lft.to/lastmile_qr_scan"}, "name": "dc04df565a36f8e18088b67b99ed9756", "bike_id": "dc04df565a36f8e18088b67b99ed9756", "type": "electric_scooter", "lat": 38.92210566666667, "fusion_lon": 0.0, "is_disabled": 0, "fusion_lat": 0.0, "lon": -77.03292616666667}, {"is_reserved": 0, "rental_uris": {"ios": "https://dc.lft.to/lastmile_qr_scan", "android": "https://dc.lft.to/lastmile_qr_scan"}, "name": "1cf943085c193773e07ea7d9d250dfb9", "bike_id": "1cf943085c193773e07ea7d9d250dfb9", "type": "electric_bike", "lat": 39.08856866666667, "fusion_lon": 0.0, "is_disabled": 0, "fusion_lat": 0.0, "lon": -77.1784135}, {"is_reserved": 0, "rental_uris": {"ios": "https://dc.lft.to/lastmile_qr_scan", "android": "https://dc.lft.to/lastmile_qr_scan"}, "name": "a3cd32756ed2bcf48739cd4d8a22d80e", "bike_id": "a3cd32756ed2bcf48739cd4d8a22d80e", "type": "electric_scooter", "lat": 38.9287445, "fusion_lon": 0.0, "is_disabled": 0, "fusion_lat": 0.0, "lon": -77.027122}, {"is_reserved": 0, "rental_uris": {"ios": "https://dc.lft.to/lastmile_qr_scan", "android": "https://dc.lft.to/lastmile_qr_scan"}, "name": "4c45cdca89eff7e4e25f6157607c66fa", "bike_id": "4c45cdca89eff7e4e25f6157607c66fa", "type": "electric_scooter", "lat": 38.915632, "fusion_lon": 0.0, "is_disabled": 0, "fusion_lat": 0.0, "lon": -77.0386475}, {"is_reserved": 0, "rental_uris": {"ios": "https://dc.lft.to/lastmile_qr_scan", "android": "https://dc.lft.to/lastmile_qr_scan"}, "name": "ea6631f084b02e1c39dbb9daf37f8ba2", "bike_id": "ea6631f084b02e1c39dbb9daf37f8ba2", "type": "electric_scooter", "lat": 38.983662833333334, "fusion_lon": 0.0, "is_disabled": 0, "fusion_lat": 0.0, "lon": -77.02644933333333}, {"is_reserved": 0, "rental_uris": {"ios": "https://dc.lft.to/lastmile_qr_scan", "android": "https://dc.lft.to/lastmile_qr_scan"}, "name": "f4712c613e8e9367770de006bc21311e", "bike_id": "f4712c613e8e9367770de006bc21311e", "type": "electric_bike", "lat": 38.928594833333335, "fusion_lon": 0.0, "is_disabled": 0, "fusion_lat": 0.0, "lon": -77.22214016666666}, {"is_reserved": 0, "rental_uris": {"ios": "https://dc.lft.to/lastmile_qr_scan", "android": "https://dc.lft.to/lastmile_qr_scan"}, "name": "308e8fbb243b0bed97649ac513accce3", "bike_id": "308e8fbb243b0bed97649ac513accce3", "type": "electric_scooter", "lat": 38.88734216666667, "fusion_lon": 0.0, "is_disabled": 0, "fusion_lat": 0.0, "lon": -77.01395066666667}, {"is_reserved": 0, "rental_uris": {"ios": "https://dc.lft.to/lastmile_qr_scan", "android": "https://dc.lft.to/lastmile_qr_scan"}, "name": "79a93db70a58204c830471a64ba45132", "bike_id": "79a93db70a58204c830471a64ba45132", "type": "electric_scooter", "lat": 38.907212333333334, "fusion_lon": 0.0, "is_disabled": 0, "fusion_lat": 0.0, "lon": -77.0401465}, {"is_reserved": 0, "rental_uris": {"ios": "https://dc.lft.to/lastmile_qr_scan", "android": "https://dc.lft.to/lastmile_qr_scan"}, "name": "2cc32a60318aef4ade1e34feb9b4edf6", "bike_id": "2cc32a60318aef4ade1e34feb9b4edf6", "type": "electric_bike", "lat": 39.0158955, "fusion_lon": 0.0, "is_disabled": 0, "fusion_lat": 0.0, "lon": -77.04427483333333}, {"is_reserved": 0, "rental_uris": {"ios": "https://dc.lft.to/lastmile_qr_scan", "android": "https://dc.lft.to/lastmile_qr_scan"}, "name": "c91b3387ad4107cd8468be2d606f62e9", "bike_id": "c91b3387ad4107cd8468be2d606f62e9", "type": "electric_scooter", "lat": 38.900014666666664, "fusion_lon": 0.0, "is_disabled": 0, "fusion_lat": 0.0, "lon": -76.99846733333334}, {"is_reserved": 0, "rental_uris": {"ios": "https://dc.lft.to/lastmile_qr_scan", "android": "https://dc.lft.to/lastmile_qr_scan"}, "name": "6c7205dade361abc9fcc90a116ed4424", "bike_id": "6c7205dade361abc9fcc90a116ed4424", "type": "electric_scooter", "lat": 38.910830833333335, "fusion_lon": 0.0, "is_disabled": 0, "fusion_lat": 0.0, "lon": -77.07642866666667}, {"is_reserved": 0, "rental_uris": {"ios": "https://dc.lft.to/lastmile_qr_scan", "android": "https://dc.lft.to/lastmile_qr_scan"}, "name": "3c18c5712195935e48fe071386644044", "bike_id": "3c18c5712195935e48fe071386644044", "type": "electric_scooter", "lat": 38.90307883333333, "fusion_lon": 0.0, "is_disabled": 0, "fusion_lat": 0.0, "lon": -77.05206516666667}, {"is_reserved": 0, "rental_uris": {"ios": "https://dc.lft.to/lastmile_qr_scan", "android": "https://dc.lft.to/lastmile_qr_scan"}, "name": "940f69a4ff1fefce5e2e24c648844a3f", "bike_id": "940f69a4ff1fefce5e2e24c648844a3f", "type": "electric_scooter", "lat": 38.92473433333333, "fusion_lon": 0.0, "is_disabled": 0, "fusion_lat": 0.0, "lon": -77.0271885}, {"is_reserved": 0, "rental_uris": {"ios": "https://dc.lft.to/lastmile_qr_scan", "android": "https://dc.lft.to/lastmile_qr_scan"}, "name": "a6b381c72ca97bf9d71bb32b76ff015c", "bike_id": "a6b381c72ca97bf9d71bb32b76ff015c", "type": "electric_scooter", "lat": 38.9052655, "fusion_lon": 0.0, "is_disabled": 0, "fusion_lat": 0.0, "lon": -77.06386583333334}, {"is_reserved": 0, "rental_uris": {"ios": "https://dc.lft.to/lastmile_qr_scan", "android": "https://dc.lft.to/lastmile_qr_scan"}, "name": "0e842df432e9df2d789353ce4fafa7b3", "bike_id": "0e842df432e9df2d789353ce4fafa7b3", "type": "electric_bike", "lat": 38.875031666666665, "fusion_lon": 0.0, "is_disabled": 0, "fusion_lat": 0.0, "lon": -77.02591266666667}, {"is_reserved": 0, "rental_uris": {"ios": "https://dc.lft.to/lastmile_qr_scan", "android": "https://dc.lft.to/lastmile_qr_scan"}, "name": "e7eef796db2883c1b5da7a753c62a336", "bike_id": "e7eef796db2883c1b5da7a753c62a336", "type": "electric_scooter", "lat": 38.88425616666667, "fusion_lon": 0.0, "is_disabled": 0, "fusion_lat": 0.0, "lon": -77.0304585}, {"is_reserved": 0, "rental_uris": {"ios": "https://dc.lft.to/lastmile_qr_scan", "android": "https://dc.lft.to/lastmile_qr_scan"}, "name": "bab8e32e7bbf3438699a14460cc08ad6", "bike_id": "bab8e32e7bbf3438699a14460cc08ad6", "type": "electric_scooter", "lat": 38.891248, "fusion_lon": 0.0, "is_disabled": 0, "fusion_lat": 0.0, "lon": -76.94092316666666}, {"is_reserved": 0, "rental_uris": {"ios": "https://dc.lft.to/lastmile_qr_scan", "android": "https://dc.lft.to/lastmile_qr_scan"}, "name": "5481c19a6c70b99f0014107778484d70", "bike_id": "5481c19a6c70b99f0014107778484d70", "type": "electric_scooter", "lat": 38.9055145, "fusion_lon": 0.0, "is_disabled": 0, "fusion_lat": 0.0, "lon": -77.0473405}, {"is_reserved": 0, "rental_uris": {"ios": "https://dc.lft.to/lastmile_qr_scan", "android": "https://dc.lft.to/lastmile_qr_scan"}, "name": "de502a8eb6802b81c522066f8de218e4", "bike_id": "de502a8eb6802b81c522066f8de218e4", "type": "electric_scooter", "lat": 38.842947833333334, "fusion_lon": 0.0, "is_disabled": 0, "fusion_lat": 0.0, "lon": -76.99945183333334}, {"is_reserved": 0, "rental_uris": {"ios": "https://dc.lft.to/lastmile_qr_scan", "android": "https://dc.lft.to/lastmile_qr_scan"}, "name": "2e9aee3c8f815a7c37f0d858130c4cd0", "bike_id": "2e9aee3c8f815a7c37f0d858130c4cd0", "type": "electric_scooter", "lat": 38.9069875, "fusion_lon": 0.0, "is_disabled": 0, "fusion_lat": 0.0, "lon": -76.99955883333334}, {"is_reserved": 0, "rental_uris": {"ios": "https://dc.lft.to/lastmile_qr_scan", "android": "https://dc.lft.to/lastmile_qr_scan"}, "name": "e9b16e205cefdb1771be6cebd2a95cbb", "bike_id": "e9b16e205cefdb1771be6cebd2a95cbb", "type": "electric_scooter", "lat": 38.97366733333333, "fusion_lon": 0.0, "is_disabled": 0, "fusion_lat": 0.0, "lon": -77.01865733333334}, {"is_reserved": 0, "rental_uris": {"ios": "https://dc.lft.to/lastmile_qr_scan", "android": "https://dc.lft.to/lastmile_qr_scan"}, "name": "99fc4c9f9092c45f138b46a92ded5a4d", "bike_id": "99fc4c9f9092c45f138b46a92ded5a4d", "type": "electric_scooter", "lat": 38.867285833333334, "fusion_lon": 0.0, "is_disabled": 0, "fusion_lat": 0.0, "lon": -76.987885}, {"is_reserved": 0, "rental_uris": {"ios": "https://dc.lft.to/lastmile_qr_scan", "android": "https://dc.lft.to/lastmile_qr_scan"}, "name": "b1a3dc4cde8ea12d05d78bde27a2a811", "bike_id": "b1a3dc4cde8ea12d05d78bde27a2a811", "type": "electric_scooter", "lat": 38.916668, "fusion_lon": 0.0, "is_disabled": 0, "fusion_lat": 0.0, "lon": -77.0066225}, {"is_reserved": 0, "rental_uris": {"ios": "https://dc.lft.to/lastmile_qr_scan", "android": "https://dc.lft.to/lastmile_qr_scan"}, "name": "8d63acb9c968beddff886b7939f2d5b2", "bike_id": "8d63acb9c968beddff886b7939f2d5b2", "type": "electric_scooter", "lat": 38.940533333333335, "fusion_lon": 0.0, "is_disabled": 0, "fusion_lat": 0.0, "lon": -77.09269083333334}, {"is_reserved": 0, "rental_uris": {"ios": "https://dc.lft.to/lastmile_qr_scan", "android": "https://dc.lft.to/lastmile_qr_scan"}, "name": "3939bb522f196ddfb74d3920c4dc2af0", "bike_id": "3939bb522f196ddfb74d3920c4dc2af0", "type": "electric_scooter", "lat": 38.892235666666664, "fusion_lon": 0.0, "is_disabled": 0, "fusion_lat": 0.0, "lon": -77.04199933333334}, {"is_reserved": 0, "rental_uris": {"ios": "https://dc.lft.to/lastmile_qr_scan", "android": "https://dc.lft.to/lastmile_qr_scan"}, "name": "cc2260c466025dc503b472b77c45f01a", "bike_id": "cc2260c466025dc503b472b77c45f01a", "type": "electric_scooter", "lat": 38.91972366666667, "fusion_lon": 0.0, "is_disabled": 0, "fusion_lat": 0.0, "lon": -77.04173116666666}, {"is_reserved": 0, "rental_uris": {"ios": "https://dc.lft.to/lastmile_qr_scan", "android": "https://dc.lft.to/lastmile_qr_scan"}, "name": "9a36c56afe8b9af6e529e691b542965d", "bike_id": "9a36c56afe8b9af6e529e691b542965d", "type": "electric_scooter", "lat": 38.922213166666666, "fusion_lon": 0.0, "is_disabled": 0, "fusion_lat": 0.0, "lon": -77.0424695}, {"is_reserved": 0, "rental_uris": {"ios": "https://dc.lft.to/lastmile_qr_scan", "android": "https://dc.lft.to/lastmile_qr_scan"}, "name": "27b90e49d9060000fea62f94ecb86176", "bike_id": "27b90e49d9060000fea62f94ecb86176", "type": "electric_bike", "lat": 38.9051275, "fusion_lon": 0.0, "is_disabled": 0, "fusion_lat": 0.0, "lon": -77.0599815}, {"is_reserved": 0, "rental_uris": {"ios": "https://dc.lft.to/lastmile_qr_scan", "android": "https://dc.lft.to/lastmile_qr_scan"}, "name": "4954aadca7f0cedcc82550ea9b2f1f65", "bike_id": "4954aadca7f0cedcc82550ea9b2f1f65", "type": "electric_scooter", "lat": 38.9051675, "fusion_lon": 0.0, "is_disabled": 0, "fusion_lat": 0.0, "lon": -77.00586116666666}, {"is_reserved": 0, "rental_uris": {"ios": "https://dc.lft.to/lastmile_qr_scan", "android": "https://dc.lft.to/lastmile_qr_scan"}, "name": "4af396726a3ffff874ab70fd38c9e36e", "bike_id": "4af396726a3ffff874ab70fd38c9e36e", "type": "electric_bike", "lat": 38.931078666666664, "fusion_lon": 0.0, "is_disabled": 0, "fusion_lat": 0.0, "lon": -77.027349}, {"is_reserved": 0, "rental_uris": {"ios": "https://dc.lft.to/lastmile_qr_scan", "android": "https://dc.lft.to/lastmile_qr_scan"}, "name": "36abd1f3456bf8592ae8d7c458fdbe5c", "bike_id": "36abd1f3456bf8592ae8d7c458fdbe5c", "type": "electric_scooter", "lat": 38.92657083333334, "fusion_lon": 0.0, "is_disabled": 0, "fusion_lat": 0.0, "lon": -77.03728766666667}, {"is_reserved": 0, "rental_uris": {"ios": "https://dc.lft.to/lastmile_qr_scan", "android": "https://dc.lft.to/lastmile_qr_scan"}, "name": "0bddb412b30b2a9bc262c14ce90adb5c", "bike_id": "0bddb412b30b2a9bc262c14ce90adb5c", "type": "electric_scooter", "lat": 38.921584333333335, "fusion_lon": 0.0, "is_disabled": 0, "fusion_lat": 0.0, "lon": -77.03232}, {"is_reserved": 0, "rental_uris": {"ios": "https://dc.lft.to/lastmile_qr_scan", "android": "https://dc.lft.to/lastmile_qr_scan"}, "name": "48a3ad6db056daa07beb7ecb4a4e9545", "bike_id": "48a3ad6db056daa07beb7ecb4a4e9545", "type": "electric_scooter", "lat": 38.92373383333333, "fusion_lon": 0.0, "is_disabled": 0, "fusion_lat": 0.0, "lon": -77.0192035}, {"is_reserved": 0, "rental_uris": {"ios": "https://dc.lft.to/lastmile_qr_scan", "android": "https://dc.lft.to/lastmile_qr_scan"}, "name": "32624a7f0b055a1ba38159e8c340c262", "bike_id": "32624a7f0b055a1ba38159e8c340c262", "type": "electric_scooter", "lat": 38.8556215, "fusion_lon": 0.0, "is_disabled": 0, "fusion_lat": 0.0, "lon": -76.9949085}, {"is_reserved": 0, "rental_uris": {"ios": "https://dc.lft.to/lastmile_qr_scan", "android": "https://dc.lft.to/lastmile_qr_scan"}, "name": "eebe0237b4e32238ae65b12b3f12db12", "bike_id": "eebe0237b4e32238ae65b12b3f12db12", "type": "electric_scooter", "lat": 38.902733, "fusion_lon": 0.0, "is_disabled": 0, "fusion_lat": 0.0, "lon": -77.04030166666666}, {"is_reserved": 0, "rental_uris": {"ios": "https://dc.lft.to/lastmile_qr_scan", "android": "https://dc.lft.to/lastmile_qr_scan"}, "name": "0b14a911a1f7e326387861a5db64ff8b", "bike_id": "0b14a911a1f7e326387861a5db64ff8b", "type": "electric_scooter", "lat": 38.94447266666667, "fusion_lon": 0.0, "is_disabled": 0, "fusion_lat": 0.0, "lon": -77.02343366666666}, {"is_reserved": 0, "rental_uris": {"ios": "https://dc.lft.to/lastmile_qr_scan", "android": "https://dc.lft.to/lastmile_qr_scan"},