{"data": {"bikes": [{"bike_id": "d3c0edea1dffe7e66823b515a531ea25", "is_reserved": 0, "fusion_lon": 0.0, "lat": 38.913869, "is_disabled": 0, "name": "d3c0edea1dffe7e66823b515a531ea25", "fusion_lat": 0.0, "rental_uris": {"ios": "https://dc.lft.to/lastmile_qr_scan", "android": "https://dc.lft.to/lastmile_qr_scan"}, "lon": -77.0170105, "type": "electric_scooter"}, {"bike_id": "58b6f67fbc30f05146530014cad9737d", "is_reserved": 0, "fusion_lon": 0.0, "lat": 38.904712833333335, "is_disabled": 0, "name": "58b6f67fbc30f05146530014cad9737d", "fusion_lat": 0.0, "rental_uris": {"ios": "https://dc.lft.to/lastmile_qr_scan", "android": "https://dc.lft.to/lastmile_qr_scan"}, "lon": -77.04036183333334, "type": "electric_scooter"}, {"bike_id": "952eae670138520478b090fd349cc6db", "is_reserved": 0, "fusion_lon": 0.0, "lat": 38.93713366666667, "is_disabled": 0, "name": "952eae670138520478b090fd349cc6db", "fusion_lat": 0.0, "rental_uris": {"ios": "https://dc.lft.to/lastmile_qr_scan", "android": "https://dc.lft.to/lastmile_qr_scan"}, "lon": -77.029364, "type": "electric_scooter"}, {"bike_id": "a29ee4a13a13a4b29e673b9649b0ec97", "is_reserved": 0, "fusion_lon": 0.0, "lat": 38.83722566666667, "is_disabled": 0, "name": "a29ee4a13a13a4b29e673b9649b0ec97", "fusion_lat": 0.0, "rental_uris": {"ios": "https://dc.lft.to/lastmile_qr_scan", "android": "https://dc.lft.to/lastmile_qr_scan"}, "lon": -76.99760733333333, "type": "electric_bike"}, {"bike_id": "7e683957c97022bfa09545fb6bff88bf", "is_reserved": 0, "fusion_lon": 0.0, "lat": 38.902507166666666, "is_disabled": 0, "name": "7e683957c97022bfa09545fb6bff88bf", "fusion_lat": 0.0, "rental_uris": {"ios": "https://dc.lft.to/lastmile_qr_scan", "android": "https://dc.lft.to/lastmile_qr_scan"}, "lon": -77.0071585, "type": "electric_scooter"}, {"bike_id": "2f8ddbe0ecb335b75761ae3fecad524e", "is_reserved": 0, "fusion_lon": 0.0, "lat": 38.901269166666665, "is_disabled": 0, "name": "2f8ddbe0ecb335b75761ae3fecad524e", "fusion_lat": 0.0, "rental_uris": {"ios": "https://dc.lft.to/lastmile_qr_scan", "android": "https://dc.lft.to/lastmile_qr_scan"}, "lon": -77.03341016666667, "type": "electric_scooter"}, {"bike_id": "7875dad75c2dca4d02c4774e7611f0d0", "is_reserved": 0, "fusion_lon": 0.0, "lat": 38.939711833333334, "is_disabled": 0, "name": "7875dad75c2dca4d02c4774e7611f0d0", "fusion_lat": 0.0, "rental_uris": {"ios": "https://dc.lft.to/lastmile_qr_scan", "android": "https://dc.lft.to/lastmile_qr_scan"}, "lon": -77.03257766666667, "type": "electric_scooter"}, {"bike_id": "73fd25df5706f3d18fcd8c3b0759eb17", "is_reserved": 0, "fusion_lon": 0.0, "lat": 38.928515, "is_disabled": 0, "name": "73fd25df5706f3d18fcd8c3b0759eb17", "fusion_lat": 0.0, "rental_uris": {"ios": "https://dc.lft.to/lastmile_qr_scan", "android": "https://dc.lft.to/lastmile_qr_scan"}, "lon": -77.01366733333333, "type": "electric_scooter"}, {"bike_id": "a202440d30513b26d6fb0686ac6eb8dc", "is_reserved": 0, "fusion_lon": 0.0, "lat": 38.855189, "is_disabled": 0, "name": "a202440d30513b26d6fb0686ac6eb8dc", "fusion_lat": 0.0, "rental_uris": {"ios": "https://dc.lft.to/lastmile_qr_scan", "android": "https://dc.lft.to/lastmile_qr_scan"}, "lon": -76.9843495, "type": "electric_bike"}, {"bike_id": "40ef07fb60e9d1e7bfe0a7813027f503", "is_reserved": 0, "fusion_lon": 0.0, "lat": 38.886099, "is_disabled": 0, "name": "40ef07fb60e9d1e7bfe0a7813027f503", "fusion_lat": 0.0, "rental_uris": {"ios": "https://dc.lft.to/lastmile_qr_scan", "android": "https://dc.lft.to/lastmile_qr_scan"}, "lon": -76.93604633333334, "type": "electric_scooter"}, {"bike_id": "a2c973e81d55a9ba380ad3112a6b99d9", "is_reserved": 0, "fusion_lon": 0.0, "lat": 38.950761666666665, "is_disabled": 0, "name": "a2c973e81d55a9ba380ad3112a6b99d9", "fusion_lat": 0.0, "rental_uris": {"ios": "https://dc.lft.to/lastmile_qr_scan", "android": "https://dc.lft.to/lastmile_qr_scan"}, "lon": -77.01207083333334, "type": "electric_bike"}, {"bike_id": "f73e68c51649d7783712c42bc133e5af", "is_reserved": 0, "fusion_lon": 0.0, "lat": 38.88494016666667, "is_disabled": 0, "name": "f73e68c51649d7783712c42bc133e5af", "fusion_lat": 0.0, "rental_uris": {"ios": "https://dc.lft.to/lastmile_qr_scan", "android": "https://dc.lft.to/lastmile_qr_scan"}, "lon": -77.00341766666666, "type": "electric_scooter"}, {"bike_id": "d4a6b9e80df789b871248d35681a2062", "is_reserved": 0, "fusion_lon": 0.0, "lat": 38.924840833333334, "is_disabled": 0, "name": "d4a6b9e80df789b871248d35681a2062", "fusion_lat": 0.0, "rental_uris": {"ios": "https://dc.lft.to/lastmile_qr_scan", "android": "https://dc.lft.to/lastmile_qr_scan"}, "lon": -77.02646833333333, "type": "electric_scooter"}, {"bike_id": "01e95293e20f3e2f12948a784ae15f46", "is_reserved": 0, "fusion_lon": 0.0, "lat": 38.905955666666664, "is_disabled": 0, "name": "01e95293e20f3e2f12948a784ae15f46", "fusion_lat": 0.0, "rental_uris": {"ios": "https://dc.lft.to/lastmile_qr_scan", "android": "https://dc.lft.to/lastmile_qr_scan"}, "lon": -77.05096466666667, "type": "electric_scooter"}, {"bike_id": "de8fce3a44f05b6da5660e75d799dff5", "is_reserved": 0, "fusion_lon": 0.0, "lat": 38.88516466666667, "is_disabled": 0, "name": "de8fce3a44f05b6da5660e75d799dff5", "fusion_lat": 0.0, "rental_uris": {"ios": "https://dc.lft.to/lastmile_qr_scan", "android": "https://dc.lft.to/lastmile_qr_scan"}, "lon": -77.00570466666667, "type": "electric_scooter"}, {"bike_id": "5ff7580e742672d43fc147734888875f", "is_reserved": 0, "fusion_lon": 0.0, "lat": 38.93435733333333, "is_disabled": 0, "name": "5ff7580e742672d43fc147734888875f", "fusion_lat": 0.0, "rental_uris": {"ios": "https://dc.lft.to/lastmile_qr_scan", "android": "https://dc.lft.to/lastmile_qr_scan"}, "lon": -77.03997716666667, "type": "electric_scooter"}, {"bike_id": "4e2b4c57dc5caec538e4cfb249bafa77", "is_reserved": 0, "fusion_lon": 0.0, "lat": 38.913527333333334, "is_disabled": 0, "name": "4e2b4c57dc5caec538e4cfb249bafa77", "fusion_lat": 0.0, "rental_uris": {"ios": "https://dc.lft.to/lastmile_qr_scan", "android": "https://dc.lft.to/lastmile_qr_scan"}, "lon": -77.0434735, "type": "electric_scooter"}, {"bike_id": "9af5b722645e02d7144a5b2a544d17e3", "is_reserved": 0, "fusion_lon": 0.0, "lat": 38.903547, "is_disabled": 0, "name": "9af5b722645e02d7144a5b2a544d17e3", "fusion_lat": 0.0, "rental_uris": {"ios": "https://dc.lft.to/lastmile_qr_scan", "android": "https://dc.lft.to/lastmile_qr_scan"}, "lon": -77.03315516666666, "type": "electric_scooter"}, {"bike_id": "936133d131f495bf1829d89a616bf937", "is_reserved": 0, "fusion_lon": 0.0, "lat": 38.90057266666667, "is_disabled": 0, "name": "936133d131f495bf1829d89a616bf937", "fusion_lat": 0.0, "rental_uris": {"ios": "https://dc.lft.to/lastmile_qr_scan", "android": "https://dc.lft.to/lastmile_qr_scan"}, "lon": -76.93386633333333, "type": "electric_scooter"}, {"bike_id": "aaf329d47f06ba91b5b81b5629f794ca", "is_reserved": 0, "fusion_lon": 0.0, "lat": 38.990769666666665, "is_disabled": 0, "name": "aaf329d47f06ba91b5b81b5629f794ca", "fusion_lat": 0.0, "rental_uris": {"ios": "https://dc.lft.to/lastmile_qr_scan", "android": "https://dc.lft.to/lastmile_qr_scan"}, "lon": -76.87469866666666, "type": "electric_bike"}, {"bike_id": "dc8498d5bdd36f029b3415a218289661", "is_reserved": 0, "fusion_lon": 0.0, "lat": 38.90570183333333, "is_disabled": 0, "name": "dc8498d5bdd36f029b3415a218289661", "fusion_lat": 0.0, "rental_uris": {"ios": "https://dc.lft.to/lastmile_qr_scan", "android": "https://dc.lft.to/lastmile_qr_scan"}, "lon": -77.03481566666666, "type": "electric_scooter"}, {"bike_id": "2bd361468f0c5e33bb37b63e36a926e0", "is_reserved": 0, "fusion_lon": 0.0, "lat": 38.92403633333333, "is_disabled": 0, "name": "2bd361468f0c5e33bb37b63e36a926e0", "fusion_lat": 0.0, "rental_uris": {"ios": "https://dc.lft.to/lastmile_qr_scan", "android": "https://dc.lft.to/lastmile_qr_scan"}, "lon": -77.02536616666667, "type": "electric_scooter"}, {"bike_id": "4ad5a9a9f4c76ac38f31cbbab163834b", "is_reserved": 0, "fusion_lon": 0.0, "lat": 38.931109166666666, "is_disabled": 0, "name": "4ad5a9a9f4c76ac38f31cbbab163834b", "fusion_lat": 0.0, "rental_uris": {"ios": "https://dc.lft.to/lastmile_qr_scan", "android": "https://dc.lft.to/lastmile_qr_scan"}, "lon": -77.01850033333334, "type": "electric_scooter"}, {"bike_id": "49df0dda4470af7be666c97372da36e8", "is_reserved": 0, "fusion_lon": 0.0, "lat": 38.867004333333334, "is_disabled": 0, "name": "49df0dda4470af7be666c97372da36e8", "fusion_lat": 0.0, "rental_uris": {"ios": "https://dc.lft.to/lastmile_qr_scan", "android": "https://dc.lft.to/lastmile_qr_scan"}, "lon": -76.98714066666666, "type": "electric_scooter"}, {"bike_id": "2920b225bb3d44a1980a701c6542fd15", "is_reserved": 0, "fusion_lon": 0.0, "lat": 38.922942666666664, "is_disabled": 0, "name": "2920b225bb3d44a1980a701c6542fd15", "fusion_lat": 0.0, "rental_uris": {"ios": "https://dc.lft.to/lastmile_qr_scan", "android": "https://dc.lft.to/lastmile_qr_scan"}, "lon": -77.02072533333333, "type": "electric_scooter"}, {"bike_id": "e1a503a3af289a3067d37c8bced58b2f", "is_reserved": 0, "fusion_lon": 0.0, "lat": 38.91330983333334, "is_disabled": 0, "name": "e1a503a3af289a3067d37c8bced58b2f", "fusion_lat": 0.0, "rental_uris": {"ios": "https://dc.lft.to/lastmile_qr_scan", "android": "https://dc.lft.to/lastmile_qr_scan"}, "lon": -77.03039466666667, "type": "electric_scooter"}, {"bike_id": "de2fd7c16d8df5c3a1681caaf9c5d6bd", "is_reserved": 0, "fusion_lon": 0.0, "lat": 38.90538316666667, "is_disabled": 0, "name": "de2fd7c16d8df5c3a1681caaf9c5d6bd", "fusion_lat": 0.0, "rental_uris": {"ios": "https://dc.lft.to/lastmile_qr_scan", "android": "https://dc.lft.to/lastmile_qr_scan"}, "lon": -76.99807866666667, "type": "electric_bike"}, {"bike_id": "19fcb836fb9d7e846bef7dceb216dc81", "is_reserved": 0, "fusion_lon": 0.0, "lat": 38.90748583333333, "is_disabled": 0, "name": "19fcb836fb9d7e846bef7dceb216dc81", "fusion_lat": 0.0, "rental_uris": {"ios": "https://dc.lft.to/lastmile_qr_scan", "android": "https://dc.lft.to/lastmile_qr_scan"}, "lon": -77.03471816666666, "type": "electric_scooter"}, {"bike_id": "35575f4f925f85adfd3de3d2654c5b22", "is_reserved": 0, "fusion_lon": 0.0, "lat": 38.88769666666666, "is_disabled": 0, "name": "35575f4f925f85adfd3de3d2654c5b22", "fusion_lat": 0.0, "rental_uris": {"ios": "https://dc.lft.to/lastmile_qr_scan", "android": "https://dc.lft.to/lastmile_qr_scan"}, "lon": -77.0222995, "type": "electric_scooter"}, {"bike_id": "0a6a05bbda43bfdc3f7d2229855bbe7c", "is_reserved": 0, "fusion_lon": 0.0, "lat": 38.884397166666666, "is_disabled": 0, "name": "0a6a05bbda43bfdc3f7d2229855bbe7c", "fusion_lat": 0.0, "rental_uris": {"ios": "https://dc.lft.to/lastmile_qr_scan", "android": "https://dc.lft.to/lastmile_qr_scan"}, "lon": -76.95753883333333, "type": "electric_scooter"}, {"bike_id": "8a25448e3f36eba710f807fed52569aa", "is_reserved": 0, "fusion_lon": 0.0, "lat": 38.91844916666667, "is_disabled": 0, "name": "8a25448e3f36eba710f807fed52569aa", "fusion_lat": 0.0, "rental_uris": {"ios": "https://dc.lft.to/lastmile_qr_scan", "android": "https://dc.lft.to/lastmile_qr_scan"}, "lon": -77.03897666666667, "type": "electric_scooter"}, {"bike_id": "219798056ee8bbf27937228834bd4e03", "is_reserved": 0, "fusion_lon": 0.0, "lat": 38.996758166666666, "is_disabled": 0, "name": "219798056ee8bbf27937228834bd4e03", "fusion_lat": 0.0, "rental_uris": {"ios": "https://dc.lft.to/lastmile_qr_scan", "android": "https://dc.lft.to/lastmile_qr_scan"}, "lon": -77.03783616666666, "type": "electric_bike"}, {"bike_id": "2a52e1074ff106342a85b5398516bc5d", "is_reserved": 0, "fusion_lon": 0.0, "lat": 38.910389, "is_disabled": 0, "name": "2a52e1074ff106342a85b5398516bc5d", "fusion_lat": 0.0, "rental_uris": {"ios": "https://dc.lft.to/lastmile_qr_scan", "android": "https://dc.lft.to/lastmile_qr_scan"}, "lon": -77.03232283333334, "type": "electric_scooter"}, {"bike_id": "83c6b91ed752e348c86d21b267010776", "is_reserved": 0, "fusion_lon": 0.0, "lat": 38.93638083333333, "is_disabled": 0, "name": "83c6b91ed752e348c86d21b267010776", "fusion_lat": 0.0, "rental_uris": {"ios": "https://dc.lft.to/lastmile_qr_scan", "android": "https://dc.lft.to/lastmile_qr_scan"}, "lon": -76.99642716666666, "type": "electric_scooter"}, {"bike_id": "f8933bef968ca8d148c4ceed6d5361af", "is_reserved": 0, "fusion_lon": 0.0, "lat": 38.88491333333333, "is_disabled": 0, "name": "f8933bef968ca8d148c4ceed6d5361af", "fusion_lat": 0.0, "rental_uris": {"ios": "https://dc.lft.to/lastmile_qr_scan", "android": "https://dc.lft.to/lastmile_qr_scan"}, "lon": -77.00713333333333, "type": "electric_scooter"}, {"bike_id": "55b6925d42c4f09fe1adca7ea1557659", "is_reserved": 0, "fusion_lon": 0.0, "lat": 38.9027775, "is_disabled": 0, "name": "55b6925d42c4f09fe1adca7ea1557659", "fusion_lat": 0.0, "rental_uris": {"ios": "https://dc.lft.to/lastmile_qr_scan", "android": "https://dc.lft.to/lastmile_qr_scan"}, "lon": -77.03836683333333, "type": "electric_scooter"}, {"bike_id": "009ccabc7a3917c8e79b65148660a09e", "is_reserved": 0, "fusion_lon": 0.0, "lat": 38.90164, "is_disabled": 0, "name": "009ccabc7a3917c8e79b65148660a09e", "fusion_lat": 0.0, "rental_uris": {"ios": "https://dc.lft.to/lastmile_qr_scan", "android": "https://dc.lft.to/lastmile_qr_scan"}, "lon": -77.02613916666667, "type": "electric_scooter"}, {"bike_id": "0aa4f432ad67337672b3319073011146", "is_reserved": 0, "fusion_lon": 0.0, "lat": 38.89828516666667, "is_disabled": 0, "name": "0aa4f432ad67337672b3319073011146", "fusion_lat": 0.0, "rental_uris": {"ios": "https://dc.lft.to/lastmile_qr_scan", "android": "https://dc.lft.to/lastmile_qr_scan"}, "lon": -77.03318333333333, "type": "electric_scooter"}, {"bike_id": "d585f7fbcde6b8bdecd2910324ede735", "is_reserved": 0, "fusion_lon": 0.0, "lat": 38.89170683333333, "is_disabled": 0, "name": "d585f7fbcde6b8bdecd2910324ede735", "fusion_lat": 0.0, "rental_uris": {"ios": "https://dc.lft.to/lastmile_qr_scan", "android": "https://dc.lft.to/lastmile_qr_scan"}, "lon": -77.0154575, "type": "electric_scooter"}, {"bike_id": "eee9e9739af556bdae0f449035fbf4c4", "is_reserved": 0, "fusion_lon": 0.0, "lat": 38.876428833333335, "is_disabled": 0, "name": "eee9e9739af556bdae0f449035fbf4c4", "fusion_lat": 0.0, "rental_uris": {"ios": "https://dc.lft.to/lastmile_qr_scan", "android": "https://dc.lft.to/lastmile_qr_scan"}, "lon": -76.99587883333334, "type": "electric_scooter"}, {"bike_id": "0f8b86192c7107343e6bd41c9be0742b", "is_reserved": 0, "fusion_lon": 0.0, "lat": 38.869355666666664, "is_disabled": 0, "name": "0f8b86192c7107343e6bd41c9be0742b", "fusion_lat": 0.0, "rental_uris": {"ios": "https://dc.lft.to/lastmile_qr_scan", "android": "https://dc.lft.to/lastmile_qr_scan"}, "lon": -76.96012866666666, "type": "electric_bike"}, {"bike_id": "bffd43be902a4426597ac3af497aaa8b", "is_reserved": 0, "fusion_lon": 0.0, "lat": 38.86369166666667, "is_disabled": 0, "name": "bffd43be902a4426597ac3af497aaa8b", "fusion_lat": 0.0, "rental_uris": {"ios": "https://dc.lft.to/lastmile_qr_scan", "android": "https://dc.lft.to/lastmile_qr_scan"}, "lon": -76.9904045, "type": "electric_scooter"}, {"bike_id": "3edd4c8ea13c6a4795e04b25d1e8a356", "is_reserved": 0, "fusion_lon": 0.0, "lat": 38.92482583333334, "is_disabled": 0, "name": "3edd4c8ea13c6a4795e04b25d1e8a356", "fusion_lat": 0.0, "rental_uris": {"ios": "https://dc.lft.to/lastmile_qr_scan", "android": "https://dc.lft.to/lastmile_qr_scan"}, "lon": -77.02841116666667, "type": "electric_scooter"}, {"bike_id": "1c7588e05eb8ed68dd3d01135dd24645", "is_reserved": 0, "fusion_lon": 0.0, "lat": 38.90380966666667, "is_disabled": 0, "name": "1c7588e05eb8ed68dd3d01135dd24645", "fusion_lat": 0.0, "rental_uris": {"ios": "https://dc.lft.to/lastmile_qr_scan", "android": "https://dc.lft.to/lastmile_qr_scan"}, "lon": -77.03224216666666, "type": "electric_scooter"}, {"bike_id": "a68203f20f101288becada3f61e7920a", "is_reserved": 0, "fusion_lon": 0.0, "lat": 38.913717166666665, "is_disabled": 0, "name": "a68203f20f101288becada3f61e7920a", "fusion_lat": 0.0, "rental_uris": {"ios": "https://dc.lft.to/lastmile_qr_scan", "android": "https://dc.lft.to/lastmile_qr_scan"}, "lon": -77.00821016666667, "type": "electric_scooter"}, {"bike_id": "64ddfa4e842738c1822102fbe5b2231d", "is_reserved": 0, "fusion_lon": 0.0, "lat": 38.95186783333333, "is_disabled": 0, "name": "64ddfa4e842738c1822102fbe5b2231d", "fusion_lat": 0.0, "rental_uris": {"ios": "https://dc.lft.to/lastmile_qr_scan", "android": "https://dc.lft.to/lastmile_qr_scan"}, "lon": -76.935444, "type": "electric_bike"}, {"bike_id": "8fe947521b02b315ff70d2a9f2880f5a", "is_reserved": 0, "fusion_lon": 0.0, "lat": 38.912641666666666, "is_disabled": 0, "name": "8fe947521b02b315ff70d2a9f2880f5a", "fusion_lat": 0.0, "rental_uris": {"ios": "https://dc.lft.to/lastmile_qr_scan", "android": "https://dc.lft.to/lastmile_qr_scan"}, "lon": -77.03628233333333, "type": "electric_scooter"}, {"bike_id": "901aefa70d49020933c0945f056ccfb7", "is_reserved": 0, "fusion_lon": 0.0, "lat": 38.88601166666667, "is_disabled": 0, "name": "901aefa70d49020933c0945f056ccfb7", "fusion_lat": 0.0, "rental_uris": {"ios": "https://dc.lft.to/lastmile_qr_scan", "android": "https://dc.lft.to/lastmile_qr_scan"}, "lon": -77.0176765, "type": "electric_scooter"}, {"bike_id": "d4829ce23fa904136a96e990ff28219b", "is_reserved": 0, "fusion_lon": 0.0, "lat": 38.911958166666665, "is_disabled": 0, "name": "d4829ce23fa904136a96e990ff28219b", "fusion_lat": 0.0, "rental_uris": {"ios": "https://dc.lft.to/lastmile_qr_scan", "android": "https://dc.lft.to/lastmile_qr_scan"}, "lon": -77.06085766666666, "type": "electric_scooter"}, {"bike_id": "84c4577832508ec4ab2fcf487b7ab566", "is_reserved": 0, "fusion_lon": 0.0, "lat": 38.892380333333335, "is_disabled": 0, "name": "84c4577832508ec4ab2fcf487b7ab566", "fusion_lat": 0.0, "rental_uris": {"ios": "https://dc.lft.to/lastmile_qr_scan", "android": "https://dc.lft.to/lastmile_qr_scan"}, "lon": -77.0279985, "type": "electric_scooter"}, {"bike_id": "a61171788c3b5bd968873d067c377e18", "is_reserved": 0, "fusion_lon": 0.0, "lat": 38.93386133333333, "is_disabled": 0, "name": "a61171788c3b5bd968873d067c377e18", "fusion_lat": 0.0, "rental_uris": {"ios": "https://dc.lft.to/lastmile_qr_scan", "android": "https://dc.lft.to/lastmile_qr_scan"}, "lon": -77.029, "type": "electric_scooter"}, {"bike_id": "c28c61933857504644e96b02069ca2d8", "is_reserved": 0, "fusion_lon": 0.0, "lat": 38.883638166666664, "is_disabled": 0, "name": "c28c61933857504644e96b02069ca2d8", "fusion_lat": 0.0, "rental_uris": {"ios": "https://dc.lft.to/lastmile_qr_scan", "android": "https://dc.lft.to/lastmile_qr_scan"}, "lon": -77.03173616666666, "type": "electric_scooter"}, {"bike_id": "434f01b11a7d18e2627be02a0498566d", "is_reserved": 0, "fusion_lon": 0.0, "lat": 38.908475, "is_disabled": 0, "name": "434f01b11a7d18e2627be02a0498566d", "fusion_lat": 0.0, "rental_uris": {"ios": "https://dc.lft.to/lastmile_qr_scan", "android": "https://dc.lft.to/lastmile_qr_scan"}, "lon": -77.08532133333334, "type": "electric_scooter"}, {"bike_id": "43c36a10b8213dc09d9cc1afb3a484b2", "is_reserved": 0, "fusion_lon": 0.0, "lat": 38.909927833333334, "is_disabled": 0, "name": "43c36a10b8213dc09d9cc1afb3a484b2", "fusion_lat": 0.0, "rental_uris": {"ios": "https://dc.lft.to/lastmile_qr_scan", "android": "https://dc.lft.to/lastmile_qr_scan"}, "lon": -77.03213016666666, "type": "electric_scooter"}, {"bike_id": "f949dff7c3ac2b68ae37c30525d33148", "is_reserved": 0, "fusion_lon": 0.0, "lat": 38.89876833333334, "is_disabled": 0, "name": "f949dff7c3ac2b68ae37c30525d33148", "fusion_lat": 0.0, "rental_uris": {"ios": "https://dc.lft.to/lastmile_qr_scan", "android": "https://dc.lft.to/lastmile_qr_scan"}, "lon": -76.93187, "type": "electric_scooter"}, {"bike_id": "bbc6fa31bbf4bb6f79aa81abec237601", "is_reserved": 0, "fusion_lon": 0.0, "lat": 38.8923575, "is_disabled": 0, "name": "bbc6fa31bbf4bb6f79aa81abec237601", "fusion_lat": 0.0, "rental_uris": {"ios": "https://dc.lft.to/lastmile_qr_scan", "android": "https://dc.lft.to/lastmile_qr_scan"}, "lon": -77.050005, "type": "electric_scooter"}, {"bike_id": "1c108f4936a1e25937114850592228c6", "is_reserved": 0, "fusion_lon": 0.0, "lat": 38.928611333333336, "is_disabled": 0, "name": "1c108f4936a1e25937114850592228c6", "fusion_lat": 0.0, "rental_uris": {"ios": "https://dc.lft.to/lastmile_qr_scan", "android": "https://dc.lft.to/lastmile_qr_scan"}, "lon": -77.03252333333333, "type": "electric_scooter"}, {"bike_id": "5ba210c331b81b0386d7e1ad870660c2", "is_reserved": 0, "fusion_lon": 0.0, "lat": 38.9261015, "is_disabled": 0, "name": "5ba210c331b81b0386d7e1ad870660c2", "fusion_lat": 0.0, "rental_uris": {"ios": "https://dc.lft.to/lastmile_qr_scan", "android": "https://dc.lft.to/lastmile_qr_scan"}, "lon": -77.04416316666666, "type": "electric_scooter"}, {"bike_id": "51a8d4e69be0c2df12c804b6bc0712c0", "is_reserved": 0, "fusion_lon": 0.0, "lat": 38.897627666666665, "is_disabled": 0, "name": "51a8d4e69be0c2df12c804b6bc0712c0", "fusion_lat": 0.0, "rental_uris": {"ios": "https://dc.lft.to/lastmile_qr_scan", "android": "https://dc.lft.to/lastmile_qr_scan"}, "lon": -76.9391095, "type": "electric_scooter"}, {"bike_id": "39115414aaa92a6c4ed25b397edb7e70", "is_reserved": 0, "fusion_lon": 0.0, "lat": 38.8628795, "is_disabled": 0, "name": "39115414aaa92a6c4ed25b397edb7e70", "fusion_lat": 0.0, "rental_uris": {"ios": "https://dc.lft.to/lastmile_qr_scan", "android": "https://dc.lft.to/lastmile_qr_scan"}, "lon": -76.99240666666667, "type": "electric_scooter"}, {"bike_id": "d53902c71144be003ca3cdcda7679691", "is_reserved": 0, "fusion_lon": 0.0, "lat": 38.89525283333333, "is_disabled": 0, "name": "d53902c71144be003ca3cdcda7679691", "fusion_lat": 0.0, "rental_uris": {"ios": "https://dc.lft.to/lastmile_qr_scan", "android": "https://dc.lft.to/lastmile_qr_scan"}, "lon": -77.04183333333333, "type": "electric_scooter"}, {"bike_id": "8805dc9bf0fd1ae37aef0dd63532dc81", "is_reserved": 0, "fusion_lon": 0.0, "lat": 38.884398, "is_disabled": 0, "name": "8805dc9bf0fd1ae37aef0dd63532dc81", "fusion_lat": 0.0, "rental_uris": {"ios": "https://dc.lft.to/lastmile_qr_scan", "android": "https://dc.lft.to/lastmile_qr_scan"}, "lon": -76.95753716666667, "type": "electric_scooter"}, {"bike_id": "87471451d9b3c7bbfeebdee6d33e0a21", "is_reserved": 0, "fusion_lon": 0.0, "lat": 38.90003883333333, "is_disabled": 0, "name": "87471451d9b3c7bbfeebdee6d33e0a21", "fusion_lat": 0.0, "rental_uris": {"ios": "https://dc.lft.to/lastmile_qr_scan", "android": "https://dc.lft.to/lastmile_qr_scan"}, "lon": -77.04039083333333, "type": "electric_scooter"}, {"bike_id": "32932ff7c346de824eeaf289d985fd42", "is_reserved": 0, "fusion_lon": 0.0, "lat": 38.899076666666666, "is_disabled": 0, "name": "32932ff7c346de824eeaf289d985fd42", "fusion_lat": 0.0, "rental_uris": {"ios": "https://dc.lft.to/lastmile_qr_scan", "android": "https://dc.lft.to/lastmile_qr_scan"}, "lon": -76.93346683333333, "type": "electric_scooter"}, {"bike_id": "fdbbe91b90673e207ab04ae996a6bf6c", "is_reserved": 0, "fusion_lon": 0.0, "lat": 38.912550833333334, "is_disabled": 0, "name": "fdbbe91b90673e207ab04ae996a6bf6c", "fusion_lat": 0.0, "rental_uris": {"ios": "https://dc.lft.to/lastmile_qr_scan", "android": "https://dc.lft.to/lastmile_qr_scan"}, "lon": -77.031566, "type": "electric_scooter"}, {"bike_id": "fe9ad83e2ab51617f83ab129b184f087", "is_reserved": 0, "fusion_lon": 0.0, "lat": 38.904501333333336, "is_disabled": 0, "name": "fe9ad83e2ab51617f83ab129b184f087", "fusion_lat": 0.0, "rental_uris": {"ios": "https://dc.lft.to/lastmile_qr_scan", "android": "https://dc.lft.to/lastmile_qr_scan"}, "lon": -77.04887283333333, "type": "electric_scooter"}, {"bike_id": "333731d18388cbede99f5712dd52e6a0", "is_reserved": 0, "fusion_lon": 0.0, "lat": 38.903609833333334, "is_disabled": 0, "name": "333731d18388cbede99f5712dd52e6a0", "fusion_lat": 0.0, "rental_uris": {"ios": "https://dc.lft.to/lastmile_qr_scan", "android": "https://dc.lft.to/lastmile_qr_scan"}, "lon": -77.03996183333334, "type": "electric_scooter"}, {"bike_id": "10d48eb91d1e357b6829fc7cc61d2726", "is_reserved": 0, "fusion_lon": 0.0, "lat": 38.89762016666667, "is_disabled": 0, "name": "10d48eb91d1e357b6829fc7cc61d2726", "fusion_lat": 0.0, "rental_uris": {"ios": "https://dc.lft.to/lastmile_qr_scan", "android": "https://dc.lft.to/lastmile_qr_scan"}, "lon": -76.94185566666667, "type": "electric_scooter"}, {"bike_id": "2675709dae58e1154d115a5114c9ac09", "is_reserved": 0, "fusion_lon": 0.0, "lat": 38.920950166666664, "is_disabled": 0, "name": "2675709dae58e1154d115a5114c9ac09", "fusion_lat": 0.0, "rental_uris": {"ios": "https://dc.lft.to/lastmile_qr_scan", "android": "https://dc.lft.to/lastmile_qr_scan"}, "lon": -77.02590033333334, "type": "electric_scooter"}, {"bike_id": "1615c391daed3c445388fb23afc4890d", "is_reserved": 0, "fusion_lon": 0.0, "lat": 38.926096, "is_disabled": 0, "name": "1615c391daed3c445388fb23afc4890d", "fusion_lat": 0.0, "rental_uris": {"ios": "https://dc.lft.to/lastmile_qr_scan", "android": "https://dc.lft.to/lastmile_qr_scan"}, "lon": -77.005403, "type": "electric_scooter"}, {"bike_id": "63d5c50f9f23b9ba549418eabc29cd4c", "is_reserved": 0, "fusion_lon": 0.0, "lat": 38.931531, "is_disabled": 0, "name": "63d5c50f9f23b9ba549418eabc29cd4c", "fusion_lat": 0.0, "rental_uris": {"ios": "https://dc.lft.to/lastmile_qr_scan", "android": "https://dc.lft.to/lastmile_qr_scan"}, "lon": -77.03829133333333, "type": "electric_scooter"}, {"bike_id": "54869af899ca2a974964ca5daca9ff1a", "is_reserved": 0, "fusion_lon": 0.0, "lat": 38.95480766666667, "is_disabled": 0, "name": "54869af899ca2a974964ca5daca9ff1a", "fusion_lat": 0.0, "rental_uris": {"ios": "https://dc.lft.to/lastmile_qr_scan", "android": "https://dc.lft.to/lastmile_qr_scan"}, "lon": -77.08239183333333, "type": "electric_bike"}, {"bike_id": "6e3d5dc0708d5451e2da03f3927836ba", "is_reserved": 0, "fusion_lon": 0.0, "lat": 38.97176533333333, "is_disabled": 0, "name": "6e3d5dc0708d5451e2da03f3927836ba", "fusion_lat": 0.0, "rental_uris": {"ios": "https://dc.lft.to/lastmile_qr_scan", "android": "https://dc.lft.to/lastmile_qr_scan"}, "lon": -77.02694716666667, "type": "electric_scooter"}, {"bike_id": "717de37d633d8069319c9e3dd52e6fd7", "is_reserved": 0, "fusion_lon": 0.0, "lat": 38.93403283333333, "is_disabled": 0, "name": "717de37d633d8069319c9e3dd52e6fd7", "fusion_lat": 0.0, "rental_uris": {"ios": "https://dc.lft.to/lastmile_qr_scan", "android": "https://dc.lft.to/lastmile_qr_scan"}, "lon": -77.03886316666667, "type": "electric_scooter"}, {"bike_id": "9ae4f2f8588cf6af8ea3cedb9174e87e", "is_reserved": 0, "fusion_lon": 0.0, "lat": 38.88334483333333, "is_disabled": 0, "name": "9ae4f2f8588cf6af8ea3cedb9174e87e", "fusion_lat": 0.0, "rental_uris": {"ios": "https://dc.lft.to/lastmile_qr_scan", "android": "https://dc.lft.to/lastmile_qr_scan"}, "lon": -77.005209, "type": "electric_scooter"}, {"bike_id": "3a1c4101bd8f1c52e0fb5514be3d0016", "is_reserved": 0, "fusion_lon": 0.0, "lat": 38.930909666666665, "is_disabled": 0, "name": "3a1c4101bd8f1c52e0fb5514be3d0016", "fusion_lat": 0.0, "rental_uris": {"ios": "https://dc.lft.to/lastmile_qr_scan", "android": "https://dc.lft.to/lastmile_qr_scan"}, "lon": -77.026655, "type": "electric_scooter"}, {"bike_id": "cf19d647bce29a3041724e185f3bfaea", "is_reserved": 0, "fusion_lon": 0.0, "lat": 38.8849455, "is_disabled": 0, "name": "cf19d647bce29a3041724e185f3bfaea", "fusion_lat": 0.0, "rental_uris": {"ios": "https://dc.lft.to/lastmile_qr_scan", "android": "https://dc.lft.to/lastmile_qr_scan"}, "lon": -77.0072305, "type": "electric_scooter"}, {"bike_id": "c9f890e1ae992d99f6c13bbdf42a4cb1", "is_reserved": 0, "fusion_lon": 0.0, "lat": 38.929671666666664, "is_disabled": 0, "name": "c9f890e1ae992d99f6c13bbdf42a4cb1", "fusion_lat": 0.0, "rental_uris": {"ios": "https://dc.lft.to/lastmile_qr_scan", "android": "https://dc.lft.to/lastmile_qr_scan"}, "lon": -77.05500833333333, "type": "electric_scooter"}, {"bike_id": "be0a9513102d5c6bb823e093d5d546a2", "is_reserved": 0, "fusion_lon": 0.0, "lat": 38.90368016666667, "is_disabled": 0, "name": "be0a9513102d5c6bb823e093d5d546a2", "fusion_lat": 0.0, "rental_uris": {"ios": "https://dc.lft.to/lastmile_qr_scan", "android": "https://dc.lft.to/lastmile_qr_scan"}, "lon": -77.03190883333333, "type": "electric_scooter"}, {"bike_id": "5945a0be6ddfef14c3474e00519435a0", "is_reserved": 0, "fusion_lon": 0.0, "lat": 38.95909283333334, "is_disabled": 0, "name": "5945a0be6ddfef14c3474e00519435a0", "fusion_lat": 0.0, "rental_uris": {"ios": "https://dc.lft.to/lastmile_qr_scan", "android": "https://dc.lft.to/lastmile_qr_scan"}, "lon": -77.08077233333333, "type": "electric_scooter"}, {"bike_id": "e4adf1f6738ecce792b6ddffb61a0b2e", "is_reserved": 0, "fusion_lon": 0.0, "lat": 38.90203283333334, "is_disabled": 0, "name": "e4adf1f6738ecce792b6ddffb61a0b2e", "fusion_lat": 0.0, "rental_uris": {"ios": "https://dc.lft.to/lastmile_qr_scan", "android": "https://dc.lft.to/lastmile_qr_scan"}, "lon": -77.02173316666666, "type": "electric_scooter"}, {"bike_id": "a1493c19c209a74ef22abeec4abe52d9", "is_reserved": 0, "fusion_lon": 0.0, "lat": 38.918082, "is_disabled": 0, "name": "a1493c19c209a74ef22abeec4abe52d9", "fusion_lat": 0.0, "rental_uris": {"ios": "https://dc.lft.to/lastmile_qr_scan", "android": "https://dc.lft.to/lastmile_qr_scan"}, "lon": -77.03437216666667, "type": "electric_scooter"}, {"bike_id": "d55622a78b1bb2d5dc49ec4da04e165d", "is_reserved": 0, "fusion_lon": 0.0, "lat": 38.86244583333333, "is_disabled": 0, "name": "d55622a78b1bb2d5dc49ec4da04e165d", "fusion_lat": 0.0, "rental_uris": {"ios": "https://dc.lft.to/lastmile_qr_scan", "android": "https://dc.lft.to/lastmile_qr_scan"}, "lon": -76.99494083333333, "type": "electric_scooter"}, {"bike_id": "3107813e5e1147c1da51e80587984a08", "is_reserved": 0, "fusion_lon": 0.0, "lat": 38.90857783333333, "is_disabled": 0, "name": "3107813e5e1147c1da51e80587984a08", "fusion_lat": 0.0, "rental_uris": {"ios": "https://dc.lft.to/lastmile_qr_scan", "android": "https://dc.lft.to/lastmile_qr_scan"}, "lon": -77.01186683333333, "type": "electric_scooter"}, {"bike_id": "9564edb22f20b71efe7cc8707fff15b6", "is_reserved": 0, "fusion_lon": 0.0, "lat": 38.93428, "is_disabled": 0, "name": "9564edb22f20b71efe7cc8707fff15b6", "fusion_lat": 0.0, "rental_uris": {"ios": "https://dc.lft.to/lastmile_qr_scan", "android": "https://dc.lft.to/lastmile_qr_scan"}, "lon": -77.04316066666667, "type": "electric_scooter"}, {"bike_id": "e4d6b9f0c6d8a3ed4bfe8b32cc66073b", "is_reserved": 0, "fusion_lon": 0.0, "lat": 38.89610716666667, "is_disabled": 0, "name": "e4d6b9f0c6d8a3ed4bfe8b32cc66073b", "fusion_lat": 0.0, "rental_uris": {"ios": "https://dc.lft.to/lastmile_qr_scan", "android": "https://dc.lft.to/lastmile_qr_scan"}, "lon": -77.009278, "type": "electric_scooter"}, {"bike_id": "42de7830a8c7f705d7f4e3c52f953e00", "is_reserved": 0, "fusion_lon": 0.0, "lat": 38.88208266666667, "is_disabled": 0, "name": "42de7830a8c7f705d7f4e3c52f953e00", "fusion_lat": 0.0, "rental_uris": {"ios": "https://dc.lft.to/lastmile_qr_scan", "android": "https://dc.lft.to/lastmile_qr_scan"}, "lon": -76.92701616666666, "type": "electric_scooter"}, {"bike_id": "64a223bc0a9bff952e8feacafc5f1962", "is_reserved": 0, "fusion_lon": 0.0, "lat": 38.93334216666667, "is_disabled": 0, "name": "64a223bc0a9bff952e8feacafc5f1962", "fusion_lat": 0.0, "rental_uris": {"ios": "https://dc.lft.to/lastmile_qr_scan", "android": "https://dc.lft.to/lastmile_qr_scan"}, "lon": -77.03265566666667, "type": "electric_scooter"}, {"bike_id": "577f81bbe7b5afe7fe300675ceaaf013", "is_reserved": 0, "fusion_lon": 0.0, "lat": 38.89834033333333, "is_disabled": 0, "name": "577f81bbe7b5afe7fe300675ceaaf013", "fusion_lat": 0.0, "rental_uris": {"ios": "https://dc.lft.to/lastmile_qr_scan", "android": "https://dc.lft.to/lastmile_qr_scan"}, "lon": -76.9463025, "type": "electric_scooter"}, {"bike_id": "98812a9db3d170f223f18ff1a9119a15", "is_reserved": 0, "fusion_lon": 0.0, "lat": 39.052038833333334, "is_disabled": 0, "name": "98812a9db3d170f223f18ff1a9119a15", "fusion_lat": 0.0, "rental_uris": {"ios": "https://dc.lft.to/lastmile_qr_scan", "android": "https://dc.lft.to/lastmile_qr_scan"}, "lon": -77.10915316666667, "type": "electric_bike"}, {"bike_id": "5e4d81e03608366b5d42b007ad03ea25", "is_reserved": 0, "fusion_lon": 0.0, "lat": 38.90121833333333, "is_disabled": 0, "name": "5e4d81e03608366b5d42b007ad03ea25", "fusion_lat": 0.0, "rental_uris": {"ios": "https://dc.lft.to/lastmile_qr_scan", "android": "https://dc.lft.to/lastmile_qr_scan"}, "lon": -77.04240333333334, "type": "electric_scooter"}, {"bike_id": "070ec42c8697775fa7c87426a3703e21", "is_reserved": 0, "fusion_lon": 0.0, "lat": 38.90687916666667, "is_disabled": 0, "name": "070ec42c8697775fa7c87426a3703e21", "fusion_lat": 0.0, "rental_uris": {"ios": "https://dc.lft.to/lastmile_qr_scan", "android": "https://dc.lft.to/lastmile_qr_scan"}, "lon": -77.07564933333333, "type": "electric_scooter"}, {"bike_id": "ad3f015d6a2229435cabade87b8f3394", "is_reserved": 0, "fusion_lon": 0.0, "lat": 38.922144833333334, "is_disabled": 0, "name": "ad3f015d6a2229435cabade87b8f3394", "fusion_lat": 0.0, "rental_uris": {"ios": "https://dc.lft.to/lastmile_qr_scan", "android": "https://dc.lft.to/lastmile_qr_scan"}, "lon": -77.03661283333334, "type": "electric_scooter"}, {"bike_id": "7c0fb0634702a1fb550b21ca5b1f6d06", "is_reserved": 0, "fusion_lon": 0.0, "lat": 38.916921, "is_disabled": 0, "name": "7c0fb0634702a1fb550b21ca5b1f6d06", "fusion_lat": 0.0, "rental_uris": {"ios": "https://dc.lft.to/lastmile_qr_scan", "android": "https://dc.lft.to/lastmile_qr_scan"}, "lon": -77.02956216666666, "type": "electric_scooter"}, {"bike_id": "f6c58eca2f888903e33d038aa7d3f8fd", "is_reserved": 0, "fusion_lon": 0.0, "lat": 38.91554466666667, "is_disabled": 0, "name": "f6c58eca2f888903e33d038aa7d3f8fd", "fusion_lat": 0.0, "rental_uris": {"ios": "https://dc.lft.to/lastmile_qr_scan", "android": "https://dc.lft.to/lastmile_qr_scan"}, "lon": -77.03932766666667, "type": "electric_scooter"}, {"bike_id": "976ce5a2e3b7b1a588490b4ee1bf2669", "is_reserved": 0, "fusion_lon": 0.0, "lat": 38.904918333333335, "is_disabled": 0, "name": "976ce5a2e3b7b1a588490b4ee1bf2669", "fusion_lat": 0.0, "rental_uris": {"ios": "https://dc.lft.to/lastmile_qr_scan", "android": "https://dc.lft.to/lastmile_qr_scan"}, "lon": -77.00735366666666, "type": "electric_scooter"}, {"bike_id": "b52e23a0a8f2228f38607f2fc4fdd25e", "is_reserved": 0, "fusion_lon": 0.0, "lat": 38.903752, "is_disabled": 0, "name": "b52e23a0a8f2228f38607f2fc4fdd25e", "fusion_lat": 0.0, "rental_uris": {"ios": "https://dc.lft.to/lastmile_qr_scan", "android": "https://dc.lft.to/lastmile_qr_scan"}, "lon": -77.043647, "type": "electric_scooter"}, {"bike_id": "6c246041fb530e88f6a8347ea621c179", "is_reserved": 0, "fusion_lon": 0.0, "lat": 38.97328733333333, "is_disabled": 0, "name": "6c246041fb530e88f6a8347ea621c179", "fusion_lat": 0.0, "rental_uris": {"ios": "https://dc.lft.to/lastmile_qr_scan", "android": "https://dc.lft.to/lastmile_qr_scan"}, "lon": -77.02152116666667, "type": "electric_bike"}, {"bike_id": "abd25585cf043ecfe41e133bf4d90577", "is_reserved": 0, "fusion_lon": 0.0, "lat": 38.928710333333335, "is_disabled": 0, "name": "abd25585cf043ecfe41e133bf4d90577", "fusion_lat": 0.0, "rental_uris": {"ios": "https://dc.lft.to/lastmile_qr_scan", "android": "https://dc.lft.to/lastmile_qr_scan"}, "lon": -77.02729883333333, "type": "electric_scooter"}, {"bike_id": "127a3d0dc6a4cfe7928328b9ba5ce243", "is_reserved": 0, "fusion_lon": 0.0, "lat": 38.926693, "is_disabled": 0, "name": "127a3d0dc6a4cfe7928328b9ba5ce243", "fusion_lat": 0.0, "rental_uris": {"ios": "https://dc.lft.to/lastmile_qr_scan", "android": "https://dc.lft.to/lastmile_qr_scan"}, "lon": -77.03119466666666, "type": "electric_scooter"}, {"bike_id": "c5dba5b73753d862bb9d31d5fd9bc3a2", "is_reserved": 0, "fusion_lon": 0.0, "lat": 38.91709133333333, "is_disabled": 0, "name": "c5dba5b73753d862bb9d31d5fd9bc3a2", "fusion_lat": 0.0, "rental_uris": {"ios": "https://dc.lft.to/lastmile_qr_scan", "android": "https://dc.lft.to/lastmile_qr_scan"}, "lon": -77.03005766666666, "type": "electric_scooter"}, {"bike_id": "1120e649eed5655a260adf24a57e66e2", "is_reserved": 0, "fusion_lon": 0.0, "lat": 38.896682, "is_disabled": 0, "name": "1120e649eed5655a260adf24a57e66e2", "fusion_lat": 0.0, "rental_uris": {"ios": "https://dc.lft.to/lastmile_qr_scan", "android": "https://dc.lft.to/lastmile_qr_scan"}, "lon": -77.011871, "type": "electric_scooter"}, {"bike_id": "58f8fd45cfed605bb06a7c315851c201", "is_reserved": 0, "fusion_lon": 0.0, "lat": 38.903239, "is_disabled": 0, "name": "58f8fd45cfed605bb06a7c315851c201", "fusion_lat": 0.0, "rental_uris": {"ios": "https://dc.lft.to/lastmile_qr_scan", "android": "https://dc.lft.to/lastmile_qr_scan"}, "lon": -77.03837433333334, "type": "electric_scooter"}, {"bike_id": "95e7d13a247873f63a71358f7c54801a", "is_reserved": 0, "fusion_lon": 0.0, "lat": 38.91107016666667, "is_disabled": 0, "name": "95e7d13a247873f63a71358f7c54801a", "fusion_lat": 0.0, "rental_uris": {"ios": "https://dc.lft.to/lastmile_qr_scan", "android": "https://dc.lft.to/lastmile_qr_scan"}, "lon": -77.003649, "type": "electric_scooter"}, {"bike_id": "164a80ac99100c270cfef89d74f811c7", "is_reserved": 0, "fusion_lon": 0.0, "lat": 38.95885466666667, "is_disabled": 0, "name": "164a80ac99100c270cfef89d74f811c7", "fusion_lat": 0.0, "rental_uris": {"ios": "https://dc.lft.to/lastmile_qr_scan", "android": "https://dc.lft.to/lastmile_qr_scan"}, "lon": -76.9247835, "type": "electric_bike"}, {"bike_id": "525aa0466c15003df53aad8c273037b1", "is_reserved": 0, "fusion_lon": 0.0, "lat": 38.900089, "is_disabled": 0, "name": "525aa0466c15003df53aad8c273037b1", "fusion_lat": 0.0, "rental_uris": {"ios": "https://dc.lft.to/lastmile_qr_scan", "android": "https://dc.lft.to/lastmile_qr_scan"}, "lon": -76.99791383333333, "type": "electric_scooter"}, {"bike_id": "499a115999f25834b375633bb4e4eee2", "is_reserved": 0, "fusion_lon": 0.0, "lat": 38.956361666666666, "is_disabled": 0, "name": "499a115999f25834b375633bb4e4eee2", "fusion_lat": 0.0, "rental_uris": {"ios": "https://dc.lft.to/lastmile_qr_scan", "android": "https://dc.lft.to/lastmile_qr_scan"}, "lon": -76.93890416666666, "type": "electric_bike"}, {"bike_id": "b3a74fbe05539955335b1c9c4dc21ccd", "is_reserved": 0, "fusion_lon": 0.0, "lat": 38.93447116666667, "is_disabled": 0, "name": "b3a74fbe05539955335b1c9c4dc21ccd", "fusion_lat": 0.0, "rental_uris": {"ios": "https://dc.lft.to/lastmile_qr_scan", "android": "https://dc.lft.to/lastmile_qr_scan"}, "lon": -77.028466, "type": "electric_scooter"}, {"bike_id": "a5e5f762628206e27d5a36d5ac6f37de", "is_reserved": 0, "fusion_lon": 0.0, "lat": 38.91843166666666, "is_disabled": 0, "name": "a5e5f762628206e27d5a36d5ac6f37de", "fusion_lat": 0.0, "rental_uris": {"ios": "https://dc.lft.to/lastmile_qr_scan", "android": "https://dc.lft.to/lastmile_qr_scan"}, "lon": -77.03902833333333, "type": "electric_scooter"}, {"bike_id": "01004372e9b584ec3c1119cd53f08356", "is_reserved": 0, "fusion_lon": 0.0, "lat": 38.897687166666664, "is_disabled": 0, "name": "01004372e9b584ec3c1119cd53f08356", "fusion_lat": 0.0, "rental_uris": {"ios": "https://dc.lft.to/lastmile_qr_scan", "android": "https://dc.lft.to/lastmile_qr_scan"}, "lon": -77.02680433333333, "type": "electric_scooter"}, {"bike_id": "472af69eac3fc1d621ba49db631f86fe", "is_reserved": 0, "fusion_lon": 0.0, "lat": 38.88503016666667, "is_disabled": 0, "name": "472af69eac3fc1d621ba49db631f86fe", "fusion_lat": 0.0, "rental_uris": {"ios": "https://dc.lft.to/lastmile_qr_scan", "android": "https://dc.lft.to/lastmile_qr_scan"}, "lon": -77.00566716666667, "type": "electric_scooter"}, {"bike_id": "74b5f8ead04c399727d3638b8a252878", "is_reserved": 0, "fusion_lon": 0.0, "lat": 38.91702866666667, "is_disabled": 0, "name": "74b5f8ead04c399727d3638b8a252878", "fusion_lat": 0.0, "rental_uris": {"ios": "https://dc.lft.to/lastmile_qr_scan", "android": "https://dc.lft.to/lastmile_qr_scan"}, "lon": -77.0229915, "type": "electric_scooter"}, {"bike_id": "56025204412245231ad0f5b249900ed4", "is_reserved": 0, "fusion_lon": 0.0, "lat": 38.92834766666667, "is_disabled": 0, "name": "56025204412245231ad0f5b249900ed4", "fusion_lat": 0.0, "rental_uris": {"ios": "https://dc.lft.to/lastmile_qr_scan", "android": "https://dc.lft.to/lastmile_qr_scan"}, "lon": -77.05517566666667, "type": "electric_scooter"}, {"bike_id": "4062e5eb3e655a13f658b9fbd14ca4a1", "is_reserved": 0, "fusion_lon": 0.0, "lat": 38.90963816666667, "is_disabled": 0, "name": "4062e5eb3e655a13f658b9fbd14ca4a1", "fusion_lat": 0.0, "rental_uris": {"ios": "https://dc.lft.to/lastmile_qr_scan", "android": "https://dc.lft.to/lastmile_qr_scan"}, "lon": -77.04459316666667, "type": "electric_scooter"}, {"bike_id": "210a9cafa22eb41f04c3239b1b7b7dd9", "is_reserved": 0, "fusion_lon": 0.0, "lat": 38.87176316666667, "is_disabled": 0, "name": "210a9cafa22eb41f04c3239b1b7b7dd9", "fusion_lat": 0.0, "rental_uris": {"ios": "https://dc.lft.to/lastmile_qr_scan", "android": "https://dc.lft.to/lastmile_qr_scan"}, "lon": -77.00626633333333, "type": "electric_scooter"}, {"bike_id": "5ce08be71cacc9fcae91e12c802da029", "is_reserved": 0, "fusion_lon": 0.0, "lat": 38.89529066666667, "is_disabled": 0, "name": "5ce08be71cacc9fcae91e12c802da029", "fusion_lat": 0.0, "rental_uris": {"ios": "https://dc.lft.to/lastmile_qr_scan", "android": "https://dc.lft.to/lastmile_qr_scan"}, "lon": -77.01215016666667, "type": "electric_bike"}, {"bike_id": "b64b17fa4439849c22564fff66b7bf1f", "is_reserved": 0, "fusion_lon": 0.0, "lat": 38.88033166666666, "is_disabled": 0, "name": "b64b17fa4439849c22564fff66b7bf1f", "fusion_lat": 0.0, "rental_uris": {"ios": "https://dc.lft.to/lastmile_qr_scan", "android": "https://dc.lft.to/lastmile_qr_scan"}, "lon": -77.02514683333334, "type": "electric_scooter"}, {"bike_id": "c42e80bcefe22e99827b9e181f17cf8f", "is_reserved": 0, "fusion_lon": 0.0, "lat": 38.88723916666667, "is_disabled": 0, "name": "c42e80bcefe22e99827b9e181f17cf8f", "fusion_lat": 0.0, "rental_uris": {"ios": "https://dc.lft.to/lastmile_qr_scan", "android": "https://dc.lft.to/lastmile_qr_scan"}, "lon": -77.032165, "type": "electric_scooter"}, {"bike_id": "b0d8abb78f9e339b96add7942a4371c5", "is_reserved": 0, "fusion_lon": 0.0, "lat": 38.86627466666667, "is_disabled": 0, "name": "b0d8abb78f9e339b96add7942a4371c5", "fusion_lat": 0.0, "rental_uris": {"ios": "https://dc.lft.to/lastmile_qr_scan", "android": "https://dc.lft.to/lastmile_qr_scan"}, "lon": -76.9871425, "type": "electric_scooter"}, {"bike_id": "821e26f649e7b5c3677a3a27a75fcddb", "is_reserved": 0, "fusion_lon": 0.0, "lat": 38.89008, "is_disabled": 0, "name": "821e26f649e7b5c3677a3a27a75fcddb", "fusion_lat": 0.0, "rental_uris": {"ios": "https://dc.lft.to/lastmile_qr_scan", "android": "https://dc.lft.to/lastmile_qr_scan"}, "lon": -76.93743716666667, "type": "electric_scooter"}, {"bike_id": "799f556b25af861f8f04233a298d777c", "is_reserved": 0, "fusion_lon": 0.0, "lat": 38.923416333333336, "is_disabled": 0, "name": "799f556b25af861f8f04233a298d777c", "fusion_lat": 0.0, "rental_uris": {"ios": "https://dc.lft.to/lastmile_qr_scan", "android": "https://dc.lft.to/lastmile_qr_scan"}, "lon": -77.034987, "type": "electric_scooter"}, {"bike_id": "1b53aa51bf70b49e567b9b8a2eb22467", "is_reserved": 0, "fusion_lon": 0.0, "lat": 38.92669033333333, "is_disabled": 0, "name": "1b53aa51bf70b49e567b9b8a2eb22467", "fusion_lat": 0.0, "rental_uris": {"ios": "https://dc.lft.to/lastmile_qr_scan", "android": "https://dc.lft.to/lastmile_qr_scan"}, "lon": -77.02834933333334, "type": "electric_scooter"}, {"bike_id": "f49c3f803fd81fddd98ac6ccb09f8980", "is_reserved": 0, "fusion_lon": 0.0, "lat": 38.897739666666666, "is_disabled": 0, "name": "f49c3f803fd81fddd98ac6ccb09f8980", "fusion_lat": 0.0, "rental_uris": {"ios": "https://dc.lft.to/lastmile_qr_scan", "android": "https://dc.lft.to/lastmile_qr_scan"}, "lon": -76.90439516666666, "type": "electric_bike"}, {"bike_id": "e63e4c4a665be17b3d95d60aee5a23e0", "is_reserved": 0, "fusion_lon": 0.0, "lat": 38.89632016666667, "is_disabled": 0, "name": "e63e4c4a665be17b3d95d60aee5a23e0", "fusion_lat": 0.0, "rental_uris": {"ios": "https://dc.lft.to/lastmile_qr_scan", "android": "https://dc.lft.to/lastmile_qr_scan"}, "lon": -77.00896933333334, "type": "electric_scooter"}, {"bike_id": "22c428fba9b07cc06ee2bd0ba7df2854", "is_reserved": 0, "fusion_lon": 0.0, "lat": 38.86723833333333, "is_disabled": 0, "name": "22c428fba9b07cc06ee2bd0ba7df2854", "fusion_lat": 0.0, "rental_uris": {"ios": "https://dc.lft.to/lastmile_qr_scan", "android": "https://dc.lft.to/lastmile_qr_scan"}, "lon": -76.98785516666666, "type": "electric_scooter"}, {"bike_id": "f31d9e2292d8a02b03dacedb8a9a2bb3", "is_reserved": 0, "fusion_lon": 0.0, "lat": 38.895287, "is_disabled": 0, "name": "f31d9e2292d8a02b03dacedb8a9a2bb3", "fusion_lat": 0.0, "rental_uris": {"ios": "https://dc.lft.to/lastmile_qr_scan", "android": "https://dc.lft.to/lastmile_qr_scan"}, "lon": -76.94892683333333, "type": "electric_scooter"}, {"bike_id": "b5c053c4a635b3f0b83aaea4a30d11f4", "is_reserved": 0, "fusion_lon": 0.0, "lat": 38.924065666666664, "is_disabled": 0, "name": "b5c053c4a635b3f0b83aaea4a30d11f4", "fusion_lat": 0.0, "rental_uris": {"ios": "https://dc.lft.to/lastmile_qr_scan", "android": "https://dc.lft.to/lastmile_qr_scan"}, "lon": -77.05264933333333, "type": "electric_scooter"}, {"bike_id": "4bdadcbc62e4298db55eec107212f374", "is_reserved": 0, "fusion_lon": 0.0, "lat": 38.92359283333333, "is_disabled": 0, "name": "4bdadcbc62e4298db55eec107212f374", "fusion_lat": 0.0, "rental_uris": {"ios": "https://dc.lft.to/lastmile_qr_scan", "android": "https://dc.lft.to/lastmile_qr_scan"}, "lon": -77.05225616666667, "type": "electric_scooter"}, {"bike_id": "4baa8a637f69a17a2f804f76ad502cc4", "is_reserved": 0, "fusion_lon": 0.0, "lat": 38.91718216666666, "is_disabled": 0, "name": "4baa8a637f69a17a2f804f76ad502cc4", "fusion_lat": 0.0, "rental_uris": {"ios": "https://dc.lft.to/lastmile_qr_scan", "android": "https://dc.lft.to/lastmile_qr_scan"}, "lon": -77.04026816666666, "type": "electric_scooter"}, {"bike_id": "776f3cb62b013b07e6e90e4aae6aa74c", "is_reserved": 0, "fusion_lon": 0.0, "lat": 38.94831633333333, "is_disabled": 0, "name": "776f3cb62b013b07e6e90e4aae6aa74c", "fusion_lat": 0.0, "rental_uris": {"ios": "https://dc.lft.to/lastmile_qr_scan", "android": "https://dc.lft.to/lastmile_qr_scan"}, "lon": -77.024208, "type": "electric_scooter"}, {"bike_id": "da810889179d8cb4fe306624f7fe9e36", "is_reserved": 0, "fusion_lon": 0.0, "lat": 38.92562816666667, "is_disabled": 0, "name": "da810889179d8cb4fe306624f7fe9e36", "fusion_lat": 0.0, "rental_uris": {"ios": "https://dc.lft.to/lastmile_qr_scan", "android": "https://dc.lft.to/lastmile_qr_scan"}, "lon": -77.04048616666667, "type": "electric_scooter"}, {"bike_id": "5d6fa7b0cddb38c9bc5d199b42f7d53a", "is_reserved": 0, "fusion_lon": 0.0, "lat": 38.898799833333335, "is_disabled": 0, "name": "5d6fa7b0cddb38c9bc5d199b42f7d53a", "fusion_lat": 0.0, "rental_uris": {"ios": "https://dc.lft.to/lastmile_qr_scan", "android": "https://dc.lft.to/lastmile_qr_scan"}, "lon": -76.93156466666667, "type": "electric_scooter"}, {"bike_id": "d46248e098148bacae8fd55f3a60896e", "is_reserved": 0, "fusion_lon": 0.0, "lat": 38.89959833333333, "is_disabled": 0, "name": "d46248e098148bacae8fd55f3a60896e", "fusion_lat": 0.0, "rental_uris": {"ios": "https://dc.lft.to/lastmile_qr_scan", "android": "https://dc.lft.to/lastmile_qr_scan"}, "lon": -77.0318035, "type": "electric_scooter"}, {"bike_id": "9c6f12c8995404e9f369edd52636ef61", "is_reserved": 0, "fusion_lon": 0.0, "lat": 38.902638, "is_disabled": 0, "name": "9c6f12c8995404e9f369edd52636ef61", "fusion_lat": 0.0, "rental_uris": {"ios": "https://dc.lft.to/lastmile_qr_scan", "android": "https://dc.lft.to/lastmile_qr_scan"}, "lon": -77.03003733333334, "type": "electric_scooter"}, {"bike_id": "1bbbcec240c359b720bfad18be508dd8", "is_reserved": 0, "fusion_lon": 0.0, "lat": 38.884169166666666, "is_disabled": 0, "name": "1bbbcec240c359b720bfad18be508dd8", "fusion_lat": 0.0, "rental_uris": {"ios": "https://dc.lft.to/lastmile_qr_scan", "android": "https://dc.lft.to/lastmile_qr_scan"}, "lon": -77.02397233333333, "type": "electric_scooter"}, {"bike_id": "378effc7d3d686b26915f1815f11a81a", "is_reserved": 0, "fusion_lon": 0.0, "lat": 38.82820433333333, "is_disabled": 0, "name": "378effc7d3d686b26915f1815f11a81a", "fusion_lat": 0.0, "rental_uris": {"ios": "https://dc.lft.to/lastmile_qr_scan", "android": "https://dc.lft.to/lastmile_qr_scan"}, "lon": -77.08954933333334, "type": "electric_bike"}, {"bike_id": "1404ce3b2c3c63dd87b7039c455b1a74", "is_reserved": 0, "fusion_lon": 0.0, "lat": 38.899106, "is_disabled": 0, "name": "1404ce3b2c3c63dd87b7039c455b1a74", "fusion_lat": 0.0, "rental_uris": {"ios": "https://dc.lft.to/lastmile_qr_scan", "android": "https://dc.lft.to/lastmile_qr_scan"}, "lon": -77.0395925, "type": "electric_scooter"}, {"bike_id": "b16aeab45fd13b5dd881f7c727debd38", "is_reserved": 0, "fusion_lon": 0.0, "lat": 38.92854883333333, "is_disabled": 0, "name": "b16aeab45fd13b5dd881f7c727debd38", "fusion_lat": 0.0, "rental_uris": {"ios": "https://dc.lft.to/lastmile_qr_scan", "android": "https://dc.lft.to/lastmile_qr_scan"}, "lon": -77.106774, "type": "electric_bike"}, {"bike_id": "0d2c850d72a34bacac35e20f27018be7", "is_reserved": 0, "fusion_lon": 0.0, "lat": 38.90378583333333, "is_disabled": 0, "name": "0d2c850d72a34bacac35e20f27018be7", "fusion_lat": 0.0, "rental_uris": {"ios": "https://dc.lft.to/lastmile_qr_scan", "android": "https://dc.lft.to/lastmile_qr_scan"}, "lon": -77.05001366666667, "type": "electric_scooter"}, {"bike_id": "aa0c11584f321a9b13a7a87f5fe558ea", "is_reserved": 0, "fusion_lon": 0.0, "lat": 38.90012216666667, "is_disabled": 0, "name": "aa0c11584f321a9b13a7a87f5fe558ea", "fusion_lat": 0.0, "rental_uris": {"ios": "https://dc.lft.to/lastmile_qr_scan", "android": "https://dc.lft.to/lastmile_qr_scan"}, "lon": -77.04657683333333, "type": "electric_scooter"}, {"bike_id": "af460ed7354ea5298d568488f9c6b95f", "is_reserved": 0, "fusion_lon": 0.0, "lat": 38.8922235, "is_disabled": 0, "name": "af460ed7354ea5298d568488f9c6b95f", "fusion_lat": 0.0, "rental_uris": {"ios": "https://dc.lft.to/lastmile_qr_scan", "android": "https://dc.lft.to/lastmile_qr_scan"}, "lon": -77.04363333333333, "type": "electric_scooter"}, {"bike_id": "79ffbbdb4b0198a8678c36a8804cb039", "is_reserved": 0, "fusion_lon": 0.0, "lat": 38.88241466666667, "is_disabled": 0, "name": "79ffbbdb4b0198a8678c36a8804cb039", "fusion_lat": 0.0, "rental_uris": {"ios": "https://dc.lft.to/lastmile_qr_scan", "android": "https://dc.lft.to/lastmile_qr_scan"}, "lon": -76.99001916666667, "type": "electric_scooter"}, {"bike_id": "4c6272f25b2e7ef9903880e153f88a97", "is_reserved": 0, "fusion_lon": 0.0, "lat": 38.898331166666665, "is_disabled": 0, "name": "4c6272f25b2e7ef9903880e153f88a97", "fusion_lat": 0.0, "rental_uris": {"ios": "https://dc.lft.to/lastmile_qr_scan", "android": "https://dc.lft.to/lastmile_qr_scan"}, "lon": -76.94635583333333, "type": "electric_scooter"}, {"bike_id": "78fb0953465be5883bfd7df1b2e6c266", "is_reserved": 0, "fusion_lon": 0.0, "lat": 38.84426466666667, "is_disabled": 0, "name": "78fb0953465be5883bfd7df1b2e6c266", "fusion_lat": 0.0, "rental_uris": {"ios": "https://dc.lft.to/lastmile_qr_scan", "android": "https://dc.lft.to/lastmile_qr_scan"}, "lon": -76.99778583333334, "type": "electric_scooter"}, {"bike_id": "7a4f83077b0b972e7049fa6089715c73", "is_reserved": 0, "fusion_lon": 0.0, "lat": 38.912552833333336, "is_disabled": 0, "name": "7a4f83077b0b972e7049fa6089715c73", "fusion_lat": 0.0, "rental_uris": {"ios": "https://dc.lft.to/lastmile_qr_scan", "android": "https://dc.lft.to/lastmile_qr_scan"}, "lon": -77.0144275, "type": "electric_scooter"}, {"bike_id": "3baa2460d963bd4c97f351fe4ea93f28", "is_reserved": 0, "fusion_lon": 0.0, "lat": 38.865634666666665, "is_disabled": 0, "name": "3baa2460d963bd4c97f351fe4ea93f28", "fusion_lat": 0.0, "rental_uris": {"ios": "https://dc.lft.to/lastmile_qr_scan", "android": "https://dc.lft.to/lastmile_qr_scan"}, "lon": -76.989534, "type": "electric_scooter"}, {"bike_id": "5f11bb196b6121b69914b810332516eb", "is_reserved": 0, "fusion_lon": 0.0, "lat": 38.9074715, "is_disabled": 0, "name": "5f11bb196b6121b69914b810332516eb", "fusion_lat": 0.0, "rental_uris": {"ios": "https://dc.lft.to/lastmile_qr_scan", "android": "https://dc.lft.to/lastmile_qr_scan"}, "lon": -77.0347035, "type": "electric_scooter"}, {"bike_id": "1f25f35c1b4187ed1c2e9846acaf089d", "is_reserved": 0, "fusion_lon": 0.0, "lat": 38.901297166666666, "is_disabled": 0, "name": "1f25f35c1b4187ed1c2e9846acaf089d", "fusion_lat": 0.0, "rental_uris": {"ios": "https://dc.lft.to/lastmile_qr_scan", "android": "https://dc.lft.to/lastmile_qr_scan"}, "lon": -77.0196775, "type": "electric_scooter"}, {"bike_id": "d01cf35dcecbbe980e39be7a850f622c", "is_reserved": 0, "fusion_lon": 0.0, "lat": 38.9732615, "is_disabled": 0, "name": "d01cf35dcecbbe980e39be7a850f622c", "fusion_lat": 0.0, "rental_uris": {"ios": "https://dc.lft.to/lastmile_qr_scan", "android": "https://dc.lft.to/lastmile_qr_scan"}, "lon": -77.021482, "type": "electric_bike"}, {"bike_id": "caff4473b38247564bbb23fcaea54ea7", "is_reserved": 0, "fusion_lon": 0.0, "lat": 38.8982705, "is_disabled": 0, "name": "caff4473b38247564bbb23fcaea54ea7", "fusion_lat": 0.0, "rental_uris": {"ios": "https://dc.lft.to/lastmile_qr_scan", "android": "https://dc.lft.to/lastmile_qr_scan"}, "lon": -77.033423, "type": "electric_scooter"}, {"bike_id": "60de359aa773b610e46a601638757c44", "is_reserved": 0, "fusion_lon": 0.0, "lat": 38.905968, "is_disabled": 0, "name": "60de359aa773b610e46a601638757c44", "fusion_lat": 0.0, "rental_uris": {"ios": "https://dc.lft.to/lastmile_qr_scan", "android": "https://dc.lft.to/lastmile_qr_scan"}, "lon": -77.06301633333334, "type": "electric_scooter"}, {"bike_id": "3082130449029da9ed24d6a16eab8a69", "is_reserved": 0, "fusion_lon": 0.0, "lat": 38.913929833333334, "is_disabled": 0, "name": "3082130449029da9ed24d6a16eab8a69", "fusion_lat": 0.0, "rental_uris": {"ios": "https://dc.lft.to/lastmile_qr_scan", "android": "https://dc.lft.to/lastmile_qr_scan"}, "lon": -77.01701183333333, "type": "electric_scooter"}, {"bike_id": "c790536a36a6d41bfa299ee885d3cf4c", "is_reserved": 0, "fusion_lon": 0.0, "lat": 38.892245833333334, "is_disabled": 0, "name": "c790536a36a6d41bfa299ee885d3cf4c", "fusion_lat": 0.0, "rental_uris": {"ios": "https://dc.lft.to/lastmile_qr_scan", "android": "https://dc.lft.to/lastmile_qr_scan"}, "lon": -77.04505483333334, "type": "electric_scooter"}, {"bike_id": "845874701576a50736cbfda183e7a2a7", "is_reserved": 0, "fusion_lon": 0.0, "lat": 38.897328, "is_disabled": 0, "name": "845874701576a50736cbfda183e7a2a7", "fusion_lat": 0.0, "rental_uris": {"ios": "https://dc.lft.to/lastmile_qr_scan", "android": "https://dc.lft.to/lastmile_qr_scan"}, "lon": -77.026978, "type": "electric_scooter"}, {"bike_id": "1ebed7ae9ef6a71ecdce7f3848a2c0a9", "is_reserved": 0, "fusion_lon": 0.0, "lat": 38.945544, "is_disabled": 0, "name": "1ebed7ae9ef6a71ecdce7f3848a2c0a9", "fusion_lat": 0.0, "rental_uris": {"ios": "https://dc.lft.to/lastmile_qr_scan", "android": "https://dc.lft.to/lastmile_qr_scan"}, "lon": -76.8953815, "type": "electric_bike"}, {"bike_id": "d15bb080b2f60023e0a78018f4bc65d2", "is_reserved": 0, "fusion_lon": 0.0, "lat": 38.927353, "is_disabled": 0, "name": "d15bb080b2f60023e0a78018f4bc65d2", "fusion_lat": 0.0, "rental_uris": {"ios": "https://dc.lft.to/lastmile_qr_scan", "android": "https://dc.lft.to/lastmile_qr_scan"}, "lon": -77.0342825, "type": "electric_scooter"}, {"bike_id": "ad77228ec0944e35c5643e5f8bc24cd0", "is_reserved": 0, "fusion_lon": 0.0, "lat": 38.917035166666665, "is_disabled": 0, "name": "ad77228ec0944e35c5643e5f8bc24cd0", "fusion_lat": 0.0, "rental_uris": {"ios": "https://dc.lft.to/lastmile_qr_scan", "android": "https://dc.lft.to/lastmile_qr_scan"}, "lon": -77.02242433333333, "type": "electric_scooter"}, {"bike_id": "733e38ea23613d2484fa6a6b9aff861f", "is_reserved": 0, "fusion_lon": 0.0, "lat": 38.861769833333334, "is_disabled": 0, "name": "733e38ea23613d2484fa6a6b9aff861f", "fusion_lat": 0.0, "rental_uris": {"ios": "https://dc.lft.to/lastmile_qr_scan", "android": "https://dc.lft.to/lastmile_qr_scan"}, "lon": -76.96907366666667, "type": "electric_scooter"}, {"bike_id": "94d84c5653bdda6799702c6f0b8e9e67", "is_reserved": 0, "fusion_lon": 0.0, "lat": 38.92258866666667, "is_disabled": 0, "name": "94d84c5653bdda6799702c6f0b8e9e67", "fusion_lat": 0.0, "rental_uris": {"ios": "https://dc.lft.to/lastmile_qr_scan", "android": "https://dc.lft.to/lastmile_qr_scan"}, "lon": -77.029767, "type": "electric_scooter"}, {"bike_id": "43fe1fdffe2d2826962230810a4a06cd", "is_reserved": 0, "fusion_lon": 0.0, "lat": 38.9285135, "is_disabled": 0, "name": "43fe1fdffe2d2826962230810a4a06cd", "fusion_lat": 0.0, "rental_uris": {"ios": "https://dc.lft.to/lastmile_qr_scan", "android": "https://dc.lft.to/lastmile_qr_scan"}, "lon": -77.05426433333334, "type": "electric_scooter"}, {"bike_id": "7364498dcc83dbfa0138f459c1a0851b", "is_reserved": 0, "fusion_lon": 0.0, "lat": 38.896104333333334, "is_disabled": 0, "name": "7364498dcc83dbfa0138f459c1a0851b", "fusion_lat": 0.0, "rental_uris": {"ios": "https://dc.lft.to/lastmile_qr_scan", "android": "https://dc.lft.to/lastmile_qr_scan"}, "lon": -77.0459295, "type": "electric_scooter"}, {"bike_id": "ec125289e01e14ca058349703df889fc", "is_reserved": 0, "fusion_lon": 0.0, "lat": 38.923212, "is_disabled": 0, "name": "ec125289e01e14ca058349703df889fc", "fusion_lat": 0.0, "rental_uris": {"ios": "https://dc.lft.to/lastmile_qr_scan", "android": "https://dc.lft.to/lastmile_qr_scan"}, "lon": -77.0448675, "type": "electric_scooter"}, {"bike_id": "83a6694fa2caa7a380b0806a9171ead9", "is_reserved": 0, "fusion_lon": 0.0, "lat": 38.86168033333333, "is_disabled": 0, "name": "83a6694fa2caa7a380b0806a9171ead9", "fusion_lat": 0.0, "rental_uris": {"ios": "https://dc.lft.to/lastmile_qr_scan", "android": "https://dc.lft.to/lastmile_qr_scan"}, "lon": -76.95065916666667, "type": "electric_bike"}, {"bike_id": "dad3f17ec5f0c7c9825ca9192d9783da", "is_reserved": 0, "fusion_lon": 0.0, "lat": 38.92335766666667, "is_disabled": 0, "name": "dad3f17ec5f0c7c9825ca9192d9783da", "fusion_lat": 0.0, "rental_uris": {"ios": "https://dc.lft.to/lastmile_qr_scan", "android": "https://dc.lft.to/lastmile_qr_scan"}, "lon": -77.0389825, "type": "electric_scooter"}, {"bike_id": "0bf11a97e0e73f96e3c9e168b787568c", "is_reserved": 0, "fusion_lon": 0.0, "lat": 38.903018, "is_disabled": 0, "name": "0bf11a97e0e73f96e3c9e168b787568c", "fusion_lat": 0.0, "rental_uris": {"ios": "https://dc.lft.to/lastmile_qr_scan", "android": "https://dc.lft.to/lastmile_qr_scan"}, "lon": -77.04352333333334, "type": "electric_scooter"}, {"bike_id": "20caad2a4badb812dbc0050e8e7ae8e8", "is_reserved": 0, "fusion_lon": 0.0, "lat": 38.921824, "is_disabled": 0, "name": "20caad2a4badb812dbc0050e8e7ae8e8", "fusion_lat": 0.0, "rental_uris": {"ios": "https://dc.lft.to/lastmile_qr_scan", "android": "https://dc.lft.to/lastmile_qr_scan"}, "lon": -77.0413755, "type": "electric_scooter"}, {"bike_id": "dc178c6b8447c72211fa1639ad24b9f2", "is_reserved": 0, "fusion_lon": 0.0, "lat": 38.8955945, "is_disabled": 0, "name": "dc178c6b8447c72211fa1639ad24b9f2", "fusion_lat": 0.0, "rental_uris": {"ios": "https://dc.lft.to/lastmile_qr_scan", "android": "https://dc.lft.to/lastmile_qr_scan"}, "lon": -77.04674133333333, "type": "electric_scooter"}, {"bike_id": "1bf5d6807adff4303e16a23ad0f9b76f", "is_reserved": 0, "fusion_lon": 0.0, "lat": 38.901274666666666, "is_disabled": 0, "name": "1bf5d6807adff4303e16a23ad0f9b76f", "fusion_lat": 0.0, "rental_uris": {"ios": "https://dc.lft.to/lastmile_qr_scan", "android": "https://dc.lft.to/lastmile_qr_scan"}, "lon": -77.044726, "type": "electric_scooter"}, {"bike_id": "cb22a07825c23105253e17d73b66fb8c", "is_reserved": 0, "fusion_lon": 0.0, "lat": 38.9045445, "is_disabled": 0, "name": "cb22a07825c23105253e17d73b66fb8c", "fusion_lat": 0.0, "rental_uris": {"ios": "https://dc.lft.to/lastmile_qr_scan", "android": "https://dc.lft.to/lastmile_qr_scan"}, "lon": -77.05327, "type": "electric_scooter"}, {"bike_id": "a02879dbbc74057b451664f59b49bf1c", "is_reserved": 0, "fusion_lon": 0.0, "lat": 38.88573516666666, "is_disabled": 0, "name": "a02879dbbc74057b451664f59b49bf1c", "fusion_lat": 0.0, "rental_uris": {"ios": "https://dc.lft.to/lastmile_qr_scan", "android": "https://dc.lft.to/lastmile_qr_scan"}, "lon": -77.01543066666666, "type": "electric_scooter"}, {"bike_id": "0c1cbe7da5e0896f4cbd7291bd2a562c", "is_reserved": 0, "fusion_lon": 0.0, "lat": 38.898017833333334, "is_disabled": 0, "name": "0c1cbe7da5e0896f4cbd7291bd2a562c", "fusion_lat": 0.0, "rental_uris": {"ios": "https://dc.lft.to/lastmile_qr_scan", "android": "https://dc.lft.to/lastmile_qr_scan"}, "lon": -77.0295185, "type": "electric_scooter"}, {"bike_id": "f7441baa30bbc59271474888a1553c33", "is_reserved": 0, "fusion_lon": 0.0, "lat": 38.925813833333336, "is_disabled": 0, "name": "f7441baa30bbc59271474888a1553c33", "fusion_lat": 0.0, "rental_uris": {"ios": "https://dc.lft.to/lastmile_qr_scan", "android": "https://dc.lft.to/lastmile_qr_scan"}, "lon": -77.03921383333333, "type": "electric_scooter"}, {"bike_id": "a7380d7277973f33fbe364e577245f47", "is_reserved": 0, "fusion_lon": 0.0, "lat": 38.915994166666664, "is_disabled": 0, "name": "a7380d7277973f33fbe364e577245f47", "fusion_lat": 0.0, "rental_uris": {"ios": "https://dc.lft.to/lastmile_qr_scan", "android": "https://dc.lft.to/lastmile_qr_scan"}, "lon": -76.98377233333333, "type": "electric_scooter"}, {"bike_id": "0196c864462e9608029fa34c4e9cd291", "is_reserved": 0, "fusion_lon": 0.0, "lat": 38.89859333333333, "is_disabled": 0, "name": "0196c864462e9608029fa34c4e9cd291", "fusion_lat": 0.0, "rental_uris": {"ios": "https://dc.lft.to/lastmile_qr_scan", "android": "https://dc.lft.to/lastmile_qr_scan"}, "lon": -77.0327195, "type": "electric_scooter"}, {"bike_id": "b251a04cda6a02e697868e99be8ea542", "is_reserved": 0, "fusion_lon": 0.0, "lat": 38.8976475, "is_disabled": 0, "name": "b251a04cda6a02e697868e99be8ea542", "fusion_lat": 0.0, "rental_uris": {"ios": "https://dc.lft.to/lastmile_qr_scan", "android": "https://dc.lft.to/lastmile_qr_scan"}, "lon": -77.03020766666667, "type": "electric_scooter"}, {"bike_id": "f38ab4067cd6b919c764a04d89dabaa2", "is_reserved": 0, "fusion_lon": 0.0, "lat": 38.92569483333333, "is_disabled": 0, "name": "f38ab4067cd6b919c764a04d89dabaa2", "fusion_lat": 0.0, "rental_uris": {"ios": "https://dc.lft.to/lastmile_qr_scan", "android": "https://dc.lft.to/lastmile_qr_scan"}, "lon": -77.03902833333333, "type": "electric_scooter"}, {"bike_id": "39872fe312e2d30bdfe76a9a863110e2", "is_reserved": 0, "fusion_lon": 0.0, "lat": 38.902748833333334, "is_disabled": 0, "name": "39872fe312e2d30bdfe76a9a863110e2", "fusion_lat": 0.0, "rental_uris": {"ios": "https://dc.lft.to/lastmile_qr_scan", "android": "https://dc.lft.to/lastmile_qr_scan"}, "lon": -77.03933666666667, "type": "electric_scooter"}, {"bike_id": "8866b871eeaac95b61f177441959afe7", "is_reserved": 0, "fusion_lon": 0.0, "lat": 38.883091666666665, "is_disabled": 0, "name": "8866b871eeaac95b61f177441959afe7", "fusion_lat": 0.0, "rental_uris": {"ios": "https://dc.lft.to/lastmile_qr_scan", "android": "https://dc.lft.to/lastmile_qr_scan"}, "lon": -77.0175715, "type": "electric_scooter"}, {"bike_id": "6666ac616364cd79166b596c88a037c9", "is_reserved": 0, "fusion_lon": 0.0, "lat": 38.91716866666667, "is_disabled": 0, "name": "6666ac616364cd79166b596c88a037c9", "fusion_lat": 0.0, "rental_uris": {"ios": "https://dc.lft.to/lastmile_qr_scan", "android": "https://dc.lft.to/lastmile_qr_scan"}, "lon": -77.03108283333333, "type": "electric_scooter"}, {"bike_id": "a4ca9c3bc1d8ca2da9a0da4f30cbdc52", "is_reserved": 0, "fusion_lon": 0.0, "lat": 38.920100833333336, "is_disabled": 0, "name": "a4ca9c3bc1d8ca2da9a0da4f30cbdc52", "fusion_lat": 0.0, "rental_uris": {"ios": "https://dc.lft.to/lastmile_qr_scan", "android": "https://dc.lft.to/lastmile_qr_scan"}, "lon": -77.03781683333334, "type": "electric_scooter"}, {"bike_id": "f0d731ba5b839e6e08cd71e3ac06838f", "is_reserved": 0, "fusion_lon": 0.0, "lat": 38.90437516666667, "is_disabled": 0, "name": "f0d731ba5b839e6e08cd71e3ac06838f", "fusion_lat": 0.0, "rental_uris": {"ios": "https://dc.lft.to/lastmile_qr_scan", "android": "https://dc.lft.to/lastmile_qr_scan"}, "lon": -77.029012, "type": "electric_scooter"}, {"bike_id": "b961c2ac8978e3d74621a3248e4061f0", "is_reserved": 0, "fusion_lon": 0.0, "lat": 38.934618, "is_disabled": 0, "name": "b961c2ac8978e3d74621a3248e4061f0", "fusion_lat": 0.0, "rental_uris": {"ios": "https://dc.lft.to/lastmile_qr_scan", "android": "https://dc.lft.to/lastmile_qr_scan"}, "lon": -77.07241216666667, "type": "electric_scooter"}, {"bike_id": "91b98c7b43d8552298d7c918ae240da8", "is_reserved": 0, "fusion_lon": 0.0, "lat": 38.896291, "is_disabled": 0, "name": "91b98c7b43d8552298d7c918ae240da8", "fusion_lat": 0.0, "rental_uris": {"ios": "https://dc.lft.to/lastmile_qr_scan", "android": "https://dc.lft.to/lastmile_qr_scan"}, "lon": -77.03228166666666, "type": "electric_scooter"}, {"bike_id": "c15205f1bd9a126da299a1739bd02726", "is_reserved": 0, "fusion_lon": 0.0, "lat": 38.917122, "is_disabled": 0, "name": "c15205f1bd9a126da299a1739bd02726", "fusion_lat": 0.0, "rental_uris": {"ios": "https://dc.lft.to/lastmile_qr_scan", "android": "https://dc.lft.to/lastmile_qr_scan"}, "lon": -77.03221166666667, "type": "electric_scooter"}, {"bike_id": "e671e14d693b61c99668dbd9fc5731d9", "is_reserved": 0, "fusion_lon": 0.0, "lat": 38.905038833333336, "is_disabled": 0, "name": "e671e14d693b61c99668dbd9fc5731d9", "fusion_lat": 0.0, "rental_uris": {"ios": "https://dc.lft.to/lastmile_qr_scan", "android": "https://dc.lft.to/lastmile_qr_scan"}, "lon": -77.05016883333333, "type": "electric_scooter"}, {"bike_id": "b19e3b73280cb632789f7429cfe18390", "is_reserved": 0, "fusion_lon": 0.0, "lat": 38.90464716666666, "is_disabled": 0, "name": "b19e3b73280cb632789f7429cfe18390", "fusion_lat": 0.0, "rental_uris": {"ios": "https://dc.lft.to/lastmile_qr_scan", "android": "https://dc.lft.to/lastmile_qr_scan"}, "lon": -76.99504933333333, "type": "electric_scooter"}, {"bike_id": "7c9a1bb24f79475debb37c7a1770b8ce", "is_reserved": 0, "fusion_lon": 0.0, "lat": 38.8960555, "is_disabled": 0, "name": "7c9a1bb24f79475debb37c7a1770b8ce", "fusion_lat": 0.0, "rental_uris": {"ios": "https://dc.lft.to/lastmile_qr_scan", "android": "https://dc.lft.to/lastmile_qr_scan"}, "lon": -77.04505883333333, "type": "electric_scooter"}, {"bike_id": "6473ade86588aa9751772762d0553042", "is_reserved": 0, "fusion_lon": 0.0, "lat": 38.86960466666667, "is_disabled": 0, "name": "6473ade86588aa9751772762d0553042", "fusion_lat": 0.0, "rental_uris": {"ios": "https://dc.lft.to/lastmile_qr_scan", "android": "https://dc.lft.to/lastmile_qr_scan"}, "lon": -77.01375133333333, "type": "electric_scooter"}, {"bike_id": "5039d0bfaf4129ac06af377e6cc468bd", "is_reserved": 0, "fusion_lon": 0.0, "lat": 38.893021166666664, "is_disabled": 0, "name": "5039d0bfaf4129ac06af377e6cc468bd", "fusion_lat": 0.0, "rental_uris": {"ios": "https://dc.lft.to/lastmile_qr_scan", "android": "https://dc.lft.to/lastmile_qr_scan"}, "lon": -77.01240166666666, "type": "electric_scooter"}, {"bike_id": "7336bdca3c15654c9f2da098269f328e", "is_reserved": 0, "fusion_lon": 0.0, "lat": 38.96824483333333, "is_disabled": 0, "name": "7336bdca3c15654c9f2da098269f328e", "fusion_lat": 0.0, "rental_uris": {"ios": "https://dc.lft.to/lastmile_qr_scan", "android": "https://dc.lft.to/lastmile_qr_scan"}, "lon": -77.0178775, "type": "electric_scooter"}, {"bike_id": "e7167908356aa2a4b69fd1b9cdcbe087", "is_reserved": 0, "fusion_lon": 0.0, "lat": 38.901369, "is_disabled": 0, "name": "e7167908356aa2a4b69fd1b9cdcbe087", "fusion_lat": 0.0, "rental_uris": {"ios": "https://dc.lft.to/lastmile_qr_scan", "android": "https://dc.lft.to/lastmile_qr_scan"}, "lon": -77.02820766666666, "type": "electric_scooter"}, {"bike_id": "bd8e9cee90f8f144d3b68bbc933dad8b", "is_reserved": 0, "fusion_lon": 0.0, "lat": 38.90100833333333, "is_disabled": 0, "name": "bd8e9cee90f8f144d3b68bbc933dad8b", "fusion_lat": 0.0, "rental_uris": {"ios": "https://dc.lft.to/lastmile_qr_scan", "android": "https://dc.lft.to/lastmile_qr_scan"}, "lon": -77.050373, "type": "electric_scooter"}, {"bike_id": "4dd4021781eb87ffd2a6a9786fd695c7", "is_reserved": 0, "fusion_lon": 0.0, "lat": 38.866576, "is_disabled": 0, "name": "4dd4021781eb87ffd2a6a9786fd695c7", "fusion_lat": 0.0, "rental_uris": {"ios": "https://dc.lft.to/lastmile_qr_scan", "android": "https://dc.lft.to/lastmile_qr_scan"}, "lon": -76.9901715, "type": "electric_scooter"}, {"bike_id": "dcc9c9e45f420b1906fd9ca93157c0b1", "is_reserved": 0, "fusion_lon": 0.0, "lat": 38.881334, "is_disabled": 0, "name": "dcc9c9e45f420b1906fd9ca93157c0b1", "fusion_lat": 0.0, "rental_uris": {"ios": "https://dc.lft.to/lastmile_qr_scan", "android": "https://dc.lft.to/lastmile_qr_scan"}, "lon": -76.98092133333333, "type": "electric_bike"}, {"bike_id": "c1be38d3364778f1f5f154c8e7c84442", "is_reserved": 0, "fusion_lon": 0.0, "lat": 38.898394833333334, "is_disabled": 0, "name": "c1be38d3364778f1f5f154c8e7c84442", "fusion_lat": 0.0, "rental_uris": {"ios": "https://dc.lft.to/lastmile_qr_scan", "android": "https://dc.lft.to/lastmile_qr_scan"}, "lon": -77.02470733333334, "type": "electric_bike"}, {"bike_id": "f2c645779a7f2dbbc1d784b6be7da8d4", "is_reserved": 0, "fusion_lon": 0.0, "lat": 38.90277283333333, "is_disabled": 0, "name": "f2c645779a7f2dbbc1d784b6be7da8d4", "fusion_lat": 0.0, "rental_uris": {"ios": "https://dc.lft.to/lastmile_qr_scan", "android": "https://dc.lft.to/lastmile_qr_scan"}, "lon": -77.039351, "type": "electric_scooter"}, {"bike_id": "9e926378191593ab4622bb9fbccac971", "is_reserved": 0, "fusion_lon": 0.0, "lat": 38.93079083333333, "is_disabled": 0, "name": "9e926378191593ab4622bb9fbccac971", "fusion_lat": 0.0, "rental_uris": {"ios": "https://dc.lft.to/lastmile_qr_scan", "android": "https://dc.lft.to/lastmile_qr_scan"}, "lon": -77.02797333333334, "type": "electric_scooter"}, {"bike_id": "e813567bbde7961cf0881c1e70135a08", "is_reserved": 0, "fusion_lon": 0.0, "lat": 38.903670166666664, "is_disabled": 0, "name": "e813567bbde7961cf0881c1e70135a08", "fusion_lat": 0.0, "rental_uris": {"ios": "https://dc.lft.to/lastmile_qr_scan", "android": "https://dc.lft.to/lastmile_qr_scan"}, "lon": -77.0294045, "type": "electric_scooter"}, {"bike_id": "6aa5dbd3337f000e88507896f8b73afd", "is_reserved": 0, "fusion_lon": 0.0, "lat": 38.901190166666666, "is_disabled": 0, "name": "6aa5dbd3337f000e88507896f8b73afd", "fusion_lat": 0.0, "rental_uris": {"ios": "https://dc.lft.to/lastmile_qr_scan", "android": "https://dc.lft.to/lastmile_qr_scan"}, "lon": -77.02792083333334, "type": "electric_scooter"}, {"bike_id": "026f4bcbbc5e3500c86589572d61c91f", "is_reserved": 0, "fusion_lon": 0.0, "lat": 38.90059016666667, "is_disabled": 0, "name": "026f4bcbbc5e3500c86589572d61c91f", "fusion_lat": 0.0, "rental_uris": {"ios": "https://dc.lft.to/lastmile_qr_scan", "android": "https://dc.lft.to/lastmile_qr_scan"}, "lon": -77.02718816666666, "type": "electric_scooter"}, {"bike_id": "20638b830cd3763844df12a64a411bb4", "is_reserved": 0, "fusion_lon": 0.0, "lat": 38.8398685, "is_disabled": 0, "name": "20638b830cd3763844df12a64a411bb4", "fusion_lat": 0.0, "rental_uris": {"ios": "https://dc.lft.to/lastmile_qr_scan", "android": "https://dc.lft.to/lastmile_qr_scan"}, "lon": -77.00565816666666, "type": "electric_bike"}, {"bike_id": "62a9def3b801100174770a8d790668c7", "is_reserved": 0, "fusion_lon": 0.0, "lat": 38.93860633333333, "is_disabled": 0, "name": "62a9def3b801100174770a8d790668c7", "fusion_lat": 0.0, "rental_uris": {"ios": "https://dc.lft.to/lastmile_qr_scan", "android": "https://dc.lft.to/lastmile_qr_scan"}, "lon": -77.02457716666666, "type": "electric_scooter"}, {"bike_id": "fee8504f03de342bd221746b00bec528", "is_reserved": 0, "fusion_lon": 0.0, "lat": 38.900636166666665, "is_disabled": 0, "name": "fee8504f03de342bd221746b00bec528", "fusion_lat": 0.0, "rental_uris": {"ios": "https://dc.lft.to/lastmile_qr_scan", "android": "https://dc.lft.to/lastmile_qr_scan"}, "lon": -77.0515185, "type": "electric_scooter"}, {"bike_id": "9c23887a7e07db52331ab5f88ad00fd9", "is_reserved": 0, "fusion_lon": 0.0, "lat": 38.8948435, "is_disabled": 0, "name": "9c23887a7e07db52331ab5f88ad00fd9", "fusion_lat": 0.0, "rental_uris": {"ios": "https://dc.lft.to/lastmile_qr_scan", "android": "https://dc.lft.to/lastmile_qr_scan"}, "lon": -77.02288266666666, "type": "electric_scooter"}, {"bike_id": "3469d00ded0c9b938ee89cf2f27fa942", "is_reserved": 0, "fusion_lon": 0.0, "lat": 38.9051625, "is_disabled": 0, "name": "3469d00ded0c9b938ee89cf2f27fa942", "fusion_lat": 0.0, "rental_uris": {"ios": "https://dc.lft.to/lastmile_qr_scan", "android": "https://dc.lft.to/lastmile_qr_scan"}, "lon": -77.06748633333333, "type": "electric_scooter"}, {"bike_id": "8c0922de9337a948c20c78667b8cd984", "is_reserved": 0, "fusion_lon": 0.0, "lat": 38.917226166666666, "is_disabled": 0, "name": "8c0922de9337a948c20c78667b8cd984", "fusion_lat": 0.0, "rental_uris": {"ios": "https://dc.lft.to/lastmile_qr_scan", "android": "https://dc.lft.to/lastmile_qr_scan"}, "lon": -76.978704, "type": "electric_scooter"}, {"bike_id": "3059e8222c3ba5f3657d3c5cdcb6976c", "is_reserved": 0, "fusion_lon": 0.0, "lat": 38.9002785, "is_disabled": 0, "name": "3059e8222c3ba5f3657d3c5cdcb6976c", "fusion_lat": 0.0, "rental_uris": {"ios": "https://dc.lft.to/lastmile_qr_scan", "android": "https://dc.lft.to/lastmile_qr_scan"}, "lon": -77.04672166666667, "type": "electric_scooter"}, {"bike_id": "5cb41cd1cc7f9f224d63047b60bda2c5", "is_reserved": 0, "fusion_lon": 0.0, "lat": 38.887740666666666, "is_disabled": 0, "name": "5cb41cd1cc7f9f224d63047b60bda2c5", "fusion_lat": 0.0, "rental_uris": {"ios": "https://dc.lft.to/lastmile_qr_scan", "android": "https://dc.lft.to/lastmile_qr_scan"}, "lon": -76.93262566666667, "type": "electric_scooter"}, {"bike_id": "ddff33b8434734b1e652e98f8ae1b3b9", "is_reserved": 0, "fusion_lon": 0.0, "lat": 38.93163116666667, "is_disabled": 0, "name": "ddff33b8434734b1e652e98f8ae1b3b9", "fusion_lat": 0.0, "rental_uris": {"ios": "https://dc.lft.to/lastmile_qr_scan", "android": "https://dc.lft.to/lastmile_qr_scan"}, "lon": -77.05645916666667, "type": "electric_scooter"}, {"bike_id": "0000ea422aa74d8a70fa5324218e306f", "is_reserved": 0, "fusion_lon": 0.0, "lat": 38.897933333333334, "is_disabled": 0, "name": "0000ea422aa74d8a70fa5324218e306f", "fusion_lat": 0.0, "rental_uris": {"ios": "https://dc.lft.to/lastmile_qr_scan", "android": "https://dc.lft.to/lastmile_qr_scan"}, "lon": -76.94687833333333, "type": "electric_scooter"}, {"bike_id": "d2344890839d4a106bc1937e2912d107", "is_reserved": 0, "fusion_lon": 0.0, "lat": 38.9276355, "is_disabled": 0, "name": "d2344890839d4a106bc1937e2912d107", "fusion_lat": 0.0, "rental_uris": {"ios": "https://dc.lft.to/lastmile_qr_scan", "android": "https://dc.lft.to/lastmile_qr_scan"}, "lon": -77.03243, "type": "electric_scooter"}, {"bike_id": "5532777f1b111028d42ecd03474010d3", "is_reserved": 0, "fusion_lon": 0.0, "lat": 38.887346, "is_disabled": 0, "name": "5532777f1b111028d42ecd03474010d3", "fusion_lat": 0.0, "rental_uris": {"ios": "https://dc.lft.to/lastmile_qr_scan", "android": "https://dc.lft.to/lastmile_qr_scan"}, "lon": -77.01386016666666, "type": "electric_scooter"}, {"bike_id": "7425465f4c8ba3fc4533e0edf52f2853", "is_reserved": 0, "fusion_lon": 0.0, "lat": 38.89667166666667, "is_disabled": 0, "name": "7425465f4c8ba3fc4533e0edf52f2853", "fusion_lat": 0.0, "rental_uris": {"ios": "https://dc.lft.to/lastmile_qr_scan", "android": "https://dc.lft.to/lastmile_qr_scan"}, "lon": -77.02620316666666, "type": "electric_scooter"}, {"bike_id": "440eb5197803d967de791e63e344a135", "is_reserved": 0, "fusion_lon": 0.0, "lat": 38.8878165, "is_disabled": 0, "name": "440eb5197803d967de791e63e344a135", "fusion_lat": 0.0, "rental_uris": {"ios": "https://dc.lft.to/lastmile_qr_scan", "android": "https://dc.lft.to/lastmile_qr_scan"}, "lon": -76.9552845, "type": "electric_scooter"}, {"bike_id": "54b3ed60a19ecdf3f34e54bc5c2700e5", "is_reserved": 0, "fusion_lon": 0.0, "lat": 38.90272516666667, "is_disabled": 0, "name": "54b3ed60a19ecdf3f34e54bc5c2700e5", "fusion_lat": 0.0, "rental_uris": {"ios": "https://dc.lft.to/lastmile_qr_scan", "android": "https://dc.lft.to/lastmile_qr_scan"}, "lon": -77.0384905, "type": "electric_scooter"}, {"bike_id": "9c18eeeb7c436f59ee9b1356d65197fb", "is_reserved": 0, "fusion_lon": 0.0, "lat": 38.90178016666667, "is_disabled": 0, "name": "9c18eeeb7c436f59ee9b1356d65197fb", "fusion_lat": 0.0, "rental_uris": {"ios": "https://dc.lft.to/lastmile_qr_scan", "android": "https://dc.lft.to/lastmile_qr_scan"}, "lon": -77.05094766666667, "type": "electric_scooter"}, {"bike_id": "0d631ba0f99186fef30b6ba0874d0b44", "is_reserved": 0, "fusion_lon": 0.0, "lat": 38.89838733333333, "is_disabled": 0, "name": "0d631ba0f99186fef30b6ba0874d0b44", "fusion_lat": 0.0, "rental_uris": {"ios": "https://dc.lft.to/lastmile_qr_scan", "android": "https://dc.lft.to/lastmile_qr_scan"}, "lon": -76.9950625, "type": "electric_scooter"}, {"bike_id": "ab89b894d1df98becc06f27f2b4bd69e", "is_reserved": 0, "fusion_lon": 0.0, "lat": 38.890962333333334, "is_disabled": 0, "name": "ab89b894d1df98becc06f27f2b4bd69e", "fusion_lat": 0.0, "rental_uris": {"ios": "https://dc.lft.to/lastmile_qr_scan", "android": "https://dc.lft.to/lastmile_qr_scan"}, "lon": -76.9438855, "type": "electric_scooter"}, {"bike_id": "f0bb04d2f8aea44db19e70435b50ae32", "is_reserved": 0, "fusion_lon": 0.0, "lat": 38.923626166666665, "is_disabled": 0, "name": "f0bb04d2f8aea44db19e70435b50ae32", "fusion_lat": 0.0, "rental_uris": {"ios": "https://dc.lft.to/lastmile_qr_scan", "android": "https://dc.lft.to/lastmile_qr_scan"}, "lon": -77.0192035, "type": "electric_scooter"}, {"bike_id": "da49f600830b25b64ae617e398fa3a13", "is_reserved": 0, "fusion_lon": 0.0, "lat": 38.8990015, "is_disabled": 0, "name": "da49f600830b25b64ae617e398fa3a13", "fusion_lat": 0.0, "rental_uris": {"ios": "https://dc.lft.to/lastmile_qr_scan", "android": "https://dc.lft.to/lastmile_qr_scan"}, "lon": -77.02974433333333, "type": "electric_scooter"}, {"bike_id": "351d16c9ef71ebf47408e5f56a24fbca", "is_reserved": 0, "fusion_lon": 0.0, "lat": 38.8990075, "is_disabled": 0, "name": "351d16c9ef71ebf47408e5f56a24fbca", "fusion_lat": 0.0, "rental_uris": {"ios": "https://dc.lft.to/lastmile_qr_scan", "android": "https://dc.lft.to/lastmile_qr_scan"}, "lon": -77.03961983333333, "type": "electric_scooter"}, {"bike_id": "9a72c1370f3c618648d689838e5b769d", "is_reserved": 0, "fusion_lon": 0.0, "lat": 38.92478066666666, "is_disabled": 0, "name": "9a72c1370f3c618648d689838e5b769d", "fusion_lat": 0.0, "rental_uris": {"ios": "https://dc.lft.to/lastmile_qr_scan", "android": "https://dc.lft.to/lastmile_qr_scan"}, "lon": -77.05210633333333, "type": "electric_scooter"}, {"bike_id": "a6efade274b4d89e2ab56fa793642566", "is_reserved": 0, "fusion_lon": 0.0, "lat": 38.89474216666667, "is_disabled": 0, "name": "a6efade274b4d89e2ab56fa793642566", "fusion_lat": 0.0, "rental_uris": {"ios": "https://dc.lft.to/lastmile_qr_scan", "android": "https://dc.lft.to/lastmile_qr_scan"}, "lon": -77.0214995, "type": "electric_bike"}, {"bike_id": "26ffe89853b1eb8bef66be22373875da", "is_reserved": 0, "fusion_lon": 0.0, "lat": 38.903875666666664, "is_disabled": 0, "name": "26ffe89853b1eb8bef66be22373875da", "fusion_lat": 0.0, "rental_uris": {"ios": "https://dc.lft.to/lastmile_qr_scan", "android": "https://dc.lft.to/lastmile_qr_scan"}, "lon": -77.04204983333334, "type": "electric_scooter"}, {"bike_id": "7a6fe970db2e5ac7fea94fb838f8c0e7", "is_reserved": 0, "fusion_lon": 0.0, "lat": 38.932413333333336, "is_disabled": 0, "name": "7a6fe970db2e5ac7fea94fb838f8c0e7", "fusion_lat": 0.0, "rental_uris": {"ios": "https://dc.lft.to/lastmile_qr_scan", "android": "https://dc.lft.to/lastmile_qr_scan"}, "lon": -77.0389305, "type": "electric_scooter"}, {"bike_id": "5dad520ae431d16f619f536504cd4c2a", "is_reserved": 0, "fusion_lon": 0.0, "lat": 38.9085385, "is_disabled": 0, "name": "5dad520ae431d16f619f536504cd4c2a", "fusion_lat": 0.0, "rental_uris": {"ios": "https://dc.lft.to/lastmile_qr_scan", "android": "https://dc.lft.to/lastmile_qr_scan"}, "lon": -77.02730283333334, "type": "electric_scooter"}, {"bike_id": "570027e039d93344e5739404e1a211d6", "is_reserved": 0, "fusion_lon": 0.0, "lat": 38.933933333333336, "is_disabled": 0, "name": "570027e039d93344e5739404e1a211d6", "fusion_lat": 0.0, "rental_uris": {"ios": "https://dc.lft.to/lastmile_qr_scan", "android": "https://dc.lft.to/lastmile_qr_scan"}, "lon": -77.0358275, "type": "electric_scooter"}, {"bike_id": "554ad3fc92f7b242d9f3285197626535", "is_reserved": 0, "fusion_lon": 0.0, "lat": 38.909150333333336, "is_disabled": 0, "name": "554ad3fc92f7b242d9f3285197626535", "fusion_lat": 0.0, "rental_uris": {"ios": "https://dc.lft.to/lastmile_qr_scan", "android": "https://dc.lft.to/lastmile_qr_scan"}, "lon": -77.00922483333333, "type": "electric_scooter"}, {"bike_id": "8aa91a5db0eca179c0fbff0c0ed06ec5", "is_reserved": 0, "fusion_lon": 0.0, "lat": 38.912695666666664, "is_disabled": 0, "name": "8aa91a5db0eca179c0fbff0c0ed06ec5", "fusion_lat": 0.0, "rental_uris": {"ios": "https://dc.lft.to/lastmile_qr_scan", "android": "https://dc.lft.to/lastmile_qr_scan"}, "lon": -77.02556783333333, "type": "electric_scooter"}, {"bike_id": "a5f793e1b4b4d45ca91d71dbbd0f0630", "is_reserved": 0, "fusion_lon": 0.0, "lat": 38.89228716666667, "is_disabled": 0, "name": "a5f793e1b4b4d45ca91d71dbbd0f0630", "fusion_lat": 0.0, "rental_uris": {"ios": "https://dc.lft.to/lastmile_qr_scan", "android": "https://dc.lft.to/lastmile_qr_scan"}, "lon": -77.02206283333334, "type": "electric_scooter"}, {"bike_id": "5e973b608aa1eafb8d5bcdd53e18df51", "is_reserved": 0, "fusion_lon": 0.0, "lat": 38.892203, "is_disabled": 0, "name": "5e973b608aa1eafb8d5bcdd53e18df51", "fusion_lat": 0.0, "rental_uris": {"ios": "https://dc.lft.to/lastmile_qr_scan", "android": "https://dc.lft.to/lastmile_qr_scan"}, "lon": -77.0321455, "type": "electric_scooter"}, {"bike_id": "fc7b230b6cf3d7ff354f9f2dfc0bbb85", "is_reserved": 0, "fusion_lon": 0.0, "lat": 38.920160833333334, "is_disabled": 0, "name": "fc7b230b6cf3d7ff354f9f2dfc0bbb85", "fusion_lat": 0.0, "rental_uris": {"ios": "https://dc.lft.to/lastmile_qr_scan", "android": "https://dc.lft.to/lastmile_qr_scan"}, "lon": -77.0279615, "type": "electric_scooter"}, {"bike_id": "3d53fd7e6866758c9cff573fba376926", "is_reserved": 0, "fusion_lon": 0.0, "lat": 38.9091825, "is_disabled": 0, "name": "3d53fd7e6866758c9cff573fba376926", "fusion_lat": 0.0, "rental_uris": {"ios": "https://dc.lft.to/lastmile_qr_scan", "android": "https://dc.lft.to/lastmile_qr_scan"}, "lon": -77.0800085, "type": "electric_scooter"}, {"bike_id": "7be792d867d519307ac0d2bf617821f4", "is_reserved": 0, "fusion_lon": 0.0, "lat": 38.90349116666667, "is_disabled": 0, "name": "7be792d867d519307ac0d2bf617821f4", "fusion_lat": 0.0, "rental_uris": {"ios": "https://dc.lft.to/lastmile_qr_scan", "android": "https://dc.lft.to/lastmile_qr_scan"}, "lon": -77.0377925, "type": "electric_scooter"}, {"bike_id": "fb3d4723b5b5f56fc8653e788d526c34", "is_reserved": 0, "fusion_lon": 0.0, "lat": 38.892210166666665, "is_disabled": 0, "name": "fb3d4723b5b5f56fc8653e788d526c34", "fusion_lat": 0.0, "rental_uris": {"ios": "https://dc.lft.to/lastmile_qr_scan", "android": "https://dc.lft.to/lastmile_qr_scan"}, "lon": -77.10781066666667, "type": "electric_bike"}, {"bike_id": "b99bfc835e9da117365d9b3db56ab6f4", "is_reserved": 0, "fusion_lon": 0.0, "lat": 38.896260833333336, "is_disabled": 0, "name": "b99bfc835e9da117365d9b3db56ab6f4", "fusion_lat": 0.0, "rental_uris": {"ios": "https://dc.lft.to/lastmile_qr_scan", "android": "https://dc.lft.to/lastmile_qr_scan"}, "lon": -77.04799883333334, "type": "electric_scooter"}, {"bike_id": "f57a5e6d46bd736ea2ed2f942fd7a3e4", "is_reserved": 0, "fusion_lon": 0.0, "lat": 38.90452116666667, "is_disabled": 0, "name": "f57a5e6d46bd736ea2ed2f942fd7a3e4", "fusion_lat": 0.0, "rental_uris": {"ios": "https://dc.lft.to/lastmile_qr_scan", "android": "https://dc.lft.to/lastmile_qr_scan"}, "lon": -76.98887683333334, "type": "electric_scooter"}, {"bike_id": "6d04698dd526508d3d02fc31b92160e8", "is_reserved": 0, "fusion_lon": 0.0, "lat": 38.90995516666667, "is_disabled": 0, "name": "6d04698dd526508d3d02fc31b92160e8", "fusion_lat": 0.0, "rental_uris": {"ios": "https://dc.lft.to/lastmile_qr_scan", "android": "https://dc.lft.to/lastmile_qr_scan"}, "lon": -77.02189733333333, "type": "electric_scooter"}, {"bike_id": "8e3c1d4296b98203fc4fd79df843c9fe", "is_reserved": 0, "fusion_lon": 0.0, "lat": 38.91412166666667, "is_disabled": 0, "name": "8e3c1d4296b98203fc4fd79df843c9fe", "fusion_lat": 0.0, "rental_uris": {"ios": "https://dc.lft.to/lastmile_qr_scan", "android": "https://dc.lft.to/lastmile_qr_scan"}, "lon": -77.041378, "type": "electric_scooter"}, {"bike_id": "e6744e9b2c4109ef75f65f7e074ab3fd", "is_reserved": 0, "fusion_lon": 0.0, "lat": 38.90867316666667, "is_disabled": 0, "name": "e6744e9b2c4109ef75f65f7e074ab3fd", "fusion_lat": 0.0, "rental_uris": {"ios": "https://dc.lft.to/lastmile_qr_scan", "android": "https://dc.lft.to/lastmile_qr_scan"}, "lon": -77.006305, "type": "electric_scooter"}, {"bike_id": "462f52470356627e93c8bb595ba86968", "is_reserved": 0, "fusion_lon": 0.0, "lat": 38.863741166666664, "is_disabled": 0, "name": "462f52470356627e93c8bb595ba86968", "fusion_lat": 0.0, "rental_uris": {"ios": "https://dc.lft.to/lastmile_qr_scan", "android": "https://dc.lft.to/lastmile_qr_scan"}, "lon": -76.9904835, "type": "electric_scooter"}, {"bike_id": "05c8917c1fe44ce3768c361c638be825", "is_reserved": 0, "fusion_lon": 0.0, "lat": 38.9180555, "is_disabled": 0, "name": "05c8917c1fe44ce3768c361c638be825", "fusion_lat": 0.0, "rental_uris": {"ios": "https://dc.lft.to/lastmile_qr_scan", "android": "https://dc.lft.to/lastmile_qr_scan"}, "lon": -77.0343505, "type": "electric_scooter"}, {"bike_id": "af3221266a2c258e1f695c4c43bac634", "is_reserved": 0, "fusion_lon": 0.0, "lat": 38.89828283333333, "is_disabled": 0, "name": "af3221266a2c258e1f695c4c43bac634", "fusion_lat": 0.0, "rental_uris": {"ios": "https://dc.lft.to/lastmile_qr_scan", "android": "https://dc.lft.to/lastmile_qr_scan"}, "lon": -77.03298933333333, "type": "electric_scooter"}, {"bike_id": "403af415feb5c705b3d65666102bb413", "is_reserved": 0, "fusion_lon": 0.0, "lat": 38.91774816666667, "is_disabled": 0, "name": "403af415feb5c705b3d65666102bb413", "fusion_lat": 0.0, "rental_uris": {"ios": "https://dc.lft.to/lastmile_qr_scan", "android": "https://dc.lft.to/lastmile_qr_scan"}, "lon": -77.0405625, "type": "electric_scooter"}, {"bike_id": "b47cf3324ca0163bdb538003a71ad543", "is_reserved": 0, "fusion_lon": 0.0, "lat": 38.84294533333333, "is_disabled": 0, "name": "b47cf3324ca0163bdb538003a71ad543", "fusion_lat": 0.0, "rental_uris": {"ios": "https://dc.lft.to/lastmile_qr_scan", "android": "https://dc.lft.to/lastmile_qr_scan"}, "lon": -76.99952233333333, "type": "electric_scooter"}, {"bike_id": "f32bcbef1e91f34819576351d0e7bedb", "is_reserved": 0, "fusion_lon": 0.0, "lat": 38.95554666666666, "is_disabled": 0, "name": "f32bcbef1e91f34819576351d0e7bedb", "fusion_lat": 0.0, "rental_uris": {"ios": "https://dc.lft.to/lastmile_qr_scan", "android": "https://dc.lft.to/lastmile_qr_scan"}, "lon": -76.9354625, "type": "electric_bike"}, {"bike_id": "405c4ba972f3bcedb4e407fe5454fbfb", "is_reserved": 0, "fusion_lon": 0.0, "lat": 38.9033665, "is_disabled": 0, "name": "405c4ba972f3bcedb4e407fe5454fbfb", "fusion_lat": 0.0, "rental_uris": {"ios": "https://dc.lft.to/lastmile_qr_scan", "android": "https://dc.lft.to/lastmile_qr_scan"}, "lon": -77.0659595, "type": "electric_scooter"}, {"bike_id": "eb0901438184cca272cffb525027111d", "is_reserved": 0, "fusion_lon": 0.0, "lat": 38.8899465, "is_disabled": 0, "name": "eb0901438184cca272cffb525027111d", "fusion_lat": 0.0, "rental_uris": {"ios": "https://dc.lft.to/lastmile_qr_scan", "android": "https://dc.lft.to/lastmile_qr_scan"}, "lon": -76.94703833333334, "type": "electric_scooter"}, {"bike_id": "51e435450cf61ca3dc7265bddc005e57", "is_reserved": 0, "fusion_lon": 0.0, "lat": 38.94514216666666, "is_disabled": 0, "name": "51e435450cf61ca3dc7265bddc005e57", "fusion_lat": 0.0, "rental_uris": {"ios": "https://dc.lft.to/lastmile_qr_scan", "android": "https://dc.lft.to/lastmile_qr_scan"}, "lon": -77.00676766666666, "type": "electric_bike"}, {"bike_id": "c3315726e64f8f3aa488e04dd85f5f8b", "is_reserved": 0, "fusion_lon": 0.0, "lat": 38.895275833333336, "is_disabled": 0, "name": "c3315726e64f8f3aa488e04dd85f5f8b", "fusion_lat": 0.0, "rental_uris": {"ios": "https://dc.lft.to/lastmile_qr_scan", "android": "https://dc.lft.to/lastmile_qr_scan"}, "lon": -77.03349266666666, "type": "electric_scooter"}, {"bike_id": "16faa3c3b139e0e2b44164fa8cf4c98b", "is_reserved": 0, "fusion_lon": 0.0, "lat": 38.924486333333334, "is_disabled": 0, "name": "16faa3c3b139e0e2b44164fa8cf4c98b", "fusion_lat": 0.0, "rental_uris": {"ios": "https://dc.lft.to/lastmile_qr_scan", "android": "https://dc.lft.to/lastmile_qr_scan"}, "lon": -77.02031466666666, "type": "electric_scooter"}, {"bike_id": "1625ef32a70007c3aaf30f1784d76ee6", "is_reserved": 0, "fusion_lon": 0.0, "lat": 38.914037, "is_disabled": 0, "name": "1625ef32a70007c3aaf30f1784d76ee6", "fusion_lat": 0.0, "rental_uris": {"ios": "https://dc.lft.to/lastmile_qr_scan", "android": "https://dc.lft.to/lastmile_qr_scan"}, "lon": -77.04570416666667, "type": "electric_scooter"}, {"bike_id": "a108a22d6cf4ee7f2d740b143d8c17aa", "is_reserved": 0, "fusion_lon": 0.0, "lat": 38.909556, "is_disabled": 0, "name": "a108a22d6cf4ee7f2d740b143d8c17aa", "fusion_lat": 0.0, "rental_uris": {"ios": "https://dc.lft.to/lastmile_qr_scan", "android": "https://dc.lft.to/lastmile_qr_scan"}, "lon": -77.04253966666667, "type": "electric_scooter"}, {"bike_id": "2c3cd0e14834a167fff9a0c4f2203a4a", "is_reserved": 0, "fusion_lon": 0.0, "lat": 38.90226933333334, "is_disabled": 0, "name": "2c3cd0e14834a167fff9a0c4f2203a4a", "fusion_lat": 0.0, "rental_uris": {"ios": "https://dc.lft.to/lastmile_qr_scan", "android": "https://dc.lft.to/lastmile_qr_scan"}, "lon": -77.05919816666666, "type": "electric_bike"}, {"bike_id": "c01ef4132ac204df90ac14d78b3edb30", "is_reserved": 0, "fusion_lon": 0.0, "lat": 38.903629, "is_disabled": 0, "name": "c01ef4132ac204df90ac14d78b3edb30", "fusion_lat": 0.0, "rental_uris": {"ios": "https://dc.lft.to/lastmile_qr_scan", "android": "https://dc.lft.to/lastmile_qr_scan"}, "lon": -77.0433865, "type": "electric_scooter"}, {"bike_id": "2c84c310ef680c7c2dd08f171d6ef11f", "is_reserved": 0, "fusion_lon": 0.0, "lat": 38.932275833333335, "is_disabled": 0, "name": "2c84c310ef680c7c2dd08f171d6ef11f", "fusion_lat": 0.0, "rental_uris": {"ios": "https://dc.lft.to/lastmile_qr_scan", "android": "https://dc.lft.to/lastmile_qr_scan"}, "lon": -77.03870116666667, "type": "electric_scooter"}, {"bike_id": "5259c36cbcc27e93dea959da22746139", "is_reserved": 0, "fusion_lon": 0.0, "lat": 38.910485, "is_disabled": 0, "name": "5259c36cbcc27e93dea959da22746139", "fusion_lat": 0.0, "rental_uris": {"ios": "https://dc.lft.to/lastmile_qr_scan", "android": "https://dc.lft.to/lastmile_qr_scan"}, "lon": -77.01511533333333, "type": "electric_scooter"}, {"bike_id": "81c15149757f44dc714833fffb5d1ea6", "is_reserved": 0, "fusion_lon": 0.0, "lat": 38.938562833333336, "is_disabled": 0, "name": "81c15149757f44dc714833fffb5d1ea6", "fusion_lat": 0.0, "rental_uris": {"ios": "https://dc.lft.to/lastmile_qr_scan", "android": "https://dc.lft.to/lastmile_qr_scan"}, "lon": -77.024598, "type": "electric_scooter"}, {"bike_id": "79f81f54b7583b9d0e06f944eb814efd", "is_reserved": 0, "fusion_lon": 0.0, "lat": 38.832385, "is_disabled": 0, "name": "79f81f54b7583b9d0e06f944eb814efd", "fusion_lat": 0.0, "rental_uris": {"ios": "https://dc.lft.to/lastmile_qr_scan", "android": "https://dc.lft.to/lastmile_qr_scan"}, "lon": -76.94622483333333, "type": "electric_bike"}, {"bike_id": "9596c349ce45ee4ccd3e5fad4836b056", "is_reserved": 0, "fusion_lon": 0.0, "lat": 38.9080015, "is_disabled": 0, "name": "9596c349ce45ee4ccd3e5fad4836b056", "fusion_lat": 0.0, "rental_uris": {"ios": "https://dc.lft.to/lastmile_qr_scan", "android": "https://dc.lft.to/lastmile_qr_scan"}, "lon": -77.04868716666667, "type": "electric_scooter"}, {"bike_id": "80702fade2eb5b807df29bdbc037c752", "is_reserved": 0, "fusion_lon": 0.0, "lat": 38.97881533333333, "is_disabled": 0, "name": "80702fade2eb5b807df29bdbc037c752", "fusion_lat": 0.0, "rental_uris": {"ios": "https://dc.lft.to/lastmile_qr_scan", "android": "https://dc.lft.to/lastmile_qr_scan"}, "lon": -77.025463, "type": "electric_scooter"}, {"bike_id": "ba43e5aee43c37f6b9cacfab7bdccdc8", "is_reserved": 0, "fusion_lon": 0.0, "lat": 38.91506583333334, "is_disabled": 0, "name": "ba43e5aee43c37f6b9cacfab7bdccdc8", "fusion_lat": 0.0, "rental_uris": {"ios": "https://dc.lft.to/lastmile_qr_scan", "android": "https://dc.lft.to/lastmile_qr_scan"}, "lon": -76.98370083333333, "type": "electric_scooter"}, {"bike_id": "f90f65a7989386d7341e79918f3093fd", "is_reserved": 0, "fusion_lon": 0.0, "lat": 38.898483, "is_disabled": 0, "name": "f90f65a7989386d7341e79918f3093fd", "fusion_lat": 0.0, "rental_uris": {"ios": "https://dc.lft.to/lastmile_qr_scan", "android": "https://dc.lft.to/lastmile_qr_scan"}, "lon": -77.03284966666666, "type": "electric_scooter"}, {"bike_id": "54ceadc89adf74aebf1bfbe4cec9d8d1", "is_reserved": 0, "fusion_lon": 0.0, "lat": 38.919188166666665, "is_disabled": 0, "name": "54ceadc89adf74aebf1bfbe4cec9d8d1", "fusion_lat": 0.0, "rental_uris": {"ios": "https://dc.lft.to/lastmile_qr_scan", "android": "https://dc.lft.to/lastmile_qr_scan"}, "lon": -77.03181516666666, "type": "electric_scooter"}, {"bike_id": "f0c08f435b98f9877ddda69fe1e87f54", "is_reserved": 0, "fusion_lon": 0.0, "lat": 38.90377016666667, "is_disabled": 0, "name": "f0c08f435b98f9877ddda69fe1e87f54", "fusion_lat": 0.0, "rental_uris": {"ios": "https://dc.lft.to/lastmile_qr_scan", "android": "https://dc.lft.to/lastmile_qr_scan"}, "lon": -77.04350383333333, "type": "electric_scooter"}, {"bike_id": "8c167585ffc65f31aaae6b987d4da46e", "is_reserved": 0, "fusion_lon": 0.0, "lat": 38.90229933333333, "is_disabled": 0, "name": "8c167585ffc65f31aaae6b987d4da46e", "fusion_lat": 0.0, "rental_uris": {"ios": "https://dc.lft.to/lastmile_qr_scan", "android": "https://dc.lft.to/lastmile_qr_scan"}, "lon": -77.06065716666667, "type": "electric_scooter"}, {"bike_id": "1f759fde55824244815cd723484f5467", "is_reserved": 0, "fusion_lon": 0.0, "lat": 38.908472, "is_disabled": 0, "name": "1f759fde55824244815cd723484f5467", "fusion_lat": 0.0, "rental_uris": {"ios": "https://dc.lft.to/lastmile_qr_scan", "android": "https://dc.lft.to/lastmile_qr_scan"}, "lon": -77.08534316666666, "type": "electric_scooter"}, {"bike_id": "4456233dd778a7e06910408ac1d7ef2c", "is_reserved": 0, "fusion_lon": 0.0, "lat": 38.90534616666667, "is_disabled": 0, "name": "4456233dd778a7e06910408ac1d7ef2c", "fusion_lat": 0.0, "rental_uris": {"ios": "https://dc.lft.to/lastmile_qr_scan", "android": "https://dc.lft.to/lastmile_qr_scan"}, "lon": -77.05412983333333, "type": "electric_scooter"}, {"bike_id": "fc228aef70cfb7062a0a59949fd67945", "is_reserved": 0, "fusion_lon": 0.0, "lat": 38.88001883333333, "is_disabled": 0, "name": "fc228aef70cfb7062a0a59949fd67945", "fusion_lat": 0.0, "rental_uris": {"ios": "https://dc.lft.to/lastmile_qr_scan", "android": "https://dc.lft.to/lastmile_qr_scan"}, "lon": -76.995023, "type": "electric_scooter"}, {"bike_id": "8ea6a7fbb4d2ad44a42dabde00a5bae9", "is_reserved": 0, "fusion_lon": 0.0, "lat": 38.92080633333333, "is_disabled": 0, "name": "8ea6a7fbb4d2ad44a42dabde00a5bae9", "fusion_lat": 0.0, "rental_uris": {"ios": "https://dc.lft.to/lastmile_qr_scan", "android": "https://dc.lft.to/lastmile_qr_scan"}, "lon": -77.025333, "type": "electric_scooter"}, {"bike_id": "09f2d07445dcb166c867628a21bd2675", "is_reserved": 0, "fusion_lon": 0.0, "lat": 38.9125055, "is_disabled": 0, "name": "09f2d07445dcb166c867628a21bd2675", "fusion_lat": 0.0, "rental_uris": {"ios": "https://dc.lft.to/lastmile_qr_scan", "android": "https://dc.lft.to/lastmile_qr_scan"}, "lon": -77.02695533333333, "type": "electric_scooter"}, {"bike_id": "1a037c763c20ad3c3fcce6c67354db3e", "is_reserved": 0, "fusion_lon": 0.0, "lat": 38.908098333333335, "is_disabled": 0, "name": "1a037c763c20ad3c3fcce6c67354db3e", "fusion_lat": 0.0, "rental_uris": {"ios": "https://dc.lft.to/lastmile_qr_scan", "android": "https://dc.lft.to/lastmile_qr_scan"}, "lon": -77.03455133333334, "type": "electric_scooter"}, {"bike_id": "19eeda232a5cc2ff2a57c6f36a07d643", "is_reserved": 0, "fusion_lon": 0.0, "lat": 38.99821033333333, "is_disabled": 0, "name": "19eeda232a5cc2ff2a57c6f36a07d643", "fusion_lat": 0.0, "rental_uris": {"ios": "https://dc.lft.to/lastmile_qr_scan", "android": "https://dc.lft.to/lastmile_qr_scan"}, "lon": -76.883727, "type": "electric_bike"}, {"bike_id": "744f1e28606354480ca7bee86db0873f", "is_reserved": 0, "fusion_lon": 0.0, "lat": 38.90391066666667, "is_disabled": 0, "name": "744f1e28606354480ca7bee86db0873f", "fusion_lat": 0.0, "rental_uris": {"ios": "https://dc.lft.to/lastmile_qr_scan", "android": "https://dc.lft.to/lastmile_qr_scan"}, "lon": -77.01085183333333, "type": "electric_scooter"}, {"bike_id": "ff1f6a5a430e64c848c7d40006a189d0", "is_reserved": 0, "fusion_lon": 0.0, "lat": 38.898794333333335, "is_disabled": 0, "name": "ff1f6a5a430e64c848c7d40006a189d0", "fusion_lat": 0.0, "rental_uris": {"ios": "https://dc.lft.to/lastmile_qr_scan", "android": "https://dc.lft.to/lastmile_qr_scan"}, "lon": -76.93159533333333, "type": "electric_scooter"}, {"bike_id": "5123abe842c39cb3e363c47cc3d8b1fc", "is_reserved": 0, "fusion_lon": 0.0, "lat": 38.92898233333333, "is_disabled": 0, "name": "5123abe842c39cb3e363c47cc3d8b1fc", "fusion_lat": 0.0, "rental_uris": {"ios": "https://dc.lft.to/lastmile_qr_scan", "android": "https://dc.lft.to/lastmile_qr_scan"}, "lon": -77.05455466666666, "type": "electric_scooter"}, {"bike_id": "c386ffedf3fccf0b6458378fdb1236a2", "is_reserved": 0, "fusion_lon": 0.0, "lat": 38.92145416666666, "is_disabled": 0, "name": "c386ffedf3fccf0b6458378fdb1236a2", "fusion_lat": 0.0, "rental_uris": {"ios": "https://dc.lft.to/lastmile_qr_scan", "android": "https://dc.lft.to/lastmile_qr_scan"}, "lon": -77.03487883333334, "type": "electric_scooter"}, {"bike_id": "a0a55603d5c0f00ca06ebb9411ac4912", "is_reserved": 0, "fusion_lon": 0.0, "lat": 38.95732183333333, "is_disabled": 0, "name": "a0a55603d5c0f00ca06ebb9411ac4912", "fusion_lat": 0.0, "rental_uris": {"ios": "https://dc.lft.to/lastmile_qr_scan", "android": "https://dc.lft.to/lastmile_qr_scan"}, "lon": -76.98015416666667, "type": "electric_bike"}, {"bike_id": "26c8bf6a69cfb1e8db82b5f5778780de", "is_reserved": 0, "fusion_lon": 0.0, "lat": 38.9085675, "is_disabled": 0, "name": "26c8bf6a69cfb1e8db82b5f5778780de", "fusion_lat": 0.0, "rental_uris": {"ios": "https://dc.lft.to/lastmile_qr_scan", "android": "https://dc.lft.to/lastmile_qr_scan"}, "lon": -77.044912, "type": "electric_scooter"}, {"bike_id": "c23b506fada271575ede36572c99d30e", "is_reserved": 0, "fusion_lon": 0.0, "lat": 38.906837833333334, "is_disabled": 0, "name": "c23b506fada271575ede36572c99d30e", "fusion_lat": 0.0, "rental_uris": {"ios": "https://dc.lft.to/lastmile_qr_scan", "android": "https://dc.lft.to/lastmile_qr_scan"}, "lon": -77.06261233333333, "type": "electric_bike"}, {"bike_id": "7f08ceb9002a4b0146674c923abc9d7f", "is_reserved": 0, "fusion_lon": 0.0, "lat": 38.903507833333336, "is_disabled": 0, "name": "7f08ceb9002a4b0146674c923abc9d7f", "fusion_lat": 0.0, "rental_uris": {"ios": "https://dc.lft.to/lastmile_qr_scan", "android": "https://dc.lft.to/lastmile_qr_scan"}, "lon": -77.0665005, "type": "electric_scooter"}, {"bike_id": "918e7adab049106b3a041e5a20414db2", "is_reserved": 0, "fusion_lon": 0.0, "lat": 38.898483, "is_disabled": 0, "name": "918e7adab049106b3a041e5a20414db2", "fusion_lat": 0.0, "rental_uris": {"ios": "https://dc.lft.to/lastmile_qr_scan", "android": "https://dc.lft.to/lastmile_qr_scan"}, "lon": -77.00749033333334, "type": "electric_scooter"},