{"data": {"bikes": [{"lon": -77.01482166666666, "bike_id": "bf853ef9fe228075c51aa63ed454266c", "lat": 38.95870716666667, "fusion_lon": 0.0, "fusion_lat": 0.0, "type": "electric_scooter", "name": "bf853ef9fe228075c51aa63ed454266c", "is_disabled": 0, "rental_uris": {"ios": "https://dc.lft.to/lastmile_qr_scan", "android": "https://dc.lft.to/lastmile_qr_scan"}, "is_reserved": 0}, {"lon": -77.0296755, "bike_id": "3fbc44358840cf2898bc9e18dec741b5", "lat": 38.9172695, "fusion_lon": 0.0, "fusion_lat": 0.0, "type": "electric_scooter", "name": "3fbc44358840cf2898bc9e18dec741b5", "is_disabled": 0, "rental_uris": {"ios": "https://dc.lft.to/lastmile_qr_scan", "android": "https://dc.lft.to/lastmile_qr_scan"}, "is_reserved": 0}, {"lon": -77.13900716666667, "bike_id": "065040d3a9457b0cf4f02f9548630e45", "lat": 38.8967, "fusion_lon": 0.0, "fusion_lat": 0.0, "type": "electric_bike", "name": "065040d3a9457b0cf4f02f9548630e45", "is_disabled": 0, "rental_uris": {"ios": "https://dc.lft.to/lastmile_qr_scan", "android": "https://dc.lft.to/lastmile_qr_scan"}, "is_reserved": 0}, {"lon": -77.031159, "bike_id": "dd1fce6b922770e4637fb9e40ce6a61d", "lat": 38.90438966666667, "fusion_lon": 0.0, "fusion_lat": 0.0, "type": "electric_scooter", "name": "dd1fce6b922770e4637fb9e40ce6a61d", "is_disabled": 0, "rental_uris": {"ios": "https://dc.lft.to/lastmile_qr_scan", "android": "https://dc.lft.to/lastmile_qr_scan"}, "is_reserved": 0}, {"lon": -77.02197366666667, "bike_id": "065f4a7c218d55d6f54e15c9c6aad0b9", "lat": 38.91492483333333, "fusion_lon": 0.0, "fusion_lat": 0.0, "type": "electric_scooter", "name": "065f4a7c218d55d6f54e15c9c6aad0b9", "is_disabled": 0, "rental_uris": {"ios": "https://dc.lft.to/lastmile_qr_scan", "android": "https://dc.lft.to/lastmile_qr_scan"}, "is_reserved": 0}, {"lon": -76.98018116666667, "bike_id": "830bc9bc8dfab9654070ad501d4f1a66", "lat": 38.888653833333336, "fusion_lon": 0.0, "fusion_lat": 0.0, "type": "electric_scooter", "name": "830bc9bc8dfab9654070ad501d4f1a66", "is_disabled": 0, "rental_uris": {"ios": "https://dc.lft.to/lastmile_qr_scan", "android": "https://dc.lft.to/lastmile_qr_scan"}, "is_reserved": 0}, {"lon": -77.05913733333334, "bike_id": "ce929fcc5303110e0a76f27f02488773", "lat": 38.9038355, "fusion_lon": 0.0, "fusion_lat": 0.0, "type": "electric_scooter", "name": "ce929fcc5303110e0a76f27f02488773", "is_disabled": 0, "rental_uris": {"ios": "https://dc.lft.to/lastmile_qr_scan", "android": "https://dc.lft.to/lastmile_qr_scan"}, "is_reserved": 0}, {"lon": -77.01967516666667, "bike_id": "6723f7588360193a185fe903113549df", "lat": 38.95654116666667, "fusion_lon": 0.0, "fusion_lat": 0.0, "type": "electric_scooter", "name": "6723f7588360193a185fe903113549df", "is_disabled": 0, "rental_uris": {"ios": "https://dc.lft.to/lastmile_qr_scan", "android": "https://dc.lft.to/lastmile_qr_scan"}, "is_reserved": 0}, {"lon": -77.1157405, "bike_id": "c36c38ca6624fbbe3794b3fdabcd3507", "lat": 38.993445666666666, "fusion_lon": 0.0, "fusion_lat": 0.0, "type": "electric_bike", "name": "c36c38ca6624fbbe3794b3fdabcd3507", "is_disabled": 0, "rental_uris": {"ios": "https://dc.lft.to/lastmile_qr_scan", "android": "https://dc.lft.to/lastmile_qr_scan"}, "is_reserved": 0}, {"lon": -77.04420516666667, "bike_id": "71f970f655f7205413a72093ae7a953d", "lat": 38.92113766666667, "fusion_lon": 0.0, "fusion_lat": 0.0, "type": "electric_scooter", "name": "71f970f655f7205413a72093ae7a953d", "is_disabled": 0, "rental_uris": {"ios": "https://dc.lft.to/lastmile_qr_scan", "android": "https://dc.lft.to/lastmile_qr_scan"}, "is_reserved": 0}, {"lon": -77.03289616666666, "bike_id": "ecb101238e9a7b23bfae2b68fca24cf3", "lat": 38.95656483333333, "fusion_lon": 0.0, "fusion_lat": 0.0, "type": "electric_scooter", "name": "ecb101238e9a7b23bfae2b68fca24cf3", "is_disabled": 0, "rental_uris": {"ios": "https://dc.lft.to/lastmile_qr_scan", "android": "https://dc.lft.to/lastmile_qr_scan"}, "is_reserved": 0}, {"lon": -77.05168333333333, "bike_id": "f12413a43bf42f1faf49a98ba8d0b545", "lat": 38.842760166666665, "fusion_lon": 0.0, "fusion_lat": 0.0, "type": "electric_bike", "name": "f12413a43bf42f1faf49a98ba8d0b545", "is_disabled": 0, "rental_uris": {"ios": "https://dc.lft.to/lastmile_qr_scan", "android": "https://dc.lft.to/lastmile_qr_scan"}, "is_reserved": 0}, {"lon": -77.02633816666666, "bike_id": "9172440746a2758a5dcc12e12b9483f2", "lat": 38.90236733333333, "fusion_lon": 0.0, "fusion_lat": 0.0, "type": "electric_scooter", "name": "9172440746a2758a5dcc12e12b9483f2", "is_disabled": 0, "rental_uris": {"ios": "https://dc.lft.to/lastmile_qr_scan", "android": "https://dc.lft.to/lastmile_qr_scan"}, "is_reserved": 0}, {"lon": -77.0328235, "bike_id": "a9e3119063c009d29cc1ce7f1c905da3", "lat": 38.93642283333333, "fusion_lon": 0.0, "fusion_lat": 0.0, "type": "electric_scooter", "name": "a9e3119063c009d29cc1ce7f1c905da3", "is_disabled": 0, "rental_uris": {"ios": "https://dc.lft.to/lastmile_qr_scan", "android": "https://dc.lft.to/lastmile_qr_scan"}, "is_reserved": 0}, {"lon": -76.9916325, "bike_id": "4bb3d4115683e61751738b9a54d86656", "lat": 38.909678166666666, "fusion_lon": 0.0, "fusion_lat": 0.0, "type": "electric_scooter", "name": "4bb3d4115683e61751738b9a54d86656", "is_disabled": 0, "rental_uris": {"ios": "https://dc.lft.to/lastmile_qr_scan", "android": "https://dc.lft.to/lastmile_qr_scan"}, "is_reserved": 0}, {"lon": -77.073461, "bike_id": "88468213a9b959125119c33784352ba9", "lat": 38.935029166666666, "fusion_lon": 0.0, "fusion_lat": 0.0, "type": "electric_scooter", "name": "88468213a9b959125119c33784352ba9", "is_disabled": 0, "rental_uris": {"ios": "https://dc.lft.to/lastmile_qr_scan", "android": "https://dc.lft.to/lastmile_qr_scan"}, "is_reserved": 0}, {"lon": -77.05940233333334, "bike_id": "34ee5a8ca78452c38434aefea598b9f7", "lat": 38.91186483333333, "fusion_lon": 0.0, "fusion_lat": 0.0, "type": "electric_bike", "name": "34ee5a8ca78452c38434aefea598b9f7", "is_disabled": 0, "rental_uris": {"ios": "https://dc.lft.to/lastmile_qr_scan", "android": "https://dc.lft.to/lastmile_qr_scan"}, "is_reserved": 0}, {"lon": -77.1784305, "bike_id": "aa20954a0eaf31db28ec3928dd39a732", "lat": 39.0885925, "fusion_lon": 0.0, "fusion_lat": 0.0, "type": "electric_bike", "name": "aa20954a0eaf31db28ec3928dd39a732", "is_disabled": 0, "rental_uris": {"ios": "https://dc.lft.to/lastmile_qr_scan", "android": "https://dc.lft.to/lastmile_qr_scan"}, "is_reserved": 0}, {"lon": -76.95650066666667, "bike_id": "e57fc35400b9c00e9032a758364af119", "lat": 38.89556133333333, "fusion_lon": 0.0, "fusion_lat": 0.0, "type": "electric_scooter", "name": "e57fc35400b9c00e9032a758364af119", "is_disabled": 0, "rental_uris": {"ios": "https://dc.lft.to/lastmile_qr_scan", "android": "https://dc.lft.to/lastmile_qr_scan"}, "is_reserved": 0}, {"lon": -77.00062466666667, "bike_id": "79d7b72fe5594cc7f0c22397b813751f", "lat": 38.896597166666666, "fusion_lon": 0.0, "fusion_lat": 0.0, "type": "electric_scooter", "name": "79d7b72fe5594cc7f0c22397b813751f", "is_disabled": 0, "rental_uris": {"ios": "https://dc.lft.to/lastmile_qr_scan", "android": "https://dc.lft.to/lastmile_qr_scan"}, "is_reserved": 0}, {"lon": -77.02715516666666, "bike_id": "99f6c07bc097fb9b8f75e5f2c343da75", "lat": 38.972348333333336, "fusion_lon": 0.0, "fusion_lat": 0.0, "type": "electric_scooter", "name": "99f6c07bc097fb9b8f75e5f2c343da75", "is_disabled": 0, "rental_uris": {"ios": "https://dc.lft.to/lastmile_qr_scan", "android": "https://dc.lft.to/lastmile_qr_scan"}, "is_reserved": 0}, {"lon": -77.03116916666667, "bike_id": "76713b9672ab980413975f0898355ac3", "lat": 38.916973166666665, "fusion_lon": 0.0, "fusion_lat": 0.0, "type": "electric_scooter", "name": "76713b9672ab980413975f0898355ac3", "is_disabled": 0, "rental_uris": {"ios": "https://dc.lft.to/lastmile_qr_scan", "android": "https://dc.lft.to/lastmile_qr_scan"}, "is_reserved": 0}, {"lon": -77.02090666666666, "bike_id": "eb7e865e3be7984e7978c587ecb6d3a9", "lat": 38.945275333333335, "fusion_lon": 0.0, "fusion_lat": 0.0, "type": "electric_scooter", "name": "eb7e865e3be7984e7978c587ecb6d3a9", "is_disabled": 0, "rental_uris": {"ios": "https://dc.lft.to/lastmile_qr_scan", "android": "https://dc.lft.to/lastmile_qr_scan"}, "is_reserved": 0}, {"lon": -77.05249866666666, "bike_id": "4d8426fad96e379de61c3d3b1d1afb27", "lat": 38.9237675, "fusion_lon": 0.0, "fusion_lat": 0.0, "type": "electric_scooter", "name": "4d8426fad96e379de61c3d3b1d1afb27", "is_disabled": 0, "rental_uris": {"ios": "https://dc.lft.to/lastmile_qr_scan", "android": "https://dc.lft.to/lastmile_qr_scan"}, "is_reserved": 0}, {"lon": -77.02438083333334, "bike_id": "f5171930cb7d17c7d7b0b3c095c6385a", "lat": 38.916949833333334, "fusion_lon": 0.0, "fusion_lat": 0.0, "type": "electric_scooter", "name": "f5171930cb7d17c7d7b0b3c095c6385a", "is_disabled": 0, "rental_uris": {"ios": "https://dc.lft.to/lastmile_qr_scan", "android": "https://dc.lft.to/lastmile_qr_scan"}, "is_reserved": 0}, {"lon": -76.92374933333333, "bike_id": "038ae92d0b45cff4b1354abb2b8618d0", "lat": 38.8837665, "fusion_lon": 0.0, "fusion_lat": 0.0, "type": "electric_bike", "name": "038ae92d0b45cff4b1354abb2b8618d0", "is_disabled": 0, "rental_uris": {"ios": "https://dc.lft.to/lastmile_qr_scan", "android": "https://dc.lft.to/lastmile_qr_scan"}, "is_reserved": 0}, {"lon": -76.99377683333333, "bike_id": "85c8d76a195bac874eca5914680ee057", "lat": 38.971901333333335, "fusion_lon": 0.0, "fusion_lat": 0.0, "type": "electric_bike", "name": "85c8d76a195bac874eca5914680ee057", "is_disabled": 0, "rental_uris": {"ios": "https://dc.lft.to/lastmile_qr_scan", "android": "https://dc.lft.to/lastmile_qr_scan"}, "is_reserved": 0}, {"lon": -77.01406133333333, "bike_id": "ab065d6b82a8127601297aa288ecbb86", "lat": 38.90647216666667, "fusion_lon": 0.0, "fusion_lat": 0.0, "type": "electric_scooter", "name": "ab065d6b82a8127601297aa288ecbb86", "is_disabled": 0, "rental_uris": {"ios": "https://dc.lft.to/lastmile_qr_scan", "android": "https://dc.lft.to/lastmile_qr_scan"}, "is_reserved": 0}, {"lon": -77.01767616666666, "bike_id": "0747813dc408461abf24f29837cf5830", "lat": 38.90377433333333, "fusion_lon": 0.0, "fusion_lat": 0.0, "type": "electric_scooter", "name": "0747813dc408461abf24f29837cf5830", "is_disabled": 0, "rental_uris": {"ios": "https://dc.lft.to/lastmile_qr_scan", "android": "https://dc.lft.to/lastmile_qr_scan"}, "is_reserved": 0}, {"lon": -77.0376385, "bike_id": "df213161c552620b11e0c3c9ad677944", "lat": 38.902762, "fusion_lon": 0.0, "fusion_lat": 0.0, "type": "electric_scooter", "name": "df213161c552620b11e0c3c9ad677944", "is_disabled": 0, "rental_uris": {"ios": "https://dc.lft.to/lastmile_qr_scan", "android": "https://dc.lft.to/lastmile_qr_scan"}, "is_reserved": 0}, {"lon": -77.00339433333333, "bike_id": "7c3cad48c77e10c8fc32fb2fc0fdf36f", "lat": 38.895277666666665, "fusion_lon": 0.0, "fusion_lat": 0.0, "type": "electric_scooter", "name": "7c3cad48c77e10c8fc32fb2fc0fdf36f", "is_disabled": 0, "rental_uris": {"ios": "https://dc.lft.to/lastmile_qr_scan", "android": "https://dc.lft.to/lastmile_qr_scan"}, "is_reserved": 0}, {"lon": -76.99935466666666, "bike_id": "6c7b8b7249b2f3db9283c58d4385b1f2", "lat": 38.843022166666664, "fusion_lon": 0.0, "fusion_lat": 0.0, "type": "electric_scooter", "name": "6c7b8b7249b2f3db9283c58d4385b1f2", "is_disabled": 0, "rental_uris": {"ios": "https://dc.lft.to/lastmile_qr_scan", "android": "https://dc.lft.to/lastmile_qr_scan"}, "is_reserved": 0}, {"lon": -77.07009666666667, "bike_id": "ec6120dd52e969d053df7c840d20c6c2", "lat": 38.95855666666667, "fusion_lon": 0.0, "fusion_lat": 0.0, "type": "electric_scooter", "name": "ec6120dd52e969d053df7c840d20c6c2", "is_disabled": 0, "rental_uris": {"ios": "https://dc.lft.to/lastmile_qr_scan", "android": "https://dc.lft.to/lastmile_qr_scan"}, "is_reserved": 0}, {"lon": -76.94872483333333, "bike_id": "0f8b3322415627e4df0c2174cd2dae64", "lat": 38.8954715, "fusion_lon": 0.0, "fusion_lat": 0.0, "type": "electric_scooter", "name": "0f8b3322415627e4df0c2174cd2dae64", "is_disabled": 0, "rental_uris": {"ios": "https://dc.lft.to/lastmile_qr_scan", "android": "https://dc.lft.to/lastmile_qr_scan"}, "is_reserved": 0}, {"lon": -77.08068583333333, "bike_id": "d92776ed4dc6cc4e8359469819b2db55", "lat": 38.96313516666667, "fusion_lon": 0.0, "fusion_lat": 0.0, "type": "electric_bike", "name": "d92776ed4dc6cc4e8359469819b2db55", "is_disabled": 0, "rental_uris": {"ios": "https://dc.lft.to/lastmile_qr_scan", "android": "https://dc.lft.to/lastmile_qr_scan"}, "is_reserved": 0}, {"lon": -77.03159816666667, "bike_id": "c0d07ce6a2c286af7ba14feebd97398f", "lat": 38.9360725, "fusion_lon": 0.0, "fusion_lat": 0.0, "type": "electric_scooter", "name": "c0d07ce6a2c286af7ba14feebd97398f", "is_disabled": 0, "rental_uris": {"ios": "https://dc.lft.to/lastmile_qr_scan", "android": "https://dc.lft.to/lastmile_qr_scan"}, "is_reserved": 0}, {"lon": -77.01207983333333, "bike_id": "86249cb52a042eb10dcd51d078d3cb13", "lat": 38.91653133333333, "fusion_lon": 0.0, "fusion_lat": 0.0, "type": "electric_scooter", "name": "86249cb52a042eb10dcd51d078d3cb13", "is_disabled": 0, "rental_uris": {"ios": "https://dc.lft.to/lastmile_qr_scan", "android": "https://dc.lft.to/lastmile_qr_scan"}, "is_reserved": 0}, {"lon": -77.1158975, "bike_id": "ad4d52dee055b14f1badbb2efd345a2f", "lat": 39.074953666666666, "fusion_lon": 0.0, "fusion_lat": 0.0, "type": "electric_bike", "name": "ad4d52dee055b14f1badbb2efd345a2f", "is_disabled": 0, "rental_uris": {"ios": "https://dc.lft.to/lastmile_qr_scan", "android": "https://dc.lft.to/lastmile_qr_scan"}, "is_reserved": 0}, {"lon": -76.96911966666667, "bike_id": "b8be4ae5d9d22f2111ef6416555c85f8", "lat": 38.846152833333335, "fusion_lon": 0.0, "fusion_lat": 0.0, "type": "electric_bike", "name": "b8be4ae5d9d22f2111ef6416555c85f8", "is_disabled": 0, "rental_uris": {"ios": "https://dc.lft.to/lastmile_qr_scan", "android": "https://dc.lft.to/lastmile_qr_scan"}, "is_reserved": 0}, {"lon": -77.02391883333334, "bike_id": "ede75ae14b1ef4e8144874b620697dfe", "lat": 38.89971383333334, "fusion_lon": 0.0, "fusion_lat": 0.0, "type": "electric_scooter", "name": "ede75ae14b1ef4e8144874b620697dfe", "is_disabled": 0, "rental_uris": {"ios": "https://dc.lft.to/lastmile_qr_scan", "android": "https://dc.lft.to/lastmile_qr_scan"}, "is_reserved": 0}, {"lon": -77.02396783333333, "bike_id": "e19d7c80929b7aca5cef2f068d54f4c8", "lat": 38.904156, "fusion_lon": 0.0, "fusion_lat": 0.0, "type": "electric_scooter", "name": "e19d7c80929b7aca5cef2f068d54f4c8", "is_disabled": 0, "rental_uris": {"ios": "https://dc.lft.to/lastmile_qr_scan", "android": "https://dc.lft.to/lastmile_qr_scan"}, "is_reserved": 0}, {"lon": -77.01515216666667, "bike_id": "195aaeca6cca6f51d1d9c142d2480082", "lat": 38.9279885, "fusion_lon": 0.0, "fusion_lat": 0.0, "type": "electric_scooter", "name": "195aaeca6cca6f51d1d9c142d2480082", "is_disabled": 0, "rental_uris": {"ios": "https://dc.lft.to/lastmile_qr_scan", "android": "https://dc.lft.to/lastmile_qr_scan"}, "is_reserved": 0}, {"lon": -77.02274766666666, "bike_id": "11ddeead22de921ed5109947481b7db4", "lat": 38.926864, "fusion_lon": 0.0, "fusion_lat": 0.0, "type": "electric_scooter", "name": "11ddeead22de921ed5109947481b7db4", "is_disabled": 0, "rental_uris": {"ios": "https://dc.lft.to/lastmile_qr_scan", "android": "https://dc.lft.to/lastmile_qr_scan"}, "is_reserved": 0}, {"lon": -77.00044466666667, "bike_id": "aee73c1d0fbae31c58b80e83277b9c7e", "lat": 38.91727133333333, "fusion_lon": 0.0, "fusion_lat": 0.0, "type": "electric_scooter", "name": "aee73c1d0fbae31c58b80e83277b9c7e", "is_disabled": 0, "rental_uris": {"ios": "https://dc.lft.to/lastmile_qr_scan", "android": "https://dc.lft.to/lastmile_qr_scan"}, "is_reserved": 0}, {"lon": -76.98260483333334, "bike_id": "b92138a7c4c7adda1051640eaffce262", "lat": 38.901332833333335, "fusion_lon": 0.0, "fusion_lat": 0.0, "type": "electric_scooter", "name": "b92138a7c4c7adda1051640eaffce262", "is_disabled": 0, "rental_uris": {"ios": "https://dc.lft.to/lastmile_qr_scan", "android": "https://dc.lft.to/lastmile_qr_scan"}, "is_reserved": 0}, {"lon": -76.9782725, "bike_id": "678ca7c12af47d08ae8d62f9c997d3fa", "lat": 38.84368833333333, "fusion_lon": 0.0, "fusion_lat": 0.0, "type": "electric_bike", "name": "678ca7c12af47d08ae8d62f9c997d3fa", "is_disabled": 0, "rental_uris": {"ios": "https://dc.lft.to/lastmile_qr_scan", "android": "https://dc.lft.to/lastmile_qr_scan"}, "is_reserved": 0}, {"lon": -77.02585883333333, "bike_id": "b74caf2b074db423e72bd40ce2d8f0e9", "lat": 38.9035335, "fusion_lon": 0.0, "fusion_lat": 0.0, "type": "electric_scooter", "name": "b74caf2b074db423e72bd40ce2d8f0e9", "is_disabled": 0, "rental_uris": {"ios": "https://dc.lft.to/lastmile_qr_scan", "android": "https://dc.lft.to/lastmile_qr_scan"}, "is_reserved": 0}, {"lon": -76.97424216666667, "bike_id": "53127d01b2d81eb522580f5a57b11b9a", "lat": 38.904039, "fusion_lon": 0.0, "fusion_lat": 0.0, "type": "electric_scooter", "name": "53127d01b2d81eb522580f5a57b11b9a", "is_disabled": 0, "rental_uris": {"ios": "https://dc.lft.to/lastmile_qr_scan", "android": "https://dc.lft.to/lastmile_qr_scan"}, "is_reserved": 0}, {"lon": -77.09066066666666, "bike_id": "c9b1b8d50600b1e239a439d968f70d7d", "lat": 38.8626085, "fusion_lon": 0.0, "fusion_lat": 0.0, "type": "electric_bike", "name": "c9b1b8d50600b1e239a439d968f70d7d", "is_disabled": 0, "rental_uris": {"ios": "https://dc.lft.to/lastmile_qr_scan", "android": "https://dc.lft.to/lastmile_qr_scan"}, "is_reserved": 0}, {"lon": -77.02415783333333, "bike_id": "3c84bbddc6ea39c50468ed655729bd27", "lat": 38.901150666666666, "fusion_lon": 0.0, "fusion_lat": 0.0, "type": "electric_scooter", "name": "3c84bbddc6ea39c50468ed655729bd27", "is_disabled": 0, "rental_uris": {"ios": "https://dc.lft.to/lastmile_qr_scan", "android": "https://dc.lft.to/lastmile_qr_scan"}, "is_reserved": 0}, {"lon": -77.03468033333333, "bike_id": "2dcd3fd6bd017d2258a827d609d09f23", "lat": 38.9187285, "fusion_lon": 0.0, "fusion_lat": 0.0, "type": "electric_scooter", "name": "2dcd3fd6bd017d2258a827d609d09f23", "is_disabled": 0, "rental_uris": {"ios": "https://dc.lft.to/lastmile_qr_scan", "android": "https://dc.lft.to/lastmile_qr_scan"}, "is_reserved": 0}, {"lon": -77.01850166666667, "bike_id": "80aad595caf74df7db54c5e23ca49504", "lat": 38.954288, "fusion_lon": 0.0, "fusion_lat": 0.0, "type": "electric_scooter", "name": "80aad595caf74df7db54c5e23ca49504", "is_disabled": 0, "rental_uris": {"ios": "https://dc.lft.to/lastmile_qr_scan", "android": "https://dc.lft.to/lastmile_qr_scan"}, "is_reserved": 0}, {"lon": -77.04161383333333, "bike_id": "60790b32fb19782b8c2db681b768e8bd", "lat": 38.91490533333333, "fusion_lon": 0.0, "fusion_lat": 0.0, "type": "electric_scooter", "name": "60790b32fb19782b8c2db681b768e8bd", "is_disabled": 0, "rental_uris": {"ios": "https://dc.lft.to/lastmile_qr_scan", "android": "https://dc.lft.to/lastmile_qr_scan"}, "is_reserved": 0}, {"lon": -76.94382433333334, "bike_id": "d88a90732b3e5413929025748eefff11", "lat": 38.893263833333336, "fusion_lon": 0.0, "fusion_lat": 0.0, "type": "electric_scooter", "name": "d88a90732b3e5413929025748eefff11", "is_disabled": 0, "rental_uris": {"ios": "https://dc.lft.to/lastmile_qr_scan", "android": "https://dc.lft.to/lastmile_qr_scan"}, "is_reserved": 0}, {"lon": -77.0470795, "bike_id": "09f0ea3cc20affdc553847e0e631f34f", "lat": 38.92232766666667, "fusion_lon": 0.0, "fusion_lat": 0.0, "type": "electric_scooter", "name": "09f0ea3cc20affdc553847e0e631f34f", "is_disabled": 0, "rental_uris": {"ios": "https://dc.lft.to/lastmile_qr_scan", "android": "https://dc.lft.to/lastmile_qr_scan"}, "is_reserved": 0}, {"lon": -76.9497755, "bike_id": "86a049b374053fe3990dc1315cbbe71d", "lat": 38.8946635, "fusion_lon": 0.0, "fusion_lat": 0.0, "type": "electric_scooter", "name": "86a049b374053fe3990dc1315cbbe71d", "is_disabled": 0, "rental_uris": {"ios": "https://dc.lft.to/lastmile_qr_scan", "android": "https://dc.lft.to/lastmile_qr_scan"}, "is_reserved": 0}, {"lon": -77.00505316666667, "bike_id": "479c070f0adfb7b077ed2b946a9b11cd", "lat": 38.87942916666667, "fusion_lon": 0.0, "fusion_lat": 0.0, "type": "electric_scooter", "name": "479c070f0adfb7b077ed2b946a9b11cd", "is_disabled": 0, "rental_uris": {"ios": "https://dc.lft.to/lastmile_qr_scan", "android": "https://dc.lft.to/lastmile_qr_scan"}, "is_reserved": 0}, {"lon": -77.02436333333333, "bike_id": "32be5d95428e94b15931dcd26768e064", "lat": 38.91704166666667, "fusion_lon": 0.0, "fusion_lat": 0.0, "type": "electric_scooter", "name": "32be5d95428e94b15931dcd26768e064", "is_disabled": 0, "rental_uris": {"ios": "https://dc.lft.to/lastmile_qr_scan", "android": "https://dc.lft.to/lastmile_qr_scan"}, "is_reserved": 0}, {"lon": -77.02126916666667, "bike_id": "aeadd49f34bd7492e5e5d66d983a2208", "lat": 38.9160065, "fusion_lon": 0.0, "fusion_lat": 0.0, "type": "electric_scooter", "name": "aeadd49f34bd7492e5e5d66d983a2208", "is_disabled": 0, "rental_uris": {"ios": "https://dc.lft.to/lastmile_qr_scan", "android": "https://dc.lft.to/lastmile_qr_scan"}, "is_reserved": 0}, {"lon": -77.0332875, "bike_id": "e310b493428a612476cd6880670660b1", "lat": 38.94715866666667, "fusion_lon": 0.0, "fusion_lat": 0.0, "type": "electric_scooter", "name": "e310b493428a612476cd6880670660b1", "is_disabled": 0, "rental_uris": {"ios": "https://dc.lft.to/lastmile_qr_scan", "android": "https://dc.lft.to/lastmile_qr_scan"}, "is_reserved": 0}, {"lon": -76.95193666666667, "bike_id": "e712ebe0d8947bd9bf2c2589284d5cc1", "lat": 38.9000465, "fusion_lon": 0.0, "fusion_lat": 0.0, "type": "electric_scooter", "name": "e712ebe0d8947bd9bf2c2589284d5cc1", "is_disabled": 0, "rental_uris": {"ios": "https://dc.lft.to/lastmile_qr_scan", "android": "https://dc.lft.to/lastmile_qr_scan"}, "is_reserved": 0}, {"lon": -77.06018716666667, "bike_id": "330de112e2cf1fa9868a33865c7a7711", "lat": 38.938421166666664, "fusion_lon": 0.0, "fusion_lat": 0.0, "type": "electric_scooter", "name": "330de112e2cf1fa9868a33865c7a7711", "is_disabled": 0, "rental_uris": {"ios": "https://dc.lft.to/lastmile_qr_scan", "android": "https://dc.lft.to/lastmile_qr_scan"}, "is_reserved": 0}, {"lon": -77.04191316666666, "bike_id": "c07e677b87714d00fbabbf27b3ddd693", "lat": 38.9262585, "fusion_lon": 0.0, "fusion_lat": 0.0, "type": "electric_scooter", "name": "c07e677b87714d00fbabbf27b3ddd693", "is_disabled": 0, "rental_uris": {"ios": "https://dc.lft.to/lastmile_qr_scan", "android": "https://dc.lft.to/lastmile_qr_scan"}, "is_reserved": 0}, {"lon": -77.023867, "bike_id": "52ade1fdb7cfa880b0aec070ae9e49ea", "lat": 38.91833916666667, "fusion_lon": 0.0, "fusion_lat": 0.0, "type": "electric_scooter", "name": "52ade1fdb7cfa880b0aec070ae9e49ea", "is_disabled": 0, "rental_uris": {"ios": "https://dc.lft.to/lastmile_qr_scan", "android": "https://dc.lft.to/lastmile_qr_scan"}, "is_reserved": 0}, {"lon": -77.04105166666666, "bike_id": "2ae66253840e47a1cd6e9734110d9591", "lat": 38.918564333333336, "fusion_lon": 0.0, "fusion_lat": 0.0, "type": "electric_scooter", "name": "2ae66253840e47a1cd6e9734110d9591", "is_disabled": 0, "rental_uris": {"ios": "https://dc.lft.to/lastmile_qr_scan", "android": "https://dc.lft.to/lastmile_qr_scan"}, "is_reserved": 0}, {"lon": -76.93366816666666, "bike_id": "7001a26872a2098816feb28597d891fd", "lat": 38.8991675, "fusion_lon": 0.0, "fusion_lat": 0.0, "type": "electric_scooter", "name": "7001a26872a2098816feb28597d891fd", "is_disabled": 0, "rental_uris": {"ios": "https://dc.lft.to/lastmile_qr_scan", "android": "https://dc.lft.to/lastmile_qr_scan"}, "is_reserved": 0}, {"lon": -77.04131766666667, "bike_id": "e08500afce9a1bab958f02fd8ccdb1e3", "lat": 38.92537683333333, "fusion_lon": 0.0, "fusion_lat": 0.0, "type": "electric_scooter", "name": "e08500afce9a1bab958f02fd8ccdb1e3", "is_disabled": 0, "rental_uris": {"ios": "https://dc.lft.to/lastmile_qr_scan", "android": "https://dc.lft.to/lastmile_qr_scan"}, "is_reserved": 0}, {"lon": -77.0269765, "bike_id": "b818710e156bd97d927a637ae9370a11", "lat": 38.90450516666667, "fusion_lon": 0.0, "fusion_lat": 0.0, "type": "electric_scooter", "name": "b818710e156bd97d927a637ae9370a11", "is_disabled": 0, "rental_uris": {"ios": "https://dc.lft.to/lastmile_qr_scan", "android": "https://dc.lft.to/lastmile_qr_scan"}, "is_reserved": 0}, {"lon": -76.99837683333334, "bike_id": "a3bfcba3689b014852cc09a2e4bccd2e", "lat": 38.90239233333333, "fusion_lon": 0.0, "fusion_lat": 0.0, "type": "electric_scooter", "name": "a3bfcba3689b014852cc09a2e4bccd2e", "is_disabled": 0, "rental_uris": {"ios": "https://dc.lft.to/lastmile_qr_scan", "android": "https://dc.lft.to/lastmile_qr_scan"}, "is_reserved": 0}, {"lon": -76.98090516666667, "bike_id": "4d59a8d370000629be2a3420a6e525c6", "lat": 38.881348, "fusion_lon": 0.0, "fusion_lat": 0.0, "type": "electric_bike", "name": "4d59a8d370000629be2a3420a6e525c6", "is_disabled": 0, "rental_uris": {"ios": "https://dc.lft.to/lastmile_qr_scan", "android": "https://dc.lft.to/lastmile_qr_scan"}, "is_reserved": 0}, {"lon": -76.93175383333333, "bike_id": "83aecce9f2cc421f28e315eab14dfb6d", "lat": 38.89883966666667, "fusion_lon": 0.0, "fusion_lat": 0.0, "type": "electric_scooter", "name": "83aecce9f2cc421f28e315eab14dfb6d", "is_disabled": 0, "rental_uris": {"ios": "https://dc.lft.to/lastmile_qr_scan", "android": "https://dc.lft.to/lastmile_qr_scan"}, "is_reserved": 0}, {"lon": -76.99473083333334, "bike_id": "ed437d250e8966e0442c5d88e45c4bbd", "lat": 38.862236833333334, "fusion_lon": 0.0, "fusion_lat": 0.0, "type": "electric_scooter", "name": "ed437d250e8966e0442c5d88e45c4bbd", "is_disabled": 0, "rental_uris": {"ios": "https://dc.lft.to/lastmile_qr_scan", "android": "https://dc.lft.to/lastmile_qr_scan"}, "is_reserved": 0}, {"lon": -77.03483983333334, "bike_id": "1b105b5f6638e5667d2a0da7c6645e4f", "lat": 38.92874716666667, "fusion_lon": 0.0, "fusion_lat": 0.0, "type": "electric_scooter", "name": "1b105b5f6638e5667d2a0da7c6645e4f", "is_disabled": 0, "rental_uris": {"ios": "https://dc.lft.to/lastmile_qr_scan", "android": "https://dc.lft.to/lastmile_qr_scan"}, "is_reserved": 0}, {"lon": -77.00562, "bike_id": "331a89b2f06722b3b21fb9b16e50e0a5", "lat": 38.87875016666667, "fusion_lon": 0.0, "fusion_lat": 0.0, "type": "electric_scooter", "name": "331a89b2f06722b3b21fb9b16e50e0a5", "is_disabled": 0, "rental_uris": {"ios": "https://dc.lft.to/lastmile_qr_scan", "android": "https://dc.lft.to/lastmile_qr_scan"}, "is_reserved": 0}, {"lon": -77.01720633333333, "bike_id": "3a64b2edef138c061e4faa04518006e3", "lat": 38.915049, "fusion_lon": 0.0, "fusion_lat": 0.0, "type": "electric_scooter", "name": "3a64b2edef138c061e4faa04518006e3", "is_disabled": 0, "rental_uris": {"ios": "https://dc.lft.to/lastmile_qr_scan", "android": "https://dc.lft.to/lastmile_qr_scan"}, "is_reserved": 0}, {"lon": -77.03301716666667, "bike_id": "11da95bc977fdccfc401437a472b6841", "lat": 38.925577833333335, "fusion_lon": 0.0, "fusion_lat": 0.0, "type": "electric_scooter", "name": "11da95bc977fdccfc401437a472b6841", "is_disabled": 0, "rental_uris": {"ios": "https://dc.lft.to/lastmile_qr_scan", "android": "https://dc.lft.to/lastmile_qr_scan"}, "is_reserved": 0}, {"lon": -76.9772785, "bike_id": "a48991785fec9915a6d4ce511dbee6a9", "lat": 38.872901, "fusion_lon": 0.0, "fusion_lat": 0.0, "type": "electric_scooter", "name": "a48991785fec9915a6d4ce511dbee6a9", "is_disabled": 0, "rental_uris": {"ios": "https://dc.lft.to/lastmile_qr_scan", "android": "https://dc.lft.to/lastmile_qr_scan"}, "is_reserved": 0}, {"lon": -77.04438366666666, "bike_id": "0dc1c423b7b50af46de05eb71fe9529f", "lat": 38.92166983333333, "fusion_lon": 0.0, "fusion_lat": 0.0, "type": "electric_scooter", "name": "0dc1c423b7b50af46de05eb71fe9529f", "is_disabled": 0, "rental_uris": {"ios": "https://dc.lft.to/lastmile_qr_scan", "android": "https://dc.lft.to/lastmile_qr_scan"}, "is_reserved": 0}, {"lon": -77.062684, "bike_id": "68f7aa77c376460d9c7c17746552fedd", "lat": 38.905462166666666, "fusion_lon": 0.0, "fusion_lat": 0.0, "type": "electric_scooter", "name": "68f7aa77c376460d9c7c17746552fedd", "is_disabled": 0, "rental_uris": {"ios": "https://dc.lft.to/lastmile_qr_scan", "android": "https://dc.lft.to/lastmile_qr_scan"}, "is_reserved": 0}, {"lon": -77.03874133333333, "bike_id": "9d9854d42611c6a1fd25f96b6d405abb", "lat": 38.90961466666667, "fusion_lon": 0.0, "fusion_lat": 0.0, "type": "electric_scooter", "name": "9d9854d42611c6a1fd25f96b6d405abb", "is_disabled": 0, "rental_uris": {"ios": "https://dc.lft.to/lastmile_qr_scan", "android": "https://dc.lft.to/lastmile_qr_scan"}, "is_reserved": 0}, {"lon": -77.02795916666666, "bike_id": "74a36b6b0ce6588e7491110c1ff3c476", "lat": 38.935378166666666, "fusion_lon": 0.0, "fusion_lat": 0.0, "type": "electric_scooter", "name": "74a36b6b0ce6588e7491110c1ff3c476", "is_disabled": 0, "rental_uris": {"ios": "https://dc.lft.to/lastmile_qr_scan", "android": "https://dc.lft.to/lastmile_qr_scan"}, "is_reserved": 0}, {"lon": -77.03055533333334, "bike_id": "2e8f4c3782b6c1c15ca31ac73bb14b90", "lat": 38.91260183333333, "fusion_lon": 0.0, "fusion_lat": 0.0, "type": "electric_scooter", "name": "2e8f4c3782b6c1c15ca31ac73bb14b90", "is_disabled": 0, "rental_uris": {"ios": "https://dc.lft.to/lastmile_qr_scan", "android": "https://dc.lft.to/lastmile_qr_scan"}, "is_reserved": 0}, {"lon": -76.99060583333333, "bike_id": "0b9863798882b2efcb6abd33f48f1680", "lat": 38.8636295, "fusion_lon": 0.0, "fusion_lat": 0.0, "type": "electric_scooter", "name": "0b9863798882b2efcb6abd33f48f1680", "is_disabled": 0, "rental_uris": {"ios": "https://dc.lft.to/lastmile_qr_scan", "android": "https://dc.lft.to/lastmile_qr_scan"}, "is_reserved": 0}, {"lon": -77.03436883333333, "bike_id": "e3b2cfd0af0e8b0ee56db225686ab0b5", "lat": 38.90567133333333, "fusion_lon": 0.0, "fusion_lat": 0.0, "type": "electric_scooter", "name": "e3b2cfd0af0e8b0ee56db225686ab0b5", "is_disabled": 0, "rental_uris": {"ios": "https://dc.lft.to/lastmile_qr_scan", "android": "https://dc.lft.to/lastmile_qr_scan"}, "is_reserved": 0}, {"lon": -77.03202516666667, "bike_id": "04b74b2644a6fa57e8b1d73bd031a7dd", "lat": 38.93967466666667, "fusion_lon": 0.0, "fusion_lat": 0.0, "type": "electric_scooter", "name": "04b74b2644a6fa57e8b1d73bd031a7dd", "is_disabled": 0, "rental_uris": {"ios": "https://dc.lft.to/lastmile_qr_scan", "android": "https://dc.lft.to/lastmile_qr_scan"}, "is_reserved": 0}, {"lon": -77.04426866666667, "bike_id": "49ded62856b30a1db8850614d8c582ca", "lat": 38.921266333333335, "fusion_lon": 0.0, "fusion_lat": 0.0, "type": "electric_scooter", "name": "49ded62856b30a1db8850614d8c582ca", "is_disabled": 0, "rental_uris": {"ios": "https://dc.lft.to/lastmile_qr_scan", "android": "https://dc.lft.to/lastmile_qr_scan"}, "is_reserved": 0}, {"lon": -77.01410483333333, "bike_id": "49f70e92ff642409ef6ba23e2e5ab307", "lat": 38.928569333333336, "fusion_lon": 0.0, "fusion_lat": 0.0, "type": "electric_scooter", "name": "49f70e92ff642409ef6ba23e2e5ab307", "is_disabled": 0, "rental_uris": {"ios": "https://dc.lft.to/lastmile_qr_scan", "android": "https://dc.lft.to/lastmile_qr_scan"}, "is_reserved": 0}, {"lon": -77.04323133333334, "bike_id": "dfc2dbe808d1371b8bffe1eb9aafe9cc", "lat": 38.89225883333334, "fusion_lon": 0.0, "fusion_lat": 0.0, "type": "electric_scooter", "name": "dfc2dbe808d1371b8bffe1eb9aafe9cc", "is_disabled": 0, "rental_uris": {"ios": "https://dc.lft.to/lastmile_qr_scan", "android": "https://dc.lft.to/lastmile_qr_scan"}, "is_reserved": 0}, {"lon": -77.05725283333334, "bike_id": "cb0a4393b4bc60db814d954ca706104f", "lat": 38.9336585, "fusion_lon": 0.0, "fusion_lat": 0.0, "type": "electric_scooter", "name": "cb0a4393b4bc60db814d954ca706104f", "is_disabled": 0, "rental_uris": {"ios": "https://dc.lft.to/lastmile_qr_scan", "android": "https://dc.lft.to/lastmile_qr_scan"}, "is_reserved": 0}, {"lon": -77.00581783333334, "bike_id": "6e938e997df01ffb0148232ad01d1855", "lat": 38.9091875, "fusion_lon": 0.0, "fusion_lat": 0.0, "type": "electric_scooter", "name": "6e938e997df01ffb0148232ad01d1855", "is_disabled": 0, "rental_uris": {"ios": "https://dc.lft.to/lastmile_qr_scan", "android": "https://dc.lft.to/lastmile_qr_scan"}, "is_reserved": 0}, {"lon": -77.00699433333334, "bike_id": "ee13e32585ae600396ba30e69cc757ae", "lat": 38.91744333333333, "fusion_lon": 0.0, "fusion_lat": 0.0, "type": "electric_scooter", "name": "ee13e32585ae600396ba30e69cc757ae", "is_disabled": 0, "rental_uris": {"ios": "https://dc.lft.to/lastmile_qr_scan", "android": "https://dc.lft.to/lastmile_qr_scan"}, "is_reserved": 0}, {"lon": -76.9790625, "bike_id": "4e39625d22472b2208cdc5fb4680904f", "lat": 38.92461616666667, "fusion_lon": 0.0, "fusion_lat": 0.0, "type": "electric_bike", "name": "4e39625d22472b2208cdc5fb4680904f", "is_disabled": 0, "rental_uris": {"ios": "https://dc.lft.to/lastmile_qr_scan", "android": "https://dc.lft.to/lastmile_qr_scan"}, "is_reserved": 0}, {"lon": -77.00487583333333, "bike_id": "0ced20ce3b943fda1adf427410236f9b", "lat": 38.87473766666667, "fusion_lon": 0.0, "fusion_lat": 0.0, "type": "electric_scooter", "name": "0ced20ce3b943fda1adf427410236f9b", "is_disabled": 0, "rental_uris": {"ios": "https://dc.lft.to/lastmile_qr_scan", "android": "https://dc.lft.to/lastmile_qr_scan"}, "is_reserved": 0}, {"lon": -76.99525533333333, "bike_id": "8575f3d67771e65f99b362ffe88ebb1b", "lat": 38.894807666666665, "fusion_lon": 0.0, "fusion_lat": 0.0, "type": "electric_scooter", "name": "8575f3d67771e65f99b362ffe88ebb1b", "is_disabled": 0, "rental_uris": {"ios": "https://dc.lft.to/lastmile_qr_scan", "android": "https://dc.lft.to/lastmile_qr_scan"}, "is_reserved": 0}, {"lon": -76.95524116666667, "bike_id": "82a4920786988102daa960d37534251e", "lat": 38.88775033333334, "fusion_lon": 0.0, "fusion_lat": 0.0, "type": "electric_scooter", "name": "82a4920786988102daa960d37534251e", "is_disabled": 0, "rental_uris": {"ios": "https://dc.lft.to/lastmile_qr_scan", "android": "https://dc.lft.to/lastmile_qr_scan"}, "is_reserved": 0}, {"lon": -77.0077995, "bike_id": "05883b8cfec85fd459ce779c9ca3d7d8", "lat": 38.905689833333334, "fusion_lon": 0.0, "fusion_lat": 0.0, "type": "electric_scooter", "name": "05883b8cfec85fd459ce779c9ca3d7d8", "is_disabled": 0, "rental_uris": {"ios": "https://dc.lft.to/lastmile_qr_scan", "android": "https://dc.lft.to/lastmile_qr_scan"}, "is_reserved": 0}, {"lon": -76.97325816666667, "bike_id": "af0d98ad8447c56af3ff7f771becbabf", "lat": 38.9047925, "fusion_lon": 0.0, "fusion_lat": 0.0, "type": "electric_bike", "name": "af0d98ad8447c56af3ff7f771becbabf", "is_disabled": 0, "rental_uris": {"ios": "https://dc.lft.to/lastmile_qr_scan", "android": "https://dc.lft.to/lastmile_qr_scan"}, "is_reserved": 0}, {"lon": -77.04561633333333, "bike_id": "d4de875eb3af6f89adb7e046f60aa698", "lat": 38.91471466666667, "fusion_lon": 0.0, "fusion_lat": 0.0, "type": "electric_scooter", "name": "d4de875eb3af6f89adb7e046f60aa698", "is_disabled": 0, "rental_uris": {"ios": "https://dc.lft.to/lastmile_qr_scan", "android": "https://dc.lft.to/lastmile_qr_scan"}, "is_reserved": 0}, {"lon": -76.98492933333333, "bike_id": "a29de6872a71e9879d694c0fd41b16cb", "lat": 38.89355, "fusion_lon": 0.0, "fusion_lat": 0.0, "type": "electric_scooter", "name": "a29de6872a71e9879d694c0fd41b16cb", "is_disabled": 0, "rental_uris": {"ios": "https://dc.lft.to/lastmile_qr_scan", "android": "https://dc.lft.to/lastmile_qr_scan"}, "is_reserved": 0}, {"lon": -76.99793033333333, "bike_id": "9428ee895316a8254297add8fce281d0", "lat": 38.95644566666667, "fusion_lon": 0.0, "fusion_lat": 0.0, "type": "electric_bike", "name": "9428ee895316a8254297add8fce281d0", "is_disabled": 0, "rental_uris": {"ios": "https://dc.lft.to/lastmile_qr_scan", "android": "https://dc.lft.to/lastmile_qr_scan"}, "is_reserved": 0}, {"lon": -77.02898183333333, "bike_id": "f03189d258f078b84d92bbdc49dd9fd6", "lat": 38.9169105, "fusion_lon": 0.0, "fusion_lat": 0.0, "type": "electric_scooter", "name": "f03189d258f078b84d92bbdc49dd9fd6", "is_disabled": 0, "rental_uris": {"ios": "https://dc.lft.to/lastmile_qr_scan", "android": "https://dc.lft.to/lastmile_qr_scan"}, "is_reserved": 0}, {"lon": -77.034716, "bike_id": "08cff8d2634d35afd6ed2579fbd9bb5a", "lat": 38.918716, "fusion_lon": 0.0, "fusion_lat": 0.0, "type": "electric_scooter", "name": "08cff8d2634d35afd6ed2579fbd9bb5a", "is_disabled": 0, "rental_uris": {"ios": "https://dc.lft.to/lastmile_qr_scan", "android": "https://dc.lft.to/lastmile_qr_scan"}, "is_reserved": 0}, {"lon": -77.03435883333333, "bike_id": "6cb512f91c792f8171ac9c5b6654c7e0", "lat": 38.902805, "fusion_lon": 0.0, "fusion_lat": 0.0, "type": "electric_scooter", "name": "6cb512f91c792f8171ac9c5b6654c7e0", "is_disabled": 0, "rental_uris": {"ios": "https://dc.lft.to/lastmile_qr_scan", "android": "https://dc.lft.to/lastmile_qr_scan"}, "is_reserved": 0}, {"lon": -77.048082, "bike_id": "de1841a785f631f3273576a27dbe9408", "lat": 38.91632766666667, "fusion_lon": 0.0, "fusion_lat": 0.0, "type": "electric_scooter", "name": "de1841a785f631f3273576a27dbe9408", "is_disabled": 0, "rental_uris": {"ios": "https://dc.lft.to/lastmile_qr_scan", "android": "https://dc.lft.to/lastmile_qr_scan"}, "is_reserved": 0}, {"lon": -76.98706316666667, "bike_id": "d78da484e5790113b3be70d31a532cab", "lat": 38.90039816666667, "fusion_lon": 0.0, "fusion_lat": 0.0, "type": "electric_scooter", "name": "d78da484e5790113b3be70d31a532cab", "is_disabled": 0, "rental_uris": {"ios": "https://dc.lft.to/lastmile_qr_scan", "android": "https://dc.lft.to/lastmile_qr_scan"}, "is_reserved": 0}, {"lon": -76.99542383333333, "bike_id": "88d8352927382c869f033ec66810b8c8", "lat": 38.86258866666667, "fusion_lon": 0.0, "fusion_lat": 0.0, "type": "electric_scooter", "name": "88d8352927382c869f033ec66810b8c8", "is_disabled": 0, "rental_uris": {"ios": "https://dc.lft.to/lastmile_qr_scan", "android": "https://dc.lft.to/lastmile_qr_scan"}, "is_reserved": 0}, {"lon": -77.02679616666667, "bike_id": "4ae4ee8a0c4014751b1008c111f288b7", "lat": 38.98460733333334, "fusion_lon": 0.0, "fusion_lat": 0.0, "type": "electric_scooter", "name": "4ae4ee8a0c4014751b1008c111f288b7", "is_disabled": 0, "rental_uris": {"ios": "https://dc.lft.to/lastmile_qr_scan", "android": "https://dc.lft.to/lastmile_qr_scan"}, "is_reserved": 0}, {"lon": -77.03667633333333, "bike_id": "7018fc9c431223c6a627707190f2b033", "lat": 38.93651166666667, "fusion_lon": 0.0, "fusion_lat": 0.0, "type": "electric_bike", "name": "7018fc9c431223c6a627707190f2b033", "is_disabled": 0, "rental_uris": {"ios": "https://dc.lft.to/lastmile_qr_scan", "android": "https://dc.lft.to/lastmile_qr_scan"}, "is_reserved": 0}, {"lon": -77.03256166666667, "bike_id": "fca778ea7cba47c92b2520afd79d4019", "lat": 38.94274716666666, "fusion_lon": 0.0, "fusion_lat": 0.0, "type": "electric_scooter", "name": "fca778ea7cba47c92b2520afd79d4019", "is_disabled": 0, "rental_uris": {"ios": "https://dc.lft.to/lastmile_qr_scan", "android": "https://dc.lft.to/lastmile_qr_scan"}, "is_reserved": 0}, {"lon": -77.028147, "bike_id": "fcff7c227c6f9c138a8766a60f8e75f1", "lat": 38.88180766666667, "fusion_lon": 0.0, "fusion_lat": 0.0, "type": "electric_scooter", "name": "fcff7c227c6f9c138a8766a60f8e75f1", "is_disabled": 0, "rental_uris": {"ios": "https://dc.lft.to/lastmile_qr_scan", "android": "https://dc.lft.to/lastmile_qr_scan"}, "is_reserved": 0}, {"lon": -77.01145033333333, "bike_id": "dee9fa2b1327f6448f4f188ab877b14a", "lat": 38.909613, "fusion_lon": 0.0, "fusion_lat": 0.0, "type": "electric_scooter", "name": "dee9fa2b1327f6448f4f188ab877b14a", "is_disabled": 0, "rental_uris": {"ios": "https://dc.lft.to/lastmile_qr_scan", "android": "https://dc.lft.to/lastmile_qr_scan"}, "is_reserved": 0}, {"lon": -77.02376216666667, "bike_id": "ed971aea9e7ff20f3570ad3d7ecb5a1d", "lat": 38.9020145, "fusion_lon": 0.0, "fusion_lat": 0.0, "type": "electric_scooter", "name": "ed971aea9e7ff20f3570ad3d7ecb5a1d", "is_disabled": 0, "rental_uris": {"ios": "https://dc.lft.to/lastmile_qr_scan", "android": "https://dc.lft.to/lastmile_qr_scan"}, "is_reserved": 0}, {"lon": -76.96386366666667, "bike_id": "065ec0865e0376cdcd51732773d1e924", "lat": 38.95180966666667, "fusion_lon": 0.0, "fusion_lat": 0.0, "type": "electric_bike", "name": "065ec0865e0376cdcd51732773d1e924", "is_disabled": 0, "rental_uris": {"ios": "https://dc.lft.to/lastmile_qr_scan", "android": "https://dc.lft.to/lastmile_qr_scan"}, "is_reserved": 0}, {"lon": -77.02163833333333, "bike_id": "b1dfd0ab2f4219d432617ef5e8f3abea", "lat": 38.900076166666665, "fusion_lon": 0.0, "fusion_lat": 0.0, "type": "electric_scooter", "name": "b1dfd0ab2f4219d432617ef5e8f3abea", "is_disabled": 0, "rental_uris": {"ios": "https://dc.lft.to/lastmile_qr_scan", "android": "https://dc.lft.to/lastmile_qr_scan"}, "is_reserved": 0}, {"lon": -77.0297975, "bike_id": "68d21f100a8d211d282e5777d3181317", "lat": 38.921977166666665, "fusion_lon": 0.0, "fusion_lat": 0.0, "type": "electric_scooter", "name": "68d21f100a8d211d282e5777d3181317", "is_disabled": 0, "rental_uris": {"ios": "https://dc.lft.to/lastmile_qr_scan", "android": "https://dc.lft.to/lastmile_qr_scan"}, "is_reserved": 0}, {"lon": -77.01215833333333, "bike_id": "433bcaa6d5790a7c0da70b3869b76d88", "lat": 38.9143765, "fusion_lon": 0.0, "fusion_lat": 0.0, "type": "electric_scooter", "name": "433bcaa6d5790a7c0da70b3869b76d88", "is_disabled": 0, "rental_uris": {"ios": "https://dc.lft.to/lastmile_qr_scan", "android": "https://dc.lft.to/lastmile_qr_scan"}, "is_reserved": 0}, {"lon": -77.019955, "bike_id": "e3f1f22f9ce70fc2352630196c8db1c8", "lat": 38.9044355, "fusion_lon": 0.0, "fusion_lat": 0.0, "type": "electric_scooter", "name": "e3f1f22f9ce70fc2352630196c8db1c8", "is_disabled": 0, "rental_uris": {"ios": "https://dc.lft.to/lastmile_qr_scan", "android": "https://dc.lft.to/lastmile_qr_scan"}, "is_reserved": 0}, {"lon": -77.024341, "bike_id": "015562ce545ed49547f833ab3f60736a", "lat": 38.92493133333333, "fusion_lon": 0.0, "fusion_lat": 0.0, "type": "electric_scooter", "name": "015562ce545ed49547f833ab3f60736a", "is_disabled": 0, "rental_uris": {"ios": "https://dc.lft.to/lastmile_qr_scan", "android": "https://dc.lft.to/lastmile_qr_scan"}, "is_reserved": 0}, {"lon": -77.03473916666667, "bike_id": "54d63c7a29568d82fc7fc467fd91af53", "lat": 38.92060683333333, "fusion_lon": 0.0, "fusion_lat": 0.0, "type": "electric_scooter", "name": "54d63c7a29568d82fc7fc467fd91af53", "is_disabled": 0, "rental_uris": {"ios": "https://dc.lft.to/lastmile_qr_scan", "android": "https://dc.lft.to/lastmile_qr_scan"}, "is_reserved": 0}, {"lon": -77.01897033333333, "bike_id": "12e639a44b493ec9327ccf0ba59ae9dd", "lat": 38.88641483333333, "fusion_lon": 0.0, "fusion_lat": 0.0, "type": "electric_scooter", "name": "12e639a44b493ec9327ccf0ba59ae9dd", "is_disabled": 0, "rental_uris": {"ios": "https://dc.lft.to/lastmile_qr_scan", "android": "https://dc.lft.to/lastmile_qr_scan"}, "is_reserved": 0}, {"lon": -77.028113, "bike_id": "bbc88d18350c6d6e9cc4ff0e1dbbb86c", "lat": 38.924735166666665, "fusion_lon": 0.0, "fusion_lat": 0.0, "type": "electric_scooter", "name": "bbc88d18350c6d6e9cc4ff0e1dbbb86c", "is_disabled": 0, "rental_uris": {"ios": "https://dc.lft.to/lastmile_qr_scan", "android": "https://dc.lft.to/lastmile_qr_scan"}, "is_reserved": 0}, {"lon": -77.039749, "bike_id": "94867a073d372b2d1f0a27cb830beee9", "lat": 38.92312016666666, "fusion_lon": 0.0, "fusion_lat": 0.0, "type": "electric_scooter", "name": "94867a073d372b2d1f0a27cb830beee9", "is_disabled": 0, "rental_uris": {"ios": "https://dc.lft.to/lastmile_qr_scan", "android": "https://dc.lft.to/lastmile_qr_scan"}, "is_reserved": 0}, {"lon": -77.053383, "bike_id": "a5b85433b579c8989229808daf43334a", "lat": 38.92711233333333, "fusion_lon": 0.0, "fusion_lat": 0.0, "type": "electric_scooter", "name": "a5b85433b579c8989229808daf43334a", "is_disabled": 0, "rental_uris": {"ios": "https://dc.lft.to/lastmile_qr_scan", "android": "https://dc.lft.to/lastmile_qr_scan"}, "is_reserved": 0}, {"lon": -77.020832, "bike_id": "54042c44251227fb15a58458ee8802c8", "lat": 38.91553733333333, "fusion_lon": 0.0, "fusion_lat": 0.0, "type": "electric_scooter", "name": "54042c44251227fb15a58458ee8802c8", "is_disabled": 0, "rental_uris": {"ios": "https://dc.lft.to/lastmile_qr_scan", "android": "https://dc.lft.to/lastmile_qr_scan"}, "is_reserved": 0}, {"lon": -76.98155016666666, "bike_id": "ddaae6b4abaab78e2f1a28e9a54503f4", "lat": 38.92573083333333, "fusion_lon": 0.0, "fusion_lat": 0.0, "type": "electric_scooter", "name": "ddaae6b4abaab78e2f1a28e9a54503f4", "is_disabled": 0, "rental_uris": {"ios": "https://dc.lft.to/lastmile_qr_scan", "android": "https://dc.lft.to/lastmile_qr_scan"}, "is_reserved": 0}, {"lon": -77.02584383333334, "bike_id": "b2bade11a3a6ad0dda70dc589032e558", "lat": 38.892332, "fusion_lon": 0.0, "fusion_lat": 0.0, "type": "electric_scooter", "name": "b2bade11a3a6ad0dda70dc589032e558", "is_disabled": 0, "rental_uris": {"ios": "https://dc.lft.to/lastmile_qr_scan", "android": "https://dc.lft.to/lastmile_qr_scan"}, "is_reserved": 0}, {"lon": -77.049824, "bike_id": "202c863ee893a1ee0f0553a42607c3dd", "lat": 38.896099, "fusion_lon": 0.0, "fusion_lat": 0.0, "type": "electric_scooter", "name": "202c863ee893a1ee0f0553a42607c3dd", "is_disabled": 0, "rental_uris": {"ios": "https://dc.lft.to/lastmile_qr_scan", "android": "https://dc.lft.to/lastmile_qr_scan"}, "is_reserved": 0}, {"lon": -76.99647416666667, "bike_id": "c7f65d0e36db4ef15e40010c4587b8a1", "lat": 38.98824783333333, "fusion_lon": 0.0, "fusion_lat": 0.0, "type": "electric_bike", "name": "c7f65d0e36db4ef15e40010c4587b8a1", "is_disabled": 0, "rental_uris": {"ios": "https://dc.lft.to/lastmile_qr_scan", "android": "https://dc.lft.to/lastmile_qr_scan"}, "is_reserved": 0}, {"lon": -76.99177483333334, "bike_id": "f95c23825ee3d8232d4b2860f8e1821c", "lat": 38.889877, "fusion_lon": 0.0, "fusion_lat": 0.0, "type": "electric_scooter", "name": "f95c23825ee3d8232d4b2860f8e1821c", "is_disabled": 0, "rental_uris": {"ios": "https://dc.lft.to/lastmile_qr_scan", "android": "https://dc.lft.to/lastmile_qr_scan"}, "is_reserved": 0}, {"lon": -77.02713933333334, "bike_id": "1c32963751920b12d730acf2fa7fad1e", "lat": 38.904835166666665, "fusion_lon": 0.0, "fusion_lat": 0.0, "type": "electric_scooter", "name": "1c32963751920b12d730acf2fa7fad1e", "is_disabled": 0, "rental_uris": {"ios": "https://dc.lft.to/lastmile_qr_scan", "android": "https://dc.lft.to/lastmile_qr_scan"}, "is_reserved": 0}, {"lon": -77.05029066666667, "bike_id": "7a96792ee4b3629de40af63d1886104c", "lat": 38.92388116666667, "fusion_lon": 0.0, "fusion_lat": 0.0, "type": "electric_scooter", "name": "7a96792ee4b3629de40af63d1886104c", "is_disabled": 0, "rental_uris": {"ios": "https://dc.lft.to/lastmile_qr_scan", "android": "https://dc.lft.to/lastmile_qr_scan"}, "is_reserved": 0}, {"lon": -77.00969616666667, "bike_id": "43bd31315f5296a65a36772f98c87235", "lat": 38.91182633333333, "fusion_lon": 0.0, "fusion_lat": 0.0, "type": "electric_scooter", "name": "43bd31315f5296a65a36772f98c87235", "is_disabled": 0, "rental_uris": {"ios": "https://dc.lft.to/lastmile_qr_scan", "android": "https://dc.lft.to/lastmile_qr_scan"}, "is_reserved": 0}, {"lon": -77.040151, "bike_id": "ca88fd75efa8720ce37bbeaf7b27ed3a", "lat": 38.9035765, "fusion_lon": 0.0, "fusion_lat": 0.0, "type": "electric_scooter", "name": "ca88fd75efa8720ce37bbeaf7b27ed3a", "is_disabled": 0, "rental_uris": {"ios": "https://dc.lft.to/lastmile_qr_scan", "android": "https://dc.lft.to/lastmile_qr_scan"}, "is_reserved": 0}, {"lon": -77.01923683333334, "bike_id": "76342d9ba807f9ea63f6aa362c3006bb", "lat": 38.89832716666667, "fusion_lon": 0.0, "fusion_lat": 0.0, "type": "electric_scooter", "name": "76342d9ba807f9ea63f6aa362c3006bb", "is_disabled": 0, "rental_uris": {"ios": "https://dc.lft.to/lastmile_qr_scan", "android": "https://dc.lft.to/lastmile_qr_scan"}, "is_reserved": 0}, {"lon": -77.02279666666666, "bike_id": "a62d7f5be0f8dd091d09fe1aee44dc61", "lat": 38.926858333333335, "fusion_lon": 0.0, "fusion_lat": 0.0, "type": "electric_scooter", "name": "a62d7f5be0f8dd091d09fe1aee44dc61", "is_disabled": 0, "rental_uris": {"ios": "https://dc.lft.to/lastmile_qr_scan", "android": "https://dc.lft.to/lastmile_qr_scan"}, "is_reserved": 0}, {"lon": -77.035422, "bike_id": "8021830bde6b907b6c59ee5f14a5c4cf", "lat": 38.9241775, "fusion_lon": 0.0, "fusion_lat": 0.0, "type": "electric_scooter", "name": "8021830bde6b907b6c59ee5f14a5c4cf", "is_disabled": 0, "rental_uris": {"ios": "https://dc.lft.to/lastmile_qr_scan", "android": "https://dc.lft.to/lastmile_qr_scan"}, "is_reserved": 0}, {"lon": -77.00758866666666, "bike_id": "66575dfa3e139f4f4eaff52d025fd69c", "lat": 38.90055866666667, "fusion_lon": 0.0, "fusion_lat": 0.0, "type": "electric_scooter", "name": "66575dfa3e139f4f4eaff52d025fd69c", "is_disabled": 0, "rental_uris": {"ios": "https://dc.lft.to/lastmile_qr_scan", "android": "https://dc.lft.to/lastmile_qr_scan"}, "is_reserved": 0}, {"lon": -77.02159, "bike_id": "ea5160e59cdc582ec09922ac5d6e43f2", "lat": 38.89292983333333, "fusion_lon": 0.0, "fusion_lat": 0.0, "type": "electric_scooter", "name": "ea5160e59cdc582ec09922ac5d6e43f2", "is_disabled": 0, "rental_uris": {"ios": "https://dc.lft.to/lastmile_qr_scan", "android": "https://dc.lft.to/lastmile_qr_scan"}, "is_reserved": 0}, {"lon": -77.0238515, "bike_id": "c729cd1c3da6e669a323cfad3421abc8", "lat": 38.9094065, "fusion_lon": 0.0, "fusion_lat": 0.0, "type": "electric_scooter", "name": "c729cd1c3da6e669a323cfad3421abc8", "is_disabled": 0, "rental_uris": {"ios": "https://dc.lft.to/lastmile_qr_scan", "android": "https://dc.lft.to/lastmile_qr_scan"}, "is_reserved": 0}, {"lon": -76.98173416666667, "bike_id": "f52cff8fb22bdd24fbb0f40c629cccbb", "lat": 38.904378666666666, "fusion_lon": 0.0, "fusion_lat": 0.0, "type": "electric_scooter", "name": "f52cff8fb22bdd24fbb0f40c629cccbb", "is_disabled": 0, "rental_uris": {"ios": "https://dc.lft.to/lastmile_qr_scan", "android": "https://dc.lft.to/lastmile_qr_scan"}, "is_reserved": 0}, {"lon": -77.02165133333334, "bike_id": "76fb5a9dccb5804940afe464d69b16ef", "lat": 38.909715, "fusion_lon": 0.0, "fusion_lat": 0.0, "type": "electric_scooter", "name": "76fb5a9dccb5804940afe464d69b16ef", "is_disabled": 0, "rental_uris": {"ios": "https://dc.lft.to/lastmile_qr_scan", "android": "https://dc.lft.to/lastmile_qr_scan"}, "is_reserved": 0}, {"lon": -77.022646, "bike_id": "bc553a394f339534b3653d558e10a743", "lat": 38.89471316666667, "fusion_lon": 0.0, "fusion_lat": 0.0, "type": "electric_scooter", "name": "bc553a394f339534b3653d558e10a743", "is_disabled": 0, "rental_uris": {"ios": "https://dc.lft.to/lastmile_qr_scan", "android": "https://dc.lft.to/lastmile_qr_scan"}, "is_reserved": 0}, {"lon": -77.02345633333333, "bike_id": "27259ca06229777d3b067b15fafdb7a0", "lat": 38.92251483333333, "fusion_lon": 0.0, "fusion_lat": 0.0, "type": "electric_scooter", "name": "27259ca06229777d3b067b15fafdb7a0", "is_disabled": 0, "rental_uris": {"ios": "https://dc.lft.to/lastmile_qr_scan", "android": "https://dc.lft.to/lastmile_qr_scan"}, "is_reserved": 0}, {"lon": -76.9810615, "bike_id": "49617603dd9775d8868180d0c0204fd3", "lat": 38.904085, "fusion_lon": 0.0, "fusion_lat": 0.0, "type": "electric_scooter", "name": "49617603dd9775d8868180d0c0204fd3", "is_disabled": 0, "rental_uris": {"ios": "https://dc.lft.to/lastmile_qr_scan", "android": "https://dc.lft.to/lastmile_qr_scan"}, "is_reserved": 0}, {"lon": -76.98683766666667, "bike_id": "6ca247f770ce2e5e8e7bd43b824a7ca7", "lat": 38.912204, "fusion_lon": 0.0, "fusion_lat": 0.0, "type": "electric_scooter", "name": "6ca247f770ce2e5e8e7bd43b824a7ca7", "is_disabled": 0, "rental_uris": {"ios": "https://dc.lft.to/lastmile_qr_scan", "android": "https://dc.lft.to/lastmile_qr_scan"}, "is_reserved": 0}, {"lon": -77.02587066666666, "bike_id": "7e1075c7fcc912001317018f6e4a4a99", "lat": 38.892308166666666, "fusion_lon": 0.0, "fusion_lat": 0.0, "type": "electric_scooter", "name": "7e1075c7fcc912001317018f6e4a4a99", "is_disabled": 0, "rental_uris": {"ios": "https://dc.lft.to/lastmile_qr_scan", "android": "https://dc.lft.to/lastmile_qr_scan"}, "is_reserved": 0}, {"lon": -76.93357366666666, "bike_id": "cb9b60dbad4b17458138b9af43130571", "lat": 38.899199, "fusion_lon": 0.0, "fusion_lat": 0.0, "type": "electric_scooter", "name": "cb9b60dbad4b17458138b9af43130571", "is_disabled": 0, "rental_uris": {"ios": "https://dc.lft.to/lastmile_qr_scan", "android": "https://dc.lft.to/lastmile_qr_scan"}, "is_reserved": 0}, {"lon": -77.024249, "bike_id": "779b29e07f324e0072cf99275eeee43e", "lat": 38.919272666666664, "fusion_lon": 0.0, "fusion_lat": 0.0, "type": "electric_scooter", "name": "779b29e07f324e0072cf99275eeee43e", "is_disabled": 0, "rental_uris": {"ios": "https://dc.lft.to/lastmile_qr_scan", "android": "https://dc.lft.to/lastmile_qr_scan"}, "is_reserved": 0}, {"lon": -77.025117, "bike_id": "9f7c58fd5c5595aa5ed4517ab21e6b36", "lat": 38.904314, "fusion_lon": 0.0, "fusion_lat": 0.0, "type": "electric_scooter", "name": "9f7c58fd5c5595aa5ed4517ab21e6b36", "is_disabled": 0, "rental_uris": {"ios": "https://dc.lft.to/lastmile_qr_scan", "android": "https://dc.lft.to/lastmile_qr_scan"}, "is_reserved": 0}, {"lon": -77.02156433333333, "bike_id": "28f980d5b50fe2a5c76be9f0ea907427", "lat": 38.8922215, "fusion_lon": 0.0, "fusion_lat": 0.0, "type": "electric_scooter", "name": "28f980d5b50fe2a5c76be9f0ea907427", "is_disabled": 0, "rental_uris": {"ios": "https://dc.lft.to/lastmile_qr_scan", "android": "https://dc.lft.to/lastmile_qr_scan"}, "is_reserved": 0}, {"lon": -77.02685583333333, "bike_id": "aaf775d9522c9c855d7f142c8da72547", "lat": 38.91352916666666, "fusion_lon": 0.0, "fusion_lat": 0.0, "type": "electric_scooter", "name": "aaf775d9522c9c855d7f142c8da72547", "is_disabled": 0, "rental_uris": {"ios": "https://dc.lft.to/lastmile_qr_scan", "android": "https://dc.lft.to/lastmile_qr_scan"}, "is_reserved": 0}, {"lon": -77.03617316666667, "bike_id": "b1c73066887630f36b061b9af4267ffc", "lat": 38.936799666666666, "fusion_lon": 0.0, "fusion_lat": 0.0, "type": "electric_scooter", "name": "b1c73066887630f36b061b9af4267ffc", "is_disabled": 0, "rental_uris": {"ios": "https://dc.lft.to/lastmile_qr_scan", "android": "https://dc.lft.to/lastmile_qr_scan"}, "is_reserved": 0}, {"lon": -76.98179466666667, "bike_id": "146a3d50d60b4b20771b1572f0901c1c", "lat": 38.895841833333336, "fusion_lon": 0.0, "fusion_lat": 0.0, "type": "electric_scooter", "name": "146a3d50d60b4b20771b1572f0901c1c", "is_disabled": 0, "rental_uris": {"ios": "https://dc.lft.to/lastmile_qr_scan", "android": "https://dc.lft.to/lastmile_qr_scan"}, "is_reserved": 0}, {"lon": -77.03645616666667, "bike_id": "49b11811b8d1921b6b5ae95bb889720b", "lat": 38.924612333333336, "fusion_lon": 0.0, "fusion_lat": 0.0, "type": "electric_scooter", "name": "49b11811b8d1921b6b5ae95bb889720b", "is_disabled": 0, "rental_uris": {"ios": "https://dc.lft.to/lastmile_qr_scan", "android": "https://dc.lft.to/lastmile_qr_scan"}, "is_reserved": 0}, {"lon": -77.02681216666667, "bike_id": "b92fde039df7c48e92af0f70a31d5493", "lat": 38.90444383333333, "fusion_lon": 0.0, "fusion_lat": 0.0, "type": "electric_scooter", "name": "b92fde039df7c48e92af0f70a31d5493", "is_disabled": 0, "rental_uris": {"ios": "https://dc.lft.to/lastmile_qr_scan", "android": "https://dc.lft.to/lastmile_qr_scan"}, "is_reserved": 0}, {"lon": -77.04126783333334, "bike_id": "1b8523158cd1d9b1844be8c3a8072386", "lat": 38.92116866666667, "fusion_lon": 0.0, "fusion_lat": 0.0, "type": "electric_scooter", "name": "1b8523158cd1d9b1844be8c3a8072386", "is_disabled": 0, "rental_uris": {"ios": "https://dc.lft.to/lastmile_qr_scan", "android": "https://dc.lft.to/lastmile_qr_scan"}, "is_reserved": 0}, {"lon": -77.030677, "bike_id": "bdcf36ae00c206a3589af1fcb726fdca", "lat": 38.90772316666666, "fusion_lon": 0.0, "fusion_lat": 0.0, "type": "electric_scooter", "name": "bdcf36ae00c206a3589af1fcb726fdca", "is_disabled": 0, "rental_uris": {"ios": "https://dc.lft.to/lastmile_qr_scan", "android": "https://dc.lft.to/lastmile_qr_scan"}, "is_reserved": 0}, {"lon": -76.94631633333333, "bike_id": "5027f26bac1e1db571c1c99e79ab3821", "lat": 38.8983375, "fusion_lon": 0.0, "fusion_lat": 0.0, "type": "electric_scooter", "name": "5027f26bac1e1db571c1c99e79ab3821", "is_disabled": 0, "rental_uris": {"ios": "https://dc.lft.to/lastmile_qr_scan", "android": "https://dc.lft.to/lastmile_qr_scan"}, "is_reserved": 0}, {"lon": -77.04551983333333, "bike_id": "333afb28a8ac0b0da9389e02ccca0615", "lat": 38.9192435, "fusion_lon": 0.0, "fusion_lat": 0.0, "type": "electric_scooter", "name": "333afb28a8ac0b0da9389e02ccca0615", "is_disabled": 0, "rental_uris": {"ios": "https://dc.lft.to/lastmile_qr_scan", "android": "https://dc.lft.to/lastmile_qr_scan"}, "is_reserved": 0}, {"lon": -77.039433, "bike_id": "001253ceb61081fc8495847b56f3e176", "lat": 38.91939983333333, "fusion_lon": 0.0, "fusion_lat": 0.0, "type": "electric_scooter", "name": "001253ceb61081fc8495847b56f3e176", "is_disabled": 0, "rental_uris": {"ios": "https://dc.lft.to/lastmile_qr_scan", "android": "https://dc.lft.to/lastmile_qr_scan"}, "is_reserved": 0}, {"lon": -77.05613916666667, "bike_id": "93bfaf15cad45c4b9b9a02f01dbac934", "lat": 38.923412, "fusion_lon": 0.0, "fusion_lat": 0.0, "type": "electric_scooter", "name": "93bfaf15cad45c4b9b9a02f01dbac934", "is_disabled": 0, "rental_uris": {"ios": "https://dc.lft.to/lastmile_qr_scan", "android": "https://dc.lft.to/lastmile_qr_scan"}, "is_reserved": 0}, {"lon": -77.07670183333333, "bike_id": "04a9fde6a74c7145dc47b1822c81133c", "lat": 38.943244666666665, "fusion_lon": 0.0, "fusion_lat": 0.0, "type": "electric_scooter", "name": "04a9fde6a74c7145dc47b1822c81133c", "is_disabled": 0, "rental_uris": {"ios": "https://dc.lft.to/lastmile_qr_scan", "android": "https://dc.lft.to/lastmile_qr_scan"}, "is_reserved": 0}, {"lon": -76.99858966666666, "bike_id": "6eccb702a02864c139ca4d2848733e22", "lat": 38.90778533333334, "fusion_lon": 0.0, "fusion_lat": 0.0, "type": "electric_scooter", "name": "6eccb702a02864c139ca4d2848733e22", "is_disabled": 0, "rental_uris": {"ios": "https://dc.lft.to/lastmile_qr_scan", "android": "https://dc.lft.to/lastmile_qr_scan"}, "is_reserved": 0}, {"lon": -77.02346883333334, "bike_id": "3031b4dc384c87141df284b6c0bc7316", "lat": 38.92249666666667, "fusion_lon": 0.0, "fusion_lat": 0.0, "type": "electric_scooter", "name": "3031b4dc384c87141df284b6c0bc7316", "is_disabled": 0, "rental_uris": {"ios": "https://dc.lft.to/lastmile_qr_scan", "android": "https://dc.lft.to/lastmile_qr_scan"}, "is_reserved": 0}, {"lon": -77.02887433333333, "bike_id": "24177986238f7f64494755fe81c69993", "lat": 38.903144833333336, "fusion_lon": 0.0, "fusion_lat": 0.0, "type": "electric_scooter", "name": "24177986238f7f64494755fe81c69993", "is_disabled": 0, "rental_uris": {"ios": "https://dc.lft.to/lastmile_qr_scan", "android": "https://dc.lft.to/lastmile_qr_scan"}, "is_reserved": 0}, {"lon": -76.96519416666666, "bike_id": "6135ddda94af5acba5a64439f32b504e", "lat": 38.874727166666666, "fusion_lon": 0.0, "fusion_lat": 0.0, "type": "electric_scooter", "name": "6135ddda94af5acba5a64439f32b504e", "is_disabled": 0, "rental_uris": {"ios": "https://dc.lft.to/lastmile_qr_scan", "android": "https://dc.lft.to/lastmile_qr_scan"}, "is_reserved": 0}, {"lon": -77.00925383333333, "bike_id": "e7faa310e85d4b5bf4d025172f9caa28", "lat": 38.896385333333335, "fusion_lon": 0.0, "fusion_lat": 0.0, "type": "electric_scooter", "name": "e7faa310e85d4b5bf4d025172f9caa28", "is_disabled": 0, "rental_uris": {"ios": "https://dc.lft.to/lastmile_qr_scan", "android": "https://dc.lft.to/lastmile_qr_scan"}, "is_reserved": 0}, {"lon": -77.04250633333334, "bike_id": "33bda5ee678d0c9d3ed53d7c7f9e474c", "lat": 38.90647166666667, "fusion_lon": 0.0, "fusion_lat": 0.0, "type": "electric_scooter", "name": "33bda5ee678d0c9d3ed53d7c7f9e474c", "is_disabled": 0, "rental_uris": {"ios": "https://dc.lft.to/lastmile_qr_scan", "android": "https://dc.lft.to/lastmile_qr_scan"}, "is_reserved": 0}, {"lon": -76.9920275, "bike_id": "95325342ed47abe863239e26f7cde734", "lat": 38.898318, "fusion_lon": 0.0, "fusion_lat": 0.0, "type": "electric_scooter", "name": "95325342ed47abe863239e26f7cde734", "is_disabled": 0, "rental_uris": {"ios": "https://dc.lft.to/lastmile_qr_scan", "android": "https://dc.lft.to/lastmile_qr_scan"}, "is_reserved": 0}, {"lon": -77.00446383333333, "bike_id": "238a426e1fc0d8d1a247c74f0ddf6fe9", "lat": 38.91193333333333, "fusion_lon": 0.0, "fusion_lat": 0.0, "type": "electric_scooter", "name": "238a426e1fc0d8d1a247c74f0ddf6fe9", "is_disabled": 0, "rental_uris": {"ios": "https://dc.lft.to/lastmile_qr_scan", "android": "https://dc.lft.to/lastmile_qr_scan"}, "is_reserved": 0}, {"lon": -77.02170633333333, "bike_id": "5869492a4b05d9d700641e548762c7ef", "lat": 38.94294383333333, "fusion_lon": 0.0, "fusion_lat": 0.0, "type": "electric_scooter", "name": "5869492a4b05d9d700641e548762c7ef", "is_disabled": 0, "rental_uris": {"ios": "https://dc.lft.to/lastmile_qr_scan", "android": "https://dc.lft.to/lastmile_qr_scan"}, "is_reserved": 0}, {"lon": -77.01815416666666, "bike_id": "c2c98d7faa418111b294e640b781fdf8", "lat": 38.92027316666667, "fusion_lon": 0.0, "fusion_lat": 0.0, "type": "electric_scooter", "name": "c2c98d7faa418111b294e640b781fdf8", "is_disabled": 0, "rental_uris": {"ios": "https://dc.lft.to/lastmile_qr_scan", "android": "https://dc.lft.to/lastmile_qr_scan"}, "is_reserved": 0}, {"lon": -77.04544, "bike_id": "6450f8e5568a22c6a8591e1469654fb6", "lat": 38.93409583333333, "fusion_lon": 0.0, "fusion_lat": 0.0, "type": "electric_scooter", "name": "6450f8e5568a22c6a8591e1469654fb6", "is_disabled": 0, "rental_uris": {"ios": "https://dc.lft.to/lastmile_qr_scan", "android": "https://dc.lft.to/lastmile_qr_scan"}, "is_reserved": 0}, {"lon": -77.02287683333333, "bike_id": "f10dafae86641954acf3b439536295ac", "lat": 38.92693833333333, "fusion_lon": 0.0, "fusion_lat": 0.0, "type": "electric_scooter", "name": "f10dafae86641954acf3b439536295ac", "is_disabled": 0, "rental_uris": {"ios": "https://dc.lft.to/lastmile_qr_scan", "android": "https://dc.lft.to/lastmile_qr_scan"}, "is_reserved": 0}, {"lon": -77.01736183333334, "bike_id": "5dd41c8843bd5ef022e9be2783fdb318", "lat": 38.903972833333334, "fusion_lon": 0.0, "fusion_lat": 0.0, "type": "electric_scooter", "name": "5dd41c8843bd5ef022e9be2783fdb318", "is_disabled": 0, "rental_uris": {"ios": "https://dc.lft.to/lastmile_qr_scan", "android": "https://dc.lft.to/lastmile_qr_scan"}, "is_reserved": 0}, {"lon": -77.03360783333333, "bike_id": "d42493c6a5e073e359d5c86e4091d975", "lat": 38.935267, "fusion_lon": 0.0, "fusion_lat": 0.0, "type": "electric_scooter", "name": "d42493c6a5e073e359d5c86e4091d975", "is_disabled": 0, "rental_uris": {"ios": "https://dc.lft.to/lastmile_qr_scan", "android": "https://dc.lft.to/lastmile_qr_scan"}, "is_reserved": 0}, {"lon": -76.96217383333334, "bike_id": "04e886dca50e0ca074ea96ac2bf8e1a7", "lat": 38.877859, "fusion_lon": 0.0, "fusion_lat": 0.0, "type": "electric_scooter", "name": "04e886dca50e0ca074ea96ac2bf8e1a7", "is_disabled": 0, "rental_uris": {"ios": "https://dc.lft.to/lastmile_qr_scan", "android": "https://dc.lft.to/lastmile_qr_scan"}, "is_reserved": 0}, {"lon": -77.07320166666666, "bike_id": "113e97fff982f9893e33c959106b6a77", "lat": 38.914030333333336, "fusion_lon": 0.0, "fusion_lat": 0.0, "type": "electric_scooter", "name": "113e97fff982f9893e33c959106b6a77", "is_disabled": 0, "rental_uris": {"ios": "https://dc.lft.to/lastmile_qr_scan", "android": "https://dc.lft.to/lastmile_qr_scan"}, "is_reserved": 0}, {"lon": -77.04242466666666, "bike_id": "1b414b27ae0bb21230b1da50ef4b27d5", "lat": 38.9242835, "fusion_lon": 0.0, "fusion_lat": 0.0, "type": "electric_scooter", "name": "1b414b27ae0bb21230b1da50ef4b27d5", "is_disabled": 0, "rental_uris": {"ios": "https://dc.lft.to/lastmile_qr_scan", "android": "https://dc.lft.to/lastmile_qr_scan"}, "is_reserved": 0}, {"lon": -77.03324966666666, "bike_id": "1e293e0dbebd2c5c2d541f10c6a17ef1", "lat": 38.938998166666664, "fusion_lon": 0.0, "fusion_lat": 0.0, "type": "electric_scooter", "name": "1e293e0dbebd2c5c2d541f10c6a17ef1", "is_disabled": 0, "rental_uris": {"ios": "https://dc.lft.to/lastmile_qr_scan", "android": "https://dc.lft.to/lastmile_qr_scan"}, "is_reserved": 0}, {"lon": -77.0386065, "bike_id": "da75fa2776a09036acba5e607ee58c95", "lat": 38.9125215, "fusion_lon": 0.0, "fusion_lat": 0.0, "type": "electric_scooter", "name": "da75fa2776a09036acba5e607ee58c95", "is_disabled": 0, "rental_uris": {"ios": "https://dc.lft.to/lastmile_qr_scan", "android": "https://dc.lft.to/lastmile_qr_scan"}, "is_reserved": 0}, {"lon": -77.03860816666666, "bike_id": "c00a2f7edf2bc0d4071535eb70bdfbca", "lat": 38.9155685, "fusion_lon": 0.0, "fusion_lat": 0.0, "type": "electric_scooter", "name": "c00a2f7edf2bc0d4071535eb70bdfbca", "is_disabled": 0, "rental_uris": {"ios": "https://dc.lft.to/lastmile_qr_scan", "android": "https://dc.lft.to/lastmile_qr_scan"}, "is_reserved": 0}, {"lon": -77.02342666666667, "bike_id": "ffa0a14a12d3e937f925e70de4012cb6", "lat": 38.917779333333336, "fusion_lon": 0.0, "fusion_lat": 0.0, "type": "electric_scooter", "name": "ffa0a14a12d3e937f925e70de4012cb6", "is_disabled": 0, "rental_uris": {"ios": "https://dc.lft.to/lastmile_qr_scan", "android": "https://dc.lft.to/lastmile_qr_scan"}, "is_reserved": 0}, {"lon": -77.02300016666666, "bike_id": "39dfb3772e03611bdc7326beb080f206", "lat": 38.9090815, "fusion_lon": 0.0, "fusion_lat": 0.0, "type": "electric_scooter", "name": "39dfb3772e03611bdc7326beb080f206", "is_disabled": 0, "rental_uris": {"ios": "https://dc.lft.to/lastmile_qr_scan", "android": "https://dc.lft.to/lastmile_qr_scan"}, "is_reserved": 0}, {"lon": -77.041934, "bike_id": "62a7721f7c0b96a26ec98aff51ab326d", "lat": 38.906797, "fusion_lon": 0.0, "fusion_lat": 0.0, "type": "electric_scooter", "name": "62a7721f7c0b96a26ec98aff51ab326d", "is_disabled": 0, "rental_uris": {"ios": "https://dc.lft.to/lastmile_qr_scan", "android": "https://dc.lft.to/lastmile_qr_scan"}, "is_reserved": 0}, {"lon": -77.00586683333333, "bike_id": "67a37200e68c7340ead6eb054d2a6aac", "lat": 38.9062525, "fusion_lon": 0.0, "fusion_lat": 0.0, "type": "electric_scooter", "name": "67a37200e68c7340ead6eb054d2a6aac", "is_disabled": 0, "rental_uris": {"ios": "https://dc.lft.to/lastmile_qr_scan", "android": "https://dc.lft.to/lastmile_qr_scan"}, "is_reserved": 0}, {"lon": -77.10326066666667, "bike_id": "1d6c79acedba5703b468362f2cedd3e5", "lat": 38.87418066666667, "fusion_lon": 0.0, "fusion_lat": 0.0, "type": "electric_bike", "name": "1d6c79acedba5703b468362f2cedd3e5", "is_disabled": 0, "rental_uris": {"ios": "https://dc.lft.to/lastmile_qr_scan", "android": "https://dc.lft.to/lastmile_qr_scan"}, "is_reserved": 0}, {"lon": -77.02487016666667, "bike_id": "a6eca2a6e46cd66976a8413ea1208c60", "lat": 38.938689833333335, "fusion_lon": 0.0, "fusion_lat": 0.0, "type": "electric_scooter", "name": "a6eca2a6e46cd66976a8413ea1208c60", "is_disabled": 0, "rental_uris": {"ios": "https://dc.lft.to/lastmile_qr_scan", "android": "https://dc.lft.to/lastmile_qr_scan"}, "is_reserved": 0}, {"lon": -77.0526845, "bike_id": "49d11f4d4b860f6f40503aa41e4330fb", "lat": 38.910144833333334, "fusion_lon": 0.0, "fusion_lat": 0.0, "type": "electric_scooter", "name": "49d11f4d4b860f6f40503aa41e4330fb", "is_disabled": 0, "rental_uris": {"ios": "https://dc.lft.to/lastmile_qr_scan", "android": "https://dc.lft.to/lastmile_qr_scan"}, "is_reserved": 0}, {"lon": -77.045353, "bike_id": "ea1a85ff99b3e32ca5b1741fd65e359e", "lat": 38.9132985, "fusion_lon": 0.0, "fusion_lat": 0.0, "type": "electric_scooter", "name": "ea1a85ff99b3e32ca5b1741fd65e359e", "is_disabled": 0, "rental_uris": {"ios": "https://dc.lft.to/lastmile_qr_scan", "android": "https://dc.lft.to/lastmile_qr_scan"}, "is_reserved": 0}, {"lon": -77.04405283333334, "bike_id": "060aeecb126ec60e287d0216349eb007", "lat": 38.9333065, "fusion_lon": 0.0, "fusion_lat": 0.0, "type": "electric_scooter", "name": "060aeecb126ec60e287d0216349eb007", "is_disabled": 0, "rental_uris": {"ios": "https://dc.lft.to/lastmile_qr_scan", "android": "https://dc.lft.to/lastmile_qr_scan"}, "is_reserved": 0}, {"lon": -77.02291083333333, "bike_id": "1cef2863e56d961f653f92b12e5eb24d", "lat": 38.94476866666667, "fusion_lon": 0.0, "fusion_lat": 0.0, "type": "electric_bike", "name": "1cef2863e56d961f653f92b12e5eb24d", "is_disabled": 0, "rental_uris": {"ios": "https://dc.lft.to/lastmile_qr_scan", "android": "https://dc.lft.to/lastmile_qr_scan"}, "is_reserved": 0}, {"lon": -76.92747566666667, "bike_id": "7bd1e6f351dd989dafca6d218480cea9", "lat": 38.88058, "fusion_lon": 0.0, "fusion_lat": 0.0, "type": "electric_scooter", "name": "7bd1e6f351dd989dafca6d218480cea9", "is_disabled": 0, "rental_uris": {"ios": "https://dc.lft.to/lastmile_qr_scan", "android": "https://dc.lft.to/lastmile_qr_scan"}, "is_reserved": 0}, {"lon": -77.02001166666666, "bike_id": "8fad22158fb66f97fdf6877a44c3f269", "lat": 38.913630833333336, "fusion_lon": 0.0, "fusion_lat": 0.0, "type": "electric_scooter", "name": "8fad22158fb66f97fdf6877a44c3f269", "is_disabled": 0, "rental_uris": {"ios": "https://dc.lft.to/lastmile_qr_scan", "android": "https://dc.lft.to/lastmile_qr_scan"}, "is_reserved": 0}, {"lon": -77.02410416666666, "bike_id": "68cc8c47231125520c11e12cad47e334", "lat": 38.909671, "fusion_lon": 0.0, "fusion_lat": 0.0, "type": "electric_scooter", "name": "68cc8c47231125520c11e12cad47e334", "is_disabled": 0, "rental_uris": {"ios": "https://dc.lft.to/lastmile_qr_scan", "android": "https://dc.lft.to/lastmile_qr_scan"}, "is_reserved": 0}, {"lon": -77.0780345, "bike_id": "7d2aad33bfa053565388c901826de9a3", "lat": 38.923717333333336, "fusion_lon": 0.0, "fusion_lat": 0.0, "type": "electric_scooter", "name": "7d2aad33bfa053565388c901826de9a3", "is_disabled": 0, "rental_uris": {"ios": "https://dc.lft.to/lastmile_qr_scan", "android": "https://dc.lft.to/lastmile_qr_scan"}, "is_reserved": 0}, {"lon": -77.02403816666667, "bike_id": "006b65832cda8afc14a544af2a3255e9", "lat": 38.957103833333335, "fusion_lon": 0.0, "fusion_lat": 0.0, "type": "electric_scooter", "name": "006b65832cda8afc14a544af2a3255e9", "is_disabled": 0, "rental_uris": {"ios": "https://dc.lft.to/lastmile_qr_scan", "android": "https://dc.lft.to/lastmile_qr_scan"}, "is_reserved": 0}, {"lon": -77.03482533333333, "bike_id": "2d084ca988cd606468c07bae85654a50", "lat": 38.924831, "fusion_lon": 0.0, "fusion_lat": 0.0, "type": "electric_scooter", "name": "2d084ca988cd606468c07bae85654a50", "is_disabled": 0, "rental_uris": {"ios": "https://dc.lft.to/lastmile_qr_scan", "android": "https://dc.lft.to/lastmile_qr_scan"}, "is_reserved": 0}, {"lon": -77.00772933333333, "bike_id": "9743eca48ea502e7c27e276bd2732be6", "lat": 38.9065445, "fusion_lon": 0.0, "fusion_lat": 0.0, "type": "electric_scooter", "name": "9743eca48ea502e7c27e276bd2732be6", "is_disabled": 0, "rental_uris": {"ios": "https://dc.lft.to/lastmile_qr_scan", "android": "https://dc.lft.to/lastmile_qr_scan"}, "is_reserved": 0}, {"lon": -76.988426, "bike_id": "3cff22712d416c2afdc780248858684e", "lat": 38.896678666666666, "fusion_lon": 0.0, "fusion_lat": 0.0, "type": "electric_scooter", "name": "3cff22712d416c2afdc780248858684e", "is_disabled": 0, "rental_uris": {"ios": "https://dc.lft.to/lastmile_qr_scan", "android": "https://dc.lft.to/lastmile_qr_scan"}, "is_reserved": 0}, {"lon": -77.05757033333333, "bike_id": "6aa6d0db648a00302220a35c4a70c286", "lat": 38.924977166666665, "fusion_lon": 0.0, "fusion_lat": 0.0, "type": "electric_bike", "name": "6aa6d0db648a00302220a35c4a70c286", "is_disabled": 0, "rental_uris": {"ios": "https://dc.lft.to/lastmile_qr_scan", "android": "https://dc.lft.to/lastmile_qr_scan"}, "is_reserved": 0}, {"lon": -77.02305316666667, "bike_id": "c01b4dab5eeafa5093fddfaddd8ac4c0", "lat": 38.927294, "fusion_lon": 0.0, "fusion_lat": 0.0, "type": "electric_scooter", "name": "c01b4dab5eeafa5093fddfaddd8ac4c0", "is_disabled": 0, "rental_uris": {"ios": "https://dc.lft.to/lastmile_qr_scan", "android": "https://dc.lft.to/lastmile_qr_scan"}, "is_reserved": 0}, {"lon": -77.02834883333334, "bike_id": "8844c8c778315fa60b1a53e70e6e60bc", "lat": 38.887685833333336, "fusion_lon": 0.0, "fusion_lat": 0.0, "type": "electric_scooter", "name": "8844c8c778315fa60b1a53e70e6e60bc", "is_disabled": 0, "rental_uris": {"ios": "https://dc.lft.to/lastmile_qr_scan", "android": "https://dc.lft.to/lastmile_qr_scan"}, "is_reserved": 0}, {"lon": -77.04503666666666, "bike_id": "c40dc6d7c7a449c550bb50dbabdb5d8a", "lat": 38.9051485, "fusion_lon": 0.0, "fusion_lat": 0.0, "type": "electric_scooter", "name": "c40dc6d7c7a449c550bb50dbabdb5d8a", "is_disabled": 0, "rental_uris": {"ios": "https://dc.lft.to/lastmile_qr_scan", "android": "https://dc.lft.to/lastmile_qr_scan"}, "is_reserved": 0}, {"lon": -76.94197733333333, "bike_id": "c43a100adc9543b32e6ba04da19ff679", "lat": 38.893770333333336, "fusion_lon": 0.0, "fusion_lat": 0.0, "type": "electric_scooter", "name": "c43a100adc9543b32e6ba04da19ff679", "is_disabled": 0, "rental_uris": {"ios": "https://dc.lft.to/lastmile_qr_scan", "android": "https://dc.lft.to/lastmile_qr_scan"}, "is_reserved": 0}, {"lon": -77.00009883333334, "bike_id": "73dac1db0f1506562e30dad1f1025936", "lat": 38.89738216666667, "fusion_lon": 0.0, "fusion_lat": 0.0, "type": "electric_scooter", "name": "73dac1db0f1506562e30dad1f1025936", "is_disabled": 0, "rental_uris": {"ios": "https://dc.lft.to/lastmile_qr_scan", "android": "https://dc.lft.to/lastmile_qr_scan"}, "is_reserved": 0}, {"lon": -76.94677516666667, "bike_id": "d02499c62d13ffd6b8b82474913e2129", "lat": 38.88629066666667, "fusion_lon": 0.0, "fusion_lat": 0.0, "type": "electric_scooter", "name": "d02499c62d13ffd6b8b82474913e2129", "is_disabled": 0, "rental_uris": {"ios": "https://dc.lft.to/lastmile_qr_scan", "android": "https://dc.lft.to/lastmile_qr_scan"}, "is_reserved": 0}, {"lon": -77.01803766666667, "bike_id": "3e1bed853df6f4b8c2bad11afb0eaf8b", "lat": 38.920336666666664, "fusion_lon": 0.0, "fusion_lat": 0.0, "type": "electric_scooter", "name": "3e1bed853df6f4b8c2bad11afb0eaf8b", "is_disabled": 0, "rental_uris": {"ios": "https://dc.lft.to/lastmile_qr_scan", "android": "https://dc.lft.to/lastmile_qr_scan"}, "is_reserved": 0}, {"lon": -77.04130233333333, "bike_id": "ab2835b01704803ecd864868c5944395", "lat": 38.91552083333333, "fusion_lon": 0.0, "fusion_lat": 0.0, "type": "electric_scooter", "name": "ab2835b01704803ecd864868c5944395", "is_disabled": 0, "rental_uris": {"ios": "https://dc.lft.to/lastmile_qr_scan", "android": "https://dc.lft.to/lastmile_qr_scan"}, "is_reserved": 0}, {"lon": -76.965233, "bike_id": "be4d6301308378340873480fd98a0ec5", "lat": 38.87630033333333, "fusion_lon": 0.0, "fusion_lat": 0.0, "type": "electric_scooter", "name": "be4d6301308378340873480fd98a0ec5", "is_disabled": 0, "rental_uris": {"ios": "https://dc.lft.to/lastmile_qr_scan", "android": "https://dc.lft.to/lastmile_qr_scan"}, "is_reserved": 0}, {"lon": -77.0280475, "bike_id": "786814e46f85c73987fb02590454bd6a", "lat": 38.9073885, "fusion_lon": 0.0, "fusion_lat": 0.0, "type": "electric_scooter", "name": "786814e46f85c73987fb02590454bd6a", "is_disabled": 0, "rental_uris": {"ios": "https://dc.lft.to/lastmile_qr_scan", "android": "https://dc.lft.to/lastmile_qr_scan"}, "is_reserved": 0}, {"lon": -77.1084125, "bike_id": "fc703efc64e3fc7a7c1e2985eddb1aa3", "lat": 38.8120545, "fusion_lon": 0.0, "fusion_lat": 0.0, "type": "electric_bike", "name": "fc703efc64e3fc7a7c1e2985eddb1aa3", "is_disabled": 0, "rental_uris": {"ios": "https://dc.lft.to/lastmile_qr_scan", "android": "https://dc.lft.to/lastmile_qr_scan"}, "is_reserved": 0}, {"lon": -76.997615, "bike_id": "89b01d596a697553fd61542e5147affe", "lat": 38.88770433333333, "fusion_lon": 0.0, "fusion_lat": 0.0, "type": "electric_scooter", "name": "89b01d596a697553fd61542e5147affe", "is_disabled": 0, "rental_uris": {"ios": "https://dc.lft.to/lastmile_qr_scan", "android": "https://dc.lft.to/lastmile_qr_scan"}, "is_reserved": 0}, {"lon": -77.01527283333333, "bike_id": "b606db5199b2ae59c52ebbc251916bc7", "lat": 38.88495783333333, "fusion_lon": 0.0, "fusion_lat": 0.0, "type": "electric_scooter", "name": "b606db5199b2ae59c52ebbc251916bc7", "is_disabled": 0, "rental_uris": {"ios": "https://dc.lft.to/lastmile_qr_scan", "android": "https://dc.lft.to/lastmile_qr_scan"}, "is_reserved": 0}, {"lon": -77.065789, "bike_id": "c98fe250a35889331ec2db8f2b504aac", "lat": 38.91134133333333, "fusion_lon": 0.0, "fusion_lat": 0.0, "type": "electric_bike", "name": "c98fe250a35889331ec2db8f2b504aac", "is_disabled": 0, "rental_uris": {"ios": "https://dc.lft.to/lastmile_qr_scan", "android": "https://dc.lft.to/lastmile_qr_scan"}, "is_reserved": 0}, {"lon": -77.03423033333333, "bike_id": "12ee233e075d0b350bcfc8a58c4172d5", "lat": 38.927471833333335, "fusion_lon": 0.0, "fusion_lat": 0.0, "type": "electric_scooter", "name": "12ee233e075d0b350bcfc8a58c4172d5", "is_disabled": 0, "rental_uris": {"ios": "https://dc.lft.to/lastmile_qr_scan", "android": "https://dc.lft.to/lastmile_qr_scan"}, "is_reserved": 0}, {"lon": -76.937488, "bike_id": "7e707c0f804fedaf3e7ffd4d40f35826", "lat": 38.89049416666667, "fusion_lon": 0.0, "fusion_lat": 0.0, "type": "electric_scooter", "name": "7e707c0f804fedaf3e7ffd4d40f35826", "is_disabled": 0, "rental_uris": {"ios": "https://dc.lft.to/lastmile_qr_scan", "android": "https://dc.lft.to/lastmile_qr_scan"}, "is_reserved": 0}, {"lon": -76.997716, "bike_id": "a0ba4deee4ea81fe94f19917fb9eaa33", "lat": 38.843032, "fusion_lon": 0.0, "fusion_lat": 0.0, "type": "electric_scooter", "name": "a0ba4deee4ea81fe94f19917fb9eaa33", "is_disabled": 0, "rental_uris": {"ios": "https://dc.lft.to/lastmile_qr_scan", "android": "https://dc.lft.to/lastmile_qr_scan"}, "is_reserved": 0}, {"lon": -77.04669033333333, "bike_id": "3466e1d63c3f11f93628ae2234e07f31", "lat": 38.90906233333333, "fusion_lon": 0.0, "fusion_lat": 0.0, "type": "electric_scooter", "name": "3466e1d63c3f11f93628ae2234e07f31", "is_disabled": 0, "rental_uris": {"ios": "https://dc.lft.to/lastmile_qr_scan", "android": "https://dc.lft.to/lastmile_qr_scan"}, "is_reserved": 0}, {"lon": -77.0452245, "bike_id": "eb63257512344391c7587299c310c84d", "lat": 38.941984166666664, "fusion_lon": 0.0, "fusion_lat": 0.0, "type": "electric_bike", "name": "eb63257512344391c7587299c310c84d", "is_disabled": 0, "rental_uris": {"ios": "https://dc.lft.to/lastmile_qr_scan", "android": "https://dc.lft.to/lastmile_qr_scan"}, "is_reserved": 0}, {"lon": -77.04116233333333, "bike_id": "93e7c911e1a426a3f38661276cde70a4", "lat": 38.898545666666664, "fusion_lon": 0.0, "fusion_lat": 0.0, "type": "electric_scooter", "name": "93e7c911e1a426a3f38661276cde70a4", "is_disabled": 0, "rental_uris": {"ios": "https://dc.lft.to/lastmile_qr_scan", "android": "https://dc.lft.to/lastmile_qr_scan"}, "is_reserved": 0}, {"lon": -76.98836733333333, "bike_id": "4e036852a79f32e4ec6259e841b0a315", "lat": 38.90072683333333, "fusion_lon": 0.0, "fusion_lat": 0.0, "type": "electric_scooter", "name": "4e036852a79f32e4ec6259e841b0a315", "is_disabled": 0, "rental_uris": {"ios": "https://dc.lft.to/lastmile_qr_scan", "android": "https://dc.lft.to/lastmile_qr_scan"}, "is_reserved": 0}, {"lon": -77.02302483333334, "bike_id": "0630196b7080a736660afcbb8de32126", "lat": 38.92675766666667, "fusion_lon": 0.0, "fusion_lat": 0.0, "type": "electric_scooter", "name": "0630196b7080a736660afcbb8de32126", "is_disabled": 0, "rental_uris": {"ios": "https://dc.lft.to/lastmile_qr_scan", "android": "https://dc.lft.to/lastmile_qr_scan"}, "is_reserved": 0}, {"lon": -77.04215416666666, "bike_id": "df6e004503d96c200917d5c1c1f114d3", "lat": 38.89273133333333, "fusion_lon": 0.0, "fusion_lat": 0.0, "type": "electric_scooter", "name": "df6e004503d96c200917d5c1c1f114d3", "is_disabled": 0, "rental_uris": {"ios": "https://dc.lft.to/lastmile_qr_scan", "android": "https://dc.lft.to/lastmile_qr_scan"}, "is_reserved": 0}, {"lon": -77.03385433333334, "bike_id": "655dab6519d7f18a9f0bded5c258bc18", "lat": 38.9388065, "fusion_lon": 0.0, "fusion_lat": 0.0, "type": "electric_scooter", "name": "655dab6519d7f18a9f0bded5c258bc18", "is_disabled": 0, "rental_uris": {"ios": "https://dc.lft.to/lastmile_qr_scan", "android": "https://dc.lft.to/lastmile_qr_scan"}, "is_reserved": 0}, {"lon": -77.03185816666667, "bike_id": "5a9e813ee3db350ffd4b31e70bbb4c18", "lat": 38.9143065, "fusion_lon": 0.0, "fusion_lat": 0.0, "type": "electric_scooter", "name": "5a9e813ee3db350ffd4b31e70bbb4c18", "is_disabled": 0, "rental_uris": {"ios": "https://dc.lft.to/lastmile_qr_scan", "android": "https://dc.lft.to/lastmile_qr_scan"}, "is_reserved": 0}, {"lon": -77.0115345, "bike_id": "f8b498c8f9c6a865648a66c0cef6325c", "lat": 38.9110995, "fusion_lon": 0.0, "fusion_lat": 0.0, "type": "electric_scooter", "name": "f8b498c8f9c6a865648a66c0cef6325c", "is_disabled": 0, "rental_uris": {"ios": "https://dc.lft.to/lastmile_qr_scan", "android": "https://dc.lft.to/lastmile_qr_scan"}, "is_reserved": 0}, {"lon": -77.00226283333333, "bike_id": "491ac877e498efdd4f05cb14fc423a45", "lat": 38.9083435, "fusion_lon": 0.0, "fusion_lat": 0.0, "type": "electric_scooter", "name": "491ac877e498efdd4f05cb14fc423a45", "is_disabled": 0, "rental_uris": {"ios": "https://dc.lft.to/lastmile_qr_scan", "android": "https://dc.lft.to/lastmile_qr_scan"}, "is_reserved": 0}, {"lon": -77.01550883333333, "bike_id": "1ae5316038b029598549e0114ae31adc", "lat": 38.89219716666667, "fusion_lon": 0.0, "fusion_lat": 0.0, "type": "electric_scooter", "name": "1ae5316038b029598549e0114ae31adc", "is_disabled": 0, "rental_uris": {"ios": "https://dc.lft.to/lastmile_qr_scan", "android": "https://dc.lft.to/lastmile_qr_scan"}, "is_reserved": 0}, {"lon": -77.032708, "bike_id": "bae354e1e333e5f4580a658f64b17579", "lat": 38.934506999999996, "fusion_lon": 0.0, "fusion_lat": 0.0, "type": "electric_scooter", "name": "bae354e1e333e5f4580a658f64b17579", "is_disabled": 0, "rental_uris": {"ios": "https://dc.lft.to/lastmile_qr_scan", "android": "https://dc.lft.to/lastmile_qr_scan"}, "is_reserved": 0}, {"lon": -76.94804816666667, "bike_id": "0afffee8ed4949877b49d6f40f7bf2d0", "lat": 38.861949333333335, "fusion_lon": 0.0, "fusion_lat": 0.0, "type": "electric_bike", "name": "0afffee8ed4949877b49d6f40f7bf2d0", "is_disabled": 0, "rental_uris": {"ios": "https://dc.lft.to/lastmile_qr_scan", "android": "https://dc.lft.to/lastmile_qr_scan"}, "is_reserved": 0}, {"lon": -77.017672, "bike_id": "25db44fc350ae755be996ab5660e287c", "lat": 38.88314366666667, "fusion_lon": 0.0, "fusion_lat": 0.0, "type": "electric_scooter", "name": "25db44fc350ae755be996ab5660e287c", "is_disabled": 0, "rental_uris": {"ios": "https://dc.lft.to/lastmile_qr_scan", "android": "https://dc.lft.to/lastmile_qr_scan"}, "is_reserved": 0}, {"lon": -76.99520716666666, "bike_id": "d077bbee51464b1d499a4f4447384676", "lat": 38.896126, "fusion_lon": 0.0, "fusion_lat": 0.0, "type": "electric_scooter", "name": "d077bbee51464b1d499a4f4447384676", "is_disabled": 0, "rental_uris": {"ios": "https://dc.lft.to/lastmile_qr_scan", "android": "https://dc.lft.to/lastmile_qr_scan"}, "is_reserved": 0}, {"lon": -77.03124566666666, "bike_id": "9fb7f6bed240b77419bce53363dded7b", "lat": 38.917002, "fusion_lon": 0.0, "fusion_lat": 0.0, "type": "electric_scooter", "name": "9fb7f6bed240b77419bce53363dded7b", "is_disabled": 0, "rental_uris": {"ios": "https://dc.lft.to/lastmile_qr_scan", "android": "https://dc.lft.to/lastmile_qr_scan"}, "is_reserved": 0}, {"lon": -77.05430283333334, "bike_id": "16db3f44c26846c597e372f645a30ea3", "lat": 38.928720166666665, "fusion_lon": 0.0, "fusion_lat": 0.0, "type": "electric_scooter", "name": "16db3f44c26846c597e372f645a30ea3", "is_disabled": 0, "rental_uris": {"ios": "https://dc.lft.to/lastmile_qr_scan", "android": "https://dc.lft.to/lastmile_qr_scan"}, "is_reserved": 0}, {"lon": -76.980945, "bike_id": "37265071a192f73966945a13a6674c25", "lat": 38.9535515, "fusion_lon": 0.0, "fusion_lat": 0.0, "type": "electric_bike", "name": "37265071a192f73966945a13a6674c25", "is_disabled": 0, "rental_uris": {"ios": "https://dc.lft.to/lastmile_qr_scan", "android": "https://dc.lft.to/lastmile_qr_scan"}, "is_reserved": 0}, {"lon": -77.02830483333334, "bike_id": "94da6a4ff08d87871b0f1af00d5a1293", "lat": 38.90468333333333, "fusion_lon": 0.0, "fusion_lat": 0.0, "type": "electric_scooter", "name": "94da6a4ff08d87871b0f1af00d5a1293", "is_disabled": 0, "rental_uris": {"ios": "https://dc.lft.to/lastmile_qr_scan", "android": "https://dc.lft.to/lastmile_qr_scan"}, "is_reserved": 0}, {"lon": -77.0365485, "bike_id": "e06beda05f01cf0cec5e3df2b295a3e5", "lat": 38.94092033333333, "fusion_lon": 0.0, "fusion_lat": 0.0, "type": "electric_scooter", "name": "e06beda05f01cf0cec5e3df2b295a3e5", "is_disabled": 0, "rental_uris": {"ios": "https://dc.lft.to/lastmile_qr_scan", "android": "https://dc.lft.to/lastmile_qr_scan"}, "is_reserved": 0}, {"lon": -77.04058, "bike_id": "23716493b7bb442f71d0feec9fd47c4c", "lat": 38.908443166666665, "fusion_lon": 0.0, "fusion_lat": 0.0, "type": "electric_bike", "name": "23716493b7bb442f71d0feec9fd47c4c", "is_disabled": 0, "rental_uris": {"ios": "https://dc.lft.to/lastmile_qr_scan", "android": "https://dc.lft.to/lastmile_qr_scan"}, "is_reserved": 0}, {"lon": -77.03332716666667, "bike_id": "f5c905ec793977a66f325cfd15d117a5", "lat": 38.902393333333336, "fusion_lon": 0.0, "fusion_lat": 0.0, "type": "electric_scooter", "name": "f5c905ec793977a66f325cfd15d117a5", "is_disabled": 0, "rental_uris": {"ios": "https://dc.lft.to/lastmile_qr_scan", "android": "https://dc.lft.to/lastmile_qr_scan"}, "is_reserved": 0}, {"lon": -77.00779133333333, "bike_id": "c0da6257054d0020f666dcea6e5e66dc", "lat": 38.98389933333333, "fusion_lon": 0.0, "fusion_lat": 0.0, "type": "electric_bike", "name": "c0da6257054d0020f666dcea6e5e66dc", "is_disabled": 0, "rental_uris": {"ios": "https://dc.lft.to/lastmile_qr_scan", "android": "https://dc.lft.to/lastmile_qr_scan"}, "is_reserved": 0}, {"lon": -77.0328165, "bike_id": "d9d7b65fda6286933fc6b55a6ed33896", "lat": 38.93644466666667, "fusion_lon": 0.0, "fusion_lat": 0.0, "type": "electric_scooter", "name": "d9d7b65fda6286933fc6b55a6ed33896", "is_disabled": 0, "rental_uris": {"ios": "https://dc.lft.to/lastmile_qr_scan", "android": "https://dc.lft.to/lastmile_qr_scan"}, "is_reserved": 0}, {"lon": -77.03023916666666, "bike_id": "6ddcebb22c4d805d5f05f8c8c7c189fd", "lat": 38.93114683333334, "fusion_lon": 0.0, "fusion_lat": 0.0, "type": "electric_scooter", "name": "6ddcebb22c4d805d5f05f8c8c7c189fd", "is_disabled": 0, "rental_uris": {"ios": "https://dc.lft.to/lastmile_qr_scan", "android": "https://dc.lft.to/lastmile_qr_scan"}, "is_reserved": 0}, {"lon": -77.03654166666666, "bike_id": "09233028b5534405912e1a736cd06c48", "lat": 38.91293966666667, "fusion_lon": 0.0, "fusion_lat": 0.0, "type": "electric_scooter", "name": "09233028b5534405912e1a736cd06c48", "is_disabled": 0, "rental_uris": {"ios": "https://dc.lft.to/lastmile_qr_scan", "android": "https://dc.lft.to/lastmile_qr_scan"}, "is_reserved": 0}, {"lon": -77.023585, "bike_id": "d029c621832f093b83d3f38fecda5b9b", "lat": 38.892164, "fusion_lon": 0.0, "fusion_lat": 0.0, "type": "electric_scooter", "name": "d029c621832f093b83d3f38fecda5b9b", "is_disabled": 0, "rental_uris": {"ios": "https://dc.lft.to/lastmile_qr_scan", "android": "https://dc.lft.to/lastmile_qr_scan"}, "is_reserved": 0}, {"lon": -77.028786, "bike_id": "98de14d221ff40152cc1ed9a63e810d1", "lat": 38.92822016666667, "fusion_lon": 0.0, "fusion_lat": 0.0, "type": "electric_scooter", "name": "98de14d221ff40152cc1ed9a63e810d1", "is_disabled": 0, "rental_uris": {"ios": "https://dc.lft.to/lastmile_qr_scan", "android": "https://dc.lft.to/lastmile_qr_scan"}, "is_reserved": 0}, {"lon": -76.99454666666666, "bike_id": "f336d9377ffe991721e63c9666d4c1db", "lat": 38.86219883333333, "fusion_lon": 0.0, "fusion_lat": 0.0, "type": "electric_scooter", "name": "f336d9377ffe991721e63c9666d4c1db", "is_disabled": 0, "rental_uris": {"ios": "https://dc.lft.to/lastmile_qr_scan", "android": "https://dc.lft.to/lastmile_qr_scan"}, "is_reserved": 0}, {"lon": -77.00752483333333, "bike_id": "e343eea7105ec493403d12a50f304c0e", "lat": 38.89845666666667, "fusion_lon": 0.0, "fusion_lat": 0.0, "type": "electric_scooter", "name": "e343eea7105ec493403d12a50f304c0e", "is_disabled": 0, "rental_uris": {"ios": "https://dc.lft.to/lastmile_qr_scan", "android": "https://dc.lft.to/lastmile_qr_scan"}, "is_reserved": 0}, {"lon": -77.03268966666667, "bike_id": "f36981241fd0b8bc9e58f8805a4ffe5b", "lat": 38.907294, "fusion_lon": 0.0, "fusion_lat": 0.0, "type": "electric_scooter", "name": "f36981241fd0b8bc9e58f8805a4ffe5b", "is_disabled": 0, "rental_uris": {"ios": "https://dc.lft.to/lastmile_qr_scan", "android": "https://dc.lft.to/lastmile_qr_scan"}, "is_reserved": 0}, {"lon": -77.02097733333333, "bike_id": "381faf419f38522827d62eeccafc68b8", "lat": 38.932654666666664, "fusion_lon": 0.0, "fusion_lat": 0.0, "type": "electric_scooter", "name": "381faf419f38522827d62eeccafc68b8", "is_disabled": 0, "rental_uris": {"ios": "https://dc.lft.to/lastmile_qr_scan", "android": "https://dc.lft.to/lastmile_qr_scan"}, "is_reserved": 0}, {"lon": -77.05029883333333, "bike_id": "cdedcabce33bc1ac35db88ad88334768", "lat": 38.92391466666667, "fusion_lon": 0.0, "fusion_lat": 0.0, "type": "electric_scooter", "name": "cdedcabce33bc1ac35db88ad88334768", "is_disabled": 0, "rental_uris": {"ios": "https://dc.lft.to/lastmile_qr_scan", "android": "https://dc.lft.to/lastmile_qr_scan"}, "is_reserved": 0}, {"lon": -77.02255983333333, "bike_id": "2543fc6c61d31123408f1e06e967b4a7", "lat": 38.92529, "fusion_lon": 0.0, "fusion_lat": 0.0, "type": "electric_scooter", "name": "2543fc6c61d31123408f1e06e967b4a7", "is_disabled": 0, "rental_uris": {"ios": "https://dc.lft.to/lastmile_qr_scan", "android": "https://dc.lft.to/lastmile_qr_scan"}, "is_reserved": 0}, {"lon": -77.0200605, "bike_id": "214151d7d4393c546ef207ff377162da", "lat": 38.89729483333333, "fusion_lon": 0.0, "fusion_lat": 0.0, "type": "electric_scooter", "name": "214151d7d4393c546ef207ff377162da", "is_disabled": 0, "rental_uris": {"ios": "https://dc.lft.to/lastmile_qr_scan", "android": "https://dc.lft.to/lastmile_qr_scan"}, "is_reserved": 0}, {"lon": -76.94988266666667, "bike_id": "cff1e90720c200ff573f02f316b512b7", "lat": 38.8939205, "fusion_lon": 0.0, "fusion_lat": 0.0, "type": "electric_scooter", "name": "cff1e90720c200ff573f02f316b512b7", "is_disabled": 0, "rental_uris": {"ios": "https://dc.lft.to/lastmile_qr_scan", "android": "https://dc.lft.to/lastmile_qr_scan"}, "is_reserved": 0}, {"lon": -77.03208733333334, "bike_id": "8a9aad3b698733225a49bac2a3b23d8d", "lat": 38.914987833333335, "fusion_lon": 0.0, "fusion_lat": 0.0, "type": "electric_scooter", "name": "8a9aad3b698733225a49bac2a3b23d8d", "is_disabled": 0, "rental_uris": {"ios": "https://dc.lft.to/lastmile_qr_scan", "android": "https://dc.lft.to/lastmile_qr_scan"}, "is_reserved": 0}, {"lon": -77.1324035, "bike_id": "246693b26e686151d7e14e0079ee85e8", "lat": 38.80572466666667, "fusion_lon": 0.0, "fusion_lat": 0.0, "type": "electric_bike", "name": "246693b26e686151d7e14e0079ee85e8", "is_disabled": 0, "rental_uris": {"ios": "https://dc.lft.to/lastmile_qr_scan", "android": "https://dc.lft.to/lastmile_qr_scan"}, "is_reserved": 0}, {"lon": -77.02763883333333, "bike_id": "7d7682a2561dba5b733580d4c4c724ed", "lat": 38.954263833333336, "fusion_lon": 0.0, "fusion_lat": 0.0, "type": "electric_scooter", "name": "7d7682a2561dba5b733580d4c4c724ed", "is_disabled": 0, "rental_uris": {"ios": "https://dc.lft.to/lastmile_qr_scan", "android": "https://dc.lft.to/lastmile_qr_scan"}, "is_reserved": 0}, {"lon": -77.03754816666667, "bike_id": "e8dc61cbb804ce6c62d124cf18d24df0", "lat": 38.911857833333336, "fusion_lon": 0.0, "fusion_lat": 0.0, "type": "electric_scooter", "name": "e8dc61cbb804ce6c62d124cf18d24df0", "is_disabled": 0, "rental_uris": {"ios": "https://dc.lft.to/lastmile_qr_scan", "android": "https://dc.lft.to/lastmile_qr_scan"}, "is_reserved": 0}, {"lon": -77.02904766666667, "bike_id": "01a4a9c30c1b59e96a68caf7bf104095", "lat": 38.92058466666667, "fusion_lon": 0.0, "fusion_lat": 0.0, "type": "electric_scooter", "name": "01a4a9c30c1b59e96a68caf7bf104095", "is_disabled": 0, "rental_uris": {"ios": "https://dc.lft.to/lastmile_qr_scan", "android": "https://dc.lft.to/lastmile_qr_scan"}, "is_reserved": 0}, {"lon": -76.99181416666667, "bike_id": "0632f2e088067771d47c6e9cf4261454", "lat": 38.90507683333333, "fusion_lon": 0.0, "fusion_lat": 0.0, "type": "electric_scooter", "name": "0632f2e088067771d47c6e9cf4261454", "is_disabled": 0, "rental_uris": {"ios": "https://dc.lft.to/lastmile_qr_scan", "android": "https://dc.lft.to/lastmile_qr_scan"}, "is_reserved": 0}, {"lon": -77.0320365, "bike_id": "fd507125e3791c9e171494884f2caecd", "lat": 38.920715, "fusion_lon": 0.0, "fusion_lat": 0.0, "type": "electric_scooter", "name": "fd507125e3791c9e171494884f2caecd", "is_disabled": 0, "rental_uris": {"ios": "https://dc.lft.to/lastmile_qr_scan", "android": "https://dc.lft.to/lastmile_qr_scan"}, "is_reserved": 0}, {"lon": -77.029796, "bike_id": "3b060c4f72a811921ade15cf9b5adb0e", "lat": 38.94741766666667, "fusion_lon": 0.0, "fusion_lat": 0.0, "type": "electric_scooter", "name": "3b060c4f72a811921ade15cf9b5adb0e", "is_disabled": 0, "rental_uris": {"ios": "https://dc.lft.to/lastmile_qr_scan", "android": "https://dc.lft.to/lastmile_qr_scan"}, "is_reserved": 0}, {"lon": -76.98594566666667, "bike_id": "5dd23993ae7b7be00297ee9c3b97e7c5", "lat": 38.860626833333335, "fusion_lon": 0.0, "fusion_lat": 0.0, "type": "electric_scooter", "name": "5dd23993ae7b7be00297ee9c3b97e7c5", "is_disabled": 0, "rental_uris": {"ios": "https://dc.lft.to/lastmile_qr_scan", "android": "https://dc.lft.to/lastmile_qr_scan"}, "is_reserved": 0}, {"lon": -77.02462783333333, "bike_id": "c687b5b6d37e09b1557967e47e00a3b2", "lat": 38.90088216666667, "fusion_lon": 0.0, "fusion_lat": 0.0, "type": "electric_scooter", "name": "c687b5b6d37e09b1557967e47e00a3b2", "is_disabled": 0, "rental_uris": {"ios": "https://dc.lft.to/lastmile_qr_scan", "android": "https://dc.lft.to/lastmile_qr_scan"}, "is_reserved": 0}, {"lon": -77.0403235, "bike_id": "922775908ef22e49f634f1cddbc5c7ef", "lat": 38.90390766666667, "fusion_lon": 0.0, "fusion_lat": 0.0, "type": "electric_scooter", "name": "922775908ef22e49f634f1cddbc5c7ef", "is_disabled": 0, "rental_uris": {"ios": "https://dc.lft.to/lastmile_qr_scan", "android": "https://dc.lft.to/lastmile_qr_scan"}, "is_reserved": 0}, {"lon": -77.04407816666667, "bike_id": "40b4df3c44de4e84540641850f2dcf8a", "lat": 38.934255, "fusion_lon": 0.0, "fusion_lat": 0.0, "type": "electric_scooter", "name": "40b4df3c44de4e84540641850f2dcf8a", "is_disabled": 0, "rental_uris": {"ios": "https://dc.lft.to/lastmile_qr_scan", "android": "https://dc.lft.to/lastmile_qr_scan"}, "is_reserved": 0}, {"lon": -76.96156083333334, "bike_id": "5da13eea84bafa023221892da0b6b087", "lat": 38.88363916666667, "fusion_lon": 0.0, "fusion_lat": 0.0, "type": "electric_scooter", "name": "5da13eea84bafa023221892da0b6b087", "is_disabled": 0, "rental_uris": {"ios": "https://dc.lft.to/lastmile_qr_scan", "android": "https://dc.lft.to/lastmile_qr_scan"}, "is_reserved": 0}, {"lon": -77.04697733333333, "bike_id": "0554512d5ff9ec6fcff55dc5a85b6f73", "lat": 38.92121516666667, "fusion_lon": 0.0, "fusion_lat": 0.0, "type": "electric_scooter", "name": "0554512d5ff9ec6fcff55dc5a85b6f73", "is_disabled": 0, "rental_uris": {"ios": "https://dc.lft.to/lastmile_qr_scan", "android": "https://dc.lft.to/lastmile_qr_scan"}, "is_reserved": 0}, {"lon": -76.98536, "bike_id": "d21b54563373caea93d0432534ce6d98", "lat": 38.9102425, "fusion_lon": 0.0, "fusion_lat": 0.0, "type": "electric_scooter", "name": "d21b54563373caea93d0432534ce6d98", "is_disabled": 0, "rental_uris": {"ios": "https://dc.lft.to/lastmile_qr_scan", "android": "https://dc.lft.to/lastmile_qr_scan"}, "is_reserved": 0}, {"lon": -77.02970916666666, "bike_id": "dd8fce7abf05ed6134567adaf9a0eba9", "lat": 38.931916333333334, "fusion_lon": 0.0, "fusion_lat": 0.0, "type": "electric_scooter", "name": "dd8fce7abf05ed6134567adaf9a0eba9", "is_disabled": 0, "rental_uris": {"ios": "https://dc.lft.to/lastmile_qr_scan", "android": "https://dc.lft.to/lastmile_qr_scan"}, "is_reserved": 0}, {"lon": -77.031189, "bike_id": "fe19827ec376a797c8f310852afd75ea", "lat": 38.917048666666666, "fusion_lon": 0.0, "fusion_lat": 0.0, "type": "electric_scooter", "name": "fe19827ec376a797c8f310852afd75ea", "is_disabled": 0, "rental_uris": {"ios": "https://dc.lft.to/lastmile_qr_scan", "android": "https://dc.lft.to/lastmile_qr_scan"}, "is_reserved": 0}, {"lon": -76.98727733333334, "bike_id": "b45515cb9cac9fc7ebabdd42c526785f", "lat": 38.867127833333335, "fusion_lon": 0.0, "fusion_lat": 0.0, "type": "electric_scooter", "name": "b45515cb9cac9fc7ebabdd42c526785f", "is_disabled": 0, "rental_uris": {"ios": "https://dc.lft.to/lastmile_qr_scan", "android": "https://dc.lft.to/lastmile_qr_scan"}, "is_reserved": 0}, {"lon": -77.10597566666667, "bike_id": "8624a1870dcf5bc98ca176682e6d1d9e", "lat": 38.92898433333333, "fusion_lon": 0.0, "fusion_lat": 0.0, "type": "electric_bike", "name": "8624a1870dcf5bc98ca176682e6d1d9e", "is_disabled": 0, "rental_uris": {"ios": "https://dc.lft.to/lastmile_qr_scan", "android": "https://dc.lft.to/lastmile_qr_scan"}, "is_reserved": 0}, {"lon": -77.01603983333334, "bike_id": "8b2224151bb5499d7a3509b476e04459", "lat": 38.919533, "fusion_lon": 0.0, "fusion_lat": 0.0, "type": "electric_scooter", "name": "8b2224151bb5499d7a3509b476e04459", "is_disabled": 0, "rental_uris": {"ios": "https://dc.lft.to/lastmile_qr_scan", "android": "https://dc.lft.to/lastmile_qr_scan"}, "is_reserved": 0}, {"lon": -77.042964, "bike_id": "990e12558c6879ad95a24a2a07393725", "lat": 38.90830783333333, "fusion_lon": 0.0, "fusion_lat": 0.0, "type": "electric_scooter", "name": "990e12558c6879ad95a24a2a07393725", "is_disabled": 0, "rental_uris": {"ios": "https://dc.lft.to/lastmile_qr_scan", "android": "https://dc.lft.to/lastmile_qr_scan"}, "is_reserved": 0}, {"lon": -77.00098933333334, "bike_id": "5ddad8620396d650137f29d8347112f6", "lat": 38.907495, "fusion_lon": 0.0, "fusion_lat": 0.0, "type": "electric_scooter", "name": "5ddad8620396d650137f29d8347112f6", "is_disabled": 0, "rental_uris": {"ios": "https://dc.lft.to/lastmile_qr_scan", "android": "https://dc.lft.to/lastmile_qr_scan"}, "is_reserved": 0}, {"lon": -77.00344883333334, "bike_id": "361255f4658dda44398b03040c4ed8f1", "lat": 38.902774, "fusion_lon": 0.0, "fusion_lat": 0.0, "type": "electric_scooter", "name": "361255f4658dda44398b03040c4ed8f1", "is_disabled": 0, "rental_uris": {"ios": "https://dc.lft.to/lastmile_qr_scan", "android": "https://dc.lft.to/lastmile_qr_scan"}, "is_reserved": 0}, {"lon": -77.02181266666666, "bike_id": "edc333ee7448bbaa8494011e60c012d7", "lat": 38.92004466666667, "fusion_lon": 0.0, "fusion_lat": 0.0, "type": "electric_scooter", "name": "edc333ee7448bbaa8494011e60c012d7", "is_disabled": 0, "rental_uris": {"ios": "https://dc.lft.to/lastmile_qr_scan", "android": "https://dc.lft.to/lastmile_qr_scan"}, "is_reserved": 0}, {"lon": -77.0236935, "bike_id": "51141aa6e6ae90bc37aa9af18ab0b476", "lat": 38.920665, "fusion_lon": 0.0, "fusion_lat": 0.0, "type": "electric_scooter", "name": "51141aa6e6ae90bc37aa9af18ab0b476", "is_disabled": 0, "rental_uris": {"ios": "https://dc.lft.to/lastmile_qr_scan", "android": "https://dc.lft.to/lastmile_qr_scan"}, "is_reserved": 0}, {"lon": -77.049041, "bike_id": "9562d5e6ef81364bbdffd982f86c40f6", "lat": 38.903596, "fusion_lon": 0.0, "fusion_lat": 0.0, "type": "electric_scooter", "name": "9562d5e6ef81364bbdffd982f86c40f6", "is_disabled": 0, "rental_uris": {"ios": "https://dc.lft.to/lastmile_qr_scan", "android": "https://dc.lft.to/lastmile_qr_scan"}, "is_reserved": 0}, {"lon": -76.94879083333333, "bike_id": "f3badff4018bb31bba9b985a59eac4ac", "lat": 38.89554483333333, "fusion_lon": 0.0, "fusion_lat": 0.0, "type": "electric_scooter", "name": "f3badff4018bb31bba9b985a59eac4ac", "is_disabled": 0, "rental_uris": {"ios": "https://dc.lft.to/lastmile_qr_scan", "android": "https://dc.lft.to/lastmile_qr_scan"}, "is_reserved": 0}, {"lon": -77.030813, "bike_id": "354e249bada7448527c4afe4181db333", "lat": 38.910331166666666, "fusion_lon": 0.0, "fusion_lat": 0.0, "type": "electric_scooter", "name": "354e249bada7448527c4afe4181db333", "is_disabled": 0, "rental_uris": {"ios": "https://dc.lft.to/lastmile_qr_scan", "android": "https://dc.lft.to/lastmile_qr_scan"}, "is_reserved": 0},