{"data": {"bikes": [{"bike_id": "c20780024a84ee71f4ded7df6e1e7f18", "is_reserved": 0, "fusion_lon": 0.0, "lat": 38.93333166666667, "is_disabled": 0, "name": "c20780024a84ee71f4ded7df6e1e7f18", "fusion_lat": 0.0, "rental_uris": {"ios": "https://dc.lft.to/lastmile_qr_scan", "android": "https://dc.lft.to/lastmile_qr_scan"}, "lon": -77.032862, "type": "electric_scooter"}, {"bike_id": "a5918969b8fb4c918eea3b7b3f862553", "is_reserved": 0, "fusion_lon": 0.0, "lat": 38.90113733333333, "is_disabled": 0, "name": "a5918969b8fb4c918eea3b7b3f862553", "fusion_lat": 0.0, "rental_uris": {"ios": "https://dc.lft.to/lastmile_qr_scan", "android": "https://dc.lft.to/lastmile_qr_scan"}, "lon": -77.04979533333334, "type": "electric_scooter"}, {"bike_id": "646921d86aa4235dc4c559eb5d9451a3", "is_reserved": 0, "fusion_lon": 0.0, "lat": 38.87360283333334, "is_disabled": 0, "name": "646921d86aa4235dc4c559eb5d9451a3", "fusion_lat": 0.0, "rental_uris": {"ios": "https://dc.lft.to/lastmile_qr_scan", "android": "https://dc.lft.to/lastmile_qr_scan"}, "lon": -76.97167166666667, "type": "electric_scooter"}, {"bike_id": "28d2f700f525d46a27f4e8f54076a06a", "is_reserved": 0, "fusion_lon": 0.0, "lat": 38.89475233333334, "is_disabled": 0, "name": "28d2f700f525d46a27f4e8f54076a06a", "fusion_lat": 0.0, "rental_uris": {"ios": "https://dc.lft.to/lastmile_qr_scan", "android": "https://dc.lft.to/lastmile_qr_scan"}, "lon": -77.012062, "type": "electric_scooter"}, {"bike_id": "6949427c6929893851240a858a7f9926", "is_reserved": 0, "fusion_lon": 0.0, "lat": 38.9732975, "is_disabled": 0, "name": "6949427c6929893851240a858a7f9926", "fusion_lat": 0.0, "rental_uris": {"ios": "https://dc.lft.to/lastmile_qr_scan", "android": "https://dc.lft.to/lastmile_qr_scan"}, "lon": -77.021485, "type": "electric_bike"}, {"bike_id": "d919e1d2ca7dfa2486c238c1b82000c4", "is_reserved": 0, "fusion_lon": 0.0, "lat": 38.93323933333333, "is_disabled": 0, "name": "d919e1d2ca7dfa2486c238c1b82000c4", "fusion_lat": 0.0, "rental_uris": {"ios": "https://dc.lft.to/lastmile_qr_scan", "android": "https://dc.lft.to/lastmile_qr_scan"}, "lon": -77.03277633333333, "type": "electric_scooter"}, {"bike_id": "30b99e16af1974c4f529a37b8a4c68bd", "is_reserved": 0, "fusion_lon": 0.0, "lat": 38.883953, "is_disabled": 0, "name": "30b99e16af1974c4f529a37b8a4c68bd", "fusion_lat": 0.0, "rental_uris": {"ios": "https://dc.lft.to/lastmile_qr_scan", "android": "https://dc.lft.to/lastmile_qr_scan"}, "lon": -76.93044633333334, "type": "electric_scooter"}, {"bike_id": "9fca54a39153488784960488afa0c4c5", "is_reserved": 0, "fusion_lon": 0.0, "lat": 38.9074555, "is_disabled": 0, "name": "9fca54a39153488784960488afa0c4c5", "fusion_lat": 0.0, "rental_uris": {"ios": "https://dc.lft.to/lastmile_qr_scan", "android": "https://dc.lft.to/lastmile_qr_scan"}, "lon": -77.034647, "type": "electric_scooter"}, {"bike_id": "685e7be5b6035c0c74ddb9590381dace", "is_reserved": 0, "fusion_lon": 0.0, "lat": 38.917057666666665, "is_disabled": 0, "name": "685e7be5b6035c0c74ddb9590381dace", "fusion_lat": 0.0, "rental_uris": {"ios": "https://dc.lft.to/lastmile_qr_scan", "android": "https://dc.lft.to/lastmile_qr_scan"}, "lon": -77.02244516666667, "type": "electric_scooter"}, {"bike_id": "9f845973bb038d5d50c519c02f9c37a1", "is_reserved": 0, "fusion_lon": 0.0, "lat": 38.8983315, "is_disabled": 0, "name": "9f845973bb038d5d50c519c02f9c37a1", "fusion_lat": 0.0, "rental_uris": {"ios": "https://dc.lft.to/lastmile_qr_scan", "android": "https://dc.lft.to/lastmile_qr_scan"}, "lon": -76.94635566666666, "type": "electric_scooter"}, {"bike_id": "6a8a0dccd7cda8f8bdc3579b6dff0aa3", "is_reserved": 0, "fusion_lon": 0.0, "lat": 38.907354166666664, "is_disabled": 0, "name": "6a8a0dccd7cda8f8bdc3579b6dff0aa3", "fusion_lat": 0.0, "rental_uris": {"ios": "https://dc.lft.to/lastmile_qr_scan", "android": "https://dc.lft.to/lastmile_qr_scan"}, "lon": -77.02394583333333, "type": "electric_scooter"}, {"bike_id": "71a26e98231cc9aae03eb91d9d83ac54", "is_reserved": 0, "fusion_lon": 0.0, "lat": 38.901273, "is_disabled": 0, "name": "71a26e98231cc9aae03eb91d9d83ac54", "fusion_lat": 0.0, "rental_uris": {"ios": "https://dc.lft.to/lastmile_qr_scan", "android": "https://dc.lft.to/lastmile_qr_scan"}, "lon": -77.0197015, "type": "electric_scooter"}, {"bike_id": "9e5198042711340ff32b19007c2ace8d", "is_reserved": 0, "fusion_lon": 0.0, "lat": 38.863919, "is_disabled": 0, "name": "9e5198042711340ff32b19007c2ace8d", "fusion_lat": 0.0, "rental_uris": {"ios": "https://dc.lft.to/lastmile_qr_scan", "android": "https://dc.lft.to/lastmile_qr_scan"}, "lon": -76.97462383333334, "type": "electric_scooter"}, {"bike_id": "05ed2dd0d738655eb52c369d0e952b3f", "is_reserved": 0, "fusion_lon": 0.0, "lat": 38.915472, "is_disabled": 0, "name": "05ed2dd0d738655eb52c369d0e952b3f", "fusion_lat": 0.0, "rental_uris": {"ios": "https://dc.lft.to/lastmile_qr_scan", "android": "https://dc.lft.to/lastmile_qr_scan"}, "lon": -77.03171433333333, "type": "electric_scooter"}, {"bike_id": "0be466dcd587f08d662a308cd8b8fdc8", "is_reserved": 0, "fusion_lon": 0.0, "lat": 38.910630166666664, "is_disabled": 0, "name": "0be466dcd587f08d662a308cd8b8fdc8", "fusion_lat": 0.0, "rental_uris": {"ios": "https://dc.lft.to/lastmile_qr_scan", "android": "https://dc.lft.to/lastmile_qr_scan"}, "lon": -77.029671, "type": "electric_scooter"}, {"bike_id": "09a61c9e2f6ae68387331b19b9ce20ca", "is_reserved": 0, "fusion_lon": 0.0, "lat": 38.900219166666666, "is_disabled": 0, "name": "09a61c9e2f6ae68387331b19b9ce20ca", "fusion_lat": 0.0, "rental_uris": {"ios": "https://dc.lft.to/lastmile_qr_scan", "android": "https://dc.lft.to/lastmile_qr_scan"}, "lon": -77.04654566666666, "type": "electric_scooter"}, {"bike_id": "d1217c43fbca267ac2d54c6dd0758238", "is_reserved": 0, "fusion_lon": 0.0, "lat": 38.9285215, "is_disabled": 0, "name": "d1217c43fbca267ac2d54c6dd0758238", "fusion_lat": 0.0, "rental_uris": {"ios": "https://dc.lft.to/lastmile_qr_scan", "android": "https://dc.lft.to/lastmile_qr_scan"}, "lon": -77.01396483333333, "type": "electric_scooter"}, {"bike_id": "ca3905c52d4021b5ed191319a8fa8f31", "is_reserved": 0, "fusion_lon": 0.0, "lat": 38.94552916666667, "is_disabled": 0, "name": "ca3905c52d4021b5ed191319a8fa8f31", "fusion_lat": 0.0, "rental_uris": {"ios": "https://dc.lft.to/lastmile_qr_scan", "android": "https://dc.lft.to/lastmile_qr_scan"}, "lon": -76.89536866666667, "type": "electric_bike"}, {"bike_id": "7fc1fd12ac53e4b07fc5447fbaf21761", "is_reserved": 0, "fusion_lon": 0.0, "lat": 38.8442335, "is_disabled": 0, "name": "7fc1fd12ac53e4b07fc5447fbaf21761", "fusion_lat": 0.0, "rental_uris": {"ios": "https://dc.lft.to/lastmile_qr_scan", "android": "https://dc.lft.to/lastmile_qr_scan"}, "lon": -76.99777283333333, "type": "electric_scooter"}, {"bike_id": "bb236b558d68b8372473150161edc411", "is_reserved": 0, "fusion_lon": 0.0, "lat": 38.910114, "is_disabled": 0, "name": "bb236b558d68b8372473150161edc411", "fusion_lat": 0.0, "rental_uris": {"ios": "https://dc.lft.to/lastmile_qr_scan", "android": "https://dc.lft.to/lastmile_qr_scan"}, "lon": -76.99387266666666, "type": "electric_scooter"}, {"bike_id": "9facbc2ed8b5e56e6f10582da884cbc4", "is_reserved": 0, "fusion_lon": 0.0, "lat": 38.920342166666664, "is_disabled": 0, "name": "9facbc2ed8b5e56e6f10582da884cbc4", "fusion_lat": 0.0, "rental_uris": {"ios": "https://dc.lft.to/lastmile_qr_scan", "android": "https://dc.lft.to/lastmile_qr_scan"}, "lon": -77.012185, "type": "electric_bike"}, {"bike_id": "2df260356e365a6ea24b3c7a85cc74e6", "is_reserved": 0, "fusion_lon": 0.0, "lat": 38.92082666666667, "is_disabled": 0, "name": "2df260356e365a6ea24b3c7a85cc74e6", "fusion_lat": 0.0, "rental_uris": {"ios": "https://dc.lft.to/lastmile_qr_scan", "android": "https://dc.lft.to/lastmile_qr_scan"}, "lon": -77.024334, "type": "electric_scooter"}, {"bike_id": "800d5a77f2efb059f4b958271a0a40ae", "is_reserved": 0, "fusion_lon": 0.0, "lat": 38.90438816666666, "is_disabled": 0, "name": "800d5a77f2efb059f4b958271a0a40ae", "fusion_lat": 0.0, "rental_uris": {"ios": "https://dc.lft.to/lastmile_qr_scan", "android": "https://dc.lft.to/lastmile_qr_scan"}, "lon": -77.03637833333333, "type": "electric_scooter"}, {"bike_id": "e8ad8ebf5bcb3c854b9dfff0775cbdba", "is_reserved": 0, "fusion_lon": 0.0, "lat": 38.90378666666667, "is_disabled": 0, "name": "e8ad8ebf5bcb3c854b9dfff0775cbdba", "fusion_lat": 0.0, "rental_uris": {"ios": "https://dc.lft.to/lastmile_qr_scan", "android": "https://dc.lft.to/lastmile_qr_scan"}, "lon": -77.04474983333333, "type": "electric_scooter"}, {"bike_id": "8d60256f8d3b1ed3040c0ccac57f43b7", "is_reserved": 0, "fusion_lon": 0.0, "lat": 38.92240533333333, "is_disabled": 0, "name": "8d60256f8d3b1ed3040c0ccac57f43b7", "fusion_lat": 0.0, "rental_uris": {"ios": "https://dc.lft.to/lastmile_qr_scan", "android": "https://dc.lft.to/lastmile_qr_scan"}, "lon": -77.03088333333334, "type": "electric_scooter"}, {"bike_id": "8ada2a556e0bd401f9b11a8fe4469234", "is_reserved": 0, "fusion_lon": 0.0, "lat": 38.90501833333333, "is_disabled": 0, "name": "8ada2a556e0bd401f9b11a8fe4469234", "fusion_lat": 0.0, "rental_uris": {"ios": "https://dc.lft.to/lastmile_qr_scan", "android": "https://dc.lft.to/lastmile_qr_scan"}, "lon": -76.99012183333333, "type": "electric_scooter"}, {"bike_id": "4576fe201384be1659272b30af781b4d", "is_reserved": 0, "fusion_lon": 0.0, "lat": 38.913563333333336, "is_disabled": 0, "name": "4576fe201384be1659272b30af781b4d", "fusion_lat": 0.0, "rental_uris": {"ios": "https://dc.lft.to/lastmile_qr_scan", "android": "https://dc.lft.to/lastmile_qr_scan"}, "lon": -77.017574, "type": "electric_scooter"}, {"bike_id": "4b380e1dbd5686253abac02e1044f776", "is_reserved": 0, "fusion_lon": 0.0, "lat": 38.89218233333333, "is_disabled": 0, "name": "4b380e1dbd5686253abac02e1044f776", "fusion_lat": 0.0, "rental_uris": {"ios": "https://dc.lft.to/lastmile_qr_scan", "android": "https://dc.lft.to/lastmile_qr_scan"}, "lon": -77.026271, "type": "electric_scooter"}, {"bike_id": "b89ee4cd2545f846dd7797ada89a229e", "is_reserved": 0, "fusion_lon": 0.0, "lat": 38.885002166666666, "is_disabled": 0, "name": "b89ee4cd2545f846dd7797ada89a229e", "fusion_lat": 0.0, "rental_uris": {"ios": "https://dc.lft.to/lastmile_qr_scan", "android": "https://dc.lft.to/lastmile_qr_scan"}, "lon": -77.0056685, "type": "electric_scooter"}, {"bike_id": "6e3adf15ec1898a05b00df6784bb17e6", "is_reserved": 0, "fusion_lon": 0.0, "lat": 38.90466633333333, "is_disabled": 0, "name": "6e3adf15ec1898a05b00df6784bb17e6", "fusion_lat": 0.0, "rental_uris": {"ios": "https://dc.lft.to/lastmile_qr_scan", "android": "https://dc.lft.to/lastmile_qr_scan"}, "lon": -77.03191033333333, "type": "electric_scooter"}, {"bike_id": "9ab9ca1c98d2adc02273dfee2d2d67c3", "is_reserved": 0, "fusion_lon": 0.0, "lat": 38.90733766666666, "is_disabled": 0, "name": "9ab9ca1c98d2adc02273dfee2d2d67c3", "fusion_lat": 0.0, "rental_uris": {"ios": "https://dc.lft.to/lastmile_qr_scan", "android": "https://dc.lft.to/lastmile_qr_scan"}, "lon": -77.07039366666666, "type": "electric_bike"}, {"bike_id": "ccae02c349d8bf1d8aaf616eefa88ef6", "is_reserved": 0, "fusion_lon": 0.0, "lat": 38.904212666666666, "is_disabled": 0, "name": "ccae02c349d8bf1d8aaf616eefa88ef6", "fusion_lat": 0.0, "rental_uris": {"ios": "https://dc.lft.to/lastmile_qr_scan", "android": "https://dc.lft.to/lastmile_qr_scan"}, "lon": -77.0324915, "type": "electric_scooter"}, {"bike_id": "abc06be21f8f42daca238779ce8a5694", "is_reserved": 0, "fusion_lon": 0.0, "lat": 38.895250833333336, "is_disabled": 0, "name": "abc06be21f8f42daca238779ce8a5694", "fusion_lat": 0.0, "rental_uris": {"ios": "https://dc.lft.to/lastmile_qr_scan", "android": "https://dc.lft.to/lastmile_qr_scan"}, "lon": -77.01609516666667, "type": "electric_scooter"}, {"bike_id": "bac1a8483bf059b620f7c4e10c1409ef", "is_reserved": 0, "fusion_lon": 0.0, "lat": 38.885105333333335, "is_disabled": 0, "name": "bac1a8483bf059b620f7c4e10c1409ef", "fusion_lat": 0.0, "rental_uris": {"ios": "https://dc.lft.to/lastmile_qr_scan", "android": "https://dc.lft.to/lastmile_qr_scan"}, "lon": -77.020938, "type": "electric_scooter"}, {"bike_id": "430d79263b9181fbcfcab802c9c566de", "is_reserved": 0, "fusion_lon": 0.0, "lat": 38.92124333333334, "is_disabled": 0, "name": "430d79263b9181fbcfcab802c9c566de", "fusion_lat": 0.0, "rental_uris": {"ios": "https://dc.lft.to/lastmile_qr_scan", "android": "https://dc.lft.to/lastmile_qr_scan"}, "lon": -77.01020416666667, "type": "electric_scooter"}, {"bike_id": "44bef75fbad02bdbee912e775472fe13", "is_reserved": 0, "fusion_lon": 0.0, "lat": 38.9284465, "is_disabled": 0, "name": "44bef75fbad02bdbee912e775472fe13", "fusion_lat": 0.0, "rental_uris": {"ios": "https://dc.lft.to/lastmile_qr_scan", "android": "https://dc.lft.to/lastmile_qr_scan"}, "lon": -77.020583, "type": "electric_bike"}, {"bike_id": "882d2da3575cd882feb2e317ed33fd15", "is_reserved": 0, "fusion_lon": 0.0, "lat": 38.905320833333334, "is_disabled": 0, "name": "882d2da3575cd882feb2e317ed33fd15", "fusion_lat": 0.0, "rental_uris": {"ios": "https://dc.lft.to/lastmile_qr_scan", "android": "https://dc.lft.to/lastmile_qr_scan"}, "lon": -77.05879233333333, "type": "electric_scooter"}, {"bike_id": "e8bc5d817721a52ba9635b2460f04a10", "is_reserved": 0, "fusion_lon": 0.0, "lat": 38.94180166666666, "is_disabled": 0, "name": "e8bc5d817721a52ba9635b2460f04a10", "fusion_lat": 0.0, "rental_uris": {"ios": "https://dc.lft.to/lastmile_qr_scan", "android": "https://dc.lft.to/lastmile_qr_scan"}, "lon": -77.03089333333334, "type": "electric_scooter"}, {"bike_id": "7dc9a63bb843aab8ec9b7cc519af41bd", "is_reserved": 0, "fusion_lon": 0.0, "lat": 38.9079545, "is_disabled": 0, "name": "7dc9a63bb843aab8ec9b7cc519af41bd", "fusion_lat": 0.0, "rental_uris": {"ios": "https://dc.lft.to/lastmile_qr_scan", "android": "https://dc.lft.to/lastmile_qr_scan"}, "lon": -76.9970315, "type": "electric_scooter"}, {"bike_id": "f380c975d2fe84cc36bb8d4a8b28aba0", "is_reserved": 0, "fusion_lon": 0.0, "lat": 38.899719, "is_disabled": 0, "name": "f380c975d2fe84cc36bb8d4a8b28aba0", "fusion_lat": 0.0, "rental_uris": {"ios": "https://dc.lft.to/lastmile_qr_scan", "android": "https://dc.lft.to/lastmile_qr_scan"}, "lon": -77.05049933333333, "type": "electric_scooter"}, {"bike_id": "3f46938f7e54faac2c56da488714ba1f", "is_reserved": 0, "fusion_lon": 0.0, "lat": 38.897461, "is_disabled": 0, "name": "3f46938f7e54faac2c56da488714ba1f", "fusion_lat": 0.0, "rental_uris": {"ios": "https://dc.lft.to/lastmile_qr_scan", "android": "https://dc.lft.to/lastmile_qr_scan"}, "lon": -77.02706533333334, "type": "electric_scooter"}, {"bike_id": "3a1457cb697f951a545a6b2b80b61c16", "is_reserved": 0, "fusion_lon": 0.0, "lat": 38.92101233333333, "is_disabled": 0, "name": "3a1457cb697f951a545a6b2b80b61c16", "fusion_lat": 0.0, "rental_uris": {"ios": "https://dc.lft.to/lastmile_qr_scan", "android": "https://dc.lft.to/lastmile_qr_scan"}, "lon": -76.99383216666666, "type": "electric_scooter"}, {"bike_id": "3fc12673d53945ce7838cf52de97c8af", "is_reserved": 0, "fusion_lon": 0.0, "lat": 38.8543725, "is_disabled": 0, "name": "3fc12673d53945ce7838cf52de97c8af", "fusion_lat": 0.0, "rental_uris": {"ios": "https://dc.lft.to/lastmile_qr_scan", "android": "https://dc.lft.to/lastmile_qr_scan"}, "lon": -77.11708183333333, "type": "electric_bike"}, {"bike_id": "694ceacec06011824c2a316c4cbc9738", "is_reserved": 0, "fusion_lon": 0.0, "lat": 38.911142, "is_disabled": 0, "name": "694ceacec06011824c2a316c4cbc9738", "fusion_lat": 0.0, "rental_uris": {"ios": "https://dc.lft.to/lastmile_qr_scan", "android": "https://dc.lft.to/lastmile_qr_scan"}, "lon": -77.00245733333334, "type": "electric_scooter"}, {"bike_id": "7543b07336e1ea9058febcb3cb35f0cc", "is_reserved": 0, "fusion_lon": 0.0, "lat": 38.933290666666664, "is_disabled": 0, "name": "7543b07336e1ea9058febcb3cb35f0cc", "fusion_lat": 0.0, "rental_uris": {"ios": "https://dc.lft.to/lastmile_qr_scan", "android": "https://dc.lft.to/lastmile_qr_scan"}, "lon": -77.03272766666667, "type": "electric_scooter"}, {"bike_id": "37383c247f8c933d5c5c73919984c951", "is_reserved": 0, "fusion_lon": 0.0, "lat": 38.901346, "is_disabled": 0, "name": "37383c247f8c933d5c5c73919984c951", "fusion_lat": 0.0, "rental_uris": {"ios": "https://dc.lft.to/lastmile_qr_scan", "android": "https://dc.lft.to/lastmile_qr_scan"}, "lon": -77.0424335, "type": "electric_scooter"}, {"bike_id": "3b0fa57a43de1fdb2af34c058c8e5d26", "is_reserved": 0, "fusion_lon": 0.0, "lat": 38.915517333333334, "is_disabled": 0, "name": "3b0fa57a43de1fdb2af34c058c8e5d26", "fusion_lat": 0.0, "rental_uris": {"ios": "https://dc.lft.to/lastmile_qr_scan", "android": "https://dc.lft.to/lastmile_qr_scan"}, "lon": -77.031728, "type": "electric_scooter"}, {"bike_id": "cb5413f7d18dc06e22c467cbcae02d86", "is_reserved": 0, "fusion_lon": 0.0, "lat": 38.92027483333333, "is_disabled": 0, "name": "cb5413f7d18dc06e22c467cbcae02d86", "fusion_lat": 0.0, "rental_uris": {"ios": "https://dc.lft.to/lastmile_qr_scan", "android": "https://dc.lft.to/lastmile_qr_scan"}, "lon": -77.03867533333333, "type": "electric_scooter"}, {"bike_id": "dc5c5a2c7dad51aaeeedc81b094386ab", "is_reserved": 0, "fusion_lon": 0.0, "lat": 38.89222633333333, "is_disabled": 0, "name": "dc5c5a2c7dad51aaeeedc81b094386ab", "fusion_lat": 0.0, "rental_uris": {"ios": "https://dc.lft.to/lastmile_qr_scan", "android": "https://dc.lft.to/lastmile_qr_scan"}, "lon": -77.04337483333333, "type": "electric_scooter"}, {"bike_id": "74d5c861d77b8f63cc07c712fbae79aa", "is_reserved": 0, "fusion_lon": 0.0, "lat": 38.9251235, "is_disabled": 0, "name": "74d5c861d77b8f63cc07c712fbae79aa", "fusion_lat": 0.0, "rental_uris": {"ios": "https://dc.lft.to/lastmile_qr_scan", "android": "https://dc.lft.to/lastmile_qr_scan"}, "lon": -77.00175566666667, "type": "electric_scooter"}, {"bike_id": "ca9d2a7158aeebfb0de289402e07f6de", "is_reserved": 0, "fusion_lon": 0.0, "lat": 38.9060805, "is_disabled": 0, "name": "ca9d2a7158aeebfb0de289402e07f6de", "fusion_lat": 0.0, "rental_uris": {"ios": "https://dc.lft.to/lastmile_qr_scan", "android": "https://dc.lft.to/lastmile_qr_scan"}, "lon": -77.07487816666666, "type": "electric_scooter"}, {"bike_id": "b1600250f69674fa8175fc45d7555c73", "is_reserved": 0, "fusion_lon": 0.0, "lat": 38.89609266666667, "is_disabled": 0, "name": "b1600250f69674fa8175fc45d7555c73", "fusion_lat": 0.0, "rental_uris": {"ios": "https://dc.lft.to/lastmile_qr_scan", "android": "https://dc.lft.to/lastmile_qr_scan"}, "lon": -77.009263, "type": "electric_scooter"}, {"bike_id": "96861e5f012c610dc5ef7edfc2df4231", "is_reserved": 0, "fusion_lon": 0.0, "lat": 38.9236575, "is_disabled": 0, "name": "96861e5f012c610dc5ef7edfc2df4231", "fusion_lat": 0.0, "rental_uris": {"ios": "https://dc.lft.to/lastmile_qr_scan", "android": "https://dc.lft.to/lastmile_qr_scan"}, "lon": -77.05833983333333, "type": "electric_scooter"}, {"bike_id": "13df70348846b683424e9c2affd34700", "is_reserved": 0, "fusion_lon": 0.0, "lat": 38.925139, "is_disabled": 0, "name": "13df70348846b683424e9c2affd34700", "fusion_lat": 0.0, "rental_uris": {"ios": "https://dc.lft.to/lastmile_qr_scan", "android": "https://dc.lft.to/lastmile_qr_scan"}, "lon": -77.03327483333334, "type": "electric_scooter"}, {"bike_id": "719191ae148ad0b09ed2c01bc6b40a75", "is_reserved": 0, "fusion_lon": 0.0, "lat": 38.9160115, "is_disabled": 0, "name": "719191ae148ad0b09ed2c01bc6b40a75", "fusion_lat": 0.0, "rental_uris": {"ios": "https://dc.lft.to/lastmile_qr_scan", "android": "https://dc.lft.to/lastmile_qr_scan"}, "lon": -77.012265, "type": "electric_scooter"}, {"bike_id": "a5a75480cb08faeaff30950b861655c7", "is_reserved": 0, "fusion_lon": 0.0, "lat": 39.051998833333336, "is_disabled": 0, "name": "a5a75480cb08faeaff30950b861655c7", "fusion_lat": 0.0, "rental_uris": {"ios": "https://dc.lft.to/lastmile_qr_scan", "android": "https://dc.lft.to/lastmile_qr_scan"}, "lon": -77.10917966666666, "type": "electric_bike"}, {"bike_id": "3da9b1dd6b45f3664650dea6b895cd90", "is_reserved": 0, "fusion_lon": 0.0, "lat": 38.91547766666667, "is_disabled": 0, "name": "3da9b1dd6b45f3664650dea6b895cd90", "fusion_lat": 0.0, "rental_uris": {"ios": "https://dc.lft.to/lastmile_qr_scan", "android": "https://dc.lft.to/lastmile_qr_scan"}, "lon": -77.03936416666667, "type": "electric_scooter"}, {"bike_id": "59f255654b3faeeb32033a73645683a5", "is_reserved": 0, "fusion_lon": 0.0, "lat": 38.86660583333333, "is_disabled": 0, "name": "59f255654b3faeeb32033a73645683a5", "fusion_lat": 0.0, "rental_uris": {"ios": "https://dc.lft.to/lastmile_qr_scan", "android": "https://dc.lft.to/lastmile_qr_scan"}, "lon": -76.988806, "type": "electric_scooter"}, {"bike_id": "fd7720bdab69316116848847afa6098f", "is_reserved": 0, "fusion_lon": 0.0, "lat": 38.8292005, "is_disabled": 0, "name": "fd7720bdab69316116848847afa6098f", "fusion_lat": 0.0, "rental_uris": {"ios": "https://dc.lft.to/lastmile_qr_scan", "android": "https://dc.lft.to/lastmile_qr_scan"}, "lon": -76.99739866666667, "type": "electric_scooter"}, {"bike_id": "84d23e409ba10b9a41ecb4c5f66b803a", "is_reserved": 0, "fusion_lon": 0.0, "lat": 38.90014733333334, "is_disabled": 0, "name": "84d23e409ba10b9a41ecb4c5f66b803a", "fusion_lat": 0.0, "rental_uris": {"ios": "https://dc.lft.to/lastmile_qr_scan", "android": "https://dc.lft.to/lastmile_qr_scan"}, "lon": -76.99839416666667, "type": "electric_scooter"}, {"bike_id": "969d8e9df6efe1ba873a7e6c87746ca8", "is_reserved": 0, "fusion_lon": 0.0, "lat": 38.90670033333333, "is_disabled": 0, "name": "969d8e9df6efe1ba873a7e6c87746ca8", "fusion_lat": 0.0, "rental_uris": {"ios": "https://dc.lft.to/lastmile_qr_scan", "android": "https://dc.lft.to/lastmile_qr_scan"}, "lon": -77.0376245, "type": "electric_scooter"}, {"bike_id": "34bbe82cd0b913242f4f97f6b25fdc91", "is_reserved": 0, "fusion_lon": 0.0, "lat": 38.8997825, "is_disabled": 0, "name": "34bbe82cd0b913242f4f97f6b25fdc91", "fusion_lat": 0.0, "rental_uris": {"ios": "https://dc.lft.to/lastmile_qr_scan", "android": "https://dc.lft.to/lastmile_qr_scan"}, "lon": -76.9914175, "type": "electric_scooter"}, {"bike_id": "7efeeecc2ccc959f972970dc5e9fa54b", "is_reserved": 0, "fusion_lon": 0.0, "lat": 38.90568783333333, "is_disabled": 0, "name": "7efeeecc2ccc959f972970dc5e9fa54b", "fusion_lat": 0.0, "rental_uris": {"ios": "https://dc.lft.to/lastmile_qr_scan", "android": "https://dc.lft.to/lastmile_qr_scan"}, "lon": -77.04611883333334, "type": "electric_scooter"}, {"bike_id": "83b17adb59eb517b8d2bddb8426a840d", "is_reserved": 0, "fusion_lon": 0.0, "lat": 38.903630166666666, "is_disabled": 0, "name": "83b17adb59eb517b8d2bddb8426a840d", "fusion_lat": 0.0, "rental_uris": {"ios": "https://dc.lft.to/lastmile_qr_scan", "android": "https://dc.lft.to/lastmile_qr_scan"}, "lon": -77.04358816666667, "type": "electric_scooter"}, {"bike_id": "03ace95d4f480cf5e93870f12fe0a133", "is_reserved": 0, "fusion_lon": 0.0, "lat": 38.911078, "is_disabled": 0, "name": "03ace95d4f480cf5e93870f12fe0a133", "fusion_lat": 0.0, "rental_uris": {"ios": "https://dc.lft.to/lastmile_qr_scan", "android": "https://dc.lft.to/lastmile_qr_scan"}, "lon": -77.00271016666666, "type": "electric_scooter"}, {"bike_id": "01b93514e43dcbebeb7f55efa7280fa9", "is_reserved": 0, "fusion_lon": 0.0, "lat": 38.9178735, "is_disabled": 0, "name": "01b93514e43dcbebeb7f55efa7280fa9", "fusion_lat": 0.0, "rental_uris": {"ios": "https://dc.lft.to/lastmile_qr_scan", "android": "https://dc.lft.to/lastmile_qr_scan"}, "lon": -77.04760166666667, "type": "electric_scooter"}, {"bike_id": "ab2ad85202cd1375f2af397723a3a441", "is_reserved": 0, "fusion_lon": 0.0, "lat": 38.8932785, "is_disabled": 0, "name": "ab2ad85202cd1375f2af397723a3a441", "fusion_lat": 0.0, "rental_uris": {"ios": "https://dc.lft.to/lastmile_qr_scan", "android": "https://dc.lft.to/lastmile_qr_scan"}, "lon": -76.92991783333333, "type": "electric_scooter"}, {"bike_id": "20a5824b0180056ae8f36018e2d508a4", "is_reserved": 0, "fusion_lon": 0.0, "lat": 38.876313833333334, "is_disabled": 0, "name": "20a5824b0180056ae8f36018e2d508a4", "fusion_lat": 0.0, "rental_uris": {"ios": "https://dc.lft.to/lastmile_qr_scan", "android": "https://dc.lft.to/lastmile_qr_scan"}, "lon": -76.96526266666666, "type": "electric_scooter"}, {"bike_id": "08c2c78a097e81e65d778d8842633efc", "is_reserved": 0, "fusion_lon": 0.0, "lat": 38.9227695, "is_disabled": 0, "name": "08c2c78a097e81e65d778d8842633efc", "fusion_lat": 0.0, "rental_uris": {"ios": "https://dc.lft.to/lastmile_qr_scan", "android": "https://dc.lft.to/lastmile_qr_scan"}, "lon": -77.03664666666667, "type": "electric_scooter"}, {"bike_id": "13a8b536da8999323113f2bc0a21ca79", "is_reserved": 0, "fusion_lon": 0.0, "lat": 38.9070775, "is_disabled": 0, "name": "13a8b536da8999323113f2bc0a21ca79", "fusion_lat": 0.0, "rental_uris": {"ios": "https://dc.lft.to/lastmile_qr_scan", "android": "https://dc.lft.to/lastmile_qr_scan"}, "lon": -77.03206233333333, "type": "electric_scooter"}, {"bike_id": "1bf728c1b2e75482b3368aa21ca6ec09", "is_reserved": 0, "fusion_lon": 0.0, "lat": 38.90622366666667, "is_disabled": 0, "name": "1bf728c1b2e75482b3368aa21ca6ec09", "fusion_lat": 0.0, "rental_uris": {"ios": "https://dc.lft.to/lastmile_qr_scan", "android": "https://dc.lft.to/lastmile_qr_scan"}, "lon": -76.98615616666666, "type": "electric_bike"}, {"bike_id": "d2a900dd3306894939181060b03cbaff", "is_reserved": 0, "fusion_lon": 0.0, "lat": 38.93110383333333, "is_disabled": 0, "name": "d2a900dd3306894939181060b03cbaff", "fusion_lat": 0.0, "rental_uris": {"ios": "https://dc.lft.to/lastmile_qr_scan", "android": "https://dc.lft.to/lastmile_qr_scan"}, "lon": -77.03843433333333, "type": "electric_scooter"}, {"bike_id": "e68669c54e7907b23c12324e39c23dfa", "is_reserved": 0, "fusion_lon": 0.0, "lat": 39.03044966666667, "is_disabled": 0, "name": "e68669c54e7907b23c12324e39c23dfa", "fusion_lat": 0.0, "rental_uris": {"ios": "https://dc.lft.to/lastmile_qr_scan", "android": "https://dc.lft.to/lastmile_qr_scan"}, "lon": -77.094816, "type": "electric_bike"}, {"bike_id": "1d456bb182c173c78a2d154bdd9c471e", "is_reserved": 0, "fusion_lon": 0.0, "lat": 38.91644016666667, "is_disabled": 0, "name": "1d456bb182c173c78a2d154bdd9c471e", "fusion_lat": 0.0, "rental_uris": {"ios": "https://dc.lft.to/lastmile_qr_scan", "android": "https://dc.lft.to/lastmile_qr_scan"}, "lon": -77.03214016666666, "type": "electric_scooter"}, {"bike_id": "2ab79b708afb83822650dffd170b2e28", "is_reserved": 0, "fusion_lon": 0.0, "lat": 38.97060833333333, "is_disabled": 0, "name": "2ab79b708afb83822650dffd170b2e28", "fusion_lat": 0.0, "rental_uris": {"ios": "https://dc.lft.to/lastmile_qr_scan", "android": "https://dc.lft.to/lastmile_qr_scan"}, "lon": -76.93604966666666, "type": "electric_bike"}, {"bike_id": "e0e26638fbe96b044b8520c9edc147ae", "is_reserved": 0, "fusion_lon": 0.0, "lat": 38.907674666666665, "is_disabled": 0, "name": "e0e26638fbe96b044b8520c9edc147ae", "fusion_lat": 0.0, "rental_uris": {"ios": "https://dc.lft.to/lastmile_qr_scan", "android": "https://dc.lft.to/lastmile_qr_scan"}, "lon": -77.069167, "type": "electric_scooter"}, {"bike_id": "e821596e5635284ba56ede9f8fb11df0", "is_reserved": 0, "fusion_lon": 0.0, "lat": 38.90479083333334, "is_disabled": 0, "name": "e821596e5635284ba56ede9f8fb11df0", "fusion_lat": 0.0, "rental_uris": {"ios": "https://dc.lft.to/lastmile_qr_scan", "android": "https://dc.lft.to/lastmile_qr_scan"}, "lon": -77.06010483333333, "type": "electric_scooter"}, {"bike_id": "c5fae27d098bfd382f91bfc6d6bae999", "is_reserved": 0, "fusion_lon": 0.0, "lat": 38.90133216666667, "is_disabled": 0, "name": "c5fae27d098bfd382f91bfc6d6bae999", "fusion_lat": 0.0, "rental_uris": {"ios": "https://dc.lft.to/lastmile_qr_scan", "android": "https://dc.lft.to/lastmile_qr_scan"}, "lon": -76.99795966666667, "type": "electric_scooter"}, {"bike_id": "080705063dd8fe3bf4943b1d751dc2a0", "is_reserved": 0, "fusion_lon": 0.0, "lat": 38.900333833333335, "is_disabled": 0, "name": "080705063dd8fe3bf4943b1d751dc2a0", "fusion_lat": 0.0, "rental_uris": {"ios": "https://dc.lft.to/lastmile_qr_scan", "android": "https://dc.lft.to/lastmile_qr_scan"}, "lon": -76.98750933333334, "type": "electric_scooter"}, {"bike_id": "6254eb018073366227f16b214a26b74b", "is_reserved": 0, "fusion_lon": 0.0, "lat": 38.92110133333333, "is_disabled": 0, "name": "6254eb018073366227f16b214a26b74b", "fusion_lat": 0.0, "rental_uris": {"ios": "https://dc.lft.to/lastmile_qr_scan", "android": "https://dc.lft.to/lastmile_qr_scan"}, "lon": -77.04220683333334, "type": "electric_scooter"}, {"bike_id": "f1eded48bc63092cf64e82e7f0a0b466", "is_reserved": 0, "fusion_lon": 0.0, "lat": 38.968239833333335, "is_disabled": 0, "name": "f1eded48bc63092cf64e82e7f0a0b466", "fusion_lat": 0.0, "rental_uris": {"ios": "https://dc.lft.to/lastmile_qr_scan", "android": "https://dc.lft.to/lastmile_qr_scan"}, "lon": -77.0178555, "type": "electric_scooter"}, {"bike_id": "3de850051d3ec924dd111b7d203ea915", "is_reserved": 0, "fusion_lon": 0.0, "lat": 38.89299833333333, "is_disabled": 0, "name": "3de850051d3ec924dd111b7d203ea915", "fusion_lat": 0.0, "rental_uris": {"ios": "https://dc.lft.to/lastmile_qr_scan", "android": "https://dc.lft.to/lastmile_qr_scan"}, "lon": -77.01231683333333, "type": "electric_scooter"}, {"bike_id": "d14f04f788776b925144fdcea7d72f6c", "is_reserved": 0, "fusion_lon": 0.0, "lat": 38.92581583333333, "is_disabled": 0, "name": "d14f04f788776b925144fdcea7d72f6c", "fusion_lat": 0.0, "rental_uris": {"ios": "https://dc.lft.to/lastmile_qr_scan", "android": "https://dc.lft.to/lastmile_qr_scan"}, "lon": -77.0525285, "type": "electric_scooter"}, {"bike_id": "78099dabc591026ea5f04f839ba8f530", "is_reserved": 0, "fusion_lon": 0.0, "lat": 38.90527183333333, "is_disabled": 0, "name": "78099dabc591026ea5f04f839ba8f530", "fusion_lat": 0.0, "rental_uris": {"ios": "https://dc.lft.to/lastmile_qr_scan", "android": "https://dc.lft.to/lastmile_qr_scan"}, "lon": -77.0486025, "type": "electric_scooter"}, {"bike_id": "e36198096f52f98485c7a3b15d847cf0", "is_reserved": 0, "fusion_lon": 0.0, "lat": 38.904622, "is_disabled": 0, "name": "e36198096f52f98485c7a3b15d847cf0", "fusion_lat": 0.0, "rental_uris": {"ios": "https://dc.lft.to/lastmile_qr_scan", "android": "https://dc.lft.to/lastmile_qr_scan"}, "lon": -76.99502833333334, "type": "electric_scooter"}, {"bike_id": "d278cb4d7093257b61deb07587444ce6", "is_reserved": 0, "fusion_lon": 0.0, "lat": 38.89610783333333, "is_disabled": 0, "name": "d278cb4d7093257b61deb07587444ce6", "fusion_lat": 0.0, "rental_uris": {"ios": "https://dc.lft.to/lastmile_qr_scan", "android": "https://dc.lft.to/lastmile_qr_scan"}, "lon": -77.045046, "type": "electric_scooter"}, {"bike_id": "71f5a48b09900e0aad63635385c89a39", "is_reserved": 0, "fusion_lon": 0.0, "lat": 38.92300566666667, "is_disabled": 0, "name": "71f5a48b09900e0aad63635385c89a39", "fusion_lat": 0.0, "rental_uris": {"ios": "https://dc.lft.to/lastmile_qr_scan", "android": "https://dc.lft.to/lastmile_qr_scan"}, "lon": -77.04143983333333, "type": "electric_scooter"}, {"bike_id": "c79ad2226425836c4723ca2b04a02a5c", "is_reserved": 0, "fusion_lon": 0.0, "lat": 38.89630066666667, "is_disabled": 0, "name": "c79ad2226425836c4723ca2b04a02a5c", "fusion_lat": 0.0, "rental_uris": {"ios": "https://dc.lft.to/lastmile_qr_scan", "android": "https://dc.lft.to/lastmile_qr_scan"}, "lon": -77.03228983333334, "type": "electric_scooter"}, {"bike_id": "d7f86c4cf49c406059ab34395fcf8151", "is_reserved": 0, "fusion_lon": 0.0, "lat": 38.929519666666664, "is_disabled": 0, "name": "d7f86c4cf49c406059ab34395fcf8151", "fusion_lat": 0.0, "rental_uris": {"ios": "https://dc.lft.to/lastmile_qr_scan", "android": "https://dc.lft.to/lastmile_qr_scan"}, "lon": -77.044015, "type": "electric_scooter"}, {"bike_id": "c70d6f5d20c7ae0d8930548c4d85f9ea", "is_reserved": 0, "fusion_lon": 0.0, "lat": 38.901552, "is_disabled": 0, "name": "c70d6f5d20c7ae0d8930548c4d85f9ea", "fusion_lat": 0.0, "rental_uris": {"ios": "https://dc.lft.to/lastmile_qr_scan", "android": "https://dc.lft.to/lastmile_qr_scan"}, "lon": -77.03315866666667, "type": "electric_scooter"}, {"bike_id": "c001b5b6d829ab4606929b4f993a8a55", "is_reserved": 0, "fusion_lon": 0.0, "lat": 38.91712533333333, "is_disabled": 0, "name": "c001b5b6d829ab4606929b4f993a8a55", "fusion_lat": 0.0, "rental_uris": {"ios": "https://dc.lft.to/lastmile_qr_scan", "android": "https://dc.lft.to/lastmile_qr_scan"}, "lon": -77.0121725, "type": "electric_scooter"}, {"bike_id": "9d7ef1c882828aabe7747af68cb9da5e", "is_reserved": 0, "fusion_lon": 0.0, "lat": 38.90689366666667, "is_disabled": 0, "name": "9d7ef1c882828aabe7747af68cb9da5e", "fusion_lat": 0.0, "rental_uris": {"ios": "https://dc.lft.to/lastmile_qr_scan", "android": "https://dc.lft.to/lastmile_qr_scan"}, "lon": -76.95186566666666, "type": "electric_bike"}, {"bike_id": "a26f6849b1046f1285f29c2645694bf2", "is_reserved": 0, "fusion_lon": 0.0, "lat": 38.93198066666667, "is_disabled": 0, "name": "a26f6849b1046f1285f29c2645694bf2", "fusion_lat": 0.0, "rental_uris": {"ios": "https://dc.lft.to/lastmile_qr_scan", "android": "https://dc.lft.to/lastmile_qr_scan"}, "lon": -77.03875983333333, "type": "electric_scooter"}, {"bike_id": "d66930b9efbc0375866cb32bc1df30c9", "is_reserved": 0, "fusion_lon": 0.0, "lat": 38.8022565, "is_disabled": 0, "name": "d66930b9efbc0375866cb32bc1df30c9", "fusion_lat": 0.0, "rental_uris": {"ios": "https://dc.lft.to/lastmile_qr_scan", "android": "https://dc.lft.to/lastmile_qr_scan"}, "lon": -77.07916416666667, "type": "electric_bike"}, {"bike_id": "5b18d648c25825142d79186061a0e773", "is_reserved": 0, "fusion_lon": 0.0, "lat": 38.9441085, "is_disabled": 0, "name": "5b18d648c25825142d79186061a0e773", "fusion_lat": 0.0, "rental_uris": {"ios": "https://dc.lft.to/lastmile_qr_scan", "android": "https://dc.lft.to/lastmile_qr_scan"}, "lon": -77.05522583333334, "type": "electric_scooter"}, {"bike_id": "a252bac22e5b2a3e393ae02e0ef64536", "is_reserved": 0, "fusion_lon": 0.0, "lat": 38.901277666666665, "is_disabled": 0, "name": "a252bac22e5b2a3e393ae02e0ef64536", "fusion_lat": 0.0, "rental_uris": {"ios": "https://dc.lft.to/lastmile_qr_scan", "android": "https://dc.lft.to/lastmile_qr_scan"}, "lon": -76.99712383333333, "type": "electric_scooter"}, {"bike_id": "c31b450b8f08c87826bec69a222304da", "is_reserved": 0, "fusion_lon": 0.0, "lat": 38.905199833333334, "is_disabled": 0, "name": "c31b450b8f08c87826bec69a222304da", "fusion_lat": 0.0, "rental_uris": {"ios": "https://dc.lft.to/lastmile_qr_scan", "android": "https://dc.lft.to/lastmile_qr_scan"}, "lon": -77.0652465, "type": "electric_scooter"}, {"bike_id": "72ec656de31cc4c5193bb22086d85823", "is_reserved": 0, "fusion_lon": 0.0, "lat": 38.906892166666665, "is_disabled": 0, "name": "72ec656de31cc4c5193bb22086d85823", "fusion_lat": 0.0, "rental_uris": {"ios": "https://dc.lft.to/lastmile_qr_scan", "android": "https://dc.lft.to/lastmile_qr_scan"}, "lon": -77.00579283333333, "type": "electric_scooter"}, {"bike_id": "8aa5db1a86d9354d6d3aae6aa506cfda", "is_reserved": 0, "fusion_lon": 0.0, "lat": 38.903737, "is_disabled": 0, "name": "8aa5db1a86d9354d6d3aae6aa506cfda", "fusion_lat": 0.0, "rental_uris": {"ios": "https://dc.lft.to/lastmile_qr_scan", "android": "https://dc.lft.to/lastmile_qr_scan"}, "lon": -77.04507216666667, "type": "electric_scooter"}, {"bike_id": "9d80b7b77bc67e7783f43510dd9962c7", "is_reserved": 0, "fusion_lon": 0.0, "lat": 38.92273083333333, "is_disabled": 0, "name": "9d80b7b77bc67e7783f43510dd9962c7", "fusion_lat": 0.0, "rental_uris": {"ios": "https://dc.lft.to/lastmile_qr_scan", "android": "https://dc.lft.to/lastmile_qr_scan"}, "lon": -77.01826816666667, "type": "electric_scooter"}, {"bike_id": "41640708e16096b0fa598e255fa7ef44", "is_reserved": 0, "fusion_lon": 0.0, "lat": 38.89948566666666, "is_disabled": 0, "name": "41640708e16096b0fa598e255fa7ef44", "fusion_lat": 0.0, "rental_uris": {"ios": "https://dc.lft.to/lastmile_qr_scan", "android": "https://dc.lft.to/lastmile_qr_scan"}, "lon": -77.05267866666667, "type": "electric_scooter"}, {"bike_id": "f840b67d0f2e89a0910874af65a429d0", "is_reserved": 0, "fusion_lon": 0.0, "lat": 38.89718166666667, "is_disabled": 0, "name": "f840b67d0f2e89a0910874af65a429d0", "fusion_lat": 0.0, "rental_uris": {"ios": "https://dc.lft.to/lastmile_qr_scan", "android": "https://dc.lft.to/lastmile_qr_scan"}, "lon": -77.02202666666666, "type": "electric_scooter"}, {"bike_id": "d98d2bd9a196edb3ebf8bea4f20f7867", "is_reserved": 0, "fusion_lon": 0.0, "lat": 38.95644133333333, "is_disabled": 0, "name": "d98d2bd9a196edb3ebf8bea4f20f7867", "fusion_lat": 0.0, "rental_uris": {"ios": "https://dc.lft.to/lastmile_qr_scan", "android": "https://dc.lft.to/lastmile_qr_scan"}, "lon": -76.99747466666666, "type": "electric_bike"}, {"bike_id": "c3d18b1888205cc5f8302af44e72d29e", "is_reserved": 0, "fusion_lon": 0.0, "lat": 38.95188016666667, "is_disabled": 0, "name": "c3d18b1888205cc5f8302af44e72d29e", "fusion_lat": 0.0, "rental_uris": {"ios": "https://dc.lft.to/lastmile_qr_scan", "android": "https://dc.lft.to/lastmile_qr_scan"}, "lon": -76.93543583333333, "type": "electric_bike"}, {"bike_id": "395a0a9321ca2a820c4c02b576f0e223", "is_reserved": 0, "fusion_lon": 0.0, "lat": 38.91782633333333, "is_disabled": 0, "name": "395a0a9321ca2a820c4c02b576f0e223", "fusion_lat": 0.0, "rental_uris": {"ios": "https://dc.lft.to/lastmile_qr_scan", "android": "https://dc.lft.to/lastmile_qr_scan"}, "lon": -77.02317683333334, "type": "electric_scooter"}, {"bike_id": "6e6a7ccdcd1c86b0d02ebee87619883b", "is_reserved": 0, "fusion_lon": 0.0, "lat": 38.91708633333333, "is_disabled": 0, "name": "6e6a7ccdcd1c86b0d02ebee87619883b", "fusion_lat": 0.0, "rental_uris": {"ios": "https://dc.lft.to/lastmile_qr_scan", "android": "https://dc.lft.to/lastmile_qr_scan"}, "lon": -77.02893933333333, "type": "electric_scooter"}, {"bike_id": "9143eec7d8ef5fe6d97c260fe4c1b0b0", "is_reserved": 0, "fusion_lon": 0.0, "lat": 38.883260166666666, "is_disabled": 0, "name": "9143eec7d8ef5fe6d97c260fe4c1b0b0", "fusion_lat": 0.0, "rental_uris": {"ios": "https://dc.lft.to/lastmile_qr_scan", "android": "https://dc.lft.to/lastmile_qr_scan"}, "lon": -77.0177835, "type": "electric_scooter"}, {"bike_id": "2fab0f93162161b5ea0e296cc3c0d84a", "is_reserved": 0, "fusion_lon": 0.0, "lat": 38.917022833333334, "is_disabled": 0, "name": "2fab0f93162161b5ea0e296cc3c0d84a", "fusion_lat": 0.0, "rental_uris": {"ios": "https://dc.lft.to/lastmile_qr_scan", "android": "https://dc.lft.to/lastmile_qr_scan"}, "lon": -77.00117833333333, "type": "electric_scooter"}, {"bike_id": "f5e9a2381e2f1847b4ca6c43f383b2a7", "is_reserved": 0, "fusion_lon": 0.0, "lat": 38.90764083333333, "is_disabled": 0, "name": "f5e9a2381e2f1847b4ca6c43f383b2a7", "fusion_lat": 0.0, "rental_uris": {"ios": "https://dc.lft.to/lastmile_qr_scan", "android": "https://dc.lft.to/lastmile_qr_scan"}, "lon": -77.032065, "type": "electric_scooter"}, {"bike_id": "7cbba702af4704a6a240da886090b903", "is_reserved": 0, "fusion_lon": 0.0, "lat": 38.92718133333333, "is_disabled": 0, "name": "7cbba702af4704a6a240da886090b903", "fusion_lat": 0.0, "rental_uris": {"ios": "https://dc.lft.to/lastmile_qr_scan", "android": "https://dc.lft.to/lastmile_qr_scan"}, "lon": -77.03848666666667, "type": "electric_scooter"}, {"bike_id": "d3f026eb0a51ffc966de13beccd15742", "is_reserved": 0, "fusion_lon": 0.0, "lat": 38.87395083333333, "is_disabled": 0, "name": "d3f026eb0a51ffc966de13beccd15742", "fusion_lat": 0.0, "rental_uris": {"ios": "https://dc.lft.to/lastmile_qr_scan", "android": "https://dc.lft.to/lastmile_qr_scan"}, "lon": -77.000317, "type": "electric_bike"}, {"bike_id": "2333ee2d93472fef89b6ac6a4fff56af", "is_reserved": 0, "fusion_lon": 0.0, "lat": 38.898789, "is_disabled": 0, "name": "2333ee2d93472fef89b6ac6a4fff56af", "fusion_lat": 0.0, "rental_uris": {"ios": "https://dc.lft.to/lastmile_qr_scan", "android": "https://dc.lft.to/lastmile_qr_scan"}, "lon": -76.931598, "type": "electric_scooter"}, {"bike_id": "ede1283eb6d0d56ededba33ce3e1eed3", "is_reserved": 0, "fusion_lon": 0.0, "lat": 38.91956916666667, "is_disabled": 0, "name": "ede1283eb6d0d56ededba33ce3e1eed3", "fusion_lat": 0.0, "rental_uris": {"ios": "https://dc.lft.to/lastmile_qr_scan", "android": "https://dc.lft.to/lastmile_qr_scan"}, "lon": -76.972707, "type": "electric_bike"}, {"bike_id": "62edd01d3eddf29a3786bdc9308bcad8", "is_reserved": 0, "fusion_lon": 0.0, "lat": 38.90311166666667, "is_disabled": 0, "name": "62edd01d3eddf29a3786bdc9308bcad8", "fusion_lat": 0.0, "rental_uris": {"ios": "https://dc.lft.to/lastmile_qr_scan", "android": "https://dc.lft.to/lastmile_qr_scan"}, "lon": -77.03841566666667, "type": "electric_scooter"}, {"bike_id": "e42e7e014c02b1dd7f9ecb5d557e5da2", "is_reserved": 0, "fusion_lon": 0.0, "lat": 38.9494965, "is_disabled": 0, "name": "e42e7e014c02b1dd7f9ecb5d557e5da2", "fusion_lat": 0.0, "rental_uris": {"ios": "https://dc.lft.to/lastmile_qr_scan", "android": "https://dc.lft.to/lastmile_qr_scan"}, "lon": -77.016205, "type": "electric_scooter"}, {"bike_id": "519f58ae45db4459216b5ea72a3e126e", "is_reserved": 0, "fusion_lon": 0.0, "lat": 38.9158685, "is_disabled": 0, "name": "519f58ae45db4459216b5ea72a3e126e", "fusion_lat": 0.0, "rental_uris": {"ios": "https://dc.lft.to/lastmile_qr_scan", "android": "https://dc.lft.to/lastmile_qr_scan"}, "lon": -77.04689783333333, "type": "electric_scooter"}, {"bike_id": "1dda8bdeefc8c8417b9dce9662727f6e", "is_reserved": 0, "fusion_lon": 0.0, "lat": 38.935604, "is_disabled": 0, "name": "1dda8bdeefc8c8417b9dce9662727f6e", "fusion_lat": 0.0, "rental_uris": {"ios": "https://dc.lft.to/lastmile_qr_scan", "android": "https://dc.lft.to/lastmile_qr_scan"}, "lon": -77.03698583333333, "type": "electric_bike"}, {"bike_id": "7668efabb735d1074964289333864e7f", "is_reserved": 0, "fusion_lon": 0.0, "lat": 38.916981666666665, "is_disabled": 0, "name": "7668efabb735d1074964289333864e7f", "fusion_lat": 0.0, "rental_uris": {"ios": "https://dc.lft.to/lastmile_qr_scan", "android": "https://dc.lft.to/lastmile_qr_scan"}, "lon": -77.04107566666667, "type": "electric_scooter"}, {"bike_id": "96e1581ef9e36fe3fd459b04641b1507", "is_reserved": 0, "fusion_lon": 0.0, "lat": 38.8966725, "is_disabled": 0, "name": "96e1581ef9e36fe3fd459b04641b1507", "fusion_lat": 0.0, "rental_uris": {"ios": "https://dc.lft.to/lastmile_qr_scan", "android": "https://dc.lft.to/lastmile_qr_scan"}, "lon": -77.00582616666667, "type": "electric_bike"}, {"bike_id": "e7f30381725aefe5902835a70c94ec51", "is_reserved": 0, "fusion_lon": 0.0, "lat": 38.90768633333333, "is_disabled": 0, "name": "e7f30381725aefe5902835a70c94ec51", "fusion_lat": 0.0, "rental_uris": {"ios": "https://dc.lft.to/lastmile_qr_scan", "android": "https://dc.lft.to/lastmile_qr_scan"}, "lon": -77.06911766666667, "type": "electric_scooter"}, {"bike_id": "1242deef2f453cd0bc55d6963e805b8f", "is_reserved": 0, "fusion_lon": 0.0, "lat": 38.867003833333335, "is_disabled": 0, "name": "1242deef2f453cd0bc55d6963e805b8f", "fusion_lat": 0.0, "rental_uris": {"ios": "https://dc.lft.to/lastmile_qr_scan", "android": "https://dc.lft.to/lastmile_qr_scan"}, "lon": -76.98712066666667, "type": "electric_scooter"}, {"bike_id": "043dd36e8809f8a3363210abaa796579", "is_reserved": 0, "fusion_lon": 0.0, "lat": 38.902651166666665, "is_disabled": 0, "name": "043dd36e8809f8a3363210abaa796579", "fusion_lat": 0.0, "rental_uris": {"ios": "https://dc.lft.to/lastmile_qr_scan", "android": "https://dc.lft.to/lastmile_qr_scan"}, "lon": -77.03836616666666, "type": "electric_scooter"}, {"bike_id": "21740ea119931c06f6db8e14cfa002de", "is_reserved": 0, "fusion_lon": 0.0, "lat": 38.966221833333336, "is_disabled": 0, "name": "21740ea119931c06f6db8e14cfa002de", "fusion_lat": 0.0, "rental_uris": {"ios": "https://dc.lft.to/lastmile_qr_scan", "android": "https://dc.lft.to/lastmile_qr_scan"}, "lon": -76.97667583333333, "type": "electric_bike"}, {"bike_id": "b13a55e9fa81869c4c320f7422881f58", "is_reserved": 0, "fusion_lon": 0.0, "lat": 38.93063316666667, "is_disabled": 0, "name": "b13a55e9fa81869c4c320f7422881f58", "fusion_lat": 0.0, "rental_uris": {"ios": "https://dc.lft.to/lastmile_qr_scan", "android": "https://dc.lft.to/lastmile_qr_scan"}, "lon": -77.03813066666666, "type": "electric_scooter"}, {"bike_id": "e1a70b49f797a62d2804a85edfcf8491", "is_reserved": 0, "fusion_lon": 0.0, "lat": 38.91664633333333, "is_disabled": 0, "name": "e1a70b49f797a62d2804a85edfcf8491", "fusion_lat": 0.0, "rental_uris": {"ios": "https://dc.lft.to/lastmile_qr_scan", "android": "https://dc.lft.to/lastmile_qr_scan"}, "lon": -77.0230635, "type": "electric_scooter"}, {"bike_id": "2f30c5852e9b44ce1c8fb0cdf159ccfa", "is_reserved": 0, "fusion_lon": 0.0, "lat": 38.909583833333336, "is_disabled": 0, "name": "2f30c5852e9b44ce1c8fb0cdf159ccfa", "fusion_lat": 0.0, "rental_uris": {"ios": "https://dc.lft.to/lastmile_qr_scan", "android": "https://dc.lft.to/lastmile_qr_scan"}, "lon": -77.03271983333333, "type": "electric_scooter"}, {"bike_id": "77cdd7d7586f7e5214e99cc2850dbc6a", "is_reserved": 0, "fusion_lon": 0.0, "lat": 38.9397945, "is_disabled": 0, "name": "77cdd7d7586f7e5214e99cc2850dbc6a", "fusion_lat": 0.0, "rental_uris": {"ios": "https://dc.lft.to/lastmile_qr_scan", "android": "https://dc.lft.to/lastmile_qr_scan"}, "lon": -77.02888433333334, "type": "electric_scooter"}, {"bike_id": "549ce189649159b1deeb4d6b102c3547", "is_reserved": 0, "fusion_lon": 0.0, "lat": 38.920497833333336, "is_disabled": 0, "name": "549ce189649159b1deeb4d6b102c3547", "fusion_lat": 0.0, "rental_uris": {"ios": "https://dc.lft.to/lastmile_qr_scan", "android": "https://dc.lft.to/lastmile_qr_scan"}, "lon": -77.03347083333334, "type": "electric_scooter"}, {"bike_id": "217036871019aad1c6442b2b87408d24", "is_reserved": 0, "fusion_lon": 0.0, "lat": 38.999367, "is_disabled": 0, "name": "217036871019aad1c6442b2b87408d24", "fusion_lat": 0.0, "rental_uris": {"ios": "https://dc.lft.to/lastmile_qr_scan", "android": "https://dc.lft.to/lastmile_qr_scan"}, "lon": -77.0176905, "type": "electric_bike"}, {"bike_id": "293b817b8c5149806ee4d067a24af5e5", "is_reserved": 0, "fusion_lon": 0.0, "lat": 38.899409, "is_disabled": 0, "name": "293b817b8c5149806ee4d067a24af5e5", "fusion_lat": 0.0, "rental_uris": {"ios": "https://dc.lft.to/lastmile_qr_scan", "android": "https://dc.lft.to/lastmile_qr_scan"}, "lon": -77.03179683333333, "type": "electric_scooter"}, {"bike_id": "ae90f6600253a3bc0afcc77ba74d22b0", "is_reserved": 0, "fusion_lon": 0.0, "lat": 38.901464833333335, "is_disabled": 0, "name": "ae90f6600253a3bc0afcc77ba74d22b0", "fusion_lat": 0.0, "rental_uris": {"ios": "https://dc.lft.to/lastmile_qr_scan", "android": "https://dc.lft.to/lastmile_qr_scan"}, "lon": -77.0438985, "type": "electric_scooter"}, {"bike_id": "bfc4442ec9f2af305a91c56558e9b55e", "is_reserved": 0, "fusion_lon": 0.0, "lat": 38.93603916666667, "is_disabled": 0, "name": "bfc4442ec9f2af305a91c56558e9b55e", "fusion_lat": 0.0, "rental_uris": {"ios": "https://dc.lft.to/lastmile_qr_scan", "android": "https://dc.lft.to/lastmile_qr_scan"}, "lon": -77.05863716666667, "type": "electric_scooter"}, {"bike_id": "ecaf1ec6dabf127184f9cce30d1bf224", "is_reserved": 0, "fusion_lon": 0.0, "lat": 38.878424833333334, "is_disabled": 0, "name": "ecaf1ec6dabf127184f9cce30d1bf224", "fusion_lat": 0.0, "rental_uris": {"ios": "https://dc.lft.to/lastmile_qr_scan", "android": "https://dc.lft.to/lastmile_qr_scan"}, "lon": -77.02280666666667, "type": "electric_scooter"}, {"bike_id": "817cf2603810a41d0d88885a3abed81d", "is_reserved": 0, "fusion_lon": 0.0, "lat": 38.88409766666667, "is_disabled": 0, "name": "817cf2603810a41d0d88885a3abed81d", "fusion_lat": 0.0, "rental_uris": {"ios": "https://dc.lft.to/lastmile_qr_scan", "android": "https://dc.lft.to/lastmile_qr_scan"}, "lon": -77.01530533333333, "type": "electric_scooter"}, {"bike_id": "a6fd68e1204cecf67976b0409c152c5f", "is_reserved": 0, "fusion_lon": 0.0, "lat": 38.900297333333334, "is_disabled": 0, "name": "a6fd68e1204cecf67976b0409c152c5f", "fusion_lat": 0.0, "rental_uris": {"ios": "https://dc.lft.to/lastmile_qr_scan", "android": "https://dc.lft.to/lastmile_qr_scan"}, "lon": -77.04013933333333, "type": "electric_scooter"}, {"bike_id": "11ad97b88c5f584229f60f8ab6ebb488", "is_reserved": 0, "fusion_lon": 0.0, "lat": 38.91088666666667, "is_disabled": 0, "name": "11ad97b88c5f584229f60f8ab6ebb488", "fusion_lat": 0.0, "rental_uris": {"ios": "https://dc.lft.to/lastmile_qr_scan", "android": "https://dc.lft.to/lastmile_qr_scan"}, "lon": -77.0344925, "type": "electric_scooter"}, {"bike_id": "5f4dc7291afa9a0d7573e1a6f7551bdd", "is_reserved": 0, "fusion_lon": 0.0, "lat": 38.905334333333336, "is_disabled": 0, "name": "5f4dc7291afa9a0d7573e1a6f7551bdd", "fusion_lat": 0.0, "rental_uris": {"ios": "https://dc.lft.to/lastmile_qr_scan", "android": "https://dc.lft.to/lastmile_qr_scan"}, "lon": -77.06158916666666, "type": "electric_scooter"}, {"bike_id": "6866900020e9046b6b5b425b869edbef", "is_reserved": 0, "fusion_lon": 0.0, "lat": 38.828730166666666, "is_disabled": 0, "name": "6866900020e9046b6b5b425b869edbef", "fusion_lat": 0.0, "rental_uris": {"ios": "https://dc.lft.to/lastmile_qr_scan", "android": "https://dc.lft.to/lastmile_qr_scan"}, "lon": -77.11221666666667, "type": "electric_bike"}, {"bike_id": "210b4a123d0de6de8ac7dea604117992", "is_reserved": 0, "fusion_lon": 0.0, "lat": 38.919756, "is_disabled": 0, "name": "210b4a123d0de6de8ac7dea604117992", "fusion_lat": 0.0, "rental_uris": {"ios": "https://dc.lft.to/lastmile_qr_scan", "android": "https://dc.lft.to/lastmile_qr_scan"}, "lon": -77.02385383333333, "type": "electric_scooter"}, {"bike_id": "80cd0bb6001516e6906306fc67697111", "is_reserved": 0, "fusion_lon": 0.0, "lat": 38.91681416666667, "is_disabled": 0, "name": "80cd0bb6001516e6906306fc67697111", "fusion_lat": 0.0, "rental_uris": {"ios": "https://dc.lft.to/lastmile_qr_scan", "android": "https://dc.lft.to/lastmile_qr_scan"}, "lon": -77.0363445, "type": "electric_scooter"}, {"bike_id": "01e39f28d9c8b4cad55e01e2f8981b07", "is_reserved": 0, "fusion_lon": 0.0, "lat": 38.990909, "is_disabled": 0, "name": "01e39f28d9c8b4cad55e01e2f8981b07", "fusion_lat": 0.0, "rental_uris": {"ios": "https://dc.lft.to/lastmile_qr_scan", "android": "https://dc.lft.to/lastmile_qr_scan"}, "lon": -76.87491766666666, "type": "electric_bike"}, {"bike_id": "0c3a03b9ed40f35772c174882242bff0", "is_reserved": 0, "fusion_lon": 0.0, "lat": 38.91794566666667, "is_disabled": 0, "name": "0c3a03b9ed40f35772c174882242bff0", "fusion_lat": 0.0, "rental_uris": {"ios": "https://dc.lft.to/lastmile_qr_scan", "android": "https://dc.lft.to/lastmile_qr_scan"}, "lon": -77.0344565, "type": "electric_scooter"}, {"bike_id": "c77abf96272642966e24455237ec427b", "is_reserved": 0, "fusion_lon": 0.0, "lat": 38.91811466666667, "is_disabled": 0, "name": "c77abf96272642966e24455237ec427b", "fusion_lat": 0.0, "rental_uris": {"ios": "https://dc.lft.to/lastmile_qr_scan", "android": "https://dc.lft.to/lastmile_qr_scan"}, "lon": -77.0310675, "type": "electric_scooter"}, {"bike_id": "e98bbe336f33f33eeffa306383f79765", "is_reserved": 0, "fusion_lon": 0.0, "lat": 38.9038295, "is_disabled": 0, "name": "e98bbe336f33f33eeffa306383f79765", "fusion_lat": 0.0, "rental_uris": {"ios": "https://dc.lft.to/lastmile_qr_scan", "android": "https://dc.lft.to/lastmile_qr_scan"}, "lon": -77.04475083333334, "type": "electric_scooter"}, {"bike_id": "2909ef3b4bcd5faa2ad4409ffb9d1d05", "is_reserved": 0, "fusion_lon": 0.0, "lat": 38.87709183333333, "is_disabled": 0, "name": "2909ef3b4bcd5faa2ad4409ffb9d1d05", "fusion_lat": 0.0, "rental_uris": {"ios": "https://dc.lft.to/lastmile_qr_scan", "android": "https://dc.lft.to/lastmile_qr_scan"}, "lon": -77.00418633333334, "type": "electric_scooter"}, {"bike_id": "a3f2917387ff812d19a0996012897a29", "is_reserved": 0, "fusion_lon": 0.0, "lat": 38.91477316666667, "is_disabled": 0, "name": "a3f2917387ff812d19a0996012897a29", "fusion_lat": 0.0, "rental_uris": {"ios": "https://dc.lft.to/lastmile_qr_scan", "android": "https://dc.lft.to/lastmile_qr_scan"}, "lon": -77.02189166666666, "type": "electric_scooter"}, {"bike_id": "ed24501008f661d5acb7ccf86a14df76", "is_reserved": 0, "fusion_lon": 0.0, "lat": 38.9199725, "is_disabled": 0, "name": "ed24501008f661d5acb7ccf86a14df76", "fusion_lat": 0.0, "rental_uris": {"ios": "https://dc.lft.to/lastmile_qr_scan", "android": "https://dc.lft.to/lastmile_qr_scan"}, "lon": -76.95813316666667, "type": "electric_scooter"}, {"bike_id": "5f44faf4704a4d7d5733260dddbb3967", "is_reserved": 0, "fusion_lon": 0.0, "lat": 38.9497235, "is_disabled": 0, "name": "5f44faf4704a4d7d5733260dddbb3967", "fusion_lat": 0.0, "rental_uris": {"ios": "https://dc.lft.to/lastmile_qr_scan", "android": "https://dc.lft.to/lastmile_qr_scan"}, "lon": -77.07897633333333, "type": "electric_scooter"}, {"bike_id": "9c1d3746891c02c55482e53126c0d72a", "is_reserved": 0, "fusion_lon": 0.0, "lat": 38.894976, "is_disabled": 0, "name": "9c1d3746891c02c55482e53126c0d72a", "fusion_lat": 0.0, "rental_uris": {"ios": "https://dc.lft.to/lastmile_qr_scan", "android": "https://dc.lft.to/lastmile_qr_scan"}, "lon": -76.94914666666666, "type": "electric_scooter"}, {"bike_id": "cc40a985e0fdd4142d134a841272f71b", "is_reserved": 0, "fusion_lon": 0.0, "lat": 38.8983365, "is_disabled": 0, "name": "cc40a985e0fdd4142d134a841272f71b", "fusion_lat": 0.0, "rental_uris": {"ios": "https://dc.lft.to/lastmile_qr_scan", "android": "https://dc.lft.to/lastmile_qr_scan"}, "lon": -76.94634283333333, "type": "electric_scooter"}, {"bike_id": "aa9349e36ef90542b994828945d1aa68", "is_reserved": 0, "fusion_lon": 0.0, "lat": 38.96385933333333, "is_disabled": 0, "name": "aa9349e36ef90542b994828945d1aa68", "fusion_lat": 0.0, "rental_uris": {"ios": "https://dc.lft.to/lastmile_qr_scan", "android": "https://dc.lft.to/lastmile_qr_scan"}, "lon": -77.03501916666667, "type": "electric_scooter"}, {"bike_id": "fdb38714fd40fa1cc68c33469e33d438", "is_reserved": 0, "fusion_lon": 0.0, "lat": 38.921572166666664, "is_disabled": 0, "name": "fdb38714fd40fa1cc68c33469e33d438", "fusion_lat": 0.0, "rental_uris": {"ios": "https://dc.lft.to/lastmile_qr_scan", "android": "https://dc.lft.to/lastmile_qr_scan"}, "lon": -77.04245583333334, "type": "electric_scooter"}, {"bike_id": "32b8dc3a61744780f0361a28b3b94a89", "is_reserved": 0, "fusion_lon": 0.0, "lat": 38.923714333333336, "is_disabled": 0, "name": "32b8dc3a61744780f0361a28b3b94a89", "fusion_lat": 0.0, "rental_uris": {"ios": "https://dc.lft.to/lastmile_qr_scan", "android": "https://dc.lft.to/lastmile_qr_scan"}, "lon": -77.0517755, "type": "electric_scooter"}, {"bike_id": "5cfd487fdca5bab3a729754e87082982", "is_reserved": 0, "fusion_lon": 0.0, "lat": 38.86242433333334, "is_disabled": 0, "name": "5cfd487fdca5bab3a729754e87082982", "fusion_lat": 0.0, "rental_uris": {"ios": "https://dc.lft.to/lastmile_qr_scan", "android": "https://dc.lft.to/lastmile_qr_scan"}, "lon": -76.9948395, "type": "electric_scooter"}, {"bike_id": "53db17c105a0bb683d70415cb9ac9d14", "is_reserved": 0, "fusion_lon": 0.0, "lat": 38.91858916666666, "is_disabled": 0, "name": "53db17c105a0bb683d70415cb9ac9d14", "fusion_lat": 0.0, "rental_uris": {"ios": "https://dc.lft.to/lastmile_qr_scan", "android": "https://dc.lft.to/lastmile_qr_scan"}, "lon": -77.0417445, "type": "electric_scooter"}, {"bike_id": "e2b49dd76ea9c664ca23dd4a617b269f", "is_reserved": 0, "fusion_lon": 0.0, "lat": 38.933510166666665, "is_disabled": 0, "name": "e2b49dd76ea9c664ca23dd4a617b269f", "fusion_lat": 0.0, "rental_uris": {"ios": "https://dc.lft.to/lastmile_qr_scan", "android": "https://dc.lft.to/lastmile_qr_scan"}, "lon": -77.05860683333333, "type": "electric_scooter"}, {"bike_id": "ee552eb629147f382a0d37ec44308ec7", "is_reserved": 0, "fusion_lon": 0.0, "lat": 38.905277833333336, "is_disabled": 0, "name": "ee552eb629147f382a0d37ec44308ec7", "fusion_lat": 0.0, "rental_uris": {"ios": "https://dc.lft.to/lastmile_qr_scan", "android": "https://dc.lft.to/lastmile_qr_scan"}, "lon": -77.0415455, "type": "electric_scooter"}, {"bike_id": "8f61e8e6f43f4aec13446e736185d989", "is_reserved": 0, "fusion_lon": 0.0, "lat": 38.911122666666664, "is_disabled": 0, "name": "8f61e8e6f43f4aec13446e736185d989", "fusion_lat": 0.0, "rental_uris": {"ios": "https://dc.lft.to/lastmile_qr_scan", "android": "https://dc.lft.to/lastmile_qr_scan"}, "lon": -77.065222, "type": "electric_scooter"}, {"bike_id": "d2499bf0bd0d77f766fc1b05c04007e0", "is_reserved": 0, "fusion_lon": 0.0, "lat": 38.90018533333333, "is_disabled": 0, "name": "d2499bf0bd0d77f766fc1b05c04007e0", "fusion_lat": 0.0, "rental_uris": {"ios": "https://dc.lft.to/lastmile_qr_scan", "android": "https://dc.lft.to/lastmile_qr_scan"}, "lon": -77.01118383333333, "type": "electric_scooter"}, {"bike_id": "3eab9102c9f3615f4374ce95755f5f03", "is_reserved": 0, "fusion_lon": 0.0, "lat": 38.93609766666667, "is_disabled": 0, "name": "3eab9102c9f3615f4374ce95755f5f03", "fusion_lat": 0.0, "rental_uris": {"ios": "https://dc.lft.to/lastmile_qr_scan", "android": "https://dc.lft.to/lastmile_qr_scan"}, "lon": -77.03204666666667, "type": "electric_scooter"}, {"bike_id": "5691c845012ef3d3dd5a776c38df0793", "is_reserved": 0, "fusion_lon": 0.0, "lat": 38.9012745, "is_disabled": 0, "name": "5691c845012ef3d3dd5a776c38df0793", "fusion_lat": 0.0, "rental_uris": {"ios": "https://dc.lft.to/lastmile_qr_scan", "android": "https://dc.lft.to/lastmile_qr_scan"}, "lon": -77.04473766666666, "type": "electric_scooter"}, {"bike_id": "6346b7e8b4ecd1f3804428a1ee3c71ec", "is_reserved": 0, "fusion_lon": 0.0, "lat": 38.924877333333335, "is_disabled": 0, "name": "6346b7e8b4ecd1f3804428a1ee3c71ec", "fusion_lat": 0.0, "rental_uris": {"ios": "https://dc.lft.to/lastmile_qr_scan", "android": "https://dc.lft.to/lastmile_qr_scan"}, "lon": -77.0265145, "type": "electric_scooter"}, {"bike_id": "8bf3fd13164732dc9eca426db3ba5fe0", "is_reserved": 0, "fusion_lon": 0.0, "lat": 38.901482666666666, "is_disabled": 0, "name": "8bf3fd13164732dc9eca426db3ba5fe0", "fusion_lat": 0.0, "rental_uris": {"ios": "https://dc.lft.to/lastmile_qr_scan", "android": "https://dc.lft.to/lastmile_qr_scan"}, "lon": -77.03341083333333, "type": "electric_scooter"}, {"bike_id": "32f2946bb44a4c4bd75b4d3f2bc7db23", "is_reserved": 0, "fusion_lon": 0.0, "lat": 38.95072666666667, "is_disabled": 0, "name": "32f2946bb44a4c4bd75b4d3f2bc7db23", "fusion_lat": 0.0, "rental_uris": {"ios": "https://dc.lft.to/lastmile_qr_scan", "android": "https://dc.lft.to/lastmile_qr_scan"}, "lon": -77.0119895, "type": "electric_bike"}, {"bike_id": "5cb3c1c9643ae6ab90d6d5c2527298c8", "is_reserved": 0, "fusion_lon": 0.0, "lat": 38.900928666666665, "is_disabled": 0, "name": "5cb3c1c9643ae6ab90d6d5c2527298c8", "fusion_lat": 0.0, "rental_uris": {"ios": "https://dc.lft.to/lastmile_qr_scan", "android": "https://dc.lft.to/lastmile_qr_scan"}, "lon": -77.019247, "type": "electric_scooter"}, {"bike_id": "3b1468b2b3c310555d6b50937d5302b5", "is_reserved": 0, "fusion_lon": 0.0, "lat": 38.89485033333333, "is_disabled": 0, "name": "3b1468b2b3c310555d6b50937d5302b5", "fusion_lat": 0.0, "rental_uris": {"ios": "https://dc.lft.to/lastmile_qr_scan", "android": "https://dc.lft.to/lastmile_qr_scan"}, "lon": -76.9487215, "type": "electric_scooter"}, {"bike_id": "ee9458d0a3e30965b7e134ee5cf70fec", "is_reserved": 0, "fusion_lon": 0.0, "lat": 38.89786983333333, "is_disabled": 0, "name": "ee9458d0a3e30965b7e134ee5cf70fec", "fusion_lat": 0.0, "rental_uris": {"ios": "https://dc.lft.to/lastmile_qr_scan", "android": "https://dc.lft.to/lastmile_qr_scan"}, "lon": -77.01061766666666, "type": "electric_scooter"}, {"bike_id": "c92d446bccb51e2a2eabd40579908fbc", "is_reserved": 0, "fusion_lon": 0.0, "lat": 38.939697333333335, "is_disabled": 0, "name": "c92d446bccb51e2a2eabd40579908fbc", "fusion_lat": 0.0, "rental_uris": {"ios": "https://dc.lft.to/lastmile_qr_scan", "android": "https://dc.lft.to/lastmile_qr_scan"}, "lon": -77.032624, "type": "electric_scooter"}, {"bike_id": "7237b7da953653afb8582cbeff975b71", "is_reserved": 0, "fusion_lon": 0.0, "lat": 38.90032816666667, "is_disabled": 0, "name": "7237b7da953653afb8582cbeff975b71", "fusion_lat": 0.0, "rental_uris": {"ios": "https://dc.lft.to/lastmile_qr_scan", "android": "https://dc.lft.to/lastmile_qr_scan"}, "lon": -77.00197433333334, "type": "electric_scooter"}, {"bike_id": "22fb63f154f56d2f6982eb733184a57b", "is_reserved": 0, "fusion_lon": 0.0, "lat": 38.831330666666666, "is_disabled": 0, "name": "22fb63f154f56d2f6982eb733184a57b", "fusion_lat": 0.0, "rental_uris": {"ios": "https://dc.lft.to/lastmile_qr_scan", "android": "https://dc.lft.to/lastmile_qr_scan"}, "lon": -77.11324416666666, "type": "electric_bike"}, {"bike_id": "481b9e058d97f5b3aeec4dbfc8dc9384", "is_reserved": 0, "fusion_lon": 0.0, "lat": 38.92847, "is_disabled": 0, "name": "481b9e058d97f5b3aeec4dbfc8dc9384", "fusion_lat": 0.0, "rental_uris": {"ios": "https://dc.lft.to/lastmile_qr_scan", "android": "https://dc.lft.to/lastmile_qr_scan"}, "lon": -77.013995, "type": "electric_scooter"}, {"bike_id": "ca4f24801b5b463cd23a6f2dab4b160e", "is_reserved": 0, "fusion_lon": 0.0, "lat": 38.907376666666664, "is_disabled": 0, "name": "ca4f24801b5b463cd23a6f2dab4b160e", "fusion_lat": 0.0, "rental_uris": {"ios": "https://dc.lft.to/lastmile_qr_scan", "android": "https://dc.lft.to/lastmile_qr_scan"}, "lon": -77.02393033333334, "type": "electric_scooter"}, {"bike_id": "a1209fa6f45acf65f6228ef4f8fb66d5", "is_reserved": 0, "fusion_lon": 0.0, "lat": 38.93710866666667, "is_disabled": 0, "name": "a1209fa6f45acf65f6228ef4f8fb66d5", "fusion_lat": 0.0, "rental_uris": {"ios": "https://dc.lft.to/lastmile_qr_scan", "android": "https://dc.lft.to/lastmile_qr_scan"}, "lon": -77.029397, "type": "electric_scooter"}, {"bike_id": "8300be0f87cefe3a30b5d9bbccfbaf09", "is_reserved": 0, "fusion_lon": 0.0, "lat": 38.905904166666666, "is_disabled": 0, "name": "8300be0f87cefe3a30b5d9bbccfbaf09", "fusion_lat": 0.0, "rental_uris": {"ios": "https://dc.lft.to/lastmile_qr_scan", "android": "https://dc.lft.to/lastmile_qr_scan"}, "lon": -77.0510535, "type": "electric_scooter"}, {"bike_id": "5302e31a63012415997aef0e7733bbb5", "is_reserved": 0, "fusion_lon": 0.0, "lat": 38.91705616666667, "is_disabled": 0, "name": "5302e31a63012415997aef0e7733bbb5", "fusion_lat": 0.0, "rental_uris": {"ios": "https://dc.lft.to/lastmile_qr_scan", "android": "https://dc.lft.to/lastmile_qr_scan"}, "lon": -77.031204, "type": "electric_scooter"}, {"bike_id": "18769f7f2cb597b26ce04a1b07fa003f", "is_reserved": 0, "fusion_lon": 0.0, "lat": 38.89822933333333, "is_disabled": 0, "name": "18769f7f2cb597b26ce04a1b07fa003f", "fusion_lat": 0.0, "rental_uris": {"ios": "https://dc.lft.to/lastmile_qr_scan", "android": "https://dc.lft.to/lastmile_qr_scan"}, "lon": -77.0075725, "type": "electric_scooter"}, {"bike_id": "0538403dce186fe0040596e8897de169", "is_reserved": 0, "fusion_lon": 0.0, "lat": 38.934343, "is_disabled": 0, "name": "0538403dce186fe0040596e8897de169", "fusion_lat": 0.0, "rental_uris": {"ios": "https://dc.lft.to/lastmile_qr_scan", "android": "https://dc.lft.to/lastmile_qr_scan"}, "lon": -77.03993266666667, "type": "electric_scooter"}, {"bike_id": "a996648ad904af102829abce8343a0b3", "is_reserved": 0, "fusion_lon": 0.0, "lat": 38.904863166666665, "is_disabled": 0, "name": "a996648ad904af102829abce8343a0b3", "fusion_lat": 0.0, "rental_uris": {"ios": "https://dc.lft.to/lastmile_qr_scan", "android": "https://dc.lft.to/lastmile_qr_scan"}, "lon": -77.04034316666667, "type": "electric_scooter"}, {"bike_id": "49f0660435385d73414a934eaa6c0c1b", "is_reserved": 0, "fusion_lon": 0.0, "lat": 38.8372265, "is_disabled": 0, "name": "49f0660435385d73414a934eaa6c0c1b", "fusion_lat": 0.0, "rental_uris": {"ios": "https://dc.lft.to/lastmile_qr_scan", "android": "https://dc.lft.to/lastmile_qr_scan"}, "lon": -76.99763583333333, "type": "electric_bike"}, {"bike_id": "79b2229f9fbbb48e3042364c2e451559", "is_reserved": 0, "fusion_lon": 0.0, "lat": 38.92360016666667, "is_disabled": 0, "name": "79b2229f9fbbb48e3042364c2e451559", "fusion_lat": 0.0, "rental_uris": {"ios": "https://dc.lft.to/lastmile_qr_scan", "android": "https://dc.lft.to/lastmile_qr_scan"}, "lon": -77.05241566666666, "type": "electric_scooter"}, {"bike_id": "d6202fe154f66ad11473538f0bf28474", "is_reserved": 0, "fusion_lon": 0.0, "lat": 38.90907683333333, "is_disabled": 0, "name": "d6202fe154f66ad11473538f0bf28474", "fusion_lat": 0.0, "rental_uris": {"ios": "https://dc.lft.to/lastmile_qr_scan", "android": "https://dc.lft.to/lastmile_qr_scan"}, "lon": -77.04393583333334, "type": "electric_scooter"}, {"bike_id": "6f09f534f644646f7f4130d154768928", "is_reserved": 0, "fusion_lon": 0.0, "lat": 38.93492883333333, "is_disabled": 0, "name": "6f09f534f644646f7f4130d154768928", "fusion_lat": 0.0, "rental_uris": {"ios": "https://dc.lft.to/lastmile_qr_scan", "android": "https://dc.lft.to/lastmile_qr_scan"}, "lon": -77.0273055, "type": "electric_scooter"}, {"bike_id": "4964d642ed69bbd9342b50a474d342d7", "is_reserved": 0, "fusion_lon": 0.0, "lat": 38.94687716666667, "is_disabled": 0, "name": "4964d642ed69bbd9342b50a474d342d7", "fusion_lat": 0.0, "rental_uris": {"ios": "https://dc.lft.to/lastmile_qr_scan", "android": "https://dc.lft.to/lastmile_qr_scan"}, "lon": -77.0205205, "type": "electric_bike"}, {"bike_id": "aa9b51f13e8df37eae229e6966078bcf", "is_reserved": 0, "fusion_lon": 0.0, "lat": 38.9045375, "is_disabled": 0, "name": "aa9b51f13e8df37eae229e6966078bcf", "fusion_lat": 0.0, "rental_uris": {"ios": "https://dc.lft.to/lastmile_qr_scan", "android": "https://dc.lft.to/lastmile_qr_scan"}, "lon": -77.028869, "type": "electric_scooter"}, {"bike_id": "8944481bd0a32157829afef2b66fa823", "is_reserved": 0, "fusion_lon": 0.0, "lat": 38.903687166666664, "is_disabled": 0, "name": "8944481bd0a32157829afef2b66fa823", "fusion_lat": 0.0, "rental_uris": {"ios": "https://dc.lft.to/lastmile_qr_scan", "android": "https://dc.lft.to/lastmile_qr_scan"}, "lon": -77.01764133333333, "type": "electric_scooter"}, {"bike_id": "2e466539359c54d53972cc196700c3de", "is_reserved": 0, "fusion_lon": 0.0, "lat": 38.896184166666664, "is_disabled": 0, "name": "2e466539359c54d53972cc196700c3de", "fusion_lat": 0.0, "rental_uris": {"ios": "https://dc.lft.to/lastmile_qr_scan", "android": "https://dc.lft.to/lastmile_qr_scan"}, "lon": -77.00054316666667, "type": "electric_bike"}, {"bike_id": "0262f36e6b04b962e184697b8fa3f834", "is_reserved": 0, "fusion_lon": 0.0, "lat": 38.877343333333336, "is_disabled": 0, "name": "0262f36e6b04b962e184697b8fa3f834", "fusion_lat": 0.0, "rental_uris": {"ios": "https://dc.lft.to/lastmile_qr_scan", "android": "https://dc.lft.to/lastmile_qr_scan"}, "lon": -76.97280116666667, "type": "electric_scooter"}, {"bike_id": "0de768eba1866c021ff32af8cbf144c2", "is_reserved": 0, "fusion_lon": 0.0, "lat": 38.9325195, "is_disabled": 0, "name": "0de768eba1866c021ff32af8cbf144c2", "fusion_lat": 0.0, "rental_uris": {"ios": "https://dc.lft.to/lastmile_qr_scan", "android": "https://dc.lft.to/lastmile_qr_scan"}, "lon": -77.03273583333333, "type": "electric_scooter"}, {"bike_id": "1f7a6a708eb27c9d247f6e2be63b738c", "is_reserved": 0, "fusion_lon": 0.0, "lat": 38.93976, "is_disabled": 0, "name": "1f7a6a708eb27c9d247f6e2be63b738c", "fusion_lat": 0.0, "rental_uris": {"ios": "https://dc.lft.to/lastmile_qr_scan", "android": "https://dc.lft.to/lastmile_qr_scan"}, "lon": -77.03590533333333, "type": "electric_scooter"}, {"bike_id": "cec58de5d8b44f84094a8c2d7cc3b1e7", "is_reserved": 0, "fusion_lon": 0.0, "lat": 38.86203966666667, "is_disabled": 0, "name": "cec58de5d8b44f84094a8c2d7cc3b1e7", "fusion_lat": 0.0, "rental_uris": {"ios": "https://dc.lft.to/lastmile_qr_scan", "android": "https://dc.lft.to/lastmile_qr_scan"}, "lon": -76.99461583333333, "type": "electric_scooter"}, {"bike_id": "25b2d685b7b49082eb17731f5694fb04", "is_reserved": 0, "fusion_lon": 0.0, "lat": 38.8948195, "is_disabled": 0, "name": "25b2d685b7b49082eb17731f5694fb04", "fusion_lat": 0.0, "rental_uris": {"ios": "https://dc.lft.to/lastmile_qr_scan", "android": "https://dc.lft.to/lastmile_qr_scan"}, "lon": -77.05003666666667, "type": "electric_scooter"}, {"bike_id": "1e4139c81fb2747dd3fd8250ff4a0c4e", "is_reserved": 0, "fusion_lon": 0.0, "lat": 38.90020966666667, "is_disabled": 0, "name": "1e4139c81fb2747dd3fd8250ff4a0c4e", "fusion_lat": 0.0, "rental_uris": {"ios": "https://dc.lft.to/lastmile_qr_scan", "android": "https://dc.lft.to/lastmile_qr_scan"}, "lon": -77.01156966666667, "type": "electric_scooter"}, {"bike_id": "ec6d03ac9e224c438c4ccab40d742a2e", "is_reserved": 0, "fusion_lon": 0.0, "lat": 38.905746666666666, "is_disabled": 0, "name": "ec6d03ac9e224c438c4ccab40d742a2e", "fusion_lat": 0.0, "rental_uris": {"ios": "https://dc.lft.to/lastmile_qr_scan", "android": "https://dc.lft.to/lastmile_qr_scan"}, "lon": -77.040018, "type": "electric_scooter"}, {"bike_id": "aafdfc81a15f90d18b36485602effdfd", "is_reserved": 0, "fusion_lon": 0.0, "lat": 38.90082316666667, "is_disabled": 0, "name": "aafdfc81a15f90d18b36485602effdfd", "fusion_lat": 0.0, "rental_uris": {"ios": "https://dc.lft.to/lastmile_qr_scan", "android": "https://dc.lft.to/lastmile_qr_scan"}, "lon": -77.04770683333334, "type": "electric_scooter"}, {"bike_id": "33130a257d61420c6b517874b8f40cc7", "is_reserved": 0, "fusion_lon": 0.0, "lat": 38.9286, "is_disabled": 0, "name": "33130a257d61420c6b517874b8f40cc7", "fusion_lat": 0.0, "rental_uris": {"ios": "https://dc.lft.to/lastmile_qr_scan", "android": "https://dc.lft.to/lastmile_qr_scan"}, "lon": -77.03434033333333, "type": "electric_scooter"}, {"bike_id": "500fde773853e7e71ce1c4918129962d", "is_reserved": 0, "fusion_lon": 0.0, "lat": 38.901076833333335, "is_disabled": 0, "name": "500fde773853e7e71ce1c4918129962d", "fusion_lat": 0.0, "rental_uris": {"ios": "https://dc.lft.to/lastmile_qr_scan", "android": "https://dc.lft.to/lastmile_qr_scan"}, "lon": -77.04979233333333, "type": "electric_scooter"}, {"bike_id": "77f5a67243c19ca10388233a60c90563", "is_reserved": 0, "fusion_lon": 0.0, "lat": 39.015915666666665, "is_disabled": 0, "name": "77f5a67243c19ca10388233a60c90563", "fusion_lat": 0.0, "rental_uris": {"ios": "https://dc.lft.to/lastmile_qr_scan", "android": "https://dc.lft.to/lastmile_qr_scan"}, "lon": -77.04427483333333, "type": "electric_bike"}, {"bike_id": "b7fa6071da1d5a35a103ef45a4880754", "is_reserved": 0, "fusion_lon": 0.0, "lat": 38.9029975, "is_disabled": 0, "name": "b7fa6071da1d5a35a103ef45a4880754", "fusion_lat": 0.0, "rental_uris": {"ios": "https://dc.lft.to/lastmile_qr_scan", "android": "https://dc.lft.to/lastmile_qr_scan"}, "lon": -76.94441066666667, "type": "electric_bike"}, {"bike_id": "9bcded3f4238a89885d4199da1440eeb", "is_reserved": 0, "fusion_lon": 0.0, "lat": 38.838026166666666, "is_disabled": 0, "name": "9bcded3f4238a89885d4199da1440eeb", "fusion_lat": 0.0, "rental_uris": {"ios": "https://dc.lft.to/lastmile_qr_scan", "android": "https://dc.lft.to/lastmile_qr_scan"}, "lon": -76.9983195, "type": "electric_bike"}, {"bike_id": "c953bf109084751bc1fa8c778591b9a2", "is_reserved": 0, "fusion_lon": 0.0, "lat": 38.90148766666667, "is_disabled": 0, "name": "c953bf109084751bc1fa8c778591b9a2", "fusion_lat": 0.0, "rental_uris": {"ios": "https://dc.lft.to/lastmile_qr_scan", "android": "https://dc.lft.to/lastmile_qr_scan"}, "lon": -76.9751255, "type": "electric_scooter"}, {"bike_id": "769a727d00b4a4d82fe41bf89f2fc718", "is_reserved": 0, "fusion_lon": 0.0, "lat": 38.933345333333335, "is_disabled": 0, "name": "769a727d00b4a4d82fe41bf89f2fc718", "fusion_lat": 0.0, "rental_uris": {"ios": "https://dc.lft.to/lastmile_qr_scan", "android": "https://dc.lft.to/lastmile_qr_scan"}, "lon": -77.03288566666667, "type": "electric_scooter"}, {"bike_id": "966e30b53ecf784bc509d58762fccf9b", "is_reserved": 0, "fusion_lon": 0.0, "lat": 38.9104265, "is_disabled": 0, "name": "966e30b53ecf784bc509d58762fccf9b", "fusion_lat": 0.0, "rental_uris": {"ios": "https://dc.lft.to/lastmile_qr_scan", "android": "https://dc.lft.to/lastmile_qr_scan"}, "lon": -77.03629933333333, "type": "electric_scooter"}, {"bike_id": "7ae87a4205be219ddf1d858c5fa013a7", "is_reserved": 0, "fusion_lon": 0.0, "lat": 38.95877183333333, "is_disabled": 0, "name": "7ae87a4205be219ddf1d858c5fa013a7", "fusion_lat": 0.0, "rental_uris": {"ios": "https://dc.lft.to/lastmile_qr_scan", "android": "https://dc.lft.to/lastmile_qr_scan"}, "lon": -76.97043633333334, "type": "electric_bike"}, {"bike_id": "e511d9210e8431492f9dd3c973a4654a", "is_reserved": 0, "fusion_lon": 0.0, "lat": 38.92011866666667, "is_disabled": 0, "name": "e511d9210e8431492f9dd3c973a4654a", "fusion_lat": 0.0, "rental_uris": {"ios": "https://dc.lft.to/lastmile_qr_scan", "android": "https://dc.lft.to/lastmile_qr_scan"}, "lon": -77.03768466666666, "type": "electric_scooter"}, {"bike_id": "f8db4c943a587cdc9921fe22e9b62bd1", "is_reserved": 0, "fusion_lon": 0.0, "lat": 38.95926166666667, "is_disabled": 0, "name": "f8db4c943a587cdc9921fe22e9b62bd1", "fusion_lat": 0.0, "rental_uris": {"ios": "https://dc.lft.to/lastmile_qr_scan", "android": "https://dc.lft.to/lastmile_qr_scan"}, "lon": -76.92533666666667, "type": "electric_bike"}, {"bike_id": "e0b8d63510c157ea56a6702a484ad002", "is_reserved": 0, "fusion_lon": 0.0, "lat": 38.86961266666667, "is_disabled": 0, "name": "e0b8d63510c157ea56a6702a484ad002", "fusion_lat": 0.0, "rental_uris": {"ios": "https://dc.lft.to/lastmile_qr_scan", "android": "https://dc.lft.to/lastmile_qr_scan"}, "lon": -77.013745, "type": "electric_scooter"}, {"bike_id": "0283606f53e01f41a1a5baa7495e9213", "is_reserved": 0, "fusion_lon": 0.0, "lat": 38.92425866666667, "is_disabled": 0, "name": "0283606f53e01f41a1a5baa7495e9213", "fusion_lat": 0.0, "rental_uris": {"ios": "https://dc.lft.to/lastmile_qr_scan", "android": "https://dc.lft.to/lastmile_qr_scan"}, "lon": -77.042365, "type": "electric_scooter"}, {"bike_id": "d96583881b397ea73c39f21f9dee2796", "is_reserved": 0, "fusion_lon": 0.0, "lat": 38.90269116666666, "is_disabled": 0, "name": "d96583881b397ea73c39f21f9dee2796", "fusion_lat": 0.0, "rental_uris": {"ios": "https://dc.lft.to/lastmile_qr_scan", "android": "https://dc.lft.to/lastmile_qr_scan"}, "lon": -77.03834033333334, "type": "electric_scooter"}, {"bike_id": "019514ce262e891e4e67217a80067d79", "is_reserved": 0, "fusion_lon": 0.0, "lat": 38.897156333333335, "is_disabled": 0, "name": "019514ce262e891e4e67217a80067d79", "fusion_lat": 0.0, "rental_uris": {"ios": "https://dc.lft.to/lastmile_qr_scan", "android": "https://dc.lft.to/lastmile_qr_scan"}, "lon": -77.02730033333333, "type": "electric_scooter"}, {"bike_id": "bd1c027d9eeaf73abde52a4da7ca333d", "is_reserved": 0, "fusion_lon": 0.0, "lat": 38.907211, "is_disabled": 0, "name": "bd1c027d9eeaf73abde52a4da7ca333d", "fusion_lat": 0.0, "rental_uris": {"ios": "https://dc.lft.to/lastmile_qr_scan", "android": "https://dc.lft.to/lastmile_qr_scan"}, "lon": -77.0442395, "type": "electric_scooter"}, {"bike_id": "205f4f4257af2a4cac4be40311bbf6b5", "is_reserved": 0, "fusion_lon": 0.0, "lat": 38.903678, "is_disabled": 0, "name": "205f4f4257af2a4cac4be40311bbf6b5", "fusion_lat": 0.0, "rental_uris": {"ios": "https://dc.lft.to/lastmile_qr_scan", "android": "https://dc.lft.to/lastmile_qr_scan"}, "lon": -77.04356083333333, "type": "electric_scooter"}, {"bike_id": "7df7c07cb60b5a5ed176fdbc6710e8ce", "is_reserved": 0, "fusion_lon": 0.0, "lat": 38.91704466666667, "is_disabled": 0, "name": "7df7c07cb60b5a5ed176fdbc6710e8ce", "fusion_lat": 0.0, "rental_uris": {"ios": "https://dc.lft.to/lastmile_qr_scan", "android": "https://dc.lft.to/lastmile_qr_scan"}, "lon": -77.04173566666667, "type": "electric_scooter"}, {"bike_id": "79e55e170ba44761dffd01e6af0caa12", "is_reserved": 0, "fusion_lon": 0.0, "lat": 38.90014866666667, "is_disabled": 0, "name": "79e55e170ba44761dffd01e6af0caa12", "fusion_lat": 0.0, "rental_uris": {"ios": "https://dc.lft.to/lastmile_qr_scan", "android": "https://dc.lft.to/lastmile_qr_scan"}, "lon": -76.973113, "type": "electric_scooter"}, {"bike_id": "eeaa1fc6107b742ebf4d0e7139a75b44", "is_reserved": 0, "fusion_lon": 0.0, "lat": 38.900453666666664, "is_disabled": 0, "name": "eeaa1fc6107b742ebf4d0e7139a75b44", "fusion_lat": 0.0, "rental_uris": {"ios": "https://dc.lft.to/lastmile_qr_scan", "android": "https://dc.lft.to/lastmile_qr_scan"}, "lon": -77.00224066666667, "type": "electric_scooter"}, {"bike_id": "af098efb496d499ea99482afe0e589f6", "is_reserved": 0, "fusion_lon": 0.0, "lat": 38.899521, "is_disabled": 0, "name": "af098efb496d499ea99482afe0e589f6", "fusion_lat": 0.0, "rental_uris": {"ios": "https://dc.lft.to/lastmile_qr_scan", "android": "https://dc.lft.to/lastmile_qr_scan"}, "lon": -77.00360116666667, "type": "electric_scooter"}, {"bike_id": "a19f9a90d55b95d94935a8757b0e48b4", "is_reserved": 0, "fusion_lon": 0.0, "lat": 38.914390833333336, "is_disabled": 0, "name": "a19f9a90d55b95d94935a8757b0e48b4", "fusion_lat": 0.0, "rental_uris": {"ios": "https://dc.lft.to/lastmile_qr_scan", "android": "https://dc.lft.to/lastmile_qr_scan"}, "lon": -77.00345583333333, "type": "electric_scooter"}, {"bike_id": "826e75747419d8c36b8a29c0a6f173c5", "is_reserved": 0, "fusion_lon": 0.0, "lat": 38.92877033333333, "is_disabled": 0, "name": "826e75747419d8c36b8a29c0a6f173c5", "fusion_lat": 0.0, "rental_uris": {"ios": "https://dc.lft.to/lastmile_qr_scan", "android": "https://dc.lft.to/lastmile_qr_scan"}, "lon": -77.05468566666667, "type": "electric_scooter"}, {"bike_id": "91b91a1ca0834906369e2bd56002d1ba", "is_reserved": 0, "fusion_lon": 0.0, "lat": 38.880010166666665, "is_disabled": 0, "name": "91b91a1ca0834906369e2bd56002d1ba", "fusion_lat": 0.0, "rental_uris": {"ios": "https://dc.lft.to/lastmile_qr_scan", "android": "https://dc.lft.to/lastmile_qr_scan"}, "lon": -76.995043, "type": "electric_scooter"}, {"bike_id": "d2428c7a817168afe2d3765eb22f6cfd", "is_reserved": 0, "fusion_lon": 0.0, "lat": 38.90847516666667, "is_disabled": 0, "name": "d2428c7a817168afe2d3765eb22f6cfd", "fusion_lat": 0.0, "rental_uris": {"ios": "https://dc.lft.to/lastmile_qr_scan", "android": "https://dc.lft.to/lastmile_qr_scan"}, "lon": -77.08528883333334, "type": "electric_scooter"}, {"bike_id": "b8ce658992af59351fc36b04cd649942", "is_reserved": 0, "fusion_lon": 0.0, "lat": 38.91270466666667, "is_disabled": 0, "name": "b8ce658992af59351fc36b04cd649942", "fusion_lat": 0.0, "rental_uris": {"ios": "https://dc.lft.to/lastmile_qr_scan", "android": "https://dc.lft.to/lastmile_qr_scan"}, "lon": -77.02211216666667, "type": "electric_scooter"}, {"bike_id": "5927b884bfd33e3a784fddadb9d5b490", "is_reserved": 0, "fusion_lon": 0.0, "lat": 38.92318316666667, "is_disabled": 0, "name": "5927b884bfd33e3a784fddadb9d5b490", "fusion_lat": 0.0, "rental_uris": {"ios": "https://dc.lft.to/lastmile_qr_scan", "android": "https://dc.lft.to/lastmile_qr_scan"}, "lon": -77.03862183333334, "type": "electric_scooter"}, {"bike_id": "54c78e0669d41c9c133be6a104b00f10", "is_reserved": 0, "fusion_lon": 0.0, "lat": 38.90564616666666, "is_disabled": 0, "name": "54c78e0669d41c9c133be6a104b00f10", "fusion_lat": 0.0, "rental_uris": {"ios": "https://dc.lft.to/lastmile_qr_scan", "android": "https://dc.lft.to/lastmile_qr_scan"}, "lon": -77.03634833333334, "type": "electric_scooter"}, {"bike_id": "60065dba1d75feb31fdac8b635868e58", "is_reserved": 0, "fusion_lon": 0.0, "lat": 38.95784666666667, "is_disabled": 0, "name": "60065dba1d75feb31fdac8b635868e58", "fusion_lat": 0.0, "rental_uris": {"ios": "https://dc.lft.to/lastmile_qr_scan", "android": "https://dc.lft.to/lastmile_qr_scan"}, "lon": -77.0274515, "type": "electric_bike"}, {"bike_id": "73fbb98c5a6fe508522d6e379e2ed8e6", "is_reserved": 0, "fusion_lon": 0.0, "lat": 38.8964865, "is_disabled": 0, "name": "73fbb98c5a6fe508522d6e379e2ed8e6", "fusion_lat": 0.0, "rental_uris": {"ios": "https://dc.lft.to/lastmile_qr_scan", "android": "https://dc.lft.to/lastmile_qr_scan"}, "lon": -77.02948566666667, "type": "electric_scooter"}, {"bike_id": "2ead16eb82d6fdf6efda95e8cfc363a2", "is_reserved": 0, "fusion_lon": 0.0, "lat": 38.91971066666667, "is_disabled": 0, "name": "2ead16eb82d6fdf6efda95e8cfc363a2", "fusion_lat": 0.0, "rental_uris": {"ios": "https://dc.lft.to/lastmile_qr_scan", "android": "https://dc.lft.to/lastmile_qr_scan"}, "lon": -77.00107033333333, "type": "electric_scooter"}, {"bike_id": "4dcad53e69be32b09d009c5fcac928df", "is_reserved": 0, "fusion_lon": 0.0, "lat": 38.923414666666666, "is_disabled": 0, "name": "4dcad53e69be32b09d009c5fcac928df", "fusion_lat": 0.0, "rental_uris": {"ios": "https://dc.lft.to/lastmile_qr_scan", "android": "https://dc.lft.to/lastmile_qr_scan"}, "lon": -77.0190745, "type": "electric_scooter"}, {"bike_id": "ace00cad0af64a86b80ffa24b8cb9ef8", "is_reserved": 0, "fusion_lon": 0.0, "lat": 38.92630183333333, "is_disabled": 0, "name": "ace00cad0af64a86b80ffa24b8cb9ef8", "fusion_lat": 0.0, "rental_uris": {"ios": "https://dc.lft.to/lastmile_qr_scan", "android": "https://dc.lft.to/lastmile_qr_scan"}, "lon": -77.0351195, "type": "electric_scooter"}, {"bike_id": "acf999d8d2edc707bf5063a55cf07619", "is_reserved": 0, "fusion_lon": 0.0, "lat": 38.9059095, "is_disabled": 0, "name": "acf999d8d2edc707bf5063a55cf07619", "fusion_lat": 0.0, "rental_uris": {"ios": "https://dc.lft.to/lastmile_qr_scan", "android": "https://dc.lft.to/lastmile_qr_scan"}, "lon": -77.065223, "type": "electric_scooter"}, {"bike_id": "21257569d441e82ed49ae4245e6fac91", "is_reserved": 0, "fusion_lon": 0.0, "lat": 38.941571, "is_disabled": 0, "name": "21257569d441e82ed49ae4245e6fac91", "fusion_lat": 0.0, "rental_uris": {"ios": "https://dc.lft.to/lastmile_qr_scan", "android": "https://dc.lft.to/lastmile_qr_scan"}, "lon": -77.001896, "type": "electric_bike"}, {"bike_id": "0813b3b7151d27754bae3283423bfc89", "is_reserved": 0, "fusion_lon": 0.0, "lat": 38.920678, "is_disabled": 0, "name": "0813b3b7151d27754bae3283423bfc89", "fusion_lat": 0.0, "rental_uris": {"ios": "https://dc.lft.to/lastmile_qr_scan", "android": "https://dc.lft.to/lastmile_qr_scan"}, "lon": -76.97801033333333, "type": "electric_scooter"}, {"bike_id": "aa001bddc748f34ceb2edfc6854aa88c", "is_reserved": 0, "fusion_lon": 0.0, "lat": 38.920589666666665, "is_disabled": 0, "name": "aa001bddc748f34ceb2edfc6854aa88c", "fusion_lat": 0.0, "rental_uris": {"ios": "https://dc.lft.to/lastmile_qr_scan", "android": "https://dc.lft.to/lastmile_qr_scan"}, "lon": -77.03394783333333, "type": "electric_scooter"}, {"bike_id": "564f894937608f90315bb9f6cc4ab9f4", "is_reserved": 0, "fusion_lon": 0.0, "lat": 38.92325666666667, "is_disabled": 0, "name": "564f894937608f90315bb9f6cc4ab9f4", "fusion_lat": 0.0, "rental_uris": {"ios": "https://dc.lft.to/lastmile_qr_scan", "android": "https://dc.lft.to/lastmile_qr_scan"}, "lon": -77.04391483333333, "type": "electric_scooter"}, {"bike_id": "eaafa2960ec487ac1fe31e318a04d185", "is_reserved": 0, "fusion_lon": 0.0, "lat": 38.9050815, "is_disabled": 0, "name": "eaafa2960ec487ac1fe31e318a04d185", "fusion_lat": 0.0, "rental_uris": {"ios": "https://dc.lft.to/lastmile_qr_scan", "android": "https://dc.lft.to/lastmile_qr_scan"}, "lon": -77.06382166666667, "type": "electric_scooter"}, {"bike_id": "3718df21b77ebde11787f7f3eee3eebf", "is_reserved": 0, "fusion_lon": 0.0, "lat": 38.915583, "is_disabled": 0, "name": "3718df21b77ebde11787f7f3eee3eebf", "fusion_lat": 0.0, "rental_uris": {"ios": "https://dc.lft.to/lastmile_qr_scan", "android": "https://dc.lft.to/lastmile_qr_scan"}, "lon": -77.021309, "type": "electric_scooter"}, {"bike_id": "17329db0b070f063d02250b1effaec57", "is_reserved": 0, "fusion_lon": 0.0, "lat": 38.95924766666667, "is_disabled": 0, "name": "17329db0b070f063d02250b1effaec57", "fusion_lat": 0.0, "rental_uris": {"ios": "https://dc.lft.to/lastmile_qr_scan", "android": "https://dc.lft.to/lastmile_qr_scan"}, "lon": -77.033248, "type": "electric_scooter"}, {"bike_id": "0a8e897c663c9720ce73edd4d71912ed", "is_reserved": 0, "fusion_lon": 0.0, "lat": 38.903157, "is_disabled": 0, "name": "0a8e897c663c9720ce73edd4d71912ed", "fusion_lat": 0.0, "rental_uris": {"ios": "https://dc.lft.to/lastmile_qr_scan", "android": "https://dc.lft.to/lastmile_qr_scan"}, "lon": -77.03821566666667, "type": "electric_scooter"}, {"bike_id": "04f7fde4f0b3259a24d62b5e008a8e4d", "is_reserved": 0, "fusion_lon": 0.0, "lat": 38.905283, "is_disabled": 0, "name": "04f7fde4f0b3259a24d62b5e008a8e4d", "fusion_lat": 0.0, "rental_uris": {"ios": "https://dc.lft.to/lastmile_qr_scan", "android": "https://dc.lft.to/lastmile_qr_scan"}, "lon": -77.02710233333333, "type": "electric_scooter"}, {"bike_id": "4b9cf5e5be5367a0d03023fc29e2a48d", "is_reserved": 0, "fusion_lon": 0.0, "lat": 38.9100495, "is_disabled": 0, "name": "4b9cf5e5be5367a0d03023fc29e2a48d", "fusion_lat": 0.0, "rental_uris": {"ios": "https://dc.lft.to/lastmile_qr_scan", "android": "https://dc.lft.to/lastmile_qr_scan"}, "lon": -77.02093183333334, "type": "electric_scooter"}, {"bike_id": "d74bc05ba2647e189f29e0482a2e88f6", "is_reserved": 0, "fusion_lon": 0.0, "lat": 38.96617416666667, "is_disabled": 0, "name": "d74bc05ba2647e189f29e0482a2e88f6", "fusion_lat": 0.0, "rental_uris": {"ios": "https://dc.lft.to/lastmile_qr_scan", "android": "https://dc.lft.to/lastmile_qr_scan"}, "lon": -77.03428916666667, "type": "electric_bike"}, {"bike_id": "dcd147f755539f0d3f0943bfb2223258", "is_reserved": 0, "fusion_lon": 0.0, "lat": 38.915374, "is_disabled": 0, "name": "dcd147f755539f0d3f0943bfb2223258", "fusion_lat": 0.0, "rental_uris": {"ios": "https://dc.lft.to/lastmile_qr_scan", "android": "https://dc.lft.to/lastmile_qr_scan"}, "lon": -77.02350916666667, "type": "electric_scooter"}, {"bike_id": "0404ba8c6627ab6f6118d6abe18cb2e8", "is_reserved": 0, "fusion_lon": 0.0, "lat": 38.905627, "is_disabled": 0, "name": "0404ba8c6627ab6f6118d6abe18cb2e8", "fusion_lat": 0.0, "rental_uris": {"ios": "https://dc.lft.to/lastmile_qr_scan", "android": "https://dc.lft.to/lastmile_qr_scan"}, "lon": -77.0419105, "type": "electric_scooter"}, {"bike_id": "e62ac129ac71f046b01c07495c082983", "is_reserved": 0, "fusion_lon": 0.0, "lat": 38.9015345, "is_disabled": 0, "name": "e62ac129ac71f046b01c07495c082983", "fusion_lat": 0.0, "rental_uris": {"ios": "https://dc.lft.to/lastmile_qr_scan", "android": "https://dc.lft.to/lastmile_qr_scan"}, "lon": -77.02653733333334, "type": "electric_scooter"}, {"bike_id": "97a36565cdafa0cc10fc293e5ae1292d", "is_reserved": 0, "fusion_lon": 0.0, "lat": 38.893784333333336, "is_disabled": 0, "name": "97a36565cdafa0cc10fc293e5ae1292d", "fusion_lat": 0.0, "rental_uris": {"ios": "https://dc.lft.to/lastmile_qr_scan", "android": "https://dc.lft.to/lastmile_qr_scan"}, "lon": -76.94979566666666, "type": "electric_scooter"}, {"bike_id": "9a65b7082409987a9009e84e8d7eb5c8", "is_reserved": 0, "fusion_lon": 0.0, "lat": 38.92681966666667, "is_disabled": 0, "name": "9a65b7082409987a9009e84e8d7eb5c8", "fusion_lat": 0.0, "rental_uris": {"ios": "https://dc.lft.to/lastmile_qr_scan", "android": "https://dc.lft.to/lastmile_qr_scan"}, "lon": -77.01578466666666, "type": "electric_scooter"}, {"bike_id": "2088f725cafffaeee4af159a464a68e4", "is_reserved": 0, "fusion_lon": 0.0, "lat": 38.925379, "is_disabled": 0, "name": "2088f725cafffaeee4af159a464a68e4", "fusion_lat": 0.0, "rental_uris": {"ios": "https://dc.lft.to/lastmile_qr_scan", "android": "https://dc.lft.to/lastmile_qr_scan"}, "lon": -77.0352545, "type": "electric_scooter"}, {"bike_id": "dc4711637b93b6ffc096f13b7ec5dd39", "is_reserved": 0, "fusion_lon": 0.0, "lat": 38.92739983333333, "is_disabled": 0, "name": "dc4711637b93b6ffc096f13b7ec5dd39", "fusion_lat": 0.0, "rental_uris": {"ios": "https://dc.lft.to/lastmile_qr_scan", "android": "https://dc.lft.to/lastmile_qr_scan"}, "lon": -77.0226195, "type": "electric_scooter"}, {"bike_id": "4a650f7cc4665a9b95d354e7aee39cec", "is_reserved": 0, "fusion_lon": 0.0, "lat": 38.92725016666667, "is_disabled": 0, "name": "4a650f7cc4665a9b95d354e7aee39cec", "fusion_lat": 0.0, "rental_uris": {"ios": "https://dc.lft.to/lastmile_qr_scan", "android": "https://dc.lft.to/lastmile_qr_scan"}, "lon": -77.022631, "type": "electric_bike"}, {"bike_id": "b9de76781d72d68b440564727f55f1ad", "is_reserved": 0, "fusion_lon": 0.0, "lat": 38.918451, "is_disabled": 0, "name": "b9de76781d72d68b440564727f55f1ad", "fusion_lat": 0.0, "rental_uris": {"ios": "https://dc.lft.to/lastmile_qr_scan", "android": "https://dc.lft.to/lastmile_qr_scan"}, "lon": -77.03216183333333, "type": "electric_scooter"}, {"bike_id": "e9f91c771f66760784463daccf3f1a38", "is_reserved": 0, "fusion_lon": 0.0, "lat": 38.9171615, "is_disabled": 0, "name": "e9f91c771f66760784463daccf3f1a38", "fusion_lat": 0.0, "rental_uris": {"ios": "https://dc.lft.to/lastmile_qr_scan", "android": "https://dc.lft.to/lastmile_qr_scan"}, "lon": -77.03353183333333, "type": "electric_scooter"}, {"bike_id": "727daf164af40142511af5fe171eb5d1", "is_reserved": 0, "fusion_lon": 0.0, "lat": 38.87484883333333, "is_disabled": 0, "name": "727daf164af40142511af5fe171eb5d1", "fusion_lat": 0.0, "rental_uris": {"ios": "https://dc.lft.to/lastmile_qr_scan", "android": "https://dc.lft.to/lastmile_qr_scan"}, "lon": -76.965262, "type": "electric_bike"}, {"bike_id": "84bf22e83d2326759d97638ed93a1706", "is_reserved": 0, "fusion_lon": 0.0, "lat": 38.91553916666667, "is_disabled": 0, "name": "84bf22e83d2326759d97638ed93a1706", "fusion_lat": 0.0, "rental_uris": {"ios": "https://dc.lft.to/lastmile_qr_scan", "android": "https://dc.lft.to/lastmile_qr_scan"}, "lon": -77.03791583333333, "type": "electric_scooter"}, {"bike_id": "cb90dff8542b591282b5e368a59bf530", "is_reserved": 0, "fusion_lon": 0.0, "lat": 38.910484833333335, "is_disabled": 0, "name": "cb90dff8542b591282b5e368a59bf530", "fusion_lat": 0.0, "rental_uris": {"ios": "https://dc.lft.to/lastmile_qr_scan", "android": "https://dc.lft.to/lastmile_qr_scan"}, "lon": -77.044095, "type": "electric_scooter"}, {"bike_id": "68220981cd966f0ecfb41a886d8c0bd7", "is_reserved": 0, "fusion_lon": 0.0, "lat": 38.934982166666664, "is_disabled": 0, "name": "68220981cd966f0ecfb41a886d8c0bd7", "fusion_lat": 0.0, "rental_uris": {"ios": "https://dc.lft.to/lastmile_qr_scan", "android": "https://dc.lft.to/lastmile_qr_scan"}, "lon": -77.02837516666666, "type": "electric_scooter"}, {"bike_id": "e801a7713c1169fe399cddf44db4f1b6", "is_reserved": 0, "fusion_lon": 0.0, "lat": 38.9031475, "is_disabled": 0, "name": "e801a7713c1169fe399cddf44db4f1b6", "fusion_lat": 0.0, "rental_uris": {"ios": "https://dc.lft.to/lastmile_qr_scan", "android": "https://dc.lft.to/lastmile_qr_scan"}, "lon": -77.033003, "type": "electric_scooter"}, {"bike_id": "9bbe5334ebbc3fbee0db18665e2e0bce", "is_reserved": 0, "fusion_lon": 0.0, "lat": 38.9001805, "is_disabled": 0, "name": "9bbe5334ebbc3fbee0db18665e2e0bce", "fusion_lat": 0.0, "rental_uris": {"ios": "https://dc.lft.to/lastmile_qr_scan", "android": "https://dc.lft.to/lastmile_qr_scan"}, "lon": -76.9870115, "type": "electric_scooter"}, {"bike_id": "ec5d84f21222ed6fd66c878d8cf5d0a5", "is_reserved": 0, "fusion_lon": 0.0, "lat": 38.880829166666665, "is_disabled": 0, "name": "ec5d84f21222ed6fd66c878d8cf5d0a5", "fusion_lat": 0.0, "rental_uris": {"ios": "https://dc.lft.to/lastmile_qr_scan", "android": "https://dc.lft.to/lastmile_qr_scan"}, "lon": -76.985344, "type": "electric_scooter"}, {"bike_id": "cad8870528a709b2c323ee8aadd1d957", "is_reserved": 0, "fusion_lon": 0.0, "lat": 38.810501, "is_disabled": 0, "name": "cad8870528a709b2c323ee8aadd1d957", "fusion_lat": 0.0, "rental_uris": {"ios": "https://dc.lft.to/lastmile_qr_scan", "android": "https://dc.lft.to/lastmile_qr_scan"}, "lon": -77.08516566666667, "type": "electric_bike"}, {"bike_id": "3e8c592e73cf4ea415b17bea92650dea", "is_reserved": 0, "fusion_lon": 0.0, "lat": 38.886003333333335, "is_disabled": 0, "name": "3e8c592e73cf4ea415b17bea92650dea", "fusion_lat": 0.0, "rental_uris": {"ios": "https://dc.lft.to/lastmile_qr_scan", "android": "https://dc.lft.to/lastmile_qr_scan"}, "lon": -77.00569266666666, "type": "electric_scooter"}, {"bike_id": "732fcc2016617119d4efa25bfcb51025", "is_reserved": 0, "fusion_lon": 0.0, "lat": 38.85434383333333, "is_disabled": 0, "name": "732fcc2016617119d4efa25bfcb51025", "fusion_lat": 0.0, "rental_uris": {"ios": "https://dc.lft.to/lastmile_qr_scan", "android": "https://dc.lft.to/lastmile_qr_scan"}, "lon": -76.909732, "type": "electric_bike"}, {"bike_id": "808ead8fb26ae6dd5811900962698460", "is_reserved": 0, "fusion_lon": 0.0, "lat": 38.892221666666664, "is_disabled": 0, "name": "808ead8fb26ae6dd5811900962698460", "fusion_lat": 0.0, "rental_uris": {"ios": "https://dc.lft.to/lastmile_qr_scan", "android": "https://dc.lft.to/lastmile_qr_scan"}, "lon": -77.04862316666667, "type": "electric_scooter"}, {"bike_id": "6a1d1afad6d09aa4bbcc22d4aff38eb5", "is_reserved": 0, "fusion_lon": 0.0, "lat": 38.92908033333333, "is_disabled": 0, "name": "6a1d1afad6d09aa4bbcc22d4aff38eb5", "fusion_lat": 0.0, "rental_uris": {"ios": "https://dc.lft.to/lastmile_qr_scan", "android": "https://dc.lft.to/lastmile_qr_scan"}, "lon": -77.02163983333334, "type": "electric_scooter"}, {"bike_id": "5d738db52a9b2e8b8d5e2355b08c4694", "is_reserved": 0, "fusion_lon": 0.0, "lat": 38.931504, "is_disabled": 0, "name": "5d738db52a9b2e8b8d5e2355b08c4694", "fusion_lat": 0.0, "rental_uris": {"ios": "https://dc.lft.to/lastmile_qr_scan", "android": "https://dc.lft.to/lastmile_qr_scan"}, "lon": -77.04362316666666, "type": "electric_scooter"}, {"bike_id": "6534af05eb08c23523c408ae2ae9da49", "is_reserved": 0, "fusion_lon": 0.0, "lat": 38.91191166666667, "is_disabled": 0, "name": "6534af05eb08c23523c408ae2ae9da49", "fusion_lat": 0.0, "rental_uris": {"ios": "https://dc.lft.to/lastmile_qr_scan", "android": "https://dc.lft.to/lastmile_qr_scan"}, "lon": -77.04542433333333, "type": "electric_scooter"}, {"bike_id": "dc62e67a278d959105b67f13057f4918", "is_reserved": 0, "fusion_lon": 0.0, "lat": 38.8442565, "is_disabled": 0, "name": "dc62e67a278d959105b67f13057f4918", "fusion_lat": 0.0, "rental_uris": {"ios": "https://dc.lft.to/lastmile_qr_scan", "android": "https://dc.lft.to/lastmile_qr_scan"}, "lon": -76.99780033333333, "type": "electric_scooter"}, {"bike_id": "c4152d79004ad2345c1b0cc32adecac3", "is_reserved": 0, "fusion_lon": 0.0, "lat": 38.903164333333336, "is_disabled": 0, "name": "c4152d79004ad2345c1b0cc32adecac3", "fusion_lat": 0.0, "rental_uris": {"ios": "https://dc.lft.to/lastmile_qr_scan", "android": "https://dc.lft.to/lastmile_qr_scan"}, "lon": -77.05171333333334, "type": "electric_scooter"}, {"bike_id": "557d6f3d1e1497817da271f413b084b5", "is_reserved": 0, "fusion_lon": 0.0, "lat": 38.866585, "is_disabled": 0, "name": "557d6f3d1e1497817da271f413b084b5", "fusion_lat": 0.0, "rental_uris": {"ios": "https://dc.lft.to/lastmile_qr_scan", "android": "https://dc.lft.to/lastmile_qr_scan"}, "lon": -76.9901565, "type": "electric_scooter"}, {"bike_id": "b497ee1b72e204cea4b436817d0d6b98", "is_reserved": 0, "fusion_lon": 0.0, "lat": 38.898242, "is_disabled": 0, "name": "b497ee1b72e204cea4b436817d0d6b98", "fusion_lat": 0.0, "rental_uris": {"ios": "https://dc.lft.to/lastmile_qr_scan", "android": "https://dc.lft.to/lastmile_qr_scan"}, "lon": -76.94650833333333, "type": "electric_scooter"}, {"bike_id": "d6da5fab467f67cecd13f75fd9fe49ce", "is_reserved": 0, "fusion_lon": 0.0, "lat": 38.9015585, "is_disabled": 0, "name": "d6da5fab467f67cecd13f75fd9fe49ce", "fusion_lat": 0.0, "rental_uris": {"ios": "https://dc.lft.to/lastmile_qr_scan", "android": "https://dc.lft.to/lastmile_qr_scan"}, "lon": -77.02902716666667, "type": "electric_scooter"}, {"bike_id": "a2b61b9733a02e11bb04dafd8fda02e9", "is_reserved": 0, "fusion_lon": 0.0, "lat": 38.91988966666667, "is_disabled": 0, "name": "a2b61b9733a02e11bb04dafd8fda02e9", "fusion_lat": 0.0, "rental_uris": {"ios": "https://dc.lft.to/lastmile_qr_scan", "android": "https://dc.lft.to/lastmile_qr_scan"}, "lon": -77.0347585, "type": "electric_scooter"}, {"bike_id": "25529b665ea618e2c6417a020f688597", "is_reserved": 0, "fusion_lon": 0.0, "lat": 38.900513333333336, "is_disabled": 0, "name": "25529b665ea618e2c6417a020f688597", "fusion_lat": 0.0, "rental_uris": {"ios": "https://dc.lft.to/lastmile_qr_scan", "android": "https://dc.lft.to/lastmile_qr_scan"}, "lon": -77.050784, "type": "electric_scooter"}, {"bike_id": "d543f2e8b240d5e4a7b6c076b1c82f43", "is_reserved": 0, "fusion_lon": 0.0, "lat": 38.839788666666664, "is_disabled": 0, "name": "d543f2e8b240d5e4a7b6c076b1c82f43", "fusion_lat": 0.0, "rental_uris": {"ios": "https://dc.lft.to/lastmile_qr_scan", "android": "https://dc.lft.to/lastmile_qr_scan"}, "lon": -77.005716, "type": "electric_bike"}, {"bike_id": "1af0b4d92004edd6a92a64f524713a66", "is_reserved": 0, "fusion_lon": 0.0, "lat": 38.93772216666667, "is_disabled": 0, "name": "1af0b4d92004edd6a92a64f524713a66", "fusion_lat": 0.0, "rental_uris": {"ios": "https://dc.lft.to/lastmile_qr_scan", "android": "https://dc.lft.to/lastmile_qr_scan"}, "lon": -77.02264983333333, "type": "electric_scooter"}, {"bike_id": "94d2b56682e7a644adf7e91d95a775d8", "is_reserved": 0, "fusion_lon": 0.0, "lat": 38.90047783333333, "is_disabled": 0, "name": "94d2b56682e7a644adf7e91d95a775d8", "fusion_lat": 0.0, "rental_uris": {"ios": "https://dc.lft.to/lastmile_qr_scan", "android": "https://dc.lft.to/lastmile_qr_scan"}, "lon": -77.05136233333333, "type": "electric_scooter"}, {"bike_id": "aa6955d78cfa680c27d05acce921f535", "is_reserved": 0, "fusion_lon": 0.0, "lat": 38.9142915, "is_disabled": 0, "name": "aa6955d78cfa680c27d05acce921f535", "fusion_lat": 0.0, "rental_uris": {"ios": "https://dc.lft.to/lastmile_qr_scan", "android": "https://dc.lft.to/lastmile_qr_scan"}, "lon": -77.03814816666667, "type": "electric_scooter"}, {"bike_id": "df11433e878b8e5994e02534de1e09b5", "is_reserved": 0, "fusion_lon": 0.0, "lat": 38.93087083333333, "is_disabled": 0, "name": "df11433e878b8e5994e02534de1e09b5", "fusion_lat": 0.0, "rental_uris": {"ios": "https://dc.lft.to/lastmile_qr_scan", "android": "https://dc.lft.to/lastmile_qr_scan"}, "lon": -77.02796416666666, "type": "electric_scooter"}, {"bike_id": "614a5c639a2269c8281dd17b85de8110", "is_reserved": 0, "fusion_lon": 0.0, "lat": 38.912165, "is_disabled": 0, "name": "614a5c639a2269c8281dd17b85de8110", "fusion_lat": 0.0, "rental_uris": {"ios": "https://dc.lft.to/lastmile_qr_scan", "android": "https://dc.lft.to/lastmile_qr_scan"}, "lon": -77.02798733333333, "type": "electric_scooter"}, {"bike_id": "3d2573047ac155eb6621f1476be50bb3", "is_reserved": 0, "fusion_lon": 0.0, "lat": 38.899043, "is_disabled": 0, "name": "3d2573047ac155eb6621f1476be50bb3", "fusion_lat": 0.0, "rental_uris": {"ios": "https://dc.lft.to/lastmile_qr_scan", "android": "https://dc.lft.to/lastmile_qr_scan"}, "lon": -77.03915616666667, "type": "electric_scooter"}, {"bike_id": "026981915518d30db01089b2e0d146bf", "is_reserved": 0, "fusion_lon": 0.0, "lat": 38.89820816666667, "is_disabled": 0, "name": "026981915518d30db01089b2e0d146bf", "fusion_lat": 0.0, "rental_uris": {"ios": "https://dc.lft.to/lastmile_qr_scan", "android": "https://dc.lft.to/lastmile_qr_scan"}, "lon": -77.01157816666667, "type": "electric_scooter"}, {"bike_id": "129ede7168bd06fda4b7041b92d2e236", "is_reserved": 0, "fusion_lon": 0.0, "lat": 38.917722166666664, "is_disabled": 0, "name": "129ede7168bd06fda4b7041b92d2e236", "fusion_lat": 0.0, "rental_uris": {"ios": "https://dc.lft.to/lastmile_qr_scan", "android": "https://dc.lft.to/lastmile_qr_scan"}, "lon": -77.01498516666666, "type": "electric_scooter"}, {"bike_id": "ad94ba5664163ca7d3dc27ea183b3711", "is_reserved": 0, "fusion_lon": 0.0, "lat": 38.931396, "is_disabled": 0, "name": "ad94ba5664163ca7d3dc27ea183b3711", "fusion_lat": 0.0, "rental_uris": {"ios": "https://dc.lft.to/lastmile_qr_scan", "android": "https://dc.lft.to/lastmile_qr_scan"}, "lon": -77.05708566666667, "type": "electric_scooter"}, {"bike_id": "f0b1de88ba21d32554ea764fd42a07e3", "is_reserved": 0, "fusion_lon": 0.0, "lat": 38.890571333333334, "is_disabled": 0, "name": "f0b1de88ba21d32554ea764fd42a07e3", "fusion_lat": 0.0, "rental_uris": {"ios": "https://dc.lft.to/lastmile_qr_scan", "android": "https://dc.lft.to/lastmile_qr_scan"}, "lon": -77.023024, "type": "electric_scooter"}, {"bike_id": "71a9c553c1156e22378ee8e294e675ab", "is_reserved": 0, "fusion_lon": 0.0, "lat": 38.965007666666665, "is_disabled": 0, "name": "71a9c553c1156e22378ee8e294e675ab", "fusion_lat": 0.0, "rental_uris": {"ios": "https://dc.lft.to/lastmile_qr_scan", "android": "https://dc.lft.to/lastmile_qr_scan"}, "lon": -77.064918, "type": "electric_bike"},