{"data": {"bikes": [{"name": "d2d05a6d56c88534ca6e324851faf214", "lon": -77.01161566666667, "lat": 38.8723575, "type": "electric_bike", "fusion_lon": 0.0, "is_reserved": 0, "bike_id": "d2d05a6d56c88534ca6e324851faf214", "fusion_lat": 0.0, "is_disabled": 0, "rental_uris": {"ios": "https://dc.lft.to/lastmile_qr_scan", "android": "https://dc.lft.to/lastmile_qr_scan"}}, {"name": "24c9b3ae320fe4057578e3c75cc16602", "lon": -76.98549916666667, "lat": 38.904208, "type": "electric_scooter", "fusion_lon": 0.0, "is_reserved": 0, "bike_id": "24c9b3ae320fe4057578e3c75cc16602", "fusion_lat": 0.0, "is_disabled": 0, "rental_uris": {"ios": "https://dc.lft.to/lastmile_qr_scan", "android": "https://dc.lft.to/lastmile_qr_scan"}}, {"name": "9356115e46ba6348defaf9fe4e36497b", "lon": -77.02962783333334, "lat": 38.90716666666667, "type": "electric_scooter", "fusion_lon": 0.0, "is_reserved": 0, "bike_id": "9356115e46ba6348defaf9fe4e36497b", "fusion_lat": 0.0, "is_disabled": 0, "rental_uris": {"ios": "https://dc.lft.to/lastmile_qr_scan", "android": "https://dc.lft.to/lastmile_qr_scan"}}, {"name": "c86ad5697c8139182956d34ee61d7411", "lon": -77.03777916666667, "lat": 38.91695983333334, "type": "electric_scooter", "fusion_lon": 0.0, "is_reserved": 0, "bike_id": "c86ad5697c8139182956d34ee61d7411", "fusion_lat": 0.0, "is_disabled": 0, "rental_uris": {"ios": "https://dc.lft.to/lastmile_qr_scan", "android": "https://dc.lft.to/lastmile_qr_scan"}}, {"name": "19778bff19a70c73c7f0556c14de9251", "lon": -77.0248855, "lat": 38.938667333333335, "type": "electric_scooter", "fusion_lon": 0.0, "is_reserved": 0, "bike_id": "19778bff19a70c73c7f0556c14de9251", "fusion_lat": 0.0, "is_disabled": 0, "rental_uris": {"ios": "https://dc.lft.to/lastmile_qr_scan", "android": "https://dc.lft.to/lastmile_qr_scan"}}, {"name": "31d3acec138b4cf286f15310c3330329", "lon": -77.04188733333334, "lat": 38.91985433333333, "type": "electric_scooter", "fusion_lon": 0.0, "is_reserved": 0, "bike_id": "31d3acec138b4cf286f15310c3330329", "fusion_lat": 0.0, "is_disabled": 0, "rental_uris": {"ios": "https://dc.lft.to/lastmile_qr_scan", "android": "https://dc.lft.to/lastmile_qr_scan"}}, {"name": "907ab976726a68998fe9ff1b42d1f41f", "lon": -76.98883633333334, "lat": 38.866619166666666, "type": "electric_scooter", "fusion_lon": 0.0, "is_reserved": 0, "bike_id": "907ab976726a68998fe9ff1b42d1f41f", "fusion_lat": 0.0, "is_disabled": 0, "rental_uris": {"ios": "https://dc.lft.to/lastmile_qr_scan", "android": "https://dc.lft.to/lastmile_qr_scan"}}, {"name": "f373670001b229e4f57de850e97d9f0f", "lon": -77.04078083333333, "lat": 38.9051895, "type": "electric_scooter", "fusion_lon": 0.0, "is_reserved": 0, "bike_id": "f373670001b229e4f57de850e97d9f0f", "fusion_lat": 0.0, "is_disabled": 0, "rental_uris": {"ios": "https://dc.lft.to/lastmile_qr_scan", "android": "https://dc.lft.to/lastmile_qr_scan"}}, {"name": "c80e6b061d80190597b71d212933d7b7", "lon": -77.02078333333333, "lat": 38.884898666666665, "type": "electric_scooter", "fusion_lon": 0.0, "is_reserved": 0, "bike_id": "c80e6b061d80190597b71d212933d7b7", "fusion_lat": 0.0, "is_disabled": 0, "rental_uris": {"ios": "https://dc.lft.to/lastmile_qr_scan", "android": "https://dc.lft.to/lastmile_qr_scan"}}, {"name": "e371682225ebf2ea8df1a1307b6000b9", "lon": -77.05583233333333, "lat": 38.893312, "type": "electric_scooter", "fusion_lon": 0.0, "is_reserved": 0, "bike_id": "e371682225ebf2ea8df1a1307b6000b9", "fusion_lat": 0.0, "is_disabled": 0, "rental_uris": {"ios": "https://dc.lft.to/lastmile_qr_scan", "android": "https://dc.lft.to/lastmile_qr_scan"}}, {"name": "7d4633f53aae66830848d07fecdc9fc3", "lon": -77.0075015, "lat": 38.8984955, "type": "electric_scooter", "fusion_lon": 0.0, "is_reserved": 0, "bike_id": "7d4633f53aae66830848d07fecdc9fc3", "fusion_lat": 0.0, "is_disabled": 0, "rental_uris": {"ios": "https://dc.lft.to/lastmile_qr_scan", "android": "https://dc.lft.to/lastmile_qr_scan"}}, {"name": "ca115936377428c792b657245cbe20c8", "lon": -77.05172933333333, "lat": 38.92345566666667, "type": "electric_scooter", "fusion_lon": 0.0, "is_reserved": 0, "bike_id": "ca115936377428c792b657245cbe20c8", "fusion_lat": 0.0, "is_disabled": 0, "rental_uris": {"ios": "https://dc.lft.to/lastmile_qr_scan", "android": "https://dc.lft.to/lastmile_qr_scan"}}, {"name": "c195ce07f1e2445fb46e524f149e3ece", "lon": -77.02530916666667, "lat": 38.9425745, "type": "electric_scooter", "fusion_lon": 0.0, "is_reserved": 0, "bike_id": "c195ce07f1e2445fb46e524f149e3ece", "fusion_lat": 0.0, "is_disabled": 0, "rental_uris": {"ios": "https://dc.lft.to/lastmile_qr_scan", "android": "https://dc.lft.to/lastmile_qr_scan"}}, {"name": "8b296290cd04e9a941213ac84a3f26a2", "lon": -76.978383, "lat": 38.87210316666667, "type": "electric_scooter", "fusion_lon": 0.0, "is_reserved": 0, "bike_id": "8b296290cd04e9a941213ac84a3f26a2", "fusion_lat": 0.0, "is_disabled": 0, "rental_uris": {"ios": "https://dc.lft.to/lastmile_qr_scan", "android": "https://dc.lft.to/lastmile_qr_scan"}}, {"name": "28021dde3571de2e817f84a6c5a50014", "lon": -77.04618516666666, "lat": 38.909539333333335, "type": "electric_scooter", "fusion_lon": 0.0, "is_reserved": 0, "bike_id": "28021dde3571de2e817f84a6c5a50014", "fusion_lat": 0.0, "is_disabled": 0, "rental_uris": {"ios": "https://dc.lft.to/lastmile_qr_scan", "android": "https://dc.lft.to/lastmile_qr_scan"}}, {"name": "042656c9860400390b73c6eef57ba55a", "lon": -77.02829483333333, "lat": 38.887394666666665, "type": "electric_scooter", "fusion_lon": 0.0, "is_reserved": 0, "bike_id": "042656c9860400390b73c6eef57ba55a", "fusion_lat": 0.0, "is_disabled": 0, "rental_uris": {"ios": "https://dc.lft.to/lastmile_qr_scan", "android": "https://dc.lft.to/lastmile_qr_scan"}}, {"name": "3cb67880b849438a8559aa4bf6f95cfd", "lon": -77.00127733333333, "lat": 38.87795583333333, "type": "electric_scooter", "fusion_lon": 0.0, "is_reserved": 0, "bike_id": "3cb67880b849438a8559aa4bf6f95cfd", "fusion_lat": 0.0, "is_disabled": 0, "rental_uris": {"ios": "https://dc.lft.to/lastmile_qr_scan", "android": "https://dc.lft.to/lastmile_qr_scan"}}, {"name": "2255d8c1c2834167d2053e108dbce36f", "lon": -76.93734166666667, "lat": 38.890179, "type": "electric_scooter", "fusion_lon": 0.0, "is_reserved": 0, "bike_id": "2255d8c1c2834167d2053e108dbce36f", "fusion_lat": 0.0, "is_disabled": 0, "rental_uris": {"ios": "https://dc.lft.to/lastmile_qr_scan", "android": "https://dc.lft.to/lastmile_qr_scan"}}, {"name": "d515593fa74cf49d212211b43395d54b", "lon": -77.02840116666667, "lat": 38.92645383333333, "type": "electric_bike", "fusion_lon": 0.0, "is_reserved": 0, "bike_id": "d515593fa74cf49d212211b43395d54b", "fusion_lat": 0.0, "is_disabled": 0, "rental_uris": {"ios": "https://dc.lft.to/lastmile_qr_scan", "android": "https://dc.lft.to/lastmile_qr_scan"}}, {"name": "bfaa4ed22c821a801ac67f15e46bb243", "lon": -77.03465183333333, "lat": 38.90569283333333, "type": "electric_scooter", "fusion_lon": 0.0, "is_reserved": 0, "bike_id": "bfaa4ed22c821a801ac67f15e46bb243", "fusion_lat": 0.0, "is_disabled": 0, "rental_uris": {"ios": "https://dc.lft.to/lastmile_qr_scan", "android": "https://dc.lft.to/lastmile_qr_scan"}}, {"name": "a1c2ff6eedd1bf57ff85a88d59bb5d84", "lon": -77.04002066666666, "lat": 38.8887065, "type": "electric_scooter", "fusion_lon": 0.0, "is_reserved": 0, "bike_id": "a1c2ff6eedd1bf57ff85a88d59bb5d84", "fusion_lat": 0.0, "is_disabled": 0, "rental_uris": {"ios": "https://dc.lft.to/lastmile_qr_scan", "android": "https://dc.lft.to/lastmile_qr_scan"}}, {"name": "eb31cc88a4898a2fc80f270bc526aa15", "lon": -76.998331, "lat": 38.88324083333333, "type": "electric_scooter", "fusion_lon": 0.0, "is_reserved": 0, "bike_id": "eb31cc88a4898a2fc80f270bc526aa15", "fusion_lat": 0.0, "is_disabled": 0, "rental_uris": {"ios": "https://dc.lft.to/lastmile_qr_scan", "android": "https://dc.lft.to/lastmile_qr_scan"}}, {"name": "5f915782b148aa1685ea921aaf2177ab", "lon": -77.0489375, "lat": 38.9029615, "type": "electric_scooter", "fusion_lon": 0.0, "is_reserved": 0, "bike_id": "5f915782b148aa1685ea921aaf2177ab", "fusion_lat": 0.0, "is_disabled": 0, "rental_uris": {"ios": "https://dc.lft.to/lastmile_qr_scan", "android": "https://dc.lft.to/lastmile_qr_scan"}}, {"name": "175e0b77ba4dd1f343db4e04a0549d54", "lon": -77.027034, "lat": 38.899522, "type": "electric_scooter", "fusion_lon": 0.0, "is_reserved": 0, "bike_id": "175e0b77ba4dd1f343db4e04a0549d54", "fusion_lat": 0.0, "is_disabled": 0, "rental_uris": {"ios": "https://dc.lft.to/lastmile_qr_scan", "android": "https://dc.lft.to/lastmile_qr_scan"}}, {"name": "bf0e9079f1a415603d887eebfb69a693", "lon": -77.0306995, "lat": 38.92731033333333, "type": "electric_scooter", "fusion_lon": 0.0, "is_reserved": 0, "bike_id": "bf0e9079f1a415603d887eebfb69a693", "fusion_lat": 0.0, "is_disabled": 0, "rental_uris": {"ios": "https://dc.lft.to/lastmile_qr_scan", "android": "https://dc.lft.to/lastmile_qr_scan"}}, {"name": "3e10ad81973f4ddcea55aff378e63c09", "lon": -77.03372066666667, "lat": 38.920429166666665, "type": "electric_scooter", "fusion_lon": 0.0, "is_reserved": 0, "bike_id": "3e10ad81973f4ddcea55aff378e63c09", "fusion_lat": 0.0, "is_disabled": 0, "rental_uris": {"ios": "https://dc.lft.to/lastmile_qr_scan", "android": "https://dc.lft.to/lastmile_qr_scan"}}, {"name": "36fee839dc3054cee19e96b595a05307", "lon": -77.076957, "lat": 38.840857166666666, "type": "electric_bike", "fusion_lon": 0.0, "is_reserved": 0, "bike_id": "36fee839dc3054cee19e96b595a05307", "fusion_lat": 0.0, "is_disabled": 0, "rental_uris": {"ios": "https://dc.lft.to/lastmile_qr_scan", "android": "https://dc.lft.to/lastmile_qr_scan"}}, {"name": "b82f80ac4a8b36dcfbf59f1b3ce8ddbf", "lon": -77.04327383333333, "lat": 38.89227733333333, "type": "electric_scooter", "fusion_lon": 0.0, "is_reserved": 0, "bike_id": "b82f80ac4a8b36dcfbf59f1b3ce8ddbf", "fusion_lat": 0.0, "is_disabled": 0, "rental_uris": {"ios": "https://dc.lft.to/lastmile_qr_scan", "android": "https://dc.lft.to/lastmile_qr_scan"}}, {"name": "0f630722e84244cb9deb1e0a81022387", "lon": -77.015898, "lat": 38.91719416666667, "type": "electric_scooter", "fusion_lon": 0.0, "is_reserved": 0, "bike_id": "0f630722e84244cb9deb1e0a81022387", "fusion_lat": 0.0, "is_disabled": 0, "rental_uris": {"ios": "https://dc.lft.to/lastmile_qr_scan", "android": "https://dc.lft.to/lastmile_qr_scan"}}, {"name": "c5ec9ace662c7175e6657e10bc7361da", "lon": -77.03072233333333, "lat": 38.89970266666667, "type": "electric_scooter", "fusion_lon": 0.0, "is_reserved": 0, "bike_id": "c5ec9ace662c7175e6657e10bc7361da", "fusion_lat": 0.0, "is_disabled": 0, "rental_uris": {"ios": "https://dc.lft.to/lastmile_qr_scan", "android": "https://dc.lft.to/lastmile_qr_scan"}}, {"name": "f5ace0d6d4aa80e44fd2a1366532b3b3", "lon": -77.029618, "lat": 38.923300833333336, "type": "electric_scooter", "fusion_lon": 0.0, "is_reserved": 0, "bike_id": "f5ace0d6d4aa80e44fd2a1366532b3b3", "fusion_lat": 0.0, "is_disabled": 0, "rental_uris": {"ios": "https://dc.lft.to/lastmile_qr_scan", "android": "https://dc.lft.to/lastmile_qr_scan"}}, {"name": "ec0aabe95772d3a9967b5fa8307f3dce", "lon": -77.02959733333333, "lat": 38.90512533333333, "type": "electric_scooter", "fusion_lon": 0.0, "is_reserved": 0, "bike_id": "ec0aabe95772d3a9967b5fa8307f3dce", "fusion_lat": 0.0, "is_disabled": 0, "rental_uris": {"ios": "https://dc.lft.to/lastmile_qr_scan", "android": "https://dc.lft.to/lastmile_qr_scan"}}, {"name": "52ffbd6d52d72346b1d029ebf78e428b", "lon": -77.04177633333333, "lat": 38.917358666666665, "type": "electric_scooter", "fusion_lon": 0.0, "is_reserved": 0, "bike_id": "52ffbd6d52d72346b1d029ebf78e428b", "fusion_lat": 0.0, "is_disabled": 0, "rental_uris": {"ios": "https://dc.lft.to/lastmile_qr_scan", "android": "https://dc.lft.to/lastmile_qr_scan"}}, {"name": "29016d98eea992b73fcd5c521902ed66", "lon": -77.01534233333334, "lat": 38.884154833333334, "type": "electric_scooter", "fusion_lon": 0.0, "is_reserved": 0, "bike_id": "29016d98eea992b73fcd5c521902ed66", "fusion_lat": 0.0, "is_disabled": 0, "rental_uris": {"ios": "https://dc.lft.to/lastmile_qr_scan", "android": "https://dc.lft.to/lastmile_qr_scan"}}, {"name": "82b0eff0580d5b3e5b27ac7bb640a63b", "lon": -77.00065466666666, "lat": 38.9160345, "type": "electric_scooter", "fusion_lon": 0.0, "is_reserved": 0, "bike_id": "82b0eff0580d5b3e5b27ac7bb640a63b", "fusion_lat": 0.0, "is_disabled": 0, "rental_uris": {"ios": "https://dc.lft.to/lastmile_qr_scan", "android": "https://dc.lft.to/lastmile_qr_scan"}}, {"name": "ec2825408e9283720b73e91b0d7ab12d", "lon": -76.999094, "lat": 38.923377333333335, "type": "electric_scooter", "fusion_lon": 0.0, "is_reserved": 0, "bike_id": "ec2825408e9283720b73e91b0d7ab12d", "fusion_lat": 0.0, "is_disabled": 0, "rental_uris": {"ios": "https://dc.lft.to/lastmile_qr_scan", "android": "https://dc.lft.to/lastmile_qr_scan"}}, {"name": "e3fac3180d84da9090868adff679f6fe", "lon": -77.02167966666667, "lat": 38.90197833333333, "type": "electric_scooter", "fusion_lon": 0.0, "is_reserved": 0, "bike_id": "e3fac3180d84da9090868adff679f6fe", "fusion_lat": 0.0, "is_disabled": 0, "rental_uris": {"ios": "https://dc.lft.to/lastmile_qr_scan", "android": "https://dc.lft.to/lastmile_qr_scan"}}, {"name": "7e1ac366d9f459e91dbc4c09457660b6", "lon": -77.02033866666666, "lat": 38.8927815, "type": "electric_scooter", "fusion_lon": 0.0, "is_reserved": 0, "bike_id": "7e1ac366d9f459e91dbc4c09457660b6", "fusion_lat": 0.0, "is_disabled": 0, "rental_uris": {"ios": "https://dc.lft.to/lastmile_qr_scan", "android": "https://dc.lft.to/lastmile_qr_scan"}}, {"name": "515e3bca1e57480241f3eecd76baf25e", "lon": -77.01081533333333, "lat": 38.8980855, "type": "electric_bike", "fusion_lon": 0.0, "is_reserved": 0, "bike_id": "515e3bca1e57480241f3eecd76baf25e", "fusion_lat": 0.0, "is_disabled": 0, "rental_uris": {"ios": "https://dc.lft.to/lastmile_qr_scan", "android": "https://dc.lft.to/lastmile_qr_scan"}}, {"name": "84e897544c96f875e5fab2cb3c032451", "lon": -77.01992333333334, "lat": 38.93055016666667, "type": "electric_scooter", "fusion_lon": 0.0, "is_reserved": 0, "bike_id": "84e897544c96f875e5fab2cb3c032451", "fusion_lat": 0.0, "is_disabled": 0, "rental_uris": {"ios": "https://dc.lft.to/lastmile_qr_scan", "android": "https://dc.lft.to/lastmile_qr_scan"}}, {"name": "92a0a18ce3ffea33812c1e28f4bb0e0b", "lon": -77.00779166666666, "lat": 38.9267365, "type": "electric_scooter", "fusion_lon": 0.0, "is_reserved": 0, "bike_id": "92a0a18ce3ffea33812c1e28f4bb0e0b", "fusion_lat": 0.0, "is_disabled": 0, "rental_uris": {"ios": "https://dc.lft.to/lastmile_qr_scan", "android": "https://dc.lft.to/lastmile_qr_scan"}}, {"name": "09163ed459b38fb7c51607843e71a1fd", "lon": -77.05324333333333, "lat": 38.927964333333335, "type": "electric_scooter", "fusion_lon": 0.0, "is_reserved": 0, "bike_id": "09163ed459b38fb7c51607843e71a1fd", "fusion_lat": 0.0, "is_disabled": 0, "rental_uris": {"ios": "https://dc.lft.to/lastmile_qr_scan", "android": "https://dc.lft.to/lastmile_qr_scan"}}, {"name": "368bb2055941a59a89e3ef425cf579b3", "lon": -77.04163283333334, "lat": 38.914926333333334, "type": "electric_scooter", "fusion_lon": 0.0, "is_reserved": 0, "bike_id": "368bb2055941a59a89e3ef425cf579b3", "fusion_lat": 0.0, "is_disabled": 0, "rental_uris": {"ios": "https://dc.lft.to/lastmile_qr_scan", "android": "https://dc.lft.to/lastmile_qr_scan"}}, {"name": "6084b35052dd8ed7e87fb064373c9a22", "lon": -77.025509, "lat": 38.94229133333333, "type": "electric_scooter", "fusion_lon": 0.0, "is_reserved": 0, "bike_id": "6084b35052dd8ed7e87fb064373c9a22", "fusion_lat": 0.0, "is_disabled": 0, "rental_uris": {"ios": "https://dc.lft.to/lastmile_qr_scan", "android": "https://dc.lft.to/lastmile_qr_scan"}}, {"name": "ff1770ded0b819fe56d2600e8d6cc823", "lon": -76.97246383333334, "lat": 38.854604333333334, "type": "electric_bike", "fusion_lon": 0.0, "is_reserved": 0, "bike_id": "ff1770ded0b819fe56d2600e8d6cc823", "fusion_lat": 0.0, "is_disabled": 0, "rental_uris": {"ios": "https://dc.lft.to/lastmile_qr_scan", "android": "https://dc.lft.to/lastmile_qr_scan"}}, {"name": "f94214421a492c037d4f68e95f83fe31", "lon": -77.038345, "lat": 38.908825666666665, "type": "electric_scooter", "fusion_lon": 0.0, "is_reserved": 0, "bike_id": "f94214421a492c037d4f68e95f83fe31", "fusion_lat": 0.0, "is_disabled": 0, "rental_uris": {"ios": "https://dc.lft.to/lastmile_qr_scan", "android": "https://dc.lft.to/lastmile_qr_scan"}}, {"name": "04f2edbb8becfcd7c785a04646d9cd06", "lon": -77.0020395, "lat": 38.900342, "type": "electric_scooter", "fusion_lon": 0.0, "is_reserved": 0, "bike_id": "04f2edbb8becfcd7c785a04646d9cd06", "fusion_lat": 0.0, "is_disabled": 0, "rental_uris": {"ios": "https://dc.lft.to/lastmile_qr_scan", "android": "https://dc.lft.to/lastmile_qr_scan"}}, {"name": "ddbe80ac7190324d039f11d20cf4bf17", "lon": -77.027158, "lat": 38.918205, "type": "electric_scooter", "fusion_lon": 0.0, "is_reserved": 0, "bike_id": "ddbe80ac7190324d039f11d20cf4bf17", "fusion_lat": 0.0, "is_disabled": 0, "rental_uris": {"ios": "https://dc.lft.to/lastmile_qr_scan", "android": "https://dc.lft.to/lastmile_qr_scan"}}, {"name": "46c847421cf5a8e49851f5eb47c7766a", "lon": -76.94634466666666, "lat": 38.89846633333333, "type": "electric_scooter", "fusion_lon": 0.0, "is_reserved": 0, "bike_id": "46c847421cf5a8e49851f5eb47c7766a", "fusion_lat": 0.0, "is_disabled": 0, "rental_uris": {"ios": "https://dc.lft.to/lastmile_qr_scan", "android": "https://dc.lft.to/lastmile_qr_scan"}}, {"name": "59ec1d68f241ed8be0a8175c06eca5d7", "lon": -76.980902, "lat": 38.881365, "type": "electric_bike", "fusion_lon": 0.0, "is_reserved": 0, "bike_id": "59ec1d68f241ed8be0a8175c06eca5d7", "fusion_lat": 0.0, "is_disabled": 0, "rental_uris": {"ios": "https://dc.lft.to/lastmile_qr_scan", "android": "https://dc.lft.to/lastmile_qr_scan"}}, {"name": "e36ffae745563fc86c97f7dadbb797ea", "lon": -77.0178345, "lat": 38.884103, "type": "electric_scooter", "fusion_lon": 0.0, "is_reserved": 0, "bike_id": "e36ffae745563fc86c97f7dadbb797ea", "fusion_lat": 0.0, "is_disabled": 0, "rental_uris": {"ios": "https://dc.lft.to/lastmile_qr_scan", "android": "https://dc.lft.to/lastmile_qr_scan"}}, {"name": "b01a5ce922c4bec1deaf92f7cca88b6a", "lon": -77.0512685, "lat": 38.92364383333334, "type": "electric_scooter", "fusion_lon": 0.0, "is_reserved": 0, "bike_id": "b01a5ce922c4bec1deaf92f7cca88b6a", "fusion_lat": 0.0, "is_disabled": 0, "rental_uris": {"ios": "https://dc.lft.to/lastmile_qr_scan", "android": "https://dc.lft.to/lastmile_qr_scan"}}, {"name": "fa392ace3ddd917740e97411ea1f96c7", "lon": -77.02293466666667, "lat": 38.9280925, "type": "electric_scooter", "fusion_lon": 0.0, "is_reserved": 0, "bike_id": "fa392ace3ddd917740e97411ea1f96c7", "fusion_lat": 0.0, "is_disabled": 0, "rental_uris": {"ios": "https://dc.lft.to/lastmile_qr_scan", "android": "https://dc.lft.to/lastmile_qr_scan"}}, {"name": "750b40ab99819abcbbad8dfda8cc2e1c", "lon": -77.056462, "lat": 38.924313166666664, "type": "electric_scooter", "fusion_lon": 0.0, "is_reserved": 0, "bike_id": "750b40ab99819abcbbad8dfda8cc2e1c", "fusion_lat": 0.0, "is_disabled": 0, "rental_uris": {"ios": "https://dc.lft.to/lastmile_qr_scan", "android": "https://dc.lft.to/lastmile_qr_scan"}}, {"name": "b007ac515db78af66930cbd92ea98c54", "lon": -77.07870266666667, "lat": 38.924687666666664, "type": "electric_scooter", "fusion_lon": 0.0, "is_reserved": 0, "bike_id": "b007ac515db78af66930cbd92ea98c54", "fusion_lat": 0.0, "is_disabled": 0, "rental_uris": {"ios": "https://dc.lft.to/lastmile_qr_scan", "android": "https://dc.lft.to/lastmile_qr_scan"}}, {"name": "3e46ed19b1aedd24dcbdf54c33d3c6b0", "lon": -77.02321016666667, "lat": 38.93059133333333, "type": "electric_scooter", "fusion_lon": 0.0, "is_reserved": 0, "bike_id": "3e46ed19b1aedd24dcbdf54c33d3c6b0", "fusion_lat": 0.0, "is_disabled": 0, "rental_uris": {"ios": "https://dc.lft.to/lastmile_qr_scan", "android": "https://dc.lft.to/lastmile_qr_scan"}}, {"name": "86f2676066b3341549615f125b666b0f", "lon": -77.0410555, "lat": 38.917283833333336, "type": "electric_scooter", "fusion_lon": 0.0, "is_reserved": 0, "bike_id": "86f2676066b3341549615f125b666b0f", "fusion_lat": 0.0, "is_disabled": 0, "rental_uris": {"ios": "https://dc.lft.to/lastmile_qr_scan", "android": "https://dc.lft.to/lastmile_qr_scan"}}, {"name": "97a30ca9343b859e2b76c045e18667e1", "lon": -76.9113375, "lat": 38.8942905, "type": "electric_scooter", "fusion_lon": 0.0, "is_reserved": 0, "bike_id": "97a30ca9343b859e2b76c045e18667e1", "fusion_lat": 0.0, "is_disabled": 0, "rental_uris": {"ios": "https://dc.lft.to/lastmile_qr_scan", "android": "https://dc.lft.to/lastmile_qr_scan"}}, {"name": "952e19a8c5759a9f79e2b47cc7985f5e", "lon": -77.05418216666666, "lat": 38.90250833333333, "type": "electric_scooter", "fusion_lon": 0.0, "is_reserved": 0, "bike_id": "952e19a8c5759a9f79e2b47cc7985f5e", "fusion_lat": 0.0, "is_disabled": 0, "rental_uris": {"ios": "https://dc.lft.to/lastmile_qr_scan", "android": "https://dc.lft.to/lastmile_qr_scan"}}, {"name": "70214741ed7ad3ea450f117e0eea9a56", "lon": -76.9985485, "lat": 38.88747883333333, "type": "electric_scooter", "fusion_lon": 0.0, "is_reserved": 0, "bike_id": "70214741ed7ad3ea450f117e0eea9a56", "fusion_lat": 0.0, "is_disabled": 0, "rental_uris": {"ios": "https://dc.lft.to/lastmile_qr_scan", "android": "https://dc.lft.to/lastmile_qr_scan"}}, {"name": "9c8b60a1dd989f2c76f050017ca0ea0a", "lon": -76.93368966666667, "lat": 38.89919016666666, "type": "electric_scooter", "fusion_lon": 0.0, "is_reserved": 0, "bike_id": "9c8b60a1dd989f2c76f050017ca0ea0a", "fusion_lat": 0.0, "is_disabled": 0, "rental_uris": {"ios": "https://dc.lft.to/lastmile_qr_scan", "android": "https://dc.lft.to/lastmile_qr_scan"}}, {"name": "506c4972b20e8ea94ed3f4757fa80b10", "lon": -76.99976283333334, "lat": 38.908463, "type": "electric_scooter", "fusion_lon": 0.0, "is_reserved": 0, "bike_id": "506c4972b20e8ea94ed3f4757fa80b10", "fusion_lat": 0.0, "is_disabled": 0, "rental_uris": {"ios": "https://dc.lft.to/lastmile_qr_scan", "android": "https://dc.lft.to/lastmile_qr_scan"}}, {"name": "b5a5f8e6ca446af0cac536560a7ddf9a", "lon": -77.031999, "lat": 38.917192, "type": "electric_scooter", "fusion_lon": 0.0, "is_reserved": 0, "bike_id": "b5a5f8e6ca446af0cac536560a7ddf9a", "fusion_lat": 0.0, "is_disabled": 0, "rental_uris": {"ios": "https://dc.lft.to/lastmile_qr_scan", "android": "https://dc.lft.to/lastmile_qr_scan"}}, {"name": "15a7f915f868e563ed863a43a59dcddb", "lon": -77.04196133333333, "lat": 38.92625266666667, "type": "electric_scooter", "fusion_lon": 0.0, "is_reserved": 0, "bike_id": "15a7f915f868e563ed863a43a59dcddb", "fusion_lat": 0.0, "is_disabled": 0, "rental_uris": {"ios": "https://dc.lft.to/lastmile_qr_scan", "android": "https://dc.lft.to/lastmile_qr_scan"}}, {"name": "82b73c2fd6d4588f75c5bfcd334c13bc", "lon": -76.97818616666666, "lat": 38.90175266666667, "type": "electric_scooter", "fusion_lon": 0.0, "is_reserved": 0, "bike_id": "82b73c2fd6d4588f75c5bfcd334c13bc", "fusion_lat": 0.0, "is_disabled": 0, "rental_uris": {"ios": "https://dc.lft.to/lastmile_qr_scan", "android": "https://dc.lft.to/lastmile_qr_scan"}}, {"name": "6f8657edc2965b5a64c0ac04f53ba129", "lon": -77.07150116666666, "lat": 38.920421833333336, "type": "electric_scooter", "fusion_lon": 0.0, "is_reserved": 0, "bike_id": "6f8657edc2965b5a64c0ac04f53ba129", "fusion_lat": 0.0, "is_disabled": 0, "rental_uris": {"ios": "https://dc.lft.to/lastmile_qr_scan", "android": "https://dc.lft.to/lastmile_qr_scan"}}, {"name": "28bbc2257b7165bfec53e83b2e8ac49c", "lon": -77.02435833333334, "lat": 38.909719, "type": "electric_scooter", "fusion_lon": 0.0, "is_reserved": 0, "bike_id": "28bbc2257b7165bfec53e83b2e8ac49c", "fusion_lat": 0.0, "is_disabled": 0, "rental_uris": {"ios": "https://dc.lft.to/lastmile_qr_scan", "android": "https://dc.lft.to/lastmile_qr_scan"}}, {"name": "0e49ce900c8b187f37a1d1506164f9bb", "lon": -77.03863933333334, "lat": 38.90690466666667, "type": "electric_scooter", "fusion_lon": 0.0, "is_reserved": 0, "bike_id": "0e49ce900c8b187f37a1d1506164f9bb", "fusion_lat": 0.0, "is_disabled": 0, "rental_uris": {"ios": "https://dc.lft.to/lastmile_qr_scan", "android": "https://dc.lft.to/lastmile_qr_scan"}}, {"name": "0fffb360c451e862134792d63121b013", "lon": -77.00890966666667, "lat": 38.924904833333336, "type": "electric_scooter", "fusion_lon": 0.0, "is_reserved": 0, "bike_id": "0fffb360c451e862134792d63121b013", "fusion_lat": 0.0, "is_disabled": 0, "rental_uris": {"ios": "https://dc.lft.to/lastmile_qr_scan", "android": "https://dc.lft.to/lastmile_qr_scan"}}, {"name": "1c7c555ebe027f1b259fa69e3ae5135e", "lon": -76.99866416666667, "lat": 38.923519166666665, "type": "electric_scooter", "fusion_lon": 0.0, "is_reserved": 0, "bike_id": "1c7c555ebe027f1b259fa69e3ae5135e", "fusion_lat": 0.0, "is_disabled": 0, "rental_uris": {"ios": "https://dc.lft.to/lastmile_qr_scan", "android": "https://dc.lft.to/lastmile_qr_scan"}}, {"name": "e216b93167234882fdc2bb28d323fa50", "lon": -76.9694145, "lat": 38.89749783333333, "type": "electric_bike", "fusion_lon": 0.0, "is_reserved": 0, "bike_id": "e216b93167234882fdc2bb28d323fa50", "fusion_lat": 0.0, "is_disabled": 0, "rental_uris": {"ios": "https://dc.lft.to/lastmile_qr_scan", "android": "https://dc.lft.to/lastmile_qr_scan"}}, {"name": "14832a70185fdf7d6ba3811a79d3f059", "lon": -76.98882366666666, "lat": 38.866589, "type": "electric_scooter", "fusion_lon": 0.0, "is_reserved": 0, "bike_id": "14832a70185fdf7d6ba3811a79d3f059", "fusion_lat": 0.0, "is_disabled": 0, "rental_uris": {"ios": "https://dc.lft.to/lastmile_qr_scan", "android": "https://dc.lft.to/lastmile_qr_scan"}}, {"name": "5766a13442435b948886829cb50c0984", "lon": -77.04803833333334, "lat": 38.89225716666667, "type": "electric_scooter", "fusion_lon": 0.0, "is_reserved": 0, "bike_id": "5766a13442435b948886829cb50c0984", "fusion_lat": 0.0, "is_disabled": 0, "rental_uris": {"ios": "https://dc.lft.to/lastmile_qr_scan", "android": "https://dc.lft.to/lastmile_qr_scan"}}, {"name": "d922ed4a0eafd5a04b9b859daffbcc2e", "lon": -77.009069, "lat": 38.8996685, "type": "electric_scooter", "fusion_lon": 0.0, "is_reserved": 0, "bike_id": "d922ed4a0eafd5a04b9b859daffbcc2e", "fusion_lat": 0.0, "is_disabled": 0, "rental_uris": {"ios": "https://dc.lft.to/lastmile_qr_scan", "android": "https://dc.lft.to/lastmile_qr_scan"}}, {"name": "301937843ee3f867f4e9c5b38490556e", "lon": -76.93756916666666, "lat": 38.8904195, "type": "electric_scooter", "fusion_lon": 0.0, "is_reserved": 0, "bike_id": "301937843ee3f867f4e9c5b38490556e", "fusion_lat": 0.0, "is_disabled": 0, "rental_uris": {"ios": "https://dc.lft.to/lastmile_qr_scan", "android": "https://dc.lft.to/lastmile_qr_scan"}}, {"name": "fe16c8e6f66c5ac0ef36bb7b9d3ab7ae", "lon": -77.2257915, "lat": 38.9297255, "type": "electric_bike", "fusion_lon": 0.0, "is_reserved": 0, "bike_id": "fe16c8e6f66c5ac0ef36bb7b9d3ab7ae", "fusion_lat": 0.0, "is_disabled": 0, "rental_uris": {"ios": "https://dc.lft.to/lastmile_qr_scan", "android": "https://dc.lft.to/lastmile_qr_scan"}}, {"name": "49f0aafb6310253260b46556a54b8e2d", "lon": -77.04300916666666, "lat": 38.926592166666666, "type": "electric_scooter", "fusion_lon": 0.0, "is_reserved": 0, "bike_id": "49f0aafb6310253260b46556a54b8e2d", "fusion_lat": 0.0, "is_disabled": 0, "rental_uris": {"ios": "https://dc.lft.to/lastmile_qr_scan", "android": "https://dc.lft.to/lastmile_qr_scan"}}, {"name": "687f378dbfeda7d26859a4799eaf675a", "lon": -77.04070733333333, "lat": 38.917871166666664, "type": "electric_scooter", "fusion_lon": 0.0, "is_reserved": 0, "bike_id": "687f378dbfeda7d26859a4799eaf675a", "fusion_lat": 0.0, "is_disabled": 0, "rental_uris": {"ios": "https://dc.lft.to/lastmile_qr_scan", "android": "https://dc.lft.to/lastmile_qr_scan"}}, {"name": "90a49c731afb299dec092cdf71177ac4", "lon": -77.02284983333334, "lat": 38.90168083333333, "type": "electric_scooter", "fusion_lon": 0.0, "is_reserved": 0, "bike_id": "90a49c731afb299dec092cdf71177ac4", "fusion_lat": 0.0, "is_disabled": 0, "rental_uris": {"ios": "https://dc.lft.to/lastmile_qr_scan", "android": "https://dc.lft.to/lastmile_qr_scan"}}, {"name": "eab4239d514b2de8ef39f1aaa4a4ffd8", "lon": -77.0512375, "lat": 38.9234865, "type": "electric_scooter", "fusion_lon": 0.0, "is_reserved": 0, "bike_id": "eab4239d514b2de8ef39f1aaa4a4ffd8", "fusion_lat": 0.0, "is_disabled": 0, "rental_uris": {"ios": "https://dc.lft.to/lastmile_qr_scan", "android": "https://dc.lft.to/lastmile_qr_scan"}}, {"name": "6e32e5264ef5d4ff04759509da3031d4", "lon": -77.02390683333333, "lat": 38.8962595, "type": "electric_scooter", "fusion_lon": 0.0, "is_reserved": 0, "bike_id": "6e32e5264ef5d4ff04759509da3031d4", "fusion_lat": 0.0, "is_disabled": 0, "rental_uris": {"ios": "https://dc.lft.to/lastmile_qr_scan", "android": "https://dc.lft.to/lastmile_qr_scan"}}, {"name": "88152a76409634070b66a25f5a8b53b8", "lon": -77.02203933333334, "lat": 38.90231633333333, "type": "electric_scooter", "fusion_lon": 0.0, "is_reserved": 0, "bike_id": "88152a76409634070b66a25f5a8b53b8", "fusion_lat": 0.0, "is_disabled": 0, "rental_uris": {"ios": "https://dc.lft.to/lastmile_qr_scan", "android": "https://dc.lft.to/lastmile_qr_scan"}}, {"name": "8d04ef6e2e9759d7cb9d0c27750de6e4", "lon": -77.02964066666667, "lat": 38.899444, "type": "electric_scooter", "fusion_lon": 0.0, "is_reserved": 0, "bike_id": "8d04ef6e2e9759d7cb9d0c27750de6e4", "fusion_lat": 0.0, "is_disabled": 0, "rental_uris": {"ios": "https://dc.lft.to/lastmile_qr_scan", "android": "https://dc.lft.to/lastmile_qr_scan"}}, {"name": "667ba43a46043c238b0ad2d660a3cdf0", "lon": -76.94682433333334, "lat": 38.88632066666667, "type": "electric_scooter", "fusion_lon": 0.0, "is_reserved": 0, "bike_id": "667ba43a46043c238b0ad2d660a3cdf0", "fusion_lat": 0.0, "is_disabled": 0, "rental_uris": {"ios": "https://dc.lft.to/lastmile_qr_scan", "android": "https://dc.lft.to/lastmile_qr_scan"}}, {"name": "0d531c012d2e56118bcb2f9dd8cf5dcc", "lon": -77.01898033333333, "lat": 38.92348166666667, "type": "electric_scooter", "fusion_lon": 0.0, "is_reserved": 0, "bike_id": "0d531c012d2e56118bcb2f9dd8cf5dcc", "fusion_lat": 0.0, "is_disabled": 0, "rental_uris": {"ios": "https://dc.lft.to/lastmile_qr_scan", "android": "https://dc.lft.to/lastmile_qr_scan"}}, {"name": "c9c3a9f2244ebd6d5fc625403e8e0436", "lon": -77.0351125, "lat": 38.931120666666665, "type": "electric_bike", "fusion_lon": 0.0, "is_reserved": 0, "bike_id": "c9c3a9f2244ebd6d5fc625403e8e0436", "fusion_lat": 0.0, "is_disabled": 0, "rental_uris": {"ios": "https://dc.lft.to/lastmile_qr_scan", "android": "https://dc.lft.to/lastmile_qr_scan"}}, {"name": "976e0c52905778a90331facac42d7717", "lon": -77.00213366666667, "lat": 38.90353066666667, "type": "electric_scooter", "fusion_lon": 0.0, "is_reserved": 0, "bike_id": "976e0c52905778a90331facac42d7717", "fusion_lat": 0.0, "is_disabled": 0, "rental_uris": {"ios": "https://dc.lft.to/lastmile_qr_scan", "android": "https://dc.lft.to/lastmile_qr_scan"}}, {"name": "19844ded2790e8b82b54b77b96145553", "lon": -77.023227, "lat": 38.897337, "type": "electric_scooter", "fusion_lon": 0.0, "is_reserved": 0, "bike_id": "19844ded2790e8b82b54b77b96145553", "fusion_lat": 0.0, "is_disabled": 0, "rental_uris": {"ios": "https://dc.lft.to/lastmile_qr_scan", "android": "https://dc.lft.to/lastmile_qr_scan"}}, {"name": "a65f72018615a7c86a9016fcca0245ee", "lon": -77.04022483333334, "lat": 38.9046805, "type": "electric_scooter", "fusion_lon": 0.0, "is_reserved": 0, "bike_id": "a65f72018615a7c86a9016fcca0245ee", "fusion_lat": 0.0, "is_disabled": 0, "rental_uris": {"ios": "https://dc.lft.to/lastmile_qr_scan", "android": "https://dc.lft.to/lastmile_qr_scan"}}, {"name": "de79368612ca68ffd0cfde48228d8450", "lon": -77.11224566666667, "lat": 38.81272883333333, "type": "electric_bike", "fusion_lon": 0.0, "is_reserved": 0, "bike_id": "de79368612ca68ffd0cfde48228d8450", "fusion_lat": 0.0, "is_disabled": 0, "rental_uris": {"ios": "https://dc.lft.to/lastmile_qr_scan", "android": "https://dc.lft.to/lastmile_qr_scan"}}, {"name": "9b68cc0d20dc870fc57c7143fad305d0", "lon": -76.93758383333333, "lat": 38.890485166666664, "type": "electric_scooter", "fusion_lon": 0.0, "is_reserved": 0, "bike_id": "9b68cc0d20dc870fc57c7143fad305d0", "fusion_lat": 0.0, "is_disabled": 0, "rental_uris": {"ios": "https://dc.lft.to/lastmile_qr_scan", "android": "https://dc.lft.to/lastmile_qr_scan"}}, {"name": "0b1652935a7beb7e3d3c8f84e82706b3", "lon": -77.02883366666667, "lat": 38.9172985, "type": "electric_scooter", "fusion_lon": 0.0, "is_reserved": 0, "bike_id": "0b1652935a7beb7e3d3c8f84e82706b3", "fusion_lat": 0.0, "is_disabled": 0, "rental_uris": {"ios": "https://dc.lft.to/lastmile_qr_scan", "android": "https://dc.lft.to/lastmile_qr_scan"}}, {"name": "ae8ca3728fbd77876acd5625f6ae0ac3", "lon": -77.03249883333334, "lat": 38.915663, "type": "electric_scooter", "fusion_lon": 0.0, "is_reserved": 0, "bike_id": "ae8ca3728fbd77876acd5625f6ae0ac3", "fusion_lat": 0.0, "is_disabled": 0, "rental_uris": {"ios": "https://dc.lft.to/lastmile_qr_scan", "android": "https://dc.lft.to/lastmile_qr_scan"}}, {"name": "cf0d62b037f69e920adbb26bb32449dc", "lon": -76.99758983333334, "lat": 38.887678, "type": "electric_scooter", "fusion_lon": 0.0, "is_reserved": 0, "bike_id": "cf0d62b037f69e920adbb26bb32449dc", "fusion_lat": 0.0, "is_disabled": 0, "rental_uris": {"ios": "https://dc.lft.to/lastmile_qr_scan", "android": "https://dc.lft.to/lastmile_qr_scan"}}, {"name": "6155f45eb7dfc80a3e0a32aff6cde308", "lon": -77.03499916666667, "lat": 38.963842666666665, "type": "electric_scooter", "fusion_lon": 0.0, "is_reserved": 0, "bike_id": "6155f45eb7dfc80a3e0a32aff6cde308", "fusion_lat": 0.0, "is_disabled": 0, "rental_uris": {"ios": "https://dc.lft.to/lastmile_qr_scan", "android": "https://dc.lft.to/lastmile_qr_scan"}}, {"name": "f5641939d5c62e4f1c76d8c798b36eee", "lon": -77.04183, "lat": 38.892224666666664, "type": "electric_scooter", "fusion_lon": 0.0, "is_reserved": 0, "bike_id": "f5641939d5c62e4f1c76d8c798b36eee", "fusion_lat": 0.0, "is_disabled": 0, "rental_uris": {"ios": "https://dc.lft.to/lastmile_qr_scan", "android": "https://dc.lft.to/lastmile_qr_scan"}}, {"name": "8725e77a27b8462088183cf0abcc3b35", "lon": -77.01772016666666, "lat": 38.98277683333333, "type": "electric_bike", "fusion_lon": 0.0, "is_reserved": 0, "bike_id": "8725e77a27b8462088183cf0abcc3b35", "fusion_lat": 0.0, "is_disabled": 0, "rental_uris": {"ios": "https://dc.lft.to/lastmile_qr_scan", "android": "https://dc.lft.to/lastmile_qr_scan"}}, {"name": "ace6f9a7ada316584f95ff9907c78d19", "lon": -76.98201883333333, "lat": 38.985093, "type": "electric_bike", "fusion_lon": 0.0, "is_reserved": 0, "bike_id": "ace6f9a7ada316584f95ff9907c78d19", "fusion_lat": 0.0, "is_disabled": 0, "rental_uris": {"ios": "https://dc.lft.to/lastmile_qr_scan", "android": "https://dc.lft.to/lastmile_qr_scan"}}, {"name": "d1cc2a4aea9d872255b9d1a421308584", "lon": -77.04440533333333, "lat": 38.90138366666667, "type": "electric_scooter", "fusion_lon": 0.0, "is_reserved": 0, "bike_id": "d1cc2a4aea9d872255b9d1a421308584", "fusion_lat": 0.0, "is_disabled": 0, "rental_uris": {"ios": "https://dc.lft.to/lastmile_qr_scan", "android": "https://dc.lft.to/lastmile_qr_scan"}}, {"name": "6357300a9e72abe6d7e6a31df3598949", "lon": -77.07306483333333, "lat": 38.864877166666666, "type": "electric_bike", "fusion_lon": 0.0, "is_reserved": 0, "bike_id": "6357300a9e72abe6d7e6a31df3598949", "fusion_lat": 0.0, "is_disabled": 0, "rental_uris": {"ios": "https://dc.lft.to/lastmile_qr_scan", "android": "https://dc.lft.to/lastmile_qr_scan"}}, {"name": "bd098d84568c0511c30bc05dd122a502", "lon": -76.99777266666666, "lat": 38.844339166666664, "type": "electric_scooter", "fusion_lon": 0.0, "is_reserved": 0, "bike_id": "bd098d84568c0511c30bc05dd122a502", "fusion_lat": 0.0, "is_disabled": 0, "rental_uris": {"ios": "https://dc.lft.to/lastmile_qr_scan", "android": "https://dc.lft.to/lastmile_qr_scan"}}, {"name": "48138f17bdb43ad10ca330877ed2303c", "lon": -77.012324, "lat": 38.931130833333334, "type": "electric_scooter", "fusion_lon": 0.0, "is_reserved": 0, "bike_id": "48138f17bdb43ad10ca330877ed2303c", "fusion_lat": 0.0, "is_disabled": 0, "rental_uris": {"ios": "https://dc.lft.to/lastmile_qr_scan", "android": "https://dc.lft.to/lastmile_qr_scan"}}, {"name": "4b4088e3f02a06f18ba4bb0284261297", "lon": -77.02100616666667, "lat": 38.92142483333333, "type": "electric_scooter", "fusion_lon": 0.0, "is_reserved": 0, "bike_id": "4b4088e3f02a06f18ba4bb0284261297", "fusion_lat": 0.0, "is_disabled": 0, "rental_uris": {"ios": "https://dc.lft.to/lastmile_qr_scan", "android": "https://dc.lft.to/lastmile_qr_scan"}}, {"name": "87e210a7181c5961128f996982c544dc", "lon": -76.949627, "lat": 38.8944285, "type": "electric_scooter", "fusion_lon": 0.0, "is_reserved": 0, "bike_id": "87e210a7181c5961128f996982c544dc", "fusion_lat": 0.0, "is_disabled": 0, "rental_uris": {"ios": "https://dc.lft.to/lastmile_qr_scan", "android": "https://dc.lft.to/lastmile_qr_scan"}}, {"name": "fa98f7c95a9e1fd93d1d11d57c31fa04", "lon": -77.04337716666667, "lat": 38.917820666666664, "type": "electric_scooter", "fusion_lon": 0.0, "is_reserved": 0, "bike_id": "fa98f7c95a9e1fd93d1d11d57c31fa04", "fusion_lat": 0.0, "is_disabled": 0, "rental_uris": {"ios": "https://dc.lft.to/lastmile_qr_scan", "android": "https://dc.lft.to/lastmile_qr_scan"}}, {"name": "04c96d90d437d1db239bf5f5c66a0e05", "lon": -76.97824816666666, "lat": 38.843736666666665, "type": "electric_bike", "fusion_lon": 0.0, "is_reserved": 0, "bike_id": "04c96d90d437d1db239bf5f5c66a0e05", "fusion_lat": 0.0, "is_disabled": 0, "rental_uris": {"ios": "https://dc.lft.to/lastmile_qr_scan", "android": "https://dc.lft.to/lastmile_qr_scan"}}, {"name": "c853170346a570d353124053d9ea06a1", "lon": -77.02187966666666, "lat": 38.91980266666667, "type": "electric_scooter", "fusion_lon": 0.0, "is_reserved": 0, "bike_id": "c853170346a570d353124053d9ea06a1", "fusion_lat": 0.0, "is_disabled": 0, "rental_uris": {"ios": "https://dc.lft.to/lastmile_qr_scan", "android": "https://dc.lft.to/lastmile_qr_scan"}}, {"name": "f0a2599bbf5883b5c49536e4fb529e7c", "lon": -76.93751883333333, "lat": 38.890455333333335, "type": "electric_scooter", "fusion_lon": 0.0, "is_reserved": 0, "bike_id": "f0a2599bbf5883b5c49536e4fb529e7c", "fusion_lat": 0.0, "is_disabled": 0, "rental_uris": {"ios": "https://dc.lft.to/lastmile_qr_scan", "android": "https://dc.lft.to/lastmile_qr_scan"}}, {"name": "18b8318dfefae9579aec35aacdeaaa71", "lon": -77.03763583333334, "lat": 38.929174, "type": "electric_scooter", "fusion_lon": 0.0, "is_reserved": 0, "bike_id": "18b8318dfefae9579aec35aacdeaaa71", "fusion_lat": 0.0, "is_disabled": 0, "rental_uris": {"ios": "https://dc.lft.to/lastmile_qr_scan", "android": "https://dc.lft.to/lastmile_qr_scan"}}, {"name": "e1f42ff96c2ec4df0b56be7130ae7471", "lon": -77.0320815, "lat": 38.896748, "type": "electric_scooter", "fusion_lon": 0.0, "is_reserved": 0, "bike_id": "e1f42ff96c2ec4df0b56be7130ae7471", "fusion_lat": 0.0, "is_disabled": 0, "rental_uris": {"ios": "https://dc.lft.to/lastmile_qr_scan", "android": "https://dc.lft.to/lastmile_qr_scan"}}, {"name": "df29c9bca966cbbabdaf4411db954ca0", "lon": -76.97443483333333, "lat": 38.904455666666664, "type": "electric_scooter", "fusion_lon": 0.0, "is_reserved": 0, "bike_id": "df29c9bca966cbbabdaf4411db954ca0", "fusion_lat": 0.0, "is_disabled": 0, "rental_uris": {"ios": "https://dc.lft.to/lastmile_qr_scan", "android": "https://dc.lft.to/lastmile_qr_scan"}}, {"name": "172e47f3021d4ca697494f84a510091d", "lon": -76.94382033333333, "lat": 38.8933005, "type": "electric_scooter", "fusion_lon": 0.0, "is_reserved": 0, "bike_id": "172e47f3021d4ca697494f84a510091d", "fusion_lat": 0.0, "is_disabled": 0, "rental_uris": {"ios": "https://dc.lft.to/lastmile_qr_scan", "android": "https://dc.lft.to/lastmile_qr_scan"}}, {"name": "635f9990e63e7edc7d1bed262cfa0a76", "lon": -77.03882216666666, "lat": 38.932581, "type": "electric_scooter", "fusion_lon": 0.0, "is_reserved": 0, "bike_id": "635f9990e63e7edc7d1bed262cfa0a76", "fusion_lat": 0.0, "is_disabled": 0, "rental_uris": {"ios": "https://dc.lft.to/lastmile_qr_scan", "android": "https://dc.lft.to/lastmile_qr_scan"}}, {"name": "2c981d5866023d1c02a72d7dbc8f5e96", "lon": -77.02192633333334, "lat": 38.89873083333333, "type": "electric_scooter", "fusion_lon": 0.0, "is_reserved": 0, "bike_id": "2c981d5866023d1c02a72d7dbc8f5e96", "fusion_lat": 0.0, "is_disabled": 0, "rental_uris": {"ios": "https://dc.lft.to/lastmile_qr_scan", "android": "https://dc.lft.to/lastmile_qr_scan"}}, {"name": "6d8173c11e3b522a57e01efad64bb734", "lon": -77.0076915, "lat": 38.90743633333334, "type": "electric_scooter", "fusion_lon": 0.0, "is_reserved": 0, "bike_id": "6d8173c11e3b522a57e01efad64bb734", "fusion_lat": 0.0, "is_disabled": 0, "rental_uris": {"ios": "https://dc.lft.to/lastmile_qr_scan", "android": "https://dc.lft.to/lastmile_qr_scan"}}, {"name": "c48ef21a2dc430d95045784b282a09db", "lon": -77.04494266666667, "lat": 38.89963233333334, "type": "electric_scooter", "fusion_lon": 0.0, "is_reserved": 0, "bike_id": "c48ef21a2dc430d95045784b282a09db", "fusion_lat": 0.0, "is_disabled": 0, "rental_uris": {"ios": "https://dc.lft.to/lastmile_qr_scan", "android": "https://dc.lft.to/lastmile_qr_scan"}}, {"name": "f08e800c2c2c872bbaf554a2c194db51", "lon": -77.10603416666666, "lat": 38.92898366666667, "type": "electric_bike", "fusion_lon": 0.0, "is_reserved": 0, "bike_id": "f08e800c2c2c872bbaf554a2c194db51", "fusion_lat": 0.0, "is_disabled": 0, "rental_uris": {"ios": "https://dc.lft.to/lastmile_qr_scan", "android": "https://dc.lft.to/lastmile_qr_scan"}}, {"name": "b8b10ade0e37679b09ecb46931937d7e", "lon": -77.02711883333333, "lat": 38.91765433333333, "type": "electric_scooter", "fusion_lon": 0.0, "is_reserved": 0, "bike_id": "b8b10ade0e37679b09ecb46931937d7e", "fusion_lat": 0.0, "is_disabled": 0, "rental_uris": {"ios": "https://dc.lft.to/lastmile_qr_scan", "android": "https://dc.lft.to/lastmile_qr_scan"}}, {"name": "d6f14f15156faa080a17ecc8ff957fe5", "lon": -76.95752066666667, "lat": 38.8843475, "type": "electric_scooter", "fusion_lon": 0.0, "is_reserved": 0, "bike_id": "d6f14f15156faa080a17ecc8ff957fe5", "fusion_lat": 0.0, "is_disabled": 0, "rental_uris": {"ios": "https://dc.lft.to/lastmile_qr_scan", "android": "https://dc.lft.to/lastmile_qr_scan"}}, {"name": "abb8987ece5cd0e9acc627b176c1d95b", "lon": -77.04561016666666, "lat": 38.913138333333336, "type": "electric_scooter", "fusion_lon": 0.0, "is_reserved": 0, "bike_id": "abb8987ece5cd0e9acc627b176c1d95b", "fusion_lat": 0.0, "is_disabled": 0, "rental_uris": {"ios": "https://dc.lft.to/lastmile_qr_scan", "android": "https://dc.lft.to/lastmile_qr_scan"}}, {"name": "1f071306e80c1b1c9024dd9ffda0b76a", "lon": -77.00342216666667, "lat": 38.89360966666667, "type": "electric_scooter", "fusion_lon": 0.0, "is_reserved": 0, "bike_id": "1f071306e80c1b1c9024dd9ffda0b76a", "fusion_lat": 0.0, "is_disabled": 0, "rental_uris": {"ios": "https://dc.lft.to/lastmile_qr_scan", "android": "https://dc.lft.to/lastmile_qr_scan"}}, {"name": "7f85c8f573a6710ed14751b6f7d48383", "lon": -77.044991, "lat": 38.90242516666667, "type": "electric_scooter", "fusion_lon": 0.0, "is_reserved": 0, "bike_id": "7f85c8f573a6710ed14751b6f7d48383", "fusion_lat": 0.0, "is_disabled": 0, "rental_uris": {"ios": "https://dc.lft.to/lastmile_qr_scan", "android": "https://dc.lft.to/lastmile_qr_scan"}}, {"name": "aef0a5ae8bb3bf4167950808e3108414", "lon": -77.0292295, "lat": 38.93335283333333, "type": "electric_scooter", "fusion_lon": 0.0, "is_reserved": 0, "bike_id": "aef0a5ae8bb3bf4167950808e3108414", "fusion_lat": 0.0, "is_disabled": 0, "rental_uris": {"ios": "https://dc.lft.to/lastmile_qr_scan", "android": "https://dc.lft.to/lastmile_qr_scan"}}, {"name": "ab39b4a469cbb531ebd2f7534e3231bb", "lon": -76.99773616666667, "lat": 38.844298, "type": "electric_scooter", "fusion_lon": 0.0, "is_reserved": 0, "bike_id": "ab39b4a469cbb531ebd2f7534e3231bb", "fusion_lat": 0.0, "is_disabled": 0, "rental_uris": {"ios": "https://dc.lft.to/lastmile_qr_scan", "android": "https://dc.lft.to/lastmile_qr_scan"}}, {"name": "76d86c013f83fc2f235af5e92c8635be", "lon": -77.04487266666666, "lat": 38.90980316666667, "type": "electric_scooter", "fusion_lon": 0.0, "is_reserved": 0, "bike_id": "76d86c013f83fc2f235af5e92c8635be", "fusion_lat": 0.0, "is_disabled": 0, "rental_uris": {"ios": "https://dc.lft.to/lastmile_qr_scan", "android": "https://dc.lft.to/lastmile_qr_scan"}}, {"name": "99d9cc61eecc09db0e9a6415dd6882f8", "lon": -77.023238, "lat": 38.9305885, "type": "electric_scooter", "fusion_lon": 0.0, "is_reserved": 0, "bike_id": "99d9cc61eecc09db0e9a6415dd6882f8", "fusion_lat": 0.0, "is_disabled": 0, "rental_uris": {"ios": "https://dc.lft.to/lastmile_qr_scan", "android": "https://dc.lft.to/lastmile_qr_scan"}}, {"name": "9e017e323401920e487ee0a8e09fb7f9", "lon": -77.03280083333334, "lat": 38.932557, "type": "electric_scooter", "fusion_lon": 0.0, "is_reserved": 0, "bike_id": "9e017e323401920e487ee0a8e09fb7f9", "fusion_lat": 0.0, "is_disabled": 0, "rental_uris": {"ios": "https://dc.lft.to/lastmile_qr_scan", "android": "https://dc.lft.to/lastmile_qr_scan"}}, {"name": "71c0c8667c3995e7002a35ab1818073d", "lon": -77.0126935, "lat": 38.8991285, "type": "electric_scooter", "fusion_lon": 0.0, "is_reserved": 0, "bike_id": "71c0c8667c3995e7002a35ab1818073d", "fusion_lat": 0.0, "is_disabled": 0, "rental_uris": {"ios": "https://dc.lft.to/lastmile_qr_scan", "android": "https://dc.lft.to/lastmile_qr_scan"}}, {"name": "897c7a2527a60aebcc39ca299cc67c9f", "lon": -77.0077055, "lat": 38.905742833333335, "type": "electric_scooter", "fusion_lon": 0.0, "is_reserved": 0, "bike_id": "897c7a2527a60aebcc39ca299cc67c9f", "fusion_lat": 0.0, "is_disabled": 0, "rental_uris": {"ios": "https://dc.lft.to/lastmile_qr_scan", "android": "https://dc.lft.to/lastmile_qr_scan"}}, {"name": "c5325eafd34b1cf098c7b06a5f254b9e", "lon": -76.99029483333334, "lat": 38.902915, "type": "electric_scooter", "fusion_lon": 0.0, "is_reserved": 0, "bike_id": "c5325eafd34b1cf098c7b06a5f254b9e", "fusion_lat": 0.0, "is_disabled": 0, "rental_uris": {"ios": "https://dc.lft.to/lastmile_qr_scan", "android": "https://dc.lft.to/lastmile_qr_scan"}}, {"name": "63fb0172ffb0b9b7764c5fa4e2e6b7c9", "lon": -77.0726735, "lat": 38.93530616666666, "type": "electric_scooter", "fusion_lon": 0.0, "is_reserved": 0, "bike_id": "63fb0172ffb0b9b7764c5fa4e2e6b7c9", "fusion_lat": 0.0, "is_disabled": 0, "rental_uris": {"ios": "https://dc.lft.to/lastmile_qr_scan", "android": "https://dc.lft.to/lastmile_qr_scan"}}, {"name": "16886174d1b40325bda018f8423a9651", "lon": -76.9825275, "lat": 38.90456566666667, "type": "electric_scooter", "fusion_lon": 0.0, "is_reserved": 0, "bike_id": "16886174d1b40325bda018f8423a9651", "fusion_lat": 0.0, "is_disabled": 0, "rental_uris": {"ios": "https://dc.lft.to/lastmile_qr_scan", "android": "https://dc.lft.to/lastmile_qr_scan"}}, {"name": "b245ce079acba45c39a3f14e84aaea09", "lon": -77.08581233333334, "lat": 38.844293, "type": "electric_bike", "fusion_lon": 0.0, "is_reserved": 0, "bike_id": "b245ce079acba45c39a3f14e84aaea09", "fusion_lat": 0.0, "is_disabled": 0, "rental_uris": {"ios": "https://dc.lft.to/lastmile_qr_scan", "android": "https://dc.lft.to/lastmile_qr_scan"}}, {"name": "db20ec0e93b26aa049b28f86d58029ef", "lon": -77.02520283333334, "lat": 38.9149625, "type": "electric_scooter", "fusion_lon": 0.0, "is_reserved": 0, "bike_id": "db20ec0e93b26aa049b28f86d58029ef", "fusion_lat": 0.0, "is_disabled": 0, "rental_uris": {"ios": "https://dc.lft.to/lastmile_qr_scan", "android": "https://dc.lft.to/lastmile_qr_scan"}}, {"name": "d57456e29f00c51bd95373889e69312e", "lon": -77.12078233333334, "lat": 38.85427216666667, "type": "electric_bike", "fusion_lon": 0.0, "is_reserved": 0, "bike_id": "d57456e29f00c51bd95373889e69312e", "fusion_lat": 0.0, "is_disabled": 0, "rental_uris": {"ios": "https://dc.lft.to/lastmile_qr_scan", "android": "https://dc.lft.to/lastmile_qr_scan"}}, {"name": "7bcf6410837a4a99085bb9f895fe23a9", "lon": -77.063299, "lat": 38.944239833333334, "type": "electric_scooter", "fusion_lon": 0.0, "is_reserved": 0, "bike_id": "7bcf6410837a4a99085bb9f895fe23a9", "fusion_lat": 0.0, "is_disabled": 0, "rental_uris": {"ios": "https://dc.lft.to/lastmile_qr_scan", "android": "https://dc.lft.to/lastmile_qr_scan"}}, {"name": "8b13e8705d222749c075a2a1b9ebb80e", "lon": -76.95418366666667, "lat": 38.89007083333333, "type": "electric_bike", "fusion_lon": 0.0, "is_reserved": 0, "bike_id": "8b13e8705d222749c075a2a1b9ebb80e", "fusion_lat": 0.0, "is_disabled": 0, "rental_uris": {"ios": "https://dc.lft.to/lastmile_qr_scan", "android": "https://dc.lft.to/lastmile_qr_scan"}}, {"name": "9009b547081ba5b1e19d2bebeae0b0fe", "lon": -77.04377566666666, "lat": 38.898657666666665, "type": "electric_scooter", "fusion_lon": 0.0, "is_reserved": 0, "bike_id": "9009b547081ba5b1e19d2bebeae0b0fe", "fusion_lat": 0.0, "is_disabled": 0, "rental_uris": {"ios": "https://dc.lft.to/lastmile_qr_scan", "android": "https://dc.lft.to/lastmile_qr_scan"}}, {"name": "5302105917820718d70b3b95f4addb0e", "lon": -77.04257783333334, "lat": 38.920702, "type": "electric_scooter", "fusion_lon": 0.0, "is_reserved": 0, "bike_id": "5302105917820718d70b3b95f4addb0e", "fusion_lat": 0.0, "is_disabled": 0, "rental_uris": {"ios": "https://dc.lft.to/lastmile_qr_scan", "android": "https://dc.lft.to/lastmile_qr_scan"}}, {"name": "b28324bfbcc59fab590940cf4c60ebf5", "lon": -77.04167866666667, "lat": 38.90619383333333, "type": "electric_bike", "fusion_lon": 0.0, "is_reserved": 0, "bike_id": "b28324bfbcc59fab590940cf4c60ebf5", "fusion_lat": 0.0, "is_disabled": 0, "rental_uris": {"ios": "https://dc.lft.to/lastmile_qr_scan", "android": "https://dc.lft.to/lastmile_qr_scan"}}, {"name": "7ecbe0bf406ef1859eae3fe947bcedb4", "lon": -77.0426015, "lat": 38.90951316666667, "type": "electric_scooter", "fusion_lon": 0.0, "is_reserved": 0, "bike_id": "7ecbe0bf406ef1859eae3fe947bcedb4", "fusion_lat": 0.0, "is_disabled": 0, "rental_uris": {"ios": "https://dc.lft.to/lastmile_qr_scan", "android": "https://dc.lft.to/lastmile_qr_scan"}}, {"name": "cb7f62cf77952314f4e1b2c051784785", "lon": -76.98092066666666, "lat": 38.9536035, "type": "electric_bike", "fusion_lon": 0.0, "is_reserved": 0, "bike_id": "cb7f62cf77952314f4e1b2c051784785", "fusion_lat": 0.0, "is_disabled": 0, "rental_uris": {"ios": "https://dc.lft.to/lastmile_qr_scan", "android": "https://dc.lft.to/lastmile_qr_scan"}}, {"name": "c8b1ee1ae869fdd6fc42dcebf4e66228", "lon": -77.0469285, "lat": 38.91585883333333, "type": "electric_scooter", "fusion_lon": 0.0, "is_reserved": 0, "bike_id": "c8b1ee1ae869fdd6fc42dcebf4e66228", "fusion_lat": 0.0, "is_disabled": 0, "rental_uris": {"ios": "https://dc.lft.to/lastmile_qr_scan", "android": "https://dc.lft.to/lastmile_qr_scan"}}, {"name": "7ed83e94d021c35e8a8ecc916057894c", "lon": -77.031627, "lat": 38.903863666666666, "type": "electric_scooter", "fusion_lon": 0.0, "is_reserved": 0, "bike_id": "7ed83e94d021c35e8a8ecc916057894c", "fusion_lat": 0.0, "is_disabled": 0, "rental_uris": {"ios": "https://dc.lft.to/lastmile_qr_scan", "android": "https://dc.lft.to/lastmile_qr_scan"}}, {"name": "a703d0e29ea702d88c6cec8faefdf2e4", "lon": -77.09808216666667, "lat": 38.8502755, "type": "electric_bike", "fusion_lon": 0.0, "is_reserved": 0, "bike_id": "a703d0e29ea702d88c6cec8faefdf2e4", "fusion_lat": 0.0, "is_disabled": 0, "rental_uris": {"ios": "https://dc.lft.to/lastmile_qr_scan", "android": "https://dc.lft.to/lastmile_qr_scan"}}, {"name": "4bc90ee3a122a66c178b864f714d5488", "lon": -77.023275, "lat": 38.907311166666666, "type": "electric_scooter", "fusion_lon": 0.0, "is_reserved": 0, "bike_id": "4bc90ee3a122a66c178b864f714d5488", "fusion_lat": 0.0, "is_disabled": 0, "rental_uris": {"ios": "https://dc.lft.to/lastmile_qr_scan", "android": "https://dc.lft.to/lastmile_qr_scan"}}, {"name": "c5ccef5cf87b01064aa86a05b4dd4be8", "lon": -77.04852333333334, "lat": 38.898470833333334, "type": "electric_scooter", "fusion_lon": 0.0, "is_reserved": 0, "bike_id": "c5ccef5cf87b01064aa86a05b4dd4be8", "fusion_lat": 0.0, "is_disabled": 0, "rental_uris": {"ios": "https://dc.lft.to/lastmile_qr_scan", "android": "https://dc.lft.to/lastmile_qr_scan"}}, {"name": "6eb8b81d095dac8d76a5cb7663b38bba", "lon": -77.025496, "lat": 38.94220116666666, "type": "electric_scooter", "fusion_lon": 0.0, "is_reserved": 0, "bike_id": "6eb8b81d095dac8d76a5cb7663b38bba", "fusion_lat": 0.0, "is_disabled": 0, "rental_uris": {"ios": "https://dc.lft.to/lastmile_qr_scan", "android": "https://dc.lft.to/lastmile_qr_scan"}}, {"name": "7a74779e23fe6b78a3fbf1a546e14aac", "lon": -76.94878566666667, "lat": 38.89553816666667, "type": "electric_scooter", "fusion_lon": 0.0, "is_reserved": 0, "bike_id": "7a74779e23fe6b78a3fbf1a546e14aac", "fusion_lat": 0.0, "is_disabled": 0, "rental_uris": {"ios": "https://dc.lft.to/lastmile_qr_scan", "android": "https://dc.lft.to/lastmile_qr_scan"}}, {"name": "75929446f6c7763557294a20976d5aa1", "lon": -77.03900433333334, "lat": 38.90626783333333, "type": "electric_scooter", "fusion_lon": 0.0, "is_reserved": 0, "bike_id": "75929446f6c7763557294a20976d5aa1", "fusion_lat": 0.0, "is_disabled": 0, "rental_uris": {"ios": "https://dc.lft.to/lastmile_qr_scan", "android": "https://dc.lft.to/lastmile_qr_scan"}}, {"name": "bb168260912214cc2ce9efc7d188056c", "lon": -77.0262015, "lat": 38.8968225, "type": "electric_scooter", "fusion_lon": 0.0, "is_reserved": 0, "bike_id": "bb168260912214cc2ce9efc7d188056c", "fusion_lat": 0.0, "is_disabled": 0, "rental_uris": {"ios": "https://dc.lft.to/lastmile_qr_scan", "android": "https://dc.lft.to/lastmile_qr_scan"}}, {"name": "972ceb81a4698ea774f0ec9f6938274f", "lon": -76.99553333333333, "lat": 38.92667933333333, "type": "electric_scooter", "fusion_lon": 0.0, "is_reserved": 0, "bike_id": "972ceb81a4698ea774f0ec9f6938274f", "fusion_lat": 0.0, "is_disabled": 0, "rental_uris": {"ios": "https://dc.lft.to/lastmile_qr_scan", "android": "https://dc.lft.to/lastmile_qr_scan"}}, {"name": "d894220dcf5c0cb692f8c15be11385ba", "lon": -76.995526, "lat": 38.862655333333336, "type": "electric_scooter", "fusion_lon": 0.0, "is_reserved": 0, "bike_id": "d894220dcf5c0cb692f8c15be11385ba", "fusion_lat": 0.0, "is_disabled": 0, "rental_uris": {"ios": "https://dc.lft.to/lastmile_qr_scan", "android": "https://dc.lft.to/lastmile_qr_scan"}}, {"name": "87195ca8469926c7ea712e3b4f3e0462", "lon": -77.078134, "lat": 38.849188166666664, "type": "electric_bike", "fusion_lon": 0.0, "is_reserved": 0, "bike_id": "87195ca8469926c7ea712e3b4f3e0462", "fusion_lat": 0.0, "is_disabled": 0, "rental_uris": {"ios": "https://dc.lft.to/lastmile_qr_scan", "android": "https://dc.lft.to/lastmile_qr_scan"}}, {"name": "0e7ac6ca2d02f0b62e359dd009275bfd", "lon": -77.0435265, "lat": 38.9080945, "type": "electric_scooter", "fusion_lon": 0.0, "is_reserved": 0, "bike_id": "0e7ac6ca2d02f0b62e359dd009275bfd", "fusion_lat": 0.0, "is_disabled": 0, "rental_uris": {"ios": "https://dc.lft.to/lastmile_qr_scan", "android": "https://dc.lft.to/lastmile_qr_scan"}}, {"name": "406a9c3a8e7d5c56caa84ad8a3ec3c9f", "lon": -77.03495066666666, "lat": 38.93273, "type": "electric_scooter", "fusion_lon": 0.0, "is_reserved": 0, "bike_id": "406a9c3a8e7d5c56caa84ad8a3ec3c9f", "fusion_lat": 0.0, "is_disabled": 0, "rental_uris": {"ios": "https://dc.lft.to/lastmile_qr_scan", "android": "https://dc.lft.to/lastmile_qr_scan"}}, {"name": "96510b8b5d5f2a0a37b0260525254cd5", "lon": -76.9934825, "lat": 38.900100333333334, "type": "electric_scooter", "fusion_lon": 0.0, "is_reserved": 0, "bike_id": "96510b8b5d5f2a0a37b0260525254cd5", "fusion_lat": 0.0, "is_disabled": 0, "rental_uris": {"ios": "https://dc.lft.to/lastmile_qr_scan", "android": "https://dc.lft.to/lastmile_qr_scan"}}, {"name": "141e23f9ec6feec96575577089bba265", "lon": -77.041875, "lat": 38.92307783333333, "type": "electric_scooter", "fusion_lon": 0.0, "is_reserved": 0, "bike_id": "141e23f9ec6feec96575577089bba265", "fusion_lat": 0.0, "is_disabled": 0, "rental_uris": {"ios": "https://dc.lft.to/lastmile_qr_scan", "android": "https://dc.lft.to/lastmile_qr_scan"}}, {"name": "e51fa6ea88befc0be913c51fc3b66d9f", "lon": -77.03355883333333, "lat": 38.9289325, "type": "electric_scooter", "fusion_lon": 0.0, "is_reserved": 0, "bike_id": "e51fa6ea88befc0be913c51fc3b66d9f", "fusion_lat": 0.0, "is_disabled": 0, "rental_uris": {"ios": "https://dc.lft.to/lastmile_qr_scan", "android": "https://dc.lft.to/lastmile_qr_scan"}}, {"name": "82b6e449b1c44e0cc28762bcc87d96d3", "lon": -77.05132233333333, "lat": 38.9071815, "type": "electric_scooter", "fusion_lon": 0.0, "is_reserved": 0, "bike_id": "82b6e449b1c44e0cc28762bcc87d96d3", "fusion_lat": 0.0, "is_disabled": 0, "rental_uris": {"ios": "https://dc.lft.to/lastmile_qr_scan", "android": "https://dc.lft.to/lastmile_qr_scan"}}, {"name": "708862c4a5b11120a35260b1ad41d025", "lon": -77.00582266666666, "lat": 38.90264233333333, "type": "electric_bike", "fusion_lon": 0.0, "is_reserved": 0, "bike_id": "708862c4a5b11120a35260b1ad41d025", "fusion_lat": 0.0, "is_disabled": 0, "rental_uris": {"ios": "https://dc.lft.to/lastmile_qr_scan", "android": "https://dc.lft.to/lastmile_qr_scan"}}, {"name": "565481ef97e296ff1f443698ed47199e", "lon": -76.998428, "lat": 38.900059, "type": "electric_scooter", "fusion_lon": 0.0, "is_reserved": 0, "bike_id": "565481ef97e296ff1f443698ed47199e", "fusion_lat": 0.0, "is_disabled": 0, "rental_uris": {"ios": "https://dc.lft.to/lastmile_qr_scan", "android": "https://dc.lft.to/lastmile_qr_scan"}}, {"name": "00da86fe09f20d157a4b76ee9efb97f8", "lon": -77.01294133333333, "lat": 39.00384916666667, "type": "electric_bike", "fusion_lon": 0.0, "is_reserved": 0, "bike_id": "00da86fe09f20d157a4b76ee9efb97f8", "fusion_lat": 0.0, "is_disabled": 0, "rental_uris": {"ios": "https://dc.lft.to/lastmile_qr_scan", "android": "https://dc.lft.to/lastmile_qr_scan"}}, {"name": "25948767b63d50e81465f4b8e3bb1dad", "lon": -77.007761, "lat": 38.9267475, "type": "electric_scooter", "fusion_lon": 0.0, "is_reserved": 0, "bike_id": "25948767b63d50e81465f4b8e3bb1dad", "fusion_lat": 0.0, "is_disabled": 0, "rental_uris": {"ios": "https://dc.lft.to/lastmile_qr_scan", "android": "https://dc.lft.to/lastmile_qr_scan"}}, {"name": "cbaa8aeb59de711d563c6b15f65ab3da", "lon": -77.02798216666666, "lat": 38.93295616666666, "type": "electric_scooter", "fusion_lon": 0.0, "is_reserved": 0, "bike_id": "cbaa8aeb59de711d563c6b15f65ab3da", "fusion_lat": 0.0, "is_disabled": 0, "rental_uris": {"ios": "https://dc.lft.to/lastmile_qr_scan", "android": "https://dc.lft.to/lastmile_qr_scan"}}, {"name": "4d7870dd15816e0d793c2d12a6068644", "lon": -77.02348533333333, "lat": 38.946137666666665, "type": "electric_scooter", "fusion_lon": 0.0, "is_reserved": 0, "bike_id": "4d7870dd15816e0d793c2d12a6068644", "fusion_lat": 0.0, "is_disabled": 0, "rental_uris": {"ios": "https://dc.lft.to/lastmile_qr_scan", "android": "https://dc.lft.to/lastmile_qr_scan"}}, {"name": "89d068bb358e52aea96309d272c317d6", "lon": -77.02169483333333, "lat": 38.926197333333334, "type": "electric_scooter", "fusion_lon": 0.0, "is_reserved": 0, "bike_id": "89d068bb358e52aea96309d272c317d6", "fusion_lat": 0.0, "is_disabled": 0, "rental_uris": {"ios": "https://dc.lft.to/lastmile_qr_scan", "android": "https://dc.lft.to/lastmile_qr_scan"}}, {"name": "a6035654ca322270580ff921b732e207", "lon": -77.02491933333333, "lat": 38.94188466666667, "type": "electric_scooter", "fusion_lon": 0.0, "is_reserved": 0, "bike_id": "a6035654ca322270580ff921b732e207", "fusion_lat": 0.0, "is_disabled": 0, "rental_uris": {"ios": "https://dc.lft.to/lastmile_qr_scan", "android": "https://dc.lft.to/lastmile_qr_scan"}}, {"name": "fc5e4775b8636c32e2121cdbc26d6af8", "lon": -76.9442145, "lat": 38.96620216666667, "type": "electric_bike", "fusion_lon": 0.0, "is_reserved": 0, "bike_id": "fc5e4775b8636c32e2121cdbc26d6af8", "fusion_lat": 0.0, "is_disabled": 0, "rental_uris": {"ios": "https://dc.lft.to/lastmile_qr_scan", "android": "https://dc.lft.to/lastmile_qr_scan"}}, {"name": "8b088651d61d91bc4b52170c870aad61", "lon": -76.923289, "lat": 38.8711245, "type": "electric_bike", "fusion_lon": 0.0, "is_reserved": 0, "bike_id": "8b088651d61d91bc4b52170c870aad61", "fusion_lat": 0.0, "is_disabled": 0, "rental_uris": {"ios": "https://dc.lft.to/lastmile_qr_scan", "android": "https://dc.lft.to/lastmile_qr_scan"}}, {"name": "e990e03a0c0e656e8ad9ad9b8dae63ff", "lon": -76.96712216666667, "lat": 38.847968, "type": "electric_scooter", "fusion_lon": 0.0, "is_reserved": 0, "bike_id": "e990e03a0c0e656e8ad9ad9b8dae63ff", "fusion_lat": 0.0, "is_disabled": 0, "rental_uris": {"ios": "https://dc.lft.to/lastmile_qr_scan", "android": "https://dc.lft.to/lastmile_qr_scan"}}, {"name": "f487dea1dc03b0ed47e6d2649ab59ef5", "lon": -76.99856433333333, "lat": 38.900235333333335, "type": "electric_scooter", "fusion_lon": 0.0, "is_reserved": 0, "bike_id": "f487dea1dc03b0ed47e6d2649ab59ef5", "fusion_lat": 0.0, "is_disabled": 0, "rental_uris": {"ios": "https://dc.lft.to/lastmile_qr_scan", "android": "https://dc.lft.to/lastmile_qr_scan"}}, {"name": "0bb295fa9c90a39a57ef54018774a5b8", "lon": -77.02892616666666, "lat": 38.904327, "type": "electric_scooter", "fusion_lon": 0.0, "is_reserved": 0, "bike_id": "0bb295fa9c90a39a57ef54018774a5b8", "fusion_lat": 0.0, "is_disabled": 0, "rental_uris": {"ios": "https://dc.lft.to/lastmile_qr_scan", "android": "https://dc.lft.to/lastmile_qr_scan"}}, {"name": "a6b87d32ddc6175daf5400ec8e1c6fd6", "lon": -77.03996933333333, "lat": 38.90372883333333, "type": "electric_scooter", "fusion_lon": 0.0, "is_reserved": 0, "bike_id": "a6b87d32ddc6175daf5400ec8e1c6fd6", "fusion_lat": 0.0, "is_disabled": 0, "rental_uris": {"ios": "https://dc.lft.to/lastmile_qr_scan", "android": "https://dc.lft.to/lastmile_qr_scan"}}, {"name": "ab5f7bdc05379a7d48c391ce4432b448", "lon": -77.05793716666666, "lat": 38.901255, "type": "electric_bike", "fusion_lon": 0.0, "is_reserved": 0, "bike_id": "ab5f7bdc05379a7d48c391ce4432b448", "fusion_lat": 0.0, "is_disabled": 0, "rental_uris": {"ios": "https://dc.lft.to/lastmile_qr_scan", "android": "https://dc.lft.to/lastmile_qr_scan"}}, {"name": "d22b5fdcdeebec66c94b89a40b17eb55", "lon": -77.02400433333334, "lat": 38.917470333333334, "type": "electric_scooter", "fusion_lon": 0.0, "is_reserved": 0, "bike_id": "d22b5fdcdeebec66c94b89a40b17eb55", "fusion_lat": 0.0, "is_disabled": 0, "rental_uris": {"ios": "https://dc.lft.to/lastmile_qr_scan", "android": "https://dc.lft.to/lastmile_qr_scan"}}, {"name": "462e5aaa3f2f665f633ecc70676fc218", "lon": -77.03324533333333, "lat": 38.913292, "type": "electric_scooter", "fusion_lon": 0.0, "is_reserved": 0, "bike_id": "462e5aaa3f2f665f633ecc70676fc218", "fusion_lat": 0.0, "is_disabled": 0, "rental_uris": {"ios": "https://dc.lft.to/lastmile_qr_scan", "android": "https://dc.lft.to/lastmile_qr_scan"}}, {"name": "e031b46478350a8710530221697781e8", "lon": -76.9990015, "lat": 38.94693183333333, "type": "electric_scooter", "fusion_lon": 0.0, "is_reserved": 0, "bike_id": "e031b46478350a8710530221697781e8", "fusion_lat": 0.0, "is_disabled": 0, "rental_uris": {"ios": "https://dc.lft.to/lastmile_qr_scan", "android": "https://dc.lft.to/lastmile_qr_scan"}}, {"name": "0a1e762f169acdb8548e2be8ecd403d1", "lon": -77.04441733333333, "lat": 38.92189466666667, "type": "electric_scooter", "fusion_lon": 0.0, "is_reserved": 0, "bike_id": "0a1e762f169acdb8548e2be8ecd403d1", "fusion_lat": 0.0, "is_disabled": 0, "rental_uris": {"ios": "https://dc.lft.to/lastmile_qr_scan", "android": "https://dc.lft.to/lastmile_qr_scan"}}, {"name": "15d67017e7444e7ac8e57610cdb9238e", "lon": -77.02099116666666, "lat": 38.921550833333335, "type": "electric_scooter", "fusion_lon": 0.0, "is_reserved": 0, "bike_id": "15d67017e7444e7ac8e57610cdb9238e", "fusion_lat": 0.0, "is_disabled": 0, "rental_uris": {"ios": "https://dc.lft.to/lastmile_qr_scan", "android": "https://dc.lft.to/lastmile_qr_scan"}}, {"name": "bdfba2e9f13f4ebb1875d9b66a4638c1", "lon": -76.9951105, "lat": 38.862568833333334, "type": "electric_scooter", "fusion_lon": 0.0, "is_reserved": 0, "bike_id": "bdfba2e9f13f4ebb1875d9b66a4638c1", "fusion_lat": 0.0, "is_disabled": 0, "rental_uris": {"ios": "https://dc.lft.to/lastmile_qr_scan", "android": "https://dc.lft.to/lastmile_qr_scan"}}, {"name": "6f44702f9f716dbbc642946fba00a3e9", "lon": -77.02346816666666, "lat": 38.94617233333334, "type": "electric_scooter", "fusion_lon": 0.0, "is_reserved": 0, "bike_id": "6f44702f9f716dbbc642946fba00a3e9", "fusion_lat": 0.0, "is_disabled": 0, "rental_uris": {"ios": "https://dc.lft.to/lastmile_qr_scan", "android": "https://dc.lft.to/lastmile_qr_scan"}}, {"name": "84f6ae2f5c7a911564309b6bba07b8d9", "lon": -76.990561, "lat": 38.863589, "type": "electric_scooter", "fusion_lon": 0.0, "is_reserved": 0, "bike_id": "84f6ae2f5c7a911564309b6bba07b8d9", "fusion_lat": 0.0, "is_disabled": 0, "rental_uris": {"ios": "https://dc.lft.to/lastmile_qr_scan", "android": "https://dc.lft.to/lastmile_qr_scan"}}, {"name": "f37f0eb7e3e271781c75883196873176", "lon": -77.11761333333334, "lat": 39.0491655, "type": "electric_bike", "fusion_lon": 0.0, "is_reserved": 0, "bike_id": "f37f0eb7e3e271781c75883196873176", "fusion_lat": 0.0, "is_disabled": 0, "rental_uris": {"ios": "https://dc.lft.to/lastmile_qr_scan", "android": "https://dc.lft.to/lastmile_qr_scan"}}, {"name": "63b57bc5329dfaf7a0ea076ac99291fd", "lon": -77.0310775, "lat": 38.89478066666667, "type": "electric_scooter", "fusion_lon": 0.0, "is_reserved": 0, "bike_id": "63b57bc5329dfaf7a0ea076ac99291fd", "fusion_lat": 0.0, "is_disabled": 0, "rental_uris": {"ios": "https://dc.lft.to/lastmile_qr_scan", "android": "https://dc.lft.to/lastmile_qr_scan"}}, {"name": "1dee3d3da3068398d4d64c4edcd8ff4f", "lon": -77.05167516666667, "lat": 38.9032395, "type": "electric_scooter", "fusion_lon": 0.0, "is_reserved": 0, "bike_id": "1dee3d3da3068398d4d64c4edcd8ff4f", "fusion_lat": 0.0, "is_disabled": 0, "rental_uris": {"ios": "https://dc.lft.to/lastmile_qr_scan", "android": "https://dc.lft.to/lastmile_qr_scan"}}, {"name": "63ba00c934a87cc9cbb5c49506a0941a", "lon": -76.99616066666667, "lat": 38.88494583333333, "type": "electric_scooter", "fusion_lon": 0.0, "is_reserved": 0, "bike_id": "63ba00c934a87cc9cbb5c49506a0941a", "fusion_lat": 0.0, "is_disabled": 0, "rental_uris": {"ios": "https://dc.lft.to/lastmile_qr_scan", "android": "https://dc.lft.to/lastmile_qr_scan"}}, {"name": "0484168e33480844d4f78b27ff23c9b2", "lon": -76.97184883333334, "lat": 38.91789083333333, "type": "electric_bike", "fusion_lon": 0.0, "is_reserved": 0, "bike_id": "0484168e33480844d4f78b27ff23c9b2", "fusion_lat": 0.0, "is_disabled": 0, "rental_uris": {"ios": "https://dc.lft.to/lastmile_qr_scan", "android": "https://dc.lft.to/lastmile_qr_scan"}}, {"name": "3702e1fec31871a1080498000416dbe7", "lon": -77.04778333333333, "lat": 38.901567, "type": "electric_scooter", "fusion_lon": 0.0, "is_reserved": 0, "bike_id": "3702e1fec31871a1080498000416dbe7", "fusion_lat": 0.0, "is_disabled": 0, "rental_uris": {"ios": "https://dc.lft.to/lastmile_qr_scan", "android": "https://dc.lft.to/lastmile_qr_scan"}}, {"name": "b1768e756aedabe426a2a43b55e5c7dd", "lon": -76.999075, "lat": 38.9245905, "type": "electric_scooter", "fusion_lon": 0.0, "is_reserved": 0, "bike_id": "b1768e756aedabe426a2a43b55e5c7dd", "fusion_lat": 0.0, "is_disabled": 0, "rental_uris": {"ios": "https://dc.lft.to/lastmile_qr_scan", "android": "https://dc.lft.to/lastmile_qr_scan"}}, {"name": "068cf06dad62f2db60d1500f3512b032", "lon": -77.131424, "lat": 38.86173016666667, "type": "electric_bike", "fusion_lon": 0.0, "is_reserved": 0, "bike_id": "068cf06dad62f2db60d1500f3512b032", "fusion_lat": 0.0, "is_disabled": 0, "rental_uris": {"ios": "https://dc.lft.to/lastmile_qr_scan", "android": "https://dc.lft.to/lastmile_qr_scan"}}, {"name": "26f41464947c1a68f1e690308467b57f", "lon": -77.01914616666667, "lat": 38.92368733333333, "type": "electric_scooter", "fusion_lon": 0.0, "is_reserved": 0, "bike_id": "26f41464947c1a68f1e690308467b57f", "fusion_lat": 0.0, "is_disabled": 0, "rental_uris": {"ios": "https://dc.lft.to/lastmile_qr_scan", "android": "https://dc.lft.to/lastmile_qr_scan"}}, {"name": "050d96f8d12bda2f81ebb774991bbfcb", "lon": -77.05501216666667, "lat": 38.9366215, "type": "electric_scooter", "fusion_lon": 0.0, "is_reserved": 0, "bike_id": "050d96f8d12bda2f81ebb774991bbfcb", "fusion_lat": 0.0, "is_disabled": 0, "rental_uris": {"ios": "https://dc.lft.to/lastmile_qr_scan", "android": "https://dc.lft.to/lastmile_qr_scan"}}, {"name": "116011a9bea5994de9d0c9c766a83cd9", "lon": -77.05153216666666, "lat": 38.90397133333333, "type": "electric_scooter", "fusion_lon": 0.0, "is_reserved": 0, "bike_id": "116011a9bea5994de9d0c9c766a83cd9", "fusion_lat": 0.0, "is_disabled": 0, "rental_uris": {"ios": "https://dc.lft.to/lastmile_qr_scan", "android": "https://dc.lft.to/lastmile_qr_scan"}}, {"name": "fd33d686cae2b6e206d855a5b2e68dba", "lon": -77.07410433333334, "lat": 38.929146, "type": "electric_scooter", "fusion_lon": 0.0, "is_reserved": 0, "bike_id": "fd33d686cae2b6e206d855a5b2e68dba", "fusion_lat": 0.0, "is_disabled": 0, "rental_uris": {"ios": "https://dc.lft.to/lastmile_qr_scan", "android": "https://dc.lft.to/lastmile_qr_scan"}}, {"name": "0ad70ad2971de9ebf9a5d89ae5e49274", "lon": -77.04312433333334, "lat": 38.88110366666667, "type": "electric_scooter", "fusion_lon": 0.0, "is_reserved": 0, "bike_id": "0ad70ad2971de9ebf9a5d89ae5e49274", "fusion_lat": 0.0, "is_disabled": 0, "rental_uris": {"ios": "https://dc.lft.to/lastmile_qr_scan", "android": "https://dc.lft.to/lastmile_qr_scan"}}, {"name": "52e399419459d0a76a110ed84ef09a4b", "lon": -77.00382233333333, "lat": 38.9074265, "type": "electric_scooter", "fusion_lon": 0.0, "is_reserved": 0, "bike_id": "52e399419459d0a76a110ed84ef09a4b", "fusion_lat": 0.0, "is_disabled": 0, "rental_uris": {"ios": "https://dc.lft.to/lastmile_qr_scan", "android": "https://dc.lft.to/lastmile_qr_scan"}}, {"name": "7d38b77d0c59d7b3aa2f8e45119bbe19", "lon": -77.036639, "lat": 38.92343233333333, "type": "electric_scooter", "fusion_lon": 0.0, "is_reserved": 0, "bike_id": "7d38b77d0c59d7b3aa2f8e45119bbe19", "fusion_lat": 0.0, "is_disabled": 0, "rental_uris": {"ios": "https://dc.lft.to/lastmile_qr_scan", "android": "https://dc.lft.to/lastmile_qr_scan"}}, {"name": "a1c449faab3673b4c8eedb2017c5bd9d", "lon": -76.95096883333333, "lat": 38.8845405, "type": "electric_scooter", "fusion_lon": 0.0, "is_reserved": 0, "bike_id": "a1c449faab3673b4c8eedb2017c5bd9d", "fusion_lat": 0.0, "is_disabled": 0, "rental_uris": {"ios": "https://dc.lft.to/lastmile_qr_scan", "android": "https://dc.lft.to/lastmile_qr_scan"}}, {"name": "0235bb2213da9083a2368b638766b6be", "lon": -77.01793716666667, "lat": 38.9203335, "type": "electric_scooter", "fusion_lon": 0.0, "is_reserved": 0, "bike_id": "0235bb2213da9083a2368b638766b6be", "fusion_lat": 0.0, "is_disabled": 0, "rental_uris": {"ios": "https://dc.lft.to/lastmile_qr_scan", "android": "https://dc.lft.to/lastmile_qr_scan"}}, {"name": "6d8598c0f1dfa2e5d204b45a28a900fb", "lon": -77.0020375, "lat": 38.8194065, "type": "electric_bike", "fusion_lon": 0.0, "is_reserved": 0, "bike_id": "6d8598c0f1dfa2e5d204b45a28a900fb", "fusion_lat": 0.0, "is_disabled": 0, "rental_uris": {"ios": "https://dc.lft.to/lastmile_qr_scan", "android": "https://dc.lft.to/lastmile_qr_scan"}}, {"name": "e96177d4d2918aa2555a5b5ee536fad6", "lon": -77.041317, "lat": 38.80505216666667, "type": "electric_bike", "fusion_lon": 0.0, "is_reserved": 0, "bike_id": "e96177d4d2918aa2555a5b5ee536fad6", "fusion_lat": 0.0, "is_disabled": 0, "rental_uris": {"ios": "https://dc.lft.to/lastmile_qr_scan", "android": "https://dc.lft.to/lastmile_qr_scan"}}, {"name": "e663b2bc42244422b0535d51b8e9ad6b", "lon": -77.01207183333334, "lat": 38.87082816666667, "type": "electric_bike", "fusion_lon": 0.0, "is_reserved": 0, "bike_id": "e663b2bc42244422b0535d51b8e9ad6b", "fusion_lat": 0.0, "is_disabled": 0, "rental_uris": {"ios": "https://dc.lft.to/lastmile_qr_scan", "android": "https://dc.lft.to/lastmile_qr_scan"}}, {"name": "77a5350c9238f780b627b4b9504e32bd", "lon": -77.04236766666666, "lat": 38.92179816666667, "type": "electric_scooter", "fusion_lon": 0.0, "is_reserved": 0, "bike_id": "77a5350c9238f780b627b4b9504e32bd", "fusion_lat": 0.0, "is_disabled": 0, "rental_uris": {"ios": "https://dc.lft.to/lastmile_qr_scan", "android": "https://dc.lft.to/lastmile_qr_scan"}}, {"name": "e2ed12467c1b5b5eab1554c3de378565", "lon": -77.04031216666667, "lat": 38.922758, "type": "electric_scooter", "fusion_lon": 0.0, "is_reserved": 0, "bike_id": "e2ed12467c1b5b5eab1554c3de378565", "fusion_lat": 0.0, "is_disabled": 0, "rental_uris": {"ios": "https://dc.lft.to/lastmile_qr_scan", "android": "https://dc.lft.to/lastmile_qr_scan"}}, {"name": "45deb448a815f215a4c0571ac39af869", "lon": -77.0307965, "lat": 38.907511, "type": "electric_scooter", "fusion_lon": 0.0, "is_reserved": 0, "bike_id": "45deb448a815f215a4c0571ac39af869", "fusion_lat": 0.0, "is_disabled": 0, "rental_uris": {"ios": "https://dc.lft.to/lastmile_qr_scan", "android": "https://dc.lft.to/lastmile_qr_scan"}}, {"name": "e7fd35c4342e5ec5f7c58511d691ccf5", "lon": -77.01364866666667, "lat": 38.887076, "type": "electric_scooter", "fusion_lon": 0.0, "is_reserved": 0, "bike_id": "e7fd35c4342e5ec5f7c58511d691ccf5", "fusion_lat": 0.0, "is_disabled": 0, "rental_uris": {"ios": "https://dc.lft.to/lastmile_qr_scan", "android": "https://dc.lft.to/lastmile_qr_scan"}}, {"name": "71702ed16461f1d979da84f993d56762", "lon": -76.933661, "lat": 38.8991765, "type": "electric_scooter", "fusion_lon": 0.0, "is_reserved": 0, "bike_id": "71702ed16461f1d979da84f993d56762", "fusion_lat": 0.0, "is_disabled": 0, "rental_uris": {"ios": "https://dc.lft.to/lastmile_qr_scan", "android": "https://dc.lft.to/lastmile_qr_scan"}}, {"name": "61d7712b3f83a2f3c08d772f07066e23", "lon": -77.0220925, "lat": 38.905433, "type": "electric_scooter", "fusion_lon": 0.0, "is_reserved": 0, "bike_id": "61d7712b3f83a2f3c08d772f07066e23", "fusion_lat": 0.0, "is_disabled": 0, "rental_uris": {"ios": "https://dc.lft.to/lastmile_qr_scan", "android": "https://dc.lft.to/lastmile_qr_scan"}}, {"name": "fdbdb6501efd13d21c2ca6c6fba8dcb2", "lon": -77.02301483333333, "lat": 38.91554, "type": "electric_scooter", "fusion_lon": 0.0, "is_reserved": 0, "bike_id": "fdbdb6501efd13d21c2ca6c6fba8dcb2", "fusion_lat": 0.0, "is_disabled": 0, "rental_uris": {"ios": "https://dc.lft.to/lastmile_qr_scan", "android": "https://dc.lft.to/lastmile_qr_scan"}}, {"name": "9ff97f42ca6aab2baea35d8f68f7769d", "lon": -77.02977016666667, "lat": 38.923233333333336, "type": "electric_scooter", "fusion_lon": 0.0, "is_reserved": 0, "bike_id": "9ff97f42ca6aab2baea35d8f68f7769d", "fusion_lat": 0.0, "is_disabled": 0, "rental_uris": {"ios": "https://dc.lft.to/lastmile_qr_scan", "android": "https://dc.lft.to/lastmile_qr_scan"}}, {"name": "ac7bd20fde70afa03037af2bd4138196", "lon": -77.038737, "lat": 38.921546166666666, "type": "electric_scooter", "fusion_lon": 0.0, "is_reserved": 0, "bike_id": "ac7bd20fde70afa03037af2bd4138196", "fusion_lat": 0.0, "is_disabled": 0, "rental_uris": {"ios": "https://dc.lft.to/lastmile_qr_scan", "android": "https://dc.lft.to/lastmile_qr_scan"}}, {"name": "2aae578714b6d5a978c84db50099e291", "lon": -77.00761533333333, "lat": 38.91028083333333, "type": "electric_scooter", "fusion_lon": 0.0, "is_reserved": 0, "bike_id": "2aae578714b6d5a978c84db50099e291", "fusion_lat": 0.0, "is_disabled": 0, "rental_uris": {"ios": "https://dc.lft.to/lastmile_qr_scan", "android": "https://dc.lft.to/lastmile_qr_scan"}}, {"name": "82885e89910221d8f4baa611f8e50270", "lon": -76.97396183333333, "lat": 38.8652465, "type": "electric_scooter", "fusion_lon": 0.0, "is_reserved": 0, "bike_id": "82885e89910221d8f4baa611f8e50270", "fusion_lat": 0.0, "is_disabled": 0, "rental_uris": {"ios": "https://dc.lft.to/lastmile_qr_scan", "android": "https://dc.lft.to/lastmile_qr_scan"}}, {"name": "be9cef42d422c8afd246b32d6594b52a", "lon": -77.01542016666667, "lat": 38.885761333333335, "type": "electric_scooter", "fusion_lon": 0.0, "is_reserved": 0, "bike_id": "be9cef42d422c8afd246b32d6594b52a", "fusion_lat": 0.0, "is_disabled": 0, "rental_uris": {"ios": "https://dc.lft.to/lastmile_qr_scan", "android": "https://dc.lft.to/lastmile_qr_scan"}}, {"name": "eefc6305c2b046fc2994de84e2ecd6f8", "lon": -77.03822533333333, "lat": 38.92470866666667, "type": "electric_scooter", "fusion_lon": 0.0, "is_reserved": 0, "bike_id": "eefc6305c2b046fc2994de84e2ecd6f8", "fusion_lat": 0.0, "is_disabled": 0, "rental_uris": {"ios": "https://dc.lft.to/lastmile_qr_scan", "android": "https://dc.lft.to/lastmile_qr_scan"}}, {"name": "3a660d099d6c78ccb714d76ea51b3ecd", "lon": -77.0434725, "lat": 38.923489000000004, "type": "electric_scooter", "fusion_lon": 0.0, "is_reserved": 0, "bike_id": "3a660d099d6c78ccb714d76ea51b3ecd", "fusion_lat": 0.0, "is_disabled": 0, "rental_uris": {"ios": "https://dc.lft.to/lastmile_qr_scan", "android": "https://dc.lft.to/lastmile_qr_scan"}}, {"name": "004f9933550fcac9c2b016521932a50d", "lon": -77.06288366666666, "lat": 38.965067833333336, "type": "electric_scooter", "fusion_lon": 0.0, "is_reserved": 0, "bike_id": "004f9933550fcac9c2b016521932a50d", "fusion_lat": 0.0, "is_disabled": 0, "rental_uris": {"ios": "https://dc.lft.to/lastmile_qr_scan", "android": "https://dc.lft.to/lastmile_qr_scan"}}, {"name": "36bd86d6208ec8b759fff68695920327", "lon": -77.02960016666667, "lat": 38.905309, "type": "electric_scooter", "fusion_lon": 0.0, "is_reserved": 0, "bike_id": "36bd86d6208ec8b759fff68695920327", "fusion_lat": 0.0, "is_disabled": 0, "rental_uris": {"ios": "https://dc.lft.to/lastmile_qr_scan", "android": "https://dc.lft.to/lastmile_qr_scan"}}, {"name": "fdd8a23bad3c877778d7477b4f1f5c8b", "lon": -77.035028, "lat": 38.91700616666667, "type": "electric_scooter", "fusion_lon": 0.0, "is_reserved": 0, "bike_id": "fdd8a23bad3c877778d7477b4f1f5c8b", "fusion_lat": 0.0, "is_disabled": 0, "rental_uris": {"ios": "https://dc.lft.to/lastmile_qr_scan", "android": "https://dc.lft.to/lastmile_qr_scan"}}, {"name": "828f9df81646380c23d083cca87cde88", "lon": -77.043675, "lat": 38.892251333333334, "type": "electric_scooter", "fusion_lon": 0.0, "is_reserved": 0, "bike_id": "828f9df81646380c23d083cca87cde88", "fusion_lat": 0.0, "is_disabled": 0, "rental_uris": {"ios": "https://dc.lft.to/lastmile_qr_scan", "android": "https://dc.lft.to/lastmile_qr_scan"}}, {"name": "0e57e1c83aae8b0fc7b6f36eab7abdaf", "lon": -77.058698, "lat": 38.9429685, "type": "electric_scooter", "fusion_lon": 0.0, "is_reserved": 0, "bike_id": "0e57e1c83aae8b0fc7b6f36eab7abdaf", "fusion_lat": 0.0, "is_disabled": 0, "rental_uris": {"ios": "https://dc.lft.to/lastmile_qr_scan", "android": "https://dc.lft.to/lastmile_qr_scan"}}, {"name": "b878b3d5b19960d9ec6930ba583a027b", "lon": -77.00803416666666, "lat": 38.949276833333336, "type": "electric_bike", "fusion_lon": 0.0, "is_reserved": 0, "bike_id": "b878b3d5b19960d9ec6930ba583a027b", "fusion_lat": 0.0, "is_disabled": 0, "rental_uris": {"ios": "https://dc.lft.to/lastmile_qr_scan", "android": "https://dc.lft.to/lastmile_qr_scan"}}, {"name": "a94450ce4952e98b8464b505439683da", "lon": -77.02166283333334, "lat": 38.908289333333336, "type": "electric_scooter", "fusion_lon": 0.0, "is_reserved": 0, "bike_id": "a94450ce4952e98b8464b505439683da", "fusion_lat": 0.0, "is_disabled": 0, "rental_uris": {"ios": "https://dc.lft.to/lastmile_qr_scan", "android": "https://dc.lft.to/lastmile_qr_scan"}}, {"name": "fe89c898a5f844de29ee02afd3efb7bb", "lon": -77.03647516666666, "lat": 38.92343733333333, "type": "electric_scooter", "fusion_lon": 0.0, "is_reserved": 0, "bike_id": "fe89c898a5f844de29ee02afd3efb7bb", "fusion_lat": 0.0, "is_disabled": 0, "rental_uris": {"ios": "https://dc.lft.to/lastmile_qr_scan", "android": "https://dc.lft.to/lastmile_qr_scan"}}, {"name": "05f4a47e0669a94a8a3f0b8e113188ef", "lon": -77.05018633333333, "lat": 38.906436, "type": "electric_scooter", "fusion_lon": 0.0, "is_reserved": 0, "bike_id": "05f4a47e0669a94a8a3f0b8e113188ef", "fusion_lat": 0.0, "is_disabled": 0, "rental_uris": {"ios": "https://dc.lft.to/lastmile_qr_scan", "android": "https://dc.lft.to/lastmile_qr_scan"}}, {"name": "fc3e4d33cf65106fd554b4cd6ee5ce11", "lon": -77.0460555, "lat": 38.902632833333335, "type": "electric_scooter", "fusion_lon": 0.0, "is_reserved": 0, "bike_id": "fc3e4d33cf65106fd554b4cd6ee5ce11", "fusion_lat": 0.0, "is_disabled": 0, "rental_uris": {"ios": "https://dc.lft.to/lastmile_qr_scan", "android": "https://dc.lft.to/lastmile_qr_scan"}}, {"name": "27b1a014cfb0ee2d363f9d0232a4d8f3", "lon": -77.04485383333333, "lat": 38.9036245, "type": "electric_scooter", "fusion_lon": 0.0, "is_reserved": 0, "bike_id": "27b1a014cfb0ee2d363f9d0232a4d8f3", "fusion_lat": 0.0, "is_disabled": 0, "rental_uris": {"ios": "https://dc.lft.to/lastmile_qr_scan", "android": "https://dc.lft.to/lastmile_qr_scan"}}, {"name": "a4fb75a7d005077f3accdbf754ca590c", "lon": -77.002013, "lat": 38.90247516666667, "type": "electric_scooter", "fusion_lon": 0.0, "is_reserved": 0, "bike_id": "a4fb75a7d005077f3accdbf754ca590c", "fusion_lat": 0.0, "is_disabled": 0, "rental_uris": {"ios": "https://dc.lft.to/lastmile_qr_scan", "android": "https://dc.lft.to/lastmile_qr_scan"}}, {"name": "67cee4f3bb58c7d3ff219c1d02acf38e", "lon": -77.01200783333333, "lat": 38.870977, "type": "electric_scooter", "fusion_lon": 0.0, "is_reserved": 0, "bike_id": "67cee4f3bb58c7d3ff219c1d02acf38e", "fusion_lat": 0.0, "is_disabled": 0, "rental_uris": {"ios": "https://dc.lft.to/lastmile_qr_scan", "android": "https://dc.lft.to/lastmile_qr_scan"}}, {"name": "e87f5e77bb156f50e77013c10a5ff417", "lon": -77.046877, "lat": 39.0239975, "type": "electric_bike", "fusion_lon": 0.0, "is_reserved": 0, "bike_id": "e87f5e77bb156f50e77013c10a5ff417", "fusion_lat": 0.0, "is_disabled": 0, "rental_uris": {"ios": "https://dc.lft.to/lastmile_qr_scan", "android": "https://dc.lft.to/lastmile_qr_scan"}}, {"name": "c699e503d8da6a6d6d0d8e2ef9041b00", "lon": -77.021613, "lat": 38.92617116666667, "type": "electric_scooter", "fusion_lon": 0.0, "is_reserved": 0, "bike_id": "c699e503d8da6a6d6d0d8e2ef9041b00", "fusion_lat": 0.0, "is_disabled": 0, "rental_uris": {"ios": "https://dc.lft.to/lastmile_qr_scan", "android": "https://dc.lft.to/lastmile_qr_scan"}}, {"name": "de212ad66826247190b0cd46b873faa8", "lon": -76.99694983333333, "lat": 38.88426, "type": "electric_scooter", "fusion_lon": 0.0, "is_reserved": 0, "bike_id": "de212ad66826247190b0cd46b873faa8", "fusion_lat": 0.0, "is_disabled": 0, "rental_uris": {"ios": "https://dc.lft.to/lastmile_qr_scan", "android": "https://dc.lft.to/lastmile_qr_scan"}}, {"name": "cb385a66992521c4666a3a78010e0f26", "lon": -77.044413, "lat": 38.903485333333336, "type": "electric_scooter", "fusion_lon": 0.0, "is_reserved": 0, "bike_id": "cb385a66992521c4666a3a78010e0f26", "fusion_lat": 0.0, "is_disabled": 0, "rental_uris": {"ios": "https://dc.lft.to/lastmile_qr_scan", "android": "https://dc.lft.to/lastmile_qr_scan"}}, {"name": "e3df81c63c81eadfe34cb7bc274e9ab5", "lon": -77.04278183333334, "lat": 38.909845833333335, "type": "electric_scooter", "fusion_lon": 0.0, "is_reserved": 0, "bike_id": "e3df81c63c81eadfe34cb7bc274e9ab5", "fusion_lat": 0.0, "is_disabled": 0, "rental_uris": {"ios": "https://dc.lft.to/lastmile_qr_scan", "android": "https://dc.lft.to/lastmile_qr_scan"}}, {"name": "515b2d2a559009fff74290ecbbd8d9ff", "lon": -77.03490333333333, "lat": 38.924858, "type": "electric_scooter", "fusion_lon": 0.0, "is_reserved": 0, "bike_id": "515b2d2a559009fff74290ecbbd8d9ff", "fusion_lat": 0.0, "is_disabled": 0, "rental_uris": {"ios": "https://dc.lft.to/lastmile_qr_scan", "android": "https://dc.lft.to/lastmile_qr_scan"}}, {"name": "c78ae03c4e768fff0255f29473f39e95", "lon": -77.0435605, "lat": 38.905307, "type": "electric_scooter", "fusion_lon": 0.0, "is_reserved": 0, "bike_id": "c78ae03c4e768fff0255f29473f39e95", "fusion_lat": 0.0, "is_disabled": 0, "rental_uris": {"ios": "https://dc.lft.to/lastmile_qr_scan", "android": "https://dc.lft.to/lastmile_qr_scan"}}, {"name": "58c2a90b5c6c2b0193730d928443345a", "lon": -77.04830533333333, "lat": 38.900476, "type": "electric_scooter", "fusion_lon": 0.0, "is_reserved": 0, "bike_id": "58c2a90b5c6c2b0193730d928443345a", "fusion_lat": 0.0, "is_disabled": 0, "rental_uris": {"ios": "https://dc.lft.to/lastmile_qr_scan", "android": "https://dc.lft.to/lastmile_qr_scan"}}, {"name": "e27173eae79f6894b288cb5bc51e23aa", "lon": -77.033469, "lat": 38.9057185, "type": "electric_scooter", "fusion_lon": 0.0, "is_reserved": 0, "bike_id": "e27173eae79f6894b288cb5bc51e23aa", "fusion_lat": 0.0, "is_disabled": 0, "rental_uris": {"ios": "https://dc.lft.to/lastmile_qr_scan", "android": "https://dc.lft.to/lastmile_qr_scan"}}, {"name": "a2fb6d1187e2d7fe5af6b523f5f3c5fa", "lon": -77.18741016666667, "lat": 38.893576333333336, "type": "electric_bike", "fusion_lon": 0.0, "is_reserved": 0, "bike_id": "a2fb6d1187e2d7fe5af6b523f5f3c5fa", "fusion_lat": 0.0, "is_disabled": 0, "rental_uris": {"ios": "https://dc.lft.to/lastmile_qr_scan", "android": "https://dc.lft.to/lastmile_qr_scan"}}, {"name": "863a43fe75c7c0b9e8ea5a8e732fe982", "lon": -77.033634, "lat": 38.93591383333333, "type": "electric_scooter", "fusion_lon": 0.0, "is_reserved": 0, "bike_id": "863a43fe75c7c0b9e8ea5a8e732fe982", "fusion_lat": 0.0, "is_disabled": 0, "rental_uris": {"ios": "https://dc.lft.to/lastmile_qr_scan", "android": "https://dc.lft.to/lastmile_qr_scan"}}, {"name": "fde63087c5bfca236ae66eb4adb36740", "lon": -77.03857, "lat": 38.9060095, "type": "electric_scooter", "fusion_lon": 0.0, "is_reserved": 0, "bike_id": "fde63087c5bfca236ae66eb4adb36740", "fusion_lat": 0.0, "is_disabled": 0, "rental_uris": {"ios": "https://dc.lft.to/lastmile_qr_scan", "android": "https://dc.lft.to/lastmile_qr_scan"}}, {"name": "eb019db132fb4926a28753c7cfb720a1", "lon": -76.91911616666667, "lat": 38.8857855, "type": "electric_scooter", "fusion_lon": 0.0, "is_reserved": 0, "bike_id": "eb019db132fb4926a28753c7cfb720a1", "fusion_lat": 0.0, "is_disabled": 0, "rental_uris": {"ios": "https://dc.lft.to/lastmile_qr_scan", "android": "https://dc.lft.to/lastmile_qr_scan"}}, {"name": "30711ff025e5e2a3d8f6290a69506fa6", "lon": -77.04850533333334, "lat": 38.916153666666666, "type": "electric_scooter", "fusion_lon": 0.0, "is_reserved": 0, "bike_id": "30711ff025e5e2a3d8f6290a69506fa6", "fusion_lat": 0.0, "is_disabled": 0, "rental_uris": {"ios": "https://dc.lft.to/lastmile_qr_scan", "android": "https://dc.lft.to/lastmile_qr_scan"}}, {"name": "ffb6dbc4bc91547fac36bbec813acf12", "lon": -76.94581116666667, "lat": 38.93751116666667, "type": "electric_bike", "fusion_lon": 0.0, "is_reserved": 0, "bike_id": "ffb6dbc4bc91547fac36bbec813acf12", "fusion_lat": 0.0, "is_disabled": 0, "rental_uris": {"ios": "https://dc.lft.to/lastmile_qr_scan", "android": "https://dc.lft.to/lastmile_qr_scan"}}, {"name": "50814151d6aad972ce0c144a172ecf6b", "lon": -77.0576475, "lat": 38.9053465, "type": "electric_scooter", "fusion_lon": 0.0, "is_reserved": 0, "bike_id": "50814151d6aad972ce0c144a172ecf6b", "fusion_lat": 0.0, "is_disabled": 0, "rental_uris": {"ios": "https://dc.lft.to/lastmile_qr_scan", "android": "https://dc.lft.to/lastmile_qr_scan"}}, {"name": "4f4306eb019c2d7ba70018bd009778ba", "lon": -76.9801205, "lat": 38.853221833333336, "type": "electric_scooter", "fusion_lon": 0.0, "is_reserved": 0, "bike_id": "4f4306eb019c2d7ba70018bd009778ba", "fusion_lat": 0.0, "is_disabled": 0, "rental_uris": {"ios": "https://dc.lft.to/lastmile_qr_scan", "android": "https://dc.lft.to/lastmile_qr_scan"}}, {"name": "1aabb6ac803006d9f3ab5fd6a88761ab", "lon": -77.02105466666667, "lat": 38.921826333333335, "type": "electric_scooter", "fusion_lon": 0.0, "is_reserved": 0, "bike_id": "1aabb6ac803006d9f3ab5fd6a88761ab", "fusion_lat": 0.0, "is_disabled": 0, "rental_uris": {"ios": "https://dc.lft.to/lastmile_qr_scan", "android": "https://dc.lft.to/lastmile_qr_scan"}}, {"name": "2dea03c696f48701471ea7ae8c4348b9", "lon": -77.032314, "lat": 38.909659833333336, "type": "electric_scooter", "fusion_lon": 0.0, "is_reserved": 0, "bike_id": "2dea03c696f48701471ea7ae8c4348b9", "fusion_lat": 0.0, "is_disabled": 0, "rental_uris": {"ios": "https://dc.lft.to/lastmile_qr_scan", "android": "https://dc.lft.to/lastmile_qr_scan"}}, {"name": "f6ad48851201660313a72474ef6f54cc", "lon": -77.007298, "lat": 38.8989135, "type": "electric_scooter", "fusion_lon": 0.0, "is_reserved": 0, "bike_id": "f6ad48851201660313a72474ef6f54cc", "fusion_lat": 0.0, "is_disabled": 0, "rental_uris": {"ios": "https://dc.lft.to/lastmile_qr_scan", "android": "https://dc.lft.to/lastmile_qr_scan"}}, {"name": "fac29fab5ab0214387aa38974a5e60f1", "lon": -77.03496233333334, "lat": 38.924853166666665, "type": "electric_scooter", "fusion_lon": 0.0, "is_reserved": 0, "bike_id": "fac29fab5ab0214387aa38974a5e60f1", "fusion_lat": 0.0, "is_disabled": 0, "rental_uris": {"ios": "https://dc.lft.to/lastmile_qr_scan", "android": "https://dc.lft.to/lastmile_qr_scan"}}, {"name": "6288c54590ec7c13ef86cbf472871f42", "lon": -77.0317605, "lat": 38.9109885, "type": "electric_scooter", "fusion_lon": 0.0, "is_reserved": 0, "bike_id": "6288c54590ec7c13ef86cbf472871f42", "fusion_lat": 0.0, "is_disabled": 0, "rental_uris": {"ios": "https://dc.lft.to/lastmile_qr_scan", "android": "https://dc.lft.to/lastmile_qr_scan"}}, {"name": "57f28cfcf999d27cf3069c3760ed8961", "lon": -77.01750216666667, "lat": 38.920395166666665, "type": "electric_scooter", "fusion_lon": 0.0, "is_reserved": 0, "bike_id": "57f28cfcf999d27cf3069c3760ed8961", "fusion_lat": 0.0, "is_disabled": 0, "rental_uris": {"ios": "https://dc.lft.to/lastmile_qr_scan", "android": "https://dc.lft.to/lastmile_qr_scan"}}, {"name": "07df3ebd706c738bc0330987d1629b5a", "lon": -77.035961, "lat": 38.92854966666667, "type": "electric_scooter", "fusion_lon": 0.0, "is_reserved": 0, "bike_id": "07df3ebd706c738bc0330987d1629b5a", "fusion_lat": 0.0, "is_disabled": 0, "rental_uris": {"ios": "https://dc.lft.to/lastmile_qr_scan", "android": "https://dc.lft.to/lastmile_qr_scan"}}, {"name": "fc006a867327e21b9afa2bb68f0189a9", "lon": -77.06696683333334, "lat": 38.83177466666667, "type": "electric_bike", "fusion_lon": 0.0, "is_reserved": 0, "bike_id": "fc006a867327e21b9afa2bb68f0189a9", "fusion_lat": 0.0, "is_disabled": 0, "rental_uris": {"ios": "https://dc.lft.to/lastmile_qr_scan", "android": "https://dc.lft.to/lastmile_qr_scan"}}, {"name": "e780806c5097c883e113067d979b0284", "lon": -77.038244, "lat": 38.906806833333334, "type": "electric_scooter", "fusion_lon": 0.0, "is_reserved": 0, "bike_id": "e780806c5097c883e113067d979b0284", "fusion_lat": 0.0, "is_disabled": 0, "rental_uris": {"ios": "https://dc.lft.to/lastmile_qr_scan", "android": "https://dc.lft.to/lastmile_qr_scan"}}, {"name": "07fd39edf65e6f62b751083be9e5e742", "lon": -77.02389166666667, "lat": 38.88681116666667, "type": "electric_scooter", "fusion_lon": 0.0, "is_reserved": 0, "bike_id": "07fd39edf65e6f62b751083be9e5e742", "fusion_lat": 0.0, "is_disabled": 0, "rental_uris": {"ios": "https://dc.lft.to/lastmile_qr_scan", "android": "https://dc.lft.to/lastmile_qr_scan"}}, {"name": "b269e95fdad0f33c8369073698cf7746", "lon": -77.04482933333334, "lat": 38.9242705, "type": "electric_scooter", "fusion_lon": 0.0, "is_reserved": 0, "bike_id": "b269e95fdad0f33c8369073698cf7746", "fusion_lat": 0.0, "is_disabled": 0, "rental_uris": {"ios": "https://dc.lft.to/lastmile_qr_scan", "android": "https://dc.lft.to/lastmile_qr_scan"}}, {"name": "ded5805789f10897ee59dc820035f19d", "lon": -77.0443545, "lat": 38.91103116666667, "type": "electric_scooter", "fusion_lon": 0.0, "is_reserved": 0, "bike_id": "ded5805789f10897ee59dc820035f19d", "fusion_lat": 0.0, "is_disabled": 0, "rental_uris": {"ios": "https://dc.lft.to/lastmile_qr_scan", "android": "https://dc.lft.to/lastmile_qr_scan"}}, {"name": "40fd46cfff617f85782b6ab23e66f363", "lon": -76.98382083333334, "lat": 38.9132755, "type": "electric_bike", "fusion_lon": 0.0, "is_reserved": 0, "bike_id": "40fd46cfff617f85782b6ab23e66f363", "fusion_lat": 0.0, "is_disabled": 0, "rental_uris": {"ios": "https://dc.lft.to/lastmile_qr_scan", "android": "https://dc.lft.to/lastmile_qr_scan"}}, {"name": "08921b48e1136058e9432c0b81af1950", "lon": -77.0279905, "lat": 38.91223016666667, "type": "electric_scooter", "fusion_lon": 0.0, "is_reserved": 0, "bike_id": "08921b48e1136058e9432c0b81af1950", "fusion_lat": 0.0, "is_disabled": 0, "rental_uris": {"ios": "https://dc.lft.to/lastmile_qr_scan", "android": "https://dc.lft.to/lastmile_qr_scan"}}, {"name": "0605ac98bfcf43f949df156755754c2a", "lon": -77.04324966666667, "lat": 38.892253, "type": "electric_scooter", "fusion_lon": 0.0, "is_reserved": 0, "bike_id": "0605ac98bfcf43f949df156755754c2a", "fusion_lat": 0.0, "is_disabled": 0, "rental_uris": {"ios": "https://dc.lft.to/lastmile_qr_scan", "android": "https://dc.lft.to/lastmile_qr_scan"}}, {"name": "09f18ca6b12ddaad62f4747f79360bfc", "lon": -76.93751016666667, "lat": 38.890488500000004, "type": "electric_scooter", "fusion_lon": 0.0, "is_reserved": 0, "bike_id": "09f18ca6b12ddaad62f4747f79360bfc", "fusion_lat": 0.0, "is_disabled": 0, "rental_uris": {"ios": "https://dc.lft.to/lastmile_qr_scan", "android": "https://dc.lft.to/lastmile_qr_scan"}}, {"name": "75966b72bf8753a335af766867620d20", "lon": -76.98534183333334, "lat": 38.85363183333333, "type": "electric_scooter", "fusion_lon": 0.0, "is_reserved": 0, "bike_id": "75966b72bf8753a335af766867620d20", "fusion_lat": 0.0, "is_disabled": 0, "rental_uris": {"ios": "https://dc.lft.to/lastmile_qr_scan", "android": "https://dc.lft.to/lastmile_qr_scan"}}, {"name": "ff2a849a3e0a04d52cb2e0cd3fb7db3e", "lon": -77.03444916666666, "lat": 38.908087333333334, "type": "electric_scooter", "fusion_lon": 0.0, "is_reserved": 0, "bike_id": "ff2a849a3e0a04d52cb2e0cd3fb7db3e", "fusion_lat": 0.0, "is_disabled": 0, "rental_uris": {"ios": "https://dc.lft.to/lastmile_qr_scan", "android": "https://dc.lft.to/lastmile_qr_scan"}}, {"name": "78494d136d5d390e209a1449e67c71b0", "lon": -77.043143, "lat": 38.91882116666667, "type": "electric_scooter", "fusion_lon": 0.0, "is_reserved": 0, "bike_id": "78494d136d5d390e209a1449e67c71b0", "fusion_lat": 0.0, "is_disabled": 0, "rental_uris": {"ios": "https://dc.lft.to/lastmile_qr_scan", "android": "https://dc.lft.to/lastmile_qr_scan"}}, {"name": "684df01fd46ec3559c91e8da3ec39b12", "lon": -77.031115, "lat": 38.917033833333335, "type": "electric_scooter", "fusion_lon": 0.0, "is_reserved": 0, "bike_id": "684df01fd46ec3559c91e8da3ec39b12", "fusion_lat": 0.0, "is_disabled": 0, "rental_uris": {"ios": "https://dc.lft.to/lastmile_qr_scan", "android": "https://dc.lft.to/lastmile_qr_scan"}}, {"name": "21fbfde655fbf791d997f738cf5c75a5", "lon": -77.03440583333334, "lat": 38.90810466666667, "type": "electric_scooter", "fusion_lon": 0.0, "is_reserved": 0, "bike_id": "21fbfde655fbf791d997f738cf5c75a5", "fusion_lat": 0.0, "is_disabled": 0, "rental_uris": {"ios": "https://dc.lft.to/lastmile_qr_scan", "android": "https://dc.lft.to/lastmile_qr_scan"}}, {"name": "eba6d5a30c2e4e221107252ea8f3f11e", "lon": -77.0324455, "lat": 38.9616085, "type": "electric_scooter", "fusion_lon": 0.0, "is_reserved": 0, "bike_id": "eba6d5a30c2e4e221107252ea8f3f11e", "fusion_lat": 0.0, "is_disabled": 0, "rental_uris": {"ios": "https://dc.lft.to/lastmile_qr_scan", "android": "https://dc.lft.to/lastmile_qr_scan"}}, {"name": "7856014938999f7eb1e67dff7136577e", "lon": -76.9811845, "lat": 38.914735, "type": "electric_bike", "fusion_lon": 0.0, "is_reserved": 0, "bike_id": "7856014938999f7eb1e67dff7136577e", "fusion_lat": 0.0, "is_disabled": 0, "rental_uris": {"ios": "https://dc.lft.to/lastmile_qr_scan", "android": "https://dc.lft.to/lastmile_qr_scan"}}, {"name": "0c0a77177f0cd56ef7fd317e3155520e", "lon": -77.041737, "lat": 38.9182795, "type": "electric_scooter", "fusion_lon": 0.0, "is_reserved": 0, "bike_id": "0c0a77177f0cd56ef7fd317e3155520e", "fusion_lat": 0.0, "is_disabled": 0, "rental_uris": {"ios": "https://dc.lft.to/lastmile_qr_scan", "android": "https://dc.lft.to/lastmile_qr_scan"}}, {"name": "c82d590a323a07362691d9bc12b11f8f", "lon": -77.04345016666667, "lat": 38.9080765, "type": "electric_scooter", "fusion_lon": 0.0, "is_reserved": 0, "bike_id": "c82d590a323a07362691d9bc12b11f8f", "fusion_lat": 0.0, "is_disabled": 0, "rental_uris": {"ios": "https://dc.lft.to/lastmile_qr_scan", "android": "https://dc.lft.to/lastmile_qr_scan"}}, {"name": "e31bd70f327c39e0e9103423d3ff2db9", "lon": -77.02179066666666, "lat": 38.883216, "type": "electric_scooter", "fusion_lon": 0.0, "is_reserved": 0, "bike_id": "e31bd70f327c39e0e9103423d3ff2db9", "fusion_lat": 0.0, "is_disabled": 0, "rental_uris": {"ios": "https://dc.lft.to/lastmile_qr_scan", "android": "https://dc.lft.to/lastmile_qr_scan"}}, {"name": "2bda7f3158db1b9c803282b686e81b10", "lon": -77.0281625, "lat": 38.9047515, "type": "electric_scooter", "fusion_lon": 0.0, "is_reserved": 0, "bike_id": "2bda7f3158db1b9c803282b686e81b10", "fusion_lat": 0.0, "is_disabled": 0, "rental_uris": {"ios": "https://dc.lft.to/lastmile_qr_scan", "android": "https://dc.lft.to/lastmile_qr_scan"}}, {"name": "cb044e18953fb6ec896fce916f78aa78", "lon": -77.23318266666666, "lat": 38.872882833333335, "type": "electric_bike", "fusion_lon": 0.0, "is_reserved": 0, "bike_id": "cb044e18953fb6ec896fce916f78aa78", "fusion_lat": 0.0, "is_disabled": 0, "rental_uris": {"ios": "https://dc.lft.to/lastmile_qr_scan", "android": "https://dc.lft.to/lastmile_qr_scan"}}, {"name": "1d1424fd7aa0f5f772376836c1eff657", "lon": -77.02305483333333, "lat": 38.91793466666667, "type": "electric_scooter", "fusion_lon": 0.0, "is_reserved": 0, "bike_id": "1d1424fd7aa0f5f772376836c1eff657", "fusion_lat": 0.0, "is_disabled": 0, "rental_uris": {"ios": "https://dc.lft.to/lastmile_qr_scan", "android": "https://dc.lft.to/lastmile_qr_scan"}}, {"name": "6be07091397fa05d4cc5af52167728e0", "lon": -77.04328383333333, "lat": 38.89228833333333, "type": "electric_scooter", "fusion_lon": 0.0, "is_reserved": 0, "bike_id": "6be07091397fa05d4cc5af52167728e0", "fusion_lat": 0.0, "is_disabled": 0, "rental_uris": {"ios": "https://dc.lft.to/lastmile_qr_scan", "android": "https://dc.lft.to/lastmile_qr_scan"}}, {"name": "e61687cf19faf9f603782d17c63f65bc", "lon": -77.03837433333334, "lat": 38.90718616666667, "type": "electric_scooter", "fusion_lon": 0.0, "is_reserved": 0, "bike_id": "e61687cf19faf9f603782d17c63f65bc", "fusion_lat": 0.0, "is_disabled": 0, "rental_uris": {"ios": "https://dc.lft.to/lastmile_qr_scan", "android": "https://dc.lft.to/lastmile_qr_scan"}}, {"name": "2a22a0f26d99f6abef97798d1137e152", "lon": -77.0297665, "lat": 38.92200966666667, "type": "electric_scooter", "fusion_lon": 0.0, "is_reserved": 0, "bike_id": "2a22a0f26d99f6abef97798d1137e152", "fusion_lat": 0.0, "is_disabled": 0, "rental_uris": {"ios": "https://dc.lft.to/lastmile_qr_scan", "android": "https://dc.lft.to/lastmile_qr_scan"}}, {"name": "6d656db9f83508441f1a3b93d922f3a9", "lon": -77.0354645, "lat": 38.924782, "type": "electric_scooter", "fusion_lon": 0.0, "is_reserved": 0, "bike_id": "6d656db9f83508441f1a3b93d922f3a9", "fusion_lat": 0.0, "is_disabled": 0, "rental_uris": {"ios": "https://dc.lft.to/lastmile_qr_scan", "android": "https://dc.lft.to/lastmile_qr_scan"}}, {"name": "99cf7dec6a3d3a789131c161e9714594", "lon": -77.03319583333334, "lat": 38.921722833333334, "type": "electric_scooter", "fusion_lon": 0.0, "is_reserved": 0, "bike_id": "99cf7dec6a3d3a789131c161e9714594", "fusion_lat": 0.0, "is_disabled": 0, "rental_uris": {"ios": "https://dc.lft.to/lastmile_qr_scan", "android": "https://dc.lft.to/lastmile_qr_scan"}}, {"name": "e7e2a86a9d874836da966b284c3a4d57", "lon": -76.98692016666666, "lat": 38.86260433333333, "type": "electric_scooter", "fusion_lon": 0.0, "is_reserved": 0, "bike_id": "e7e2a86a9d874836da966b284c3a4d57", "fusion_lat": 0.0, "is_disabled": 0, "rental_uris": {"ios": "https://dc.lft.to/lastmile_qr_scan", "android": "https://dc.lft.to/lastmile_qr_scan"}}, {"name": "b7726c691e0127e03616b275eadcb972", "lon": -77.03216, "lat": 38.904445, "type": "electric_scooter", "fusion_lon": 0.0, "is_reserved": 0, "bike_id": "b7726c691e0127e03616b275eadcb972", "fusion_lat": 0.0, "is_disabled": 0, "rental_uris": {"ios": "https://dc.lft.to/lastmile_qr_scan", "android": "https://dc.lft.to/lastmile_qr_scan"}},