{"data": {"bikes": [{"rental_uris": {"ios": "https://dc.lft.to/lastmile_qr_scan", "android": "https://dc.lft.to/lastmile_qr_scan"}, "lon": -77.07077716666667, "type": "electric_bike", "fusion_lat": 0.0, "lat": 38.955589833333335, "name": "7bbefec1bf8bc9214ec5a5c8708577c0", "fusion_lon": 0.0, "bike_id": "7bbefec1bf8bc9214ec5a5c8708577c0", "is_disabled": 0, "is_reserved": 0}, {"rental_uris": {"ios": "https://dc.lft.to/lastmile_qr_scan", "android": "https://dc.lft.to/lastmile_qr_scan"}, "lon": -77.06281316666667, "type": "electric_scooter", "fusion_lat": 0.0, "lat": 38.905494166666664, "name": "6ee0339efab69963a79cf11fc6453491", "fusion_lon": 0.0, "bike_id": "6ee0339efab69963a79cf11fc6453491", "is_disabled": 0, "is_reserved": 0}, {"rental_uris": {"ios": "https://dc.lft.to/lastmile_qr_scan", "android": "https://dc.lft.to/lastmile_qr_scan"}, "lon": -77.04366533333334, "type": "electric_scooter", "fusion_lat": 0.0, "lat": 38.91116933333333, "name": "1280b014808fa24c5419a61b1c9059cd", "fusion_lon": 0.0, "bike_id": "1280b014808fa24c5419a61b1c9059cd", "is_disabled": 0, "is_reserved": 0}, {"rental_uris": {"ios": "https://dc.lft.to/lastmile_qr_scan", "android": "https://dc.lft.to/lastmile_qr_scan"}, "lon": -77.02373366666667, "type": "electric_scooter", "fusion_lat": 0.0, "lat": 38.920539833333336, "name": "34c7af7241af8fd3ab5801aa3b0a4598", "fusion_lon": 0.0, "bike_id": "34c7af7241af8fd3ab5801aa3b0a4598", "is_disabled": 0, "is_reserved": 0}, {"rental_uris": {"ios": "https://dc.lft.to/lastmile_qr_scan", "android": "https://dc.lft.to/lastmile_qr_scan"}, "lon": -77.03201533333333, "type": "electric_scooter", "fusion_lat": 0.0, "lat": 38.90493683333333, "name": "eba8de044bd967ef2ea660e548480753", "fusion_lon": 0.0, "bike_id": "eba8de044bd967ef2ea660e548480753", "is_disabled": 0, "is_reserved": 0}, {"rental_uris": {"ios": "https://dc.lft.to/lastmile_qr_scan", "android": "https://dc.lft.to/lastmile_qr_scan"}, "lon": -77.02234783333333, "type": "electric_scooter", "fusion_lat": 0.0, "lat": 38.9021985, "name": "a2ad9a4ae0f591e6dbad25623bb97463", "fusion_lon": 0.0, "bike_id": "a2ad9a4ae0f591e6dbad25623bb97463", "is_disabled": 0, "is_reserved": 0}, {"rental_uris": {"ios": "https://dc.lft.to/lastmile_qr_scan", "android": "https://dc.lft.to/lastmile_qr_scan"}, "lon": -76.923692, "type": "electric_bike", "fusion_lat": 0.0, "lat": 38.88376683333333, "name": "b4f5129915b6b9c9129d54911ff378ee", "fusion_lon": 0.0, "bike_id": "b4f5129915b6b9c9129d54911ff378ee", "is_disabled": 0, "is_reserved": 0}, {"rental_uris": {"ios": "https://dc.lft.to/lastmile_qr_scan", "android": "https://dc.lft.to/lastmile_qr_scan"}, "lon": -77.034751, "type": "electric_scooter", "fusion_lat": 0.0, "lat": 38.90273083333334, "name": "03b0fe728418a442654afa728baafdb5", "fusion_lon": 0.0, "bike_id": "03b0fe728418a442654afa728baafdb5", "is_disabled": 0, "is_reserved": 0}, {"rental_uris": {"ios": "https://dc.lft.to/lastmile_qr_scan", "android": "https://dc.lft.to/lastmile_qr_scan"}, "lon": -77.05172833333333, "type": "electric_scooter", "fusion_lat": 0.0, "lat": 38.923790333333336, "name": "2a62dbf143e6a0497e74c48da55f4e32", "fusion_lon": 0.0, "bike_id": "2a62dbf143e6a0497e74c48da55f4e32", "is_disabled": 0, "is_reserved": 0}, {"rental_uris": {"ios": "https://dc.lft.to/lastmile_qr_scan", "android": "https://dc.lft.to/lastmile_qr_scan"}, "lon": -76.93174516666667, "type": "electric_scooter", "fusion_lat": 0.0, "lat": 38.89886033333333, "name": "046ee5be4db94b75773a135f3879a0f4", "fusion_lon": 0.0, "bike_id": "046ee5be4db94b75773a135f3879a0f4", "is_disabled": 0, "is_reserved": 0}, {"rental_uris": {"ios": "https://dc.lft.to/lastmile_qr_scan", "android": "https://dc.lft.to/lastmile_qr_scan"}, "lon": -77.033146, "type": "electric_scooter", "fusion_lat": 0.0, "lat": 38.901367, "name": "85a8e0106192e724a8530edc54bf034e", "fusion_lon": 0.0, "bike_id": "85a8e0106192e724a8530edc54bf034e", "is_disabled": 0, "is_reserved": 0}, {"rental_uris": {"ios": "https://dc.lft.to/lastmile_qr_scan", "android": "https://dc.lft.to/lastmile_qr_scan"}, "lon": -77.09871516666666, "type": "electric_bike", "fusion_lat": 0.0, "lat": 38.94791383333333, "name": "5ab9a32e695050a5c2388a4ae9ecad24", "fusion_lon": 0.0, "bike_id": "5ab9a32e695050a5c2388a4ae9ecad24", "is_disabled": 0, "is_reserved": 0}, {"rental_uris": {"ios": "https://dc.lft.to/lastmile_qr_scan", "android": "https://dc.lft.to/lastmile_qr_scan"}, "lon": -76.97617283333334, "type": "electric_bike", "fusion_lat": 0.0, "lat": 38.89288666666667, "name": "68771f7499dfadd77bca4bc298c7dea3", "fusion_lon": 0.0, "bike_id": "68771f7499dfadd77bca4bc298c7dea3", "is_disabled": 0, "is_reserved": 0}, {"rental_uris": {"ios": "https://dc.lft.to/lastmile_qr_scan", "android": "https://dc.lft.to/lastmile_qr_scan"}, "lon": -77.01530783333334, "type": "electric_scooter", "fusion_lat": 0.0, "lat": 38.902593833333334, "name": "bb3c345c8379329f208e1cd9581b1290", "fusion_lon": 0.0, "bike_id": "bb3c345c8379329f208e1cd9581b1290", "is_disabled": 0, "is_reserved": 0}, {"rental_uris": {"ios": "https://dc.lft.to/lastmile_qr_scan", "android": "https://dc.lft.to/lastmile_qr_scan"}, "lon": -77.01997233333333, "type": "electric_scooter", "fusion_lat": 0.0, "lat": 38.914193, "name": "ce6fce699c67519a473f762fb87a8c7f", "fusion_lon": 0.0, "bike_id": "ce6fce699c67519a473f762fb87a8c7f", "is_disabled": 0, "is_reserved": 0}, {"rental_uris": {"ios": "https://dc.lft.to/lastmile_qr_scan", "android": "https://dc.lft.to/lastmile_qr_scan"}, "lon": -77.00335133333333, "type": "electric_scooter", "fusion_lat": 0.0, "lat": 38.874953, "name": "3f8cb07623bf998d1ab917027c25e498", "fusion_lon": 0.0, "bike_id": "3f8cb07623bf998d1ab917027c25e498", "is_disabled": 0, "is_reserved": 0}, {"rental_uris": {"ios": "https://dc.lft.to/lastmile_qr_scan", "android": "https://dc.lft.to/lastmile_qr_scan"}, "lon": -76.99044233333333, "type": "electric_bike", "fusion_lat": 0.0, "lat": 38.924798, "name": "5fdfda9848627d36bc093a369e794ef8", "fusion_lon": 0.0, "bike_id": "5fdfda9848627d36bc093a369e794ef8", "is_disabled": 0, "is_reserved": 0}, {"rental_uris": {"ios": "https://dc.lft.to/lastmile_qr_scan", "android": "https://dc.lft.to/lastmile_qr_scan"}, "lon": -77.02155416666666, "type": "electric_scooter", "fusion_lat": 0.0, "lat": 38.926064833333335, "name": "859e928d90ca01bed0589cedd70c78e4", "fusion_lon": 0.0, "bike_id": "859e928d90ca01bed0589cedd70c78e4", "is_disabled": 0, "is_reserved": 0}, {"rental_uris": {"ios": "https://dc.lft.to/lastmile_qr_scan", "android": "https://dc.lft.to/lastmile_qr_scan"}, "lon": -77.03698166666666, "type": "electric_scooter", "fusion_lat": 0.0, "lat": 38.93662416666667, "name": "6ea0b3bf94d4ccbf8ac892c088b565f1", "fusion_lon": 0.0, "bike_id": "6ea0b3bf94d4ccbf8ac892c088b565f1", "is_disabled": 0, "is_reserved": 0}, {"rental_uris": {"ios": "https://dc.lft.to/lastmile_qr_scan", "android": "https://dc.lft.to/lastmile_qr_scan"}, "lon": -77.02718416666667, "type": "electric_scooter", "fusion_lat": 0.0, "lat": 38.91820333333333, "name": "5ab4dcd9311d88686016c2a8c81f929b", "fusion_lon": 0.0, "bike_id": "5ab4dcd9311d88686016c2a8c81f929b", "is_disabled": 0, "is_reserved": 0}, {"rental_uris": {"ios": "https://dc.lft.to/lastmile_qr_scan", "android": "https://dc.lft.to/lastmile_qr_scan"}, "lon": -77.11204733333334, "type": "electric_bike", "fusion_lat": 0.0, "lat": 38.813104, "name": "30c3fdd2bf27b0d5daf1368c47f35fa1", "fusion_lon": 0.0, "bike_id": "30c3fdd2bf27b0d5daf1368c47f35fa1", "is_disabled": 0, "is_reserved": 0}, {"rental_uris": {"ios": "https://dc.lft.to/lastmile_qr_scan", "android": "https://dc.lft.to/lastmile_qr_scan"}, "lon": -77.04805116666667, "type": "electric_scooter", "fusion_lat": 0.0, "lat": 38.89614783333333, "name": "33ea1dba4e4bd7ccc851484d242fa30e", "fusion_lon": 0.0, "bike_id": "33ea1dba4e4bd7ccc851484d242fa30e", "is_disabled": 0, "is_reserved": 0}, {"rental_uris": {"ios": "https://dc.lft.to/lastmile_qr_scan", "android": "https://dc.lft.to/lastmile_qr_scan"}, "lon": -76.95756783333333, "type": "electric_scooter", "fusion_lat": 0.0, "lat": 38.884313666666664, "name": "62dcb6a76d989f00d919aaaaac842382", "fusion_lon": 0.0, "bike_id": "62dcb6a76d989f00d919aaaaac842382", "is_disabled": 0, "is_reserved": 0}, {"rental_uris": {"ios": "https://dc.lft.to/lastmile_qr_scan", "android": "https://dc.lft.to/lastmile_qr_scan"}, "lon": -76.9351655, "type": "electric_bike", "fusion_lat": 0.0, "lat": 38.9554405, "name": "53b777f06fd1ad47c7274c59c42c5f5a", "fusion_lon": 0.0, "bike_id": "53b777f06fd1ad47c7274c59c42c5f5a", "is_disabled": 0, "is_reserved": 0}, {"rental_uris": {"ios": "https://dc.lft.to/lastmile_qr_scan", "android": "https://dc.lft.to/lastmile_qr_scan"}, "lon": -76.99505866666667, "type": "electric_scooter", "fusion_lat": 0.0, "lat": 38.88492933333333, "name": "06701dbb9df80bdf36244e36ba24f168", "fusion_lon": 0.0, "bike_id": "06701dbb9df80bdf36244e36ba24f168", "is_disabled": 0, "is_reserved": 0}, {"rental_uris": {"ios": "https://dc.lft.to/lastmile_qr_scan", "android": "https://dc.lft.to/lastmile_qr_scan"}, "lon": -77.12260333333333, "type": "electric_bike", "fusion_lat": 0.0, "lat": 38.891924833333334, "name": "1ca94d6bc0ad3957b8c8ba651d61645e", "fusion_lon": 0.0, "bike_id": "1ca94d6bc0ad3957b8c8ba651d61645e", "is_disabled": 0, "is_reserved": 0}, {"rental_uris": {"ios": "https://dc.lft.to/lastmile_qr_scan", "android": "https://dc.lft.to/lastmile_qr_scan"}, "lon": -77.02390966666667, "type": "electric_scooter", "fusion_lat": 0.0, "lat": 38.915954666666664, "name": "cb3da2874b5b4b5220c44c9c72a89cd4", "fusion_lon": 0.0, "bike_id": "cb3da2874b5b4b5220c44c9c72a89cd4", "is_disabled": 0, "is_reserved": 0}, {"rental_uris": {"ios": "https://dc.lft.to/lastmile_qr_scan", "android": "https://dc.lft.to/lastmile_qr_scan"}, "lon": -77.03252683333334, "type": "electric_scooter", "fusion_lat": 0.0, "lat": 38.9292895, "name": "2ef5f5b71253e8cbab85d391667363e7", "fusion_lon": 0.0, "bike_id": "2ef5f5b71253e8cbab85d391667363e7", "is_disabled": 0, "is_reserved": 0}, {"rental_uris": {"ios": "https://dc.lft.to/lastmile_qr_scan", "android": "https://dc.lft.to/lastmile_qr_scan"}, "lon": -77.04997333333333, "type": "electric_scooter", "fusion_lat": 0.0, "lat": 38.898997333333334, "name": "c1b8c3ffe9be9df17643e08d51a259b2", "fusion_lon": 0.0, "bike_id": "c1b8c3ffe9be9df17643e08d51a259b2", "is_disabled": 0, "is_reserved": 0}, {"rental_uris": {"ios": "https://dc.lft.to/lastmile_qr_scan", "android": "https://dc.lft.to/lastmile_qr_scan"}, "lon": -77.07681466666666, "type": "electric_bike", "fusion_lat": 0.0, "lat": 38.831964666666664, "name": "e7b9916b632e3eb910b6833c4ef3682d", "fusion_lon": 0.0, "bike_id": "e7b9916b632e3eb910b6833c4ef3682d", "is_disabled": 0, "is_reserved": 0}, {"rental_uris": {"ios": "https://dc.lft.to/lastmile_qr_scan", "android": "https://dc.lft.to/lastmile_qr_scan"}, "lon": -77.02902666666667, "type": "electric_scooter", "fusion_lat": 0.0, "lat": 38.89862216666667, "name": "137e2bc40a6950eca435fe80b2a8abad", "fusion_lon": 0.0, "bike_id": "137e2bc40a6950eca435fe80b2a8abad", "is_disabled": 0, "is_reserved": 0}, {"rental_uris": {"ios": "https://dc.lft.to/lastmile_qr_scan", "android": "https://dc.lft.to/lastmile_qr_scan"}, "lon": -77.11219416666667, "type": "electric_bike", "fusion_lat": 0.0, "lat": 38.82875666666666, "name": "ad88633199de871f4cb357686b3d3fa1", "fusion_lon": 0.0, "bike_id": "ad88633199de871f4cb357686b3d3fa1", "is_disabled": 0, "is_reserved": 0}, {"rental_uris": {"ios": "https://dc.lft.to/lastmile_qr_scan", "android": "https://dc.lft.to/lastmile_qr_scan"}, "lon": -77.0282695, "type": "electric_scooter", "fusion_lat": 0.0, "lat": 38.892316666666666, "name": "4167df3006056b5dbd73da6e0455e7a4", "fusion_lon": 0.0, "bike_id": "4167df3006056b5dbd73da6e0455e7a4", "is_disabled": 0, "is_reserved": 0}, {"rental_uris": {"ios": "https://dc.lft.to/lastmile_qr_scan", "android": "https://dc.lft.to/lastmile_qr_scan"}, "lon": -77.0471345, "type": "electric_scooter", "fusion_lat": 0.0, "lat": 38.902384833333336, "name": "e377867e3b567c26c75dcb16a3c5fbb6", "fusion_lon": 0.0, "bike_id": "e377867e3b567c26c75dcb16a3c5fbb6", "is_disabled": 0, "is_reserved": 0}, {"rental_uris": {"ios": "https://dc.lft.to/lastmile_qr_scan", "android": "https://dc.lft.to/lastmile_qr_scan"}, "lon": -77.00139916666667, "type": "electric_scooter", "fusion_lat": 0.0, "lat": 38.8737935, "name": "7ce2a3685b04e09cd09dc33e2ff05c4f", "fusion_lon": 0.0, "bike_id": "7ce2a3685b04e09cd09dc33e2ff05c4f", "is_disabled": 0, "is_reserved": 0}, {"rental_uris": {"ios": "https://dc.lft.to/lastmile_qr_scan", "android": "https://dc.lft.to/lastmile_qr_scan"}, "lon": -77.091326, "type": "electric_bike", "fusion_lat": 0.0, "lat": 38.8041985, "name": "304da7319b09f6f6924919a3be94dc0b", "fusion_lon": 0.0, "bike_id": "304da7319b09f6f6924919a3be94dc0b", "is_disabled": 0, "is_reserved": 0}, {"rental_uris": {"ios": "https://dc.lft.to/lastmile_qr_scan", "android": "https://dc.lft.to/lastmile_qr_scan"}, "lon": -77.05410783333333, "type": "electric_scooter", "fusion_lat": 0.0, "lat": 38.93511866666667, "name": "1b94f32f08a81b9f182addc7fe5782a3", "fusion_lon": 0.0, "bike_id": "1b94f32f08a81b9f182addc7fe5782a3", "is_disabled": 0, "is_reserved": 0}, {"rental_uris": {"ios": "https://dc.lft.to/lastmile_qr_scan", "android": "https://dc.lft.to/lastmile_qr_scan"}, "lon": -76.97996816666667, "type": "electric_bike", "fusion_lat": 0.0, "lat": 38.90013666666667, "name": "676213e323d0f8249373f9035aac716c", "fusion_lon": 0.0, "bike_id": "676213e323d0f8249373f9035aac716c", "is_disabled": 0, "is_reserved": 0}, {"rental_uris": {"ios": "https://dc.lft.to/lastmile_qr_scan", "android": "https://dc.lft.to/lastmile_qr_scan"}, "lon": -77.0283005, "type": "electric_scooter", "fusion_lat": 0.0, "lat": 38.892264, "name": "ecde678c7ddf94e4af56d295ae661260", "fusion_lon": 0.0, "bike_id": "ecde678c7ddf94e4af56d295ae661260", "is_disabled": 0, "is_reserved": 0}, {"rental_uris": {"ios": "https://dc.lft.to/lastmile_qr_scan", "android": "https://dc.lft.to/lastmile_qr_scan"}, "lon": -77.04416166666667, "type": "electric_scooter", "fusion_lat": 0.0, "lat": 38.91310266666667, "name": "9b5100f6032edbc04fd493f8cf09b2b2", "fusion_lon": 0.0, "bike_id": "9b5100f6032edbc04fd493f8cf09b2b2", "is_disabled": 0, "is_reserved": 0}, {"rental_uris": {"ios": "https://dc.lft.to/lastmile_qr_scan", "android": "https://dc.lft.to/lastmile_qr_scan"}, "lon": -77.0402335, "type": "electric_scooter", "fusion_lat": 0.0, "lat": 38.9236925, "name": "0b21b3d0e2cfdd28a9ae98e14c27a455", "fusion_lon": 0.0, "bike_id": "0b21b3d0e2cfdd28a9ae98e14c27a455", "is_disabled": 0, "is_reserved": 0}, {"rental_uris": {"ios": "https://dc.lft.to/lastmile_qr_scan", "android": "https://dc.lft.to/lastmile_qr_scan"}, "lon": -77.03006866666666, "type": "electric_scooter", "fusion_lat": 0.0, "lat": 38.89222766666666, "name": "6379a2299f4e3ad5ff46630e3b31279a", "fusion_lon": 0.0, "bike_id": "6379a2299f4e3ad5ff46630e3b31279a", "is_disabled": 0, "is_reserved": 0}, {"rental_uris": {"ios": "https://dc.lft.to/lastmile_qr_scan", "android": "https://dc.lft.to/lastmile_qr_scan"}, "lon": -76.99680816666667, "type": "electric_scooter", "fusion_lat": 0.0, "lat": 38.921921, "name": "229b497a849eae26a36385b984cab78f", "fusion_lon": 0.0, "bike_id": "229b497a849eae26a36385b984cab78f", "is_disabled": 0, "is_reserved": 0}, {"rental_uris": {"ios": "https://dc.lft.to/lastmile_qr_scan", "android": "https://dc.lft.to/lastmile_qr_scan"}, "lon": -77.013144, "type": "electric_scooter", "fusion_lat": 0.0, "lat": 38.89739933333333, "name": "aaf1d164825ec12ece86ac5df4b460e5", "fusion_lon": 0.0, "bike_id": "aaf1d164825ec12ece86ac5df4b460e5", "is_disabled": 0, "is_reserved": 0}, {"rental_uris": {"ios": "https://dc.lft.to/lastmile_qr_scan", "android": "https://dc.lft.to/lastmile_qr_scan"}, "lon": -77.02324083333333, "type": "electric_scooter", "fusion_lat": 0.0, "lat": 38.8939335, "name": "7f07ab02fb03d6d9bf6c0863954aaf59", "fusion_lon": 0.0, "bike_id": "7f07ab02fb03d6d9bf6c0863954aaf59", "is_disabled": 0, "is_reserved": 0}, {"rental_uris": {"ios": "https://dc.lft.to/lastmile_qr_scan", "android": "https://dc.lft.to/lastmile_qr_scan"}, "lon": -76.95238133333334, "type": "electric_bike", "fusion_lat": 0.0, "lat": 38.907054, "name": "bdc498ab854cfcc49392e027ed7d4d70", "fusion_lon": 0.0, "bike_id": "bdc498ab854cfcc49392e027ed7d4d70", "is_disabled": 0, "is_reserved": 0}, {"rental_uris": {"ios": "https://dc.lft.to/lastmile_qr_scan", "android": "https://dc.lft.to/lastmile_qr_scan"}, "lon": -77.03208283333333, "type": "electric_scooter", "fusion_lat": 0.0, "lat": 38.91800833333333, "name": "368c5d7edc1452aaf1887ac72dbe062d", "fusion_lon": 0.0, "bike_id": "368c5d7edc1452aaf1887ac72dbe062d", "is_disabled": 0, "is_reserved": 0}, {"rental_uris": {"ios": "https://dc.lft.to/lastmile_qr_scan", "android": "https://dc.lft.to/lastmile_qr_scan"}, "lon": -77.00669283333333, "type": "electric_scooter", "fusion_lat": 0.0, "lat": 38.874881, "name": "2ccb154ee62e601a5c636f4d67769338", "fusion_lon": 0.0, "bike_id": "2ccb154ee62e601a5c636f4d67769338", "is_disabled": 0, "is_reserved": 0}, {"rental_uris": {"ios": "https://dc.lft.to/lastmile_qr_scan", "android": "https://dc.lft.to/lastmile_qr_scan"}, "lon": -77.02977833333334, "type": "electric_scooter", "fusion_lat": 0.0, "lat": 38.9622905, "name": "1d880b87e5a0b17cbfa57e92e4cf9e1a", "fusion_lon": 0.0, "bike_id": "1d880b87e5a0b17cbfa57e92e4cf9e1a", "is_disabled": 0, "is_reserved": 0}, {"rental_uris": {"ios": "https://dc.lft.to/lastmile_qr_scan", "android": "https://dc.lft.to/lastmile_qr_scan"}, "lon": -77.03867216666667, "type": "electric_scooter", "fusion_lat": 0.0, "lat": 38.9126495, "name": "c1277ac29e8e6da809abbe0c15fcbbf6", "fusion_lon": 0.0, "bike_id": "c1277ac29e8e6da809abbe0c15fcbbf6", "is_disabled": 0, "is_reserved": 0}, {"rental_uris": {"ios": "https://dc.lft.to/lastmile_qr_scan", "android": "https://dc.lft.to/lastmile_qr_scan"}, "lon": -77.04103316666667, "type": "electric_scooter", "fusion_lat": 0.0, "lat": 38.9185455, "name": "f50025f2bd836502c0e113e959093a09", "fusion_lon": 0.0, "bike_id": "f50025f2bd836502c0e113e959093a09", "is_disabled": 0, "is_reserved": 0}, {"rental_uris": {"ios": "https://dc.lft.to/lastmile_qr_scan", "android": "https://dc.lft.to/lastmile_qr_scan"}, "lon": -77.085416, "type": "electric_bike", "fusion_lat": 0.0, "lat": 38.856229666666664, "name": "c258c63bfe01f460b2572302962a1233", "fusion_lon": 0.0, "bike_id": "c258c63bfe01f460b2572302962a1233", "is_disabled": 0, "is_reserved": 0}, {"rental_uris": {"ios": "https://dc.lft.to/lastmile_qr_scan", "android": "https://dc.lft.to/lastmile_qr_scan"}, "lon": -76.99544766666666, "type": "electric_scooter", "fusion_lat": 0.0, "lat": 38.9002885, "name": "2394fa823a89b5adf6486445865ebaaf", "fusion_lon": 0.0, "bike_id": "2394fa823a89b5adf6486445865ebaaf", "is_disabled": 0, "is_reserved": 0}, {"rental_uris": {"ios": "https://dc.lft.to/lastmile_qr_scan", "android": "https://dc.lft.to/lastmile_qr_scan"}, "lon": -77.0288655, "type": "electric_scooter", "fusion_lat": 0.0, "lat": 38.9237925, "name": "915783d75a1290c62d6f466d7abe4d83", "fusion_lon": 0.0, "bike_id": "915783d75a1290c62d6f466d7abe4d83", "is_disabled": 0, "is_reserved": 0}, {"rental_uris": {"ios": "https://dc.lft.to/lastmile_qr_scan", "android": "https://dc.lft.to/lastmile_qr_scan"}, "lon": -77.17850516666667, "type": "electric_bike", "fusion_lat": 0.0, "lat": 39.089013, "name": "2d9c9bb21a996f422bac4e797b5e4ca2", "fusion_lon": 0.0, "bike_id": "2d9c9bb21a996f422bac4e797b5e4ca2", "is_disabled": 0, "is_reserved": 0}, {"rental_uris": {"ios": "https://dc.lft.to/lastmile_qr_scan", "android": "https://dc.lft.to/lastmile_qr_scan"}, "lon": -77.063982, "type": "electric_bike", "fusion_lat": 0.0, "lat": 38.84349366666667, "name": "ca863971e88dfca6104d823dab3df98a", "fusion_lon": 0.0, "bike_id": "ca863971e88dfca6104d823dab3df98a", "is_disabled": 0, "is_reserved": 0}, {"rental_uris": {"ios": "https://dc.lft.to/lastmile_qr_scan", "android": "https://dc.lft.to/lastmile_qr_scan"}, "lon": -77.0271415, "type": "electric_scooter", "fusion_lat": 0.0, "lat": 38.9172505, "name": "fb6434688486563e2dbe0c27916379d1", "fusion_lon": 0.0, "bike_id": "fb6434688486563e2dbe0c27916379d1", "is_disabled": 0, "is_reserved": 0}, {"rental_uris": {"ios": "https://dc.lft.to/lastmile_qr_scan", "android": "https://dc.lft.to/lastmile_qr_scan"}, "lon": -77.03277933333334, "type": "electric_scooter", "fusion_lat": 0.0, "lat": 38.90105766666667, "name": "6e5d36e7eddca503f6c81cae1205be31", "fusion_lon": 0.0, "bike_id": "6e5d36e7eddca503f6c81cae1205be31", "is_disabled": 0, "is_reserved": 0}, {"rental_uris": {"ios": "https://dc.lft.to/lastmile_qr_scan", "android": "https://dc.lft.to/lastmile_qr_scan"}, "lon": -76.99775383333333, "type": "electric_scooter", "fusion_lat": 0.0, "lat": 38.844250833333334, "name": "593ac09577a8b51a0c91796b7daed1c0", "fusion_lon": 0.0, "bike_id": "593ac09577a8b51a0c91796b7daed1c0", "is_disabled": 0, "is_reserved": 0}, {"rental_uris": {"ios": "https://dc.lft.to/lastmile_qr_scan", "android": "https://dc.lft.to/lastmile_qr_scan"}, "lon": -77.00648566666666, "type": "electric_scooter", "fusion_lat": 0.0, "lat": 38.917048, "name": "4966e095ce0daf78061258b9461a2cc7", "fusion_lon": 0.0, "bike_id": "4966e095ce0daf78061258b9461a2cc7", "is_disabled": 0, "is_reserved": 0}, {"rental_uris": {"ios": "https://dc.lft.to/lastmile_qr_scan", "android": "https://dc.lft.to/lastmile_qr_scan"}, "lon": -77.03954166666666, "type": "electric_scooter", "fusion_lat": 0.0, "lat": 38.904719, "name": "66c0b9a96bef212417b29fcd863f5c2c", "fusion_lon": 0.0, "bike_id": "66c0b9a96bef212417b29fcd863f5c2c", "is_disabled": 0, "is_reserved": 0}, {"rental_uris": {"ios": "https://dc.lft.to/lastmile_qr_scan", "android": "https://dc.lft.to/lastmile_qr_scan"}, "lon": -77.00493516666667, "type": "electric_scooter", "fusion_lat": 0.0, "lat": 38.896872, "name": "b430ca5b18634d25bf963d7ed64d37d8", "fusion_lon": 0.0, "bike_id": "b430ca5b18634d25bf963d7ed64d37d8", "is_disabled": 0, "is_reserved": 0}, {"rental_uris": {"ios": "https://dc.lft.to/lastmile_qr_scan", "android": "https://dc.lft.to/lastmile_qr_scan"}, "lon": -76.99811433333333, "type": "electric_bike", "fusion_lat": 0.0, "lat": 38.844352666666666, "name": "24d77f30e507982ff81c421e46023b7c", "fusion_lon": 0.0, "bike_id": "24d77f30e507982ff81c421e46023b7c", "is_disabled": 0, "is_reserved": 0}, {"rental_uris": {"ios": "https://dc.lft.to/lastmile_qr_scan", "android": "https://dc.lft.to/lastmile_qr_scan"}, "lon": -77.04816166666667, "type": "electric_scooter", "fusion_lat": 0.0, "lat": 38.92032833333333, "name": "663d44bb8b61f11a5b1a924ee100f4aa", "fusion_lon": 0.0, "bike_id": "663d44bb8b61f11a5b1a924ee100f4aa", "is_disabled": 0, "is_reserved": 0}, {"rental_uris": {"ios": "https://dc.lft.to/lastmile_qr_scan", "android": "https://dc.lft.to/lastmile_qr_scan"}, "lon": -77.03204816666667, "type": "electric_scooter", "fusion_lat": 0.0, "lat": 38.9160045, "name": "88a4145aa4ab0d633ee7cd3f7d64069b", "fusion_lon": 0.0, "bike_id": "88a4145aa4ab0d633ee7cd3f7d64069b", "is_disabled": 0, "is_reserved": 0}, {"rental_uris": {"ios": "https://dc.lft.to/lastmile_qr_scan", "android": "https://dc.lft.to/lastmile_qr_scan"}, "lon": -77.03549383333333, "type": "electric_scooter", "fusion_lat": 0.0, "lat": 38.912735833333336, "name": "926dd43ad2949dfac1c07b612f84021f", "fusion_lon": 0.0, "bike_id": "926dd43ad2949dfac1c07b612f84021f", "is_disabled": 0, "is_reserved": 0}, {"rental_uris": {"ios": "https://dc.lft.to/lastmile_qr_scan", "android": "https://dc.lft.to/lastmile_qr_scan"}, "lon": -77.031214, "type": "electric_scooter", "fusion_lat": 0.0, "lat": 38.912597833333336, "name": "b518a46770359168e7e1bb4719e22788", "fusion_lon": 0.0, "bike_id": "b518a46770359168e7e1bb4719e22788", "is_disabled": 0, "is_reserved": 0}, {"rental_uris": {"ios": "https://dc.lft.to/lastmile_qr_scan", "android": "https://dc.lft.to/lastmile_qr_scan"}, "lon": -77.043094, "type": "electric_bike", "fusion_lat": 0.0, "lat": 38.9278245, "name": "70be09c8db42b1f5979a8992b7f16a0a", "fusion_lon": 0.0, "bike_id": "70be09c8db42b1f5979a8992b7f16a0a", "is_disabled": 0, "is_reserved": 0}, {"rental_uris": {"ios": "https://dc.lft.to/lastmile_qr_scan", "android": "https://dc.lft.to/lastmile_qr_scan"}, "lon": -77.000698, "type": "electric_scooter", "fusion_lat": 0.0, "lat": 38.92550466666667, "name": "95b2b928e9a8060e5c2c61c2e49a44b1", "fusion_lon": 0.0, "bike_id": "95b2b928e9a8060e5c2c61c2e49a44b1", "is_disabled": 0, "is_reserved": 0}, {"rental_uris": {"ios": "https://dc.lft.to/lastmile_qr_scan", "android": "https://dc.lft.to/lastmile_qr_scan"}, "lon": -77.05151733333334, "type": "electric_scooter", "fusion_lat": 0.0, "lat": 38.89774833333333, "name": "1af3dc27305300595f298b7e63ee9984", "fusion_lon": 0.0, "bike_id": "1af3dc27305300595f298b7e63ee9984", "is_disabled": 0, "is_reserved": 0}, {"rental_uris": {"ios": "https://dc.lft.to/lastmile_qr_scan", "android": "https://dc.lft.to/lastmile_qr_scan"}, "lon": -77.03854433333333, "type": "electric_scooter", "fusion_lat": 0.0, "lat": 38.9041075, "name": "3ccc8c325a6ee0640cf693ffd91e37d1", "fusion_lon": 0.0, "bike_id": "3ccc8c325a6ee0640cf693ffd91e37d1", "is_disabled": 0, "is_reserved": 0}, {"rental_uris": {"ios": "https://dc.lft.to/lastmile_qr_scan", "android": "https://dc.lft.to/lastmile_qr_scan"}, "lon": -77.01430366666666, "type": "electric_scooter", "fusion_lat": 0.0, "lat": 38.92993283333333, "name": "35941d5c34de8cad33733be912379448", "fusion_lon": 0.0, "bike_id": "35941d5c34de8cad33733be912379448", "is_disabled": 0, "is_reserved": 0}, {"rental_uris": {"ios": "https://dc.lft.to/lastmile_qr_scan", "android": "https://dc.lft.to/lastmile_qr_scan"}, "lon": -77.0173585, "type": "electric_scooter", "fusion_lat": 0.0, "lat": 38.877295833333335, "name": "52f67b5cb78b33ad88484072d698d111", "fusion_lon": 0.0, "bike_id": "52f67b5cb78b33ad88484072d698d111", "is_disabled": 0, "is_reserved": 0}, {"rental_uris": {"ios": "https://dc.lft.to/lastmile_qr_scan", "android": "https://dc.lft.to/lastmile_qr_scan"}, "lon": -76.99545516666667, "type": "electric_scooter", "fusion_lat": 0.0, "lat": 38.886016, "name": "9d5362aebdb458cf21b687fc5f58d3f7", "fusion_lon": 0.0, "bike_id": "9d5362aebdb458cf21b687fc5f58d3f7", "is_disabled": 0, "is_reserved": 0}, {"rental_uris": {"ios": "https://dc.lft.to/lastmile_qr_scan", "android": "https://dc.lft.to/lastmile_qr_scan"}, "lon": -77.03167933333333, "type": "electric_scooter", "fusion_lat": 0.0, "lat": 38.89332666666667, "name": "2e4713233bd858efc7d334de74554f97", "fusion_lon": 0.0, "bike_id": "2e4713233bd858efc7d334de74554f97", "is_disabled": 0, "is_reserved": 0}, {"rental_uris": {"ios": "https://dc.lft.to/lastmile_qr_scan", "android": "https://dc.lft.to/lastmile_qr_scan"}, "lon": -77.00135316666666, "type": "electric_bike", "fusion_lat": 0.0, "lat": 38.9587135, "name": "6416bc818678c5c7ad097b6e5d56b3bc", "fusion_lon": 0.0, "bike_id": "6416bc818678c5c7ad097b6e5d56b3bc", "is_disabled": 0, "is_reserved": 0}, {"rental_uris": {"ios": "https://dc.lft.to/lastmile_qr_scan", "android": "https://dc.lft.to/lastmile_qr_scan"}, "lon": -76.980815, "type": "electric_bike", "fusion_lat": 0.0, "lat": 38.902889, "name": "63a9699d7618c03518e6b50f485a4b10", "fusion_lon": 0.0, "bike_id": "63a9699d7618c03518e6b50f485a4b10", "is_disabled": 0, "is_reserved": 0}, {"rental_uris": {"ios": "https://dc.lft.to/lastmile_qr_scan", "android": "https://dc.lft.to/lastmile_qr_scan"}, "lon": -76.93616716666666, "type": "electric_bike", "fusion_lat": 0.0, "lat": 38.970612333333335, "name": "02aedbffa3900be95869a5565262828f", "fusion_lon": 0.0, "bike_id": "02aedbffa3900be95869a5565262828f", "is_disabled": 0, "is_reserved": 0}, {"rental_uris": {"ios": "https://dc.lft.to/lastmile_qr_scan", "android": "https://dc.lft.to/lastmile_qr_scan"}, "lon": -77.02347433333334, "type": "electric_scooter", "fusion_lat": 0.0, "lat": 38.933871, "name": "c64d284a353b011f30a9164ae7a8cdf3", "fusion_lon": 0.0, "bike_id": "c64d284a353b011f30a9164ae7a8cdf3", "is_disabled": 0, "is_reserved": 0}, {"rental_uris": {"ios": "https://dc.lft.to/lastmile_qr_scan", "android": "https://dc.lft.to/lastmile_qr_scan"}, "lon": -77.11921033333333, "type": "electric_bike", "fusion_lat": 0.0, "lat": 38.841005333333335, "name": "70888a7dd3c2c6471f5ef74b70c339e1", "fusion_lon": 0.0, "bike_id": "70888a7dd3c2c6471f5ef74b70c339e1", "is_disabled": 0, "is_reserved": 0}, {"rental_uris": {"ios": "https://dc.lft.to/lastmile_qr_scan", "android": "https://dc.lft.to/lastmile_qr_scan"}, "lon": -77.02707, "type": "electric_scooter", "fusion_lat": 0.0, "lat": 38.88142233333333, "name": "4ac99eb6424a670e2d52ac7300dd99ac", "fusion_lon": 0.0, "bike_id": "4ac99eb6424a670e2d52ac7300dd99ac", "is_disabled": 0, "is_reserved": 0}, {"rental_uris": {"ios": "https://dc.lft.to/lastmile_qr_scan", "android": "https://dc.lft.to/lastmile_qr_scan"}, "lon": -77.01435466666666, "type": "electric_scooter", "fusion_lat": 0.0, "lat": 38.919609333333334, "name": "b53c2fa6c6b3166d7309cd20b5d99d38", "fusion_lon": 0.0, "bike_id": "b53c2fa6c6b3166d7309cd20b5d99d38", "is_disabled": 0, "is_reserved": 0}, {"rental_uris": {"ios": "https://dc.lft.to/lastmile_qr_scan", "android": "https://dc.lft.to/lastmile_qr_scan"}, "lon": -77.029697, "type": "electric_scooter", "fusion_lat": 0.0, "lat": 38.89569683333333, "name": "1f2c101af3a64730f615d246a3dc9308", "fusion_lon": 0.0, "bike_id": "1f2c101af3a64730f615d246a3dc9308", "is_disabled": 0, "is_reserved": 0}, {"rental_uris": {"ios": "https://dc.lft.to/lastmile_qr_scan", "android": "https://dc.lft.to/lastmile_qr_scan"}, "lon": -77.007569, "type": "electric_scooter", "fusion_lat": 0.0, "lat": 38.8715185, "name": "b327a7fca043f4bf5d1e3b99f37f068e", "fusion_lon": 0.0, "bike_id": "b327a7fca043f4bf5d1e3b99f37f068e", "is_disabled": 0, "is_reserved": 0}, {"rental_uris": {"ios": "https://dc.lft.to/lastmile_qr_scan", "android": "https://dc.lft.to/lastmile_qr_scan"}, "lon": -77.069393, "type": "electric_bike", "fusion_lat": 0.0, "lat": 38.846287833333335, "name": "2c63d281242acbcf092cbcb9d9d4bdd7", "fusion_lon": 0.0, "bike_id": "2c63d281242acbcf092cbcb9d9d4bdd7", "is_disabled": 0, "is_reserved": 0}, {"rental_uris": {"ios": "https://dc.lft.to/lastmile_qr_scan", "android": "https://dc.lft.to/lastmile_qr_scan"}, "lon": -77.07899033333334, "type": "electric_bike", "fusion_lat": 0.0, "lat": 38.8393685, "name": "15b851abc510d3d0ff4e7f085308d5b3", "fusion_lon": 0.0, "bike_id": "15b851abc510d3d0ff4e7f085308d5b3", "is_disabled": 0, "is_reserved": 0}, {"rental_uris": {"ios": "https://dc.lft.to/lastmile_qr_scan", "android": "https://dc.lft.to/lastmile_qr_scan"}, "lon": -77.00737216666667, "type": "electric_scooter", "fusion_lat": 0.0, "lat": 38.955229833333334, "name": "c30ef8fdf8a13e836985f66d2bbc45ec", "fusion_lon": 0.0, "bike_id": "c30ef8fdf8a13e836985f66d2bbc45ec", "is_disabled": 0, "is_reserved": 0}, {"rental_uris": {"ios": "https://dc.lft.to/lastmile_qr_scan", "android": "https://dc.lft.to/lastmile_qr_scan"}, "lon": -77.04236133333333, "type": "electric_scooter", "fusion_lat": 0.0, "lat": 38.921508, "name": "da86d14cca82d868c94f1b5e27602453", "fusion_lon": 0.0, "bike_id": "da86d14cca82d868c94f1b5e27602453", "is_disabled": 0, "is_reserved": 0}, {"rental_uris": {"ios": "https://dc.lft.to/lastmile_qr_scan", "android": "https://dc.lft.to/lastmile_qr_scan"}, "lon": -77.00301716666667, "type": "electric_scooter", "fusion_lat": 0.0, "lat": 38.88772816666667, "name": "b1bccda3ea2b4433314aa4571a5436dc", "fusion_lon": 0.0, "bike_id": "b1bccda3ea2b4433314aa4571a5436dc", "is_disabled": 0, "is_reserved": 0}, {"rental_uris": {"ios": "https://dc.lft.to/lastmile_qr_scan", "android": "https://dc.lft.to/lastmile_qr_scan"}, "lon": -77.03994116666667, "type": "electric_scooter", "fusion_lat": 0.0, "lat": 38.9003645, "name": "4b6f613ee9dd256aaa038b6744d0de12", "fusion_lon": 0.0, "bike_id": "4b6f613ee9dd256aaa038b6744d0de12", "is_disabled": 0, "is_reserved": 0}, {"rental_uris": {"ios": "https://dc.lft.to/lastmile_qr_scan", "android": "https://dc.lft.to/lastmile_qr_scan"}, "lon": -76.98997983333334, "type": "electric_scooter", "fusion_lat": 0.0, "lat": 38.865043, "name": "d47000976de02c31e47312b50f97db86", "fusion_lon": 0.0, "bike_id": "d47000976de02c31e47312b50f97db86", "is_disabled": 0, "is_reserved": 0}, {"rental_uris": {"ios": "https://dc.lft.to/lastmile_qr_scan", "android": "https://dc.lft.to/lastmile_qr_scan"}, "lon": -77.03216816666666, "type": "electric_scooter", "fusion_lat": 0.0, "lat": 38.91273483333333, "name": "db1f0ef091dc979f982ea94078fa140e", "fusion_lon": 0.0, "bike_id": "db1f0ef091dc979f982ea94078fa140e", "is_disabled": 0, "is_reserved": 0}, {"rental_uris": {"ios": "https://dc.lft.to/lastmile_qr_scan", "android": "https://dc.lft.to/lastmile_qr_scan"}, "lon": -77.06377666666667, "type": "electric_scooter", "fusion_lat": 0.0, "lat": 38.9052285, "name": "225750ff3017436126d851a9925c303c", "fusion_lon": 0.0, "bike_id": "225750ff3017436126d851a9925c303c", "is_disabled": 0, "is_reserved": 0}, {"rental_uris": {"ios": "https://dc.lft.to/lastmile_qr_scan", "android": "https://dc.lft.to/lastmile_qr_scan"}, "lon": -76.96849716666667, "type": "electric_scooter", "fusion_lat": 0.0, "lat": 38.87467433333333, "name": "24ccdaf66ff5dba304d3a0d8070f2fa7", "fusion_lon": 0.0, "bike_id": "24ccdaf66ff5dba304d3a0d8070f2fa7", "is_disabled": 0, "is_reserved": 0}, {"rental_uris": {"ios": "https://dc.lft.to/lastmile_qr_scan", "android": "https://dc.lft.to/lastmile_qr_scan"}, "lon": -77.023519, "type": "electric_scooter", "fusion_lat": 0.0, "lat": 38.931633, "name": "68cb54aee8f8ffd4dd488a4c1919f993", "fusion_lon": 0.0, "bike_id": "68cb54aee8f8ffd4dd488a4c1919f993", "is_disabled": 0, "is_reserved": 0}, {"rental_uris": {"ios": "https://dc.lft.to/lastmile_qr_scan", "android": "https://dc.lft.to/lastmile_qr_scan"}, "lon": -77.02420816666667, "type": "electric_scooter", "fusion_lat": 0.0, "lat": 38.905859666666665, "name": "980411299473e8ef81f757d2e349043e", "fusion_lon": 0.0, "bike_id": "980411299473e8ef81f757d2e349043e", "is_disabled": 0, "is_reserved": 0}, {"rental_uris": {"ios": "https://dc.lft.to/lastmile_qr_scan", "android": "https://dc.lft.to/lastmile_qr_scan"}, "lon": -77.06918083333333, "type": "electric_bike", "fusion_lat": 0.0, "lat": 38.909794833333336, "name": "3624795853136a1c4691e0b1cfabb64f", "fusion_lon": 0.0, "bike_id": "3624795853136a1c4691e0b1cfabb64f", "is_disabled": 0, "is_reserved": 0}, {"rental_uris": {"ios": "https://dc.lft.to/lastmile_qr_scan", "android": "https://dc.lft.to/lastmile_qr_scan"}, "lon": -77.0260975, "type": "electric_scooter", "fusion_lat": 0.0, "lat": 38.90162516666667, "name": "9424421c927ee4d7ee35120ad707580f", "fusion_lon": 0.0, "bike_id": "9424421c927ee4d7ee35120ad707580f", "is_disabled": 0, "is_reserved": 0}, {"rental_uris": {"ios": "https://dc.lft.to/lastmile_qr_scan", "android": "https://dc.lft.to/lastmile_qr_scan"}, "lon": -77.03630483333333, "type": "electric_scooter", "fusion_lat": 0.0, "lat": 38.90794316666667, "name": "f8deb66f22cb0f3aace7e22c94c1bcbf", "fusion_lon": 0.0, "bike_id": "f8deb66f22cb0f3aace7e22c94c1bcbf", "is_disabled": 0, "is_reserved": 0}, {"rental_uris": {"ios": "https://dc.lft.to/lastmile_qr_scan", "android": "https://dc.lft.to/lastmile_qr_scan"}, "lon": -77.07578233333334, "type": "electric_bike", "fusion_lat": 0.0, "lat": 38.906811833333336, "name": "a1711402a738cba59d62ffc0c090b144", "fusion_lon": 0.0, "bike_id": "a1711402a738cba59d62ffc0c090b144", "is_disabled": 0, "is_reserved": 0}, {"rental_uris": {"ios": "https://dc.lft.to/lastmile_qr_scan", "android": "https://dc.lft.to/lastmile_qr_scan"}, "lon": -76.997591, "type": "electric_scooter", "fusion_lat": 0.0, "lat": 38.900216666666665, "name": "5c81d3aace7b8701bb882b905187295d", "fusion_lon": 0.0, "bike_id": "5c81d3aace7b8701bb882b905187295d", "is_disabled": 0, "is_reserved": 0}, {"rental_uris": {"ios": "https://dc.lft.to/lastmile_qr_scan", "android": "https://dc.lft.to/lastmile_qr_scan"}, "lon": -77.0320805, "type": "electric_scooter", "fusion_lat": 0.0, "lat": 38.911576833333335, "name": "1a55d155c3df3cffa75155e5e39cd914", "fusion_lon": 0.0, "bike_id": "1a55d155c3df3cffa75155e5e39cd914", "is_disabled": 0, "is_reserved": 0}, {"rental_uris": {"ios": "https://dc.lft.to/lastmile_qr_scan", "android": "https://dc.lft.to/lastmile_qr_scan"}, "lon": -77.10703816666667, "type": "electric_bike", "fusion_lat": 0.0, "lat": 38.8554355, "name": "2c1324f49858bc9cd334742b8a18ee57", "fusion_lon": 0.0, "bike_id": "2c1324f49858bc9cd334742b8a18ee57", "is_disabled": 0, "is_reserved": 0}, {"rental_uris": {"ios": "https://dc.lft.to/lastmile_qr_scan", "android": "https://dc.lft.to/lastmile_qr_scan"}, "lon": -76.99731066666666, "type": "electric_scooter", "fusion_lat": 0.0, "lat": 38.900265, "name": "9fada87d024685df5d657c9313624ccf", "fusion_lon": 0.0, "bike_id": "9fada87d024685df5d657c9313624ccf", "is_disabled": 0, "is_reserved": 0}, {"rental_uris": {"ios": "https://dc.lft.to/lastmile_qr_scan", "android": "https://dc.lft.to/lastmile_qr_scan"}, "lon": -76.9883755, "type": "electric_scooter", "fusion_lat": 0.0, "lat": 38.892942833333336, "name": "37f9bb8bfbb409bd16e48dedee64e56a", "fusion_lon": 0.0, "bike_id": "37f9bb8bfbb409bd16e48dedee64e56a", "is_disabled": 0, "is_reserved": 0}, {"rental_uris": {"ios": "https://dc.lft.to/lastmile_qr_scan", "android": "https://dc.lft.to/lastmile_qr_scan"}, "lon": -76.98883816666667, "type": "electric_scooter", "fusion_lat": 0.0, "lat": 38.86655066666667, "name": "61796f7d0e621457b6844441e0d1eb86", "fusion_lon": 0.0, "bike_id": "61796f7d0e621457b6844441e0d1eb86", "is_disabled": 0, "is_reserved": 0}, {"rental_uris": {"ios": "https://dc.lft.to/lastmile_qr_scan", "android": "https://dc.lft.to/lastmile_qr_scan"}, "lon": -77.0511595, "type": "electric_bike", "fusion_lat": 0.0, "lat": 38.999661, "name": "7324a84738b43728817f0e2ceabb6df9", "fusion_lon": 0.0, "bike_id": "7324a84738b43728817f0e2ceabb6df9", "is_disabled": 0, "is_reserved": 0}, {"rental_uris": {"ios": "https://dc.lft.to/lastmile_qr_scan", "android": "https://dc.lft.to/lastmile_qr_scan"}, "lon": -77.03172716666667, "type": "electric_scooter", "fusion_lat": 0.0, "lat": 38.89352816666667, "name": "37054a263f54b8d3d783ef2f2717854e", "fusion_lon": 0.0, "bike_id": "37054a263f54b8d3d783ef2f2717854e", "is_disabled": 0, "is_reserved": 0}, {"rental_uris": {"ios": "https://dc.lft.to/lastmile_qr_scan", "android": "https://dc.lft.to/lastmile_qr_scan"}, "lon": -77.04175216666667, "type": "electric_scooter", "fusion_lat": 0.0, "lat": 38.9098575, "name": "3c26844b3f1d75b2f97b752a5c1b1270", "fusion_lon": 0.0, "bike_id": "3c26844b3f1d75b2f97b752a5c1b1270", "is_disabled": 0, "is_reserved": 0}, {"rental_uris": {"ios": "https://dc.lft.to/lastmile_qr_scan", "android": "https://dc.lft.to/lastmile_qr_scan"}, "lon": -76.9902025, "type": "electric_scooter", "fusion_lat": 0.0, "lat": 38.85869816666667, "name": "cc6e89c7c0c7b9949c7659f67801e5de", "fusion_lon": 0.0, "bike_id": "cc6e89c7c0c7b9949c7659f67801e5de", "is_disabled": 0, "is_reserved": 0}, {"rental_uris": {"ios": "https://dc.lft.to/lastmile_qr_scan", "android": "https://dc.lft.to/lastmile_qr_scan"}, "lon": -77.018604, "type": "electric_scooter", "fusion_lat": 0.0, "lat": 38.892666166666665, "name": "6ad918140fc106e3a72a36718b4b666b", "fusion_lon": 0.0, "bike_id": "6ad918140fc106e3a72a36718b4b666b", "is_disabled": 0, "is_reserved": 0}, {"rental_uris": {"ios": "https://dc.lft.to/lastmile_qr_scan", "android": "https://dc.lft.to/lastmile_qr_scan"}, "lon": -77.061765, "type": "electric_scooter", "fusion_lat": 0.0, "lat": 38.902477, "name": "d708d6e23caed8eb1e130077789a92d0", "fusion_lon": 0.0, "bike_id": "d708d6e23caed8eb1e130077789a92d0", "is_disabled": 0, "is_reserved": 0}, {"rental_uris": {"ios": "https://dc.lft.to/lastmile_qr_scan", "android": "https://dc.lft.to/lastmile_qr_scan"}, "lon": -76.9499785, "type": "electric_scooter", "fusion_lat": 0.0, "lat": 38.893713166666664, "name": "6872b1d47364dade3f539680ca21f5dd", "fusion_lon": 0.0, "bike_id": "6872b1d47364dade3f539680ca21f5dd", "is_disabled": 0, "is_reserved": 0}, {"rental_uris": {"ios": "https://dc.lft.to/lastmile_qr_scan", "android": "https://dc.lft.to/lastmile_qr_scan"}, "lon": -77.0254425, "type": "electric_scooter", "fusion_lat": 0.0, "lat": 38.892278, "name": "96554ccfeff80917cae13a2ffa7d0e7e", "fusion_lon": 0.0, "bike_id": "96554ccfeff80917cae13a2ffa7d0e7e", "is_disabled": 0, "is_reserved": 0}, {"rental_uris": {"ios": "https://dc.lft.to/lastmile_qr_scan", "android": "https://dc.lft.to/lastmile_qr_scan"}, "lon": -77.05893683333333, "type": "electric_scooter", "fusion_lat": 0.0, "lat": 38.93610316666667, "name": "d4e189c27b4b3c132a7f0aa01e7713fc", "fusion_lon": 0.0, "bike_id": "d4e189c27b4b3c132a7f0aa01e7713fc", "is_disabled": 0, "is_reserved": 0}, {"rental_uris": {"ios": "https://dc.lft.to/lastmile_qr_scan", "android": "https://dc.lft.to/lastmile_qr_scan"}, "lon": -77.08264283333334, "type": "electric_scooter", "fusion_lat": 0.0, "lat": 38.93033916666667, "name": "3dde05c254a74e474da7eafbc1db5818", "fusion_lon": 0.0, "bike_id": "3dde05c254a74e474da7eafbc1db5818", "is_disabled": 0, "is_reserved": 0}, {"rental_uris": {"ios": "https://dc.lft.to/lastmile_qr_scan", "android": "https://dc.lft.to/lastmile_qr_scan"}, "lon": -77.03309366666667, "type": "electric_scooter", "fusion_lat": 0.0, "lat": 38.9012615, "name": "da50072698fddd03dd25a80fdc2514e9", "fusion_lon": 0.0, "bike_id": "da50072698fddd03dd25a80fdc2514e9", "is_disabled": 0, "is_reserved": 0}, {"rental_uris": {"ios": "https://dc.lft.to/lastmile_qr_scan", "android": "https://dc.lft.to/lastmile_qr_scan"}, "lon": -77.04497866666667, "type": "electric_scooter", "fusion_lat": 0.0, "lat": 38.9066955, "name": "5d5c6a63ba48b32f42d3cbcc5b81a102", "fusion_lon": 0.0, "bike_id": "5d5c6a63ba48b32f42d3cbcc5b81a102", "is_disabled": 0, "is_reserved": 0}, {"rental_uris": {"ios": "https://dc.lft.to/lastmile_qr_scan", "android": "https://dc.lft.to/lastmile_qr_scan"}, "lon": -76.978219, "type": "electric_scooter", "fusion_lat": 0.0, "lat": 38.8951755, "name": "806853e9a92adbd9ef9dbda213c43b45", "fusion_lon": 0.0, "bike_id": "806853e9a92adbd9ef9dbda213c43b45", "is_disabled": 0, "is_reserved": 0}, {"rental_uris": {"ios": "https://dc.lft.to/lastmile_qr_scan", "android": "https://dc.lft.to/lastmile_qr_scan"}, "lon": -77.03187583333333, "type": "electric_scooter", "fusion_lat": 0.0, "lat": 38.91715416666667, "name": "2949d4284f94997a411df579db4b7819", "fusion_lon": 0.0, "bike_id": "2949d4284f94997a411df579db4b7819", "is_disabled": 0, "is_reserved": 0}, {"rental_uris": {"ios": "https://dc.lft.to/lastmile_qr_scan", "android": "https://dc.lft.to/lastmile_qr_scan"}, "lon": -77.01745083333333, "type": "electric_scooter", "fusion_lat": 0.0, "lat": 38.90564083333334, "name": "e53bf0c0cbd605b959202f171018d24d", "fusion_lon": 0.0, "bike_id": "e53bf0c0cbd605b959202f171018d24d", "is_disabled": 0, "is_reserved": 0}, {"rental_uris": {"ios": "https://dc.lft.to/lastmile_qr_scan", "android": "https://dc.lft.to/lastmile_qr_scan"}, "lon": -77.01655433333333, "type": "electric_scooter", "fusion_lat": 0.0, "lat": 38.914018, "name": "68abe5385ae4a213995bb3d4afa8d58f", "fusion_lon": 0.0, "bike_id": "68abe5385ae4a213995bb3d4afa8d58f", "is_disabled": 0, "is_reserved": 0}, {"rental_uris": {"ios": "https://dc.lft.to/lastmile_qr_scan", "android": "https://dc.lft.to/lastmile_qr_scan"}, "lon": -77.18293716666666, "type": "electric_bike", "fusion_lat": 0.0, "lat": 38.88344766666667, "name": "f342f610f4ae1dcf19e865a089d218b1", "fusion_lon": 0.0, "bike_id": "f342f610f4ae1dcf19e865a089d218b1", "is_disabled": 0, "is_reserved": 0}, {"rental_uris": {"ios": "https://dc.lft.to/lastmile_qr_scan", "android": "https://dc.lft.to/lastmile_qr_scan"}, "lon": -77.05337533333334, "type": "electric_scooter", "fusion_lat": 0.0, "lat": 38.905933166666664, "name": "1b5e00c37121b8e8108defd4883dc16c", "fusion_lon": 0.0, "bike_id": "1b5e00c37121b8e8108defd4883dc16c", "is_disabled": 0, "is_reserved": 0}, {"rental_uris": {"ios": "https://dc.lft.to/lastmile_qr_scan", "android": "https://dc.lft.to/lastmile_qr_scan"}, "lon": -77.03086933333333, "type": "electric_scooter", "fusion_lat": 0.0, "lat": 38.92025983333333, "name": "b6ac273325b17915f6575f225005e0d1", "fusion_lon": 0.0, "bike_id": "b6ac273325b17915f6575f225005e0d1", "is_disabled": 0, "is_reserved": 0}, {"rental_uris": {"ios": "https://dc.lft.to/lastmile_qr_scan", "android": "https://dc.lft.to/lastmile_qr_scan"}, "lon": -77.03498066666667, "type": "electric_scooter", "fusion_lat": 0.0, "lat": 38.9180865, "name": "a3e959f2880bc044d213ddda18eafa9d", "fusion_lon": 0.0, "bike_id": "a3e959f2880bc044d213ddda18eafa9d", "is_disabled": 0, "is_reserved": 0}, {"rental_uris": {"ios": "https://dc.lft.to/lastmile_qr_scan", "android": "https://dc.lft.to/lastmile_qr_scan"}, "lon": -76.99973066666666, "type": "electric_scooter", "fusion_lat": 0.0, "lat": 38.83840083333333, "name": "0af907806733d2bf95ca4598e04ff52b", "fusion_lon": 0.0, "bike_id": "0af907806733d2bf95ca4598e04ff52b", "is_disabled": 0, "is_reserved": 0}, {"rental_uris": {"ios": "https://dc.lft.to/lastmile_qr_scan", "android": "https://dc.lft.to/lastmile_qr_scan"}, "lon": -77.03506116666667, "type": "electric_scooter", "fusion_lat": 0.0, "lat": 38.9035965, "name": "1d07c201a1e88259c6d3a7cff0ab670f", "fusion_lon": 0.0, "bike_id": "1d07c201a1e88259c6d3a7cff0ab670f", "is_disabled": 0, "is_reserved": 0}, {"rental_uris": {"ios": "https://dc.lft.to/lastmile_qr_scan", "android": "https://dc.lft.to/lastmile_qr_scan"}, "lon": -77.01229666666667, "type": "electric_scooter", "fusion_lat": 0.0, "lat": 38.915521166666664, "name": "50182e85203749de552fa87fb1c8e385", "fusion_lon": 0.0, "bike_id": "50182e85203749de552fa87fb1c8e385", "is_disabled": 0, "is_reserved": 0}, {"rental_uris": {"ios": "https://dc.lft.to/lastmile_qr_scan", "android": "https://dc.lft.to/lastmile_qr_scan"}, "lon": -77.0264335, "type": "electric_scooter", "fusion_lat": 0.0, "lat": 38.91569533333333, "name": "c37cb56290052afdd51cf48a72e56e93", "fusion_lon": 0.0, "bike_id": "c37cb56290052afdd51cf48a72e56e93", "is_disabled": 0, "is_reserved": 0}, {"rental_uris": {"ios": "https://dc.lft.to/lastmile_qr_scan", "android": "https://dc.lft.to/lastmile_qr_scan"}, "lon": -77.0637155, "type": "electric_scooter", "fusion_lat": 0.0, "lat": 38.94421666666667, "name": "a3dc7e6e0645a6d50e456f774471db71", "fusion_lon": 0.0, "bike_id": "a3dc7e6e0645a6d50e456f774471db71", "is_disabled": 0, "is_reserved": 0}, {"rental_uris": {"ios": "https://dc.lft.to/lastmile_qr_scan", "android": "https://dc.lft.to/lastmile_qr_scan"}, "lon": -77.00732583333334, "type": "electric_scooter", "fusion_lat": 0.0, "lat": 38.903714, "name": "4dc6054d2558193281bbe3797a4cc674", "fusion_lon": 0.0, "bike_id": "4dc6054d2558193281bbe3797a4cc674", "is_disabled": 0, "is_reserved": 0}, {"rental_uris": {"ios": "https://dc.lft.to/lastmile_qr_scan", "android": "https://dc.lft.to/lastmile_qr_scan"}, "lon": -76.9995735, "type": "electric_scooter", "fusion_lat": 0.0, "lat": 38.90866, "name": "dc82ea2604e1e4a48fa395050f0fe0f1", "fusion_lon": 0.0, "bike_id": "dc82ea2604e1e4a48fa395050f0fe0f1", "is_disabled": 0, "is_reserved": 0}, {"rental_uris": {"ios": "https://dc.lft.to/lastmile_qr_scan", "android": "https://dc.lft.to/lastmile_qr_scan"}, "lon": -77.00093916666667, "type": "electric_scooter", "fusion_lat": 0.0, "lat": 38.9075045, "name": "b83572f521a32b4e71b259aaa647fda3", "fusion_lon": 0.0, "bike_id": "b83572f521a32b4e71b259aaa647fda3", "is_disabled": 0, "is_reserved": 0}, {"rental_uris": {"ios": "https://dc.lft.to/lastmile_qr_scan", "android": "https://dc.lft.to/lastmile_qr_scan"}, "lon": -77.02796533333333, "type": "electric_scooter", "fusion_lat": 0.0, "lat": 38.8935935, "name": "182c5d3f044a0330622f2bde881b6d9e", "fusion_lon": 0.0, "bike_id": "182c5d3f044a0330622f2bde881b6d9e", "is_disabled": 0, "is_reserved": 0}, {"rental_uris": {"ios": "https://dc.lft.to/lastmile_qr_scan", "android": "https://dc.lft.to/lastmile_qr_scan"}, "lon": -77.023582, "type": "electric_scooter", "fusion_lat": 0.0, "lat": 38.8847505, "name": "681a0173e9e066f7f0afbdf59431275e", "fusion_lon": 0.0, "bike_id": "681a0173e9e066f7f0afbdf59431275e", "is_disabled": 0, "is_reserved": 0}, {"rental_uris": {"ios": "https://dc.lft.to/lastmile_qr_scan", "android": "https://dc.lft.to/lastmile_qr_scan"}, "lon": -77.03824366666667, "type": "electric_scooter", "fusion_lat": 0.0, "lat": 38.91255966666667, "name": "8152f5f671770803c7359e6fb23a79d9", "fusion_lon": 0.0, "bike_id": "8152f5f671770803c7359e6fb23a79d9", "is_disabled": 0, "is_reserved": 0}, {"rental_uris": {"ios": "https://dc.lft.to/lastmile_qr_scan", "android": "https://dc.lft.to/lastmile_qr_scan"}, "lon": -77.03692066666666, "type": "electric_scooter", "fusion_lat": 0.0, "lat": 38.93644483333333, "name": "902c945be53f07185936b140b3feec38", "fusion_lon": 0.0, "bike_id": "902c945be53f07185936b140b3feec38", "is_disabled": 0, "is_reserved": 0}, {"rental_uris": {"ios": "https://dc.lft.to/lastmile_qr_scan", "android": "https://dc.lft.to/lastmile_qr_scan"}, "lon": -77.01931733333333, "type": "electric_scooter", "fusion_lat": 0.0, "lat": 38.94927033333333, "name": "f2d599c7d7749ea325f7ca4dbaab7a56", "fusion_lon": 0.0, "bike_id": "f2d599c7d7749ea325f7ca4dbaab7a56", "is_disabled": 0, "is_reserved": 0}, {"rental_uris": {"ios": "https://dc.lft.to/lastmile_qr_scan", "android": "https://dc.lft.to/lastmile_qr_scan"}, "lon": -77.0279745, "type": "electric_scooter", "fusion_lat": 0.0, "lat": 38.89525166666667, "name": "640ced94efdeeebe73b8c6f991ade1fa", "fusion_lon": 0.0, "bike_id": "640ced94efdeeebe73b8c6f991ade1fa", "is_disabled": 0, "is_reserved": 0}, {"rental_uris": {"ios": "https://dc.lft.to/lastmile_qr_scan", "android": "https://dc.lft.to/lastmile_qr_scan"}, "lon": -77.0218175, "type": "electric_scooter", "fusion_lat": 0.0, "lat": 38.916510333333335, "name": "ffa42364d5c0de724cb8872cacf23af9", "fusion_lon": 0.0, "bike_id": "ffa42364d5c0de724cb8872cacf23af9", "is_disabled": 0, "is_reserved": 0}, {"rental_uris": {"ios": "https://dc.lft.to/lastmile_qr_scan", "android": "https://dc.lft.to/lastmile_qr_scan"}, "lon": -77.054647, "type": "electric_scooter", "fusion_lat": 0.0, "lat": 38.904953666666664, "name": "7bf29678ec0590d113ee394968613e5e", "fusion_lon": 0.0, "bike_id": "7bf29678ec0590d113ee394968613e5e", "is_disabled": 0, "is_reserved": 0}, {"rental_uris": {"ios": "https://dc.lft.to/lastmile_qr_scan", "android": "https://dc.lft.to/lastmile_qr_scan"}, "lon": -77.075539, "type": "electric_scooter", "fusion_lat": 0.0, "lat": 38.91429216666667, "name": "6d7f53dd0b110039b4a755f44db6986d", "fusion_lon": 0.0, "bike_id": "6d7f53dd0b110039b4a755f44db6986d", "is_disabled": 0, "is_reserved": 0}, {"rental_uris": {"ios": "https://dc.lft.to/lastmile_qr_scan", "android": "https://dc.lft.to/lastmile_qr_scan"}, "lon": -77.02676383333333, "type": "electric_scooter", "fusion_lat": 0.0, "lat": 38.89199716666667, "name": "8339ac41d07533d49cc9409743d0b870", "fusion_lon": 0.0, "bike_id": "8339ac41d07533d49cc9409743d0b870", "is_disabled": 0, "is_reserved": 0}, {"rental_uris": {"ios": "https://dc.lft.to/lastmile_qr_scan", "android": "https://dc.lft.to/lastmile_qr_scan"}, "lon": -76.9832435, "type": "electric_scooter", "fusion_lat": 0.0, "lat": 38.861732833333335, "name": "cdd8712dc6e551b748eaeb51c53e13e8", "fusion_lon": 0.0, "bike_id": "cdd8712dc6e551b748eaeb51c53e13e8", "is_disabled": 0, "is_reserved": 0}, {"rental_uris": {"ios": "https://dc.lft.to/lastmile_qr_scan", "android": "https://dc.lft.to/lastmile_qr_scan"}, "lon": -76.99621516666667, "type": "electric_scooter", "fusion_lat": 0.0, "lat": 38.884443833333336, "name": "2914449d1f266ebe11d007c65f4e218a", "fusion_lon": 0.0, "bike_id": "2914449d1f266ebe11d007c65f4e218a", "is_disabled": 0, "is_reserved": 0}, {"rental_uris": {"ios": "https://dc.lft.to/lastmile_qr_scan", "android": "https://dc.lft.to/lastmile_qr_scan"}, "lon": -76.95754466666666, "type": "electric_scooter", "fusion_lat": 0.0, "lat": 38.884305833333336, "name": "974dd507553f57da951710270d1ada00", "fusion_lon": 0.0, "bike_id": "974dd507553f57da951710270d1ada00", "is_disabled": 0, "is_reserved": 0}, {"rental_uris": {"ios": "https://dc.lft.to/lastmile_qr_scan", "android": "https://dc.lft.to/lastmile_qr_scan"}, "lon": -76.93792633333334, "type": "electric_scooter", "fusion_lat": 0.0, "lat": 38.890887, "name": "77f9faf7fdfb863964d721ecef8beb04", "fusion_lon": 0.0, "bike_id": "77f9faf7fdfb863964d721ecef8beb04", "is_disabled": 0, "is_reserved": 0}, {"rental_uris": {"ios": "https://dc.lft.to/lastmile_qr_scan", "android": "https://dc.lft.to/lastmile_qr_scan"}, "lon": -77.035355, "type": "electric_scooter", "fusion_lat": 0.0, "lat": 38.91486616666667, "name": "a5a926fbdf0e7e7d318fa0b486c40037", "fusion_lon": 0.0, "bike_id": "a5a926fbdf0e7e7d318fa0b486c40037", "is_disabled": 0, "is_reserved": 0}, {"rental_uris": {"ios": "https://dc.lft.to/lastmile_qr_scan", "android": "https://dc.lft.to/lastmile_qr_scan"}, "lon": -77.03836616666666, "type": "electric_scooter", "fusion_lat": 0.0, "lat": 38.9217535, "name": "a162258d3bc5a4d57e46910b2c9df191", "fusion_lon": 0.0, "bike_id": "a162258d3bc5a4d57e46910b2c9df191", "is_disabled": 0, "is_reserved": 0}, {"rental_uris": {"ios": "https://dc.lft.to/lastmile_qr_scan", "android": "https://dc.lft.to/lastmile_qr_scan"}, "lon": -77.0157195, "type": "electric_scooter", "fusion_lat": 0.0, "lat": 38.8906125, "name": "6d91db0c474dd27370685457a5b3f135", "fusion_lon": 0.0, "bike_id": "6d91db0c474dd27370685457a5b3f135", "is_disabled": 0, "is_reserved": 0}, {"rental_uris": {"ios": "https://dc.lft.to/lastmile_qr_scan", "android": "https://dc.lft.to/lastmile_qr_scan"}, "lon": -77.02654, "type": "electric_scooter", "fusion_lat": 0.0, "lat": 38.897544, "name": "722e082890c40340d66a77335806fbbd", "fusion_lon": 0.0, "bike_id": "722e082890c40340d66a77335806fbbd", "is_disabled": 0, "is_reserved": 0}, {"rental_uris": {"ios": "https://dc.lft.to/lastmile_qr_scan", "android": "https://dc.lft.to/lastmile_qr_scan"}, "lon": -77.03088966666667, "type": "electric_scooter", "fusion_lat": 0.0, "lat": 38.917023, "name": "aaff4677646c5eb9441389eb318e222d", "fusion_lon": 0.0, "bike_id": "aaff4677646c5eb9441389eb318e222d", "is_disabled": 0, "is_reserved": 0}, {"rental_uris": {"ios": "https://dc.lft.to/lastmile_qr_scan", "android": "https://dc.lft.to/lastmile_qr_scan"}, "lon": -76.96501316666667, "type": "electric_scooter", "fusion_lat": 0.0, "lat": 38.87648266666667, "name": "1d4b56784c75465723be9fac4f37d37a", "fusion_lon": 0.0, "bike_id": "1d4b56784c75465723be9fac4f37d37a", "is_disabled": 0, "is_reserved": 0}, {"rental_uris": {"ios": "https://dc.lft.to/lastmile_qr_scan", "android": "https://dc.lft.to/lastmile_qr_scan"}, "lon": -77.15264416666666, "type": "electric_bike", "fusion_lat": 0.0, "lat": 39.10566383333333, "name": "05460880acc9c0d56c74b8fc10d83e15", "fusion_lon": 0.0, "bike_id": "05460880acc9c0d56c74b8fc10d83e15", "is_disabled": 0, "is_reserved": 0}, {"rental_uris": {"ios": "https://dc.lft.to/lastmile_qr_scan", "android": "https://dc.lft.to/lastmile_qr_scan"}, "lon": -77.02489816666667, "type": "electric_scooter", "fusion_lat": 0.0, "lat": 38.92987983333333, "name": "067b680c217b9f0888ccde2b96c17186", "fusion_lon": 0.0, "bike_id": "067b680c217b9f0888ccde2b96c17186", "is_disabled": 0, "is_reserved": 0}, {"rental_uris": {"ios": "https://dc.lft.to/lastmile_qr_scan", "android": "https://dc.lft.to/lastmile_qr_scan"}, "lon": -77.07213133333333, "type": "electric_scooter", "fusion_lat": 0.0, "lat": 38.934726166666664, "name": "b8f992771caa6c9f29b04673ab1f8475", "fusion_lon": 0.0, "bike_id": "b8f992771caa6c9f29b04673ab1f8475", "is_disabled": 0, "is_reserved": 0}, {"rental_uris": {"ios": "https://dc.lft.to/lastmile_qr_scan", "android": "https://dc.lft.to/lastmile_qr_scan"}, "lon": -77.026165, "type": "electric_scooter", "fusion_lat": 0.0, "lat": 38.91676066666667, "name": "28ebe04e30c1470ef6d8961a9e8cd887", "fusion_lon": 0.0, "bike_id": "28ebe04e30c1470ef6d8961a9e8cd887", "is_disabled": 0, "is_reserved": 0}, {"rental_uris": {"ios": "https://dc.lft.to/lastmile_qr_scan", "android": "https://dc.lft.to/lastmile_qr_scan"}, "lon": -77.05915216666666, "type": "electric_scooter", "fusion_lat": 0.0, "lat": 38.904478, "name": "242c7a50be6e007a2d3009e371f27977", "fusion_lon": 0.0, "bike_id": "242c7a50be6e007a2d3009e371f27977", "is_disabled": 0, "is_reserved": 0}, {"rental_uris": {"ios": "https://dc.lft.to/lastmile_qr_scan", "android": "https://dc.lft.to/lastmile_qr_scan"}, "lon": -77.04626116666667, "type": "electric_scooter", "fusion_lat": 0.0, "lat": 38.91631816666667, "name": "64ba094669b7a0c21d0f7e6c6680b5c0", "fusion_lon": 0.0, "bike_id": "64ba094669b7a0c21d0f7e6c6680b5c0", "is_disabled": 0, "is_reserved": 0}, {"rental_uris": {"ios": "https://dc.lft.to/lastmile_qr_scan", "android": "https://dc.lft.to/lastmile_qr_scan"}, "lon": -77.07183066666667, "type": "electric_scooter", "fusion_lat": 0.0, "lat": 38.91996183333333, "name": "07dbfa0398b0d1dd79dbd2683e45f4a2", "fusion_lon": 0.0, "bike_id": "07dbfa0398b0d1dd79dbd2683e45f4a2", "is_disabled": 0, "is_reserved": 0}, {"rental_uris": {"ios": "https://dc.lft.to/lastmile_qr_scan", "android": "https://dc.lft.to/lastmile_qr_scan"}, "lon": -77.02525133333333, "type": "electric_scooter", "fusion_lat": 0.0, "lat": 38.9430135, "name": "f499fb2c3cb50b21b2fd761e3d26895f", "fusion_lon": 0.0, "bike_id": "f499fb2c3cb50b21b2fd761e3d26895f", "is_disabled": 0, "is_reserved": 0}, {"rental_uris": {"ios": "https://dc.lft.to/lastmile_qr_scan", "android": "https://dc.lft.to/lastmile_qr_scan"}, "lon": -77.0033865, "type": "electric_scooter", "fusion_lat": 0.0, "lat": 38.907030666666664, "name": "f655a4630e38d0ae3ffa8e2f2a7ef37b", "fusion_lon": 0.0, "bike_id": "f655a4630e38d0ae3ffa8e2f2a7ef37b", "is_disabled": 0, "is_reserved": 0}, {"rental_uris": {"ios": "https://dc.lft.to/lastmile_qr_scan", "android": "https://dc.lft.to/lastmile_qr_scan"}, "lon": -77.04040066666667, "type": "electric_scooter", "fusion_lat": 0.0, "lat": 38.92469883333333, "name": "418a3de28d4d815c4dfe3a403db69d8d", "fusion_lon": 0.0, "bike_id": "418a3de28d4d815c4dfe3a403db69d8d", "is_disabled": 0, "is_reserved": 0}, {"rental_uris": {"ios": "https://dc.lft.to/lastmile_qr_scan", "android": "https://dc.lft.to/lastmile_qr_scan"}, "lon": -77.04499016666666, "type": "electric_scooter", "fusion_lat": 0.0, "lat": 38.907241, "name": "25ce7910c2da69ae8c8d529f6b37ccdc", "fusion_lon": 0.0, "bike_id": "25ce7910c2da69ae8c8d529f6b37ccdc", "is_disabled": 0, "is_reserved": 0}, {"rental_uris": {"ios": "https://dc.lft.to/lastmile_qr_scan", "android": "https://dc.lft.to/lastmile_qr_scan"}, "lon": -77.01578683333334, "type": "electric_scooter", "fusion_lat": 0.0, "lat": 38.88748616666667, "name": "5d6bee8cf242fd2b3aa2478271fad69b", "fusion_lon": 0.0, "bike_id": "5d6bee8cf242fd2b3aa2478271fad69b", "is_disabled": 0, "is_reserved": 0}, {"rental_uris": {"ios": "https://dc.lft.to/lastmile_qr_scan", "android": "https://dc.lft.to/lastmile_qr_scan"}, "lon": -76.98019316666667, "type": "electric_scooter", "fusion_lat": 0.0, "lat": 38.88767416666666, "name": "76de016bc5cf6d415fc11dbfa1a6ab5b", "fusion_lon": 0.0, "bike_id": "76de016bc5cf6d415fc11dbfa1a6ab5b", "is_disabled": 0, "is_reserved": 0}, {"rental_uris": {"ios": "https://dc.lft.to/lastmile_qr_scan", "android": "https://dc.lft.to/lastmile_qr_scan"}, "lon": -76.9879965, "type": "electric_bike", "fusion_lat": 0.0, "lat": 38.86373533333333, "name": "42e32223bf4b75dc2f9c5247410e0c8e", "fusion_lon": 0.0, "bike_id": "42e32223bf4b75dc2f9c5247410e0c8e", "is_disabled": 0, "is_reserved": 0}, {"rental_uris": {"ios": "https://dc.lft.to/lastmile_qr_scan", "android": "https://dc.lft.to/lastmile_qr_scan"}, "lon": -77.03790816666667, "type": "electric_scooter", "fusion_lat": 0.0, "lat": 38.926408333333335, "name": "53592829ac08c22eba286c115cf6d23e", "fusion_lon": 0.0, "bike_id": "53592829ac08c22eba286c115cf6d23e", "is_disabled": 0, "is_reserved": 0}, {"rental_uris": {"ios": "https://dc.lft.to/lastmile_qr_scan", "android": "https://dc.lft.to/lastmile_qr_scan"}, "lon": -77.04461533333334, "type": "electric_scooter", "fusion_lat": 0.0, "lat": 38.909665, "name": "54cdf9cb80b0f1b7cc6bdaecb6e1a627", "fusion_lon": 0.0, "bike_id": "54cdf9cb80b0f1b7cc6bdaecb6e1a627", "is_disabled": 0, "is_reserved": 0}, {"rental_uris": {"ios": "https://dc.lft.to/lastmile_qr_scan", "android": "https://dc.lft.to/lastmile_qr_scan"}, "lon": -77.02379166666667, "type": "electric_scooter", "fusion_lat": 0.0, "lat": 38.90943266666667, "name": "5ca24f6c14cd3e535de15eaae446d619", "fusion_lon": 0.0, "bike_id": "5ca24f6c14cd3e535de15eaae446d619", "is_disabled": 0, "is_reserved": 0}, {"rental_uris": {"ios": "https://dc.lft.to/lastmile_qr_scan", "android": "https://dc.lft.to/lastmile_qr_scan"}, "lon": -77.02459233333333, "type": "electric_scooter", "fusion_lat": 0.0, "lat": 38.91701716666667, "name": "0cba40fe5fcf73e3760f70c175f171a1", "fusion_lon": 0.0, "bike_id": "0cba40fe5fcf73e3760f70c175f171a1", "is_disabled": 0, "is_reserved": 0}, {"rental_uris": {"ios": "https://dc.lft.to/lastmile_qr_scan", "android": "https://dc.lft.to/lastmile_qr_scan"}, "lon": -77.055978, "type": "electric_scooter", "fusion_lat": 0.0, "lat": 38.93595933333334, "name": "6a771f13df0b42fb366e1711c61d66e7", "fusion_lon": 0.0, "bike_id": "6a771f13df0b42fb366e1711c61d66e7", "is_disabled": 0, "is_reserved": 0}, {"rental_uris": {"ios": "https://dc.lft.to/lastmile_qr_scan", "android": "https://dc.lft.to/lastmile_qr_scan"}, "lon": -77.03357316666667, "type": "electric_scooter", "fusion_lat": 0.0, "lat": 38.887516, "name": "952e994bdf7da4166ca7e2df83a0edf5", "fusion_lon": 0.0, "bike_id": "952e994bdf7da4166ca7e2df83a0edf5", "is_disabled": 0, "is_reserved": 0}, {"rental_uris": {"ios": "https://dc.lft.to/lastmile_qr_scan", "android": "https://dc.lft.to/lastmile_qr_scan"}, "lon": -77.019961, "type": "electric_scooter", "fusion_lat": 0.0, "lat": 38.8775355, "name": "47c110a52f1ede42ae9a04f0f51ddf95", "fusion_lon": 0.0, "bike_id": "47c110a52f1ede42ae9a04f0f51ddf95", "is_disabled": 0, "is_reserved": 0}, {"rental_uris": {"ios": "https://dc.lft.to/lastmile_qr_scan", "android": "https://dc.lft.to/lastmile_qr_scan"}, "lon": -77.02815466666667, "type": "electric_scooter", "fusion_lat": 0.0, "lat": 38.892267, "name": "9ca0efe227b4e54e964dbf2d3913d5bc", "fusion_lon": 0.0, "bike_id": "9ca0efe227b4e54e964dbf2d3913d5bc", "is_disabled": 0, "is_reserved": 0}, {"rental_uris": {"ios": "https://dc.lft.to/lastmile_qr_scan", "android": "https://dc.lft.to/lastmile_qr_scan"}, "lon": -77.00261433333333, "type": "electric_scooter", "fusion_lat": 0.0, "lat": 38.898961666666665, "name": "fed3726fff340ed6667b5969cd74a909", "fusion_lon": 0.0, "bike_id": "fed3726fff340ed6667b5969cd74a909", "is_disabled": 0, "is_reserved": 0}, {"rental_uris": {"ios": "https://dc.lft.to/lastmile_qr_scan", "android": "https://dc.lft.to/lastmile_qr_scan"}, "lon": -77.0235115, "type": "electric_scooter", "fusion_lat": 0.0, "lat": 38.90871666666666, "name": "8217ee7d63ee893e1076c60067d30f7d", "fusion_lon": 0.0, "bike_id": "8217ee7d63ee893e1076c60067d30f7d", "is_disabled": 0, "is_reserved": 0}, {"rental_uris": {"ios": "https://dc.lft.to/lastmile_qr_scan", "android": "https://dc.lft.to/lastmile_qr_scan"}, "lon": -77.010749, "type": "electric_bike", "fusion_lat": 0.0, "lat": 38.95656116666667, "name": "5d58ceb08ccbd1e5b9eef0542fd06f84", "fusion_lon": 0.0, "bike_id": "5d58ceb08ccbd1e5b9eef0542fd06f84", "is_disabled": 0, "is_reserved": 0}, {"rental_uris": {"ios": "https://dc.lft.to/lastmile_qr_scan", "android": "https://dc.lft.to/lastmile_qr_scan"}, "lon": -77.04456316666666, "type": "electric_scooter", "fusion_lat": 0.0, "lat": 38.919584666666665, "name": "268da62b6ab8ad6e568c8ba9580b9968", "fusion_lon": 0.0, "bike_id": "268da62b6ab8ad6e568c8ba9580b9968", "is_disabled": 0, "is_reserved": 0}, {"rental_uris": {"ios": "https://dc.lft.to/lastmile_qr_scan", "android": "https://dc.lft.to/lastmile_qr_scan"}, "lon": -76.99846633333334, "type": "electric_scooter", "fusion_lat": 0.0, "lat": 38.8948675, "name": "a9c16d4ce6b8657be714ec67265d671c", "fusion_lon": 0.0, "bike_id": "a9c16d4ce6b8657be714ec67265d671c", "is_disabled": 0, "is_reserved": 0}, {"rental_uris": {"ios": "https://dc.lft.to/lastmile_qr_scan", "android": "https://dc.lft.to/lastmile_qr_scan"}, "lon": -76.93716616666667, "type": "electric_scooter", "fusion_lat": 0.0, "lat": 38.89590333333334, "name": "bf1bf551e4293f4393cdc902995aa295", "fusion_lon": 0.0, "bike_id": "bf1bf551e4293f4393cdc902995aa295", "is_disabled": 0, "is_reserved": 0}, {"rental_uris": {"ios": "https://dc.lft.to/lastmile_qr_scan", "android": "https://dc.lft.to/lastmile_qr_scan"}, "lon": -77.03963, "type": "electric_scooter", "fusion_lat": 0.0, "lat": 38.903672, "name": "9c124209b1a120a584318eae4dd94420", "fusion_lon": 0.0, "bike_id": "9c124209b1a120a584318eae4dd94420", "is_disabled": 0, "is_reserved": 0}, {"rental_uris": {"ios": "https://dc.lft.to/lastmile_qr_scan", "android": "https://dc.lft.to/lastmile_qr_scan"}, "lon": -77.04173233333333, "type": "electric_scooter", "fusion_lat": 0.0, "lat": 38.91770133333333, "name": "24673a986f1c4af203560bb19ba1b0f6", "fusion_lon": 0.0, "bike_id": "24673a986f1c4af203560bb19ba1b0f6", "is_disabled": 0, "is_reserved": 0}, {"rental_uris": {"ios": "https://dc.lft.to/lastmile_qr_scan", "android": "https://dc.lft.to/lastmile_qr_scan"}, "lon": -77.00230866666666, "type": "electric_scooter", "fusion_lat": 0.0, "lat": 38.91193783333333, "name": "d62389eb6bb7e74e78c7f5515288c915", "fusion_lon": 0.0, "bike_id": "d62389eb6bb7e74e78c7f5515288c915", "is_disabled": 0, "is_reserved": 0}, {"rental_uris": {"ios": "https://dc.lft.to/lastmile_qr_scan", "android": "https://dc.lft.to/lastmile_qr_scan"}, "lon": -76.97489883333333, "type": "electric_bike", "fusion_lat": 0.0, "lat": 38.92007616666667, "name": "f7b005a6ab4f1154c88f93a12d90e356", "fusion_lon": 0.0, "bike_id": "f7b005a6ab4f1154c88f93a12d90e356", "is_disabled": 0, "is_reserved": 0}, {"rental_uris": {"ios": "https://dc.lft.to/lastmile_qr_scan", "android": "https://dc.lft.to/lastmile_qr_scan"}, "lon": -77.04165233333333, "type": "electric_scooter", "fusion_lat": 0.0, "lat": 38.905454, "name": "a1c0d7c86e6a7ac6ce05cfb8fa105910", "fusion_lon": 0.0, "bike_id": "a1c0d7c86e6a7ac6ce05cfb8fa105910", "is_disabled": 0, "is_reserved": 0}, {"rental_uris": {"ios": "https://dc.lft.to/lastmile_qr_scan", "android": "https://dc.lft.to/lastmile_qr_scan"}, "lon": -77.04112216666667, "type": "electric_scooter", "fusion_lat": 0.0, "lat": 38.92448266666667, "name": "3631e1c230bb0fe10a1f35959fb4f25a", "fusion_lon": 0.0, "bike_id": "3631e1c230bb0fe10a1f35959fb4f25a", "is_disabled": 0, "is_reserved": 0}, {"rental_uris": {"ios": "https://dc.lft.to/lastmile_qr_scan", "android": "https://dc.lft.to/lastmile_qr_scan"}, "lon": -77.034669, "type": "electric_scooter", "fusion_lat": 0.0, "lat": 38.912671333333336, "name": "335ee0d7a95cadc2c45a6e7d3e2148eb", "fusion_lon": 0.0, "bike_id": "335ee0d7a95cadc2c45a6e7d3e2148eb", "is_disabled": 0, "is_reserved": 0}, {"rental_uris": {"ios": "https://dc.lft.to/lastmile_qr_scan", "android": "https://dc.lft.to/lastmile_qr_scan"}, "lon": -76.979239, "type": "electric_scooter", "fusion_lat": 0.0, "lat": 38.906694, "name": "239f7e429c2a9962435bd4a0a744ca91", "fusion_lon": 0.0, "bike_id": "239f7e429c2a9962435bd4a0a744ca91", "is_disabled": 0, "is_reserved": 0}, {"rental_uris": {"ios": "https://dc.lft.to/lastmile_qr_scan", "android": "https://dc.lft.to/lastmile_qr_scan"}, "lon": -77.03355583333334, "type": "electric_scooter", "fusion_lat": 0.0, "lat": 38.91197533333333, "name": "a517c8ee0a16ad81e93c6fee23fe4475", "fusion_lon": 0.0, "bike_id": "a517c8ee0a16ad81e93c6fee23fe4475", "is_disabled": 0, "is_reserved": 0}, {"rental_uris": {"ios": "https://dc.lft.to/lastmile_qr_scan", "android": "https://dc.lft.to/lastmile_qr_scan"}, "lon": -77.05322933333333, "type": "electric_bike", "fusion_lat": 0.0, "lat": 38.905344, "name": "3aa6bc46abede24509694ede20d968f0", "fusion_lon": 0.0, "bike_id": "3aa6bc46abede24509694ede20d968f0", "is_disabled": 0, "is_reserved": 0}, {"rental_uris": {"ios": "https://dc.lft.to/lastmile_qr_scan", "android": "https://dc.lft.to/lastmile_qr_scan"}, "lon": -76.97405866666666, "type": "electric_scooter", "fusion_lat": 0.0, "lat": 38.901559166666665, "name": "900e034c55f4c2ac0a1f196d3bebbe81", "fusion_lon": 0.0, "bike_id": "900e034c55f4c2ac0a1f196d3bebbe81", "is_disabled": 0, "is_reserved": 0}, {"rental_uris": {"ios": "https://dc.lft.to/lastmile_qr_scan", "android": "https://dc.lft.to/lastmile_qr_scan"}, "lon": -77.02186016666667, "type": "electric_scooter", "fusion_lat": 0.0, "lat": 38.914860166666664, "name": "5cc058878e3706233d5aeb359092bff9", "fusion_lon": 0.0, "bike_id": "5cc058878e3706233d5aeb359092bff9", "is_disabled": 0, "is_reserved": 0}, {"rental_uris": {"ios": "https://dc.lft.to/lastmile_qr_scan", "android": "https://dc.lft.to/lastmile_qr_scan"}, "lon": -77.03935783333333, "type": "electric_scooter", "fusion_lat": 0.0, "lat": 38.90057483333333, "name": "41e1cff8ef04dc0e874582fe476c2ff2", "fusion_lon": 0.0, "bike_id": "41e1cff8ef04dc0e874582fe476c2ff2", "is_disabled": 0, "is_reserved": 0}, {"rental_uris": {"ios": "https://dc.lft.to/lastmile_qr_scan", "android": "https://dc.lft.to/lastmile_qr_scan"}, "lon": -77.01792266666666, "type": "electric_scooter", "fusion_lat": 0.0, "lat": 38.892391333333336, "name": "3472df7122e2fba2d6aeec3d4362d394", "fusion_lon": 0.0, "bike_id": "3472df7122e2fba2d6aeec3d4362d394", "is_disabled": 0, "is_reserved": 0}, {"rental_uris": {"ios": "https://dc.lft.to/lastmile_qr_scan", "android": "https://dc.lft.to/lastmile_qr_scan"}, "lon": -77.04278116666667, "type": "electric_scooter", "fusion_lat": 0.0, "lat": 38.9079335, "name": "887a76e34e7f517c3ea47506a4009e6e", "fusion_lon": 0.0, "bike_id": "887a76e34e7f517c3ea47506a4009e6e", "is_disabled": 0, "is_reserved": 0}, {"rental_uris": {"ios": "https://dc.lft.to/lastmile_qr_scan", "android": "https://dc.lft.to/lastmile_qr_scan"}, "lon": -77.063245, "type": "electric_scooter", "fusion_lat": 0.0, "lat": 38.90525566666667, "name": "17a4e846b9f5124161254478dfba9cc0", "fusion_lon": 0.0, "bike_id": "17a4e846b9f5124161254478dfba9cc0", "is_disabled": 0, "is_reserved": 0}, {"rental_uris": {"ios": "https://dc.lft.to/lastmile_qr_scan", "android": "https://dc.lft.to/lastmile_qr_scan"}, "lon": -77.0003315, "type": "electric_scooter", "fusion_lat": 0.0, "lat": 38.908810333333335, "name": "921372be24e72171747c7280f007e56d", "fusion_lon": 0.0, "bike_id": "921372be24e72171747c7280f007e56d", "is_disabled": 0, "is_reserved": 0}, {"rental_uris": {"ios": "https://dc.lft.to/lastmile_qr_scan", "android": "https://dc.lft.to/lastmile_qr_scan"}, "lon": -77.00882666666666, "type": "electric_scooter", "fusion_lat": 0.0, "lat": 38.90520816666667, "name": "ef0571a2a451d68087817443d986ece4", "fusion_lon": 0.0, "bike_id": "ef0571a2a451d68087817443d986ece4", "is_disabled": 0, "is_reserved": 0}, {"rental_uris": {"ios": "https://dc.lft.to/lastmile_qr_scan", "android": "https://dc.lft.to/lastmile_qr_scan"}, "lon": -76.95184466666667, "type": "electric_scooter", "fusion_lat": 0.0, "lat": 38.891375333333336, "name": "905bb50ecf4db1c163d56d76438f9b6b", "fusion_lon": 0.0, "bike_id": "905bb50ecf4db1c163d56d76438f9b6b", "is_disabled": 0, "is_reserved": 0}, {"rental_uris": {"ios": "https://dc.lft.to/lastmile_qr_scan", "android": "https://dc.lft.to/lastmile_qr_scan"}, "lon": -77.03434233333333, "type": "electric_scooter", "fusion_lat": 0.0, "lat": 38.918072333333335, "name": "85ac50c6c17b613781e265b564613c58", "fusion_lon": 0.0, "bike_id": "85ac50c6c17b613781e265b564613c58", "is_disabled": 0, "is_reserved": 0}, {"rental_uris": {"ios": "https://dc.lft.to/lastmile_qr_scan", "android": "https://dc.lft.to/lastmile_qr_scan"}, "lon": -77.04310516666666, "type": "electric_scooter", "fusion_lat": 0.0, "lat": 38.923689833333334, "name": "c442b3abaca3c231e01aef02e8136a20", "fusion_lon": 0.0, "bike_id": "c442b3abaca3c231e01aef02e8136a20", "is_disabled": 0, "is_reserved": 0}, {"rental_uris": {"ios": "https://dc.lft.to/lastmile_qr_scan", "android": "https://dc.lft.to/lastmile_qr_scan"}, "lon": -77.02689133333334, "type": "electric_scooter", "fusion_lat": 0.0, "lat": 38.9068265, "name": "459860baec8dace3135475a36d252a9e", "fusion_lon": 0.0, "bike_id": "459860baec8dace3135475a36d252a9e", "is_disabled": 0, "is_reserved": 0}, {"rental_uris": {"ios": "https://dc.lft.to/lastmile_qr_scan", "android": "https://dc.lft.to/lastmile_qr_scan"}, "lon": -77.02959633333333, "type": "electric_scooter", "fusion_lat": 0.0, "lat": 38.924261666666666, "name": "ede2462c94da7c6c021e585b07890de2", "fusion_lon": 0.0, "bike_id": "ede2462c94da7c6c021e585b07890de2", "is_disabled": 0, "is_reserved": 0}, {"rental_uris": {"ios": "https://dc.lft.to/lastmile_qr_scan", "android": "https://dc.lft.to/lastmile_qr_scan"}, "lon": -77.01643833333333, "type": "electric_scooter", "fusion_lat": 0.0, "lat": 38.929345, "name": "4a8fdf8dea8c2ab31083193de4d08472", "fusion_lon": 0.0, "bike_id": "4a8fdf8dea8c2ab31083193de4d08472", "is_disabled": 0, "is_reserved": 0}, {"rental_uris": {"ios": "https://dc.lft.to/lastmile_qr_scan", "android": "https://dc.lft.to/lastmile_qr_scan"}, "lon": -77.0279575, "type": "electric_scooter", "fusion_lat": 0.0, "lat": 38.897253666666664, "name": "c097f23cd1a35426d66cba1f081b1776", "fusion_lon": 0.0, "bike_id": "c097f23cd1a35426d66cba1f081b1776", "is_disabled": 0, "is_reserved": 0}, {"rental_uris": {"ios": "https://dc.lft.to/lastmile_qr_scan", "android": "https://dc.lft.to/lastmile_qr_scan"}, "lon": -77.0352755, "type": "electric_scooter", "fusion_lat": 0.0, "lat": 38.90682366666667, "name": "dd50abe46c2d998e99fe22f7cf9851a8", "fusion_lon": 0.0, "bike_id": "dd50abe46c2d998e99fe22f7cf9851a8", "is_disabled": 0, "is_reserved": 0}, {"rental_uris": {"ios": "https://dc.lft.to/lastmile_qr_scan", "android": "https://dc.lft.to/lastmile_qr_scan"}, "lon": -77.060359, "type": "electric_scooter", "fusion_lat": 0.0, "lat": 38.905285166666665, "name": "1ddf3bd4403dc2d94ec6821273805b13", "fusion_lon": 0.0, "bike_id": "1ddf3bd4403dc2d94ec6821273805b13", "is_disabled": 0, "is_reserved": 0}, {"rental_uris": {"ios": "https://dc.lft.to/lastmile_qr_scan", "android": "https://dc.lft.to/lastmile_qr_scan"}, "lon": -77.02238666666666, "type": "electric_scooter", "fusion_lat": 0.0, "lat": 38.91641116666667, "name": "2897ee70ba163c64534aa4de316f797e", "fusion_lon": 0.0, "bike_id": "2897ee70ba163c64534aa4de316f797e", "is_disabled": 0, "is_reserved": 0}, {"rental_uris": {"ios": "https://dc.lft.to/lastmile_qr_scan", "android": "https://dc.lft.to/lastmile_qr_scan"}, "lon": -77.03280983333333, "type": "electric_bike", "fusion_lat": 0.0, "lat": 38.929211, "name": "fa54cbdce4565f650846c3099c0a2c65", "fusion_lon": 0.0, "bike_id": "fa54cbdce4565f650846c3099c0a2c65", "is_disabled": 0, "is_reserved": 0}, {"rental_uris": {"ios": "https://dc.lft.to/lastmile_qr_scan", "android": "https://dc.lft.to/lastmile_qr_scan"}, "lon": -77.040484, "type": "electric_scooter", "fusion_lat": 0.0, "lat": 38.9271455, "name": "6c197d39368bc30fbd1e8447d8e0ac05", "fusion_lon": 0.0, "bike_id": "6c197d39368bc30fbd1e8447d8e0ac05", "is_disabled": 0, "is_reserved": 0}, {"rental_uris": {"ios": "https://dc.lft.to/lastmile_qr_scan", "android": "https://dc.lft.to/lastmile_qr_scan"}, "lon": -77.03408483333334, "type": "electric_bike", "fusion_lat": 0.0, "lat": 38.900418333333334, "name": "bfd8bd86c72f5c4023ab3d4f8c5c1c32", "fusion_lon": 0.0, "bike_id": "bfd8bd86c72f5c4023ab3d4f8c5c1c32", "is_disabled": 0, "is_reserved": 0}, {"rental_uris": {"ios": "https://dc.lft.to/lastmile_qr_scan", "android": "https://dc.lft.to/lastmile_qr_scan"}, "lon": -77.036513, "type": "electric_scooter", "fusion_lat": 0.0, "lat": 38.95631233333334, "name": "6fa304395f9d479544de9b72decdbfcb", "fusion_lon": 0.0, "bike_id": "6fa304395f9d479544de9b72decdbfcb", "is_disabled": 0, "is_reserved": 0}, {"rental_uris": {"ios": "https://dc.lft.to/lastmile_qr_scan", "android": "https://dc.lft.to/lastmile_qr_scan"}, "lon": -77.02798316666667, "type": "electric_scooter", "fusion_lat": 0.0, "lat": 38.92974783333333, "name": "04bfabfd19ac3d835547a73f21c34c27", "fusion_lon": 0.0, "bike_id": "04bfabfd19ac3d835547a73f21c34c27", "is_disabled": 0, "is_reserved": 0}, {"rental_uris": {"ios": "https://dc.lft.to/lastmile_qr_scan", "android": "https://dc.lft.to/lastmile_qr_scan"}, "lon": -77.035427, "type": "electric_scooter", "fusion_lat": 0.0, "lat": 38.90835233333333, "name": "ebfbb32369d99f9178b8a92397d6ccf2", "fusion_lon": 0.0, "bike_id": "ebfbb32369d99f9178b8a92397d6ccf2", "is_disabled": 0, "is_reserved": 0}, {"rental_uris": {"ios": "https://dc.lft.to/lastmile_qr_scan", "android": "https://dc.lft.to/lastmile_qr_scan"}, "lon": -77.0150585, "type": "electric_scooter", "fusion_lat": 0.0, "lat": 38.8904265, "name": "5f8e69f61cb1cab318143d330cd38db9", "fusion_lon": 0.0, "bike_id": "5f8e69f61cb1cab318143d330cd38db9", "is_disabled": 0, "is_reserved": 0}, {"rental_uris": {"ios": "https://dc.lft.to/lastmile_qr_scan", "android": "https://dc.lft.to/lastmile_qr_scan"}, "lon": -77.03184383333334, "type": "electric_scooter", "fusion_lat": 0.0, "lat": 38.911278333333335, "name": "57d3ec7070b9354d76c2ebd93e2989f9", "fusion_lon": 0.0, "bike_id": "57d3ec7070b9354d76c2ebd93e2989f9", "is_disabled": 0, "is_reserved": 0}, {"rental_uris": {"ios": "https://dc.lft.to/lastmile_qr_scan", "android": "https://dc.lft.to/lastmile_qr_scan"}, "lon": -77.03217033333334, "type": "electric_scooter", "fusion_lat": 0.0, "lat": 38.9127255, "name": "b06c756b6f1111daefabc0da83b4bb5c", "fusion_lon": 0.0, "bike_id": "b06c756b6f1111daefabc0da83b4bb5c", "is_disabled": 0, "is_reserved": 0}, {"rental_uris": {"ios": "https://dc.lft.to/lastmile_qr_scan", "android": "https://dc.lft.to/lastmile_qr_scan"}, "lon": -77.06116166666666, "type": "electric_scooter", "fusion_lat": 0.0, "lat": 38.902112833333334, "name": "36d9a72d8aca37136e66189e959db0ed", "fusion_lon": 0.0, "bike_id": "36d9a72d8aca37136e66189e959db0ed", "is_disabled": 0, "is_reserved": 0}, {"rental_uris": {"ios": "https://dc.lft.to/lastmile_qr_scan", "android": "https://dc.lft.to/lastmile_qr_scan"}, "lon": -77.0450175, "type": "electric_scooter", "fusion_lat": 0.0, "lat": 38.905545000000004, "name": "8ac2252c3b5dce5838d3834dc738f900", "fusion_lon": 0.0, "bike_id": "8ac2252c3b5dce5838d3834dc738f900", "is_disabled": 0, "is_reserved": 0}, {"rental_uris": {"ios": "https://dc.lft.to/lastmile_qr_scan", "android": "https://dc.lft.to/lastmile_qr_scan"}, "lon": -77.08937433333334, "type": "electric_bike", "fusion_lat": 0.0, "lat": 38.84106466666667, "name": "ee5d3c7fa9aa9d42420392ffe31ecbad", "fusion_lon": 0.0, "bike_id": "ee5d3c7fa9aa9d42420392ffe31ecbad", "is_disabled": 0, "is_reserved": 0}, {"rental_uris": {"ios": "https://dc.lft.to/lastmile_qr_scan", "android": "https://dc.lft.to/lastmile_qr_scan"}, "lon": -77.032636, "type": "electric_scooter", "fusion_lat": 0.0, "lat": 38.937334666666665, "name": "56e5d829b42897f824ede36adf45e16c", "fusion_lon": 0.0, "bike_id": "56e5d829b42897f824ede36adf45e16c", "is_disabled": 0, "is_reserved": 0}, {"rental_uris": {"ios": "https://dc.lft.to/lastmile_qr_scan", "android": "https://dc.lft.to/lastmile_qr_scan"}, "lon": -77.02391183333333, "type": "electric_scooter", "fusion_lat": 0.0, "lat": 38.90668516666667, "name": "23b165d70ff5a5810e797aa97e936d08", "fusion_lon": 0.0, "bike_id": "23b165d70ff5a5810e797aa97e936d08", "is_disabled": 0, "is_reserved": 0}, {"rental_uris": {"ios": "https://dc.lft.to/lastmile_qr_scan", "android": "https://dc.lft.to/lastmile_qr_scan"}, "lon": -77.127412, "type": "electric_bike", "fusion_lat": 0.0, "lat": 38.88827233333333, "name": "7bd9c9e12b19df1f5b3f09229ada4112", "fusion_lon": 0.0, "bike_id": "7bd9c9e12b19df1f5b3f09229ada4112", "is_disabled": 0, "is_reserved": 0}, {"rental_uris": {"ios": "https://dc.lft.to/lastmile_qr_scan", "android": "https://dc.lft.to/lastmile_qr_scan"}, "lon": -77.0495525, "type": "electric_scooter", "fusion_lat": 0.0, "lat": 38.896629833333336, "name": "b6632f4100dc59e2902bf81961954b6a", "fusion_lon": 0.0, "bike_id": "b6632f4100dc59e2902bf81961954b6a", "is_disabled": 0, "is_reserved": 0}, {"rental_uris": {"ios": "https://dc.lft.to/lastmile_qr_scan", "android": "https://dc.lft.to/lastmile_qr_scan"}, "lon": -76.98766983333333, "type": "electric_scooter", "fusion_lat": 0.0, "lat": 38.911741, "name": "0dd6bf636e18f7fac55eebf219e4bf5f", "fusion_lon": 0.0, "bike_id": "0dd6bf636e18f7fac55eebf219e4bf5f", "is_disabled": 0, "is_reserved": 0}, {"rental_uris": {"ios": "https://dc.lft.to/lastmile_qr_scan", "android": "https://dc.lft.to/lastmile_qr_scan"}, "lon": -77.03165583333333, "type": "electric_scooter", "fusion_lat": 0.0, "lat": 38.896108, "name": "0fc9f93205bcee81c3b7add893077b33", "fusion_lon": 0.0, "bike_id": "0fc9f93205bcee81c3b7add893077b33", "is_disabled": 0, "is_reserved": 0}, {"rental_uris": {"ios": "https://dc.lft.to/lastmile_qr_scan", "android": "https://dc.lft.to/lastmile_qr_scan"}, "lon": -77.02839566666667, "type": "electric_scooter", "fusion_lat": 0.0, "lat": 38.88769033333333, "name": "4f5e3570f84e69c9d8a15b85c9c10b5f", "fusion_lon": 0.0, "bike_id": "4f5e3570f84e69c9d8a15b85c9c10b5f", "is_disabled": 0, "is_reserved": 0}, {"rental_uris": {"ios": "https://dc.lft.to/lastmile_qr_scan", "android": "https://dc.lft.to/lastmile_qr_scan"}, "lon": -77.061564, "type": "electric_scooter", "fusion_lat": 0.0, "lat": 38.942223166666665, "name": "950791bf1b8419db3ec36befb400426c", "fusion_lon": 0.0, "bike_id": "950791bf1b8419db3ec36befb400426c", "is_disabled": 0, "is_reserved": 0}, {"rental_uris": {"ios": "https://dc.lft.to/lastmile_qr_scan", "android": "https://dc.lft.to/lastmile_qr_scan"}, "lon": -77.01755933333334, "type": "electric_scooter", "fusion_lat": 0.0, "lat": 38.93898183333334, "name": "e0f11e437306d5b79ec35a71acb46d17", "fusion_lon": 0.0, "bike_id": "e0f11e437306d5b79ec35a71acb46d17", "is_disabled": 0, "is_reserved": 0}, {"rental_uris": {"ios": "https://dc.lft.to/lastmile_qr_scan", "android": "https://dc.lft.to/lastmile_qr_scan"}, "lon": -77.03459183333334, "type": "electric_scooter", "fusion_lat": 0.0, "lat": 38.916654, "name": "a39757dfd87b37a1cce13aee30267776", "fusion_lon": 0.0, "bike_id": "a39757dfd87b37a1cce13aee30267776", "is_disabled": 0, "is_reserved": 0}, {"rental_uris": {"ios": "https://dc.lft.to/lastmile_qr_scan", "android": "https://dc.lft.to/lastmile_qr_scan"}, "lon": -76.93810183333333, "type": "electric_scooter", "fusion_lat": 0.0, "lat": 38.9131075, "name": "cd8530edc74569e102a5d2de46c2e417", "fusion_lon": 0.0, "bike_id": "cd8530edc74569e102a5d2de46c2e417", "is_disabled": 0, "is_reserved": 0}, {"rental_uris": {"ios": "https://dc.lft.to/lastmile_qr_scan", "android": "https://dc.lft.to/lastmile_qr_scan"}, "lon": -77.06659133333334, "type": "electric_scooter", "fusion_lat": 0.0, "lat": 38.94968566666667, "name": "ac8d372e1d464d9876b61e42ddcf9bcc", "fusion_lon": 0.0, "bike_id": "ac8d372e1d464d9876b61e42ddcf9bcc", "is_disabled": 0, "is_reserved": 0}, {"rental_uris": {"ios": "https://dc.lft.to/lastmile_qr_scan", "android": "https://dc.lft.to/lastmile_qr_scan"}, "lon": -77.0431825, "type": "electric_scooter", "fusion_lat": 0.0, "lat": 38.895911166666664, "name": "6e905cbdf403482ab3ad601cebb70be3", "fusion_lon": 0.0, "bike_id": "6e905cbdf403482ab3ad601cebb70be3", "is_disabled": 0, "is_reserved": 0}, {"rental_uris": {"ios": "https://dc.lft.to/lastmile_qr_scan", "android": "https://dc.lft.to/lastmile_qr_scan"}, "lon": -77.04828116666667, "type": "electric_scooter", "fusion_lat": 0.0, "lat": 38.89618766666667, "name": "33f30014287380468969a2e5c0d0e808", "fusion_lon": 0.0, "bike_id": "33f30014287380468969a2e5c0d0e808", "is_disabled": 0, "is_reserved": 0}, {"rental_uris": {"ios": "https://dc.lft.to/lastmile_qr_scan", "android": "https://dc.lft.to/lastmile_qr_scan"}, "lon": -77.040371, "type": "electric_scooter", "fusion_lat": 0.0, "lat": 38.925669166666665, "name": "d4a992b8459019928329ba65c8493288", "fusion_lon": 0.0, "bike_id": "d4a992b8459019928329ba65c8493288", "is_disabled": 0, "is_reserved": 0}, {"rental_uris": {"ios": "https://dc.lft.to/lastmile_qr_scan", "android": "https://dc.lft.to/lastmile_qr_scan"}, "lon": -76.97886666666666, "type": "electric_scooter", "fusion_lat": 0.0, "lat": 38.91674316666667, "name": "ad5f73392346770d0023706f8480ef5f", "fusion_lon": 0.0, "bike_id": "ad5f73392346770d0023706f8480ef5f", "is_disabled": 0, "is_reserved": 0}, {"rental_uris": {"ios": "https://dc.lft.to/lastmile_qr_scan", "android": "https://dc.lft.to/lastmile_qr_scan"}, "lon": -77.12624766666667, "type": "electric_bike", "fusion_lat": 0.0, "lat": 39.058133833333336, "name": "662156a539a96adfbbad2dfa496adf85", "fusion_lon": 0.0, "bike_id": "662156a539a96adfbbad2dfa496adf85", "is_disabled": 0, "is_reserved": 0}, {"rental_uris": {"ios": "https://dc.lft.to/lastmile_qr_scan", "android": "https://dc.lft.to/lastmile_qr_scan"}, "lon": -77.06173883333334, "type": "electric_scooter", "fusion_lat": 0.0, "lat": 38.902483, "name": "603b834e1fab1c340c3dfc64f129cb4d", "fusion_lon": 0.0, "bike_id": "603b834e1fab1c340c3dfc64f129cb4d", "is_disabled": 0, "is_reserved": 0}, {"rental_uris": {"ios": "https://dc.lft.to/lastmile_qr_scan", "android": "https://dc.lft.to/lastmile_qr_scan"}, "lon": -77.0241565, "type": "electric_scooter", "fusion_lat": 0.0, "lat": 38.90094933333334, "name": "5436a08859a0d9c7fca2300881ecc297", "fusion_lon": 0.0, "bike_id": "5436a08859a0d9c7fca2300881ecc297", "is_disabled": 0, "is_reserved": 0}, {"rental_uris": {"ios": "https://dc.lft.to/lastmile_qr_scan", "android": "https://dc.lft.to/lastmile_qr_scan"}, "lon": -77.031574, "type": "electric_scooter", "fusion_lat": 0.0, "lat": 38.912008166666666, "name": "98761b5228f83321d82103261f9a5e89", "fusion_lon": 0.0, "bike_id": "98761b5228f83321d82103261f9a5e89", "is_disabled": 0, "is_reserved": 0}, {"rental_uris": {"ios": "https://dc.lft.to/lastmile_qr_scan", "android": "https://dc.lft.to/lastmile_qr_scan"}, "lon": -76.978275, "type": "electric_bike", "fusion_lat": 0.0, "lat": 38.846138, "name": "f8a137d68580275eea5870769d62943d", "fusion_lon": 0.0, "bike_id": "f8a137d68580275eea5870769d62943d", "is_disabled": 0, "is_reserved": 0}, {"rental_uris": {"ios": "https://dc.lft.to/lastmile_qr_scan", "android": "https://dc.lft.to/lastmile_qr_scan"}, "lon": -76.98389583333334, "type": "electric_bike", "fusion_lat": 0.0, "lat": 38.922038, "name": "371d343b16039384b164e08e60b185d3", "fusion_lon": 0.0, "bike_id": "371d343b16039384b164e08e60b185d3", "is_disabled": 0, "is_reserved": 0}, {"rental_uris": {"ios": "https://dc.lft.to/lastmile_qr_scan", "android": "https://dc.lft.to/lastmile_qr_scan"}, "lon": -77.02692433333333, "type": "electric_scooter", "fusion_lat": 0.0, "lat": 38.906245, "name": "de1210e588cf395d8d5c9832fa374ef6", "fusion_lon": 0.0, "bike_id": "de1210e588cf395d8d5c9832fa374ef6", "is_disabled": 0, "is_reserved": 0}, {"rental_uris": {"ios": "https://dc.lft.to/lastmile_qr_scan", "android": "https://dc.lft.to/lastmile_qr_scan"}, "lon": -77.05678633333333, "type": "electric_scooter", "fusion_lat": 0.0, "lat": 38.9051765, "name": "7b0e956f7a760a7269eb7ad76bb5dd7c", "fusion_lon": 0.0, "bike_id": "7b0e956f7a760a7269eb7ad76bb5dd7c", "is_disabled": 0, "is_reserved": 0}, {"rental_uris": {"ios": "https://dc.lft.to/lastmile_qr_scan", "android": "https://dc.lft.to/lastmile_qr_scan"}, "lon": -77.03527416666667, "type": "electric_scooter", "fusion_lat": 0.0, "lat": 38.92858233333333, "name": "39b86e2da9028f0a22b85d7fc18cca72", "fusion_lon": 0.0, "bike_id": "39b86e2da9028f0a22b85d7fc18cca72", "is_disabled": 0, "is_reserved": 0}, {"rental_uris": {"ios": "https://dc.lft.to/lastmile_qr_scan", "android": "https://dc.lft.to/lastmile_qr_scan"}, "lon": -76.99606433333334, "type": "electric_scooter", "fusion_lat": 0.0, "lat": 38.88622316666667, "name": "3dfdf122a14c0b4b439caecf1f159df0", "fusion_lon": 0.0, "bike_id": "3dfdf122a14c0b4b439caecf1f159df0", "is_disabled": 0, "is_reserved": 0}, {"rental_uris": {"ios": "https://dc.lft.to/lastmile_qr_scan", "android": "https://dc.lft.to/lastmile_qr_scan"}, "lon": -77.04224116666667, "type": "electric_scooter", "fusion_lat": 0.0, "lat": 38.921306, "name": "12fb1a7af16d4cfd942732c6e987100d", "fusion_lon": 0.0, "bike_id": "12fb1a7af16d4cfd942732c6e987100d", "is_disabled": 0, "is_reserved": 0}, {"rental_uris": {"ios": "https://dc.lft.to/lastmile_qr_scan", "android": "https://dc.lft.to/lastmile_qr_scan"}, "lon": -76.97553783333333, "type": "electric_scooter", "fusion_lat": 0.0, "lat": 38.90445166666667, "name": "e64fbf329beebd96389de08d410fd9c0", "fusion_lon": 0.0, "bike_id": "e64fbf329beebd96389de08d410fd9c0", "is_disabled": 0, "is_reserved": 0}, {"rental_uris": {"ios": "https://dc.lft.to/lastmile_qr_scan", "android": "https://dc.lft.to/lastmile_qr_scan"}, "lon": -76.985662, "type": "electric_scooter", "fusion_lat": 0.0, "lat": 38.86147866666667, "name": "2ba7e5859666a1be83ecae602c545458", "fusion_lon": 0.0, "bike_id": "2ba7e5859666a1be83ecae602c545458", "is_disabled": 0, "is_reserved": 0}, {"rental_uris": {"ios": "https://dc.lft.to/lastmile_qr_scan", "android": "https://dc.lft.to/lastmile_qr_scan"}, "lon": -77.028267, "type": "electric_scooter", "fusion_lat": 0.0, "lat": 38.8961655, "name": "006f45a6bb904b56bbd36603469bb81a", "fusion_lon": 0.0, "bike_id": "006f45a6bb904b56bbd36603469bb81a", "is_disabled": 0, "is_reserved": 0}, {"rental_uris": {"ios": "https://dc.lft.to/lastmile_qr_scan", "android": "https://dc.lft.to/lastmile_qr_scan"}, "lon": -77.033464, "type": "electric_scooter", "fusion_lat": 0.0, "lat": 38.903617833333335, "name": "c1a97e71da296204be80e8fc7957a624", "fusion_lon": 0.0, "bike_id": "c1a97e71da296204be80e8fc7957a624", "is_disabled": 0, "is_reserved": 0}, {"rental_uris": {"ios": "https://dc.lft.to/lastmile_qr_scan", "android": "https://dc.lft.to/lastmile_qr_scan"}, "lon": -76.99863533333334, "type": "electric_scooter", "fusion_lat": 0.0, "lat": 38.900292666666665, "name": "99c0ba93e362621f2d365ee8bcef9d6e", "fusion_lon": 0.0, "bike_id": "99c0ba93e362621f2d365ee8bcef9d6e", "is_disabled": 0, "is_reserved": 0}, {"rental_uris": {"ios": "https://dc.lft.to/lastmile_qr_scan", "android": "https://dc.lft.to/lastmile_qr_scan"}, "lon": -77.03180133333333, "type": "electric_scooter", "fusion_lat": 0.0, "lat": 38.90977616666667, "name": "a40e501fbd6c2a130fb080cf45bf5bc6", "fusion_lon": 0.0, "bike_id": "a40e501fbd6c2a130fb080cf45bf5bc6", "is_disabled": 0, "is_reserved": 0}, {"rental_uris": {"ios": "https://dc.lft.to/lastmile_qr_scan", "android": "https://dc.lft.to/lastmile_qr_scan"}, "lon": -76.97319866666666, "type": "electric_scooter", "fusion_lat": 0.0, "lat": 38.93032816666667, "name": "0b8110933562c761422eaa2e4f43ad21", "fusion_lon": 0.0, "bike_id": "0b8110933562c761422eaa2e4f43ad21", "is_disabled": 0, "is_reserved": 0}, {"rental_uris": {"ios": "https://dc.lft.to/lastmile_qr_scan", "android": "https://dc.lft.to/lastmile_qr_scan"}, "lon": -76.97502516666667, "type": "electric_bike", "fusion_lat": 0.0, "lat": 38.919377, "name": "e76198c2f297f17a8bd24b4aa7b5d4a9", "fusion_lon": 0.0, "bike_id": "e76198c2f297f17a8bd24b4aa7b5d4a9", "is_disabled": 0, "is_reserved": 0}, {"rental_uris": {"ios": "https://dc.lft.to/lastmile_qr_scan", "android": "https://dc.lft.to/lastmile_qr_scan"}, "lon": -77.100249, "type": "electric_bike", "fusion_lat": 0.0, "lat": 38.99063983333333, "name": "ecc5cb49bf41351d5bcf1656a81d64ea", "fusion_lon": 0.0, "bike_id": "ecc5cb49bf41351d5bcf1656a81d64ea", "is_disabled": 0, "is_reserved": 0}, {"rental_uris": {"ios": "https://dc.lft.to/lastmile_qr_scan", "android": "https://dc.lft.to/lastmile_qr_scan"}, "lon": -77.03209633333333, "type": "electric_scooter", "fusion_lat": 0.0, "lat": 38.962414, "name": "6d49582737023d713d42054ebc373f3f", "fusion_lon": 0.0, "bike_id": "6d49582737023d713d42054ebc373f3f", "is_disabled": 0, "is_reserved": 0}, {"rental_uris": {"ios": "https://dc.lft.to/lastmile_qr_scan", "android": "https://dc.lft.to/lastmile_qr_scan"}, "lon": -76.99949983333333, "type": "electric_scooter", "fusion_lat": 0.0, "lat": 38.842898166666664, "name": "dffadf276db472107c38f807a1647fe5", "fusion_lon": 0.0, "bike_id": "dffadf276db472107c38f807a1647fe5", "is_disabled": 0, "is_reserved": 0}, {"rental_uris": {"ios": "https://dc.lft.to/lastmile_qr_scan", "android": "https://dc.lft.to/lastmile_qr_scan"}, "lon": -77.01732033333333, "type": "electric_scooter", "fusion_lat": 0.0, "lat": 38.902382, "name": "0022862e8490852bb27983c678fc6479", "fusion_lon": 0.0, "bike_id": "0022862e8490852bb27983c678fc6479", "is_disabled": 0, "is_reserved": 0}, {"rental_uris": {"ios": "https://dc.lft.to/lastmile_qr_scan", "android": "https://dc.lft.to/lastmile_qr_scan"}, "lon": -77.02324316666666, "type": "electric_scooter", "fusion_lat": 0.0, "lat": 38.91670083333333, "name": "25af509e0848c08978383cac6bceecce", "fusion_lon": 0.0, "bike_id": "25af509e0848c08978383cac6bceecce", "is_disabled": 0, "is_reserved": 0}, {"rental_uris": {"ios": "https://dc.lft.to/lastmile_qr_scan", "android": "https://dc.lft.to/lastmile_qr_scan"}, "lon": -77.02005766666667, "type": "electric_scooter", "fusion_lat": 0.0, "lat": 38.892458166666664, "name": "2ecb5cbffefeb24a3349ddde128f1428", "fusion_lon": 0.0, "bike_id": "2ecb5cbffefeb24a3349ddde128f1428", "is_disabled": 0, "is_reserved": 0}, {"rental_uris": {"ios": "https://dc.lft.to/lastmile_qr_scan", "android": "https://dc.lft.to/lastmile_qr_scan"}, "lon": -77.03472683333334, "type": "electric_scooter", "fusion_lat": 0.0, "lat": 38.929913666666664, "name": "451f1610fca2619827d5c05d66ce50d2", "fusion_lon": 0.0, "bike_id": "451f1610fca2619827d5c05d66ce50d2", "is_disabled": 0, "is_reserved": 0}, {"rental_uris": {"ios": "https://dc.lft.to/lastmile_qr_scan", "android": "https://dc.lft.to/lastmile_qr_scan"}, "lon": -77.04502866666667, "type": "electric_scooter", "fusion_lat": 0.0, "lat": 38.89220816666667, "name": "c7df6c6cfc277f63370df86e8bb869f6", "fusion_lon": 0.0, "bike_id": "c7df6c6cfc277f63370df86e8bb869f6", "is_disabled": 0, "is_reserved": 0}, {"rental_uris": {"ios": "https://dc.lft.to/lastmile_qr_scan", "android": "https://dc.lft.to/lastmile_qr_scan"}, "lon": -77.04894983333334, "type": "electric_bike", "fusion_lat": 0.0, "lat": 38.8749455, "name": "8d3f4d05c02273c491f3dcc1b279b751", "fusion_lon": 0.0, "bike_id": "8d3f4d05c02273c491f3dcc1b279b751", "is_disabled": 0, "is_reserved": 0}, {"rental_uris": {"ios": "https://dc.lft.to/lastmile_qr_scan", "android": "https://dc.lft.to/lastmile_qr_scan"}, "lon": -76.99043416666666, "type": "electric_scooter", "fusion_lat": 0.0, "lat": 38.9014455, "name": "0cfcc541b8d531aaf7132b0275de1a71", "fusion_lon": 0.0, "bike_id": "0cfcc541b8d531aaf7132b0275de1a71", "is_disabled": 0, "is_reserved": 0}, {"rental_uris": {"ios": "https://dc.lft.to/lastmile_qr_scan", "android": "https://dc.lft.to/lastmile_qr_scan"}, "lon": -77.06252916666666, "type": "electric_scooter", "fusion_lat": 0.0, "lat": 38.908486, "name": "03373c19e0b21f1d460c103c74873b10", "fusion_lon": 0.0, "bike_id": "03373c19e0b21f1d460c103c74873b10", "is_disabled": 0, "is_reserved": 0}, {"rental_uris": {"ios": "https://dc.lft.to/lastmile_qr_scan", "android": "https://dc.lft.to/lastmile_qr_scan"}, "lon": -76.9465325, "type": "electric_scooter", "fusion_lat": 0.0, "lat": 38.89826566666667, "name": "734541e9df9e5728509d14e50a126933", "fusion_lon": 0.0, "bike_id": "734541e9df9e5728509d14e50a126933", "is_disabled": 0, "is_reserved": 0}, {"rental_uris": {"ios": "https://dc.lft.to/lastmile_qr_scan", "android": "https://dc.lft.to/lastmile_qr_scan"}, "lon": -76.986555, "type": "electric_scooter", "fusion_lat": 0.0, "lat": 38.858059833333336, "name": "77c5945be5b9f4efd2abb8509fe793a2", "fusion_lon": 0.0, "bike_id": "77c5945be5b9f4efd2abb8509fe793a2", "is_disabled": 0, "is_reserved": 0}, {"rental_uris": {"ios": "https://dc.lft.to/lastmile_qr_scan", "android": "https://dc.lft.to/lastmile_qr_scan"}, "lon": -77.003481, "type": "electric_scooter", "fusion_lat": 0.0, "lat": 38.89766516666667, "name": "8402904a4a9f1194fb89440eaf4c4bd6", "fusion_lon": 0.0, "bike_id": "8402904a4a9f1194fb89440eaf4c4bd6", "is_disabled": 0, "is_reserved": 0}, {"rental_uris": {"ios": "https://dc.lft.to/lastmile_qr_scan", "android": "https://dc.lft.to/lastmile_qr_scan"}, "lon": -76.9865435, "type": "electric_scooter", "fusion_lat": 0.0, "lat": 38.858053, "name": "22447f3e635ef2ba38cfc9b880a2eaa7", "fusion_lon": 0.0, "bike_id": "22447f3e635ef2ba38cfc9b880a2eaa7", "is_disabled": 0, "is_reserved": 0}, {"rental_uris": {"ios": "https://dc.lft.to/lastmile_qr_scan", "android": "https://dc.lft.to/lastmile_qr_scan"}, "lon": -76.985702, "type": "electric_scooter", "fusion_lat": 0.0, "lat": 38.898893666666666, "name": "9a1d33eb70db66082f58f94cbacd390d", "fusion_lon": 0.0, "bike_id": "9a1d33eb70db66082f58f94cbacd390d", "is_disabled": 0, "is_reserved": 0}, {"rental_uris": {"ios": "https://dc.lft.to/lastmile_qr_scan", "android": "https://dc.lft.to/lastmile_qr_scan"}, "lon": -76.93175783333334, "type": "electric_scooter", "fusion_lat": 0.0, "lat": 38.89883833333333, "name": "b2f297ad363dd8d583ed44c1e7a69e58", "fusion_lon": 0.0, "bike_id": "b2f297ad363dd8d583ed44c1e7a69e58", "is_disabled": 0, "is_reserved": 0}, {"rental_uris": {"ios": "https://dc.lft.to/lastmile_qr_scan", "android": "https://dc.lft.to/lastmile_qr_scan"}, "lon": -77.04659566666666, "type": "electric_scooter", "fusion_lat": 0.0, "lat": 38.89333716666667, "name": "3ba380f2d3fe74f119437f972d67c0d0", "fusion_lon": 0.0, "bike_id": "3ba380f2d3fe74f119437f972d67c0d0", "is_disabled": 0, "is_reserved": 0}, {"rental_uris": {"ios": "https://dc.lft.to/lastmile_qr_scan", "android": "https://dc.lft.to/lastmile_qr_scan"}, "lon": -77.05149566666667, "type": "electric_scooter", "fusion_lat": 0.0, "lat": 38.89771366666667, "name": "639e2cf8292b9a278e405d54388942fa", "fusion_lon": 0.0, "bike_id": "639e2cf8292b9a278e405d54388942fa", "is_disabled": 0, "is_reserved": 0}, {"rental_uris": {"ios": "https://dc.lft.to/lastmile_qr_scan", "android": "https://dc.lft.to/lastmile_qr_scan"}, "lon": -77.00207516666667, "type": "electric_scooter", "fusion_lat": 0.0, "lat": 38.90227183333333, "name": "5855564c89000e5cdb854dd0680c3cfa", "fusion_lon": 0.0, "bike_id": "5855564c89000e5cdb854dd0680c3cfa", "is_disabled": 0, "is_reserved": 0}, {"rental_uris": {"ios": "https://dc.lft.to/lastmile_qr_scan", "android": "https://dc.lft.to/lastmile_qr_scan"}, "lon": -77.12024116666667, "type": "electric_bike", "fusion_lat": 0.0, "lat": 38.855085333333335, "name": "fa4d6e4f516686b429eba5bd9a208c63", "fusion_lon": 0.0, "bike_id": "fa4d6e4f516686b429eba5bd9a208c63", "is_disabled": 0, "is_reserved": 0}, {"rental_uris": {"ios": "https://dc.lft.to/lastmile_qr_scan", "android": "https://dc.lft.to/lastmile_qr_scan"}, "lon": -77.03324566666667, "type": "electric_scooter", "fusion_lat": 0.0, "lat": 38.928778, "name": "7bd3b1a7e80c16a9663b3012cfb69a0c", "fusion_lon": 0.0, "bike_id": "7bd3b1a7e80c16a9663b3012cfb69a0c", "is_disabled": 0, "is_reserved": 0}, {"rental_uris": {"ios": "https://dc.lft.to/lastmile_qr_scan", "android": "https://dc.lft.to/lastmile_qr_scan"}, "lon": -77.06669033333333, "type": "electric_scooter", "fusion_lat": 0.0, "lat": 38.914063166666665, "name": "a20a3019d11a3f26573e18328a250cd3", "fusion_lon": 0.0, "bike_id": "a20a3019d11a3f26573e18328a250cd3", "is_disabled": 0, "is_reserved": 0}, {"rental_uris": {"ios": "https://dc.lft.to/lastmile_qr_scan", "android": "https://dc.lft.to/lastmile_qr_scan"}, "lon": -77.02368333333334, "type": "electric_scooter", "fusion_lat": 0.0, "lat": 38.89221416666667, "name": "718728f2fa66ccba77fcaafb659535b6", "fusion_lon": 0.0, "bike_id": "718728f2fa66ccba77fcaafb659535b6", "is_disabled": 0, "is_reserved": 0}, {"rental_uris": {"ios": "https://dc.lft.to/lastmile_qr_scan", "android": "https://dc.lft.to/lastmile_qr_scan"}, "lon": -77.02432266666666, "type": "electric_scooter", "fusion_lat": 0.0, "lat": 38.905757, "name": "2244c9f087e17860d1b401f20f29f420", "fusion_lon": 0.0, "bike_id": "2244c9f087e17860d1b401f20f29f420", "is_disabled": 0, "is_reserved": 0}, {"rental_uris": {"ios": "https://dc.lft.to/lastmile_qr_scan", "android": "https://dc.lft.to/lastmile_qr_scan"},