{"data": {"bikes": [{"name": "f4867578d1eb642e2ccb7511e4ddc971", "fusion_lon": 0.0, "lat": 38.8766315, "is_reserved": 0, "type": "electric_scooter", "bike_id": "f4867578d1eb642e2ccb7511e4ddc971", "is_disabled": 0, "rental_uris": {"android": "https://dc.lft.to/lastmile_qr_scan", "ios": "https://dc.lft.to/lastmile_qr_scan"}, "lon": -77.00437733333334, "fusion_lat": 0.0}, {"name": "633d06581061d2a15517e3845015441e", "fusion_lon": 0.0, "lat": 38.917677166666664, "is_reserved": 0, "type": "electric_scooter", "bike_id": "633d06581061d2a15517e3845015441e", "is_disabled": 0, "rental_uris": {"android": "https://dc.lft.to/lastmile_qr_scan", "ios": "https://dc.lft.to/lastmile_qr_scan"}, "lon": -77.04771066666666, "fusion_lat": 0.0}, {"name": "271b6dcdf8233e1bc8a280caf9ecf6fd", "fusion_lon": 0.0, "lat": 38.907806666666666, "is_reserved": 0, "type": "electric_scooter", "bike_id": "271b6dcdf8233e1bc8a280caf9ecf6fd", "is_disabled": 0, "rental_uris": {"android": "https://dc.lft.to/lastmile_qr_scan", "ios": "https://dc.lft.to/lastmile_qr_scan"}, "lon": -77.03829366666666, "fusion_lat": 0.0}, {"name": "c17bdf6dac69d005aa0bf86f3ac18888", "fusion_lon": 0.0, "lat": 38.87418366666667, "is_reserved": 0, "type": "electric_scooter", "bike_id": "c17bdf6dac69d005aa0bf86f3ac18888", "is_disabled": 0, "rental_uris": {"android": "https://dc.lft.to/lastmile_qr_scan", "ios": "https://dc.lft.to/lastmile_qr_scan"}, "lon": -76.9677245, "fusion_lat": 0.0}, {"name": "3396a88380a9f4f59389caa8b5d78b4b", "fusion_lon": 0.0, "lat": 38.92665816666667, "is_reserved": 0, "type": "electric_scooter", "bike_id": "3396a88380a9f4f59389caa8b5d78b4b", "is_disabled": 0, "rental_uris": {"android": "https://dc.lft.to/lastmile_qr_scan", "ios": "https://dc.lft.to/lastmile_qr_scan"}, "lon": -77.0230765, "fusion_lat": 0.0}, {"name": "33697d46797c63a36405fbc7edf4bcf5", "fusion_lon": 0.0, "lat": 38.9236495, "is_reserved": 0, "type": "electric_scooter", "bike_id": "33697d46797c63a36405fbc7edf4bcf5", "is_disabled": 0, "rental_uris": {"android": "https://dc.lft.to/lastmile_qr_scan", "ios": "https://dc.lft.to/lastmile_qr_scan"}, "lon": -77.02981683333333, "fusion_lat": 0.0}, {"name": "46076c7947f1705631632c8dacc6c133", "fusion_lon": 0.0, "lat": 38.917276333333334, "is_reserved": 0, "type": "electric_scooter", "bike_id": "46076c7947f1705631632c8dacc6c133", "is_disabled": 0, "rental_uris": {"android": "https://dc.lft.to/lastmile_qr_scan", "ios": "https://dc.lft.to/lastmile_qr_scan"}, "lon": -77.0366495, "fusion_lat": 0.0}, {"name": "d439985bd35807e53870372efb5714d1", "fusion_lon": 0.0, "lat": 38.973968666666664, "is_reserved": 0, "type": "electric_bike", "bike_id": "d439985bd35807e53870372efb5714d1", "is_disabled": 0, "rental_uris": {"android": "https://dc.lft.to/lastmile_qr_scan", "ios": "https://dc.lft.to/lastmile_qr_scan"}, "lon": -77.06453383333333, "fusion_lat": 0.0}, {"name": "ab7ee70d0e562eb9d76e2c872839cd99", "fusion_lon": 0.0, "lat": 38.91555783333333, "is_reserved": 0, "type": "electric_scooter", "bike_id": "ab7ee70d0e562eb9d76e2c872839cd99", "is_disabled": 0, "rental_uris": {"android": "https://dc.lft.to/lastmile_qr_scan", "ios": "https://dc.lft.to/lastmile_qr_scan"}, "lon": -77.05321283333333, "fusion_lat": 0.0}, {"name": "6310bbb844db3674e1d92bc105cda192", "fusion_lon": 0.0, "lat": 38.916945166666665, "is_reserved": 0, "type": "electric_scooter", "bike_id": "6310bbb844db3674e1d92bc105cda192", "is_disabled": 0, "rental_uris": {"android": "https://dc.lft.to/lastmile_qr_scan", "ios": "https://dc.lft.to/lastmile_qr_scan"}, "lon": -77.03119933333333, "fusion_lat": 0.0}, {"name": "6ffd6032dcad5949bd0d1a78cce1edd8", "fusion_lon": 0.0, "lat": 38.892242, "is_reserved": 0, "type": "electric_scooter", "bike_id": "6ffd6032dcad5949bd0d1a78cce1edd8", "is_disabled": 0, "rental_uris": {"android": "https://dc.lft.to/lastmile_qr_scan", "ios": "https://dc.lft.to/lastmile_qr_scan"}, "lon": -77.04871666666666, "fusion_lat": 0.0}, {"name": "e328ddabad637d783dd346be3fcea0b6", "fusion_lon": 0.0, "lat": 38.901427166666664, "is_reserved": 0, "type": "electric_scooter", "bike_id": "e328ddabad637d783dd346be3fcea0b6", "is_disabled": 0, "rental_uris": {"android": "https://dc.lft.to/lastmile_qr_scan", "ios": "https://dc.lft.to/lastmile_qr_scan"}, "lon": -76.92980816666666, "fusion_lat": 0.0}, {"name": "982a070d0c5284622397fa070abdf35d", "fusion_lon": 0.0, "lat": 38.902128, "is_reserved": 0, "type": "electric_scooter", "bike_id": "982a070d0c5284622397fa070abdf35d", "is_disabled": 0, "rental_uris": {"android": "https://dc.lft.to/lastmile_qr_scan", "ios": "https://dc.lft.to/lastmile_qr_scan"}, "lon": -77.02377683333333, "fusion_lat": 0.0}, {"name": "2e40b8cd92c6a4495fe57cee2591d84f", "fusion_lon": 0.0, "lat": 38.92773283333333, "is_reserved": 0, "type": "electric_scooter", "bike_id": "2e40b8cd92c6a4495fe57cee2591d84f", "is_disabled": 0, "rental_uris": {"android": "https://dc.lft.to/lastmile_qr_scan", "ios": "https://dc.lft.to/lastmile_qr_scan"}, "lon": -77.0406305, "fusion_lat": 0.0}, {"name": "e2097b3a247e67270051ae49ed218518", "fusion_lon": 0.0, "lat": 38.921001333333336, "is_reserved": 0, "type": "electric_scooter", "bike_id": "e2097b3a247e67270051ae49ed218518", "is_disabled": 0, "rental_uris": {"android": "https://dc.lft.to/lastmile_qr_scan", "ios": "https://dc.lft.to/lastmile_qr_scan"}, "lon": -77.0392595, "fusion_lat": 0.0}, {"name": "cf8045b8d1857d8eed431933eb378859", "fusion_lon": 0.0, "lat": 38.94803183333333, "is_reserved": 0, "type": "electric_bike", "bike_id": "cf8045b8d1857d8eed431933eb378859", "is_disabled": 0, "rental_uris": {"android": "https://dc.lft.to/lastmile_qr_scan", "ios": "https://dc.lft.to/lastmile_qr_scan"}, "lon": -76.955425, "fusion_lat": 0.0}, {"name": "4fbc07cd67818b899403aa66ff9d102b", "fusion_lon": 0.0, "lat": 38.83138266666667, "is_reserved": 0, "type": "electric_scooter", "bike_id": "4fbc07cd67818b899403aa66ff9d102b", "is_disabled": 0, "rental_uris": {"android": "https://dc.lft.to/lastmile_qr_scan", "ios": "https://dc.lft.to/lastmile_qr_scan"}, "lon": -77.05123183333333, "fusion_lat": 0.0}, {"name": "acd49a18731ef3480e18aa7b2e6d5137", "fusion_lon": 0.0, "lat": 38.9450565, "is_reserved": 0, "type": "electric_bike", "bike_id": "acd49a18731ef3480e18aa7b2e6d5137", "is_disabled": 0, "rental_uris": {"android": "https://dc.lft.to/lastmile_qr_scan", "ios": "https://dc.lft.to/lastmile_qr_scan"}, "lon": -77.00673783333333, "fusion_lat": 0.0}, {"name": "ab01de7d47f4f9107ac0e65a245839b4", "fusion_lon": 0.0, "lat": 38.9290135, "is_reserved": 0, "type": "electric_scooter", "bike_id": "ab01de7d47f4f9107ac0e65a245839b4", "is_disabled": 0, "rental_uris": {"android": "https://dc.lft.to/lastmile_qr_scan", "ios": "https://dc.lft.to/lastmile_qr_scan"}, "lon": -77.02607633333334, "fusion_lat": 0.0}, {"name": "7eda3673350afe1f5ba9a306f557dba2", "fusion_lon": 0.0, "lat": 38.928711166666666, "is_reserved": 0, "type": "electric_scooter", "bike_id": "7eda3673350afe1f5ba9a306f557dba2", "is_disabled": 0, "rental_uris": {"android": "https://dc.lft.to/lastmile_qr_scan", "ios": "https://dc.lft.to/lastmile_qr_scan"}, "lon": -77.0140925, "fusion_lat": 0.0}, {"name": "bfe45f0ea9ed076717aa8f44b3f1c861", "fusion_lon": 0.0, "lat": 38.879261, "is_reserved": 0, "type": "electric_scooter", "bike_id": "bfe45f0ea9ed076717aa8f44b3f1c861", "is_disabled": 0, "rental_uris": {"android": "https://dc.lft.to/lastmile_qr_scan", "ios": "https://dc.lft.to/lastmile_qr_scan"}, "lon": -77.00523016666666, "fusion_lat": 0.0}, {"name": "c9e97e96b9b9f547570f49a0bc7711f5", "fusion_lon": 0.0, "lat": 38.915450666666665, "is_reserved": 0, "type": "electric_scooter", "bike_id": "c9e97e96b9b9f547570f49a0bc7711f5", "is_disabled": 0, "rental_uris": {"android": "https://dc.lft.to/lastmile_qr_scan", "ios": "https://dc.lft.to/lastmile_qr_scan"}, "lon": -77.038494, "fusion_lat": 0.0}, {"name": "7ab07e0166003b6681f21915743361ac", "fusion_lon": 0.0, "lat": 38.879386333333336, "is_reserved": 0, "type": "electric_scooter", "bike_id": "7ab07e0166003b6681f21915743361ac", "is_disabled": 0, "rental_uris": {"android": "https://dc.lft.to/lastmile_qr_scan", "ios": "https://dc.lft.to/lastmile_qr_scan"}, "lon": -77.00063533333334, "fusion_lat": 0.0}, {"name": "4709ffcd77810da1b5af1fa244f7a011", "fusion_lon": 0.0, "lat": 38.80125966666667, "is_reserved": 0, "type": "electric_bike", "bike_id": "4709ffcd77810da1b5af1fa244f7a011", "is_disabled": 0, "rental_uris": {"android": "https://dc.lft.to/lastmile_qr_scan", "ios": "https://dc.lft.to/lastmile_qr_scan"}, "lon": -77.07042383333334, "fusion_lat": 0.0}, {"name": "45cb7f8ca104b5f54bf03da5629a9561", "fusion_lon": 0.0, "lat": 38.9013245, "is_reserved": 0, "type": "electric_scooter", "bike_id": "45cb7f8ca104b5f54bf03da5629a9561", "is_disabled": 0, "rental_uris": {"android": "https://dc.lft.to/lastmile_qr_scan", "ios": "https://dc.lft.to/lastmile_qr_scan"}, "lon": -77.0418125, "fusion_lat": 0.0}, {"name": "4bef3b8bd3b45fff04c040773f7b27c5", "fusion_lon": 0.0, "lat": 38.90588833333333, "is_reserved": 0, "type": "electric_scooter", "bike_id": "4bef3b8bd3b45fff04c040773f7b27c5", "is_disabled": 0, "rental_uris": {"android": "https://dc.lft.to/lastmile_qr_scan", "ios": "https://dc.lft.to/lastmile_qr_scan"}, "lon": -77.04121166666667, "fusion_lat": 0.0}, {"name": "2927cc476d1952c5256ec2fac54b5d31", "fusion_lon": 0.0, "lat": 38.863885333333336, "is_reserved": 0, "type": "electric_scooter", "bike_id": "2927cc476d1952c5256ec2fac54b5d31", "is_disabled": 0, "rental_uris": {"android": "https://dc.lft.to/lastmile_qr_scan", "ios": "https://dc.lft.to/lastmile_qr_scan"}, "lon": -76.9904255, "fusion_lat": 0.0}, {"name": "07ffaf0f31a0a7d68b43a8d6056cc7ed", "fusion_lon": 0.0, "lat": 38.928342, "is_reserved": 0, "type": "electric_bike", "bike_id": "07ffaf0f31a0a7d68b43a8d6056cc7ed", "is_disabled": 0, "rental_uris": {"android": "https://dc.lft.to/lastmile_qr_scan", "ios": "https://dc.lft.to/lastmile_qr_scan"}, "lon": -77.05512133333333, "fusion_lat": 0.0}, {"name": "169bad682d193e4e02f856d61400cdae", "fusion_lon": 0.0, "lat": 38.910844833333336, "is_reserved": 0, "type": "electric_scooter", "bike_id": "169bad682d193e4e02f856d61400cdae", "is_disabled": 0, "rental_uris": {"android": "https://dc.lft.to/lastmile_qr_scan", "ios": "https://dc.lft.to/lastmile_qr_scan"}, "lon": -76.99271, "fusion_lat": 0.0}, {"name": "0d5d73f0fa4164ecda61e7f4a6aeccc2", "fusion_lon": 0.0, "lat": 38.93616016666667, "is_reserved": 0, "type": "electric_bike", "bike_id": "0d5d73f0fa4164ecda61e7f4a6aeccc2", "is_disabled": 0, "rental_uris": {"android": "https://dc.lft.to/lastmile_qr_scan", "ios": "https://dc.lft.to/lastmile_qr_scan"}, "lon": -77.090216, "fusion_lat": 0.0}, {"name": "9f888056f93cb272d0d65ca1a09cc5df", "fusion_lon": 0.0, "lat": 38.884035, "is_reserved": 0, "type": "electric_scooter", "bike_id": "9f888056f93cb272d0d65ca1a09cc5df", "is_disabled": 0, "rental_uris": {"android": "https://dc.lft.to/lastmile_qr_scan", "ios": "https://dc.lft.to/lastmile_qr_scan"}, "lon": -76.93048266666666, "fusion_lat": 0.0}, {"name": "8c5366ac01481316022ef0b92ff2644f", "fusion_lon": 0.0, "lat": 38.91842966666667, "is_reserved": 0, "type": "electric_scooter", "bike_id": "8c5366ac01481316022ef0b92ff2644f", "is_disabled": 0, "rental_uris": {"android": "https://dc.lft.to/lastmile_qr_scan", "ios": "https://dc.lft.to/lastmile_qr_scan"}, "lon": -77.02306816666666, "fusion_lat": 0.0}, {"name": "cd8f4a3d6db51333b22f5113b4370885", "fusion_lon": 0.0, "lat": 38.9007565, "is_reserved": 0, "type": "electric_scooter", "bike_id": "cd8f4a3d6db51333b22f5113b4370885", "is_disabled": 0, "rental_uris": {"android": "https://dc.lft.to/lastmile_qr_scan", "ios": "https://dc.lft.to/lastmile_qr_scan"}, "lon": -77.01222866666667, "fusion_lat": 0.0}, {"name": "8a8911d7b5998a79fa1e823f74d5a8d8", "fusion_lon": 0.0, "lat": 38.948173, "is_reserved": 0, "type": "electric_scooter", "bike_id": "8a8911d7b5998a79fa1e823f74d5a8d8", "is_disabled": 0, "rental_uris": {"android": "https://dc.lft.to/lastmile_qr_scan", "ios": "https://dc.lft.to/lastmile_qr_scan"}, "lon": -77.07885883333333, "fusion_lat": 0.0}, {"name": "a019ed0f205998b001e3efeb9b0694e5", "fusion_lon": 0.0, "lat": 38.900575, "is_reserved": 0, "type": "electric_scooter", "bike_id": "a019ed0f205998b001e3efeb9b0694e5", "is_disabled": 0, "rental_uris": {"android": "https://dc.lft.to/lastmile_qr_scan", "ios": "https://dc.lft.to/lastmile_qr_scan"}, "lon": -77.02200233333333, "fusion_lat": 0.0}, {"name": "4a5dfebed5cb0ef8efd55cf334d5b2dc", "fusion_lon": 0.0, "lat": 38.86085083333333, "is_reserved": 0, "type": "electric_scooter", "bike_id": "4a5dfebed5cb0ef8efd55cf334d5b2dc", "is_disabled": 0, "rental_uris": {"android": "https://dc.lft.to/lastmile_qr_scan", "ios": "https://dc.lft.to/lastmile_qr_scan"}, "lon": -76.9686435, "fusion_lat": 0.0}, {"name": "d286c9d64cd51ecbb29ab91910854a88", "fusion_lon": 0.0, "lat": 38.92239283333333, "is_reserved": 0, "type": "electric_scooter", "bike_id": "d286c9d64cd51ecbb29ab91910854a88", "is_disabled": 0, "rental_uris": {"android": "https://dc.lft.to/lastmile_qr_scan", "ios": "https://dc.lft.to/lastmile_qr_scan"}, "lon": -77.03519833333333, "fusion_lat": 0.0}, {"name": "4954e91f3e8c5b1ceac5e271ad14c0f5", "fusion_lon": 0.0, "lat": 38.8757, "is_reserved": 0, "type": "electric_scooter", "bike_id": "4954e91f3e8c5b1ceac5e271ad14c0f5", "is_disabled": 0, "rental_uris": {"android": "https://dc.lft.to/lastmile_qr_scan", "ios": "https://dc.lft.to/lastmile_qr_scan"}, "lon": -77.00583933333333, "fusion_lat": 0.0}, {"name": "fafd4eef9fc848c948bdb9384b98e9d8", "fusion_lon": 0.0, "lat": 38.92382633333333, "is_reserved": 0, "type": "electric_scooter", "bike_id": "fafd4eef9fc848c948bdb9384b98e9d8", "is_disabled": 0, "rental_uris": {"android": "https://dc.lft.to/lastmile_qr_scan", "ios": "https://dc.lft.to/lastmile_qr_scan"}, "lon": -77.05186766666667, "fusion_lat": 0.0}, {"name": "cb32bbbbd57235cbaff81c9684837bca", "fusion_lon": 0.0, "lat": 38.874660666666664, "is_reserved": 0, "type": "electric_scooter", "bike_id": "cb32bbbbd57235cbaff81c9684837bca", "is_disabled": 0, "rental_uris": {"android": "https://dc.lft.to/lastmile_qr_scan", "ios": "https://dc.lft.to/lastmile_qr_scan"}, "lon": -77.01593433333333, "fusion_lat": 0.0}, {"name": "77953950ad17641e03232f9304a75a0d", "fusion_lon": 0.0, "lat": 38.933729166666666, "is_reserved": 0, "type": "electric_scooter", "bike_id": "77953950ad17641e03232f9304a75a0d", "is_disabled": 0, "rental_uris": {"android": "https://dc.lft.to/lastmile_qr_scan", "ios": "https://dc.lft.to/lastmile_qr_scan"}, "lon": -77.02690066666666, "fusion_lat": 0.0}, {"name": "93f7959e380d820a687fb0e74a1cf069", "fusion_lon": 0.0, "lat": 38.8734785, "is_reserved": 0, "type": "electric_scooter", "bike_id": "93f7959e380d820a687fb0e74a1cf069", "is_disabled": 0, "rental_uris": {"android": "https://dc.lft.to/lastmile_qr_scan", "ios": "https://dc.lft.to/lastmile_qr_scan"}, "lon": -77.002648, "fusion_lat": 0.0}, {"name": "3a7e2d9247cae8bf845f69594476b61e", "fusion_lon": 0.0, "lat": 38.9171995, "is_reserved": 0, "type": "electric_scooter", "bike_id": "3a7e2d9247cae8bf845f69594476b61e", "is_disabled": 0, "rental_uris": {"android": "https://dc.lft.to/lastmile_qr_scan", "ios": "https://dc.lft.to/lastmile_qr_scan"}, "lon": -77.03167683333334, "fusion_lat": 0.0}, {"name": "0e5e4595d5c37846178d1e8bd307dab1", "fusion_lon": 0.0, "lat": 38.929365, "is_reserved": 0, "type": "electric_scooter", "bike_id": "0e5e4595d5c37846178d1e8bd307dab1", "is_disabled": 0, "rental_uris": {"android": "https://dc.lft.to/lastmile_qr_scan", "ios": "https://dc.lft.to/lastmile_qr_scan"}, "lon": -77.02325183333333, "fusion_lat": 0.0}, {"name": "49da09250648e5b46a411d8376b0ea6d", "fusion_lon": 0.0, "lat": 38.958381833333334, "is_reserved": 0, "type": "electric_scooter", "bike_id": "49da09250648e5b46a411d8376b0ea6d", "is_disabled": 0, "rental_uris": {"android": "https://dc.lft.to/lastmile_qr_scan", "ios": "https://dc.lft.to/lastmile_qr_scan"}, "lon": -77.01513383333334, "fusion_lat": 0.0}, {"name": "a8703e976e587fea733c487e3824ea8a", "fusion_lon": 0.0, "lat": 38.8922285, "is_reserved": 0, "type": "electric_scooter", "bike_id": "a8703e976e587fea733c487e3824ea8a", "is_disabled": 0, "rental_uris": {"android": "https://dc.lft.to/lastmile_qr_scan", "ios": "https://dc.lft.to/lastmile_qr_scan"}, "lon": -77.04307, "fusion_lat": 0.0}, {"name": "32aa07e2f7ec370a59a13849dc58a72d", "fusion_lon": 0.0, "lat": 38.898527, "is_reserved": 0, "type": "electric_scooter", "bike_id": "32aa07e2f7ec370a59a13849dc58a72d", "is_disabled": 0, "rental_uris": {"android": "https://dc.lft.to/lastmile_qr_scan", "ios": "https://dc.lft.to/lastmile_qr_scan"}, "lon": -76.9903065, "fusion_lat": 0.0}, {"name": "9b80111681de5f1f0bb2f072f2de4aba", "fusion_lon": 0.0, "lat": 38.900096833333336, "is_reserved": 0, "type": "electric_scooter", "bike_id": "9b80111681de5f1f0bb2f072f2de4aba", "is_disabled": 0, "rental_uris": {"android": "https://dc.lft.to/lastmile_qr_scan", "ios": "https://dc.lft.to/lastmile_qr_scan"}, "lon": -76.99530283333333, "fusion_lat": 0.0}, {"name": "498ef0073f78986e8548ae051ede8b96", "fusion_lon": 0.0, "lat": 39.03929383333333, "is_reserved": 0, "type": "electric_bike", "bike_id": "498ef0073f78986e8548ae051ede8b96", "is_disabled": 0, "rental_uris": {"android": "https://dc.lft.to/lastmile_qr_scan", "ios": "https://dc.lft.to/lastmile_qr_scan"}, "lon": -77.02851983333333, "fusion_lat": 0.0}, {"name": "7d7c95fefbda565506ca949a5fd1cfa8", "fusion_lon": 0.0, "lat": 38.924508, "is_reserved": 0, "type": "electric_scooter", "bike_id": "7d7c95fefbda565506ca949a5fd1cfa8", "is_disabled": 0, "rental_uris": {"android": "https://dc.lft.to/lastmile_qr_scan", "ios": "https://dc.lft.to/lastmile_qr_scan"}, "lon": -77.022587, "fusion_lat": 0.0}, {"name": "0756f4e9abdaad4d3efaf8c1df1386f0", "fusion_lon": 0.0, "lat": 38.8697715, "is_reserved": 0, "type": "electric_scooter", "bike_id": "0756f4e9abdaad4d3efaf8c1df1386f0", "is_disabled": 0, "rental_uris": {"android": "https://dc.lft.to/lastmile_qr_scan", "ios": "https://dc.lft.to/lastmile_qr_scan"}, "lon": -77.01226383333334, "fusion_lat": 0.0}, {"name": "d7ec5bba12f1bbb047b3266ecf4bf30f", "fusion_lon": 0.0, "lat": 38.92752933333333, "is_reserved": 0, "type": "electric_scooter", "bike_id": "d7ec5bba12f1bbb047b3266ecf4bf30f", "is_disabled": 0, "rental_uris": {"android": "https://dc.lft.to/lastmile_qr_scan", "ios": "https://dc.lft.to/lastmile_qr_scan"}, "lon": -77.0230115, "fusion_lat": 0.0}, {"name": "2a0c1f1b748d9a582f9f9b249df9ab0d", "fusion_lon": 0.0, "lat": 38.9550395, "is_reserved": 0, "type": "electric_bike", "bike_id": "2a0c1f1b748d9a582f9f9b249df9ab0d", "is_disabled": 0, "rental_uris": {"android": "https://dc.lft.to/lastmile_qr_scan", "ios": "https://dc.lft.to/lastmile_qr_scan"}, "lon": -76.9935445, "fusion_lat": 0.0}, {"name": "0203241591d4d90f91e2153e7394004f", "fusion_lon": 0.0, "lat": 38.90057133333333, "is_reserved": 0, "type": "electric_scooter", "bike_id": "0203241591d4d90f91e2153e7394004f", "is_disabled": 0, "rental_uris": {"android": "https://dc.lft.to/lastmile_qr_scan", "ios": "https://dc.lft.to/lastmile_qr_scan"}, "lon": -76.99017766666667, "fusion_lat": 0.0}, {"name": "cd29d303b9bfd09dd81227b9da0cc38f", "fusion_lon": 0.0, "lat": 38.9573605, "is_reserved": 0, "type": "electric_scooter", "bike_id": "cd29d303b9bfd09dd81227b9da0cc38f", "is_disabled": 0, "rental_uris": {"android": "https://dc.lft.to/lastmile_qr_scan", "ios": "https://dc.lft.to/lastmile_qr_scan"}, "lon": -77.02431333333334, "fusion_lat": 0.0}, {"name": "8e50c41b65aae2a8a7e0e64cc3e3c2c2", "fusion_lon": 0.0, "lat": 38.951349666666665, "is_reserved": 0, "type": "electric_scooter", "bike_id": "8e50c41b65aae2a8a7e0e64cc3e3c2c2", "is_disabled": 0, "rental_uris": {"android": "https://dc.lft.to/lastmile_qr_scan", "ios": "https://dc.lft.to/lastmile_qr_scan"}, "lon": -77.0272165, "fusion_lat": 0.0}, {"name": "4aafb0ad017cb5aae872a6e0746b512c", "fusion_lon": 0.0, "lat": 38.876492, "is_reserved": 0, "type": "electric_scooter", "bike_id": "4aafb0ad017cb5aae872a6e0746b512c", "is_disabled": 0, "rental_uris": {"android": "https://dc.lft.to/lastmile_qr_scan", "ios": "https://dc.lft.to/lastmile_qr_scan"}, "lon": -76.9650685, "fusion_lat": 0.0}, {"name": "c6c17a3fd00535ef30460184938dc390", "fusion_lon": 0.0, "lat": 38.914127666666666, "is_reserved": 0, "type": "electric_scooter", "bike_id": "c6c17a3fd00535ef30460184938dc390", "is_disabled": 0, "rental_uris": {"android": "https://dc.lft.to/lastmile_qr_scan", "ios": "https://dc.lft.to/lastmile_qr_scan"}, "lon": -77.04181216666667, "fusion_lat": 0.0}, {"name": "e09939a72c33d3ba54315b43ee39bc0e", "fusion_lon": 0.0, "lat": 38.919534666666664, "is_reserved": 0, "type": "electric_scooter", "bike_id": "e09939a72c33d3ba54315b43ee39bc0e", "is_disabled": 0, "rental_uris": {"android": "https://dc.lft.to/lastmile_qr_scan", "ios": "https://dc.lft.to/lastmile_qr_scan"}, "lon": -77.02885883333333, "fusion_lat": 0.0}, {"name": "b3578328693e76e987ac4e337c4058ca", "fusion_lon": 0.0, "lat": 38.90510783333333, "is_reserved": 0, "type": "electric_scooter", "bike_id": "b3578328693e76e987ac4e337c4058ca", "is_disabled": 0, "rental_uris": {"android": "https://dc.lft.to/lastmile_qr_scan", "ios": "https://dc.lft.to/lastmile_qr_scan"}, "lon": -77.07015716666666, "fusion_lat": 0.0}, {"name": "5145cfd584f7dbbb03e2bbc40cf5f50b", "fusion_lon": 0.0, "lat": 38.96301733333333, "is_reserved": 0, "type": "electric_bike", "bike_id": "5145cfd584f7dbbb03e2bbc40cf5f50b", "is_disabled": 0, "rental_uris": {"android": "https://dc.lft.to/lastmile_qr_scan", "ios": "https://dc.lft.to/lastmile_qr_scan"}, "lon": -77.01110366666667, "fusion_lat": 0.0}, {"name": "7e4b2a73738e87e90532f34d78e417ac", "fusion_lon": 0.0, "lat": 38.96326366666667, "is_reserved": 0, "type": "electric_bike", "bike_id": "7e4b2a73738e87e90532f34d78e417ac", "is_disabled": 0, "rental_uris": {"android": "https://dc.lft.to/lastmile_qr_scan", "ios": "https://dc.lft.to/lastmile_qr_scan"}, "lon": -76.97357666666667, "fusion_lat": 0.0}, {"name": "1d39e6d097ce2869bc498e6a34a7e1f2", "fusion_lon": 0.0, "lat": 38.918168666666666, "is_reserved": 0, "type": "electric_scooter", "bike_id": "1d39e6d097ce2869bc498e6a34a7e1f2", "is_disabled": 0, "rental_uris": {"android": "https://dc.lft.to/lastmile_qr_scan", "ios": "https://dc.lft.to/lastmile_qr_scan"}, "lon": -77.08962983333333, "fusion_lat": 0.0}, {"name": "f893e2aa362d5b1063660d762a461667", "fusion_lon": 0.0, "lat": 38.932322, "is_reserved": 0, "type": "electric_scooter", "bike_id": "f893e2aa362d5b1063660d762a461667", "is_disabled": 0, "rental_uris": {"android": "https://dc.lft.to/lastmile_qr_scan", "ios": "https://dc.lft.to/lastmile_qr_scan"}, "lon": -77.03872483333333, "fusion_lat": 0.0}, {"name": "3c45105d257b888cb321cf6f5cecc904", "fusion_lon": 0.0, "lat": 38.904767666666665, "is_reserved": 0, "type": "electric_scooter", "bike_id": "3c45105d257b888cb321cf6f5cecc904", "is_disabled": 0, "rental_uris": {"android": "https://dc.lft.to/lastmile_qr_scan", "ios": "https://dc.lft.to/lastmile_qr_scan"}, "lon": -77.041874, "fusion_lat": 0.0}, {"name": "be08d5c559145cee65196b27f32c51d7", "fusion_lon": 0.0, "lat": 38.896074666666664, "is_reserved": 0, "type": "electric_scooter", "bike_id": "be08d5c559145cee65196b27f32c51d7", "is_disabled": 0, "rental_uris": {"android": "https://dc.lft.to/lastmile_qr_scan", "ios": "https://dc.lft.to/lastmile_qr_scan"}, "lon": -77.022094, "fusion_lat": 0.0}, {"name": "ccf48b82841962323aec82080e09ea66", "fusion_lon": 0.0, "lat": 38.9173645, "is_reserved": 0, "type": "electric_scooter", "bike_id": "ccf48b82841962323aec82080e09ea66", "is_disabled": 0, "rental_uris": {"android": "https://dc.lft.to/lastmile_qr_scan", "ios": "https://dc.lft.to/lastmile_qr_scan"}, "lon": -77.03453383333333, "fusion_lat": 0.0}, {"name": "2f48df77c4ebfd5b79bf0c5f5312a7ac", "fusion_lon": 0.0, "lat": 38.930449333333335, "is_reserved": 0, "type": "electric_scooter", "bike_id": "2f48df77c4ebfd5b79bf0c5f5312a7ac", "is_disabled": 0, "rental_uris": {"android": "https://dc.lft.to/lastmile_qr_scan", "ios": "https://dc.lft.to/lastmile_qr_scan"}, "lon": -77.01224766666667, "fusion_lat": 0.0}, {"name": "20de07b7499d2786aa5628e449ea9db3", "fusion_lon": 0.0, "lat": 38.91476216666667, "is_reserved": 0, "type": "electric_scooter", "bike_id": "20de07b7499d2786aa5628e449ea9db3", "is_disabled": 0, "rental_uris": {"android": "https://dc.lft.to/lastmile_qr_scan", "ios": "https://dc.lft.to/lastmile_qr_scan"}, "lon": -77.03189733333333, "fusion_lat": 0.0}, {"name": "0c7f19b9e0b8151427adae0550d97165", "fusion_lon": 0.0, "lat": 38.91272166666667, "is_reserved": 0, "type": "electric_scooter", "bike_id": "0c7f19b9e0b8151427adae0550d97165", "is_disabled": 0, "rental_uris": {"android": "https://dc.lft.to/lastmile_qr_scan", "ios": "https://dc.lft.to/lastmile_qr_scan"}, "lon": -77.02231183333333, "fusion_lat": 0.0}, {"name": "a2291aa5883253f5b7fab78eac58b60e", "fusion_lon": 0.0, "lat": 38.923681, "is_reserved": 0, "type": "electric_scooter", "bike_id": "a2291aa5883253f5b7fab78eac58b60e", "is_disabled": 0, "rental_uris": {"android": "https://dc.lft.to/lastmile_qr_scan", "ios": "https://dc.lft.to/lastmile_qr_scan"}, "lon": -77.03533066666667, "fusion_lat": 0.0}, {"name": "deda5cfd5f91a2091c2705dea4a7ea09", "fusion_lon": 0.0, "lat": 38.95352283333333, "is_reserved": 0, "type": "electric_bike", "bike_id": "deda5cfd5f91a2091c2705dea4a7ea09", "is_disabled": 0, "rental_uris": {"android": "https://dc.lft.to/lastmile_qr_scan", "ios": "https://dc.lft.to/lastmile_qr_scan"}, "lon": -76.980948, "fusion_lat": 0.0}, {"name": "fff1400b3ab8558c4d3238cc0412ff00", "fusion_lon": 0.0, "lat": 38.91908933333333, "is_reserved": 0, "type": "electric_scooter", "bike_id": "fff1400b3ab8558c4d3238cc0412ff00", "is_disabled": 0, "rental_uris": {"android": "https://dc.lft.to/lastmile_qr_scan", "ios": "https://dc.lft.to/lastmile_qr_scan"}, "lon": -77.01538266666667, "fusion_lat": 0.0}, {"name": "729216ed547ea6cabd6601116904f3f7", "fusion_lon": 0.0, "lat": 38.93864166666667, "is_reserved": 0, "type": "electric_scooter", "bike_id": "729216ed547ea6cabd6601116904f3f7", "is_disabled": 0, "rental_uris": {"android": "https://dc.lft.to/lastmile_qr_scan", "ios": "https://dc.lft.to/lastmile_qr_scan"}, "lon": -77.02595383333333, "fusion_lat": 0.0}, {"name": "a2ff48269f83f19921f618391a7d6ba7", "fusion_lon": 0.0, "lat": 38.95868266666667, "is_reserved": 0, "type": "electric_bike", "bike_id": "a2ff48269f83f19921f618391a7d6ba7", "is_disabled": 0, "rental_uris": {"android": "https://dc.lft.to/lastmile_qr_scan", "ios": "https://dc.lft.to/lastmile_qr_scan"}, "lon": -77.00142, "fusion_lat": 0.0}, {"name": "eeeea53abc8dc15814ed06dcae6a5259", "fusion_lon": 0.0, "lat": 38.861827166666664, "is_reserved": 0, "type": "electric_scooter", "bike_id": "eeeea53abc8dc15814ed06dcae6a5259", "is_disabled": 0, "rental_uris": {"android": "https://dc.lft.to/lastmile_qr_scan", "ios": "https://dc.lft.to/lastmile_qr_scan"}, "lon": -77.08806716666666, "fusion_lat": 0.0}, {"name": "672c56d956b25146e44f2d048d243527", "fusion_lon": 0.0, "lat": 38.9077905, "is_reserved": 0, "type": "electric_scooter", "bike_id": "672c56d956b25146e44f2d048d243527", "is_disabled": 0, "rental_uris": {"android": "https://dc.lft.to/lastmile_qr_scan", "ios": "https://dc.lft.to/lastmile_qr_scan"}, "lon": -77.03831266666667, "fusion_lat": 0.0}, {"name": "fa5fb4fa8eeff9ca3787385e2a00b8cd", "fusion_lon": 0.0, "lat": 38.932258, "is_reserved": 0, "type": "electric_bike", "bike_id": "fa5fb4fa8eeff9ca3787385e2a00b8cd", "is_disabled": 0, "rental_uris": {"android": "https://dc.lft.to/lastmile_qr_scan", "ios": "https://dc.lft.to/lastmile_qr_scan"}, "lon": -77.18124533333334, "fusion_lat": 0.0}, {"name": "c5ea5705a31705d378d0fe16416f9a0b", "fusion_lon": 0.0, "lat": 38.89606766666667, "is_reserved": 0, "type": "electric_scooter", "bike_id": "c5ea5705a31705d378d0fe16416f9a0b", "is_disabled": 0, "rental_uris": {"android": "https://dc.lft.to/lastmile_qr_scan", "ios": "https://dc.lft.to/lastmile_qr_scan"}, "lon": -77.05439183333333, "fusion_lat": 0.0}, {"name": "fe7f1fa6ac0f3c8139d435ab0deea877", "fusion_lon": 0.0, "lat": 38.91324, "is_reserved": 0, "type": "electric_scooter", "bike_id": "fe7f1fa6ac0f3c8139d435ab0deea877", "is_disabled": 0, "rental_uris": {"android": "https://dc.lft.to/lastmile_qr_scan", "ios": "https://dc.lft.to/lastmile_qr_scan"}, "lon": -77.06250883333334, "fusion_lat": 0.0}, {"name": "54a336e52d9ff00ca1f606a13aee759c", "fusion_lon": 0.0, "lat": 38.87638333333334, "is_reserved": 0, "type": "electric_scooter", "bike_id": "54a336e52d9ff00ca1f606a13aee759c", "is_disabled": 0, "rental_uris": {"android": "https://dc.lft.to/lastmile_qr_scan", "ios": "https://dc.lft.to/lastmile_qr_scan"}, "lon": -77.004575, "fusion_lat": 0.0}, {"name": "d89c7667f0372be73b2233bbf485239e", "fusion_lon": 0.0, "lat": 38.95184033333334, "is_reserved": 0, "type": "electric_scooter", "bike_id": "d89c7667f0372be73b2233bbf485239e", "is_disabled": 0, "rental_uris": {"android": "https://dc.lft.to/lastmile_qr_scan", "ios": "https://dc.lft.to/lastmile_qr_scan"}, "lon": -77.026096, "fusion_lat": 0.0}, {"name": "d94691930f101944c76ff2bb0b334dbd", "fusion_lon": 0.0, "lat": 38.91553416666667, "is_reserved": 0, "type": "electric_scooter", "bike_id": "d94691930f101944c76ff2bb0b334dbd", "is_disabled": 0, "rental_uris": {"android": "https://dc.lft.to/lastmile_qr_scan", "ios": "https://dc.lft.to/lastmile_qr_scan"}, "lon": -77.04127716666666, "fusion_lat": 0.0}, {"name": "ad33f3ac3f96c70f9d8b0c9932b649bc", "fusion_lon": 0.0, "lat": 38.9168395, "is_reserved": 0, "type": "electric_scooter", "bike_id": "ad33f3ac3f96c70f9d8b0c9932b649bc", "is_disabled": 0, "rental_uris": {"android": "https://dc.lft.to/lastmile_qr_scan", "ios": "https://dc.lft.to/lastmile_qr_scan"}, "lon": -77.026949, "fusion_lat": 0.0}, {"name": "9755258507b30f4e3dfe3180c1ddd5ea", "fusion_lon": 0.0, "lat": 38.9226015, "is_reserved": 0, "type": "electric_scooter", "bike_id": "9755258507b30f4e3dfe3180c1ddd5ea", "is_disabled": 0, "rental_uris": {"android": "https://dc.lft.to/lastmile_qr_scan", "ios": "https://dc.lft.to/lastmile_qr_scan"}, "lon": -77.07326, "fusion_lat": 0.0}, {"name": "9af7e677aea87d72acd37892228d62e3", "fusion_lon": 0.0, "lat": 38.917703333333336, "is_reserved": 0, "type": "electric_scooter", "bike_id": "9af7e677aea87d72acd37892228d62e3", "is_disabled": 0, "rental_uris": {"android": "https://dc.lft.to/lastmile_qr_scan", "ios": "https://dc.lft.to/lastmile_qr_scan"}, "lon": -77.04059933333333, "fusion_lat": 0.0}, {"name": "2fea07518f9309ec2dbfd7837100f51f", "fusion_lon": 0.0, "lat": 38.87293966666667, "is_reserved": 0, "type": "electric_bike", "bike_id": "2fea07518f9309ec2dbfd7837100f51f", "is_disabled": 0, "rental_uris": {"android": "https://dc.lft.to/lastmile_qr_scan", "ios": "https://dc.lft.to/lastmile_qr_scan"}, "lon": -76.96979566666667, "fusion_lat": 0.0}, {"name": "66f86b6f014aa3732e0be429be0e8514", "fusion_lon": 0.0, "lat": 38.91519483333333, "is_reserved": 0, "type": "electric_scooter", "bike_id": "66f86b6f014aa3732e0be429be0e8514", "is_disabled": 0, "rental_uris": {"android": "https://dc.lft.to/lastmile_qr_scan", "ios": "https://dc.lft.to/lastmile_qr_scan"}, "lon": -77.01222016666667, "fusion_lat": 0.0}, {"name": "733974c47e832d93b422dd6eec0e2ceb", "fusion_lon": 0.0, "lat": 38.921118666666665, "is_reserved": 0, "type": "electric_scooter", "bike_id": "733974c47e832d93b422dd6eec0e2ceb", "is_disabled": 0, "rental_uris": {"android": "https://dc.lft.to/lastmile_qr_scan", "ios": "https://dc.lft.to/lastmile_qr_scan"}, "lon": -77.03660616666667, "fusion_lat": 0.0}, {"name": "655e8730149c5bfa7473000056b356b2", "fusion_lon": 0.0, "lat": 38.949881833333336, "is_reserved": 0, "type": "electric_scooter", "bike_id": "655e8730149c5bfa7473000056b356b2", "is_disabled": 0, "rental_uris": {"android": "https://dc.lft.to/lastmile_qr_scan", "ios": "https://dc.lft.to/lastmile_qr_scan"}, "lon": -77.0270565, "fusion_lat": 0.0}, {"name": "562fe3ecd55fb0b1790361e622857155", "fusion_lon": 0.0, "lat": 38.91123983333333, "is_reserved": 0, "type": "electric_scooter", "bike_id": "562fe3ecd55fb0b1790361e622857155", "is_disabled": 0, "rental_uris": {"android": "https://dc.lft.to/lastmile_qr_scan", "ios": "https://dc.lft.to/lastmile_qr_scan"}, "lon": -77.022418, "fusion_lat": 0.0}, {"name": "48ce93fdca2540a852cff15c075cda6f", "fusion_lon": 0.0, "lat": 38.884029, "is_reserved": 0, "type": "electric_scooter", "bike_id": "48ce93fdca2540a852cff15c075cda6f", "is_disabled": 0, "rental_uris": {"android": "https://dc.lft.to/lastmile_qr_scan", "ios": "https://dc.lft.to/lastmile_qr_scan"}, "lon": -77.02575983333334, "fusion_lat": 0.0}, {"name": "2b5b6ec65cf8ab91e5f6a0cc132e1005", "fusion_lon": 0.0, "lat": 38.9183825, "is_reserved": 0, "type": "electric_scooter", "bike_id": "2b5b6ec65cf8ab91e5f6a0cc132e1005", "is_disabled": 0, "rental_uris": {"android": "https://dc.lft.to/lastmile_qr_scan", "ios": "https://dc.lft.to/lastmile_qr_scan"}, "lon": -77.05949983333333, "fusion_lat": 0.0}, {"name": "7803189ad3c92e3ce480b4a7e30fef65", "fusion_lon": 0.0, "lat": 38.87855966666667, "is_reserved": 0, "type": "electric_bike", "bike_id": "7803189ad3c92e3ce480b4a7e30fef65", "is_disabled": 0, "rental_uris": {"android": "https://dc.lft.to/lastmile_qr_scan", "ios": "https://dc.lft.to/lastmile_qr_scan"}, "lon": -77.01765533333334, "fusion_lat": 0.0}, {"name": "8ae645ca3d25e9d987f10bf1e314d4ab", "fusion_lon": 0.0, "lat": 38.971847833333335, "is_reserved": 0, "type": "electric_scooter", "bike_id": "8ae645ca3d25e9d987f10bf1e314d4ab", "is_disabled": 0, "rental_uris": {"android": "https://dc.lft.to/lastmile_qr_scan", "ios": "https://dc.lft.to/lastmile_qr_scan"}, "lon": -77.026752, "fusion_lat": 0.0}, {"name": "fe67b8c1ea3ed7178f33af74467b7816", "fusion_lon": 0.0, "lat": 38.8781915, "is_reserved": 0, "type": "electric_scooter", "bike_id": "fe67b8c1ea3ed7178f33af74467b7816", "is_disabled": 0, "rental_uris": {"android": "https://dc.lft.to/lastmile_qr_scan", "ios": "https://dc.lft.to/lastmile_qr_scan"}, "lon": -76.930988, "fusion_lat": 0.0}, {"name": "7f1a15163dd8dc5e474ca35ccac62035", "fusion_lon": 0.0, "lat": 38.904083, "is_reserved": 0, "type": "electric_scooter", "bike_id": "7f1a15163dd8dc5e474ca35ccac62035", "is_disabled": 0, "rental_uris": {"android": "https://dc.lft.to/lastmile_qr_scan", "ios": "https://dc.lft.to/lastmile_qr_scan"}, "lon": -76.97327016666667, "fusion_lat": 0.0}, {"name": "ef46d570bb40f647d17ce7d72cabfe1d", "fusion_lon": 0.0, "lat": 39.00027983333333, "is_reserved": 0, "type": "electric_bike", "bike_id": "ef46d570bb40f647d17ce7d72cabfe1d", "is_disabled": 0, "rental_uris": {"android": "https://dc.lft.to/lastmile_qr_scan", "ios": "https://dc.lft.to/lastmile_qr_scan"}, "lon": -77.04744466666666, "fusion_lat": 0.0}, {"name": "2ed2cdf628162eab80c857a5a463df54", "fusion_lon": 0.0, "lat": 38.913537, "is_reserved": 0, "type": "electric_bike", "bike_id": "2ed2cdf628162eab80c857a5a463df54", "is_disabled": 0, "rental_uris": {"android": "https://dc.lft.to/lastmile_qr_scan", "ios": "https://dc.lft.to/lastmile_qr_scan"}, "lon": -77.028221, "fusion_lat": 0.0}, {"name": "e2a533b0fdda90c58056b0cd995a4e00", "fusion_lon": 0.0, "lat": 38.91827883333333, "is_reserved": 0, "type": "electric_scooter", "bike_id": "e2a533b0fdda90c58056b0cd995a4e00", "is_disabled": 0, "rental_uris": {"android": "https://dc.lft.to/lastmile_qr_scan", "ios": "https://dc.lft.to/lastmile_qr_scan"}, "lon": -77.03199416666666, "fusion_lat": 0.0}, {"name": "c09eb6749835cb38b26068e2ea02adf9", "fusion_lon": 0.0, "lat": 38.87606666666667, "is_reserved": 0, "type": "electric_scooter", "bike_id": "c09eb6749835cb38b26068e2ea02adf9", "is_disabled": 0, "rental_uris": {"android": "https://dc.lft.to/lastmile_qr_scan", "ios": "https://dc.lft.to/lastmile_qr_scan"}, "lon": -77.00077083333333, "fusion_lat": 0.0}, {"name": "888381a9f45a9b67452ee923afe1973a", "fusion_lon": 0.0, "lat": 38.911004, "is_reserved": 0, "type": "electric_scooter", "bike_id": "888381a9f45a9b67452ee923afe1973a", "is_disabled": 0, "rental_uris": {"android": "https://dc.lft.to/lastmile_qr_scan", "ios": "https://dc.lft.to/lastmile_qr_scan"}, "lon": -77.04203366666667, "fusion_lat": 0.0}, {"name": "78f3ff3dc5ef42421c849f3a7e7a72bd", "fusion_lon": 0.0, "lat": 38.854382, "is_reserved": 0, "type": "electric_bike", "bike_id": "78f3ff3dc5ef42421c849f3a7e7a72bd", "is_disabled": 0, "rental_uris": {"android": "https://dc.lft.to/lastmile_qr_scan", "ios": "https://dc.lft.to/lastmile_qr_scan"}, "lon": -77.08305216666666, "fusion_lat": 0.0}, {"name": "f0f7f4d8d75fff195655e84c64a0d049", "fusion_lon": 0.0, "lat": 38.9013345, "is_reserved": 0, "type": "electric_scooter", "bike_id": "f0f7f4d8d75fff195655e84c64a0d049", "is_disabled": 0, "rental_uris": {"android": "https://dc.lft.to/lastmile_qr_scan", "ios": "https://dc.lft.to/lastmile_qr_scan"}, "lon": -77.04417616666667, "fusion_lat": 0.0}, {"name": "6a9e1e2f495916b5cd72145c445c7461", "fusion_lon": 0.0, "lat": 38.928717166666665, "is_reserved": 0, "type": "electric_scooter", "bike_id": "6a9e1e2f495916b5cd72145c445c7461", "is_disabled": 0, "rental_uris": {"android": "https://dc.lft.to/lastmile_qr_scan", "ios": "https://dc.lft.to/lastmile_qr_scan"}, "lon": -77.0217485, "fusion_lat": 0.0}, {"name": "a68003f21f676d91e9abe832c69a7883", "fusion_lon": 0.0, "lat": 38.927683333333334, "is_reserved": 0, "type": "electric_scooter", "bike_id": "a68003f21f676d91e9abe832c69a7883", "is_disabled": 0, "rental_uris": {"android": "https://dc.lft.to/lastmile_qr_scan", "ios": "https://dc.lft.to/lastmile_qr_scan"}, "lon": -77.027086, "fusion_lat": 0.0}, {"name": "a203f1830a5a83e7afbf850739880c7f", "fusion_lon": 0.0, "lat": 38.9001975, "is_reserved": 0, "type": "electric_scooter", "bike_id": "a203f1830a5a83e7afbf850739880c7f", "is_disabled": 0, "rental_uris": {"android": "https://dc.lft.to/lastmile_qr_scan", "ios": "https://dc.lft.to/lastmile_qr_scan"}, "lon": -77.00680633333333, "fusion_lat": 0.0}, {"name": "0c99b8b85ae35a36f48d26ba42ca18a6", "fusion_lon": 0.0, "lat": 38.86514433333333, "is_reserved": 0, "type": "electric_bike", "bike_id": "0c99b8b85ae35a36f48d26ba42ca18a6", "is_disabled": 0, "rental_uris": {"android": "https://dc.lft.to/lastmile_qr_scan", "ios": "https://dc.lft.to/lastmile_qr_scan"}, "lon": -76.97340833333334, "fusion_lat": 0.0}, {"name": "b0ac154e44f045038942c311a25c71b7", "fusion_lon": 0.0, "lat": 38.914163, "is_reserved": 0, "type": "electric_scooter", "bike_id": "b0ac154e44f045038942c311a25c71b7", "is_disabled": 0, "rental_uris": {"android": "https://dc.lft.to/lastmile_qr_scan", "ios": "https://dc.lft.to/lastmile_qr_scan"}, "lon": -77.03070166666667, "fusion_lat": 0.0}, {"name": "343b65a0a7b3e7b0ade293d2c38c2e7f", "fusion_lon": 0.0, "lat": 38.92420216666667, "is_reserved": 0, "type": "electric_scooter", "bike_id": "343b65a0a7b3e7b0ade293d2c38c2e7f", "is_disabled": 0, "rental_uris": {"android": "https://dc.lft.to/lastmile_qr_scan", "ios": "https://dc.lft.to/lastmile_qr_scan"}, "lon": -77.050618, "fusion_lat": 0.0}, {"name": "ae6c5e706c8dd057d3150bca04cc6cb0", "fusion_lon": 0.0, "lat": 38.892459333333335, "is_reserved": 0, "type": "electric_scooter", "bike_id": "ae6c5e706c8dd057d3150bca04cc6cb0", "is_disabled": 0, "rental_uris": {"android": "https://dc.lft.to/lastmile_qr_scan", "ios": "https://dc.lft.to/lastmile_qr_scan"}, "lon": -77.0313615, "fusion_lat": 0.0}, {"name": "c4d32309e9b5806f877dc7fe41215f38", "fusion_lon": 0.0, "lat": 38.917039833333334, "is_reserved": 0, "type": "electric_scooter", "bike_id": "c4d32309e9b5806f877dc7fe41215f38", "is_disabled": 0, "rental_uris": {"android": "https://dc.lft.to/lastmile_qr_scan", "ios": "https://dc.lft.to/lastmile_qr_scan"}, "lon": -77.024535, "fusion_lat": 0.0}, {"name": "c637f54deee5b0e83a0cb1067a4ba2d9", "fusion_lon": 0.0, "lat": 38.9154625, "is_reserved": 0, "type": "electric_scooter", "bike_id": "c637f54deee5b0e83a0cb1067a4ba2d9", "is_disabled": 0, "rental_uris": {"android": "https://dc.lft.to/lastmile_qr_scan", "ios": "https://dc.lft.to/lastmile_qr_scan"}, "lon": -77.03855766666666, "fusion_lat": 0.0}, {"name": "739b105fbf5f5118692f172845d2ede1", "fusion_lon": 0.0, "lat": 38.920996333333335, "is_reserved": 0, "type": "electric_scooter", "bike_id": "739b105fbf5f5118692f172845d2ede1", "is_disabled": 0, "rental_uris": {"android": "https://dc.lft.to/lastmile_qr_scan", "ios": "https://dc.lft.to/lastmile_qr_scan"}, "lon": -77.01679216666666, "fusion_lat": 0.0}, {"name": "abf8264afc991db1a6b2ba015fdde462", "fusion_lon": 0.0, "lat": 38.92509733333333, "is_reserved": 0, "type": "electric_scooter", "bike_id": "abf8264afc991db1a6b2ba015fdde462", "is_disabled": 0, "rental_uris": {"android": "https://dc.lft.to/lastmile_qr_scan", "ios": "https://dc.lft.to/lastmile_qr_scan"}, "lon": -77.02164933333333, "fusion_lat": 0.0}, {"name": "b802437e6d6618d410dff752f5ed0126", "fusion_lon": 0.0, "lat": 38.8763605, "is_reserved": 0, "type": "electric_scooter", "bike_id": "b802437e6d6618d410dff752f5ed0126", "is_disabled": 0, "rental_uris": {"android": "https://dc.lft.to/lastmile_qr_scan", "ios": "https://dc.lft.to/lastmile_qr_scan"}, "lon": -77.00456083333333, "fusion_lat": 0.0}, {"name": "5221075c9b3bc8a1447ab1482aadff9e", "fusion_lon": 0.0, "lat": 38.903457333333336, "is_reserved": 0, "type": "electric_scooter", "bike_id": "5221075c9b3bc8a1447ab1482aadff9e", "is_disabled": 0, "rental_uris": {"android": "https://dc.lft.to/lastmile_qr_scan", "ios": "https://dc.lft.to/lastmile_qr_scan"}, "lon": -76.9850875, "fusion_lat": 0.0}, {"name": "62ec6e59fbef6fb39e3daa91f7ac543a", "fusion_lon": 0.0, "lat": 38.886806, "is_reserved": 0, "type": "electric_scooter", "bike_id": "62ec6e59fbef6fb39e3daa91f7ac543a", "is_disabled": 0, "rental_uris": {"android": "https://dc.lft.to/lastmile_qr_scan", "ios": "https://dc.lft.to/lastmile_qr_scan"}, "lon": -76.95468483333333, "fusion_lat": 0.0}, {"name": "3c6e9c03c569a59dade959b34cccec7a", "fusion_lon": 0.0, "lat": 38.92502366666667, "is_reserved": 0, "type": "electric_scooter", "bike_id": "3c6e9c03c569a59dade959b34cccec7a", "is_disabled": 0, "rental_uris": {"android": "https://dc.lft.to/lastmile_qr_scan", "ios": "https://dc.lft.to/lastmile_qr_scan"}, "lon": -77.02333, "fusion_lat": 0.0}, {"name": "f95908433e565e158f6b61137712f4df", "fusion_lon": 0.0, "lat": 38.8634565, "is_reserved": 0, "type": "electric_scooter", "bike_id": "f95908433e565e158f6b61137712f4df", "is_disabled": 0, "rental_uris": {"android": "https://dc.lft.to/lastmile_qr_scan", "ios": "https://dc.lft.to/lastmile_qr_scan"}, "lon": -76.98718616666666, "fusion_lat": 0.0}, {"name": "ec16a2cec5a763c9760dc41891fc5169", "fusion_lon": 0.0, "lat": 38.91753166666667, "is_reserved": 0, "type": "electric_scooter", "bike_id": "ec16a2cec5a763c9760dc41891fc5169", "is_disabled": 0, "rental_uris": {"android": "https://dc.lft.to/lastmile_qr_scan", "ios": "https://dc.lft.to/lastmile_qr_scan"}, "lon": -77.02285183333333, "fusion_lat": 0.0}, {"name": "8c9187551bfdd737f1984385335f12d8", "fusion_lon": 0.0, "lat": 38.917004666666664, "is_reserved": 0, "type": "electric_scooter", "bike_id": "8c9187551bfdd737f1984385335f12d8", "is_disabled": 0, "rental_uris": {"android": "https://dc.lft.to/lastmile_qr_scan", "ios": "https://dc.lft.to/lastmile_qr_scan"}, "lon": -77.03150566666666, "fusion_lat": 0.0}, {"name": "c88aa8757fbc0d1be5c81137444b55f5", "fusion_lon": 0.0, "lat": 38.90977183333333, "is_reserved": 0, "type": "electric_scooter", "bike_id": "c88aa8757fbc0d1be5c81137444b55f5", "is_disabled": 0, "rental_uris": {"android": "https://dc.lft.to/lastmile_qr_scan", "ios": "https://dc.lft.to/lastmile_qr_scan"}, "lon": -77.0398765, "fusion_lat": 0.0}, {"name": "7c1cee583144c14847320b65d4ec7012", "fusion_lon": 0.0, "lat": 38.9198985, "is_reserved": 0, "type": "electric_scooter", "bike_id": "7c1cee583144c14847320b65d4ec7012", "is_disabled": 0, "rental_uris": {"android": "https://dc.lft.to/lastmile_qr_scan", "ios": "https://dc.lft.to/lastmile_qr_scan"}, "lon": -77.03305466666667, "fusion_lat": 0.0}, {"name": "f1d2572fc16a9d328bc7bc9f6274e888", "fusion_lon": 0.0, "lat": 38.9083345, "is_reserved": 0, "type": "electric_bike", "bike_id": "f1d2572fc16a9d328bc7bc9f6274e888", "is_disabled": 0, "rental_uris": {"android": "https://dc.lft.to/lastmile_qr_scan", "ios": "https://dc.lft.to/lastmile_qr_scan"}, "lon": -76.93316766666666, "fusion_lat": 0.0}, {"name": "a5f13dfa1c265b3ea69cc61ef5addb98", "fusion_lon": 0.0, "lat": 38.9198305, "is_reserved": 0, "type": "electric_scooter", "bike_id": "a5f13dfa1c265b3ea69cc61ef5addb98", "is_disabled": 0, "rental_uris": {"android": "https://dc.lft.to/lastmile_qr_scan", "ios": "https://dc.lft.to/lastmile_qr_scan"}, "lon": -77.04176466666667, "fusion_lat": 0.0}, {"name": "d6bcbd11be1251990537585495e95d5a", "fusion_lon": 0.0, "lat": 38.940435666666666, "is_reserved": 0, "type": "electric_scooter", "bike_id": "d6bcbd11be1251990537585495e95d5a", "is_disabled": 0, "rental_uris": {"android": "https://dc.lft.to/lastmile_qr_scan", "ios": "https://dc.lft.to/lastmile_qr_scan"}, "lon": -77.02893033333334, "fusion_lat": 0.0}, {"name": "96c7c97c03706b443285d7935b449ac2", "fusion_lon": 0.0, "lat": 38.83830616666667, "is_reserved": 0, "type": "electric_bike", "bike_id": "96c7c97c03706b443285d7935b449ac2", "is_disabled": 0, "rental_uris": {"android": "https://dc.lft.to/lastmile_qr_scan", "ios": "https://dc.lft.to/lastmile_qr_scan"}, "lon": -77.07913716666667, "fusion_lat": 0.0}, {"name": "ce7d60af28d242411858bb7ac00e8bd7", "fusion_lon": 0.0, "lat": 38.91070916666666, "is_reserved": 0, "type": "electric_scooter", "bike_id": "ce7d60af28d242411858bb7ac00e8bd7", "is_disabled": 0, "rental_uris": {"android": "https://dc.lft.to/lastmile_qr_scan", "ios": "https://dc.lft.to/lastmile_qr_scan"}, "lon": -77.038468, "fusion_lat": 0.0}, {"name": "5dab24983ace3e5632ecdf3710d22c5b", "fusion_lon": 0.0, "lat": 38.88654916666667, "is_reserved": 0, "type": "electric_scooter", "bike_id": "5dab24983ace3e5632ecdf3710d22c5b", "is_disabled": 0, "rental_uris": {"android": "https://dc.lft.to/lastmile_qr_scan", "ios": "https://dc.lft.to/lastmile_qr_scan"}, "lon": -76.9999125, "fusion_lat": 0.0}, {"name": "43d635caaaffb70d1da928e35559eba7", "fusion_lon": 0.0, "lat": 38.9245525, "is_reserved": 0, "type": "electric_scooter", "bike_id": "43d635caaaffb70d1da928e35559eba7", "is_disabled": 0, "rental_uris": {"android": "https://dc.lft.to/lastmile_qr_scan", "ios": "https://dc.lft.to/lastmile_qr_scan"}, "lon": -77.03970133333333, "fusion_lat": 0.0}, {"name": "a236d29f111e3b259fc3c020c993e25c", "fusion_lon": 0.0, "lat": 38.9246025, "is_reserved": 0, "type": "electric_scooter", "bike_id": "a236d29f111e3b259fc3c020c993e25c", "is_disabled": 0, "rental_uris": {"android": "https://dc.lft.to/lastmile_qr_scan", "ios": "https://dc.lft.to/lastmile_qr_scan"}, "lon": -77.0271395, "fusion_lat": 0.0}, {"name": "f2ec3a8cc137f6b473f3d32783c3c6f9", "fusion_lon": 0.0, "lat": 38.87548016666667, "is_reserved": 0, "type": "electric_scooter", "bike_id": "f2ec3a8cc137f6b473f3d32783c3c6f9", "is_disabled": 0, "rental_uris": {"android": "https://dc.lft.to/lastmile_qr_scan", "ios": "https://dc.lft.to/lastmile_qr_scan"}, "lon": -77.00570916666666, "fusion_lat": 0.0}, {"name": "7e65aa413219b6581792388badabc162", "fusion_lon": 0.0, "lat": 38.88403916666667, "is_reserved": 0, "type": "electric_scooter", "bike_id": "7e65aa413219b6581792388badabc162", "is_disabled": 0, "rental_uris": {"android": "https://dc.lft.to/lastmile_qr_scan", "ios": "https://dc.lft.to/lastmile_qr_scan"}, "lon": -76.953981, "fusion_lat": 0.0}, {"name": "335b975240a657cbeff8a55217652d8b", "fusion_lon": 0.0, "lat": 38.920269833333336, "is_reserved": 0, "type": "electric_scooter", "bike_id": "335b975240a657cbeff8a55217652d8b", "is_disabled": 0, "rental_uris": {"android": "https://dc.lft.to/lastmile_qr_scan", "ios": "https://dc.lft.to/lastmile_qr_scan"}, "lon": -77.03146666666666, "fusion_lat": 0.0}, {"name": "da5a6484313a3d02e997c8bcf01c3bf8", "fusion_lon": 0.0, "lat": 38.91808833333333, "is_reserved": 0, "type": "electric_scooter", "bike_id": "da5a6484313a3d02e997c8bcf01c3bf8", "is_disabled": 0, "rental_uris": {"android": "https://dc.lft.to/lastmile_qr_scan", "ios": "https://dc.lft.to/lastmile_qr_scan"}, "lon": -77.034374, "fusion_lat": 0.0}, {"name": "7e1789ef478531b133fc5cd42149e879", "fusion_lon": 0.0, "lat": 38.901184, "is_reserved": 0, "type": "electric_scooter", "bike_id": "7e1789ef478531b133fc5cd42149e879", "is_disabled": 0, "rental_uris": {"android": "https://dc.lft.to/lastmile_qr_scan", "ios": "https://dc.lft.to/lastmile_qr_scan"}, "lon": -77.05006616666667, "fusion_lat": 0.0}, {"name": "07c1cebfb18518c4d29b2a1227434c66", "fusion_lon": 0.0, "lat": 38.89291983333333, "is_reserved": 0, "type": "electric_bike", "bike_id": "07c1cebfb18518c4d29b2a1227434c66", "is_disabled": 0, "rental_uris": {"android": "https://dc.lft.to/lastmile_qr_scan", "ios": "https://dc.lft.to/lastmile_qr_scan"}, "lon": -76.97612383333333, "fusion_lat": 0.0}, {"name": "9c2a9b2aebd51be889673185bdcb3ee0", "fusion_lon": 0.0, "lat": 38.9113245, "is_reserved": 0, "type": "electric_scooter", "bike_id": "9c2a9b2aebd51be889673185bdcb3ee0", "is_disabled": 0, "rental_uris": {"android": "https://dc.lft.to/lastmile_qr_scan", "ios": "https://dc.lft.to/lastmile_qr_scan"}, "lon": -77.0653865, "fusion_lat": 0.0}, {"name": "dd06efe80dda55f0fb67ca887d53600a", "fusion_lon": 0.0, "lat": 38.91566683333333, "is_reserved": 0, "type": "electric_scooter", "bike_id": "dd06efe80dda55f0fb67ca887d53600a", "is_disabled": 0, "rental_uris": {"android": "https://dc.lft.to/lastmile_qr_scan", "ios": "https://dc.lft.to/lastmile_qr_scan"}, "lon": -77.04283183333334, "fusion_lat": 0.0}, {"name": "cefaf2c545b81cb27b32872110af0de5", "fusion_lon": 0.0, "lat": 38.91773233333333, "is_reserved": 0, "type": "electric_scooter", "bike_id": "cefaf2c545b81cb27b32872110af0de5", "is_disabled": 0, "rental_uris": {"android": "https://dc.lft.to/lastmile_qr_scan", "ios": "https://dc.lft.to/lastmile_qr_scan"}, "lon": -77.01497533333334, "fusion_lat": 0.0}, {"name": "92abdc47026c2d86ee0b3ad81bf8e40d", "fusion_lon": 0.0, "lat": 38.88491333333333, "is_reserved": 0, "type": "electric_scooter", "bike_id": "92abdc47026c2d86ee0b3ad81bf8e40d", "is_disabled": 0, "rental_uris": {"android": "https://dc.lft.to/lastmile_qr_scan", "ios": "https://dc.lft.to/lastmile_qr_scan"}, "lon": -77.007113, "fusion_lat": 0.0}, {"name": "6e9f08b9292c927a9fc05861c4b00c7f", "fusion_lon": 0.0, "lat": 38.914039833333334, "is_reserved": 0, "type": "electric_scooter", "bike_id": "6e9f08b9292c927a9fc05861c4b00c7f", "is_disabled": 0, "rental_uris": {"android": "https://dc.lft.to/lastmile_qr_scan", "ios": "https://dc.lft.to/lastmile_qr_scan"}, "lon": -77.00192533333333, "fusion_lat": 0.0}, {"name": "1337b393c6ce3d5a12be8ca2f113af2d", "fusion_lon": 0.0, "lat": 38.92461566666667, "is_reserved": 0, "type": "electric_scooter", "bike_id": "1337b393c6ce3d5a12be8ca2f113af2d", "is_disabled": 0, "rental_uris": {"android": "https://dc.lft.to/lastmile_qr_scan", "ios": "https://dc.lft.to/lastmile_qr_scan"}, "lon": -77.027174, "fusion_lat": 0.0}, {"name": "e2ea80159706bd0eb0b80f564e2ff986", "fusion_lon": 0.0, "lat": 38.92228683333333, "is_reserved": 0, "type": "electric_scooter", "bike_id": "e2ea80159706bd0eb0b80f564e2ff986", "is_disabled": 0, "rental_uris": {"android": "https://dc.lft.to/lastmile_qr_scan", "ios": "https://dc.lft.to/lastmile_qr_scan"}, "lon": -77.04495016666667, "fusion_lat": 0.0}, {"name": "52d901490d89bc47ae26d7c6afaf0fa8", "fusion_lon": 0.0, "lat": 38.88742666666667, "is_reserved": 0, "type": "electric_scooter", "bike_id": "52d901490d89bc47ae26d7c6afaf0fa8", "is_disabled": 0, "rental_uris": {"android": "https://dc.lft.to/lastmile_qr_scan", "ios": "https://dc.lft.to/lastmile_qr_scan"}, "lon": -77.02842483333333, "fusion_lat": 0.0}, {"name": "45bf0b446ed520aa79ab354ff67a55b9", "fusion_lon": 0.0, "lat": 38.926989, "is_reserved": 0, "type": "electric_scooter", "bike_id": "45bf0b446ed520aa79ab354ff67a55b9", "is_disabled": 0, "rental_uris": {"android": "https://dc.lft.to/lastmile_qr_scan", "ios": "https://dc.lft.to/lastmile_qr_scan"}, "lon": -77.02107483333333, "fusion_lat": 0.0}, {"name": "d3b11f5f9619bd888443e52b5da6f96a", "fusion_lon": 0.0, "lat": 38.91269166666667, "is_reserved": 0, "type": "electric_scooter", "bike_id": "d3b11f5f9619bd888443e52b5da6f96a", "is_disabled": 0, "rental_uris": {"android": "https://dc.lft.to/lastmile_qr_scan", "ios": "https://dc.lft.to/lastmile_qr_scan"}, "lon": -77.03827666666666, "fusion_lat": 0.0}, {"name": "99f822193d5497137a86597475372b0c", "fusion_lon": 0.0, "lat": 38.93724616666667, "is_reserved": 0, "type": "electric_scooter", "bike_id": "99f822193d5497137a86597475372b0c", "is_disabled": 0, "rental_uris": {"android": "https://dc.lft.to/lastmile_qr_scan", "ios": "https://dc.lft.to/lastmile_qr_scan"}, "lon": -77.03267833333334, "fusion_lat": 0.0}, {"name": "5653c52dd5058b3d93f6e6fbd405a4a2", "fusion_lon": 0.0, "lat": 38.915192833333336, "is_reserved": 0, "type": "electric_scooter", "bike_id": "5653c52dd5058b3d93f6e6fbd405a4a2", "is_disabled": 0, "rental_uris": {"android": "https://dc.lft.to/lastmile_qr_scan", "ios": "https://dc.lft.to/lastmile_qr_scan"}, "lon": -77.01222133333333, "fusion_lat": 0.0}, {"name": "fcc40e0f320c5401e17bd88997cf6684", "fusion_lon": 0.0, "lat": 38.939630666666666, "is_reserved": 0, "type": "electric_scooter", "bike_id": "fcc40e0f320c5401e17bd88997cf6684", "is_disabled": 0, "rental_uris": {"android": "https://dc.lft.to/lastmile_qr_scan", "ios": "https://dc.lft.to/lastmile_qr_scan"}, "lon": -77.02752683333334, "fusion_lat": 0.0}, {"name": "3a062c34798c3628e9c2fe3f54084233", "fusion_lon": 0.0, "lat": 38.885900666666664, "is_reserved": 0, "type": "electric_scooter", "bike_id": "3a062c34798c3628e9c2fe3f54084233", "is_disabled": 0, "rental_uris": {"android": "https://dc.lft.to/lastmile_qr_scan", "ios": "https://dc.lft.to/lastmile_qr_scan"}, "lon": -76.99620216666666, "fusion_lat": 0.0}, {"name": "0ba8f906ef077f5680c3c5e6f419db8f", "fusion_lon": 0.0, "lat": 38.93537883333333, "is_reserved": 0, "type": "electric_scooter", "bike_id": "0ba8f906ef077f5680c3c5e6f419db8f", "is_disabled": 0, "rental_uris": {"android": "https://dc.lft.to/lastmile_qr_scan", "ios": "https://dc.lft.to/lastmile_qr_scan"}, "lon": -77.05749516666667, "fusion_lat": 0.0}, {"name": "96f72203eacbb84be1eeae5d3e127c3c", "fusion_lon": 0.0, "lat": 38.9119345, "is_reserved": 0, "type": "electric_scooter", "bike_id": "96f72203eacbb84be1eeae5d3e127c3c", "is_disabled": 0, "rental_uris": {"android": "https://dc.lft.to/lastmile_qr_scan", "ios": "https://dc.lft.to/lastmile_qr_scan"}, "lon": -77.04514833333333, "fusion_lat": 0.0}, {"name": "865248f2d28e416028b2115618d81026", "fusion_lon": 0.0, "lat": 38.9316585, "is_reserved": 0, "type": "electric_scooter", "bike_id": "865248f2d28e416028b2115618d81026", "is_disabled": 0, "rental_uris": {"android": "https://dc.lft.to/lastmile_qr_scan", "ios": "https://dc.lft.to/lastmile_qr_scan"}, "lon": -77.05607033333334, "fusion_lat": 0.0}, {"name": "fbbec25e367bddec7f78574cf38ffc05", "fusion_lon": 0.0, "lat": 38.892211833333334, "is_reserved": 0, "type": "electric_scooter", "bike_id": "fbbec25e367bddec7f78574cf38ffc05", "is_disabled": 0, "rental_uris": {"android": "https://dc.lft.to/lastmile_qr_scan", "ios": "https://dc.lft.to/lastmile_qr_scan"}, "lon": -77.04263866666666, "fusion_lat": 0.0}, {"name": "4a766e8eacb05292deb3d36e6329f984", "fusion_lon": 0.0, "lat": 38.87808183333333, "is_reserved": 0, "type": "electric_scooter", "bike_id": "4a766e8eacb05292deb3d36e6329f984", "is_disabled": 0, "rental_uris": {"android": "https://dc.lft.to/lastmile_qr_scan", "ios": "https://dc.lft.to/lastmile_qr_scan"}, "lon": -76.93092766666666, "fusion_lat": 0.0}, {"name": "91f8f12370b403ac3cdf811933bbf9d0", "fusion_lon": 0.0, "lat": 38.917373166666664, "is_reserved": 0, "type": "electric_scooter", "bike_id": "91f8f12370b403ac3cdf811933bbf9d0", "is_disabled": 0, "rental_uris": {"android": "https://dc.lft.to/lastmile_qr_scan", "ios": "https://dc.lft.to/lastmile_qr_scan"}, "lon": -77.036417, "fusion_lat": 0.0}, {"name": "716ec59f83f4dcede4bca0a197cdf6c8", "fusion_lon": 0.0, "lat": 38.93252483333333, "is_reserved": 0, "type": "electric_scooter", "bike_id": "716ec59f83f4dcede4bca0a197cdf6c8", "is_disabled": 0, "rental_uris": {"android": "https://dc.lft.to/lastmile_qr_scan", "ios": "https://dc.lft.to/lastmile_qr_scan"}, "lon": -77.03278516666667, "fusion_lat": 0.0}, {"name": "8b492a2f5b2ec422f67397cffd5da019", "fusion_lon": 0.0, "lat": 38.94438916666667, "is_reserved": 0, "type": "electric_scooter", "bike_id": "8b492a2f5b2ec422f67397cffd5da019", "is_disabled": 0, "rental_uris": {"android": "https://dc.lft.to/lastmile_qr_scan", "ios": "https://dc.lft.to/lastmile_qr_scan"}, "lon": -77.06351216666667, "fusion_lat": 0.0}, {"name": "09cbbe79ed5b45ce56dd568b213feef4", "fusion_lon": 0.0, "lat": 38.932523, "is_reserved": 0, "type": "electric_scooter", "bike_id": "09cbbe79ed5b45ce56dd568b213feef4", "is_disabled": 0, "rental_uris": {"android": "https://dc.lft.to/lastmile_qr_scan", "ios": "https://dc.lft.to/lastmile_qr_scan"}, "lon": -77.0327835, "fusion_lat": 0.0}, {"name": "ba183049e61f87c353b9774318f5f488", "fusion_lon": 0.0, "lat": 38.9172095, "is_reserved": 0, "type": "electric_scooter", "bike_id": "ba183049e61f87c353b9774318f5f488", "is_disabled": 0, "rental_uris": {"android": "https://dc.lft.to/lastmile_qr_scan", "ios": "https://dc.lft.to/lastmile_qr_scan"}, "lon": -77.0297275, "fusion_lat": 0.0}, {"name": "3b4f3cf4bf80e4d15f5312aee5d8d9bb", "fusion_lon": 0.0, "lat": 38.931042, "is_reserved": 0, "type": "electric_scooter", "bike_id": "3b4f3cf4bf80e4d15f5312aee5d8d9bb", "is_disabled": 0, "rental_uris": {"android": "https://dc.lft.to/lastmile_qr_scan", "ios": "https://dc.lft.to/lastmile_qr_scan"}, "lon": -77.02666483333333, "fusion_lat": 0.0}, {"name": "ba05c11c41ce6572cb101309ff7fa78d", "fusion_lon": 0.0, "lat": 38.92590466666667, "is_reserved": 0, "type": "electric_scooter", "bike_id": "ba05c11c41ce6572cb101309ff7fa78d", "is_disabled": 0, "rental_uris": {"android": "https://dc.lft.to/lastmile_qr_scan", "ios": "https://dc.lft.to/lastmile_qr_scan"}, "lon": -77.044012, "fusion_lat": 0.0}, {"name": "8e585615df5e7d424f24c83d3db06063", "fusion_lon": 0.0, "lat": 38.919370666666666, "is_reserved": 0, "type": "electric_scooter", "bike_id": "8e585615df5e7d424f24c83d3db06063", "is_disabled": 0, "rental_uris": {"android": "https://dc.lft.to/lastmile_qr_scan", "ios": "https://dc.lft.to/lastmile_qr_scan"}, "lon": -77.045579, "fusion_lat": 0.0}, {"name": "6dcb5fc10a4a7adf52317c89abbfe23e", "fusion_lon": 0.0, "lat": 38.9056505, "is_reserved": 0, "type": "electric_scooter", "bike_id": "6dcb5fc10a4a7adf52317c89abbfe23e", "is_disabled": 0, "rental_uris": {"android": "https://dc.lft.to/lastmile_qr_scan", "ios": "https://dc.lft.to/lastmile_qr_scan"}, "lon": -77.005853, "fusion_lat": 0.0}, {"name": "37e3b01c1775729502eedb7693385da2", "fusion_lon": 0.0, "lat": 38.927940666666665, "is_reserved": 0, "type": "electric_scooter", "bike_id": "37e3b01c1775729502eedb7693385da2", "is_disabled": 0, "rental_uris": {"android": "https://dc.lft.to/lastmile_qr_scan", "ios": "https://dc.lft.to/lastmile_qr_scan"}, "lon": -77.03155816666667, "fusion_lat": 0.0}, {"name": "da31bff921faed3a494d865ed9152303", "fusion_lon": 0.0, "lat": 38.871789166666666, "is_reserved": 0, "type": "electric_scooter", "bike_id": "da31bff921faed3a494d865ed9152303", "is_disabled": 0, "rental_uris": {"android": "https://dc.lft.to/lastmile_qr_scan", "ios": "https://dc.lft.to/lastmile_qr_scan"}, "lon": -77.00613566666667, "fusion_lat": 0.0}, {"name": "87ad6ccb75fd7592d91c64d493e54128", "fusion_lon": 0.0, "lat": 38.928443333333334, "is_reserved": 0, "type": "electric_scooter", "bike_id": "87ad6ccb75fd7592d91c64d493e54128", "is_disabled": 0, "rental_uris": {"android": "https://dc.lft.to/lastmile_qr_scan", "ios": "https://dc.lft.to/lastmile_qr_scan"}, "lon": -77.0324965, "fusion_lat": 0.0}, {"name": "e1f783951ac0ce1d8a7aeccb1b0f4bbd", "fusion_lon": 0.0, "lat": 38.884306, "is_reserved": 0, "type": "electric_scooter", "bike_id": "e1f783951ac0ce1d8a7aeccb1b0f4bbd", "is_disabled": 0, "rental_uris": {"android": "https://dc.lft.to/lastmile_qr_scan", "ios": "https://dc.lft.to/lastmile_qr_scan"}, "lon": -76.95748633333334, "fusion_lat": 0.0}, {"name": "e6f2beca86def26a58e6c90c4728c1a3", "fusion_lon": 0.0, "lat": 38.9289805, "is_reserved": 0, "type": "electric_scooter", "bike_id": "e6f2beca86def26a58e6c90c4728c1a3", "is_disabled": 0, "rental_uris": {"android": "https://dc.lft.to/lastmile_qr_scan", "ios": "https://dc.lft.to/lastmile_qr_scan"}, "lon": -77.01632016666667, "fusion_lat": 0.0}, {"name": "9f850ed38baf769f521883ef3cbf0c35", "fusion_lon": 0.0, "lat": 38.88131166666667, "is_reserved": 0, "type": "electric_scooter", "bike_id": "9f850ed38baf769f521883ef3cbf0c35", "is_disabled": 0, "rental_uris": {"android": "https://dc.lft.to/lastmile_qr_scan", "ios": "https://dc.lft.to/lastmile_qr_scan"}, "lon": -77.01668983333333, "fusion_lat": 0.0}, {"name": "1eebf7047d02b2659019a9440db74d45", "fusion_lon": 0.0, "lat": 38.90193566666667, "is_reserved": 0, "type": "electric_scooter", "bike_id": "1eebf7047d02b2659019a9440db74d45", "is_disabled": 0, "rental_uris": {"android": "https://dc.lft.to/lastmile_qr_scan", "ios": "https://dc.lft.to/lastmile_qr_scan"}, "lon": -77.01285766666666, "fusion_lat": 0.0}, {"name": "d5c4349ae276be0304ed0abb2c2b376d", "fusion_lon": 0.0, "lat": 38.90198933333333, "is_reserved": 0, "type": "electric_scooter", "bike_id": "d5c4349ae276be0304ed0abb2c2b376d", "is_disabled": 0, "rental_uris": {"android": "https://dc.lft.to/lastmile_qr_scan", "ios": "https://dc.lft.to/lastmile_qr_scan"}, "lon": -77.02371083333334, "fusion_lat": 0.0}, {"name": "635b8e5e17389579391bc84e12d4698c", "fusion_lon": 0.0, "lat": 38.907187666666665, "is_reserved": 0, "type": "electric_scooter", "bike_id": "635b8e5e17389579391bc84e12d4698c", "is_disabled": 0, "rental_uris": {"android": "https://dc.lft.to/lastmile_qr_scan", "ios": "https://dc.lft.to/lastmile_qr_scan"}, "lon": -76.9845895, "fusion_lat": 0.0}, {"name": "932af4815b46f4c1465cfff897e73d8f", "fusion_lon": 0.0, "lat": 38.871272, "is_reserved": 0, "type": "electric_scooter", "bike_id": "932af4815b46f4c1465cfff897e73d8f", "is_disabled": 0, "rental_uris": {"android": "https://dc.lft.to/lastmile_qr_scan", "ios": "https://dc.lft.to/lastmile_qr_scan"}, "lon": -77.0074645, "fusion_lat": 0.0}, {"name": "2f7392e3282ae9711347c1a513f1cd79", "fusion_lon": 0.0, "lat": 38.887494333333336, "is_reserved": 0, "type": "electric_scooter", "bike_id": "2f7392e3282ae9711347c1a513f1cd79", "is_disabled": 0, "rental_uris": {"android": "https://dc.lft.to/lastmile_qr_scan", "ios": "https://dc.lft.to/lastmile_qr_scan"}, "lon": -77.02843283333333, "fusion_lat": 0.0}, {"name": "b5975155f88d2eef202a63db32527a5d", "fusion_lon": 0.0, "lat": 38.893172666666665, "is_reserved": 0, "type": "electric_scooter", "bike_id": "b5975155f88d2eef202a63db32527a5d", "is_disabled": 0, "rental_uris": {"android": "https://dc.lft.to/lastmile_qr_scan", "ios": "https://dc.lft.to/lastmile_qr_scan"}, "lon": -77.05004583333333, "fusion_lat": 0.0}, {"name": "5aff032c1452e3dfa4e483ed441565bd", "fusion_lon": 0.0, "lat": 38.9358, "is_reserved": 0, "type": "electric_scooter", "bike_id": "5aff032c1452e3dfa4e483ed441565bd", "is_disabled": 0, "rental_uris": {"android": "https://dc.lft.to/lastmile_qr_scan", "ios": "https://dc.lft.to/lastmile_qr_scan"}, "lon": -77.021249, "fusion_lat": 0.0}, {"name": "67fcf3a7d4c46df293806a3b3722b862", "fusion_lon": 0.0, "lat": 38.9365375, "is_reserved": 0, "type": "electric_scooter", "bike_id": "67fcf3a7d4c46df293806a3b3722b862", "is_disabled": 0, "rental_uris": {"android": "https://dc.lft.to/lastmile_qr_scan", "ios": "https://dc.lft.to/lastmile_qr_scan"}, "lon": -77.02639133333334, "fusion_lat": 0.0}, {"name": "7a44572cd0104b9a3d83fd49fe6bd1e2", "fusion_lon": 0.0, "lat": 38.92867066666667, "is_reserved": 0, "type": "electric_scooter", "bike_id": "7a44572cd0104b9a3d83fd49fe6bd1e2", "is_disabled": 0, "rental_uris": {"android": "https://dc.lft.to/lastmile_qr_scan", "ios": "https://dc.lft.to/lastmile_qr_scan"}, "lon": -77.02851983333333, "fusion_lat": 0.0}, {"name": "0222924c17be43c4830bbc04d99620ad", "fusion_lon": 0.0, "lat": 38.90908066666667, "is_reserved": 0, "type": "electric_scooter", "bike_id": "0222924c17be43c4830bbc04d99620ad", "is_disabled": 0, "rental_uris": {"android": "https://dc.lft.to/lastmile_qr_scan", "ios": "https://dc.lft.to/lastmile_qr_scan"}, "lon": -77.027129, "fusion_lat": 0.0}, {"name": "fcb7343e4f2970db95423a0925825c73", "fusion_lon": 0.0, "lat": 38.888502333333335, "is_reserved": 0, "type": "electric_scooter", "bike_id": "fcb7343e4f2970db95423a0925825c73", "is_disabled": 0, "rental_uris": {"android": "https://dc.lft.to/lastmile_qr_scan", "ios": "https://dc.lft.to/lastmile_qr_scan"}, "lon": -76.92679833333334, "fusion_lat": 0.0}, {"name": "8416ded06ace1c285b4c5e4e463e8dcf", "fusion_lon": 0.0, "lat": 38.92034, "is_reserved": 0, "type": "electric_scooter", "bike_id": "8416ded06ace1c285b4c5e4e463e8dcf", "is_disabled": 0, "rental_uris": {"android": "https://dc.lft.to/lastmile_qr_scan", "ios": "https://dc.lft.to/lastmile_qr_scan"}, "lon": -77.02588566666667, "fusion_lat": 0.0}, {"name": "beaeb49e5f5b31477fd74a5836a0be92", "fusion_lon": 0.0, "lat": 38.86937416666667, "is_reserved": 0, "type": "electric_bike", "bike_id": "beaeb49e5f5b31477fd74a5836a0be92", "is_disabled": 0, "rental_uris": {"android": "https://dc.lft.to/lastmile_qr_scan", "ios": "https://dc.lft.to/lastmile_qr_scan"}, "lon": -77.09467516666666, "fusion_lat": 0.0}, {"name": "7cfa1c1cc871a0e18c1993646fd010d4", "fusion_lon": 0.0, "lat": 38.9490985, "is_reserved": 0, "type": "electric_bike", "bike_id": "7cfa1c1cc871a0e18c1993646fd010d4", "is_disabled": 0, "rental_uris": {"android": "https://dc.lft.to/lastmile_qr_scan", "ios": "https://dc.lft.to/lastmile_qr_scan"}, "lon": -77.02415266666667, "fusion_lat": 0.0}, {"name": "3593a242d859eb381aecebe8c90531ed", "fusion_lon": 0.0, "lat": 38.90522033333333, "is_reserved": 0, "type": "electric_scooter", "bike_id": "3593a242d859eb381aecebe8c90531ed", "is_disabled": 0, "rental_uris": {"android": "https://dc.lft.to/lastmile_qr_scan", "ios": "https://dc.lft.to/lastmile_qr_scan"}, "lon": -77.04187216666666, "fusion_lat": 0.0}, {"name": "3ab0a31702e6d35a895befa5e12cdbea", "fusion_lon": 0.0, "lat": 38.92163683333333, "is_reserved": 0, "type": "electric_scooter", "bike_id": "3ab0a31702e6d35a895befa5e12cdbea", "is_disabled": 0, "rental_uris": {"android": "https://dc.lft.to/lastmile_qr_scan", "ios": "https://dc.lft.to/lastmile_qr_scan"}, "lon": -77.02539783333333, "fusion_lat": 0.0}, {"name": "f0987b0af50ff2005003dab8def9b718", "fusion_lon": 0.0, "lat": 38.91993, "is_reserved": 0, "type": "electric_scooter", "bike_id": "f0987b0af50ff2005003dab8def9b718", "is_disabled": 0, "rental_uris": {"android": "https://dc.lft.to/lastmile_qr_scan", "ios": "https://dc.lft.to/lastmile_qr_scan"}, "lon": -77.02377816666667, "fusion_lat": 0.0}, {"name": "0d0355d0e20694de0f5fe65d09bbd144", "fusion_lon": 0.0, "lat": 38.9210065, "is_reserved": 0, "type": "electric_scooter", "bike_id": "0d0355d0e20694de0f5fe65d09bbd144", "is_disabled": 0, "rental_uris": {"android": "https://dc.lft.to/lastmile_qr_scan", "ios": "https://dc.lft.to/lastmile_qr_scan"}, "lon": -77.03184683333333, "fusion_lat": 0.0}, {"name": "324264522d4c3e05b34c6feb9a2aa51d", "fusion_lon": 0.0, "lat": 38.93580933333333, "is_reserved": 0, "type": "electric_scooter", "bike_id": "324264522d4c3e05b34c6feb9a2aa51d", "is_disabled": 0, "rental_uris": {"android": "https://dc.lft.to/lastmile_qr_scan", "ios": "https://dc.lft.to/lastmile_qr_scan"}, "lon": -77.02110766666667, "fusion_lat": 0.0}, {"name": "3e5df5eb69eb67641b8e321942acc3fb", "fusion_lon": 0.0, "lat": 38.91499983333333, "is_reserved": 0, "type": "electric_scooter", "bike_id": "3e5df5eb69eb67641b8e321942acc3fb", "is_disabled": 0, "rental_uris": {"android": "https://dc.lft.to/lastmile_qr_scan", "ios": "https://dc.lft.to/lastmile_qr_scan"}, "lon": -76.9836705, "fusion_lat": 0.0}, {"name": "9c0e2a95e4b01764e8dc8af9f4e0b317", "fusion_lon": 0.0, "lat": 38.915538166666664, "is_reserved": 0, "type": "electric_scooter", "bike_id": "9c0e2a95e4b01764e8dc8af9f4e0b317", "is_disabled": 0, "rental_uris": {"android": "https://dc.lft.to/lastmile_qr_scan", "ios": "https://dc.lft.to/lastmile_qr_scan"}, "lon": -77.03862683333334, "fusion_lat": 0.0}, {"name": "a3c8547e2b8dbd8884be02f5d20a7181", "fusion_lon": 0.0, "lat": 38.93253433333334, "is_reserved": 0, "type": "electric_scooter", "bike_id": "a3c8547e2b8dbd8884be02f5d20a7181", "is_disabled": 0, "rental_uris": {"android": "https://dc.lft.to/lastmile_qr_scan", "ios": "https://dc.lft.to/lastmile_qr_scan"}, "lon": -77.03275683333334, "fusion_lat": 0.0}, {"name": "3320194197800c94159a358a0a34e5f3", "fusion_lon": 0.0, "lat": 38.86188633333333, "is_reserved": 0, "type": "electric_bike", "bike_id": "3320194197800c94159a358a0a34e5f3", "is_disabled": 0, "rental_uris": {"android": "https://dc.lft.to/lastmile_qr_scan", "ios": "https://dc.lft.to/lastmile_qr_scan"}, "lon": -76.94804133333334, "fusion_lat": 0.0}, {"name": "d784978b8e6ca88ee4a7d80dd04562a8", "fusion_lon": 0.0, "lat": 38.9519925, "is_reserved": 0, "type": "electric_scooter", "bike_id": "d784978b8e6ca88ee4a7d80dd04562a8", "is_disabled": 0, "rental_uris": {"android": "https://dc.lft.to/lastmile_qr_scan", "ios": "https://dc.lft.to/lastmile_qr_scan"}, "lon": -77.0273815, "fusion_lat": 0.0}, {"name": "993c1d331fab52f5e055c2233178ab68", "fusion_lon": 0.0, "lat": 38.89046916666667, "is_reserved": 0, "type": "electric_scooter", "bike_id": "993c1d331fab52f5e055c2233178ab68", "is_disabled": 0, "rental_uris": {"android": "https://dc.lft.to/lastmile_qr_scan", "ios": "https://dc.lft.to/lastmile_qr_scan"}, "lon": -76.99061783333333, "fusion_lat": 0.0}, {"name": "4da69cbc29df84c24e83595093ad5f1a", "fusion_lon": 0.0, "lat": 38.895044666666664, "is_reserved": 0, "type": "electric_scooter", "bike_id": "4da69cbc29df84c24e83595093ad5f1a", "is_disabled": 0, "rental_uris": {"android": "https://dc.lft.to/lastmile_qr_scan", "ios": "https://dc.lft.to/lastmile_qr_scan"}, "lon": -76.93475533333333, "fusion_lat": 0.0}, {"name": "8fd5a2da3213f49cdab9cb2864ccb557", "fusion_lon": 0.0, "lat": 38.901301, "is_reserved": 0, "type": "electric_scooter", "bike_id": "8fd5a2da3213f49cdab9cb2864ccb557", "is_disabled": 0, "rental_uris": {"android": "https://dc.lft.to/lastmile_qr_scan", "ios": "https://dc.lft.to/lastmile_qr_scan"}, "lon": -77.00853433333333, "fusion_lat": 0.0}, {"name": "5602aa92a8c9786c3b3329b30bbff773", "fusion_lon": 0.0, "lat": 38.89220233333333, "is_reserved": 0, "type": "electric_scooter", "bike_id": "5602aa92a8c9786c3b3329b30bbff773", "is_disabled": 0, "rental_uris": {"android": "https://dc.lft.to/lastmile_qr_scan", "ios": "https://dc.lft.to/lastmile_qr_scan"}, "lon": -77.02228333333333, "fusion_lat": 0.0}, {"name": "80f50d42542747da1b8c316c09c1b003", "fusion_lon": 0.0, "lat": 38.94040066666667, "is_reserved": 0, "type": "electric_scooter", "bike_id": "80f50d42542747da1b8c316c09c1b003", "is_disabled": 0, "rental_uris": {"android": "https://dc.lft.to/lastmile_qr_scan", "ios": "https://dc.lft.to/lastmile_qr_scan"}, "lon": -77.02900866666667, "fusion_lat": 0.0}, {"name": "e886b9e930e7e8782767553f6a919bfb", "fusion_lon": 0.0, "lat": 38.916518333333336, "is_reserved": 0, "type": "electric_scooter", "bike_id": "e886b9e930e7e8782767553f6a919bfb", "is_disabled": 0, "rental_uris": {"android": "https://dc.lft.to/lastmile_qr_scan", "ios": "https://dc.lft.to/lastmile_qr_scan"}, "lon": -77.02004116666667, "fusion_lat": 0.0}, {"name": "abe3e9291edd17d517fd673e5db76ed2", "fusion_lon": 0.0, "lat": 38.917100166666664, "is_reserved": 0, "type": "electric_scooter", "bike_id": "abe3e9291edd17d517fd673e5db76ed2", "is_disabled": 0, "rental_uris": {"android": "https://dc.lft.to/lastmile_qr_scan", "ios": "https://dc.lft.to/lastmile_qr_scan"}, "lon": -77.0220525, "fusion_lat": 0.0}, {"name": "bcc0eb028081f5f7e1c20d6650b6609d", "fusion_lon": 0.0, "lat": 38.93119083333333, "is_reserved": 0, "type": "electric_scooter", "bike_id": "bcc0eb028081f5f7e1c20d6650b6609d", "is_disabled": 0, "rental_uris": {"android": "https://dc.lft.to/lastmile_qr_scan", "ios": "https://dc.lft.to/lastmile_qr_scan"}, "lon": -77.03032683333333, "fusion_lat": 0.0}, {"name": "b4c8a11f5d031b3ea6dfb8dd290b5d8e", "fusion_lon": 0.0, "lat": 38.9283475, "is_reserved": 0, "type": "electric_scooter", "bike_id": "b4c8a11f5d031b3ea6dfb8dd290b5d8e", "is_disabled": 0, "rental_uris": {"android": "https://dc.lft.to/lastmile_qr_scan", "ios": "https://dc.lft.to/lastmile_qr_scan"}, "lon": -77.03729016666666, "fusion_lat": 0.0}, {"name": "fc4b16855494ef456fef87d4bf82e6b0", "fusion_lon": 0.0, "lat": 38.9004585, "is_reserved": 0, "type": "electric_scooter", "bike_id": "fc4b16855494ef456fef87d4bf82e6b0", "is_disabled": 0, "rental_uris": {"android": "https://dc.lft.to/lastmile_qr_scan", "ios": "https://dc.lft.to/lastmile_qr_scan"}, "lon": -76.98844166666666, "fusion_lat": 0.0}, {"name": "e3f6b02466e8a4dacb9c6bce44620578", "fusion_lon": 0.0, "lat": 38.93274866666667, "is_reserved": 0, "type": "electric_scooter", "bike_id": "e3f6b02466e8a4dacb9c6bce44620578", "is_disabled": 0, "rental_uris": {"android": "https://dc.lft.to/lastmile_qr_scan", "ios": "https://dc.lft.to/lastmile_qr_scan"}, "lon": -77.04534983333333, "fusion_lat": 0.0}, {"name": "53300745f59a5ac083d71c94a7efb259", "fusion_lon": 0.0, "lat": 38.95665483333333, "is_reserved": 0, "type": "electric_scooter", "bike_id": "53300745f59a5ac083d71c94a7efb259", "is_disabled": 0, "rental_uris": {"android": "https://dc.lft.to/lastmile_qr_scan", "ios": "https://dc.lft.to/lastmile_qr_scan"}, "lon": -77.01278883333333, "fusion_lat": 0.0}, {"name": "2879e5f9fb52708c0aab766628ca2f19", "fusion_lon": 0.0, "lat": 38.86503966666667, "is_reserved": 0, "type": "electric_scooter", "bike_id": "2879e5f9fb52708c0aab766628ca2f19", "is_disabled": 0, "rental_uris": {"android": "https://dc.lft.to/lastmile_qr_scan", "ios": "https://dc.lft.to/lastmile_qr_scan"}, "lon": -76.99001583333333, "fusion_lat": 0.0}, {"name": "0dc0dd40449701e51498bdaefbd9b2eb", "fusion_lon": 0.0, "lat": 38.9335855, "is_reserved": 0, "type": "electric_scooter", "bike_id": "0dc0dd40449701e51498bdaefbd9b2eb", "is_disabled": 0, "rental_uris": {"android": "https://dc.lft.to/lastmile_qr_scan", "ios": "https://dc.lft.to/lastmile_qr_scan"}, "lon": -77.07368583333333, "fusion_lat": 0.0}, {"name": "19b73ddd345f1c778ec770519b49f1c9", "fusion_lon": 0.0, "lat": 38.9064745, "is_reserved": 0, "type": "electric_scooter", "bike_id": "19b73ddd345f1c778ec770519b49f1c9", "is_disabled": 0, "rental_uris": {"android": "https://dc.lft.to/lastmile_qr_scan", "ios": "https://dc.lft.to/lastmile_qr_scan"}, "lon": -77.002048, "fusion_lat": 0.0}, {"name": "dcd076326153be9b9a2ae67fce43b3dd", "fusion_lon": 0.0, "lat": 38.938625, "is_reserved": 0, "type": "electric_scooter", "bike_id": "dcd076326153be9b9a2ae67fce43b3dd", "is_disabled": 0, "rental_uris": {"android": "https://dc.lft.to/lastmile_qr_scan", "ios": "https://dc.lft.to/lastmile_qr_scan"}, "lon": -77.030852, "fusion_lat": 0.0}, {"name": "9cde46eae8e0fed9ba83d02e84b6ae83", "fusion_lon": 0.0, "lat": 38.86386733333333, "is_reserved": 0, "type": "electric_scooter", "bike_id": "9cde46eae8e0fed9ba83d02e84b6ae83", "is_disabled": 0, "rental_uris": {"android": "https://dc.lft.to/lastmile_qr_scan", "ios": "https://dc.lft.to/lastmile_qr_scan"}, "lon": -76.9904425, "fusion_lat": 0.0}, {"name": "6acb3459f0b3a0a8755f9a1d876b90c3", "fusion_lon": 0.0, "lat": 38.904038, "is_reserved": 0, "type": "electric_scooter", "bike_id": "6acb3459f0b3a0a8755f9a1d876b90c3", "is_disabled": 0, "rental_uris": {"android": "https://dc.lft.to/lastmile_qr_scan", "ios": "https://dc.lft.to/lastmile_qr_scan"}, "lon": -77.06770916666666, "fusion_lat": 0.0}, {"name": "1e8e6b57b313911bb1e443d5c85460ef", "fusion_lon": 0.0, "lat": 38.902408666666666, "is_reserved": 0, "type": "electric_scooter", "bike_id": "1e8e6b57b313911bb1e443d5c85460ef", "is_disabled": 0, "rental_uris": {"android": "https://dc.lft.to/lastmile_qr_scan", "ios": "https://dc.lft.to/lastmile_qr_scan"}, "lon": -77.0019995, "fusion_lat": 0.0}, {"name": "abaeca4810d9beb3265e48b7d77d5781", "fusion_lon": 0.0, "lat": 38.91124466666667, "is_reserved": 0, "type": "electric_scooter", "bike_id": "abaeca4810d9beb3265e48b7d77d5781", "is_disabled": 0, "rental_uris": {"android": "https://dc.lft.to/lastmile_qr_scan", "ios": "https://dc.lft.to/lastmile_qr_scan"}, "lon": -77.048359, "fusion_lat": 0.0}, {"name": "e463fdb3a38a84c6ce4541d008970342", "fusion_lon": 0.0, "lat": 38.892251333333334, "is_reserved": 0, "type": "electric_scooter", "bike_id": "e463fdb3a38a84c6ce4541d008970342", "is_disabled": 0, "rental_uris": {"android": "https://dc.lft.to/lastmile_qr_scan", "ios": "https://dc.lft.to/lastmile_qr_scan"}, "lon": -77.04802316666667, "fusion_lat": 0.0}, {"name": "37ca00f6f19a2d534f9ef75930331f8d", "fusion_lon": 0.0, "lat": 38.958482000000004, "is_reserved": 0, "type": "electric_scooter", "bike_id": "37ca00f6f19a2d534f9ef75930331f8d", "is_disabled": 0, "rental_uris": {"android": "https://dc.lft.to/lastmile_qr_scan", "ios": "https://dc.lft.to/lastmile_qr_scan"}, "lon": -77.0701, "fusion_lat": 0.0}, {"name": "26a6a803d72e530d6a0403313a622a5c", "fusion_lon": 0.0, "lat": 38.925700666666664, "is_reserved": 0, "type": "electric_bike", "bike_id": "26a6a803d72e530d6a0403313a622a5c", "is_disabled": 0, "rental_uris": {"android": "https://dc.lft.to/lastmile_qr_scan", "ios": "https://dc.lft.to/lastmile_qr_scan"}, "lon": -77.001719, "fusion_lat": 0.0}, {"name": "1c271a87146ed3d333bf2cef60445771", "fusion_lon": 0.0, "lat": 38.922540833333336, "is_reserved": 0, "type": "electric_bike", "bike_id": "1c271a87146ed3d333bf2cef60445771", "is_disabled": 0, "rental_uris": {"android": "https://dc.lft.to/lastmile_qr_scan", "ios": "https://dc.lft.to/lastmile_qr_scan"}, "lon": -77.019457, "fusion_lat": 0.0}, {"name": "43e8c5441c80e7e3c503ad89acc44a4e", "fusion_lon": 0.0, "lat": 38.904378666666666, "is_reserved": 0, "type": "electric_scooter", "bike_id": "43e8c5441c80e7e3c503ad89acc44a4e", "is_disabled": 0, "rental_uris": {"android": "https://dc.lft.to/lastmile_qr_scan", "ios": "https://dc.lft.to/lastmile_qr_scan"}, "lon": -77.04830266666667, "fusion_lat": 0.0}, {"name": "662ff78eab27ed7c29710a59e121719b", "fusion_lon": 0.0, "lat": 38.91677683333333, "is_reserved": 0, "type": "electric_scooter", "bike_id": "662ff78eab27ed7c29710a59e121719b", "is_disabled": 0, "rental_uris": {"android": "https://dc.lft.to/lastmile_qr_scan", "ios": "https://dc.lft.to/lastmile_qr_scan"}, "lon": -77.03398116666666, "fusion_lat": 0.0}, {"name": "b4a7f3bbdc42e79818bc093ff04ac90e", "fusion_lon": 0.0, "lat": 38.844217666666665, "is_reserved": 0, "type": "electric_scooter", "bike_id": "b4a7f3bbdc42e79818bc093ff04ac90e", "is_disabled": 0, "rental_uris": {"android": "https://dc.lft.to/lastmile_qr_scan", "ios": "https://dc.lft.to/lastmile_qr_scan"}, "lon": -76.99775, "fusion_lat": 0.0}, {"name": "8df724b0313fda4bff7024049c6eabea", "fusion_lon": 0.0, "lat": 38.9083595, "is_reserved": 0, "type": "electric_scooter", "bike_id": "8df724b0313fda4bff7024049c6eabea", "is_disabled": 0, "rental_uris": {"android": "https://dc.lft.to/lastmile_qr_scan", "ios": "https://dc.lft.to/lastmile_qr_scan"}, "lon": -77.0331525, "fusion_lat": 0.0}, {"name": "e31017f43792861f3dcc4f624ded91f7", "fusion_lon": 0.0, "lat": 38.891105333333336, "is_reserved": 0, "type": "electric_scooter", "bike_id": "e31017f43792861f3dcc4f624ded91f7", "is_disabled": 0, "rental_uris": {"android": "https://dc.lft.to/lastmile_qr_scan", "ios": "https://dc.lft.to/lastmile_qr_scan"}, "lon": -76.99161516666666, "fusion_lat": 0.0}, {"name": "e38aa71cc2854d3dcabcf888dd7f5378", "fusion_lon": 0.0, "lat": 38.92283466666667, "is_reserved": 0, "type": "electric_scooter", "bike_id": "e38aa71cc2854d3dcabcf888dd7f5378", "is_disabled": 0, "rental_uris": {"android": "https://dc.lft.to/lastmile_qr_scan", "ios": "https://dc.lft.to/lastmile_qr_scan"}, "lon": -77.04465833333333, "fusion_lat": 0.0}, {"name": "37e4fd009ece6fae87b60e3ca40dcf3b", "fusion_lon": 0.0, "lat": 38.887463, "is_reserved": 0, "type": "electric_scooter", "bike_id": "37e4fd009ece6fae87b60e3ca40dcf3b", "is_disabled": 0, "rental_uris": {"android": "https://dc.lft.to/lastmile_qr_scan", "ios": "https://dc.lft.to/lastmile_qr_scan"}, "lon": -77.02574866666667, "fusion_lat": 0.0}, {"name": "71d7ef878e1336905b8b40f3625f2dc8", "fusion_lon": 0.0, "lat": 38.8953895, "is_reserved": 0, "type": "electric_scooter", "bike_id": "71d7ef878e1336905b8b40f3625f2dc8", "is_disabled": 0, "rental_uris": {"android": "https://dc.lft.to/lastmile_qr_scan", "ios": "https://dc.lft.to/lastmile_qr_scan"}, "lon": -76.94921683333334, "fusion_lat": 0.0}, {"name": "572425087fcb505ce3e4651ec3f4ef7d", "fusion_lon": 0.0, "lat": 38.900294333333335, "is_reserved": 0, "type": "electric_scooter", "bike_id": "572425087fcb505ce3e4651ec3f4ef7d", "is_disabled": 0, "rental_uris": {"android": "https://dc.lft.to/lastmile_qr_scan", "ios": "https://dc.lft.to/lastmile_qr_scan"}, "lon": -76.9990525, "fusion_lat": 0.0}, {"name": "b227325a000adb1b8065cd9b127ff5ce", "fusion_lon": 0.0, "lat": 38.836980833333335, "is_reserved": 0, "type": "electric_scooter", "bike_id": "b227325a000adb1b8065cd9b127ff5ce", "is_disabled": 0, "rental_uris": {"android": "https://dc.lft.to/lastmile_qr_scan", "ios": "https://dc.lft.to/lastmile_qr_scan"}, "lon": -77.00571733333334, "fusion_lat": 0.0}, {"name": "d2c7676b61ed007dc3f33ba55aeeeb4f", "fusion_lon": 0.0, "lat": 38.916290333333336, "is_reserved": 0, "type": "electric_scooter", "bike_id": "d2c7676b61ed007dc3f33ba55aeeeb4f", "is_disabled": 0, "rental_uris": {"android": "https://dc.lft.to/lastmile_qr_scan", "ios": "https://dc.lft.to/lastmile_qr_scan"}, "lon": -77.03985583333333, "fusion_lat": 0.0}, {"name": "b0d00c74de3174bb8e27dbb2aced9d52", "fusion_lon": 0.0, "lat": 38.9007, "is_reserved": 0, "type": "electric_scooter", "bike_id": "b0d00c74de3174bb8e27dbb2aced9d52", "is_disabled": 0, "rental_uris": {"android": "https://dc.lft.to/lastmile_qr_scan", "ios": "https://dc.lft.to/lastmile_qr_scan"}, "lon": -76.99633183333333, "fusion_lat": 0.0}, {"name": "ce0b80b06e21570e9b9d253d056fbee7", "fusion_lon": 0.0, "lat": 38.9056825, "is_reserved": 0, "type": "electric_scooter", "bike_id": "ce0b80b06e21570e9b9d253d056fbee7", "is_disabled": 0, "rental_uris": {"android": "https://dc.lft.to/lastmile_qr_scan", "ios": "https://dc.lft.to/lastmile_qr_scan"}, "lon": -77.00584966666666, "fusion_lat": 0.0}, {"name": "927da588b0189246b3337dbecf470026", "fusion_lon": 0.0, "lat": 38.9237455, "is_reserved": 0, "type": "electric_scooter", "bike_id": "927da588b0189246b3337dbecf470026", "is_disabled": 0, "rental_uris": {"android": "https://dc.lft.to/lastmile_qr_scan", "ios": "https://dc.lft.to/lastmile_qr_scan"}, "lon": -77.03048783333334, "fusion_lat": 0.0}, {"name": "f04e06af0b30a04c9f34a43c5b379a56", "fusion_lon": 0.0, "lat": 38.91461683333333, "is_reserved": 0, "type": "electric_scooter", "bike_id": "f04e06af0b30a04c9f34a43c5b379a56", "is_disabled": 0, "rental_uris": {"android": "https://dc.lft.to/lastmile_qr_scan", "ios": "https://dc.lft.to/lastmile_qr_scan"}, "lon": -77.0713335, "fusion_lat": 0.0}, {"name": "3c01be872f61cd6deb09e6c5e4012f0f", "fusion_lon": 0.0, "lat": 38.92294833333333, "is_reserved": 0, "type": "electric_scooter", "bike_id": "3c01be872f61cd6deb09e6c5e4012f0f", "is_disabled": 0, "rental_uris": {"android": "https://dc.lft.to/lastmile_qr_scan", "ios": "https://dc.lft.to/lastmile_qr_scan"}, "lon": -77.03690133333333, "fusion_lat": 0.0}, {"name": "0b76bb7d4fd05ed015fc924d4db76a41", "fusion_lon": 0.0, "lat": 38.907421, "is_reserved": 0, "type": "electric_scooter", "bike_id": "0b76bb7d4fd05ed015fc924d4db76a41", "is_disabled": 0, "rental_uris": {"android": "https://dc.lft.to/lastmile_qr_scan", "ios": "https://dc.lft.to/lastmile_qr_scan"}, "lon": -77.04194266666667, "fusion_lat": 0.0}, {"name": "aae26df49bd9ce05fd6f3e072abad56a", "fusion_lon": 0.0, "lat": 38.8826885, "is_reserved": 0, "type": "electric_scooter", "bike_id": "aae26df49bd9ce05fd6f3e072abad56a", "is_disabled": 0, "rental_uris": {"android": "https://dc.lft.to/lastmile_qr_scan", "ios": "https://dc.lft.to/lastmile_qr_scan"}, "lon": -76.992481, "fusion_lat": 0.0}, {"name": "a2485185c9ad82d31da62230a5fe55c7", "fusion_lon": 0.0, "lat": 38.919606333333334, "is_reserved": 0, "type": "electric_scooter", "bike_id": "a2485185c9ad82d31da62230a5fe55c7", "is_disabled": 0, "rental_uris": {"android": "https://dc.lft.to/lastmile_qr_scan", "ios": "https://dc.lft.to/lastmile_qr_scan"}, "lon": -77.02403583333333, "fusion_lat": 0.0}, {"name": "5e5ceaae57c713f434159f0614cdd522", "fusion_lon": 0.0, "lat": 38.924807, "is_reserved": 0, "type": "electric_scooter", "bike_id": "5e5ceaae57c713f434159f0614cdd522", "is_disabled": 0, "rental_uris": {"android": "https://dc.lft.to/lastmile_qr_scan", "ios": "https://dc.lft.to/lastmile_qr_scan"}, "lon": -77.0275655, "fusion_lat": 0.0}, {"name": "8281dddd3856030d03639de060fe377f", "fusion_lon": 0.0, "lat": 38.935327666666666, "is_reserved": 0, "type": "electric_scooter", "bike_id": "8281dddd3856030d03639de060fe377f", "is_disabled": 0, "rental_uris": {"android": "https://dc.lft.to/lastmile_qr_scan", "ios": "https://dc.lft.to/lastmile_qr_scan"}, "lon": -77.02350933333334, "fusion_lat": 0.0}, {"name": "a7cf5a6cad30ddd6efa4c0458d7660d3", "fusion_lon": 0.0, "lat": 38.92864983333333, "is_reserved": 0, "type": "electric_scooter", "bike_id": "a7cf5a6cad30ddd6efa4c0458d7660d3", "is_disabled": 0, "rental_uris": {"android": "https://dc.lft.to/lastmile_qr_scan", "ios": "https://dc.lft.to/lastmile_qr_scan"}, "lon": -77.02795433333333, "fusion_lat": 0.0}, {"name": "f2014c7b2257323f9c039ce45b76a66b", "fusion_lon": 0.0, "lat": 38.91107183333333, "is_reserved": 0, "type": "electric_bike", "bike_id": "f2014c7b2257323f9c039ce45b76a66b", "is_disabled": 0, "rental_uris": {"android": "https://dc.lft.to/lastmile_qr_scan", "ios": "https://dc.lft.to/lastmile_qr_scan"}, "lon": -77.01502516666666, "fusion_lat": 0.0}, {"name": "a6235197f534696490dfe39c8648b0b5", "fusion_lon": 0.0, "lat": 38.91684466666667, "is_reserved": 0, "type": "electric_scooter", "bike_id": "a6235197f534696490dfe39c8648b0b5", "is_disabled": 0, "rental_uris": {"android": "https://dc.lft.to/lastmile_qr_scan", "ios": "https://dc.lft.to/lastmile_qr_scan"}, "lon": -77.0269985, "fusion_lat": 0.0}, {"name": "7bad5e36217c6ec48f11a7cef8e94f4b", "fusion_lon": 0.0, "lat": 38.9217875, "is_reserved": 0, "type": "electric_scooter", "bike_id": "7bad5e36217c6ec48f11a7cef8e94f4b", "is_disabled": 0, "rental_uris": {"android": "https://dc.lft.to/lastmile_qr_scan", "ios": "https://dc.lft.to/lastmile_qr_scan"}, "lon": -77.0266085, "fusion_lat": 0.0}, {"name": "1c0a471a7f8c8da6a9e39265ef951547", "fusion_lon": 0.0, "lat": 38.930861666666665, "is_reserved": 0, "type": "electric_scooter", "bike_id": "1c0a471a7f8c8da6a9e39265ef951547", "is_disabled": 0, "rental_uris": {"android": "https://dc.lft.to/lastmile_qr_scan", "ios": "https://dc.lft.to/lastmile_qr_scan"}, "lon": -76.99614233333334, "fusion_lat": 0.0}, {"name": "07492d59e92567a4ef5b2571cd24ae3b", "fusion_lon": 0.0, "lat": 38.935461, "is_reserved": 0, "type": "electric_scooter", "bike_id": "07492d59e92567a4ef5b2571cd24ae3b", "is_disabled": 0, "rental_uris": {"android": "https://dc.lft.to/lastmile_qr_scan", "ios": "https://dc.lft.to/lastmile_qr_scan"}, "lon": -77.05857016666667, "fusion_lat": 0.0}, {"name": "781a95d761b3534dd3e232d3f40ddb43", "fusion_lon": 0.0, "lat": 38.89358433333334, "is_reserved": 0, "type": "electric_scooter", "bike_id": "781a95d761b3534dd3e232d3f40ddb43", "is_disabled": 0, "rental_uris": {"android": "https://dc.lft.to/lastmile_qr_scan", "ios": "https://dc.lft.to/lastmile_qr_scan"}, "lon": -76.94935883333333, "fusion_lat": 0.0}, {"name": "8921c9148718db5fd08c000174e57747", "fusion_lon": 0.0, "lat": 38.91568933333333, "is_reserved": 0, "type": "electric_scooter", "bike_id": "8921c9148718db5fd08c000174e57747", "is_disabled": 0, "rental_uris": {"android": "https://dc.lft.to/lastmile_qr_scan", "ios": "https://dc.lft.to/lastmile_qr_scan"}, "lon": -77.02288633333333, "fusion_lat": 0.0}, {"name": "760b283e8c77019d4cbdf49235b2345d", "fusion_lon": 0.0, "lat": 38.905028, "is_reserved": 0, "type": "electric_scooter", "bike_id": "760b283e8c77019d4cbdf49235b2345d", "is_disabled": 0, "rental_uris": {"android": "https://dc.lft.to/lastmile_qr_scan", "ios": "https://dc.lft.to/lastmile_qr_scan"}, "lon": -77.02948433333333, "fusion_lat": 0.0}, {"name": "d390417137d49df63d6ece3fbf4da49e", "fusion_lon": 0.0, "lat": 38.9078815, "is_reserved": 0, "type": "electric_scooter", "bike_id": "d390417137d49df63d6ece3fbf4da49e", "is_disabled": 0, "rental_uris": {"android": "https://dc.lft.to/lastmile_qr_scan", "ios": "https://dc.lft.to/lastmile_qr_scan"}, "lon": -77.02386016666667, "fusion_lat": 0.0}, {"name": "af865514bf6073d2317d8a161c02b440", "fusion_lon": 0.0, "lat": 38.923206, "is_reserved": 0, "type": "electric_scooter", "bike_id": "af865514bf6073d2317d8a161c02b440", "is_disabled": 0, "rental_uris": {"android": "https://dc.lft.to/lastmile_qr_scan", "ios": "https://dc.lft.to/lastmile_qr_scan"}, "lon": -77.041082, "fusion_lat": 0.0}, {"name": "55a408e6af723b3e6cdfcb85201e5793", "fusion_lon": 0.0, "lat": 38.9696015, "is_reserved": 0, "type": "electric_bike", "bike_id": "55a408e6af723b3e6cdfcb85201e5793", "is_disabled": 0, "rental_uris": {"android": "https://dc.lft.to/lastmile_qr_scan", "ios": "https://dc.lft.to/lastmile_qr_scan"}, "lon": -76.95750083333333, "fusion_lat": 0.0}, {"name": "9faa4050b910dec8644d9989fc23db89", "fusion_lon": 0.0, "lat": 38.9118515, "is_reserved": 0, "type": "electric_scooter", "bike_id": "9faa4050b910dec8644d9989fc23db89", "is_disabled": 0, "rental_uris": {"android": "https://dc.lft.to/lastmile_qr_scan", "ios": "https://dc.lft.to/lastmile_qr_scan"}, "lon": -77.01014716666667, "fusion_lat": 0.0}, {"name": "3e909757f61ee682109bd70cb75269fb", "fusion_lon": 0.0, "lat": 38.86468633333333, "is_reserved": 0, "type": "electric_scooter", "bike_id": "3e909757f61ee682109bd70cb75269fb", "is_disabled": 0, "rental_uris": {"android": "https://dc.lft.to/lastmile_qr_scan", "ios": "https://dc.lft.to/lastmile_qr_scan"}, "lon": -76.9774795, "fusion_lat": 0.0}, {"name": "a8fb80c093b427e1acfef7e9c0804ac0", "fusion_lon": 0.0, "lat": 38.916928666666664, "is_reserved": 0, "type": "electric_scooter", "bike_id": "a8fb80c093b427e1acfef7e9c0804ac0", "is_disabled": 0, "rental_uris": {"android": "https://dc.lft.to/lastmile_qr_scan", "ios": "https://dc.lft.to/lastmile_qr_scan"}, "lon": -77.03152966666667, "fusion_lat": 0.0}, {"name": "839fab450760284a8364a0bf4c23c95e", "fusion_lon": 0.0, "lat": 38.931626, "is_reserved": 0, "type": "electric_bike", "bike_id": "839fab450760284a8364a0bf4c23c95e", "is_disabled": 0, "rental_uris": {"android": "https://dc.lft.to/lastmile_qr_scan", "ios": "https://dc.lft.to/lastmile_qr_scan"}, "lon": -76.9762795, "fusion_lat": 0.0}, {"name": "a0a71a474e16745be5b00a78e027ac1f", "fusion_lon": 0.0, "lat": 38.91677683333333, "is_reserved": 0, "type": "electric_scooter", "bike_id": "a0a71a474e16745be5b00a78e027ac1f", "is_disabled": 0, "rental_uris": {"android": "https://dc.lft.to/lastmile_qr_scan", "ios": "https://dc.lft.to/lastmile_qr_scan"}, "lon": -77.0297405, "fusion_lat": 0.0}, {"name": "c747a953145f8398dc96bc2bf19b32aa", "fusion_lon": 0.0, "lat": 38.9140545, "is_reserved": 0, "type": "electric_scooter", "bike_id": "c747a953145f8398dc96bc2bf19b32aa", "is_disabled": 0, "rental_uris": {"android": "https://dc.lft.to/lastmile_qr_scan", "ios": "https://dc.lft.to/lastmile_qr_scan"}, "lon": -77.026622, "fusion_lat": 0.0}, {"name": "87a397a7ac2e0f1bfa13537f1846627d", "fusion_lon": 0.0, "lat": 38.94500583333333, "is_reserved": 0, "type": "electric_scooter", "bike_id": "87a397a7ac2e0f1bfa13537f1846627d", "is_disabled": 0, "rental_uris": {"android": "https://dc.lft.to/lastmile_qr_scan", "ios": "https://dc.lft.to/lastmile_qr_scan"}, "lon": -77.03496533333333, "fusion_lat": 0.0}, {"name": "33afd47fd9b4f30d4fd27a39bf4df8a0", "fusion_lon": 0.0, "lat": 38.93186033333333, "is_reserved": 0, "type": "electric_scooter", "bike_id": "33afd47fd9b4f30d4fd27a39bf4df8a0", "is_disabled": 0, "rental_uris": {"android": "https://dc.lft.to/lastmile_qr_scan", "ios": "https://dc.lft.to/lastmile_qr_scan"}, "lon": -77.03657316666667, "fusion_lat": 0.0}, {"name": "e59a224aabd203e87d7acafdbd057d06", "fusion_lon": 0.0, "lat": 38.922074333333335, "is_reserved": 0, "type": "electric_bike", "bike_id": "e59a224aabd203e87d7acafdbd057d06", "is_disabled": 0, "rental_uris": {"android": "https://dc.lft.to/lastmile_qr_scan", "ios": "https://dc.lft.to/lastmile_qr_scan"}, "lon": -77.08194216666666, "fusion_lat": 0.0}, {"name": "78dde62961e223b83f20b7d803b2316a", "fusion_lon": 0.0, "lat": 38.900850166666665, "is_reserved": 0, "type": "electric_scooter", "bike_id": "78dde62961e223b83f20b7d803b2316a", "is_disabled": 0, "rental_uris": {"android": "https://dc.lft.to/lastmile_qr_scan", "ios": "https://dc.lft.to/lastmile_qr_scan"}, "lon": -76.93027666666667, "fusion_lat": 0.0}, {"name": "7a93258d3b4b75826cb307100cc87510", "fusion_lon": 0.0, "lat": 38.940945666666664, "is_reserved": 0, "type": "electric_bike", "bike_id": "7a93258d3b4b75826cb307100cc87510", "is_disabled": 0, "rental_uris": {"android": "https://dc.lft.to/lastmile_qr_scan", "ios": "https://dc.lft.to/lastmile_qr_scan"}, "lon": -77.03284183333334, "fusion_lat": 0.0}, {"name": "b7d71139193f336a80f4215920c64ddf", "fusion_lon": 0.0, "lat": 38.88500783333333, "is_reserved": 0, "type": "electric_scooter", "bike_id": "b7d71139193f336a80f4215920c64ddf", "is_disabled": 0, "rental_uris": {"android": "https://dc.lft.to/lastmile_qr_scan", "ios": "https://dc.lft.to/lastmile_qr_scan"}, "lon": -77.00877766666666, "fusion_lat": 0.0}, {"name": "a4883f347755728e0a065536f0bd83e1", "fusion_lon": 0.0, "lat": 38.960993333333334, "is_reserved": 0, "type": "electric_bike", "bike_id": "a4883f347755728e0a065536f0bd83e1", "is_disabled": 0, "rental_uris": {"android": "https://dc.lft.to/lastmile_qr_scan", "ios": "https://dc.lft.to/lastmile_qr_scan"}, "lon": -77.06938166666667, "fusion_lat": 0.0}, {"name": "e6d5f90fbe9ad6cd2fc8104ca2d5c951", "fusion_lon": 0.0, "lat": 38.942890166666665, "is_reserved": 0, "type": "electric_scooter", "bike_id": "e6d5f90fbe9ad6cd2fc8104ca2d5c951", "is_disabled": 0, "rental_uris": {"android": "https://dc.lft.to/lastmile_qr_scan", "ios": "https://dc.lft.to/lastmile_qr_scan"}, "lon": -77.021735, "fusion_lat": 0.0}, {"name": "bc6397c367bd133b0eeaf556e3181b6f", "fusion_lon": 0.0, "lat": 38.9006505, "is_reserved": 0, "type": "electric_scooter", "bike_id": "bc6397c367bd133b0eeaf556e3181b6f", "is_disabled": 0, "rental_uris": {"android": "https://dc.lft.to/lastmile_qr_scan", "ios": "https://dc.lft.to/lastmile_qr_scan"}, "lon": -76.92744816666666, "fusion_lat": 0.0}, {"name": "4289e709272cbaab5ea868ffe01a886e", "fusion_lon": 0.0, "lat": 38.91772183333333, "is_reserved": 0, "type": "electric_scooter", "bike_id": "4289e709272cbaab5ea868ffe01a886e", "is_disabled": 0, "rental_uris": {"android": "https://dc.lft.to/lastmile_qr_scan", "ios": "https://dc.lft.to/lastmile_qr_scan"}, "lon": -77.04169833333333, "fusion_lat": 0.0}, {"name": "0a2b52080e6f14fc34b60244f0d97dd6", "fusion_lon": 0.0, "lat": 38.87105066666667, "is_reserved": 0, "type": "electric_scooter", "bike_id": "0a2b52080e6f14fc34b60244f0d97dd6", "is_disabled": 0, "rental_uris": {"android": "https://dc.lft.to/lastmile_qr_scan", "ios": "https://dc.lft.to/lastmile_qr_scan"}, "lon": -76.96575816666666, "fusion_lat": 0.0}, {"name": "23e18a25e020efa8f9c3bb028fe31666", "fusion_lon": 0.0, "lat": 38.918211, "is_reserved": 0, "type": "electric_scooter", "bike_id": "23e18a25e020efa8f9c3bb028fe31666", "is_disabled": 0, "rental_uris": {"android": "https://dc.lft.to/lastmile_qr_scan", "ios": "https://dc.lft.to/lastmile_qr_scan"}, "lon": -77.03183683333333, "fusion_lat": 0.0}, {"name": "3c7b5105121fd94d4e95ea4b42825f25", "fusion_lon": 0.0, "lat": 38.86699383333333, "is_reserved": 0, "type": "electric_scooter", "bike_id": "3c7b5105121fd94d4e95ea4b42825f25", "is_disabled": 0, "rental_uris": {"android": "https://dc.lft.to/lastmile_qr_scan", "ios": "https://dc.lft.to/lastmile_qr_scan"}, "lon": -76.98716633333333, "fusion_lat": 0.0}, {"name": "bb0b65e21a3555d394d8fdb28f929af9", "fusion_lon": 0.0, "lat": 38.9146235, "is_reserved": 0, "type": "electric_scooter", "bike_id": "bb0b65e21a3555d394d8fdb28f929af9", "is_disabled": 0, "rental_uris": {"android": "https://dc.lft.to/lastmile_qr_scan", "ios": "https://dc.lft.to/lastmile_qr_scan"}, "lon": -76.98414166666667, "fusion_lat": 0.0}, {"name": "d5f78a32a7df0d6e5a0e4083d41d8fd3", "fusion_lon": 0.0, "lat": 38.919033166666665, "is_reserved": 0, "type": "electric_scooter", "bike_id": "d5f78a32a7df0d6e5a0e4083d41d8fd3", "is_disabled": 0, "rental_uris": {"android": "https://dc.lft.to/lastmile_qr_scan", "ios": "https://dc.lft.to/lastmile_qr_scan"}, "lon": -77.00230683333334, "fusion_lat": 0.0}, {"name": "ce2c68e74da8dd6ae0a80081d0a1a42a", "fusion_lon": 0.0, "lat": 38.94782766666667, "is_reserved": 0, "type": "electric_scooter", "bike_id": "ce2c68e74da8dd6ae0a80081d0a1a42a", "is_disabled": 0, "rental_uris": {"android": "https://dc.lft.to/lastmile_qr_scan", "ios": "https://dc.lft.to/lastmile_qr_scan"}, "lon": -77.08016466666666, "fusion_lat": 0.0}, {"name": "623532166d8c25c9c688a99ca43e6c76", "fusion_lon": 0.0, "lat": 38.915965166666666, "is_reserved": 0, "type": "electric_scooter", "bike_id": "623532166d8c25c9c688a99ca43e6c76", "is_disabled": 0, "rental_uris": {"android": "https://dc.lft.to/lastmile_qr_scan", "ios": "https://dc.lft.to/lastmile_qr_scan"}, "lon": -76.9837905, "fusion_lat": 0.0}, {"name": "ea27ef512e3c6dca98617b34b8245998", "fusion_lon": 0.0, "lat": 38.870013666666665, "is_reserved": 0, "type": "electric_scooter", "bike_id": "ea27ef512e3c6dca98617b34b8245998", "is_disabled": 0, "rental_uris": {"android": "https://dc.lft.to/lastmile_qr_scan", "ios": "https://dc.lft.to/lastmile_qr_scan"}, "lon": -76.9759305, "fusion_lat": 0.0}, {"name": "7bf668c9194da0b7fed195ed155bfea8", "fusion_lon": 0.0, "lat": 38.899471166666665, "is_reserved": 0, "type": "electric_scooter", "bike_id": "7bf668c9194da0b7fed195ed155bfea8", "is_disabled": 0, "rental_uris": {"android": "https://dc.lft.to/lastmile_qr_scan", "ios": "https://dc.lft.to/lastmile_qr_scan"}, "lon": -77.0163595, "fusion_lat": 0.0}, {"name": "ed4e107471fbf89a05d1098126ce8b88", "fusion_lon": 0.0, "lat": 39.052796, "is_reserved": 0, "type": "electric_bike", "bike_id": "ed4e107471fbf89a05d1098126ce8b88", "is_disabled": 0, "rental_uris": {"android": "https://dc.lft.to/lastmile_qr_scan", "ios": "https://dc.lft.to/lastmile_qr_scan"}, "lon": -77.08069133333333, "fusion_lat": 0.0}, {"name": "0edf697a8a9bc0b7ad94893e543590a9", "fusion_lon": 0.0, "lat": 38.9296345, "is_reserved": 0, "type": "electric_scooter", "bike_id": "0edf697a8a9bc0b7ad94893e543590a9", "is_disabled": 0, "rental_uris": {"android": "https://dc.lft.to/lastmile_qr_scan", "ios": "https://dc.lft.to/lastmile_qr_scan"}, "lon": -77.02749616666667, "fusion_lat": 0.0}, {"name": "0531fff0a94dbb139023b20b362b5fe8", "fusion_lon": 0.0, "lat": 38.866586166666664, "is_reserved": 0, "type": "electric_scooter", "bike_id": "0531fff0a94dbb139023b20b362b5fe8", "is_disabled": 0, "rental_uris": {"android": "https://dc.lft.to/lastmile_qr_scan", "ios": "https://dc.lft.to/lastmile_qr_scan"}, "lon": -76.98883483333333, "fusion_lat": 0.0}, {"name": "ab72b1ab73e8d2df47d9abd3b4ce7da3", "fusion_lon": 0.0, "lat": 38.936033, "is_reserved": 0, "type": "electric_scooter", "bike_id": "ab72b1ab73e8d2df47d9abd3b4ce7da3", "is_disabled": 0, "rental_uris": {"android": "https://dc.lft.to/lastmile_qr_scan", "ios": "https://dc.lft.to/lastmile_qr_scan"}, "lon": -77.0353015, "fusion_lat": 0.0},