{"data": {"bikes": [{"lon": -77.05260283333334, "bike_id": "e52e466b01fe98d7b6fb4cb47124b0c5", "lat": 38.925702, "fusion_lon": 0.0, "fusion_lat": 0.0, "type": "electric_scooter", "name": "e52e466b01fe98d7b6fb4cb47124b0c5", "is_disabled": 0, "rental_uris": {"ios": "https://dc.lft.to/lastmile_qr_scan", "android": "https://dc.lft.to/lastmile_qr_scan"}, "is_reserved": 0}, {"lon": -77.00530733333333, "bike_id": "a98ff12f6895173a818f945251c16069", "lat": 38.929749666666666, "fusion_lon": 0.0, "fusion_lat": 0.0, "type": "electric_scooter", "name": "a98ff12f6895173a818f945251c16069", "is_disabled": 0, "rental_uris": {"ios": "https://dc.lft.to/lastmile_qr_scan", "android": "https://dc.lft.to/lastmile_qr_scan"}, "is_reserved": 0}, {"lon": -77.02074116666667, "bike_id": "5690bfe1dd675beda9bcef33ab778fa9", "lat": 38.899879166666665, "fusion_lon": 0.0, "fusion_lat": 0.0, "type": "electric_scooter", "name": "5690bfe1dd675beda9bcef33ab778fa9", "is_disabled": 0, "rental_uris": {"ios": "https://dc.lft.to/lastmile_qr_scan", "android": "https://dc.lft.to/lastmile_qr_scan"}, "is_reserved": 0}, {"lon": -77.01479266666666, "bike_id": "761a1d3d282aa4d6c68e66968642c7c2", "lat": 38.940669166666666, "fusion_lon": 0.0, "fusion_lat": 0.0, "type": "electric_bike", "name": "761a1d3d282aa4d6c68e66968642c7c2", "is_disabled": 0, "rental_uris": {"ios": "https://dc.lft.to/lastmile_qr_scan", "android": "https://dc.lft.to/lastmile_qr_scan"}, "is_reserved": 0}, {"lon": -76.9852635, "bike_id": "1120b07e2afa3c0bcaedd195d2041a23", "lat": 38.8668505, "fusion_lon": 0.0, "fusion_lat": 0.0, "type": "electric_scooter", "name": "1120b07e2afa3c0bcaedd195d2041a23", "is_disabled": 0, "rental_uris": {"ios": "https://dc.lft.to/lastmile_qr_scan", "android": "https://dc.lft.to/lastmile_qr_scan"}, "is_reserved": 0}, {"lon": -77.02040083333333, "bike_id": "d7b4a9892d1f10c32f678bde95534985", "lat": 38.90863816666667, "fusion_lon": 0.0, "fusion_lat": 0.0, "type": "electric_scooter", "name": "d7b4a9892d1f10c32f678bde95534985", "is_disabled": 0, "rental_uris": {"ios": "https://dc.lft.to/lastmile_qr_scan", "android": "https://dc.lft.to/lastmile_qr_scan"}, "is_reserved": 0}, {"lon": -76.930629, "bike_id": "27c47015ecdd9d0d473fd8c3324f26f1", "lat": 38.88386833333333, "fusion_lon": 0.0, "fusion_lat": 0.0, "type": "electric_scooter", "name": "27c47015ecdd9d0d473fd8c3324f26f1", "is_disabled": 0, "rental_uris": {"ios": "https://dc.lft.to/lastmile_qr_scan", "android": "https://dc.lft.to/lastmile_qr_scan"}, "is_reserved": 0}, {"lon": -77.02224733333334, "bike_id": "405f6436617fadf299e26387a5e30792", "lat": 38.912543, "fusion_lon": 0.0, "fusion_lat": 0.0, "type": "electric_scooter", "name": "405f6436617fadf299e26387a5e30792", "is_disabled": 0, "rental_uris": {"ios": "https://dc.lft.to/lastmile_qr_scan", "android": "https://dc.lft.to/lastmile_qr_scan"}, "is_reserved": 0}, {"lon": -77.026595, "bike_id": "b8a22285a3b59adc67e128d1b1a0e336", "lat": 38.91701666666667, "fusion_lon": 0.0, "fusion_lat": 0.0, "type": "electric_scooter", "name": "b8a22285a3b59adc67e128d1b1a0e336", "is_disabled": 0, "rental_uris": {"ios": "https://dc.lft.to/lastmile_qr_scan", "android": "https://dc.lft.to/lastmile_qr_scan"}, "is_reserved": 0}, {"lon": -77.03178533333333, "bike_id": "07cad4e3bfc044db605c2db26657a87d", "lat": 38.891974833333336, "fusion_lon": 0.0, "fusion_lat": 0.0, "type": "electric_scooter", "name": "07cad4e3bfc044db605c2db26657a87d", "is_disabled": 0, "rental_uris": {"ios": "https://dc.lft.to/lastmile_qr_scan", "android": "https://dc.lft.to/lastmile_qr_scan"}, "is_reserved": 0}, {"lon": -77.02669066666667, "bike_id": "6e61407302dcb3a934630fa339a1c874", "lat": 38.921800833333336, "fusion_lon": 0.0, "fusion_lat": 0.0, "type": "electric_scooter", "name": "6e61407302dcb3a934630fa339a1c874", "is_disabled": 0, "rental_uris": {"ios": "https://dc.lft.to/lastmile_qr_scan", "android": "https://dc.lft.to/lastmile_qr_scan"}, "is_reserved": 0}, {"lon": -77.04347416666667, "bike_id": "572b886c903885e8fdddecfe325103d9", "lat": 38.92174766666667, "fusion_lon": 0.0, "fusion_lat": 0.0, "type": "electric_scooter", "name": "572b886c903885e8fdddecfe325103d9", "is_disabled": 0, "rental_uris": {"ios": "https://dc.lft.to/lastmile_qr_scan", "android": "https://dc.lft.to/lastmile_qr_scan"}, "is_reserved": 0}, {"lon": -77.00330883333334, "bike_id": "1d8a4a86c9c5a7c1ba230b1face6057a", "lat": 38.899164666666664, "fusion_lon": 0.0, "fusion_lat": 0.0, "type": "electric_scooter", "name": "1d8a4a86c9c5a7c1ba230b1face6057a", "is_disabled": 0, "rental_uris": {"ios": "https://dc.lft.to/lastmile_qr_scan", "android": "https://dc.lft.to/lastmile_qr_scan"}, "is_reserved": 0}, {"lon": -77.02266066666667, "bike_id": "c3daf5d0a796ccba9b694d36ed9a9609", "lat": 38.937553, "fusion_lon": 0.0, "fusion_lat": 0.0, "type": "electric_scooter", "name": "c3daf5d0a796ccba9b694d36ed9a9609", "is_disabled": 0, "rental_uris": {"ios": "https://dc.lft.to/lastmile_qr_scan", "android": "https://dc.lft.to/lastmile_qr_scan"}, "is_reserved": 0}, {"lon": -77.04485683333333, "bike_id": "33b2284982056737e66dfc32bcd7bfa3", "lat": 38.8924065, "fusion_lon": 0.0, "fusion_lat": 0.0, "type": "electric_scooter", "name": "33b2284982056737e66dfc32bcd7bfa3", "is_disabled": 0, "rental_uris": {"ios": "https://dc.lft.to/lastmile_qr_scan", "android": "https://dc.lft.to/lastmile_qr_scan"}, "is_reserved": 0}, {"lon": -77.0269745, "bike_id": "5c27fa3bd84c27cc633f73642a320dea", "lat": 38.9266555, "fusion_lon": 0.0, "fusion_lat": 0.0, "type": "electric_scooter", "name": "5c27fa3bd84c27cc633f73642a320dea", "is_disabled": 0, "rental_uris": {"ios": "https://dc.lft.to/lastmile_qr_scan", "android": "https://dc.lft.to/lastmile_qr_scan"}, "is_reserved": 0}, {"lon": -77.01278516666666, "bike_id": "dc2bb1a141fb51897358492862bf9037", "lat": 38.9156385, "fusion_lon": 0.0, "fusion_lat": 0.0, "type": "electric_scooter", "name": "dc2bb1a141fb51897358492862bf9037", "is_disabled": 0, "rental_uris": {"ios": "https://dc.lft.to/lastmile_qr_scan", "android": "https://dc.lft.to/lastmile_qr_scan"}, "is_reserved": 0}, {"lon": -77.03852083333334, "bike_id": "91af4b72848bd914f03f5484e230aab6", "lat": 38.91547416666667, "fusion_lon": 0.0, "fusion_lat": 0.0, "type": "electric_scooter", "name": "91af4b72848bd914f03f5484e230aab6", "is_disabled": 0, "rental_uris": {"ios": "https://dc.lft.to/lastmile_qr_scan", "android": "https://dc.lft.to/lastmile_qr_scan"}, "is_reserved": 0}, {"lon": -77.03817683333334, "bike_id": "bad5c764916150b27d0bd741c5bf2986", "lat": 38.93092166666667, "fusion_lon": 0.0, "fusion_lat": 0.0, "type": "electric_scooter", "name": "bad5c764916150b27d0bd741c5bf2986", "is_disabled": 0, "rental_uris": {"ios": "https://dc.lft.to/lastmile_qr_scan", "android": "https://dc.lft.to/lastmile_qr_scan"}, "is_reserved": 0}, {"lon": -77.03510133333333, "bike_id": "5d1d68813e1fc0ddbb794318d9fb925a", "lat": 38.921382, "fusion_lon": 0.0, "fusion_lat": 0.0, "type": "electric_scooter", "name": "5d1d68813e1fc0ddbb794318d9fb925a", "is_disabled": 0, "rental_uris": {"ios": "https://dc.lft.to/lastmile_qr_scan", "android": "https://dc.lft.to/lastmile_qr_scan"}, "is_reserved": 0}, {"lon": -77.00909466666667, "bike_id": "a91ca7e28bf0ffa27ae109c36c355b8d", "lat": 38.827910333333335, "fusion_lon": 0.0, "fusion_lat": 0.0, "type": "electric_bike", "name": "a91ca7e28bf0ffa27ae109c36c355b8d", "is_disabled": 0, "rental_uris": {"ios": "https://dc.lft.to/lastmile_qr_scan", "android": "https://dc.lft.to/lastmile_qr_scan"}, "is_reserved": 0}, {"lon": -77.021109, "bike_id": "53a809d779f66b1307614b2a09547a64", "lat": 38.936951666666666, "fusion_lon": 0.0, "fusion_lat": 0.0, "type": "electric_scooter", "name": "53a809d779f66b1307614b2a09547a64", "is_disabled": 0, "rental_uris": {"ios": "https://dc.lft.to/lastmile_qr_scan", "android": "https://dc.lft.to/lastmile_qr_scan"}, "is_reserved": 0}, {"lon": -77.04690733333334, "bike_id": "94709f1ceeadde64c573015ca4766b73", "lat": 38.8922275, "fusion_lon": 0.0, "fusion_lat": 0.0, "type": "electric_scooter", "name": "94709f1ceeadde64c573015ca4766b73", "is_disabled": 0, "rental_uris": {"ios": "https://dc.lft.to/lastmile_qr_scan", "android": "https://dc.lft.to/lastmile_qr_scan"}, "is_reserved": 0}, {"lon": -77.046901, "bike_id": "68663f053425ddeb5ce3c777ab085af6", "lat": 38.892229, "fusion_lon": 0.0, "fusion_lat": 0.0, "type": "electric_scooter", "name": "68663f053425ddeb5ce3c777ab085af6", "is_disabled": 0, "rental_uris": {"ios": "https://dc.lft.to/lastmile_qr_scan", "android": "https://dc.lft.to/lastmile_qr_scan"}, "is_reserved": 0}, {"lon": -77.0294845, "bike_id": "bd5b405e91e72ea8e2d762ea1cd6687c", "lat": 38.906711333333334, "fusion_lon": 0.0, "fusion_lat": 0.0, "type": "electric_scooter", "name": "bd5b405e91e72ea8e2d762ea1cd6687c", "is_disabled": 0, "rental_uris": {"ios": "https://dc.lft.to/lastmile_qr_scan", "android": "https://dc.lft.to/lastmile_qr_scan"}, "is_reserved": 0}, {"lon": -76.95894, "bike_id": "45e4044fef5bea98a63a80177cdc8ef5", "lat": 38.890064, "fusion_lon": 0.0, "fusion_lat": 0.0, "type": "electric_scooter", "name": "45e4044fef5bea98a63a80177cdc8ef5", "is_disabled": 0, "rental_uris": {"ios": "https://dc.lft.to/lastmile_qr_scan", "android": "https://dc.lft.to/lastmile_qr_scan"}, "is_reserved": 0}, {"lon": -77.02422833333334, "bike_id": "60a1168ca0b43134e0916a631a9bb9fb", "lat": 38.90398733333333, "fusion_lon": 0.0, "fusion_lat": 0.0, "type": "electric_scooter", "name": "60a1168ca0b43134e0916a631a9bb9fb", "is_disabled": 0, "rental_uris": {"ios": "https://dc.lft.to/lastmile_qr_scan", "android": "https://dc.lft.to/lastmile_qr_scan"}, "is_reserved": 0}, {"lon": -76.9635755, "bike_id": "c0bc408708477959a91d41285156b3e1", "lat": 38.93499966666667, "fusion_lon": 0.0, "fusion_lat": 0.0, "type": "electric_scooter", "name": "c0bc408708477959a91d41285156b3e1", "is_disabled": 0, "rental_uris": {"ios": "https://dc.lft.to/lastmile_qr_scan", "android": "https://dc.lft.to/lastmile_qr_scan"}, "is_reserved": 0}, {"lon": -77.06309733333333, "bike_id": "d615d613533bbc44cf293b725a23efec", "lat": 38.86539333333333, "fusion_lon": 0.0, "fusion_lat": 0.0, "type": "electric_bike", "name": "d615d613533bbc44cf293b725a23efec", "is_disabled": 0, "rental_uris": {"ios": "https://dc.lft.to/lastmile_qr_scan", "android": "https://dc.lft.to/lastmile_qr_scan"}, "is_reserved": 0}, {"lon": -77.04981683333334, "bike_id": "784c3b27a8ff8d13fb84f3ed8c328a8d", "lat": 39.06297933333333, "fusion_lon": 0.0, "fusion_lat": 0.0, "type": "electric_bike", "name": "784c3b27a8ff8d13fb84f3ed8c328a8d", "is_disabled": 0, "rental_uris": {"ios": "https://dc.lft.to/lastmile_qr_scan", "android": "https://dc.lft.to/lastmile_qr_scan"}, "is_reserved": 0}, {"lon": -77.001554, "bike_id": "130ebcde2fc92bbd19ece97246acfeeb", "lat": 38.91624983333333, "fusion_lon": 0.0, "fusion_lat": 0.0, "type": "electric_scooter", "name": "130ebcde2fc92bbd19ece97246acfeeb", "is_disabled": 0, "rental_uris": {"ios": "https://dc.lft.to/lastmile_qr_scan", "android": "https://dc.lft.to/lastmile_qr_scan"}, "is_reserved": 0}, {"lon": -77.03212783333333, "bike_id": "cbaf2fb84b01b9b91cb5d0f65b5fb751", "lat": 38.91810133333333, "fusion_lon": 0.0, "fusion_lat": 0.0, "type": "electric_scooter", "name": "cbaf2fb84b01b9b91cb5d0f65b5fb751", "is_disabled": 0, "rental_uris": {"ios": "https://dc.lft.to/lastmile_qr_scan", "android": "https://dc.lft.to/lastmile_qr_scan"}, "is_reserved": 0}, {"lon": -77.05141033333334, "bike_id": "b391a95d07317a3a95387e1b6780cc22", "lat": 38.898565, "fusion_lon": 0.0, "fusion_lat": 0.0, "type": "electric_scooter", "name": "b391a95d07317a3a95387e1b6780cc22", "is_disabled": 0, "rental_uris": {"ios": "https://dc.lft.to/lastmile_qr_scan", "android": "https://dc.lft.to/lastmile_qr_scan"}, "is_reserved": 0}, {"lon": -77.0255735, "bike_id": "8ff950f15f5d33faccefdb07dcd4301b", "lat": 38.94171466666667, "fusion_lon": 0.0, "fusion_lat": 0.0, "type": "electric_scooter", "name": "8ff950f15f5d33faccefdb07dcd4301b", "is_disabled": 0, "rental_uris": {"ios": "https://dc.lft.to/lastmile_qr_scan", "android": "https://dc.lft.to/lastmile_qr_scan"}, "is_reserved": 0}, {"lon": -76.97870133333333, "bike_id": "899068f4b2b421dbf1670a404d18c926", "lat": 38.88302766666666, "fusion_lon": 0.0, "fusion_lat": 0.0, "type": "electric_scooter", "name": "899068f4b2b421dbf1670a404d18c926", "is_disabled": 0, "rental_uris": {"ios": "https://dc.lft.to/lastmile_qr_scan", "android": "https://dc.lft.to/lastmile_qr_scan"}, "is_reserved": 0}, {"lon": -77.02964283333333, "bike_id": "aaa2d6df98b0d0086e55c29fde2c5dfb", "lat": 38.912753333333335, "fusion_lon": 0.0, "fusion_lat": 0.0, "type": "electric_scooter", "name": "aaa2d6df98b0d0086e55c29fde2c5dfb", "is_disabled": 0, "rental_uris": {"ios": "https://dc.lft.to/lastmile_qr_scan", "android": "https://dc.lft.to/lastmile_qr_scan"}, "is_reserved": 0}, {"lon": -77.01763416666667, "bike_id": "8c350ea2d211b85d3498e1bd4494871f", "lat": 38.887271166666665, "fusion_lon": 0.0, "fusion_lat": 0.0, "type": "electric_scooter", "name": "8c350ea2d211b85d3498e1bd4494871f", "is_disabled": 0, "rental_uris": {"ios": "https://dc.lft.to/lastmile_qr_scan", "android": "https://dc.lft.to/lastmile_qr_scan"}, "is_reserved": 0}, {"lon": -77.03857666666667, "bike_id": "fc3871666ad8b5ed68b6ce20ebb53301", "lat": 38.920156166666665, "fusion_lon": 0.0, "fusion_lat": 0.0, "type": "electric_scooter", "name": "fc3871666ad8b5ed68b6ce20ebb53301", "is_disabled": 0, "rental_uris": {"ios": "https://dc.lft.to/lastmile_qr_scan", "android": "https://dc.lft.to/lastmile_qr_scan"}, "is_reserved": 0}, {"lon": -77.03812716666667, "bike_id": "fbd0b544ee388270abbfcc1a2fbbdc5e", "lat": 38.909726166666665, "fusion_lon": 0.0, "fusion_lat": 0.0, "type": "electric_scooter", "name": "fbd0b544ee388270abbfcc1a2fbbdc5e", "is_disabled": 0, "rental_uris": {"ios": "https://dc.lft.to/lastmile_qr_scan", "android": "https://dc.lft.to/lastmile_qr_scan"}, "is_reserved": 0}, {"lon": -76.99367716666667, "bike_id": "7efc822695b1809f5d87d0327a232480", "lat": 38.94026366666667, "fusion_lon": 0.0, "fusion_lat": 0.0, "type": "electric_scooter", "name": "7efc822695b1809f5d87d0327a232480", "is_disabled": 0, "rental_uris": {"ios": "https://dc.lft.to/lastmile_qr_scan", "android": "https://dc.lft.to/lastmile_qr_scan"}, "is_reserved": 0}, {"lon": -76.98586016666667, "bike_id": "d57c372f9011a5137c228316d866a18a", "lat": 38.88406833333333, "fusion_lon": 0.0, "fusion_lat": 0.0, "type": "electric_scooter", "name": "d57c372f9011a5137c228316d866a18a", "is_disabled": 0, "rental_uris": {"ios": "https://dc.lft.to/lastmile_qr_scan", "android": "https://dc.lft.to/lastmile_qr_scan"}, "is_reserved": 0}, {"lon": -77.0678095, "bike_id": "bd05df3d8dfd1244d83ff4268013b471", "lat": 38.904578, "fusion_lon": 0.0, "fusion_lat": 0.0, "type": "electric_scooter", "name": "bd05df3d8dfd1244d83ff4268013b471", "is_disabled": 0, "rental_uris": {"ios": "https://dc.lft.to/lastmile_qr_scan", "android": "https://dc.lft.to/lastmile_qr_scan"}, "is_reserved": 0}, {"lon": -77.13100933333334, "bike_id": "56c6097da1f58886705301d170369642", "lat": 39.02434866666667, "fusion_lon": 0.0, "fusion_lat": 0.0, "type": "electric_bike", "name": "56c6097da1f58886705301d170369642", "is_disabled": 0, "rental_uris": {"ios": "https://dc.lft.to/lastmile_qr_scan", "android": "https://dc.lft.to/lastmile_qr_scan"}, "is_reserved": 0}, {"lon": -77.01852533333333, "bike_id": "0cf332adcaab24555935acf8fda1380a", "lat": 38.90394716666667, "fusion_lon": 0.0, "fusion_lat": 0.0, "type": "electric_scooter", "name": "0cf332adcaab24555935acf8fda1380a", "is_disabled": 0, "rental_uris": {"ios": "https://dc.lft.to/lastmile_qr_scan", "android": "https://dc.lft.to/lastmile_qr_scan"}, "is_reserved": 0}, {"lon": -77.03855183333333, "bike_id": "3259b2214c3264424469b4a2c8a7b2c7", "lat": 38.915452, "fusion_lon": 0.0, "fusion_lat": 0.0, "type": "electric_scooter", "name": "3259b2214c3264424469b4a2c8a7b2c7", "is_disabled": 0, "rental_uris": {"ios": "https://dc.lft.to/lastmile_qr_scan", "android": "https://dc.lft.to/lastmile_qr_scan"}, "is_reserved": 0}, {"lon": -77.0326215, "bike_id": "9dd1261e77cb207d0b79f6479ad8c897", "lat": 38.92540533333333, "fusion_lon": 0.0, "fusion_lat": 0.0, "type": "electric_scooter", "name": "9dd1261e77cb207d0b79f6479ad8c897", "is_disabled": 0, "rental_uris": {"ios": "https://dc.lft.to/lastmile_qr_scan", "android": "https://dc.lft.to/lastmile_qr_scan"}, "is_reserved": 0}, {"lon": -76.99599116666667, "bike_id": "270dde127154c99c367442a1a58b7ee5", "lat": 38.88426783333333, "fusion_lon": 0.0, "fusion_lat": 0.0, "type": "electric_scooter", "name": "270dde127154c99c367442a1a58b7ee5", "is_disabled": 0, "rental_uris": {"ios": "https://dc.lft.to/lastmile_qr_scan", "android": "https://dc.lft.to/lastmile_qr_scan"}, "is_reserved": 0}, {"lon": -77.04174866666666, "bike_id": "431e2cd35ad8cf2e1badd4e7bacc576c", "lat": 38.91791383333333, "fusion_lon": 0.0, "fusion_lat": 0.0, "type": "electric_scooter", "name": "431e2cd35ad8cf2e1badd4e7bacc576c", "is_disabled": 0, "rental_uris": {"ios": "https://dc.lft.to/lastmile_qr_scan", "android": "https://dc.lft.to/lastmile_qr_scan"}, "is_reserved": 0}, {"lon": -77.04674266666666, "bike_id": "acfcbb6103b8b324256cd320dd8092db", "lat": 38.90537166666667, "fusion_lon": 0.0, "fusion_lat": 0.0, "type": "electric_scooter", "name": "acfcbb6103b8b324256cd320dd8092db", "is_disabled": 0, "rental_uris": {"ios": "https://dc.lft.to/lastmile_qr_scan", "android": "https://dc.lft.to/lastmile_qr_scan"}, "is_reserved": 0}, {"lon": -77.02509616666667, "bike_id": "b3a018bba0a7887203a4c65ef0ccdc43", "lat": 38.91916466666667, "fusion_lon": 0.0, "fusion_lat": 0.0, "type": "electric_scooter", "name": "b3a018bba0a7887203a4c65ef0ccdc43", "is_disabled": 0, "rental_uris": {"ios": "https://dc.lft.to/lastmile_qr_scan", "android": "https://dc.lft.to/lastmile_qr_scan"}, "is_reserved": 0}, {"lon": -77.09068383333333, "bike_id": "ca79ac809a7b8a89feea20de1b84cba4", "lat": 38.9786525, "fusion_lon": 0.0, "fusion_lat": 0.0, "type": "electric_bike", "name": "ca79ac809a7b8a89feea20de1b84cba4", "is_disabled": 0, "rental_uris": {"ios": "https://dc.lft.to/lastmile_qr_scan", "android": "https://dc.lft.to/lastmile_qr_scan"}, "is_reserved": 0}, {"lon": -77.01923533333333, "bike_id": "cb41a7f1d961d16e72f54821133f3940", "lat": 38.922155833333335, "fusion_lon": 0.0, "fusion_lat": 0.0, "type": "electric_scooter", "name": "cb41a7f1d961d16e72f54821133f3940", "is_disabled": 0, "rental_uris": {"ios": "https://dc.lft.to/lastmile_qr_scan", "android": "https://dc.lft.to/lastmile_qr_scan"}, "is_reserved": 0}, {"lon": -77.02712533333333, "bike_id": "371ea6a3e3883cd0c6afeccd67459bad", "lat": 38.916712, "fusion_lon": 0.0, "fusion_lat": 0.0, "type": "electric_scooter", "name": "371ea6a3e3883cd0c6afeccd67459bad", "is_disabled": 0, "rental_uris": {"ios": "https://dc.lft.to/lastmile_qr_scan", "android": "https://dc.lft.to/lastmile_qr_scan"}, "is_reserved": 0}, {"lon": -77.015369, "bike_id": "bfd0c4416c34956ce44f7cc0b2480b4f", "lat": 38.902693, "fusion_lon": 0.0, "fusion_lat": 0.0, "type": "electric_scooter", "name": "bfd0c4416c34956ce44f7cc0b2480b4f", "is_disabled": 0, "rental_uris": {"ios": "https://dc.lft.to/lastmile_qr_scan", "android": "https://dc.lft.to/lastmile_qr_scan"}, "is_reserved": 0}, {"lon": -77.0239465, "bike_id": "02c7e43561b12ad357d66111a9b77140", "lat": 38.92059966666667, "fusion_lon": 0.0, "fusion_lat": 0.0, "type": "electric_scooter", "name": "02c7e43561b12ad357d66111a9b77140", "is_disabled": 0, "rental_uris": {"ios": "https://dc.lft.to/lastmile_qr_scan", "android": "https://dc.lft.to/lastmile_qr_scan"}, "is_reserved": 0}, {"lon": -77.041617, "bike_id": "abeeec9c6ca33f2e3c4c8cecd092bd31", "lat": 38.912505, "fusion_lon": 0.0, "fusion_lat": 0.0, "type": "electric_scooter", "name": "abeeec9c6ca33f2e3c4c8cecd092bd31", "is_disabled": 0, "rental_uris": {"ios": "https://dc.lft.to/lastmile_qr_scan", "android": "https://dc.lft.to/lastmile_qr_scan"}, "is_reserved": 0}, {"lon": -77.04379016666667, "bike_id": "3cc5aa3c1b1cdf69501dc784fcfb0579", "lat": 38.920686833333335, "fusion_lon": 0.0, "fusion_lat": 0.0, "type": "electric_scooter", "name": "3cc5aa3c1b1cdf69501dc784fcfb0579", "is_disabled": 0, "rental_uris": {"ios": "https://dc.lft.to/lastmile_qr_scan", "android": "https://dc.lft.to/lastmile_qr_scan"}, "is_reserved": 0}, {"lon": -77.01627283333333, "bike_id": "857f5e65d57db7cc66b39a48f3ded177", "lat": 38.929003, "fusion_lon": 0.0, "fusion_lat": 0.0, "type": "electric_scooter", "name": "857f5e65d57db7cc66b39a48f3ded177", "is_disabled": 0, "rental_uris": {"ios": "https://dc.lft.to/lastmile_qr_scan", "android": "https://dc.lft.to/lastmile_qr_scan"}, "is_reserved": 0}, {"lon": -77.05807316666667, "bike_id": "ff878c8b6331be69947207184b1b7c84", "lat": 38.93509783333333, "fusion_lon": 0.0, "fusion_lat": 0.0, "type": "electric_scooter", "name": "ff878c8b6331be69947207184b1b7c84", "is_disabled": 0, "rental_uris": {"ios": "https://dc.lft.to/lastmile_qr_scan", "android": "https://dc.lft.to/lastmile_qr_scan"}, "is_reserved": 0}, {"lon": -77.02361033333334, "bike_id": "aedddc8ddf35068d05b9ceb49363249c", "lat": 38.892174833333335, "fusion_lon": 0.0, "fusion_lat": 0.0, "type": "electric_scooter", "name": "aedddc8ddf35068d05b9ceb49363249c", "is_disabled": 0, "rental_uris": {"ios": "https://dc.lft.to/lastmile_qr_scan", "android": "https://dc.lft.to/lastmile_qr_scan"}, "is_reserved": 0}, {"lon": -77.03191916666667, "bike_id": "b4e902ad90589ac9973448533cd7508a", "lat": 38.91215916666667, "fusion_lon": 0.0, "fusion_lat": 0.0, "type": "electric_scooter", "name": "b4e902ad90589ac9973448533cd7508a", "is_disabled": 0, "rental_uris": {"ios": "https://dc.lft.to/lastmile_qr_scan", "android": "https://dc.lft.to/lastmile_qr_scan"}, "is_reserved": 0}, {"lon": -76.931298, "bike_id": "1b1734e8da2c92cd61bdf6b54e96f889", "lat": 38.8784985, "fusion_lon": 0.0, "fusion_lat": 0.0, "type": "electric_scooter", "name": "1b1734e8da2c92cd61bdf6b54e96f889", "is_disabled": 0, "rental_uris": {"ios": "https://dc.lft.to/lastmile_qr_scan", "android": "https://dc.lft.to/lastmile_qr_scan"}, "is_reserved": 0}, {"lon": -77.02587483333333, "bike_id": "a32bfd7cb0ad56a03dcf55a8faf66ccd", "lat": 38.94301316666667, "fusion_lon": 0.0, "fusion_lat": 0.0, "type": "electric_scooter", "name": "a32bfd7cb0ad56a03dcf55a8faf66ccd", "is_disabled": 0, "rental_uris": {"ios": "https://dc.lft.to/lastmile_qr_scan", "android": "https://dc.lft.to/lastmile_qr_scan"}, "is_reserved": 0}, {"lon": -77.07761616666667, "bike_id": "d1098f48983cafa3f395c8bf8ef589f6", "lat": 38.92556416666667, "fusion_lon": 0.0, "fusion_lat": 0.0, "type": "electric_scooter", "name": "d1098f48983cafa3f395c8bf8ef589f6", "is_disabled": 0, "rental_uris": {"ios": "https://dc.lft.to/lastmile_qr_scan", "android": "https://dc.lft.to/lastmile_qr_scan"}, "is_reserved": 0}, {"lon": -77.0442355, "bike_id": "bbd314ba59910f71bf44e957dae39ad4", "lat": 38.921273, "fusion_lon": 0.0, "fusion_lat": 0.0, "type": "electric_scooter", "name": "bbd314ba59910f71bf44e957dae39ad4", "is_disabled": 0, "rental_uris": {"ios": "https://dc.lft.to/lastmile_qr_scan", "android": "https://dc.lft.to/lastmile_qr_scan"}, "is_reserved": 0}, {"lon": -77.02478733333334, "bike_id": "8436ebd1e453874d2ec266ccabe4b9be", "lat": 38.919348, "fusion_lon": 0.0, "fusion_lat": 0.0, "type": "electric_scooter", "name": "8436ebd1e453874d2ec266ccabe4b9be", "is_disabled": 0, "rental_uris": {"ios": "https://dc.lft.to/lastmile_qr_scan", "android": "https://dc.lft.to/lastmile_qr_scan"}, "is_reserved": 0}, {"lon": -77.07288433333333, "bike_id": "6c36578ea0a72c7e5d487b55ab75e842", "lat": 38.93099733333333, "fusion_lon": 0.0, "fusion_lat": 0.0, "type": "electric_scooter", "name": "6c36578ea0a72c7e5d487b55ab75e842", "is_disabled": 0, "rental_uris": {"ios": "https://dc.lft.to/lastmile_qr_scan", "android": "https://dc.lft.to/lastmile_qr_scan"}, "is_reserved": 0}, {"lon": -77.03349633333333, "bike_id": "d117e4999054cf48759698af024682c2", "lat": 38.892415166666666, "fusion_lon": 0.0, "fusion_lat": 0.0, "type": "electric_scooter", "name": "d117e4999054cf48759698af024682c2", "is_disabled": 0, "rental_uris": {"ios": "https://dc.lft.to/lastmile_qr_scan", "android": "https://dc.lft.to/lastmile_qr_scan"}, "is_reserved": 0}, {"lon": -77.02305383333334, "bike_id": "ba5fb493b6fe82fbe196c8af16e8bd98", "lat": 38.91694066666667, "fusion_lon": 0.0, "fusion_lat": 0.0, "type": "electric_scooter", "name": "ba5fb493b6fe82fbe196c8af16e8bd98", "is_disabled": 0, "rental_uris": {"ios": "https://dc.lft.to/lastmile_qr_scan", "android": "https://dc.lft.to/lastmile_qr_scan"}, "is_reserved": 0}, {"lon": -77.02169083333334, "bike_id": "995ffb59da3291bcd976133a11d8f82d", "lat": 38.908496166666666, "fusion_lon": 0.0, "fusion_lat": 0.0, "type": "electric_scooter", "name": "995ffb59da3291bcd976133a11d8f82d", "is_disabled": 0, "rental_uris": {"ios": "https://dc.lft.to/lastmile_qr_scan", "android": "https://dc.lft.to/lastmile_qr_scan"}, "is_reserved": 0}, {"lon": -77.02535916666666, "bike_id": "6bddbb944406a3652cee983155b67aff", "lat": 38.927476666666664, "fusion_lon": 0.0, "fusion_lat": 0.0, "type": "electric_scooter", "name": "6bddbb944406a3652cee983155b67aff", "is_disabled": 0, "rental_uris": {"ios": "https://dc.lft.to/lastmile_qr_scan", "android": "https://dc.lft.to/lastmile_qr_scan"}, "is_reserved": 0}, {"lon": -77.03858183333334, "bike_id": "efd29073338ec55ee59df91a36b34e9a", "lat": 38.91171883333333, "fusion_lon": 0.0, "fusion_lat": 0.0, "type": "electric_scooter", "name": "efd29073338ec55ee59df91a36b34e9a", "is_disabled": 0, "rental_uris": {"ios": "https://dc.lft.to/lastmile_qr_scan", "android": "https://dc.lft.to/lastmile_qr_scan"}, "is_reserved": 0}, {"lon": -77.02626616666667, "bike_id": "9d0ae8b322d13a08cd507631213f6445", "lat": 38.962288, "fusion_lon": 0.0, "fusion_lat": 0.0, "type": "electric_bike", "name": "9d0ae8b322d13a08cd507631213f6445", "is_disabled": 0, "rental_uris": {"ios": "https://dc.lft.to/lastmile_qr_scan", "android": "https://dc.lft.to/lastmile_qr_scan"}, "is_reserved": 0}, {"lon": -77.04336966666666, "bike_id": "d6ff258c24a9f0890be2f80bd4c7c41f", "lat": 38.9036615, "fusion_lon": 0.0, "fusion_lat": 0.0, "type": "electric_scooter", "name": "d6ff258c24a9f0890be2f80bd4c7c41f", "is_disabled": 0, "rental_uris": {"ios": "https://dc.lft.to/lastmile_qr_scan", "android": "https://dc.lft.to/lastmile_qr_scan"}, "is_reserved": 0}, {"lon": -76.98585266666667, "bike_id": "8772e16f6be9f86264a94beeb3c4ecec", "lat": 38.866871, "fusion_lon": 0.0, "fusion_lat": 0.0, "type": "electric_scooter", "name": "8772e16f6be9f86264a94beeb3c4ecec", "is_disabled": 0, "rental_uris": {"ios": "https://dc.lft.to/lastmile_qr_scan", "android": "https://dc.lft.to/lastmile_qr_scan"}, "is_reserved": 0}, {"lon": -76.98291216666667, "bike_id": "3503e8481508d053b204c1578bba4d03", "lat": 38.9164035, "fusion_lon": 0.0, "fusion_lat": 0.0, "type": "electric_scooter", "name": "3503e8481508d053b204c1578bba4d03", "is_disabled": 0, "rental_uris": {"ios": "https://dc.lft.to/lastmile_qr_scan", "android": "https://dc.lft.to/lastmile_qr_scan"}, "is_reserved": 0}, {"lon": -77.0190955, "bike_id": "f9e3f5c26a88f1e21e669e554c94883c", "lat": 38.88610366666666, "fusion_lon": 0.0, "fusion_lat": 0.0, "type": "electric_scooter", "name": "f9e3f5c26a88f1e21e669e554c94883c", "is_disabled": 0, "rental_uris": {"ios": "https://dc.lft.to/lastmile_qr_scan", "android": "https://dc.lft.to/lastmile_qr_scan"}, "is_reserved": 0}, {"lon": -77.046544, "bike_id": "a8cdf769ad736480cd93dd6daf5d9be6", "lat": 38.91589416666667, "fusion_lon": 0.0, "fusion_lat": 0.0, "type": "electric_scooter", "name": "a8cdf769ad736480cd93dd6daf5d9be6", "is_disabled": 0, "rental_uris": {"ios": "https://dc.lft.to/lastmile_qr_scan", "android": "https://dc.lft.to/lastmile_qr_scan"}, "is_reserved": 0}, {"lon": -77.07938766666666, "bike_id": "b1ced5c68032c2f504e808237da90b66", "lat": 38.930753833333334, "fusion_lon": 0.0, "fusion_lat": 0.0, "type": "electric_scooter", "name": "b1ced5c68032c2f504e808237da90b66", "is_disabled": 0, "rental_uris": {"ios": "https://dc.lft.to/lastmile_qr_scan", "android": "https://dc.lft.to/lastmile_qr_scan"}, "is_reserved": 0}, {"lon": -77.031092, "bike_id": "c31bf26356240c95cb8952228d8dc640", "lat": 38.915629, "fusion_lon": 0.0, "fusion_lat": 0.0, "type": "electric_scooter", "name": "c31bf26356240c95cb8952228d8dc640", "is_disabled": 0, "rental_uris": {"ios": "https://dc.lft.to/lastmile_qr_scan", "android": "https://dc.lft.to/lastmile_qr_scan"}, "is_reserved": 0}, {"lon": -77.03063866666666, "bike_id": "907c79893d8c0c5af343863059604199", "lat": 38.92257133333333, "fusion_lon": 0.0, "fusion_lat": 0.0, "type": "electric_scooter", "name": "907c79893d8c0c5af343863059604199", "is_disabled": 0, "rental_uris": {"ios": "https://dc.lft.to/lastmile_qr_scan", "android": "https://dc.lft.to/lastmile_qr_scan"}, "is_reserved": 0}, {"lon": -77.0292175, "bike_id": "5ba771c42a7d710c242d0b5c248ba12f", "lat": 38.934612333333334, "fusion_lon": 0.0, "fusion_lat": 0.0, "type": "electric_scooter", "name": "5ba771c42a7d710c242d0b5c248ba12f", "is_disabled": 0, "rental_uris": {"ios": "https://dc.lft.to/lastmile_qr_scan", "android": "https://dc.lft.to/lastmile_qr_scan"}, "is_reserved": 0}, {"lon": -76.98783366666666, "bike_id": "555fe1c6695a97f4115c6f9c4f0d79ce", "lat": 38.8673085, "fusion_lon": 0.0, "fusion_lat": 0.0, "type": "electric_scooter", "name": "555fe1c6695a97f4115c6f9c4f0d79ce", "is_disabled": 0, "rental_uris": {"ios": "https://dc.lft.to/lastmile_qr_scan", "android": "https://dc.lft.to/lastmile_qr_scan"}, "is_reserved": 0}, {"lon": -76.981516, "bike_id": "a811156e54c2658cfb23bf98db4ee52a", "lat": 38.903215833333334, "fusion_lon": 0.0, "fusion_lat": 0.0, "type": "electric_scooter", "name": "a811156e54c2658cfb23bf98db4ee52a", "is_disabled": 0, "rental_uris": {"ios": "https://dc.lft.to/lastmile_qr_scan", "android": "https://dc.lft.to/lastmile_qr_scan"}, "is_reserved": 0}, {"lon": -77.02961133333334, "bike_id": "53ac799ce650ba4709a4a71203680789", "lat": 38.916760833333335, "fusion_lon": 0.0, "fusion_lat": 0.0, "type": "electric_scooter", "name": "53ac799ce650ba4709a4a71203680789", "is_disabled": 0, "rental_uris": {"ios": "https://dc.lft.to/lastmile_qr_scan", "android": "https://dc.lft.to/lastmile_qr_scan"}, "is_reserved": 0}, {"lon": -76.9885825, "bike_id": "08af19c97d482718954743f6227395fb", "lat": 38.89165716666667, "fusion_lon": 0.0, "fusion_lat": 0.0, "type": "electric_scooter", "name": "08af19c97d482718954743f6227395fb", "is_disabled": 0, "rental_uris": {"ios": "https://dc.lft.to/lastmile_qr_scan", "android": "https://dc.lft.to/lastmile_qr_scan"}, "is_reserved": 0}, {"lon": -77.028997, "bike_id": "c9405f231413923cf32c3cef6a14da56", "lat": 38.91682016666667, "fusion_lon": 0.0, "fusion_lat": 0.0, "type": "electric_scooter", "name": "c9405f231413923cf32c3cef6a14da56", "is_disabled": 0, "rental_uris": {"ios": "https://dc.lft.to/lastmile_qr_scan", "android": "https://dc.lft.to/lastmile_qr_scan"}, "is_reserved": 0}, {"lon": -77.03826283333333, "bike_id": "2d251881c0cb5a3d5f91c9a75a2d18b8", "lat": 38.9067545, "fusion_lon": 0.0, "fusion_lat": 0.0, "type": "electric_scooter", "name": "2d251881c0cb5a3d5f91c9a75a2d18b8", "is_disabled": 0, "rental_uris": {"ios": "https://dc.lft.to/lastmile_qr_scan", "android": "https://dc.lft.to/lastmile_qr_scan"}, "is_reserved": 0}, {"lon": -76.97672266666666, "bike_id": "377b2d189789e1474eace79a49c7c1de", "lat": 38.952471, "fusion_lon": 0.0, "fusion_lat": 0.0, "type": "electric_bike", "name": "377b2d189789e1474eace79a49c7c1de", "is_disabled": 0, "rental_uris": {"ios": "https://dc.lft.to/lastmile_qr_scan", "android": "https://dc.lft.to/lastmile_qr_scan"}, "is_reserved": 0}, {"lon": -77.02834983333334, "bike_id": "e06e2a3a03fd4780f8d23aa1acc76556", "lat": 38.932758166666666, "fusion_lon": 0.0, "fusion_lat": 0.0, "type": "electric_scooter", "name": "e06e2a3a03fd4780f8d23aa1acc76556", "is_disabled": 0, "rental_uris": {"ios": "https://dc.lft.to/lastmile_qr_scan", "android": "https://dc.lft.to/lastmile_qr_scan"}, "is_reserved": 0}, {"lon": -77.07121533333333, "bike_id": "7bee762a3aef72844a9a9549d066dcd4", "lat": 38.9197295, "fusion_lon": 0.0, "fusion_lat": 0.0, "type": "electric_scooter", "name": "7bee762a3aef72844a9a9549d066dcd4", "is_disabled": 0, "rental_uris": {"ios": "https://dc.lft.to/lastmile_qr_scan", "android": "https://dc.lft.to/lastmile_qr_scan"}, "is_reserved": 0}, {"lon": -77.00985416666667, "bike_id": "ba9ed53330e01b1f05237f5cf797cf9a", "lat": 38.87289666666667, "fusion_lon": 0.0, "fusion_lat": 0.0, "type": "electric_scooter", "name": "ba9ed53330e01b1f05237f5cf797cf9a", "is_disabled": 0, "rental_uris": {"ios": "https://dc.lft.to/lastmile_qr_scan", "android": "https://dc.lft.to/lastmile_qr_scan"}, "is_reserved": 0}, {"lon": -77.018087, "bike_id": "a82281b17288207f27f878cafc070868", "lat": 38.92121916666667, "fusion_lon": 0.0, "fusion_lat": 0.0, "type": "electric_scooter", "name": "a82281b17288207f27f878cafc070868", "is_disabled": 0, "rental_uris": {"ios": "https://dc.lft.to/lastmile_qr_scan", "android": "https://dc.lft.to/lastmile_qr_scan"}, "is_reserved": 0}, {"lon": -76.9950105, "bike_id": "bb4e05f33c44c4bcbb38397ab85b5b58", "lat": 38.932367166666666, "fusion_lon": 0.0, "fusion_lat": 0.0, "type": "electric_scooter", "name": "bb4e05f33c44c4bcbb38397ab85b5b58", "is_disabled": 0, "rental_uris": {"ios": "https://dc.lft.to/lastmile_qr_scan", "android": "https://dc.lft.to/lastmile_qr_scan"}, "is_reserved": 0}, {"lon": -77.03496883333334, "bike_id": "cba3f8ebc34b8c1206c828e00a3a6f9a", "lat": 38.912600833333336, "fusion_lon": 0.0, "fusion_lat": 0.0, "type": "electric_scooter", "name": "cba3f8ebc34b8c1206c828e00a3a6f9a", "is_disabled": 0, "rental_uris": {"ios": "https://dc.lft.to/lastmile_qr_scan", "android": "https://dc.lft.to/lastmile_qr_scan"}, "is_reserved": 0}, {"lon": -77.02822583333334, "bike_id": "fd82d1f325746387c193019168ba225d", "lat": 38.88735466666667, "fusion_lon": 0.0, "fusion_lat": 0.0, "type": "electric_scooter", "name": "fd82d1f325746387c193019168ba225d", "is_disabled": 0, "rental_uris": {"ios": "https://dc.lft.to/lastmile_qr_scan", "android": "https://dc.lft.to/lastmile_qr_scan"}, "is_reserved": 0}, {"lon": -76.9754905, "bike_id": "99430a8f8b369ee91621acd9b8c2fc02", "lat": 38.90322183333333, "fusion_lon": 0.0, "fusion_lat": 0.0, "type": "electric_scooter", "name": "99430a8f8b369ee91621acd9b8c2fc02", "is_disabled": 0, "rental_uris": {"ios": "https://dc.lft.to/lastmile_qr_scan", "android": "https://dc.lft.to/lastmile_qr_scan"}, "is_reserved": 0}, {"lon": -76.97392316666667, "bike_id": "0daaabd6be2ccafe7b4b23cd41b244ca", "lat": 38.90556866666667, "fusion_lon": 0.0, "fusion_lat": 0.0, "type": "electric_scooter", "name": "0daaabd6be2ccafe7b4b23cd41b244ca", "is_disabled": 0, "rental_uris": {"ios": "https://dc.lft.to/lastmile_qr_scan", "android": "https://dc.lft.to/lastmile_qr_scan"}, "is_reserved": 0}, {"lon": -77.03506866666666, "bike_id": "066dfb2c7155374cac1c010321569474", "lat": 38.937516, "fusion_lon": 0.0, "fusion_lat": 0.0, "type": "electric_scooter", "name": "066dfb2c7155374cac1c010321569474", "is_disabled": 0, "rental_uris": {"ios": "https://dc.lft.to/lastmile_qr_scan", "android": "https://dc.lft.to/lastmile_qr_scan"}, "is_reserved": 0}, {"lon": -76.98349416666667, "bike_id": "25ac7da21001eeb11a27f03145ce0484", "lat": 38.8876695, "fusion_lon": 0.0, "fusion_lat": 0.0, "type": "electric_scooter", "name": "25ac7da21001eeb11a27f03145ce0484", "is_disabled": 0, "rental_uris": {"ios": "https://dc.lft.to/lastmile_qr_scan", "android": "https://dc.lft.to/lastmile_qr_scan"}, "is_reserved": 0}, {"lon": -77.03424766666667, "bike_id": "7782053eebd8590ef0280ad61a822125", "lat": 38.922414833333335, "fusion_lon": 0.0, "fusion_lat": 0.0, "type": "electric_scooter", "name": "7782053eebd8590ef0280ad61a822125", "is_disabled": 0, "rental_uris": {"ios": "https://dc.lft.to/lastmile_qr_scan", "android": "https://dc.lft.to/lastmile_qr_scan"}, "is_reserved": 0}, {"lon": -77.03848016666667, "bike_id": "945bbca6198a69ef852b8b72b5decfd7", "lat": 38.916592666666666, "fusion_lon": 0.0, "fusion_lat": 0.0, "type": "electric_scooter", "name": "945bbca6198a69ef852b8b72b5decfd7", "is_disabled": 0, "rental_uris": {"ios": "https://dc.lft.to/lastmile_qr_scan", "android": "https://dc.lft.to/lastmile_qr_scan"}, "is_reserved": 0}, {"lon": -77.02395066666666, "bike_id": "046ed5c62a7eb8a673cca10cfdddff05", "lat": 38.927557666666665, "fusion_lon": 0.0, "fusion_lat": 0.0, "type": "electric_scooter", "name": "046ed5c62a7eb8a673cca10cfdddff05", "is_disabled": 0, "rental_uris": {"ios": "https://dc.lft.to/lastmile_qr_scan", "android": "https://dc.lft.to/lastmile_qr_scan"}, "is_reserved": 0}, {"lon": -77.02302683333333, "bike_id": "622949a0d4bd7befbbe4326ce70f2a1a", "lat": 38.94087183333333, "fusion_lon": 0.0, "fusion_lat": 0.0, "type": "electric_scooter", "name": "622949a0d4bd7befbbe4326ce70f2a1a", "is_disabled": 0, "rental_uris": {"ios": "https://dc.lft.to/lastmile_qr_scan", "android": "https://dc.lft.to/lastmile_qr_scan"}, "is_reserved": 0}, {"lon": -77.084586, "bike_id": "decf3a6f953484e3873fab0ada9612be", "lat": 38.848171666666666, "fusion_lon": 0.0, "fusion_lat": 0.0, "type": "electric_bike", "name": "decf3a6f953484e3873fab0ada9612be", "is_disabled": 0, "rental_uris": {"ios": "https://dc.lft.to/lastmile_qr_scan", "android": "https://dc.lft.to/lastmile_qr_scan"}, "is_reserved": 0}, {"lon": -77.06340766666666, "bike_id": "ecc376a9d2ecbb27cbfa946a898192d1", "lat": 38.90684183333333, "fusion_lon": 0.0, "fusion_lat": 0.0, "type": "electric_scooter", "name": "ecc376a9d2ecbb27cbfa946a898192d1", "is_disabled": 0, "rental_uris": {"ios": "https://dc.lft.to/lastmile_qr_scan", "android": "https://dc.lft.to/lastmile_qr_scan"}, "is_reserved": 0}, {"lon": -76.94635966666667, "bike_id": "5c1f0eb65edba60bddb488a995b1f5ce", "lat": 38.89832533333333, "fusion_lon": 0.0, "fusion_lat": 0.0, "type": "electric_scooter", "name": "5c1f0eb65edba60bddb488a995b1f5ce", "is_disabled": 0, "rental_uris": {"ios": "https://dc.lft.to/lastmile_qr_scan", "android": "https://dc.lft.to/lastmile_qr_scan"}, "is_reserved": 0}, {"lon": -77.0213955, "bike_id": "4b698d7309f1a6118cd307c01a5c2ab0", "lat": 38.89701216666667, "fusion_lon": 0.0, "fusion_lat": 0.0, "type": "electric_scooter", "name": "4b698d7309f1a6118cd307c01a5c2ab0", "is_disabled": 0, "rental_uris": {"ios": "https://dc.lft.to/lastmile_qr_scan", "android": "https://dc.lft.to/lastmile_qr_scan"}, "is_reserved": 0}, {"lon": -77.02698283333334, "bike_id": "369f679d9c01a406f0c5db5f6595d89c", "lat": 38.8972995, "fusion_lon": 0.0, "fusion_lat": 0.0, "type": "electric_scooter", "name": "369f679d9c01a406f0c5db5f6595d89c", "is_disabled": 0, "rental_uris": {"ios": "https://dc.lft.to/lastmile_qr_scan", "android": "https://dc.lft.to/lastmile_qr_scan"}, "is_reserved": 0}, {"lon": -77.022886, "bike_id": "73a4c9797f91dfb71628ef485fec798f", "lat": 38.91673266666667, "fusion_lon": 0.0, "fusion_lat": 0.0, "type": "electric_scooter", "name": "73a4c9797f91dfb71628ef485fec798f", "is_disabled": 0, "rental_uris": {"ios": "https://dc.lft.to/lastmile_qr_scan", "android": "https://dc.lft.to/lastmile_qr_scan"}, "is_reserved": 0}, {"lon": -77.01896533333333, "bike_id": "d7808548398bcd554173f80b211a73a2", "lat": 38.90441966666667, "fusion_lon": 0.0, "fusion_lat": 0.0, "type": "electric_scooter", "name": "d7808548398bcd554173f80b211a73a2", "is_disabled": 0, "rental_uris": {"ios": "https://dc.lft.to/lastmile_qr_scan", "android": "https://dc.lft.to/lastmile_qr_scan"}, "is_reserved": 0}, {"lon": -77.0296525, "bike_id": "41c19c315057c30eacafc3b24a45f724", "lat": 38.9047245, "fusion_lon": 0.0, "fusion_lat": 0.0, "type": "electric_scooter", "name": "41c19c315057c30eacafc3b24a45f724", "is_disabled": 0, "rental_uris": {"ios": "https://dc.lft.to/lastmile_qr_scan", "android": "https://dc.lft.to/lastmile_qr_scan"}, "is_reserved": 0}, {"lon": -76.97326633333333, "bike_id": "6262397db971f98d2a7c3d6c098fdd20", "lat": 38.90483166666667, "fusion_lon": 0.0, "fusion_lat": 0.0, "type": "electric_bike", "name": "6262397db971f98d2a7c3d6c098fdd20", "is_disabled": 0, "rental_uris": {"ios": "https://dc.lft.to/lastmile_qr_scan", "android": "https://dc.lft.to/lastmile_qr_scan"}, "is_reserved": 0}, {"lon": -77.02814683333334, "bike_id": "44d02ab79753a8031d3eb5ec6e34b123", "lat": 38.9316965, "fusion_lon": 0.0, "fusion_lat": 0.0, "type": "electric_scooter", "name": "44d02ab79753a8031d3eb5ec6e34b123", "is_disabled": 0, "rental_uris": {"ios": "https://dc.lft.to/lastmile_qr_scan", "android": "https://dc.lft.to/lastmile_qr_scan"}, "is_reserved": 0}, {"lon": -77.0445965, "bike_id": "0328cb40d269bec645d1174448af9c3b", "lat": 38.905367166666665, "fusion_lon": 0.0, "fusion_lat": 0.0, "type": "electric_scooter", "name": "0328cb40d269bec645d1174448af9c3b", "is_disabled": 0, "rental_uris": {"ios": "https://dc.lft.to/lastmile_qr_scan", "android": "https://dc.lft.to/lastmile_qr_scan"}, "is_reserved": 0}, {"lon": -77.03284183333334, "bike_id": "98360a540b6a2c3ec478668744d395f8", "lat": 38.93489833333334, "fusion_lon": 0.0, "fusion_lat": 0.0, "type": "electric_scooter", "name": "98360a540b6a2c3ec478668744d395f8", "is_disabled": 0, "rental_uris": {"ios": "https://dc.lft.to/lastmile_qr_scan", "android": "https://dc.lft.to/lastmile_qr_scan"}, "is_reserved": 0}, {"lon": -77.0222385, "bike_id": "2f254863f5cf244246aa6eda4eec85a9", "lat": 38.89323266666667, "fusion_lon": 0.0, "fusion_lat": 0.0, "type": "electric_scooter", "name": "2f254863f5cf244246aa6eda4eec85a9", "is_disabled": 0, "rental_uris": {"ios": "https://dc.lft.to/lastmile_qr_scan", "android": "https://dc.lft.to/lastmile_qr_scan"}, "is_reserved": 0}, {"lon": -77.08190433333333, "bike_id": "43a6b25f446c2aeff243cbb5a6603768", "lat": 38.93521066666667, "fusion_lon": 0.0, "fusion_lat": 0.0, "type": "electric_scooter", "name": "43a6b25f446c2aeff243cbb5a6603768", "is_disabled": 0, "rental_uris": {"ios": "https://dc.lft.to/lastmile_qr_scan", "android": "https://dc.lft.to/lastmile_qr_scan"}, "is_reserved": 0}, {"lon": -77.05211783333333, "bike_id": "b93c7dec4da33e9c7907ab4d4eb14836", "lat": 38.9248225, "fusion_lon": 0.0, "fusion_lat": 0.0, "type": "electric_scooter", "name": "b93c7dec4da33e9c7907ab4d4eb14836", "is_disabled": 0, "rental_uris": {"ios": "https://dc.lft.to/lastmile_qr_scan", "android": "https://dc.lft.to/lastmile_qr_scan"}, "is_reserved": 0}, {"lon": -77.02782733333333, "bike_id": "22378e7f68fec228ed91f311c2c1dbc3", "lat": 38.8922065, "fusion_lon": 0.0, "fusion_lat": 0.0, "type": "electric_scooter", "name": "22378e7f68fec228ed91f311c2c1dbc3", "is_disabled": 0, "rental_uris": {"ios": "https://dc.lft.to/lastmile_qr_scan", "android": "https://dc.lft.to/lastmile_qr_scan"}, "is_reserved": 0}, {"lon": -76.930304, "bike_id": "a125cd6ba79401a3b0723c8ba52160e8", "lat": 38.90011716666667, "fusion_lon": 0.0, "fusion_lat": 0.0, "type": "electric_scooter", "name": "a125cd6ba79401a3b0723c8ba52160e8", "is_disabled": 0, "rental_uris": {"ios": "https://dc.lft.to/lastmile_qr_scan", "android": "https://dc.lft.to/lastmile_qr_scan"}, "is_reserved": 0}, {"lon": -77.0333855, "bike_id": "6e7a72c0f343f50e8d65ed4343362294", "lat": 38.93785916666667, "fusion_lon": 0.0, "fusion_lat": 0.0, "type": "electric_scooter", "name": "6e7a72c0f343f50e8d65ed4343362294", "is_disabled": 0, "rental_uris": {"ios": "https://dc.lft.to/lastmile_qr_scan", "android": "https://dc.lft.to/lastmile_qr_scan"}, "is_reserved": 0}, {"lon": -77.04191566666667, "bike_id": "f3b943b23ec2984c67072513a966fbf7", "lat": 38.9111945, "fusion_lon": 0.0, "fusion_lat": 0.0, "type": "electric_scooter", "name": "f3b943b23ec2984c67072513a966fbf7", "is_disabled": 0, "rental_uris": {"ios": "https://dc.lft.to/lastmile_qr_scan", "android": "https://dc.lft.to/lastmile_qr_scan"}, "is_reserved": 0}, {"lon": -77.058606, "bike_id": "a9535160c7084c7f1f0f11cc4786a1c0", "lat": 38.93601783333333, "fusion_lon": 0.0, "fusion_lat": 0.0, "type": "electric_scooter", "name": "a9535160c7084c7f1f0f11cc4786a1c0", "is_disabled": 0, "rental_uris": {"ios": "https://dc.lft.to/lastmile_qr_scan", "android": "https://dc.lft.to/lastmile_qr_scan"}, "is_reserved": 0}, {"lon": -76.91599, "bike_id": "68606fe8f73f480b3f02bbb59ada48ec", "lat": 38.87983666666667, "fusion_lon": 0.0, "fusion_lat": 0.0, "type": "electric_bike", "name": "68606fe8f73f480b3f02bbb59ada48ec", "is_disabled": 0, "rental_uris": {"ios": "https://dc.lft.to/lastmile_qr_scan", "android": "https://dc.lft.to/lastmile_qr_scan"}, "is_reserved": 0}, {"lon": -76.9733245, "bike_id": "3cf32df05d652d76b9d26301bb325d4d", "lat": 38.86516, "fusion_lon": 0.0, "fusion_lat": 0.0, "type": "electric_bike", "name": "3cf32df05d652d76b9d26301bb325d4d", "is_disabled": 0, "rental_uris": {"ios": "https://dc.lft.to/lastmile_qr_scan", "android": "https://dc.lft.to/lastmile_qr_scan"}, "is_reserved": 0}, {"lon": -77.03337566666667, "bike_id": "c9f6b9ca629d855fb80428d50596d48f", "lat": 38.898949333333334, "fusion_lon": 0.0, "fusion_lat": 0.0, "type": "electric_scooter", "name": "c9f6b9ca629d855fb80428d50596d48f", "is_disabled": 0, "rental_uris": {"ios": "https://dc.lft.to/lastmile_qr_scan", "android": "https://dc.lft.to/lastmile_qr_scan"}, "is_reserved": 0}, {"lon": -77.035248, "bike_id": "ae9a0fc97deed5f93c63312ef582a0c0", "lat": 38.921405166666666, "fusion_lon": 0.0, "fusion_lat": 0.0, "type": "electric_scooter", "name": "ae9a0fc97deed5f93c63312ef582a0c0", "is_disabled": 0, "rental_uris": {"ios": "https://dc.lft.to/lastmile_qr_scan", "android": "https://dc.lft.to/lastmile_qr_scan"}, "is_reserved": 0}, {"lon": -77.00602166666667, "bike_id": "60789964de2d7e348c398804096eaa89", "lat": 38.9054885, "fusion_lon": 0.0, "fusion_lat": 0.0, "type": "electric_scooter", "name": "60789964de2d7e348c398804096eaa89", "is_disabled": 0, "rental_uris": {"ios": "https://dc.lft.to/lastmile_qr_scan", "android": "https://dc.lft.to/lastmile_qr_scan"}, "is_reserved": 0}, {"lon": -76.98083533333333, "bike_id": "72726ab161d04c9477d9fd6b3a1f91ed", "lat": 38.88423566666667, "fusion_lon": 0.0, "fusion_lat": 0.0, "type": "electric_scooter", "name": "72726ab161d04c9477d9fd6b3a1f91ed", "is_disabled": 0, "rental_uris": {"ios": "https://dc.lft.to/lastmile_qr_scan", "android": "https://dc.lft.to/lastmile_qr_scan"}, "is_reserved": 0}, {"lon": -77.04269, "bike_id": "be0508ad7320eea3859e976c23394622", "lat": 38.91645, "fusion_lon": 0.0, "fusion_lat": 0.0, "type": "electric_scooter", "name": "be0508ad7320eea3859e976c23394622", "is_disabled": 0, "rental_uris": {"ios": "https://dc.lft.to/lastmile_qr_scan", "android": "https://dc.lft.to/lastmile_qr_scan"}, "is_reserved": 0}, {"lon": -77.034994, "bike_id": "82a72c19f9514705ef79146e60f974fb", "lat": 38.92146183333333, "fusion_lon": 0.0, "fusion_lat": 0.0, "type": "electric_scooter", "name": "82a72c19f9514705ef79146e60f974fb", "is_disabled": 0, "rental_uris": {"ios": "https://dc.lft.to/lastmile_qr_scan", "android": "https://dc.lft.to/lastmile_qr_scan"}, "is_reserved": 0}, {"lon": -76.985581, "bike_id": "a5f1ed0a515e5da418fa121f48640f54", "lat": 38.9091605, "fusion_lon": 0.0, "fusion_lat": 0.0, "type": "electric_scooter", "name": "a5f1ed0a515e5da418fa121f48640f54", "is_disabled": 0, "rental_uris": {"ios": "https://dc.lft.to/lastmile_qr_scan", "android": "https://dc.lft.to/lastmile_qr_scan"}, "is_reserved": 0}, {"lon": -77.0708275, "bike_id": "d41f0794a8dfe2448ba8635b30bb023e", "lat": 38.9325965, "fusion_lon": 0.0, "fusion_lat": 0.0, "type": "electric_scooter", "name": "d41f0794a8dfe2448ba8635b30bb023e", "is_disabled": 0, "rental_uris": {"ios": "https://dc.lft.to/lastmile_qr_scan", "android": "https://dc.lft.to/lastmile_qr_scan"}, "is_reserved": 0}, {"lon": -77.031883, "bike_id": "a74e056da35383e350b793ced5104e5b", "lat": 38.928615, "fusion_lon": 0.0, "fusion_lat": 0.0, "type": "electric_scooter", "name": "a74e056da35383e350b793ced5104e5b", "is_disabled": 0, "rental_uris": {"ios": "https://dc.lft.to/lastmile_qr_scan", "android": "https://dc.lft.to/lastmile_qr_scan"}, "is_reserved": 0}, {"lon": -77.016996, "bike_id": "50c9c70c0c7de0226f1710506f33e117", "lat": 38.879231833333336, "fusion_lon": 0.0, "fusion_lat": 0.0, "type": "electric_scooter", "name": "50c9c70c0c7de0226f1710506f33e117", "is_disabled": 0, "rental_uris": {"ios": "https://dc.lft.to/lastmile_qr_scan", "android": "https://dc.lft.to/lastmile_qr_scan"}, "is_reserved": 0}, {"lon": -77.0289835, "bike_id": "5b73004dbb314624ffb94ae10f1fb4e2", "lat": 38.91698566666667, "fusion_lon": 0.0, "fusion_lat": 0.0, "type": "electric_scooter", "name": "5b73004dbb314624ffb94ae10f1fb4e2", "is_disabled": 0, "rental_uris": {"ios": "https://dc.lft.to/lastmile_qr_scan", "android": "https://dc.lft.to/lastmile_qr_scan"}, "is_reserved": 0}, {"lon": -77.03064133333334, "bike_id": "d613daa9b525e10550ce52639cb1d52a", "lat": 38.9169495, "fusion_lon": 0.0, "fusion_lat": 0.0, "type": "electric_scooter", "name": "d613daa9b525e10550ce52639cb1d52a", "is_disabled": 0, "rental_uris": {"ios": "https://dc.lft.to/lastmile_qr_scan", "android": "https://dc.lft.to/lastmile_qr_scan"}, "is_reserved": 0}, {"lon": -77.01996416666667, "bike_id": "c5633969128564f8fd149f062afd4c52", "lat": 38.915322, "fusion_lon": 0.0, "fusion_lat": 0.0, "type": "electric_scooter", "name": "c5633969128564f8fd149f062afd4c52", "is_disabled": 0, "rental_uris": {"ios": "https://dc.lft.to/lastmile_qr_scan", "android": "https://dc.lft.to/lastmile_qr_scan"}, "is_reserved": 0}, {"lon": -77.05861333333333, "bike_id": "22b9f7b84b8c18d235b06fb06060012d", "lat": 38.9354655, "fusion_lon": 0.0, "fusion_lat": 0.0, "type": "electric_scooter", "name": "22b9f7b84b8c18d235b06fb06060012d", "is_disabled": 0, "rental_uris": {"ios": "https://dc.lft.to/lastmile_qr_scan", "android": "https://dc.lft.to/lastmile_qr_scan"}, "is_reserved": 0}, {"lon": -77.04187, "bike_id": "3ee9ddd65d26b89917798bbd146d56a4", "lat": 38.89976166666667, "fusion_lon": 0.0, "fusion_lat": 0.0, "type": "electric_scooter", "name": "3ee9ddd65d26b89917798bbd146d56a4", "is_disabled": 0, "rental_uris": {"ios": "https://dc.lft.to/lastmile_qr_scan", "android": "https://dc.lft.to/lastmile_qr_scan"}, "is_reserved": 0}, {"lon": -77.02208266666666, "bike_id": "b9ee733fdd15aaa5bf7d5b6f5c41f328", "lat": 38.8874135, "fusion_lon": 0.0, "fusion_lat": 0.0, "type": "electric_scooter", "name": "b9ee733fdd15aaa5bf7d5b6f5c41f328", "is_disabled": 0, "rental_uris": {"ios": "https://dc.lft.to/lastmile_qr_scan", "android": "https://dc.lft.to/lastmile_qr_scan"}, "is_reserved": 0}, {"lon": -76.97322883333334, "bike_id": "b7a6593f3e0dc1d1c82168f074e96ef9", "lat": 38.904766, "fusion_lon": 0.0, "fusion_lat": 0.0, "type": "electric_bike", "name": "b7a6593f3e0dc1d1c82168f074e96ef9", "is_disabled": 0, "rental_uris": {"ios": "https://dc.lft.to/lastmile_qr_scan", "android": "https://dc.lft.to/lastmile_qr_scan"}, "is_reserved": 0}, {"lon": -77.04182866666666, "bike_id": "84646e6f129822b848366820d8fedf6d", "lat": 38.91982983333333, "fusion_lon": 0.0, "fusion_lat": 0.0, "type": "electric_scooter", "name": "84646e6f129822b848366820d8fedf6d", "is_disabled": 0, "rental_uris": {"ios": "https://dc.lft.to/lastmile_qr_scan", "android": "https://dc.lft.to/lastmile_qr_scan"}, "is_reserved": 0}, {"lon": -77.03831733333334, "bike_id": "6977e5cae0e68baa6c9a19600e8a0456", "lat": 38.9104575, "fusion_lon": 0.0, "fusion_lat": 0.0, "type": "electric_scooter", "name": "6977e5cae0e68baa6c9a19600e8a0456", "is_disabled": 0, "rental_uris": {"ios": "https://dc.lft.to/lastmile_qr_scan", "android": "https://dc.lft.to/lastmile_qr_scan"}, "is_reserved": 0}, {"lon": -77.0257325, "bike_id": "d0b0cf38222cb7611ed4c9c47d3a098d", "lat": 38.883021666666664, "fusion_lon": 0.0, "fusion_lat": 0.0, "type": "electric_scooter", "name": "d0b0cf38222cb7611ed4c9c47d3a098d", "is_disabled": 0, "rental_uris": {"ios": "https://dc.lft.to/lastmile_qr_scan", "android": "https://dc.lft.to/lastmile_qr_scan"}, "is_reserved": 0}, {"lon": -77.04848683333333, "bike_id": "74a5127a3e058cdb6a1613e2b26ddae2", "lat": 38.91517483333333, "fusion_lon": 0.0, "fusion_lat": 0.0, "type": "electric_scooter", "name": "74a5127a3e058cdb6a1613e2b26ddae2", "is_disabled": 0, "rental_uris": {"ios": "https://dc.lft.to/lastmile_qr_scan", "android": "https://dc.lft.to/lastmile_qr_scan"}, "is_reserved": 0}, {"lon": -77.02396316666666, "bike_id": "6c5ac375fc9b0cf0c355cdb30e0f6936", "lat": 38.8813485, "fusion_lon": 0.0, "fusion_lat": 0.0, "type": "electric_scooter", "name": "6c5ac375fc9b0cf0c355cdb30e0f6936", "is_disabled": 0, "rental_uris": {"ios": "https://dc.lft.to/lastmile_qr_scan", "android": "https://dc.lft.to/lastmile_qr_scan"}, "is_reserved": 0}, {"lon": -77.0398825, "bike_id": "b25f93fb3fa7212d106f790938146f31", "lat": 38.93336433333333, "fusion_lon": 0.0, "fusion_lat": 0.0, "type": "electric_scooter", "name": "b25f93fb3fa7212d106f790938146f31", "is_disabled": 0, "rental_uris": {"ios": "https://dc.lft.to/lastmile_qr_scan", "android": "https://dc.lft.to/lastmile_qr_scan"}, "is_reserved": 0}, {"lon": -77.03287316666666, "bike_id": "50bff01b2a50c0219c37521db8839819", "lat": 38.95648033333333, "fusion_lon": 0.0, "fusion_lat": 0.0, "type": "electric_scooter", "name": "50bff01b2a50c0219c37521db8839819", "is_disabled": 0, "rental_uris": {"ios": "https://dc.lft.to/lastmile_qr_scan", "android": "https://dc.lft.to/lastmile_qr_scan"}, "is_reserved": 0}, {"lon": -76.99790783333333, "bike_id": "0d22a17b88e1f13ef5c7db2c441babae", "lat": 38.95643466666667, "fusion_lon": 0.0, "fusion_lat": 0.0, "type": "electric_bike", "name": "0d22a17b88e1f13ef5c7db2c441babae", "is_disabled": 0, "rental_uris": {"ios": "https://dc.lft.to/lastmile_qr_scan", "android": "https://dc.lft.to/lastmile_qr_scan"}, "is_reserved": 0}, {"lon": -77.01605183333334, "bike_id": "c5cfbf54d811907f980e5afd49445e7f", "lat": 38.899577666666666, "fusion_lon": 0.0, "fusion_lat": 0.0, "type": "electric_scooter", "name": "c5cfbf54d811907f980e5afd49445e7f", "is_disabled": 0, "rental_uris": {"ios": "https://dc.lft.to/lastmile_qr_scan", "android": "https://dc.lft.to/lastmile_qr_scan"}, "is_reserved": 0}, {"lon": -77.032632, "bike_id": "913c6fe336d2c2d377dbf6bd899f926d", "lat": 38.932105166666666, "fusion_lon": 0.0, "fusion_lat": 0.0, "type": "electric_scooter", "name": "913c6fe336d2c2d377dbf6bd899f926d", "is_disabled": 0, "rental_uris": {"ios": "https://dc.lft.to/lastmile_qr_scan", "android": "https://dc.lft.to/lastmile_qr_scan"}, "is_reserved": 0}, {"lon": -77.0275305, "bike_id": "b5fb8b1dfa9eabd4824cc581cb9dc2a6", "lat": 38.91687, "fusion_lon": 0.0, "fusion_lat": 0.0, "type": "electric_scooter", "name": "b5fb8b1dfa9eabd4824cc581cb9dc2a6", "is_disabled": 0, "rental_uris": {"ios": "https://dc.lft.to/lastmile_qr_scan", "android": "https://dc.lft.to/lastmile_qr_scan"}, "is_reserved": 0}, {"lon": -77.00380683333333, "bike_id": "5345c454753721c2f9796a383ca61c8a", "lat": 38.8359815, "fusion_lon": 0.0, "fusion_lat": 0.0, "type": "electric_bike", "name": "5345c454753721c2f9796a383ca61c8a", "is_disabled": 0, "rental_uris": {"ios": "https://dc.lft.to/lastmile_qr_scan", "android": "https://dc.lft.to/lastmile_qr_scan"}, "is_reserved": 0}, {"lon": -77.04699833333333, "bike_id": "e3bafe0287722b31c979fd5b0833aa5e", "lat": 38.92173866666667, "fusion_lon": 0.0, "fusion_lat": 0.0, "type": "electric_scooter", "name": "e3bafe0287722b31c979fd5b0833aa5e", "is_disabled": 0, "rental_uris": {"ios": "https://dc.lft.to/lastmile_qr_scan", "android": "https://dc.lft.to/lastmile_qr_scan"}, "is_reserved": 0}, {"lon": -77.04649666666667, "bike_id": "30977aa8b1e8a36c98c8e3cc48d0e954", "lat": 38.914206166666666, "fusion_lon": 0.0, "fusion_lat": 0.0, "type": "electric_scooter", "name": "30977aa8b1e8a36c98c8e3cc48d0e954", "is_disabled": 0, "rental_uris": {"ios": "https://dc.lft.to/lastmile_qr_scan", "android": "https://dc.lft.to/lastmile_qr_scan"}, "is_reserved": 0}, {"lon": -76.992889, "bike_id": "2898b4cad0a8c9e7bc38f816c8d5227a", "lat": 38.8988675, "fusion_lon": 0.0, "fusion_lat": 0.0, "type": "electric_scooter", "name": "2898b4cad0a8c9e7bc38f816c8d5227a", "is_disabled": 0, "rental_uris": {"ios": "https://dc.lft.to/lastmile_qr_scan", "android": "https://dc.lft.to/lastmile_qr_scan"}, "is_reserved": 0}, {"lon": -77.04519683333334, "bike_id": "f79d7530392d780d9e23f191564d52aa", "lat": 38.92315166666667, "fusion_lon": 0.0, "fusion_lat": 0.0, "type": "electric_scooter", "name": "f79d7530392d780d9e23f191564d52aa", "is_disabled": 0, "rental_uris": {"ios": "https://dc.lft.to/lastmile_qr_scan", "android": "https://dc.lft.to/lastmile_qr_scan"}, "is_reserved": 0}, {"lon": -77.02660583333333, "bike_id": "46d48e34236e9b7ad6e7412583547360", "lat": 38.916937833333336, "fusion_lon": 0.0, "fusion_lat": 0.0, "type": "electric_scooter", "name": "46d48e34236e9b7ad6e7412583547360", "is_disabled": 0, "rental_uris": {"ios": "https://dc.lft.to/lastmile_qr_scan", "android": "https://dc.lft.to/lastmile_qr_scan"}, "is_reserved": 0}, {"lon": -77.03558366666667, "bike_id": "df33f2428cd475486f62873202b3b801", "lat": 38.92479, "fusion_lon": 0.0, "fusion_lat": 0.0, "type": "electric_scooter", "name": "df33f2428cd475486f62873202b3b801", "is_disabled": 0, "rental_uris": {"ios": "https://dc.lft.to/lastmile_qr_scan", "android": "https://dc.lft.to/lastmile_qr_scan"}, "is_reserved": 0}, {"lon": -77.0554555, "bike_id": "6f6d90d281496427f0c409ee9b2e3821", "lat": 38.93008283333333, "fusion_lon": 0.0, "fusion_lat": 0.0, "type": "electric_scooter", "name": "6f6d90d281496427f0c409ee9b2e3821", "is_disabled": 0, "rental_uris": {"ios": "https://dc.lft.to/lastmile_qr_scan", "android": "https://dc.lft.to/lastmile_qr_scan"}, "is_reserved": 0}, {"lon": -77.042217, "bike_id": "4311036bf4e2c8b2988d5c6bb660b75f", "lat": 38.91340433333333, "fusion_lon": 0.0, "fusion_lat": 0.0, "type": "electric_scooter", "name": "4311036bf4e2c8b2988d5c6bb660b75f", "is_disabled": 0, "rental_uris": {"ios": "https://dc.lft.to/lastmile_qr_scan", "android": "https://dc.lft.to/lastmile_qr_scan"}, "is_reserved": 0}, {"lon": -77.0374885, "bike_id": "acf88c969bbf26c6cfb38c27d2db68d0", "lat": 38.92918483333333, "fusion_lon": 0.0, "fusion_lat": 0.0, "type": "electric_scooter", "name": "acf88c969bbf26c6cfb38c27d2db68d0", "is_disabled": 0, "rental_uris": {"ios": "https://dc.lft.to/lastmile_qr_scan", "android": "https://dc.lft.to/lastmile_qr_scan"}, "is_reserved": 0}, {"lon": -77.0469425, "bike_id": "756a5adfc4495e80e36929c6894417f2", "lat": 38.921365, "fusion_lon": 0.0, "fusion_lat": 0.0, "type": "electric_scooter", "name": "756a5adfc4495e80e36929c6894417f2", "is_disabled": 0, "rental_uris": {"ios": "https://dc.lft.to/lastmile_qr_scan", "android": "https://dc.lft.to/lastmile_qr_scan"}, "is_reserved": 0}, {"lon": -77.02170733333334, "bike_id": "27e997d386b3fbc15f9d9dbf57aab161", "lat": 38.929973, "fusion_lon": 0.0, "fusion_lat": 0.0, "type": "electric_scooter", "name": "27e997d386b3fbc15f9d9dbf57aab161", "is_disabled": 0, "rental_uris": {"ios": "https://dc.lft.to/lastmile_qr_scan", "android": "https://dc.lft.to/lastmile_qr_scan"}, "is_reserved": 0}, {"lon": -77.025093, "bike_id": "8231c5ff02541cad10b0067f1f41bfaa", "lat": 38.920662666666665, "fusion_lon": 0.0, "fusion_lat": 0.0, "type": "electric_scooter", "name": "8231c5ff02541cad10b0067f1f41bfaa", "is_disabled": 0, "rental_uris": {"ios": "https://dc.lft.to/lastmile_qr_scan", "android": "https://dc.lft.to/lastmile_qr_scan"}, "is_reserved": 0}, {"lon": -77.03257983333333, "bike_id": "c4faf090903ae86efc3f2caaf70fa89e", "lat": 38.93780566666667, "fusion_lon": 0.0, "fusion_lat": 0.0, "type": "electric_scooter", "name": "c4faf090903ae86efc3f2caaf70fa89e", "is_disabled": 0, "rental_uris": {"ios": "https://dc.lft.to/lastmile_qr_scan", "android": "https://dc.lft.to/lastmile_qr_scan"}, "is_reserved": 0}, {"lon": -77.03481166666667, "bike_id": "1ff598fc5b0fd0934c5c94c0313ce5a8", "lat": 38.934367333333334, "fusion_lon": 0.0, "fusion_lat": 0.0, "type": "electric_scooter", "name": "1ff598fc5b0fd0934c5c94c0313ce5a8", "is_disabled": 0, "rental_uris": {"ios": "https://dc.lft.to/lastmile_qr_scan", "android": "https://dc.lft.to/lastmile_qr_scan"}, "is_reserved": 0}, {"lon": -77.03041516666667, "bike_id": "02d014d727141a6608d9889056a144a2", "lat": 38.884312, "fusion_lon": 0.0, "fusion_lat": 0.0, "type": "electric_scooter", "name": "02d014d727141a6608d9889056a144a2", "is_disabled": 0, "rental_uris": {"ios": "https://dc.lft.to/lastmile_qr_scan", "android": "https://dc.lft.to/lastmile_qr_scan"}, "is_reserved": 0}, {"lon": -77.03202016666667, "bike_id": "55504b7456c8c8e3577fb61b9df116fd", "lat": 38.90687833333333, "fusion_lon": 0.0, "fusion_lat": 0.0, "type": "electric_scooter", "name": "55504b7456c8c8e3577fb61b9df116fd", "is_disabled": 0, "rental_uris": {"ios": "https://dc.lft.to/lastmile_qr_scan", "android": "https://dc.lft.to/lastmile_qr_scan"}, "is_reserved": 0}, {"lon": -77.03206766666666, "bike_id": "874ed26f98888ec312e2177a43f9c0e6", "lat": 38.912481166666666, "fusion_lon": 0.0, "fusion_lat": 0.0, "type": "electric_scooter", "name": "874ed26f98888ec312e2177a43f9c0e6", "is_disabled": 0, "rental_uris": {"ios": "https://dc.lft.to/lastmile_qr_scan", "android": "https://dc.lft.to/lastmile_qr_scan"}, "is_reserved": 0}, {"lon": -77.023121, "bike_id": "452ff98a0ab3bcffc70a14bd47664dc2", "lat": 38.89486083333333, "fusion_lon": 0.0, "fusion_lat": 0.0, "type": "electric_scooter", "name": "452ff98a0ab3bcffc70a14bd47664dc2", "is_disabled": 0, "rental_uris": {"ios": "https://dc.lft.to/lastmile_qr_scan", "android": "https://dc.lft.to/lastmile_qr_scan"}, "is_reserved": 0}, {"lon": -76.9980825, "bike_id": "2c66cffa4a51b20138de71a97a594370", "lat": 38.829154333333335, "fusion_lon": 0.0, "fusion_lat": 0.0, "type": "electric_bike", "name": "2c66cffa4a51b20138de71a97a594370", "is_disabled": 0, "rental_uris": {"ios": "https://dc.lft.to/lastmile_qr_scan", "android": "https://dc.lft.to/lastmile_qr_scan"}, "is_reserved": 0}, {"lon": -77.0174335, "bike_id": "a28ecfad3bd92f3b939776b27c6ddda4", "lat": 38.9038955, "fusion_lon": 0.0, "fusion_lat": 0.0, "type": "electric_scooter", "name": "a28ecfad3bd92f3b939776b27c6ddda4", "is_disabled": 0, "rental_uris": {"ios": "https://dc.lft.to/lastmile_qr_scan", "android": "https://dc.lft.to/lastmile_qr_scan"}, "is_reserved": 0}, {"lon": -77.02244566666667, "bike_id": "f19bc5200b994e26b909b75f4747c741", "lat": 38.927345333333335, "fusion_lon": 0.0, "fusion_lat": 0.0, "type": "electric_scooter", "name": "f19bc5200b994e26b909b75f4747c741", "is_disabled": 0, "rental_uris": {"ios": "https://dc.lft.to/lastmile_qr_scan", "android": "https://dc.lft.to/lastmile_qr_scan"}, "is_reserved": 0}, {"lon": -76.9574605, "bike_id": "5ab4f49dd531e21790b108d511b5f103", "lat": 38.884287666666665, "fusion_lon": 0.0, "fusion_lat": 0.0, "type": "electric_scooter", "name": "5ab4f49dd531e21790b108d511b5f103", "is_disabled": 0, "rental_uris": {"ios": "https://dc.lft.to/lastmile_qr_scan", "android": "https://dc.lft.to/lastmile_qr_scan"}, "is_reserved": 0}, {"lon": -77.1170715, "bike_id": "47713d364a91ef9415fe7fad83d56fa0", "lat": 38.86744933333333, "fusion_lon": 0.0, "fusion_lat": 0.0, "type": "electric_bike", "name": "47713d364a91ef9415fe7fad83d56fa0", "is_disabled": 0, "rental_uris": {"ios": "https://dc.lft.to/lastmile_qr_scan", "android": "https://dc.lft.to/lastmile_qr_scan"}, "is_reserved": 0}, {"lon": -77.04193933333333, "bike_id": "59a69dd973913c8e459de2320f77a459", "lat": 38.8998005, "fusion_lon": 0.0, "fusion_lat": 0.0, "type": "electric_scooter", "name": "59a69dd973913c8e459de2320f77a459", "is_disabled": 0, "rental_uris": {"ios": "https://dc.lft.to/lastmile_qr_scan", "android": "https://dc.lft.to/lastmile_qr_scan"}, "is_reserved": 0}, {"lon": -77.0341985, "bike_id": "f8b8dc940cdd9a1315da6f3889ecfa53", "lat": 38.96532466666667, "fusion_lon": 0.0, "fusion_lat": 0.0, "type": "electric_bike", "name": "f8b8dc940cdd9a1315da6f3889ecfa53", "is_disabled": 0, "rental_uris": {"ios": "https://dc.lft.to/lastmile_qr_scan", "android": "https://dc.lft.to/lastmile_qr_scan"}, "is_reserved": 0}, {"lon": -76.94067866666667, "bike_id": "abac7e336372658d15a134a9af63848c", "lat": 38.89321866666667, "fusion_lon": 0.0, "fusion_lat": 0.0, "type": "electric_scooter", "name": "abac7e336372658d15a134a9af63848c", "is_disabled": 0, "rental_uris": {"ios": "https://dc.lft.to/lastmile_qr_scan", "android": "https://dc.lft.to/lastmile_qr_scan"}, "is_reserved": 0}, {"lon": -77.0360455, "bike_id": "9d6f0f1068e541c9b8390203e4e71078", "lat": 38.936853166666666, "fusion_lon": 0.0, "fusion_lat": 0.0, "type": "electric_scooter", "name": "9d6f0f1068e541c9b8390203e4e71078", "is_disabled": 0, "rental_uris": {"ios": "https://dc.lft.to/lastmile_qr_scan", "android": "https://dc.lft.to/lastmile_qr_scan"}, "is_reserved": 0}, {"lon": -77.0230315, "bike_id": "6703bed0000deb722330d46696ed2f06", "lat": 38.917737833333334, "fusion_lon": 0.0, "fusion_lat": 0.0, "type": "electric_scooter", "name": "6703bed0000deb722330d46696ed2f06", "is_disabled": 0, "rental_uris": {"ios": "https://dc.lft.to/lastmile_qr_scan", "android": "https://dc.lft.to/lastmile_qr_scan"}, "is_reserved": 0}, {"lon": -77.03079183333334, "bike_id": "fb0053f81270dd857ec6d0e03a5ffd16", "lat": 38.92023583333334, "fusion_lon": 0.0, "fusion_lat": 0.0, "type": "electric_scooter", "name": "fb0053f81270dd857ec6d0e03a5ffd16", "is_disabled": 0, "rental_uris": {"ios": "https://dc.lft.to/lastmile_qr_scan", "android": "https://dc.lft.to/lastmile_qr_scan"}, "is_reserved": 0}, {"lon": -77.02719283333333, "bike_id": "161c687c07cd6c68c62e8586d79081b2", "lat": 38.90949533333333, "fusion_lon": 0.0, "fusion_lat": 0.0, "type": "electric_scooter", "name": "161c687c07cd6c68c62e8586d79081b2", "is_disabled": 0, "rental_uris": {"ios": "https://dc.lft.to/lastmile_qr_scan", "android": "https://dc.lft.to/lastmile_qr_scan"}, "is_reserved": 0}, {"lon": -77.07623366666667, "bike_id": "1b54a25c7c636657f022c6993c45e6d4", "lat": 38.965771333333336, "fusion_lon": 0.0, "fusion_lat": 0.0, "type": "electric_bike", "name": "1b54a25c7c636657f022c6993c45e6d4", "is_disabled": 0, "rental_uris": {"ios": "https://dc.lft.to/lastmile_qr_scan", "android": "https://dc.lft.to/lastmile_qr_scan"}, "is_reserved": 0}, {"lon": -77.03662133333333, "bike_id": "3d193fb6ba1f16de113d6a90baf1c046", "lat": 38.91771833333333, "fusion_lon": 0.0, "fusion_lat": 0.0, "type": "electric_scooter", "name": "3d193fb6ba1f16de113d6a90baf1c046", "is_disabled": 0, "rental_uris": {"ios": "https://dc.lft.to/lastmile_qr_scan", "android": "https://dc.lft.to/lastmile_qr_scan"}, "is_reserved": 0}, {"lon": -77.02497266666667, "bike_id": "177936b87a38ca4ac247093393cd345f", "lat": 38.9206875, "fusion_lon": 0.0, "fusion_lat": 0.0, "type": "electric_scooter", "name": "177936b87a38ca4ac247093393cd345f", "is_disabled": 0, "rental_uris": {"ios": "https://dc.lft.to/lastmile_qr_scan", "android": "https://dc.lft.to/lastmile_qr_scan"}, "is_reserved": 0}, {"lon": -76.99472266666666, "bike_id": "f3d0bab2e8bb3e171733e447da9a3cfc", "lat": 38.86229466666666, "fusion_lon": 0.0, "fusion_lat": 0.0, "type": "electric_scooter", "name": "f3d0bab2e8bb3e171733e447da9a3cfc", "is_disabled": 0, "rental_uris": {"ios": "https://dc.lft.to/lastmile_qr_scan", "android": "https://dc.lft.to/lastmile_qr_scan"}, "is_reserved": 0}, {"lon": -77.03719733333334, "bike_id": "f10153ddeaf336bbe51dacf26fe57f7d", "lat": 38.93188383333333, "fusion_lon": 0.0, "fusion_lat": 0.0, "type": "electric_scooter", "name": "f10153ddeaf336bbe51dacf26fe57f7d", "is_disabled": 0, "rental_uris": {"ios": "https://dc.lft.to/lastmile_qr_scan", "android": "https://dc.lft.to/lastmile_qr_scan"}, "is_reserved": 0}, {"lon": -77.02488766666667, "bike_id": "641fbf8c2edb852be1fccb44da440d44", "lat": 38.91696733333333, "fusion_lon": 0.0, "fusion_lat": 0.0, "type": "electric_scooter", "name": "641fbf8c2edb852be1fccb44da440d44", "is_disabled": 0, "rental_uris": {"ios": "https://dc.lft.to/lastmile_qr_scan", "android": "https://dc.lft.to/lastmile_qr_scan"}, "is_reserved": 0}, {"lon": -77.03175666666667, "bike_id": "479d0322646ac65762b23e4a90b36de0", "lat": 38.914149333333334, "fusion_lon": 0.0, "fusion_lat": 0.0, "type": "electric_scooter", "name": "479d0322646ac65762b23e4a90b36de0", "is_disabled": 0, "rental_uris": {"ios": "https://dc.lft.to/lastmile_qr_scan", "android": "https://dc.lft.to/lastmile_qr_scan"}, "is_reserved": 0}, {"lon": -77.0305825, "bike_id": "f64a991d6b77465a273230f1468417bb", "lat": 38.887407833333334, "fusion_lon": 0.0, "fusion_lat": 0.0, "type": "electric_scooter", "name": "f64a991d6b77465a273230f1468417bb", "is_disabled": 0, "rental_uris": {"ios": "https://dc.lft.to/lastmile_qr_scan", "android": "https://dc.lft.to/lastmile_qr_scan"}, "is_reserved": 0}, {"lon": -76.92771233333333, "bike_id": "15b7fa2a13fa33e8b785fe32bc25f981", "lat": 38.9692555, "fusion_lon": 0.0, "fusion_lat": 0.0, "type": "electric_bike", "name": "15b7fa2a13fa33e8b785fe32bc25f981", "is_disabled": 0, "rental_uris": {"ios": "https://dc.lft.to/lastmile_qr_scan", "android": "https://dc.lft.to/lastmile_qr_scan"}, "is_reserved": 0}, {"lon": -76.92768066666666, "bike_id": "7c08776f5a2411dd346b4ce61d795b64", "lat": 38.90090383333333, "fusion_lon": 0.0, "fusion_lat": 0.0, "type": "electric_scooter", "name": "7c08776f5a2411dd346b4ce61d795b64", "is_disabled": 0, "rental_uris": {"ios": "https://dc.lft.to/lastmile_qr_scan", "android": "https://dc.lft.to/lastmile_qr_scan"}, "is_reserved": 0}, {"lon": -76.98883416666666, "bike_id": "8961fdb317db11e076c6fa349d5f2826", "lat": 38.866624, "fusion_lon": 0.0, "fusion_lat": 0.0, "type": "electric_scooter", "name": "8961fdb317db11e076c6fa349d5f2826", "is_disabled": 0, "rental_uris": {"ios": "https://dc.lft.to/lastmile_qr_scan", "android": "https://dc.lft.to/lastmile_qr_scan"}, "is_reserved": 0}, {"lon": -77.00208466666666, "bike_id": "20a1c812d6662af81a4e1d5c460f6f12", "lat": 38.900088333333336, "fusion_lon": 0.0, "fusion_lat": 0.0, "type": "electric_scooter", "name": "20a1c812d6662af81a4e1d5c460f6f12", "is_disabled": 0, "rental_uris": {"ios": "https://dc.lft.to/lastmile_qr_scan", "android": "https://dc.lft.to/lastmile_qr_scan"}, "is_reserved": 0}, {"lon": -76.97911116666667, "bike_id": "541ebee713d181304789124315deac46", "lat": 38.86355116666667, "fusion_lon": 0.0, "fusion_lat": 0.0, "type": "electric_scooter", "name": "541ebee713d181304789124315deac46", "is_disabled": 0, "rental_uris": {"ios": "https://dc.lft.to/lastmile_qr_scan", "android": "https://dc.lft.to/lastmile_qr_scan"}, "is_reserved": 0}, {"lon": -76.98717366666666, "bike_id": "ee3236174598ba00187922cbc91c201a", "lat": 38.8662845, "fusion_lon": 0.0, "fusion_lat": 0.0, "type": "electric_scooter", "name": "ee3236174598ba00187922cbc91c201a", "is_disabled": 0, "rental_uris": {"ios": "https://dc.lft.to/lastmile_qr_scan", "android": "https://dc.lft.to/lastmile_qr_scan"}, "is_reserved": 0}, {"lon": -77.00204716666667, "bike_id": "f0405137188f127e64af190396569a7e", "lat": 38.9885295, "fusion_lon": 0.0, "fusion_lat": 0.0, "type": "electric_bike", "name": "f0405137188f127e64af190396569a7e", "is_disabled": 0, "rental_uris": {"ios": "https://dc.lft.to/lastmile_qr_scan", "android": "https://dc.lft.to/lastmile_qr_scan"}, "is_reserved": 0}, {"lon": -77.025428, "bike_id": "fd25c4f7e79d9d7e4022336e5444a5a8", "lat": 38.941004666666664, "fusion_lon": 0.0, "fusion_lat": 0.0, "type": "electric_scooter", "name": "fd25c4f7e79d9d7e4022336e5444a5a8", "is_disabled": 0, "rental_uris": {"ios": "https://dc.lft.to/lastmile_qr_scan", "android": "https://dc.lft.to/lastmile_qr_scan"}, "is_reserved": 0}, {"lon": -76.9877335, "bike_id": "8fcb6861de5b960806a52df06c29235f", "lat": 38.8660845, "fusion_lon": 0.0, "fusion_lat": 0.0, "type": "electric_bike", "name": "8fcb6861de5b960806a52df06c29235f", "is_disabled": 0, "rental_uris": {"ios": "https://dc.lft.to/lastmile_qr_scan", "android": "https://dc.lft.to/lastmile_qr_scan"}, "is_reserved": 0}, {"lon": -77.039422, "bike_id": "312c6af6296152236cf397e9cd1b4d8f", "lat": 38.89867983333333, "fusion_lon": 0.0, "fusion_lat": 0.0, "type": "electric_scooter", "name": "312c6af6296152236cf397e9cd1b4d8f", "is_disabled": 0, "rental_uris": {"ios": "https://dc.lft.to/lastmile_qr_scan", "android": "https://dc.lft.to/lastmile_qr_scan"}, "is_reserved": 0}, {"lon": -76.990357, "bike_id": "e5a837a21921492e15563a5a0faf1b12", "lat": 38.89876783333333, "fusion_lon": 0.0, "fusion_lat": 0.0, "type": "electric_scooter", "name": "e5a837a21921492e15563a5a0faf1b12", "is_disabled": 0, "rental_uris": {"ios": "https://dc.lft.to/lastmile_qr_scan", "android": "https://dc.lft.to/lastmile_qr_scan"}, "is_reserved": 0}, {"lon": -77.02470433333333, "bike_id": "94764f7e435fd2229c03359b4c9b8530", "lat": 38.918207333333335, "fusion_lon": 0.0, "fusion_lat": 0.0, "type": "electric_scooter", "name": "94764f7e435fd2229c03359b4c9b8530", "is_disabled": 0, "rental_uris": {"ios": "https://dc.lft.to/lastmile_qr_scan", "android": "https://dc.lft.to/lastmile_qr_scan"}, "is_reserved": 0}, {"lon": -76.9841005, "bike_id": "673097a0c9b32a6972877f750ea61e64", "lat": 38.90628016666667, "fusion_lon": 0.0, "fusion_lat": 0.0, "type": "electric_scooter", "name": "673097a0c9b32a6972877f750ea61e64", "is_disabled": 0, "rental_uris": {"ios": "https://dc.lft.to/lastmile_qr_scan", "android": "https://dc.lft.to/lastmile_qr_scan"}, "is_reserved": 0}, {"lon": -77.01854366666667, "bike_id": "ed4a4bf59edda5c03dfed6bdcd789463", "lat": 38.9736735, "fusion_lon": 0.0, "fusion_lat": 0.0, "type": "electric_scooter", "name": "ed4a4bf59edda5c03dfed6bdcd789463", "is_disabled": 0, "rental_uris": {"ios": "https://dc.lft.to/lastmile_qr_scan", "android": "https://dc.lft.to/lastmile_qr_scan"}, "is_reserved": 0}, {"lon": -77.03963283333333, "bike_id": "ae8ebfda59aa0593e957b5c486a448ac", "lat": 38.91630083333333, "fusion_lon": 0.0, "fusion_lat": 0.0, "type": "electric_scooter", "name": "ae8ebfda59aa0593e957b5c486a448ac", "is_disabled": 0, "rental_uris": {"ios": "https://dc.lft.to/lastmile_qr_scan", "android": "https://dc.lft.to/lastmile_qr_scan"}, "is_reserved": 0}, {"lon": -77.04209983333334, "bike_id": "e39e7eab4eb7367148b9adc5540b873a", "lat": 38.9212425, "fusion_lon": 0.0, "fusion_lat": 0.0, "type": "electric_scooter", "name": "e39e7eab4eb7367148b9adc5540b873a", "is_disabled": 0, "rental_uris": {"ios": "https://dc.lft.to/lastmile_qr_scan", "android": "https://dc.lft.to/lastmile_qr_scan"}, "is_reserved": 0}, {"lon": -77.01222883333334, "bike_id": "09b17e4e4e26c0ac036c33d8a929d06c", "lat": 38.9154515, "fusion_lon": 0.0, "fusion_lat": 0.0, "type": "electric_scooter", "name": "09b17e4e4e26c0ac036c33d8a929d06c", "is_disabled": 0, "rental_uris": {"ios": "https://dc.lft.to/lastmile_qr_scan", "android": "https://dc.lft.to/lastmile_qr_scan"}, "is_reserved": 0}, {"lon": -77.02568866666667, "bike_id": "6745b49d8ff7722dc6c89ea310c17ce5", "lat": 38.913406333333334, "fusion_lon": 0.0, "fusion_lat": 0.0, "type": "electric_scooter", "name": "6745b49d8ff7722dc6c89ea310c17ce5", "is_disabled": 0, "rental_uris": {"ios": "https://dc.lft.to/lastmile_qr_scan", "android": "https://dc.lft.to/lastmile_qr_scan"}, "is_reserved": 0}, {"lon": -77.04319783333334, "bike_id": "2ee9f6cf666f7ebe75173eea106c4a6a", "lat": 38.922547, "fusion_lon": 0.0, "fusion_lat": 0.0, "type": "electric_scooter", "name": "2ee9f6cf666f7ebe75173eea106c4a6a", "is_disabled": 0, "rental_uris": {"ios": "https://dc.lft.to/lastmile_qr_scan", "android": "https://dc.lft.to/lastmile_qr_scan"}, "is_reserved": 0}, {"lon": -76.95572583333333, "bike_id": "8bc63f36bdd87d1334a99ad0457c8421", "lat": 38.88771216666667, "fusion_lon": 0.0, "fusion_lat": 0.0, "type": "electric_scooter", "name": "8bc63f36bdd87d1334a99ad0457c8421", "is_disabled": 0, "rental_uris": {"ios": "https://dc.lft.to/lastmile_qr_scan", "android": "https://dc.lft.to/lastmile_qr_scan"}, "is_reserved": 0}, {"lon": -77.028383, "bike_id": "63a3d6dd752b640a484a565bae307ce1", "lat": 38.925752, "fusion_lon": 0.0, "fusion_lat": 0.0, "type": "electric_scooter", "name": "63a3d6dd752b640a484a565bae307ce1", "is_disabled": 0, "rental_uris": {"ios": "https://dc.lft.to/lastmile_qr_scan", "android": "https://dc.lft.to/lastmile_qr_scan"}, "is_reserved": 0}, {"lon": -77.022145, "bike_id": "9e38adf55e1fe546ff3dd5e5ba6021cc", "lat": 38.9260865, "fusion_lon": 0.0, "fusion_lat": 0.0, "type": "electric_scooter", "name": "9e38adf55e1fe546ff3dd5e5ba6021cc", "is_disabled": 0, "rental_uris": {"ios": "https://dc.lft.to/lastmile_qr_scan", "android": "https://dc.lft.to/lastmile_qr_scan"}, "is_reserved": 0}, {"lon": -77.0252235, "bike_id": "cf9d792e273747b2e7ef7f815ac5bdfa", "lat": 38.9206475, "fusion_lon": 0.0, "fusion_lat": 0.0, "type": "electric_scooter", "name": "cf9d792e273747b2e7ef7f815ac5bdfa", "is_disabled": 0, "rental_uris": {"ios": "https://dc.lft.to/lastmile_qr_scan", "android": "https://dc.lft.to/lastmile_qr_scan"}, "is_reserved": 0}, {"lon": -76.98919866666667, "bike_id": "15e5d7c1ff4992d6f279dc1cbaa14565", "lat": 38.8580665, "fusion_lon": 0.0, "fusion_lat": 0.0, "type": "electric_scooter", "name": "15e5d7c1ff4992d6f279dc1cbaa14565", "is_disabled": 0, "rental_uris": {"ios": "https://dc.lft.to/lastmile_qr_scan", "android": "https://dc.lft.to/lastmile_qr_scan"}, "is_reserved": 0}, {"lon": -77.022308, "bike_id": "4bf58bfec4e2a2b8687a9b58aa1d1bb6", "lat": 38.96215266666667, "fusion_lon": 0.0, "fusion_lat": 0.0, "type": "electric_bike", "name": "4bf58bfec4e2a2b8687a9b58aa1d1bb6", "is_disabled": 0, "rental_uris": {"ios": "https://dc.lft.to/lastmile_qr_scan", "android": "https://dc.lft.to/lastmile_qr_scan"}, "is_reserved": 0}, {"lon": -77.0320815, "bike_id": "9fcba86a91ef40e06aef724d8ba28221", "lat": 38.912474333333336, "fusion_lon": 0.0, "fusion_lat": 0.0, "type": "electric_scooter", "name": "9fcba86a91ef40e06aef724d8ba28221", "is_disabled": 0, "rental_uris": {"ios": "https://dc.lft.to/lastmile_qr_scan", "android": "https://dc.lft.to/lastmile_qr_scan"}, "is_reserved": 0}, {"lon": -77.04389283333333, "bike_id": "9fcc00c2a366341fe91d53b995ebf46f", "lat": 39.04711616666667, "fusion_lon": 0.0, "fusion_lat": 0.0, "type": "electric_bike", "name": "9fcc00c2a366341fe91d53b995ebf46f", "is_disabled": 0, "rental_uris": {"ios": "https://dc.lft.to/lastmile_qr_scan", "android": "https://dc.lft.to/lastmile_qr_scan"}, "is_reserved": 0}, {"lon": -77.04658316666666, "bike_id": "ff2e0f9da7d9a16ca81fa38d2f8d9acf", "lat": 38.89827583333334, "fusion_lon": 0.0, "fusion_lat": 0.0, "type": "electric_scooter", "name": "ff2e0f9da7d9a16ca81fa38d2f8d9acf", "is_disabled": 0, "rental_uris": {"ios": "https://dc.lft.to/lastmile_qr_scan", "android": "https://dc.lft.to/lastmile_qr_scan"}, "is_reserved": 0}, {"lon": -77.02427916666667, "bike_id": "5ee47a641d4651915342874e1deb1e26", "lat": 38.920412, "fusion_lon": 0.0, "fusion_lat": 0.0, "type": "electric_scooter", "name": "5ee47a641d4651915342874e1deb1e26", "is_disabled": 0, "rental_uris": {"ios": "https://dc.lft.to/lastmile_qr_scan", "android": "https://dc.lft.to/lastmile_qr_scan"}, "is_reserved": 0}, {"lon": -77.00248916666666, "bike_id": "4e67b1987917f628620bb38f0e23b82d", "lat": 38.9110915, "fusion_lon": 0.0, "fusion_lat": 0.0, "type": "electric_scooter", "name": "4e67b1987917f628620bb38f0e23b82d", "is_disabled": 0, "rental_uris": {"ios": "https://dc.lft.to/lastmile_qr_scan", "android": "https://dc.lft.to/lastmile_qr_scan"}, "is_reserved": 0}, {"lon": -77.0449155, "bike_id": "d0f884d3b2de9f6f51c4ddb5c76e28e1", "lat": 38.89750033333333, "fusion_lon": 0.0, "fusion_lat": 0.0, "type": "electric_scooter", "name": "d0f884d3b2de9f6f51c4ddb5c76e28e1", "is_disabled": 0, "rental_uris": {"ios": "https://dc.lft.to/lastmile_qr_scan", "android": "https://dc.lft.to/lastmile_qr_scan"}, "is_reserved": 0}, {"lon": -77.01850633333333, "bike_id": "fdef0d54d54346426f5b69886047a50f", "lat": 38.939987333333335, "fusion_lon": 0.0, "fusion_lat": 0.0, "type": "electric_scooter", "name": "fdef0d54d54346426f5b69886047a50f", "is_disabled": 0, "rental_uris": {"ios": "https://dc.lft.to/lastmile_qr_scan", "android": "https://dc.lft.to/lastmile_qr_scan"}, "is_reserved": 0}, {"lon": -77.07344983333333, "bike_id": "e6824b5643f95549ad2a6f7187f39063", "lat": 38.90993133333333, "fusion_lon": 0.0, "fusion_lat": 0.0, "type": "electric_scooter", "name": "e6824b5643f95549ad2a6f7187f39063", "is_disabled": 0, "rental_uris": {"ios": "https://dc.lft.to/lastmile_qr_scan", "android": "https://dc.lft.to/lastmile_qr_scan"}, "is_reserved": 0}, {"lon": -77.0011755, "bike_id": "7aa8ca5a7e926be12bd91e709f73b978", "lat": 38.87482583333333, "fusion_lon": 0.0, "fusion_lat": 0.0, "type": "electric_scooter", "name": "7aa8ca5a7e926be12bd91e709f73b978", "is_disabled": 0, "rental_uris": {"ios": "https://dc.lft.to/lastmile_qr_scan", "android": "https://dc.lft.to/lastmile_qr_scan"}, "is_reserved": 0}, {"lon": -77.09469716666666, "bike_id": "df0c23b2e0c91e6766fec680ca9a197b", "lat": 38.80761433333333, "fusion_lon": 0.0, "fusion_lat": 0.0, "type": "electric_bike", "name": "df0c23b2e0c91e6766fec680ca9a197b", "is_disabled": 0, "rental_uris": {"ios": "https://dc.lft.to/lastmile_qr_scan", "android": "https://dc.lft.to/lastmile_qr_scan"}, "is_reserved": 0}, {"lon": -77.01169433333334, "bike_id": "1f8ee7713d485c31c65f03d435e7d402", "lat": 38.872296666666664, "fusion_lon": 0.0, "fusion_lat": 0.0, "type": "electric_bike", "name": "1f8ee7713d485c31c65f03d435e7d402", "is_disabled": 0, "rental_uris": {"ios": "https://dc.lft.to/lastmile_qr_scan", "android": "https://dc.lft.to/lastmile_qr_scan"}, "is_reserved": 0}, {"lon": -77.02292416666667, "bike_id": "2ddd993978a0fa712d804ec802347add", "lat": 38.91082516666667, "fusion_lon": 0.0, "fusion_lat": 0.0, "type": "electric_scooter", "name": "2ddd993978a0fa712d804ec802347add", "is_disabled": 0, "rental_uris": {"ios": "https://dc.lft.to/lastmile_qr_scan", "android": "https://dc.lft.to/lastmile_qr_scan"}, "is_reserved": 0}, {"lon": -76.98933583333333, "bike_id": "f883f2d3687ffc060b0b5fbddcb8a862", "lat": 38.865700833333335, "fusion_lon": 0.0, "fusion_lat": 0.0, "type": "electric_scooter", "name": "f883f2d3687ffc060b0b5fbddcb8a862", "is_disabled": 0, "rental_uris": {"ios": "https://dc.lft.to/lastmile_qr_scan", "android": "https://dc.lft.to/lastmile_qr_scan"}, "is_reserved": 0}, {"lon": -76.98693716666666, "bike_id": "5f13cf9bc3c54974a1e38591eec40483", "lat": 38.90704616666667, "fusion_lon": 0.0, "fusion_lat": 0.0, "type": "electric_scooter", "name": "5f13cf9bc3c54974a1e38591eec40483", "is_disabled": 0, "rental_uris": {"ios": "https://dc.lft.to/lastmile_qr_scan", "android": "https://dc.lft.to/lastmile_qr_scan"}, "is_reserved": 0}, {"lon": -76.94290183333334, "bike_id": "6264eb62f2dd710d9a46fdbad74ee95b", "lat": 38.9386805, "fusion_lon": 0.0, "fusion_lat": 0.0, "type": "electric_bike", "name": "6264eb62f2dd710d9a46fdbad74ee95b", "is_disabled": 0, "rental_uris": {"ios": "https://dc.lft.to/lastmile_qr_scan", "android": "https://dc.lft.to/lastmile_qr_scan"}, "is_reserved": 0}, {"lon": -76.98260616666667, "bike_id": "bbe4cbf4ae04bee96b563b2cacaeb4bd", "lat": 38.9085645, "fusion_lon": 0.0, "fusion_lat": 0.0, "type": "electric_scooter", "name": "bbe4cbf4ae04bee96b563b2cacaeb4bd", "is_disabled": 0, "rental_uris": {"ios": "https://dc.lft.to/lastmile_qr_scan", "android": "https://dc.lft.to/lastmile_qr_scan"}, "is_reserved": 0}, {"lon": -76.98893516666666, "bike_id": "d74729ccf932201b19c3ee7c47629652", "lat": 38.91340116666667, "fusion_lon": 0.0, "fusion_lat": 0.0, "type": "electric_scooter", "name": "d74729ccf932201b19c3ee7c47629652", "is_disabled": 0, "rental_uris": {"ios": "https://dc.lft.to/lastmile_qr_scan", "android": "https://dc.lft.to/lastmile_qr_scan"}, "is_reserved": 0}, {"lon": -77.02385383333333, "bike_id": "4196270500825b17d88d28268837ee69", "lat": 38.9095535, "fusion_lon": 0.0, "fusion_lat": 0.0, "type": "electric_scooter", "name": "4196270500825b17d88d28268837ee69", "is_disabled": 0, "rental_uris": {"ios": "https://dc.lft.to/lastmile_qr_scan", "android": "https://dc.lft.to/lastmile_qr_scan"}, "is_reserved": 0}, {"lon": -77.0262335, "bike_id": "07d69134a6728fa8327f52249aa017a1", "lat": 38.96217716666666, "fusion_lon": 0.0, "fusion_lat": 0.0, "type": "electric_bike", "name": "07d69134a6728fa8327f52249aa017a1", "is_disabled": 0, "rental_uris": {"ios": "https://dc.lft.to/lastmile_qr_scan", "android": "https://dc.lft.to/lastmile_qr_scan"}, "is_reserved": 0}, {"lon": -76.9548205, "bike_id": "bbe6583b656ba096001a8513f6944f6a", "lat": 38.8846965, "fusion_lon": 0.0, "fusion_lat": 0.0, "type": "electric_scooter", "name": "bbe6583b656ba096001a8513f6944f6a", "is_disabled": 0, "rental_uris": {"ios": "https://dc.lft.to/lastmile_qr_scan", "android": "https://dc.lft.to/lastmile_qr_scan"}, "is_reserved": 0}, {"lon": -76.99544316666666, "bike_id": "b63c1a73380adf13ea479bab0643a2cb", "lat": 38.831608, "fusion_lon": 0.0, "fusion_lat": 0.0, "type": "electric_bike", "name": "b63c1a73380adf13ea479bab0643a2cb", "is_disabled": 0, "rental_uris": {"ios": "https://dc.lft.to/lastmile_qr_scan", "android": "https://dc.lft.to/lastmile_qr_scan"}, "is_reserved": 0}, {"lon": -76.99031766666667, "bike_id": "d81b737f13dd423f64b5b5bcebe8e15c", "lat": 38.89172383333333, "fusion_lon": 0.0, "fusion_lat": 0.0, "type": "electric_scooter", "name": "d81b737f13dd423f64b5b5bcebe8e15c", "is_disabled": 0, "rental_uris": {"ios": "https://dc.lft.to/lastmile_qr_scan", "android": "https://dc.lft.to/lastmile_qr_scan"}, "is_reserved": 0}, {"lon": -77.04195983333334, "bike_id": "3457fbceed460c3da2a133e26f7395dc", "lat": 38.8996975, "fusion_lon": 0.0, "fusion_lat": 0.0, "type": "electric_scooter", "name": "3457fbceed460c3da2a133e26f7395dc", "is_disabled": 0, "rental_uris": {"ios": "https://dc.lft.to/lastmile_qr_scan", "android": "https://dc.lft.to/lastmile_qr_scan"}, "is_reserved": 0}, {"lon": -77.10095883333334, "bike_id": "d5f1df429813b69c79e19c7d79001c87", "lat": 38.959608833333334, "fusion_lon": 0.0, "fusion_lat": 0.0, "type": "electric_bike", "name": "d5f1df429813b69c79e19c7d79001c87", "is_disabled": 0, "rental_uris": {"ios": "https://dc.lft.to/lastmile_qr_scan", "android": "https://dc.lft.to/lastmile_qr_scan"}, "is_reserved": 0}, {"lon": -77.03530233333333, "bike_id": "a7deae8044eddb4ff0eaa1983984e9e3", "lat": 38.92631033333333, "fusion_lon": 0.0, "fusion_lat": 0.0, "type": "electric_scooter", "name": "a7deae8044eddb4ff0eaa1983984e9e3", "is_disabled": 0, "rental_uris": {"ios": "https://dc.lft.to/lastmile_qr_scan", "android": "https://dc.lft.to/lastmile_qr_scan"}, "is_reserved": 0}, {"lon": -77.06254266666667, "bike_id": "e1d2c55aa1ef5a5a27448319b08f6c50", "lat": 38.944164, "fusion_lon": 0.0, "fusion_lat": 0.0, "type": "electric_scooter", "name": "e1d2c55aa1ef5a5a27448319b08f6c50", "is_disabled": 0, "rental_uris": {"ios": "https://dc.lft.to/lastmile_qr_scan", "android": "https://dc.lft.to/lastmile_qr_scan"}, "is_reserved": 0}, {"lon": -77.02170866666667, "bike_id": "bfe0703ee185182c8bf4cec36954f509", "lat": 38.88724716666667, "fusion_lon": 0.0, "fusion_lat": 0.0, "type": "electric_scooter", "name": "bfe0703ee185182c8bf4cec36954f509", "is_disabled": 0, "rental_uris": {"ios": "https://dc.lft.to/lastmile_qr_scan", "android": "https://dc.lft.to/lastmile_qr_scan"}, "is_reserved": 0}, {"lon": -77.03262266666667, "bike_id": "c87c4c1f1f58ea754586970e54d2cf11", "lat": 38.9354545, "fusion_lon": 0.0, "fusion_lat": 0.0, "type": "electric_scooter", "name": "c87c4c1f1f58ea754586970e54d2cf11", "is_disabled": 0, "rental_uris": {"ios": "https://dc.lft.to/lastmile_qr_scan", "android": "https://dc.lft.to/lastmile_qr_scan"}, "is_reserved": 0}, {"lon": -77.00198316666666, "bike_id": "681182985714c7227b847f3c4ff1e289", "lat": 38.902373, "fusion_lon": 0.0, "fusion_lat": 0.0, "type": "electric_scooter", "name": "681182985714c7227b847f3c4ff1e289", "is_disabled": 0, "rental_uris": {"ios": "https://dc.lft.to/lastmile_qr_scan", "android": "https://dc.lft.to/lastmile_qr_scan"}, "is_reserved": 0}, {"lon": -77.05044416666667, "bike_id": "d57062a554bcdce1e4a00fdce8890a78", "lat": 38.90034466666667, "fusion_lon": 0.0, "fusion_lat": 0.0, "type": "electric_scooter", "name": "d57062a554bcdce1e4a00fdce8890a78", "is_disabled": 0, "rental_uris": {"ios": "https://dc.lft.to/lastmile_qr_scan", "android": "https://dc.lft.to/lastmile_qr_scan"}, "is_reserved": 0}, {"lon": -77.036572, "bike_id": "33678f0b1a8d52f08c763c278ced57e3", "lat": 38.9213695, "fusion_lon": 0.0, "fusion_lat": 0.0, "type": "electric_scooter", "name": "33678f0b1a8d52f08c763c278ced57e3", "is_disabled": 0, "rental_uris": {"ios": "https://dc.lft.to/lastmile_qr_scan", "android": "https://dc.lft.to/lastmile_qr_scan"}, "is_reserved": 0}, {"lon": -77.05435666666666, "bike_id": "3cc13b2994d8d2e54ee0e21fec9a647a", "lat": 38.83685716666667, "fusion_lon": 0.0, "fusion_lat": 0.0, "type": "electric_bike", "name": "3cc13b2994d8d2e54ee0e21fec9a647a", "is_disabled": 0, "rental_uris": {"ios": "https://dc.lft.to/lastmile_qr_scan", "android": "https://dc.lft.to/lastmile_qr_scan"}, "is_reserved": 0}, {"lon": -77.038717, "bike_id": "11eab738ce94be8701137a82f5a2afbe", "lat": 38.9296055, "fusion_lon": 0.0, "fusion_lat": 0.0, "type": "electric_scooter", "name": "11eab738ce94be8701137a82f5a2afbe", "is_disabled": 0, "rental_uris": {"ios": "https://dc.lft.to/lastmile_qr_scan", "android": "https://dc.lft.to/lastmile_qr_scan"}, "is_reserved": 0}, {"lon": -77.0004745, "bike_id": "98b37cee6cecf9bfaeeef0e7cde84021", "lat": 38.968174833333336, "fusion_lon": 0.0, "fusion_lat": 0.0, "type": "electric_bike", "name": "98b37cee6cecf9bfaeeef0e7cde84021", "is_disabled": 0, "rental_uris": {"ios": "https://dc.lft.to/lastmile_qr_scan", "android": "https://dc.lft.to/lastmile_qr_scan"}, "is_reserved": 0}, {"lon": -77.0320065, "bike_id": "36b93dc79de46a3c092d2bce09e40465", "lat": 38.944048333333335, "fusion_lon": 0.0, "fusion_lat": 0.0, "type": "electric_scooter", "name": "36b93dc79de46a3c092d2bce09e40465", "is_disabled": 0, "rental_uris": {"ios": "https://dc.lft.to/lastmile_qr_scan", "android": "https://dc.lft.to/lastmile_qr_scan"}, "is_reserved": 0}, {"lon": -77.04558066666667, "bike_id": "5c4445b6e6dd01366f51898b9fbc81fe", "lat": 38.89612183333333, "fusion_lon": 0.0, "fusion_lat": 0.0, "type": "electric_scooter", "name": "5c4445b6e6dd01366f51898b9fbc81fe", "is_disabled": 0, "rental_uris": {"ios": "https://dc.lft.to/lastmile_qr_scan", "android": "https://dc.lft.to/lastmile_qr_scan"}, "is_reserved": 0}, {"lon": -77.03340916666667, "bike_id": "725da4fea830676205490e8115c01f81", "lat": 38.901314166666666, "fusion_lon": 0.0, "fusion_lat": 0.0, "type": "electric_scooter", "name": "725da4fea830676205490e8115c01f81", "is_disabled": 0, "rental_uris": {"ios": "https://dc.lft.to/lastmile_qr_scan", "android": "https://dc.lft.to/lastmile_qr_scan"}, "is_reserved": 0}, {"lon": -77.03800983333333, "bike_id": "d151d46896e163b0fce67b2b9d7cf5d8", "lat": 38.910353, "fusion_lon": 0.0, "fusion_lat": 0.0, "type": "electric_scooter", "name": "d151d46896e163b0fce67b2b9d7cf5d8", "is_disabled": 0, "rental_uris": {"ios": "https://dc.lft.to/lastmile_qr_scan", "android": "https://dc.lft.to/lastmile_qr_scan"}, "is_reserved": 0}, {"lon": -77.032568, "bike_id": "a4305e8a5861b8f3d8ab7dfabf004e04", "lat": 38.928587666666665, "fusion_lon": 0.0, "fusion_lat": 0.0, "type": "electric_scooter", "name": "a4305e8a5861b8f3d8ab7dfabf004e04", "is_disabled": 0, "rental_uris": {"ios": "https://dc.lft.to/lastmile_qr_scan", "android": "https://dc.lft.to/lastmile_qr_scan"}, "is_reserved": 0}, {"lon": -77.026564, "bike_id": "c3a787218058ed1b62614273144e9ec1", "lat": 38.927687, "fusion_lon": 0.0, "fusion_lat": 0.0, "type": "electric_scooter", "name": "c3a787218058ed1b62614273144e9ec1", "is_disabled": 0, "rental_uris": {"ios": "https://dc.lft.to/lastmile_qr_scan", "android": "https://dc.lft.to/lastmile_qr_scan"}, "is_reserved": 0}, {"lon": -77.00597383333333, "bike_id": "cb7f86df913f41899457527971a47c64", "lat": 38.8718405, "fusion_lon": 0.0, "fusion_lat": 0.0, "type": "electric_scooter", "name": "cb7f86df913f41899457527971a47c64", "is_disabled": 0, "rental_uris": {"ios": "https://dc.lft.to/lastmile_qr_scan", "android": "https://dc.lft.to/lastmile_qr_scan"}, "is_reserved": 0}, {"lon": -76.998997, "bike_id": "7f59062c0eb9aae31ac8fbe581645965", "lat": 38.907422333333336, "fusion_lon": 0.0, "fusion_lat": 0.0, "type": "electric_scooter", "name": "7f59062c0eb9aae31ac8fbe581645965", "is_disabled": 0, "rental_uris": {"ios": "https://dc.lft.to/lastmile_qr_scan", "android": "https://dc.lft.to/lastmile_qr_scan"}, "is_reserved": 0}, {"lon": -77.0380145, "bike_id": "a5b1df3699a700aeab449dd7a01d313a", "lat": 38.93021866666667, "fusion_lon": 0.0, "fusion_lat": 0.0, "type": "electric_scooter", "name": "a5b1df3699a700aeab449dd7a01d313a", "is_disabled": 0, "rental_uris": {"ios": "https://dc.lft.to/lastmile_qr_scan", "android": "https://dc.lft.to/lastmile_qr_scan"}, "is_reserved": 0}, {"lon": -77.04260466666666, "bike_id": "517dcb4e0a5c2b8fa80861189e83832e", "lat": 38.92291316666667, "fusion_lon": 0.0, "fusion_lat": 0.0, "type": "electric_scooter", "name": "517dcb4e0a5c2b8fa80861189e83832e", "is_disabled": 0, "rental_uris": {"ios": "https://dc.lft.to/lastmile_qr_scan", "android": "https://dc.lft.to/lastmile_qr_scan"}, "is_reserved": 0}, {"lon": -77.02512316666666, "bike_id": "74e917a6120c6a7b9e3c0d297d7c2218", "lat": 38.926421500000004, "fusion_lon": 0.0, "fusion_lat": 0.0, "type": "electric_scooter", "name": "74e917a6120c6a7b9e3c0d297d7c2218", "is_disabled": 0, "rental_uris": {"ios": "https://dc.lft.to/lastmile_qr_scan", "android": "https://dc.lft.to/lastmile_qr_scan"}, "is_reserved": 0}, {"lon": -77.04010166666667, "bike_id": "41a47df5eeba00a82d1fd5382045a569", "lat": 38.906149166666665, "fusion_lon": 0.0, "fusion_lat": 0.0, "type": "electric_scooter", "name": "41a47df5eeba00a82d1fd5382045a569", "is_disabled": 0, "rental_uris": {"ios": "https://dc.lft.to/lastmile_qr_scan", "android": "https://dc.lft.to/lastmile_qr_scan"}, "is_reserved": 0}, {"lon": -77.01668933333333, "bike_id": "0c839505b2f74b4a8f7fcf4b59f0581a", "lat": 38.88117783333333, "fusion_lon": 0.0, "fusion_lat": 0.0, "type": "electric_bike", "name": "0c839505b2f74b4a8f7fcf4b59f0581a", "is_disabled": 0, "rental_uris": {"ios": "https://dc.lft.to/lastmile_qr_scan", "android": "https://dc.lft.to/lastmile_qr_scan"}, "is_reserved": 0}, {"lon": -77.03262066666667, "bike_id": "dc6171d2d25e576dfe631780b666ded7", "lat": 38.90146383333333, "fusion_lon": 0.0, "fusion_lat": 0.0, "type": "electric_scooter", "name": "dc6171d2d25e576dfe631780b666ded7", "is_disabled": 0, "rental_uris": {"ios": "https://dc.lft.to/lastmile_qr_scan", "android": "https://dc.lft.to/lastmile_qr_scan"}, "is_reserved": 0}, {"lon": -77.03126433333334, "bike_id": "8a64fd4535c7e10af7f20d16293aa0a9", "lat": 38.92378016666667, "fusion_lon": 0.0, "fusion_lat": 0.0, "type": "electric_scooter", "name": "8a64fd4535c7e10af7f20d16293aa0a9", "is_disabled": 0, "rental_uris": {"ios": "https://dc.lft.to/lastmile_qr_scan", "android": "https://dc.lft.to/lastmile_qr_scan"}, "is_reserved": 0}, {"lon": -77.07128416666667, "bike_id": "f03cbe104e60718d6a94f83a9262875d", "lat": 38.919657, "fusion_lon": 0.0, "fusion_lat": 0.0, "type": "electric_scooter", "name": "f03cbe104e60718d6a94f83a9262875d", "is_disabled": 0, "rental_uris": {"ios": "https://dc.lft.to/lastmile_qr_scan", "android": "https://dc.lft.to/lastmile_qr_scan"}, "is_reserved": 0}, {"lon": -76.97808933333333, "bike_id": "66630012e75a03d4648ceb37edfda101", "lat": 38.90667633333333, "fusion_lon": 0.0, "fusion_lat": 0.0, "type": "electric_scooter", "name": "66630012e75a03d4648ceb37edfda101", "is_disabled": 0, "rental_uris": {"ios": "https://dc.lft.to/lastmile_qr_scan", "android": "https://dc.lft.to/lastmile_qr_scan"}, "is_reserved": 0}, {"lon": -76.89536733333334, "bike_id": "d264044aea6a93fe53bce8ac2d657329", "lat": 38.94559016666667, "fusion_lon": 0.0, "fusion_lat": 0.0, "type": "electric_bike", "name": "d264044aea6a93fe53bce8ac2d657329", "is_disabled": 0, "rental_uris": {"ios": "https://dc.lft.to/lastmile_qr_scan", "android": "https://dc.lft.to/lastmile_qr_scan"}, "is_reserved": 0}, {"lon": -77.04211583333333, "bike_id": "399b4124ae27ebb0d6e9a06d6439c8ce", "lat": 38.914070833333334, "fusion_lon": 0.0, "fusion_lat": 0.0, "type": "electric_scooter", "name": "399b4124ae27ebb0d6e9a06d6439c8ce", "is_disabled": 0, "rental_uris": {"ios": "https://dc.lft.to/lastmile_qr_scan", "android": "https://dc.lft.to/lastmile_qr_scan"}, "is_reserved": 0}, {"lon": -77.00677633333333, "bike_id": "c364a679db9f3fada4e5317e7650de70", "lat": 38.94493833333333, "fusion_lon": 0.0, "fusion_lat": 0.0, "type": "electric_bike", "name": "c364a679db9f3fada4e5317e7650de70", "is_disabled": 0, "rental_uris": {"ios": "https://dc.lft.to/lastmile_qr_scan", "android": "https://dc.lft.to/lastmile_qr_scan"}, "is_reserved": 0}, {"lon": -77.03171466666667, "bike_id": "ee6672d384d9ce3d9a9988fe9f364ea8", "lat": 38.918249, "fusion_lon": 0.0, "fusion_lat": 0.0, "type": "electric_scooter", "name": "ee6672d384d9ce3d9a9988fe9f364ea8", "is_disabled": 0, "rental_uris": {"ios": "https://dc.lft.to/lastmile_qr_scan", "android": "https://dc.lft.to/lastmile_qr_scan"}, "is_reserved": 0}, {"lon": -77.0438845, "bike_id": "f8c2314a7d6cadf097d627cd82796c7f", "lat": 38.921136833333335, "fusion_lon": 0.0, "fusion_lat": 0.0, "type": "electric_scooter", "name": "f8c2314a7d6cadf097d627cd82796c7f", "is_disabled": 0, "rental_uris": {"ios": "https://dc.lft.to/lastmile_qr_scan", "android": "https://dc.lft.to/lastmile_qr_scan"}, "is_reserved": 0}, {"lon": -77.038552, "bike_id": "1590f2c2797529c6b95beaff3b5ce86f", "lat": 38.910182, "fusion_lon": 0.0, "fusion_lat": 0.0, "type": "electric_scooter", "name": "1590f2c2797529c6b95beaff3b5ce86f", "is_disabled": 0, "rental_uris": {"ios": "https://dc.lft.to/lastmile_qr_scan", "android": "https://dc.lft.to/lastmile_qr_scan"}, "is_reserved": 0}, {"lon": -77.04675116666667, "bike_id": "d27c9866b92b2052cfd88f398d548f5c", "lat": 38.892305, "fusion_lon": 0.0, "fusion_lat": 0.0, "type": "electric_scooter", "name": "d27c9866b92b2052cfd88f398d548f5c", "is_disabled": 0, "rental_uris": {"ios": "https://dc.lft.to/lastmile_qr_scan", "android": "https://dc.lft.to/lastmile_qr_scan"}, "is_reserved": 0}, {"lon": -77.042203, "bike_id": "61d94d9d6073c653ca9ba1e3bde29ee0", "lat": 38.9231355, "fusion_lon": 0.0, "fusion_lat": 0.0, "type": "electric_scooter", "name": "61d94d9d6073c653ca9ba1e3bde29ee0", "is_disabled": 0, "rental_uris": {"ios": "https://dc.lft.to/lastmile_qr_scan", "android": "https://dc.lft.to/lastmile_qr_scan"}, "is_reserved": 0}, {"lon": -77.0256675, "bike_id": "3d9d57177c4104cfc77b7a9da2956a4c", "lat": 38.914902833333336, "fusion_lon": 0.0, "fusion_lat": 0.0, "type": "electric_scooter", "name": "3d9d57177c4104cfc77b7a9da2956a4c", "is_disabled": 0, "rental_uris": {"ios": "https://dc.lft.to/lastmile_qr_scan", "android": "https://dc.lft.to/lastmile_qr_scan"}, "is_reserved": 0}, {"lon": -77.02559166666667, "bike_id": "9cbc2e13361c33cdefaf948e57a7f651", "lat": 38.94168533333333, "fusion_lon": 0.0, "fusion_lat": 0.0, "type": "electric_scooter", "name": "9cbc2e13361c33cdefaf948e57a7f651", "is_disabled": 0, "rental_uris": {"ios": "https://dc.lft.to/lastmile_qr_scan", "android": "https://dc.lft.to/lastmile_qr_scan"}, "is_reserved": 0}, {"lon": -77.11153683333333, "bike_id": "07e47e134e99aee70c57d5e836caeeba", "lat": 38.85518616666667, "fusion_lon": 0.0, "fusion_lat": 0.0, "type": "electric_bike", "name": "07e47e134e99aee70c57d5e836caeeba", "is_disabled": 0, "rental_uris": {"ios": "https://dc.lft.to/lastmile_qr_scan", "android": "https://dc.lft.to/lastmile_qr_scan"}, "is_reserved": 0}, {"lon": -77.03227066666666, "bike_id": "f5499a4bf37a6a12d507b12b9b84c984", "lat": 38.909913, "fusion_lon": 0.0, "fusion_lat": 0.0, "type": "electric_scooter", "name": "f5499a4bf37a6a12d507b12b9b84c984", "is_disabled": 0, "rental_uris": {"ios": "https://dc.lft.to/lastmile_qr_scan", "android": "https://dc.lft.to/lastmile_qr_scan"}, "is_reserved": 0}, {"lon": -77.03870316666666, "bike_id": "ca2cfad4f4da63c5892bfd8f80eb51aa", "lat": 38.912684, "fusion_lon": 0.0, "fusion_lat": 0.0, "type": "electric_scooter", "name": "ca2cfad4f4da63c5892bfd8f80eb51aa", "is_disabled": 0, "rental_uris": {"ios": "https://dc.lft.to/lastmile_qr_scan", "android": "https://dc.lft.to/lastmile_qr_scan"}, "is_reserved": 0},