{"data": {"bikes": [{"lon": -77.03666933333334, "bike_id": "d45b6d98d026bd75599c1ae1c3a452c8", "lat": 38.918214166666665, "fusion_lon": 0.0, "fusion_lat": 0.0, "type": "electric_scooter", "name": "d45b6d98d026bd75599c1ae1c3a452c8", "is_disabled": 0, "rental_uris": {"ios": "https://dc.lft.to/lastmile_qr_scan", "android": "https://dc.lft.to/lastmile_qr_scan"}, "is_reserved": 0}, {"lon": -76.931894, "bike_id": "dabcf02f3b2761e6bf7ea549331b6bc1", "lat": 38.898764166666666, "fusion_lon": 0.0, "fusion_lat": 0.0, "type": "electric_scooter", "name": "dabcf02f3b2761e6bf7ea549331b6bc1", "is_disabled": 0, "rental_uris": {"ios": "https://dc.lft.to/lastmile_qr_scan", "android": "https://dc.lft.to/lastmile_qr_scan"}, "is_reserved": 0}, {"lon": -77.04697866666666, "bike_id": "dee15d263a733f12b410ecae22704924", "lat": 38.92066233333333, "fusion_lon": 0.0, "fusion_lat": 0.0, "type": "electric_scooter", "name": "dee15d263a733f12b410ecae22704924", "is_disabled": 0, "rental_uris": {"ios": "https://dc.lft.to/lastmile_qr_scan", "android": "https://dc.lft.to/lastmile_qr_scan"}, "is_reserved": 0}, {"lon": -76.9853825, "bike_id": "6fcaf6cbbf5cd133fde38be394c9eb3f", "lat": 38.89654733333333, "fusion_lon": 0.0, "fusion_lat": 0.0, "type": "electric_scooter", "name": "6fcaf6cbbf5cd133fde38be394c9eb3f", "is_disabled": 0, "rental_uris": {"ios": "https://dc.lft.to/lastmile_qr_scan", "android": "https://dc.lft.to/lastmile_qr_scan"}, "is_reserved": 0}, {"lon": -77.023073, "bike_id": "a3ed799e04a5d4a2b4644930a8ef802a", "lat": 38.92743683333333, "fusion_lon": 0.0, "fusion_lat": 0.0, "type": "electric_scooter", "name": "a3ed799e04a5d4a2b4644930a8ef802a", "is_disabled": 0, "rental_uris": {"ios": "https://dc.lft.to/lastmile_qr_scan", "android": "https://dc.lft.to/lastmile_qr_scan"}, "is_reserved": 0}, {"lon": -77.05267383333333, "bike_id": "64be5ba327cee9c17e9aa0d83730b9f2", "lat": 38.899713, "fusion_lon": 0.0, "fusion_lat": 0.0, "type": "electric_scooter", "name": "64be5ba327cee9c17e9aa0d83730b9f2", "is_disabled": 0, "rental_uris": {"ios": "https://dc.lft.to/lastmile_qr_scan", "android": "https://dc.lft.to/lastmile_qr_scan"}, "is_reserved": 0}, {"lon": -77.03219783333333, "bike_id": "98cb146bc1b2438dfd6bf5097c9f73b5", "lat": 38.917092333333336, "fusion_lon": 0.0, "fusion_lat": 0.0, "type": "electric_scooter", "name": "98cb146bc1b2438dfd6bf5097c9f73b5", "is_disabled": 0, "rental_uris": {"ios": "https://dc.lft.to/lastmile_qr_scan", "android": "https://dc.lft.to/lastmile_qr_scan"}, "is_reserved": 0}, {"lon": -77.053601, "bike_id": "a94532fa7489cd6f527a0422e6b9929c", "lat": 38.927474333333336, "fusion_lon": 0.0, "fusion_lat": 0.0, "type": "electric_scooter", "name": "a94532fa7489cd6f527a0422e6b9929c", "is_disabled": 0, "rental_uris": {"ios": "https://dc.lft.to/lastmile_qr_scan", "android": "https://dc.lft.to/lastmile_qr_scan"}, "is_reserved": 0}, {"lon": -76.990171, "bike_id": "c3e00e50bc90495e4b797e3c2ce1a647", "lat": 38.881621333333335, "fusion_lon": 0.0, "fusion_lat": 0.0, "type": "electric_scooter", "name": "c3e00e50bc90495e4b797e3c2ce1a647", "is_disabled": 0, "rental_uris": {"ios": "https://dc.lft.to/lastmile_qr_scan", "android": "https://dc.lft.to/lastmile_qr_scan"}, "is_reserved": 0}, {"lon": -77.038551, "bike_id": "bbcbaaab1fe5b35e9a9309a0ef4f2401", "lat": 38.91785, "fusion_lon": 0.0, "fusion_lat": 0.0, "type": "electric_scooter", "name": "bbcbaaab1fe5b35e9a9309a0ef4f2401", "is_disabled": 0, "rental_uris": {"ios": "https://dc.lft.to/lastmile_qr_scan", "android": "https://dc.lft.to/lastmile_qr_scan"}, "is_reserved": 0}, {"lon": -77.01938133333333, "bike_id": "9e8ed614fafa0d9e454c2923dea2d1a4", "lat": 38.936947833333335, "fusion_lon": 0.0, "fusion_lat": 0.0, "type": "electric_scooter", "name": "9e8ed614fafa0d9e454c2923dea2d1a4", "is_disabled": 0, "rental_uris": {"ios": "https://dc.lft.to/lastmile_qr_scan", "android": "https://dc.lft.to/lastmile_qr_scan"}, "is_reserved": 0}, {"lon": -76.99531016666667, "bike_id": "0e681c1845868e9479c4c022e18b8a72", "lat": 38.883740833333334, "fusion_lon": 0.0, "fusion_lat": 0.0, "type": "electric_scooter", "name": "0e681c1845868e9479c4c022e18b8a72", "is_disabled": 0, "rental_uris": {"ios": "https://dc.lft.to/lastmile_qr_scan", "android": "https://dc.lft.to/lastmile_qr_scan"}, "is_reserved": 0}, {"lon": -77.03863933333334, "bike_id": "60d6fcd15d112e815bd1eb60dc9856ce", "lat": 38.91559783333334, "fusion_lon": 0.0, "fusion_lat": 0.0, "type": "electric_scooter", "name": "60d6fcd15d112e815bd1eb60dc9856ce", "is_disabled": 0, "rental_uris": {"ios": "https://dc.lft.to/lastmile_qr_scan", "android": "https://dc.lft.to/lastmile_qr_scan"}, "is_reserved": 0}, {"lon": -77.04395033333333, "bike_id": "1fbe4162a3f59dfa4120f313ac3a0024", "lat": 38.908980166666666, "fusion_lon": 0.0, "fusion_lat": 0.0, "type": "electric_scooter", "name": "1fbe4162a3f59dfa4120f313ac3a0024", "is_disabled": 0, "rental_uris": {"ios": "https://dc.lft.to/lastmile_qr_scan", "android": "https://dc.lft.to/lastmile_qr_scan"}, "is_reserved": 0}, {"lon": -77.0333975, "bike_id": "7e2604fda976dccc636b4a304013a264", "lat": 38.93643516666667, "fusion_lon": 0.0, "fusion_lat": 0.0, "type": "electric_scooter", "name": "7e2604fda976dccc636b4a304013a264", "is_disabled": 0, "rental_uris": {"ios": "https://dc.lft.to/lastmile_qr_scan", "android": "https://dc.lft.to/lastmile_qr_scan"}, "is_reserved": 0}, {"lon": -76.99333066666667, "bike_id": "a1cd610ab58e4737b75578d15c025ff8", "lat": 38.871430833333335, "fusion_lon": 0.0, "fusion_lat": 0.0, "type": "electric_scooter", "name": "a1cd610ab58e4737b75578d15c025ff8", "is_disabled": 0, "rental_uris": {"ios": "https://dc.lft.to/lastmile_qr_scan", "android": "https://dc.lft.to/lastmile_qr_scan"}, "is_reserved": 0}, {"lon": -76.98725016666667, "bike_id": "4ef0dcfaa2562a7fe4376cbb2b563052", "lat": 38.86712816666667, "fusion_lon": 0.0, "fusion_lat": 0.0, "type": "electric_scooter", "name": "4ef0dcfaa2562a7fe4376cbb2b563052", "is_disabled": 0, "rental_uris": {"ios": "https://dc.lft.to/lastmile_qr_scan", "android": "https://dc.lft.to/lastmile_qr_scan"}, "is_reserved": 0}, {"lon": -76.98705316666667, "bike_id": "9d550ac09847de8d6316fe6b6aa3f031", "lat": 38.86538566666667, "fusion_lon": 0.0, "fusion_lat": 0.0, "type": "electric_scooter", "name": "9d550ac09847de8d6316fe6b6aa3f031", "is_disabled": 0, "rental_uris": {"ios": "https://dc.lft.to/lastmile_qr_scan", "android": "https://dc.lft.to/lastmile_qr_scan"}, "is_reserved": 0}, {"lon": -77.033095, "bike_id": "de97859a8892230b9d994cfb3291c50f", "lat": 38.90364666666667, "fusion_lon": 0.0, "fusion_lat": 0.0, "type": "electric_scooter", "name": "de97859a8892230b9d994cfb3291c50f", "is_disabled": 0, "rental_uris": {"ios": "https://dc.lft.to/lastmile_qr_scan", "android": "https://dc.lft.to/lastmile_qr_scan"}, "is_reserved": 0}, {"lon": -77.03438916666667, "bike_id": "429ca728127551a71116bcbd9bfbdbb1", "lat": 38.91808183333333, "fusion_lon": 0.0, "fusion_lat": 0.0, "type": "electric_scooter", "name": "429ca728127551a71116bcbd9bfbdbb1", "is_disabled": 0, "rental_uris": {"ios": "https://dc.lft.to/lastmile_qr_scan", "android": "https://dc.lft.to/lastmile_qr_scan"}, "is_reserved": 0}, {"lon": -76.980936, "bike_id": "639867e9b30746d55b3515c3b6633a99", "lat": 38.9535175, "fusion_lon": 0.0, "fusion_lat": 0.0, "type": "electric_bike", "name": "639867e9b30746d55b3515c3b6633a99", "is_disabled": 0, "rental_uris": {"ios": "https://dc.lft.to/lastmile_qr_scan", "android": "https://dc.lft.to/lastmile_qr_scan"}, "is_reserved": 0}, {"lon": -77.03187366666667, "bike_id": "d943a4724892d0e747b8f1e6cae54b7b", "lat": 38.91343066666667, "fusion_lon": 0.0, "fusion_lat": 0.0, "type": "electric_scooter", "name": "d943a4724892d0e747b8f1e6cae54b7b", "is_disabled": 0, "rental_uris": {"ios": "https://dc.lft.to/lastmile_qr_scan", "android": "https://dc.lft.to/lastmile_qr_scan"}, "is_reserved": 0}, {"lon": -76.94885483333333, "bike_id": "2a2d110ef313c8d65745f7c6877a4623", "lat": 38.8951435, "fusion_lon": 0.0, "fusion_lat": 0.0, "type": "electric_scooter", "name": "2a2d110ef313c8d65745f7c6877a4623", "is_disabled": 0, "rental_uris": {"ios": "https://dc.lft.to/lastmile_qr_scan", "android": "https://dc.lft.to/lastmile_qr_scan"}, "is_reserved": 0}, {"lon": -77.02714466666667, "bike_id": "bc9d5740fcd11d34adab50ebbb1a1c09", "lat": 38.91070366666667, "fusion_lon": 0.0, "fusion_lat": 0.0, "type": "electric_scooter", "name": "bc9d5740fcd11d34adab50ebbb1a1c09", "is_disabled": 0, "rental_uris": {"ios": "https://dc.lft.to/lastmile_qr_scan", "android": "https://dc.lft.to/lastmile_qr_scan"}, "is_reserved": 0}, {"lon": -77.02625633333334, "bike_id": "ab37f73f10d620d5e5b38dd1225ea254", "lat": 38.897088, "fusion_lon": 0.0, "fusion_lat": 0.0, "type": "electric_scooter", "name": "ab37f73f10d620d5e5b38dd1225ea254", "is_disabled": 0, "rental_uris": {"ios": "https://dc.lft.to/lastmile_qr_scan", "android": "https://dc.lft.to/lastmile_qr_scan"}, "is_reserved": 0}, {"lon": -77.01685383333333, "bike_id": "dea9354d6e7b5108407d4e1e0aa56eec", "lat": 38.881306333333335, "fusion_lon": 0.0, "fusion_lat": 0.0, "type": "electric_scooter", "name": "dea9354d6e7b5108407d4e1e0aa56eec", "is_disabled": 0, "rental_uris": {"ios": "https://dc.lft.to/lastmile_qr_scan", "android": "https://dc.lft.to/lastmile_qr_scan"}, "is_reserved": 0}, {"lon": -77.020931, "bike_id": "d17947047415b4c5d8ce3b7429bbfa5e", "lat": 38.95760283333333, "fusion_lon": 0.0, "fusion_lat": 0.0, "type": "electric_scooter", "name": "d17947047415b4c5d8ce3b7429bbfa5e", "is_disabled": 0, "rental_uris": {"ios": "https://dc.lft.to/lastmile_qr_scan", "android": "https://dc.lft.to/lastmile_qr_scan"}, "is_reserved": 0}, {"lon": -77.05572133333334, "bike_id": "eef76df53856c1693e57802eb8d93f84", "lat": 38.915985166666665, "fusion_lon": 0.0, "fusion_lat": 0.0, "type": "electric_scooter", "name": "eef76df53856c1693e57802eb8d93f84", "is_disabled": 0, "rental_uris": {"ios": "https://dc.lft.to/lastmile_qr_scan", "android": "https://dc.lft.to/lastmile_qr_scan"}, "is_reserved": 0}, {"lon": -77.023289, "bike_id": "86f6e77dd8992e9188a34adbfb675c9e", "lat": 38.922270166666664, "fusion_lon": 0.0, "fusion_lat": 0.0, "type": "electric_scooter", "name": "86f6e77dd8992e9188a34adbfb675c9e", "is_disabled": 0, "rental_uris": {"ios": "https://dc.lft.to/lastmile_qr_scan", "android": "https://dc.lft.to/lastmile_qr_scan"}, "is_reserved": 0}, {"lon": -76.99003516666667, "bike_id": "95ebddbb0e0d9d1dfc308497b2d750cf", "lat": 38.8650505, "fusion_lon": 0.0, "fusion_lat": 0.0, "type": "electric_scooter", "name": "95ebddbb0e0d9d1dfc308497b2d750cf", "is_disabled": 0, "rental_uris": {"ios": "https://dc.lft.to/lastmile_qr_scan", "android": "https://dc.lft.to/lastmile_qr_scan"}, "is_reserved": 0}, {"lon": -77.0276595, "bike_id": "ecc83e8d9590b5bd5dc952d11352a447", "lat": 38.954265166666666, "fusion_lon": 0.0, "fusion_lat": 0.0, "type": "electric_scooter", "name": "ecc83e8d9590b5bd5dc952d11352a447", "is_disabled": 0, "rental_uris": {"ios": "https://dc.lft.to/lastmile_qr_scan", "android": "https://dc.lft.to/lastmile_qr_scan"}, "is_reserved": 0}, {"lon": -76.98084, "bike_id": "97d73f6019da53a97d3b72ea0d3d33b5", "lat": 38.90708816666667, "fusion_lon": 0.0, "fusion_lat": 0.0, "type": "electric_scooter", "name": "97d73f6019da53a97d3b72ea0d3d33b5", "is_disabled": 0, "rental_uris": {"ios": "https://dc.lft.to/lastmile_qr_scan", "android": "https://dc.lft.to/lastmile_qr_scan"}, "is_reserved": 0}, {"lon": -77.05233233333334, "bike_id": "e41208ec2b9a2bc1996479bd64449642", "lat": 38.923406666666665, "fusion_lon": 0.0, "fusion_lat": 0.0, "type": "electric_scooter", "name": "e41208ec2b9a2bc1996479bd64449642", "is_disabled": 0, "rental_uris": {"ios": "https://dc.lft.to/lastmile_qr_scan", "android": "https://dc.lft.to/lastmile_qr_scan"}, "is_reserved": 0}, {"lon": -77.0321645, "bike_id": "e9182fc8f0b014b7103dcb7e529dd9a9", "lat": 38.91713766666667, "fusion_lon": 0.0, "fusion_lat": 0.0, "type": "electric_scooter", "name": "e9182fc8f0b014b7103dcb7e529dd9a9", "is_disabled": 0, "rental_uris": {"ios": "https://dc.lft.to/lastmile_qr_scan", "android": "https://dc.lft.to/lastmile_qr_scan"}, "is_reserved": 0}, {"lon": -77.06834383333333, "bike_id": "b6fa79186f07eaef94771693c372f364", "lat": 38.80571, "fusion_lon": 0.0, "fusion_lat": 0.0, "type": "electric_bike", "name": "b6fa79186f07eaef94771693c372f364", "is_disabled": 0, "rental_uris": {"ios": "https://dc.lft.to/lastmile_qr_scan", "android": "https://dc.lft.to/lastmile_qr_scan"}, "is_reserved": 0}, {"lon": -76.99004516666666, "bike_id": "187d43b9e19688f47ceb14eb3a601cc7", "lat": 38.865053833333334, "fusion_lon": 0.0, "fusion_lat": 0.0, "type": "electric_scooter", "name": "187d43b9e19688f47ceb14eb3a601cc7", "is_disabled": 0, "rental_uris": {"ios": "https://dc.lft.to/lastmile_qr_scan", "android": "https://dc.lft.to/lastmile_qr_scan"}, "is_reserved": 0}, {"lon": -77.0033315, "bike_id": "d5908cc8f2ba88551180e72232494372", "lat": 38.8972905, "fusion_lon": 0.0, "fusion_lat": 0.0, "type": "electric_scooter", "name": "d5908cc8f2ba88551180e72232494372", "is_disabled": 0, "rental_uris": {"ios": "https://dc.lft.to/lastmile_qr_scan", "android": "https://dc.lft.to/lastmile_qr_scan"}, "is_reserved": 0}, {"lon": -77.03262566666666, "bike_id": "5afb4e590611b674ed116629679f6565", "lat": 38.93701216666667, "fusion_lon": 0.0, "fusion_lat": 0.0, "type": "electric_scooter", "name": "5afb4e590611b674ed116629679f6565", "is_disabled": 0, "rental_uris": {"ios": "https://dc.lft.to/lastmile_qr_scan", "android": "https://dc.lft.to/lastmile_qr_scan"}, "is_reserved": 0}, {"lon": -77.00524716666666, "bike_id": "6ac14627b7030b1efc0b2f36d9268803", "lat": 38.87547216666667, "fusion_lon": 0.0, "fusion_lat": 0.0, "type": "electric_scooter", "name": "6ac14627b7030b1efc0b2f36d9268803", "is_disabled": 0, "rental_uris": {"ios": "https://dc.lft.to/lastmile_qr_scan", "android": "https://dc.lft.to/lastmile_qr_scan"}, "is_reserved": 0}, {"lon": -77.02800166666667, "bike_id": "d28a1dcdc1c0dc048db1e15529e0a8fe", "lat": 38.9307705, "fusion_lon": 0.0, "fusion_lat": 0.0, "type": "electric_scooter", "name": "d28a1dcdc1c0dc048db1e15529e0a8fe", "is_disabled": 0, "rental_uris": {"ios": "https://dc.lft.to/lastmile_qr_scan", "android": "https://dc.lft.to/lastmile_qr_scan"}, "is_reserved": 0}, {"lon": -77.07661183333333, "bike_id": "14d71187bba829dd4e833d6321f04074", "lat": 38.862672833333335, "fusion_lon": 0.0, "fusion_lat": 0.0, "type": "electric_bike", "name": "14d71187bba829dd4e833d6321f04074", "is_disabled": 0, "rental_uris": {"ios": "https://dc.lft.to/lastmile_qr_scan", "android": "https://dc.lft.to/lastmile_qr_scan"}, "is_reserved": 0}, {"lon": -77.02440933333334, "bike_id": "a88309300df7528b022ce4fbbdfb776f", "lat": 38.922663, "fusion_lon": 0.0, "fusion_lat": 0.0, "type": "electric_scooter", "name": "a88309300df7528b022ce4fbbdfb776f", "is_disabled": 0, "rental_uris": {"ios": "https://dc.lft.to/lastmile_qr_scan", "android": "https://dc.lft.to/lastmile_qr_scan"}, "is_reserved": 0}, {"lon": -76.99023516666666, "bike_id": "cae4622188e7949287153a580a02d784", "lat": 38.94602483333333, "fusion_lon": 0.0, "fusion_lat": 0.0, "type": "electric_scooter", "name": "cae4622188e7949287153a580a02d784", "is_disabled": 0, "rental_uris": {"ios": "https://dc.lft.to/lastmile_qr_scan", "android": "https://dc.lft.to/lastmile_qr_scan"}, "is_reserved": 0}, {"lon": -76.993675, "bike_id": "9a24b68c7b4c1318a363fe3d342ff105", "lat": 38.94027033333333, "fusion_lon": 0.0, "fusion_lat": 0.0, "type": "electric_scooter", "name": "9a24b68c7b4c1318a363fe3d342ff105", "is_disabled": 0, "rental_uris": {"ios": "https://dc.lft.to/lastmile_qr_scan", "android": "https://dc.lft.to/lastmile_qr_scan"}, "is_reserved": 0}, {"lon": -76.99479166666667, "bike_id": "ec2525245a66b8b1a242faa247820253", "lat": 38.879522333333334, "fusion_lon": 0.0, "fusion_lat": 0.0, "type": "electric_scooter", "name": "ec2525245a66b8b1a242faa247820253", "is_disabled": 0, "rental_uris": {"ios": "https://dc.lft.to/lastmile_qr_scan", "android": "https://dc.lft.to/lastmile_qr_scan"}, "is_reserved": 0}, {"lon": -77.038669, "bike_id": "e4c155265e0e74abcb7a0cd752456038", "lat": 38.9201845, "fusion_lon": 0.0, "fusion_lat": 0.0, "type": "electric_scooter", "name": "e4c155265e0e74abcb7a0cd752456038", "is_disabled": 0, "rental_uris": {"ios": "https://dc.lft.to/lastmile_qr_scan", "android": "https://dc.lft.to/lastmile_qr_scan"}, "is_reserved": 0}, {"lon": -76.99850483333333, "bike_id": "a0cbc1cc8efbf8fa923146abc1832cf9", "lat": 38.90100866666667, "fusion_lon": 0.0, "fusion_lat": 0.0, "type": "electric_scooter", "name": "a0cbc1cc8efbf8fa923146abc1832cf9", "is_disabled": 0, "rental_uris": {"ios": "https://dc.lft.to/lastmile_qr_scan", "android": "https://dc.lft.to/lastmile_qr_scan"}, "is_reserved": 0}, {"lon": -77.0365705, "bike_id": "d3a9605ed892d2056c620cace73a649c", "lat": 38.9298125, "fusion_lon": 0.0, "fusion_lat": 0.0, "type": "electric_scooter", "name": "d3a9605ed892d2056c620cace73a649c", "is_disabled": 0, "rental_uris": {"ios": "https://dc.lft.to/lastmile_qr_scan", "android": "https://dc.lft.to/lastmile_qr_scan"}, "is_reserved": 0}, {"lon": -77.03173116666666, "bike_id": "7877500d9e7d4f30dc8b9c35bb932e08", "lat": 38.919356666666665, "fusion_lon": 0.0, "fusion_lat": 0.0, "type": "electric_scooter", "name": "7877500d9e7d4f30dc8b9c35bb932e08", "is_disabled": 0, "rental_uris": {"ios": "https://dc.lft.to/lastmile_qr_scan", "android": "https://dc.lft.to/lastmile_qr_scan"}, "is_reserved": 0}, {"lon": -77.02601416666667, "bike_id": "df71289e76a61f74b4f4326da8793949", "lat": 38.900186833333336, "fusion_lon": 0.0, "fusion_lat": 0.0, "type": "electric_scooter", "name": "df71289e76a61f74b4f4326da8793949", "is_disabled": 0, "rental_uris": {"ios": "https://dc.lft.to/lastmile_qr_scan", "android": "https://dc.lft.to/lastmile_qr_scan"}, "is_reserved": 0}, {"lon": -77.0514855, "bike_id": "adcff259fa07bfed28072646de4007ac", "lat": 38.898613, "fusion_lon": 0.0, "fusion_lat": 0.0, "type": "electric_scooter", "name": "adcff259fa07bfed28072646de4007ac", "is_disabled": 0, "rental_uris": {"ios": "https://dc.lft.to/lastmile_qr_scan", "android": "https://dc.lft.to/lastmile_qr_scan"}, "is_reserved": 0}, {"lon": -77.04979483333334, "bike_id": "6a7c2199890f432f1889fe4a7f64d806", "lat": 39.06295733333334, "fusion_lon": 0.0, "fusion_lat": 0.0, "type": "electric_bike", "name": "6a7c2199890f432f1889fe4a7f64d806", "is_disabled": 0, "rental_uris": {"ios": "https://dc.lft.to/lastmile_qr_scan", "android": "https://dc.lft.to/lastmile_qr_scan"}, "is_reserved": 0}, {"lon": -76.99173716666667, "bike_id": "292c3ec0891d6edba8437f957bc0d94c", "lat": 38.8899405, "fusion_lon": 0.0, "fusion_lat": 0.0, "type": "electric_scooter", "name": "292c3ec0891d6edba8437f957bc0d94c", "is_disabled": 0, "rental_uris": {"ios": "https://dc.lft.to/lastmile_qr_scan", "android": "https://dc.lft.to/lastmile_qr_scan"}, "is_reserved": 0}, {"lon": -77.00346683333333, "bike_id": "7076bd0a9c1f933d06740748ff696809", "lat": 38.916309166666665, "fusion_lon": 0.0, "fusion_lat": 0.0, "type": "electric_scooter", "name": "7076bd0a9c1f933d06740748ff696809", "is_disabled": 0, "rental_uris": {"ios": "https://dc.lft.to/lastmile_qr_scan", "android": "https://dc.lft.to/lastmile_qr_scan"}, "is_reserved": 0}, {"lon": -77.03261816666667, "bike_id": "c1e45027037b98b2d51d764df6f64c85", "lat": 38.941579833333336, "fusion_lon": 0.0, "fusion_lat": 0.0, "type": "electric_scooter", "name": "c1e45027037b98b2d51d764df6f64c85", "is_disabled": 0, "rental_uris": {"ios": "https://dc.lft.to/lastmile_qr_scan", "android": "https://dc.lft.to/lastmile_qr_scan"}, "is_reserved": 0}, {"lon": -77.0409345, "bike_id": "d1d26ae25263f421af91d924a4a55a70", "lat": 38.909771, "fusion_lon": 0.0, "fusion_lat": 0.0, "type": "electric_scooter", "name": "d1d26ae25263f421af91d924a4a55a70", "is_disabled": 0, "rental_uris": {"ios": "https://dc.lft.to/lastmile_qr_scan", "android": "https://dc.lft.to/lastmile_qr_scan"}, "is_reserved": 0}, {"lon": -77.0243605, "bike_id": "2d73980ac04557f6990f3ba1e5fa3bf4", "lat": 38.92348366666667, "fusion_lon": 0.0, "fusion_lat": 0.0, "type": "electric_scooter", "name": "2d73980ac04557f6990f3ba1e5fa3bf4", "is_disabled": 0, "rental_uris": {"ios": "https://dc.lft.to/lastmile_qr_scan", "android": "https://dc.lft.to/lastmile_qr_scan"}, "is_reserved": 0}, {"lon": -77.050661, "bike_id": "a5a2dd36bf6bf23dc2effde17ee8983c", "lat": 38.9259695, "fusion_lon": 0.0, "fusion_lat": 0.0, "type": "electric_scooter", "name": "a5a2dd36bf6bf23dc2effde17ee8983c", "is_disabled": 0, "rental_uris": {"ios": "https://dc.lft.to/lastmile_qr_scan", "android": "https://dc.lft.to/lastmile_qr_scan"}, "is_reserved": 0}, {"lon": -77.03755166666667, "bike_id": "60d9dcfa07431e19bdc978a6f8d7cfc8", "lat": 38.9287505, "fusion_lon": 0.0, "fusion_lat": 0.0, "type": "electric_scooter", "name": "60d9dcfa07431e19bdc978a6f8d7cfc8", "is_disabled": 0, "rental_uris": {"ios": "https://dc.lft.to/lastmile_qr_scan", "android": "https://dc.lft.to/lastmile_qr_scan"}, "is_reserved": 0}, {"lon": -77.03644666666666, "bike_id": "82fe6be090e10edf79e3c122cb38ee12", "lat": 38.916813833333336, "fusion_lon": 0.0, "fusion_lat": 0.0, "type": "electric_scooter", "name": "82fe6be090e10edf79e3c122cb38ee12", "is_disabled": 0, "rental_uris": {"ios": "https://dc.lft.to/lastmile_qr_scan", "android": "https://dc.lft.to/lastmile_qr_scan"}, "is_reserved": 0}, {"lon": -77.03327216666666, "bike_id": "0d2dcbb2cb3cda8813a42cfe1b8f80a0", "lat": 38.915698, "fusion_lon": 0.0, "fusion_lat": 0.0, "type": "electric_scooter", "name": "0d2dcbb2cb3cda8813a42cfe1b8f80a0", "is_disabled": 0, "rental_uris": {"ios": "https://dc.lft.to/lastmile_qr_scan", "android": "https://dc.lft.to/lastmile_qr_scan"}, "is_reserved": 0}, {"lon": -76.9846435, "bike_id": "8ce47c0767b70237ec82160719e3062f", "lat": 38.90557716666667, "fusion_lon": 0.0, "fusion_lat": 0.0, "type": "electric_scooter", "name": "8ce47c0767b70237ec82160719e3062f", "is_disabled": 0, "rental_uris": {"ios": "https://dc.lft.to/lastmile_qr_scan", "android": "https://dc.lft.to/lastmile_qr_scan"}, "is_reserved": 0}, {"lon": -77.02206633333333, "bike_id": "50a53eb505689da2631eb4630e2b1814", "lat": 38.90033666666667, "fusion_lon": 0.0, "fusion_lat": 0.0, "type": "electric_scooter", "name": "50a53eb505689da2631eb4630e2b1814", "is_disabled": 0, "rental_uris": {"ios": "https://dc.lft.to/lastmile_qr_scan", "android": "https://dc.lft.to/lastmile_qr_scan"}, "is_reserved": 0}, {"lon": -76.949223, "bike_id": "d3a20f35f763db14a6cd629e30be321f", "lat": 38.8935515, "fusion_lon": 0.0, "fusion_lat": 0.0, "type": "electric_scooter", "name": "d3a20f35f763db14a6cd629e30be321f", "is_disabled": 0, "rental_uris": {"ios": "https://dc.lft.to/lastmile_qr_scan", "android": "https://dc.lft.to/lastmile_qr_scan"}, "is_reserved": 0}, {"lon": -77.040268, "bike_id": "f569c025e3b3214067b02896d06ec6ef", "lat": 38.9239235, "fusion_lon": 0.0, "fusion_lat": 0.0, "type": "electric_scooter", "name": "f569c025e3b3214067b02896d06ec6ef", "is_disabled": 0, "rental_uris": {"ios": "https://dc.lft.to/lastmile_qr_scan", "android": "https://dc.lft.to/lastmile_qr_scan"}, "is_reserved": 0}, {"lon": -77.00013333333334, "bike_id": "6d043059c72529b12a9f698523c79a75", "lat": 38.91983, "fusion_lon": 0.0, "fusion_lat": 0.0, "type": "electric_scooter", "name": "6d043059c72529b12a9f698523c79a75", "is_disabled": 0, "rental_uris": {"ios": "https://dc.lft.to/lastmile_qr_scan", "android": "https://dc.lft.to/lastmile_qr_scan"}, "is_reserved": 0}, {"lon": -77.07431833333334, "bike_id": "40aaccc58e1cf4de89cb1abcdbfe0d26", "lat": 38.99948666666667, "fusion_lon": 0.0, "fusion_lat": 0.0, "type": "electric_bike", "name": "40aaccc58e1cf4de89cb1abcdbfe0d26", "is_disabled": 0, "rental_uris": {"ios": "https://dc.lft.to/lastmile_qr_scan", "android": "https://dc.lft.to/lastmile_qr_scan"}, "is_reserved": 0}, {"lon": -77.02031083333334, "bike_id": "b717c6a422442850151a19322ef1d2a3", "lat": 38.92448266666667, "fusion_lon": 0.0, "fusion_lat": 0.0, "type": "electric_scooter", "name": "b717c6a422442850151a19322ef1d2a3", "is_disabled": 0, "rental_uris": {"ios": "https://dc.lft.to/lastmile_qr_scan", "android": "https://dc.lft.to/lastmile_qr_scan"}, "is_reserved": 0}, {"lon": -77.02183816666667, "bike_id": "0b8a4e6735e513f7df1c18cfd81fb321", "lat": 38.907005833333336, "fusion_lon": 0.0, "fusion_lat": 0.0, "type": "electric_bike", "name": "0b8a4e6735e513f7df1c18cfd81fb321", "is_disabled": 0, "rental_uris": {"ios": "https://dc.lft.to/lastmile_qr_scan", "android": "https://dc.lft.to/lastmile_qr_scan"}, "is_reserved": 0}, {"lon": -76.98719333333334, "bike_id": "ed7cc219d5216002acf797e4d88c4ae6", "lat": 38.866271166666664, "fusion_lon": 0.0, "fusion_lat": 0.0, "type": "electric_scooter", "name": "ed7cc219d5216002acf797e4d88c4ae6", "is_disabled": 0, "rental_uris": {"ios": "https://dc.lft.to/lastmile_qr_scan", "android": "https://dc.lft.to/lastmile_qr_scan"}, "is_reserved": 0}, {"lon": -77.03193833333333, "bike_id": "622491d09dc342cec0dfc85b337bca45", "lat": 38.913440666666666, "fusion_lon": 0.0, "fusion_lat": 0.0, "type": "electric_scooter", "name": "622491d09dc342cec0dfc85b337bca45", "is_disabled": 0, "rental_uris": {"ios": "https://dc.lft.to/lastmile_qr_scan", "android": "https://dc.lft.to/lastmile_qr_scan"}, "is_reserved": 0}, {"lon": -77.07332033333333, "bike_id": "414cd820b4b33abf290b69bfbf83aed9", "lat": 38.924057833333336, "fusion_lon": 0.0, "fusion_lat": 0.0, "type": "electric_scooter", "name": "414cd820b4b33abf290b69bfbf83aed9", "is_disabled": 0, "rental_uris": {"ios": "https://dc.lft.to/lastmile_qr_scan", "android": "https://dc.lft.to/lastmile_qr_scan"}, "is_reserved": 0}, {"lon": -77.01366916666667, "bike_id": "0be69d6b986146aac93b34c13ffe8af7", "lat": 38.88680883333333, "fusion_lon": 0.0, "fusion_lat": 0.0, "type": "electric_scooter", "name": "0be69d6b986146aac93b34c13ffe8af7", "is_disabled": 0, "rental_uris": {"ios": "https://dc.lft.to/lastmile_qr_scan", "android": "https://dc.lft.to/lastmile_qr_scan"}, "is_reserved": 0}, {"lon": -77.00974533333333, "bike_id": "55f9b2cfc8234a24a2ca26717182c78c", "lat": 38.89484433333333, "fusion_lon": 0.0, "fusion_lat": 0.0, "type": "electric_scooter", "name": "55f9b2cfc8234a24a2ca26717182c78c", "is_disabled": 0, "rental_uris": {"ios": "https://dc.lft.to/lastmile_qr_scan", "android": "https://dc.lft.to/lastmile_qr_scan"}, "is_reserved": 0}, {"lon": -77.03324883333333, "bike_id": "d9e3d765b4e6da24903d64b7166716e3", "lat": 38.919802833333335, "fusion_lon": 0.0, "fusion_lat": 0.0, "type": "electric_scooter", "name": "d9e3d765b4e6da24903d64b7166716e3", "is_disabled": 0, "rental_uris": {"ios": "https://dc.lft.to/lastmile_qr_scan", "android": "https://dc.lft.to/lastmile_qr_scan"}, "is_reserved": 0}, {"lon": -76.98348, "bike_id": "cedc1de12fdc163f537da12ab49e74ce", "lat": 38.904577833333335, "fusion_lon": 0.0, "fusion_lat": 0.0, "type": "electric_scooter", "name": "cedc1de12fdc163f537da12ab49e74ce", "is_disabled": 0, "rental_uris": {"ios": "https://dc.lft.to/lastmile_qr_scan", "android": "https://dc.lft.to/lastmile_qr_scan"}, "is_reserved": 0}, {"lon": -77.05861, "bike_id": "18b428f39db8e2bb280df3211d47ca43", "lat": 38.936082666666664, "fusion_lon": 0.0, "fusion_lat": 0.0, "type": "electric_scooter", "name": "18b428f39db8e2bb280df3211d47ca43", "is_disabled": 0, "rental_uris": {"ios": "https://dc.lft.to/lastmile_qr_scan", "android": "https://dc.lft.to/lastmile_qr_scan"}, "is_reserved": 0}, {"lon": -77.03179683333333, "bike_id": "dfd09c54f64bd219e9f6aa9f56681ed8", "lat": 38.90518616666667, "fusion_lon": 0.0, "fusion_lat": 0.0, "type": "electric_scooter", "name": "dfd09c54f64bd219e9f6aa9f56681ed8", "is_disabled": 0, "rental_uris": {"ios": "https://dc.lft.to/lastmile_qr_scan", "android": "https://dc.lft.to/lastmile_qr_scan"}, "is_reserved": 0}, {"lon": -76.9761815, "bike_id": "1f80bc5d439388b4b1b41b063a962344", "lat": 38.926546, "fusion_lon": 0.0, "fusion_lat": 0.0, "type": "electric_scooter", "name": "1f80bc5d439388b4b1b41b063a962344", "is_disabled": 0, "rental_uris": {"ios": "https://dc.lft.to/lastmile_qr_scan", "android": "https://dc.lft.to/lastmile_qr_scan"}, "is_reserved": 0}, {"lon": -77.0187055, "bike_id": "acfd50d595094b6529ce07f88cb43054", "lat": 38.9515185, "fusion_lon": 0.0, "fusion_lat": 0.0, "type": "electric_scooter", "name": "acfd50d595094b6529ce07f88cb43054", "is_disabled": 0, "rental_uris": {"ios": "https://dc.lft.to/lastmile_qr_scan", "android": "https://dc.lft.to/lastmile_qr_scan"}, "is_reserved": 0}, {"lon": -77.04197366666666, "bike_id": "7937bf63cd8a62f77c72a8aa06a6c792", "lat": 38.92634616666667, "fusion_lon": 0.0, "fusion_lat": 0.0, "type": "electric_scooter", "name": "7937bf63cd8a62f77c72a8aa06a6c792", "is_disabled": 0, "rental_uris": {"ios": "https://dc.lft.to/lastmile_qr_scan", "android": "https://dc.lft.to/lastmile_qr_scan"}, "is_reserved": 0}, {"lon": -76.9910435, "bike_id": "119999972adcc8185389b34455b1517b", "lat": 38.903211166666665, "fusion_lon": 0.0, "fusion_lat": 0.0, "type": "electric_scooter", "name": "119999972adcc8185389b34455b1517b", "is_disabled": 0, "rental_uris": {"ios": "https://dc.lft.to/lastmile_qr_scan", "android": "https://dc.lft.to/lastmile_qr_scan"}, "is_reserved": 0}, {"lon": -77.0881065, "bike_id": "7aab79f4d88dd20a0e649c25cf5853c5", "lat": 38.91177916666667, "fusion_lon": 0.0, "fusion_lat": 0.0, "type": "electric_bike", "name": "7aab79f4d88dd20a0e649c25cf5853c5", "is_disabled": 0, "rental_uris": {"ios": "https://dc.lft.to/lastmile_qr_scan", "android": "https://dc.lft.to/lastmile_qr_scan"}, "is_reserved": 0}, {"lon": -77.039265, "bike_id": "6836eec1939276602b2984286bdb2bc3", "lat": 38.927919, "fusion_lon": 0.0, "fusion_lat": 0.0, "type": "electric_scooter", "name": "6836eec1939276602b2984286bdb2bc3", "is_disabled": 0, "rental_uris": {"ios": "https://dc.lft.to/lastmile_qr_scan", "android": "https://dc.lft.to/lastmile_qr_scan"}, "is_reserved": 0}, {"lon": -77.00726333333333, "bike_id": "d9838d9082884f9caa3b8e3550249fd3", "lat": 38.9003555, "fusion_lon": 0.0, "fusion_lat": 0.0, "type": "electric_scooter", "name": "d9838d9082884f9caa3b8e3550249fd3", "is_disabled": 0, "rental_uris": {"ios": "https://dc.lft.to/lastmile_qr_scan", "android": "https://dc.lft.to/lastmile_qr_scan"}, "is_reserved": 0}, {"lon": -77.0363135, "bike_id": "7d96380ee86ede1f5b688c98919ff339", "lat": 38.924557, "fusion_lon": 0.0, "fusion_lat": 0.0, "type": "electric_scooter", "name": "7d96380ee86ede1f5b688c98919ff339", "is_disabled": 0, "rental_uris": {"ios": "https://dc.lft.to/lastmile_qr_scan", "android": "https://dc.lft.to/lastmile_qr_scan"}, "is_reserved": 0}, {"lon": -76.952401, "bike_id": "0a22f6518177f727e6d1c7f3eaaa314a", "lat": 38.89106816666666, "fusion_lon": 0.0, "fusion_lat": 0.0, "type": "electric_scooter", "name": "0a22f6518177f727e6d1c7f3eaaa314a", "is_disabled": 0, "rental_uris": {"ios": "https://dc.lft.to/lastmile_qr_scan", "android": "https://dc.lft.to/lastmile_qr_scan"}, "is_reserved": 0}, {"lon": -77.0599355, "bike_id": "f5249b5438825974735dceebf5acca21", "lat": 38.80722383333333, "fusion_lon": 0.0, "fusion_lat": 0.0, "type": "electric_bike", "name": "f5249b5438825974735dceebf5acca21", "is_disabled": 0, "rental_uris": {"ios": "https://dc.lft.to/lastmile_qr_scan", "android": "https://dc.lft.to/lastmile_qr_scan"}, "is_reserved": 0}, {"lon": -76.96552066666666, "bike_id": "4c56df5a764f3a39f99c0143d249f5a5", "lat": 38.918647, "fusion_lon": 0.0, "fusion_lat": 0.0, "type": "electric_scooter", "name": "4c56df5a764f3a39f99c0143d249f5a5", "is_disabled": 0, "rental_uris": {"ios": "https://dc.lft.to/lastmile_qr_scan", "android": "https://dc.lft.to/lastmile_qr_scan"}, "is_reserved": 0}, {"lon": -76.9565565, "bike_id": "b14572da23da74dc9d249fbe3d102683", "lat": 38.89623316666667, "fusion_lon": 0.0, "fusion_lat": 0.0, "type": "electric_scooter", "name": "b14572da23da74dc9d249fbe3d102683", "is_disabled": 0, "rental_uris": {"ios": "https://dc.lft.to/lastmile_qr_scan", "android": "https://dc.lft.to/lastmile_qr_scan"}, "is_reserved": 0}, {"lon": -77.027615, "bike_id": "5a7a01842058f8a4dbeba3ab5ac81a18", "lat": 38.96568666666667, "fusion_lon": 0.0, "fusion_lat": 0.0, "type": "electric_bike", "name": "5a7a01842058f8a4dbeba3ab5ac81a18", "is_disabled": 0, "rental_uris": {"ios": "https://dc.lft.to/lastmile_qr_scan", "android": "https://dc.lft.to/lastmile_qr_scan"}, "is_reserved": 0}, {"lon": -77.05228633333333, "bike_id": "898da19da335483190ed6b3308d45278", "lat": 38.92462866666666, "fusion_lon": 0.0, "fusion_lat": 0.0, "type": "electric_scooter", "name": "898da19da335483190ed6b3308d45278", "is_disabled": 0, "rental_uris": {"ios": "https://dc.lft.to/lastmile_qr_scan", "android": "https://dc.lft.to/lastmile_qr_scan"}, "is_reserved": 0}, {"lon": -77.03657833333334, "bike_id": "dff14b8062b6ea153ffc4f3d673e145c", "lat": 38.932036, "fusion_lon": 0.0, "fusion_lat": 0.0, "type": "electric_scooter", "name": "dff14b8062b6ea153ffc4f3d673e145c", "is_disabled": 0, "rental_uris": {"ios": "https://dc.lft.to/lastmile_qr_scan", "android": "https://dc.lft.to/lastmile_qr_scan"}, "is_reserved": 0}, {"lon": -76.96131083333333, "bike_id": "1491ff57e0875454687da8f635bd220f", "lat": 38.94214816666667, "fusion_lon": 0.0, "fusion_lat": 0.0, "type": "electric_bike", "name": "1491ff57e0875454687da8f635bd220f", "is_disabled": 0, "rental_uris": {"ios": "https://dc.lft.to/lastmile_qr_scan", "android": "https://dc.lft.to/lastmile_qr_scan"}, "is_reserved": 0}, {"lon": -77.0181255, "bike_id": "851a65669812490cc22a834739bdfbd9", "lat": 38.96488683333333, "fusion_lon": 0.0, "fusion_lat": 0.0, "type": "electric_scooter", "name": "851a65669812490cc22a834739bdfbd9", "is_disabled": 0, "rental_uris": {"ios": "https://dc.lft.to/lastmile_qr_scan", "android": "https://dc.lft.to/lastmile_qr_scan"}, "is_reserved": 0}, {"lon": -77.04657233333333, "bike_id": "9688b23a316acd1ce36b8ba718ba5420", "lat": 39.055087, "fusion_lon": 0.0, "fusion_lat": 0.0, "type": "electric_bike", "name": "9688b23a316acd1ce36b8ba718ba5420", "is_disabled": 0, "rental_uris": {"ios": "https://dc.lft.to/lastmile_qr_scan", "android": "https://dc.lft.to/lastmile_qr_scan"}, "is_reserved": 0}, {"lon": -77.03882533333334, "bike_id": "14e22b9a7d8a436cdc1c56eefe0c1941", "lat": 38.948708833333335, "fusion_lon": 0.0, "fusion_lat": 0.0, "type": "electric_scooter", "name": "14e22b9a7d8a436cdc1c56eefe0c1941", "is_disabled": 0, "rental_uris": {"ios": "https://dc.lft.to/lastmile_qr_scan", "android": "https://dc.lft.to/lastmile_qr_scan"}, "is_reserved": 0}, {"lon": -77.034401, "bike_id": "544f92425694a21db3dc2bfb5c9fc760", "lat": 38.907335, "fusion_lon": 0.0, "fusion_lat": 0.0, "type": "electric_scooter", "name": "544f92425694a21db3dc2bfb5c9fc760", "is_disabled": 0, "rental_uris": {"ios": "https://dc.lft.to/lastmile_qr_scan", "android": "https://dc.lft.to/lastmile_qr_scan"}, "is_reserved": 0}, {"lon": -77.0558085, "bike_id": "f47486f7c4e4d1dd1ae0a25345ecc35e", "lat": 38.933632, "fusion_lon": 0.0, "fusion_lat": 0.0, "type": "electric_scooter", "name": "f47486f7c4e4d1dd1ae0a25345ecc35e", "is_disabled": 0, "rental_uris": {"ios": "https://dc.lft.to/lastmile_qr_scan", "android": "https://dc.lft.to/lastmile_qr_scan"}, "is_reserved": 0}, {"lon": -77.01769583333333, "bike_id": "b7a95a57147b4a319daf82a880ecf04c", "lat": 38.887388666666666, "fusion_lon": 0.0, "fusion_lat": 0.0, "type": "electric_scooter", "name": "b7a95a57147b4a319daf82a880ecf04c", "is_disabled": 0, "rental_uris": {"ios": "https://dc.lft.to/lastmile_qr_scan", "android": "https://dc.lft.to/lastmile_qr_scan"}, "is_reserved": 0}, {"lon": -76.88397416666666, "bike_id": "5668dc867f65ad495b4d72b66f40ab23", "lat": 38.9316545, "fusion_lon": 0.0, "fusion_lat": 0.0, "type": "electric_bike", "name": "5668dc867f65ad495b4d72b66f40ab23", "is_disabled": 0, "rental_uris": {"ios": "https://dc.lft.to/lastmile_qr_scan", "android": "https://dc.lft.to/lastmile_qr_scan"}, "is_reserved": 0}, {"lon": -77.12741466666667, "bike_id": "1ba588c286a1168c0e96886f066ed569", "lat": 38.8956795, "fusion_lon": 0.0, "fusion_lat": 0.0, "type": "electric_bike", "name": "1ba588c286a1168c0e96886f066ed569", "is_disabled": 0, "rental_uris": {"ios": "https://dc.lft.to/lastmile_qr_scan", "android": "https://dc.lft.to/lastmile_qr_scan"}, "is_reserved": 0}, {"lon": -77.031522, "bike_id": "4e3801d24e59d8d81c0bffd7b84ed781", "lat": 38.928621166666666, "fusion_lon": 0.0, "fusion_lat": 0.0, "type": "electric_scooter", "name": "4e3801d24e59d8d81c0bffd7b84ed781", "is_disabled": 0, "rental_uris": {"ios": "https://dc.lft.to/lastmile_qr_scan", "android": "https://dc.lft.to/lastmile_qr_scan"}, "is_reserved": 0}, {"lon": -76.9742265, "bike_id": "7139ed8fe8fb1db229b67a7f26e0e310", "lat": 38.93237216666667, "fusion_lon": 0.0, "fusion_lat": 0.0, "type": "electric_bike", "name": "7139ed8fe8fb1db229b67a7f26e0e310", "is_disabled": 0, "rental_uris": {"ios": "https://dc.lft.to/lastmile_qr_scan", "android": "https://dc.lft.to/lastmile_qr_scan"}, "is_reserved": 0}, {"lon": -77.060307, "bike_id": "929bf1c2b267850dba02cc62fca42064", "lat": 38.93360916666666, "fusion_lon": 0.0, "fusion_lat": 0.0, "type": "electric_scooter", "name": "929bf1c2b267850dba02cc62fca42064", "is_disabled": 0, "rental_uris": {"ios": "https://dc.lft.to/lastmile_qr_scan", "android": "https://dc.lft.to/lastmile_qr_scan"}, "is_reserved": 0}, {"lon": -76.990475, "bike_id": "53bc87b36a09282690a4bbb926be5523", "lat": 38.8841685, "fusion_lon": 0.0, "fusion_lat": 0.0, "type": "electric_scooter", "name": "53bc87b36a09282690a4bbb926be5523", "is_disabled": 0, "rental_uris": {"ios": "https://dc.lft.to/lastmile_qr_scan", "android": "https://dc.lft.to/lastmile_qr_scan"}, "is_reserved": 0}, {"lon": -76.915982, "bike_id": "b09b654396dbea9334942831fb427eeb", "lat": 38.879858166666665, "fusion_lon": 0.0, "fusion_lat": 0.0, "type": "electric_bike", "name": "b09b654396dbea9334942831fb427eeb", "is_disabled": 0, "rental_uris": {"ios": "https://dc.lft.to/lastmile_qr_scan", "android": "https://dc.lft.to/lastmile_qr_scan"}, "is_reserved": 0}, {"lon": -76.982136, "bike_id": "13cbc631227a325f9e144e4f72c5ae77", "lat": 38.866238, "fusion_lon": 0.0, "fusion_lat": 0.0, "type": "electric_scooter", "name": "13cbc631227a325f9e144e4f72c5ae77", "is_disabled": 0, "rental_uris": {"ios": "https://dc.lft.to/lastmile_qr_scan", "android": "https://dc.lft.to/lastmile_qr_scan"}, "is_reserved": 0}, {"lon": -77.04247016666666, "bike_id": "e9f3218244105b89ab775808aae14ee7", "lat": 38.92426433333333, "fusion_lon": 0.0, "fusion_lat": 0.0, "type": "electric_scooter", "name": "e9f3218244105b89ab775808aae14ee7", "is_disabled": 0, "rental_uris": {"ios": "https://dc.lft.to/lastmile_qr_scan", "android": "https://dc.lft.to/lastmile_qr_scan"}, "is_reserved": 0}, {"lon": -77.0027185, "bike_id": "a0563edd7541a01ca658d1178e5ab2e5", "lat": 38.911075333333336, "fusion_lon": 0.0, "fusion_lat": 0.0, "type": "electric_scooter", "name": "a0563edd7541a01ca658d1178e5ab2e5", "is_disabled": 0, "rental_uris": {"ios": "https://dc.lft.to/lastmile_qr_scan", "android": "https://dc.lft.to/lastmile_qr_scan"}, "is_reserved": 0}, {"lon": -76.97330166666667, "bike_id": "199fe65a68c00572adf5ed7ee3ef98e2", "lat": 38.9049205, "fusion_lon": 0.0, "fusion_lat": 0.0, "type": "electric_bike", "name": "199fe65a68c00572adf5ed7ee3ef98e2", "is_disabled": 0, "rental_uris": {"ios": "https://dc.lft.to/lastmile_qr_scan", "android": "https://dc.lft.to/lastmile_qr_scan"}, "is_reserved": 0}, {"lon": -77.0512905, "bike_id": "34ed9e0ed8e807474cb12ced5a261f3a", "lat": 38.923647333333335, "fusion_lon": 0.0, "fusion_lat": 0.0, "type": "electric_scooter", "name": "34ed9e0ed8e807474cb12ced5a261f3a", "is_disabled": 0, "rental_uris": {"ios": "https://dc.lft.to/lastmile_qr_scan", "android": "https://dc.lft.to/lastmile_qr_scan"}, "is_reserved": 0}, {"lon": -77.02109883333334, "bike_id": "7433a1e2697d4b90ec76d7f493f6cb10", "lat": 38.8996535, "fusion_lon": 0.0, "fusion_lat": 0.0, "type": "electric_scooter", "name": "7433a1e2697d4b90ec76d7f493f6cb10", "is_disabled": 0, "rental_uris": {"ios": "https://dc.lft.to/lastmile_qr_scan", "android": "https://dc.lft.to/lastmile_qr_scan"}, "is_reserved": 0}, {"lon": -77.05577166666667, "bike_id": "6ce34f7e920fb012aac337c57aefd2a7", "lat": 38.91602733333333, "fusion_lon": 0.0, "fusion_lat": 0.0, "type": "electric_scooter", "name": "6ce34f7e920fb012aac337c57aefd2a7", "is_disabled": 0, "rental_uris": {"ios": "https://dc.lft.to/lastmile_qr_scan", "android": "https://dc.lft.to/lastmile_qr_scan"}, "is_reserved": 0}, {"lon": -77.02686033333333, "bike_id": "a0e3ac2b9a1da580caa86f6e4b043652", "lat": 38.90064866666667, "fusion_lon": 0.0, "fusion_lat": 0.0, "type": "electric_scooter", "name": "a0e3ac2b9a1da580caa86f6e4b043652", "is_disabled": 0, "rental_uris": {"ios": "https://dc.lft.to/lastmile_qr_scan", "android": "https://dc.lft.to/lastmile_qr_scan"}, "is_reserved": 0}, {"lon": -77.02172433333334, "bike_id": "1da43f256ec2be83b40daeec25a0b747", "lat": 38.897471, "fusion_lon": 0.0, "fusion_lat": 0.0, "type": "electric_scooter", "name": "1da43f256ec2be83b40daeec25a0b747", "is_disabled": 0, "rental_uris": {"ios": "https://dc.lft.to/lastmile_qr_scan", "android": "https://dc.lft.to/lastmile_qr_scan"}, "is_reserved": 0}, {"lon": -77.05862616666667, "bike_id": "6e1bb848e68653e99e60629cac6b260c", "lat": 38.936070666666666, "fusion_lon": 0.0, "fusion_lat": 0.0, "type": "electric_scooter", "name": "6e1bb848e68653e99e60629cac6b260c", "is_disabled": 0, "rental_uris": {"ios": "https://dc.lft.to/lastmile_qr_scan", "android": "https://dc.lft.to/lastmile_qr_scan"}, "is_reserved": 0}, {"lon": -77.03434933333334, "bike_id": "4202055bc5d2535dd7c91ab1ad0165bc", "lat": 38.909766166666664, "fusion_lon": 0.0, "fusion_lat": 0.0, "type": "electric_scooter", "name": "4202055bc5d2535dd7c91ab1ad0165bc", "is_disabled": 0, "rental_uris": {"ios": "https://dc.lft.to/lastmile_qr_scan", "android": "https://dc.lft.to/lastmile_qr_scan"}, "is_reserved": 0}, {"lon": -76.9655085, "bike_id": "cbea9440b359b50d22a00999f766d4c9", "lat": 38.91862916666667, "fusion_lon": 0.0, "fusion_lat": 0.0, "type": "electric_scooter", "name": "cbea9440b359b50d22a00999f766d4c9", "is_disabled": 0, "rental_uris": {"ios": "https://dc.lft.to/lastmile_qr_scan", "android": "https://dc.lft.to/lastmile_qr_scan"}, "is_reserved": 0}, {"lon": -77.0022175, "bike_id": "50fb112aa8a252b927ff5f17684ffa7c", "lat": 38.900385, "fusion_lon": 0.0, "fusion_lat": 0.0, "type": "electric_scooter", "name": "50fb112aa8a252b927ff5f17684ffa7c", "is_disabled": 0, "rental_uris": {"ios": "https://dc.lft.to/lastmile_qr_scan", "android": "https://dc.lft.to/lastmile_qr_scan"}, "is_reserved": 0}, {"lon": -76.97479383333334, "bike_id": "9377a5d3a275b3bb1ccbb5d39f1a857f", "lat": 38.90352, "fusion_lon": 0.0, "fusion_lat": 0.0, "type": "electric_scooter", "name": "9377a5d3a275b3bb1ccbb5d39f1a857f", "is_disabled": 0, "rental_uris": {"ios": "https://dc.lft.to/lastmile_qr_scan", "android": "https://dc.lft.to/lastmile_qr_scan"}, "is_reserved": 0}, {"lon": -77.0064315, "bike_id": "a73a36128d21bc0d6cd2380b78f9394f", "lat": 38.926154, "fusion_lon": 0.0, "fusion_lat": 0.0, "type": "electric_scooter", "name": "a73a36128d21bc0d6cd2380b78f9394f", "is_disabled": 0, "rental_uris": {"ios": "https://dc.lft.to/lastmile_qr_scan", "android": "https://dc.lft.to/lastmile_qr_scan"}, "is_reserved": 0}, {"lon": -77.0651695, "bike_id": "ea25a8c619d9433e20affe6d7584b21e", "lat": 38.9040175, "fusion_lon": 0.0, "fusion_lat": 0.0, "type": "electric_scooter", "name": "ea25a8c619d9433e20affe6d7584b21e", "is_disabled": 0, "rental_uris": {"ios": "https://dc.lft.to/lastmile_qr_scan", "android": "https://dc.lft.to/lastmile_qr_scan"}, "is_reserved": 0}, {"lon": -77.03401016666666, "bike_id": "9b02139c21847bb9fc3d0751262e1ea0", "lat": 38.9054555, "fusion_lon": 0.0, "fusion_lat": 0.0, "type": "electric_scooter", "name": "9b02139c21847bb9fc3d0751262e1ea0", "is_disabled": 0, "rental_uris": {"ios": "https://dc.lft.to/lastmile_qr_scan", "android": "https://dc.lft.to/lastmile_qr_scan"}, "is_reserved": 0}, {"lon": -77.01290966666667, "bike_id": "4c61a5d11e7ca772db7163ba0d40ff20", "lat": 38.920222833333334, "fusion_lon": 0.0, "fusion_lat": 0.0, "type": "electric_scooter", "name": "4c61a5d11e7ca772db7163ba0d40ff20", "is_disabled": 0, "rental_uris": {"ios": "https://dc.lft.to/lastmile_qr_scan", "android": "https://dc.lft.to/lastmile_qr_scan"}, "is_reserved": 0}, {"lon": -77.0486685, "bike_id": "6d60b143af508f81a58de16cd44cc97d", "lat": 38.892232166666666, "fusion_lon": 0.0, "fusion_lat": 0.0, "type": "electric_scooter", "name": "6d60b143af508f81a58de16cd44cc97d", "is_disabled": 0, "rental_uris": {"ios": "https://dc.lft.to/lastmile_qr_scan", "android": "https://dc.lft.to/lastmile_qr_scan"}, "is_reserved": 0}, {"lon": -76.99017116666667, "bike_id": "cf9cef9ce601501ecb78b07a4e65cf07", "lat": 38.866439, "fusion_lon": 0.0, "fusion_lat": 0.0, "type": "electric_scooter", "name": "cf9cef9ce601501ecb78b07a4e65cf07", "is_disabled": 0, "rental_uris": {"ios": "https://dc.lft.to/lastmile_qr_scan", "android": "https://dc.lft.to/lastmile_qr_scan"}, "is_reserved": 0}, {"lon": -77.038692, "bike_id": "e461deb991bc1d148b1e578f190dff09", "lat": 38.915598333333335, "fusion_lon": 0.0, "fusion_lat": 0.0, "type": "electric_scooter", "name": "e461deb991bc1d148b1e578f190dff09", "is_disabled": 0, "rental_uris": {"ios": "https://dc.lft.to/lastmile_qr_scan", "android": "https://dc.lft.to/lastmile_qr_scan"}, "is_reserved": 0}, {"lon": -76.99092333333333, "bike_id": "562e8a1b2de665cc8c2ca4d89e60bd61", "lat": 38.862437166666666, "fusion_lon": 0.0, "fusion_lat": 0.0, "type": "electric_bike", "name": "562e8a1b2de665cc8c2ca4d89e60bd61", "is_disabled": 0, "rental_uris": {"ios": "https://dc.lft.to/lastmile_qr_scan", "android": "https://dc.lft.to/lastmile_qr_scan"}, "is_reserved": 0}, {"lon": -77.08070266666667, "bike_id": "4c5fb559ba447bfa86725eb181aa6e0d", "lat": 39.0528215, "fusion_lon": 0.0, "fusion_lat": 0.0, "type": "electric_bike", "name": "4c5fb559ba447bfa86725eb181aa6e0d", "is_disabled": 0, "rental_uris": {"ios": "https://dc.lft.to/lastmile_qr_scan", "android": "https://dc.lft.to/lastmile_qr_scan"}, "is_reserved": 0}, {"lon": -76.99533083333333, "bike_id": "156c695cb52bef18bc4bec7530ad6e0a", "lat": 38.883742166666664, "fusion_lon": 0.0, "fusion_lat": 0.0, "type": "electric_scooter", "name": "156c695cb52bef18bc4bec7530ad6e0a", "is_disabled": 0, "rental_uris": {"ios": "https://dc.lft.to/lastmile_qr_scan", "android": "https://dc.lft.to/lastmile_qr_scan"}, "is_reserved": 0}, {"lon": -77.01938266666667, "bike_id": "45b545543eef08c8c91a3d23d60202ad", "lat": 38.9352545, "fusion_lon": 0.0, "fusion_lat": 0.0, "type": "electric_scooter", "name": "45b545543eef08c8c91a3d23d60202ad", "is_disabled": 0, "rental_uris": {"ios": "https://dc.lft.to/lastmile_qr_scan", "android": "https://dc.lft.to/lastmile_qr_scan"}, "is_reserved": 0}, {"lon": -77.06414416666667, "bike_id": "50610870e930d512b670e3cb448795a8", "lat": 38.9933075, "fusion_lon": 0.0, "fusion_lat": 0.0, "type": "electric_scooter", "name": "50610870e930d512b670e3cb448795a8", "is_disabled": 0, "rental_uris": {"ios": "https://dc.lft.to/lastmile_qr_scan", "android": "https://dc.lft.to/lastmile_qr_scan"}, "is_reserved": 0}, {"lon": -77.05546733333334, "bike_id": "2573dd094e00a4ea7d1a90c032db2dd8", "lat": 38.930078, "fusion_lon": 0.0, "fusion_lat": 0.0, "type": "electric_scooter", "name": "2573dd094e00a4ea7d1a90c032db2dd8", "is_disabled": 0, "rental_uris": {"ios": "https://dc.lft.to/lastmile_qr_scan", "android": "https://dc.lft.to/lastmile_qr_scan"}, "is_reserved": 0}, {"lon": -77.03630866666667, "bike_id": "51b5a53c4ee980a0909803e867b7e31a", "lat": 38.944992, "fusion_lon": 0.0, "fusion_lat": 0.0, "type": "electric_scooter", "name": "51b5a53c4ee980a0909803e867b7e31a", "is_disabled": 0, "rental_uris": {"ios": "https://dc.lft.to/lastmile_qr_scan", "android": "https://dc.lft.to/lastmile_qr_scan"}, "is_reserved": 0}, {"lon": -77.02322616666666, "bike_id": "444fa6a80f4cdce622c5a973c9d630d6", "lat": 38.924124166666665, "fusion_lon": 0.0, "fusion_lat": 0.0, "type": "electric_scooter", "name": "444fa6a80f4cdce622c5a973c9d630d6", "is_disabled": 0, "rental_uris": {"ios": "https://dc.lft.to/lastmile_qr_scan", "android": "https://dc.lft.to/lastmile_qr_scan"}, "is_reserved": 0}, {"lon": -76.96526433333334, "bike_id": "95bc31c243f04c89ee3d9553ae6f87d3", "lat": 38.876331, "fusion_lon": 0.0, "fusion_lat": 0.0, "type": "electric_scooter", "name": "95bc31c243f04c89ee3d9553ae6f87d3", "is_disabled": 0, "rental_uris": {"ios": "https://dc.lft.to/lastmile_qr_scan", "android": "https://dc.lft.to/lastmile_qr_scan"}, "is_reserved": 0}, {"lon": -77.03522216666667, "bike_id": "a2200a095cf80e8f67bdedefa60377af", "lat": 38.927275, "fusion_lon": 0.0, "fusion_lat": 0.0, "type": "electric_scooter", "name": "a2200a095cf80e8f67bdedefa60377af", "is_disabled": 0, "rental_uris": {"ios": "https://dc.lft.to/lastmile_qr_scan", "android": "https://dc.lft.to/lastmile_qr_scan"}, "is_reserved": 0}, {"lon": -77.03683183333334, "bike_id": "d29f71594d25ffb578d5f6bc24829554", "lat": 38.9392315, "fusion_lon": 0.0, "fusion_lat": 0.0, "type": "electric_scooter", "name": "d29f71594d25ffb578d5f6bc24829554", "is_disabled": 0, "rental_uris": {"ios": "https://dc.lft.to/lastmile_qr_scan", "android": "https://dc.lft.to/lastmile_qr_scan"}, "is_reserved": 0}, {"lon": -76.9415785, "bike_id": "f63db8453a12802b756a1dc0e62db2ea", "lat": 38.908340333333335, "fusion_lon": 0.0, "fusion_lat": 0.0, "type": "electric_bike", "name": "f63db8453a12802b756a1dc0e62db2ea", "is_disabled": 0, "rental_uris": {"ios": "https://dc.lft.to/lastmile_qr_scan", "android": "https://dc.lft.to/lastmile_qr_scan"}, "is_reserved": 0}, {"lon": -76.975437, "bike_id": "9a5697cd492276da044b35c4eb1046e4", "lat": 38.903183166666665, "fusion_lon": 0.0, "fusion_lat": 0.0, "type": "electric_scooter", "name": "9a5697cd492276da044b35c4eb1046e4", "is_disabled": 0, "rental_uris": {"ios": "https://dc.lft.to/lastmile_qr_scan", "android": "https://dc.lft.to/lastmile_qr_scan"}, "is_reserved": 0}, {"lon": -76.9873875, "bike_id": "20be178e9b7d5f0b86128ae985c996d9", "lat": 38.8658165, "fusion_lon": 0.0, "fusion_lat": 0.0, "type": "electric_bike", "name": "20be178e9b7d5f0b86128ae985c996d9", "is_disabled": 0, "rental_uris": {"ios": "https://dc.lft.to/lastmile_qr_scan", "android": "https://dc.lft.to/lastmile_qr_scan"}, "is_reserved": 0}, {"lon": -77.039602, "bike_id": "9593b861f9550f69f69b3760c89a923d", "lat": 38.915653666666664, "fusion_lon": 0.0, "fusion_lat": 0.0, "type": "electric_scooter", "name": "9593b861f9550f69f69b3760c89a923d", "is_disabled": 0, "rental_uris": {"ios": "https://dc.lft.to/lastmile_qr_scan", "android": "https://dc.lft.to/lastmile_qr_scan"}, "is_reserved": 0}, {"lon": -77.0378635, "bike_id": "c8e4b12fdd088994986894983f55a918", "lat": 38.925664, "fusion_lon": 0.0, "fusion_lat": 0.0, "type": "electric_scooter", "name": "c8e4b12fdd088994986894983f55a918", "is_disabled": 0, "rental_uris": {"ios": "https://dc.lft.to/lastmile_qr_scan", "android": "https://dc.lft.to/lastmile_qr_scan"}, "is_reserved": 0}, {"lon": -77.02980666666667, "bike_id": "89ee9b8af60b310a879ce4128c225f7d", "lat": 38.93940416666667, "fusion_lon": 0.0, "fusion_lat": 0.0, "type": "electric_scooter", "name": "89ee9b8af60b310a879ce4128c225f7d", "is_disabled": 0, "rental_uris": {"ios": "https://dc.lft.to/lastmile_qr_scan", "android": "https://dc.lft.to/lastmile_qr_scan"}, "is_reserved": 0}, {"lon": -77.0210835, "bike_id": "d8e761d50bf9d61aef448b3096aa3f8e", "lat": 38.905630333333335, "fusion_lon": 0.0, "fusion_lat": 0.0, "type": "electric_scooter", "name": "d8e761d50bf9d61aef448b3096aa3f8e", "is_disabled": 0, "rental_uris": {"ios": "https://dc.lft.to/lastmile_qr_scan", "android": "https://dc.lft.to/lastmile_qr_scan"}, "is_reserved": 0}, {"lon": -77.032157, "bike_id": "f4f2cda8b99addec4e9525f23e83bcb3", "lat": 38.928867333333336, "fusion_lon": 0.0, "fusion_lat": 0.0, "type": "electric_scooter", "name": "f4f2cda8b99addec4e9525f23e83bcb3", "is_disabled": 0, "rental_uris": {"ios": "https://dc.lft.to/lastmile_qr_scan", "android": "https://dc.lft.to/lastmile_qr_scan"}, "is_reserved": 0}, {"lon": -76.99544883333333, "bike_id": "9801f323301365f6c3ed8d4cb0195151", "lat": 38.92670416666667, "fusion_lon": 0.0, "fusion_lat": 0.0, "type": "electric_scooter", "name": "9801f323301365f6c3ed8d4cb0195151", "is_disabled": 0, "rental_uris": {"ios": "https://dc.lft.to/lastmile_qr_scan", "android": "https://dc.lft.to/lastmile_qr_scan"}, "is_reserved": 0}, {"lon": -77.02388083333334, "bike_id": "ee2955c9531a49ab314f441f571b8c50", "lat": 38.920029666666665, "fusion_lon": 0.0, "fusion_lat": 0.0, "type": "electric_scooter", "name": "ee2955c9531a49ab314f441f571b8c50", "is_disabled": 0, "rental_uris": {"ios": "https://dc.lft.to/lastmile_qr_scan", "android": "https://dc.lft.to/lastmile_qr_scan"}, "is_reserved": 0}, {"lon": -77.00288516666667, "bike_id": "c943da00fe3b1cef3bb38c8b8d65925b", "lat": 38.90265933333333, "fusion_lon": 0.0, "fusion_lat": 0.0, "type": "electric_scooter", "name": "c943da00fe3b1cef3bb38c8b8d65925b", "is_disabled": 0, "rental_uris": {"ios": "https://dc.lft.to/lastmile_qr_scan", "android": "https://dc.lft.to/lastmile_qr_scan"}, "is_reserved": 0}, {"lon": -77.00737883333333, "bike_id": "0ad50cc4def00811f59f07bb224748a1", "lat": 38.90632516666667, "fusion_lon": 0.0, "fusion_lat": 0.0, "type": "electric_scooter", "name": "0ad50cc4def00811f59f07bb224748a1", "is_disabled": 0, "rental_uris": {"ios": "https://dc.lft.to/lastmile_qr_scan", "android": "https://dc.lft.to/lastmile_qr_scan"}, "is_reserved": 0}, {"lon": -77.04475266666667, "bike_id": "12bed1694d6879df2b4bfbb1cbfd7dee", "lat": 38.9072975, "fusion_lon": 0.0, "fusion_lat": 0.0, "type": "electric_scooter", "name": "12bed1694d6879df2b4bfbb1cbfd7dee", "is_disabled": 0, "rental_uris": {"ios": "https://dc.lft.to/lastmile_qr_scan", "android": "https://dc.lft.to/lastmile_qr_scan"}, "is_reserved": 0}, {"lon": -77.00335816666667, "bike_id": "7b5bb21788a1abb09de3af13e2864f1d", "lat": 38.891962166666666, "fusion_lon": 0.0, "fusion_lat": 0.0, "type": "electric_scooter", "name": "7b5bb21788a1abb09de3af13e2864f1d", "is_disabled": 0, "rental_uris": {"ios": "https://dc.lft.to/lastmile_qr_scan", "android": "https://dc.lft.to/lastmile_qr_scan"}, "is_reserved": 0}, {"lon": -77.031795, "bike_id": "00500fc4f4af85a78f29dbcdaf45c2c2", "lat": 38.919254, "fusion_lon": 0.0, "fusion_lat": 0.0, "type": "electric_scooter", "name": "00500fc4f4af85a78f29dbcdaf45c2c2", "is_disabled": 0, "rental_uris": {"ios": "https://dc.lft.to/lastmile_qr_scan", "android": "https://dc.lft.to/lastmile_qr_scan"}, "is_reserved": 0}, {"lon": -77.02117116666666, "bike_id": "237b108109506e2b6eb6621c9b4f473c", "lat": 38.9370485, "fusion_lon": 0.0, "fusion_lat": 0.0, "type": "electric_scooter", "name": "237b108109506e2b6eb6621c9b4f473c", "is_disabled": 0, "rental_uris": {"ios": "https://dc.lft.to/lastmile_qr_scan", "android": "https://dc.lft.to/lastmile_qr_scan"}, "is_reserved": 0}, {"lon": -77.03732033333333, "bike_id": "6b2258d08c0d01fee5061097b704affc", "lat": 38.924753833333334, "fusion_lon": 0.0, "fusion_lat": 0.0, "type": "electric_scooter", "name": "6b2258d08c0d01fee5061097b704affc", "is_disabled": 0, "rental_uris": {"ios": "https://dc.lft.to/lastmile_qr_scan", "android": "https://dc.lft.to/lastmile_qr_scan"}, "is_reserved": 0}, {"lon": -77.04616933333334, "bike_id": "7dfcc9798a8d40b5d37e0ad845ce6dff", "lat": 38.915706666666665, "fusion_lon": 0.0, "fusion_lat": 0.0, "type": "electric_scooter", "name": "7dfcc9798a8d40b5d37e0ad845ce6dff", "is_disabled": 0, "rental_uris": {"ios": "https://dc.lft.to/lastmile_qr_scan", "android": "https://dc.lft.to/lastmile_qr_scan"}, "is_reserved": 0}, {"lon": -77.05210633333333, "bike_id": "bec6ca816a64d9a8fd0407ef5913e1a6", "lat": 38.900633, "fusion_lon": 0.0, "fusion_lat": 0.0, "type": "electric_scooter", "name": "bec6ca816a64d9a8fd0407ef5913e1a6", "is_disabled": 0, "rental_uris": {"ios": "https://dc.lft.to/lastmile_qr_scan", "android": "https://dc.lft.to/lastmile_qr_scan"}, "is_reserved": 0}, {"lon": -77.04648233333333, "bike_id": "57ff559cf5978289cc0604a7c693b056", "lat": 38.905525, "fusion_lon": 0.0, "fusion_lat": 0.0, "type": "electric_scooter", "name": "57ff559cf5978289cc0604a7c693b056", "is_disabled": 0, "rental_uris": {"ios": "https://dc.lft.to/lastmile_qr_scan", "android": "https://dc.lft.to/lastmile_qr_scan"}, "is_reserved": 0}, {"lon": -77.034359, "bike_id": "eaf2309f6ab81cf22d70aea17d314179", "lat": 38.9024935, "fusion_lon": 0.0, "fusion_lat": 0.0, "type": "electric_scooter", "name": "eaf2309f6ab81cf22d70aea17d314179", "is_disabled": 0, "rental_uris": {"ios": "https://dc.lft.to/lastmile_qr_scan", "android": "https://dc.lft.to/lastmile_qr_scan"}, "is_reserved": 0}, {"lon": -76.93529516666666, "bike_id": "7b31b68437c7b318e3a4d1767a63dd89", "lat": 38.896875333333334, "fusion_lon": 0.0, "fusion_lat": 0.0, "type": "electric_scooter", "name": "7b31b68437c7b318e3a4d1767a63dd89", "is_disabled": 0, "rental_uris": {"ios": "https://dc.lft.to/lastmile_qr_scan", "android": "https://dc.lft.to/lastmile_qr_scan"}, "is_reserved": 0}, {"lon": -76.9810145, "bike_id": "eda63525d7706b0d8121e8dd2a1275b1", "lat": 38.89562933333333, "fusion_lon": 0.0, "fusion_lat": 0.0, "type": "electric_scooter", "name": "eda63525d7706b0d8121e8dd2a1275b1", "is_disabled": 0, "rental_uris": {"ios": "https://dc.lft.to/lastmile_qr_scan", "android": "https://dc.lft.to/lastmile_qr_scan"}, "is_reserved": 0}, {"lon": -77.02714766666666, "bike_id": "d42885862ab4de24234c19cc907b7dcb", "lat": 38.924737, "fusion_lon": 0.0, "fusion_lat": 0.0, "type": "electric_scooter", "name": "d42885862ab4de24234c19cc907b7dcb", "is_disabled": 0, "rental_uris": {"ios": "https://dc.lft.to/lastmile_qr_scan", "android": "https://dc.lft.to/lastmile_qr_scan"}, "is_reserved": 0}, {"lon": -76.96154666666666, "bike_id": "2b0e1da05c5cd9ff9f9c4f74221152a7", "lat": 38.88359483333333, "fusion_lon": 0.0, "fusion_lat": 0.0, "type": "electric_scooter", "name": "2b0e1da05c5cd9ff9f9c4f74221152a7", "is_disabled": 0, "rental_uris": {"ios": "https://dc.lft.to/lastmile_qr_scan", "android": "https://dc.lft.to/lastmile_qr_scan"}, "is_reserved": 0}, {"lon": -77.03182383333333, "bike_id": "cad0d77cf46174b9c4db7c439592ff33", "lat": 38.919182666666664, "fusion_lon": 0.0, "fusion_lat": 0.0, "type": "electric_scooter", "name": "cad0d77cf46174b9c4db7c439592ff33", "is_disabled": 0, "rental_uris": {"ios": "https://dc.lft.to/lastmile_qr_scan", "android": "https://dc.lft.to/lastmile_qr_scan"}, "is_reserved": 0}, {"lon": -76.990554, "bike_id": "84c31adb351b6d5a40c7c850040a05a4", "lat": 38.887676666666664, "fusion_lon": 0.0, "fusion_lat": 0.0, "type": "electric_scooter", "name": "84c31adb351b6d5a40c7c850040a05a4", "is_disabled": 0, "rental_uris": {"ios": "https://dc.lft.to/lastmile_qr_scan", "android": "https://dc.lft.to/lastmile_qr_scan"}, "is_reserved": 0}, {"lon": -76.96790283333333, "bike_id": "43e2e7aedf7da95bd6eafad407c6c77d", "lat": 38.86848366666667, "fusion_lon": 0.0, "fusion_lat": 0.0, "type": "electric_scooter", "name": "43e2e7aedf7da95bd6eafad407c6c77d", "is_disabled": 0, "rental_uris": {"ios": "https://dc.lft.to/lastmile_qr_scan", "android": "https://dc.lft.to/lastmile_qr_scan"}, "is_reserved": 0}, {"lon": -77.008004, "bike_id": "31223352e1faefa8074f447b8a566b3c", "lat": 38.9056535, "fusion_lon": 0.0, "fusion_lat": 0.0, "type": "electric_scooter", "name": "31223352e1faefa8074f447b8a566b3c", "is_disabled": 0, "rental_uris": {"ios": "https://dc.lft.to/lastmile_qr_scan", "android": "https://dc.lft.to/lastmile_qr_scan"}, "is_reserved": 0}, {"lon": -77.03865066666667, "bike_id": "e014b529847555d761e7b6e27a3f73c3", "lat": 38.9450415, "fusion_lon": 0.0, "fusion_lat": 0.0, "type": "electric_scooter", "name": "e014b529847555d761e7b6e27a3f73c3", "is_disabled": 0, "rental_uris": {"ios": "https://dc.lft.to/lastmile_qr_scan", "android": "https://dc.lft.to/lastmile_qr_scan"}, "is_reserved": 0}, {"lon": -77.044738, "bike_id": "5968958988e71bd1aef985106ddc554c", "lat": 38.91928216666667, "fusion_lon": 0.0, "fusion_lat": 0.0, "type": "electric_scooter", "name": "5968958988e71bd1aef985106ddc554c", "is_disabled": 0, "rental_uris": {"ios": "https://dc.lft.to/lastmile_qr_scan", "android": "https://dc.lft.to/lastmile_qr_scan"}, "is_reserved": 0}, {"lon": -76.99060133333333, "bike_id": "5c9e296301dc4bbfc277df73362a144e", "lat": 38.86385116666666, "fusion_lon": 0.0, "fusion_lat": 0.0, "type": "electric_scooter", "name": "5c9e296301dc4bbfc277df73362a144e", "is_disabled": 0, "rental_uris": {"ios": "https://dc.lft.to/lastmile_qr_scan", "android": "https://dc.lft.to/lastmile_qr_scan"}, "is_reserved": 0}, {"lon": -77.05295133333334, "bike_id": "04fe8605c1edd2ab31834cdd79647f05", "lat": 38.90347216666667, "fusion_lon": 0.0, "fusion_lat": 0.0, "type": "electric_scooter", "name": "04fe8605c1edd2ab31834cdd79647f05", "is_disabled": 0, "rental_uris": {"ios": "https://dc.lft.to/lastmile_qr_scan", "android": "https://dc.lft.to/lastmile_qr_scan"}, "is_reserved": 0}, {"lon": -77.03863883333334, "bike_id": "9dbe8daed64bba23904b85264c28c116", "lat": 38.912660333333335, "fusion_lon": 0.0, "fusion_lat": 0.0, "type": "electric_scooter", "name": "9dbe8daed64bba23904b85264c28c116", "is_disabled": 0, "rental_uris": {"ios": "https://dc.lft.to/lastmile_qr_scan", "android": "https://dc.lft.to/lastmile_qr_scan"}, "is_reserved": 0}, {"lon": -77.00062433333333, "bike_id": "f2765a6f1d654042157330dd390e9d17", "lat": 38.90089016666667, "fusion_lon": 0.0, "fusion_lat": 0.0, "type": "electric_scooter", "name": "f2765a6f1d654042157330dd390e9d17", "is_disabled": 0, "rental_uris": {"ios": "https://dc.lft.to/lastmile_qr_scan", "android": "https://dc.lft.to/lastmile_qr_scan"}, "is_reserved": 0}, {"lon": -77.02579966666667, "bike_id": "4db8eea641b3526dc034134f0c116da1", "lat": 38.88742533333333, "fusion_lon": 0.0, "fusion_lat": 0.0, "type": "electric_scooter", "name": "4db8eea641b3526dc034134f0c116da1", "is_disabled": 0, "rental_uris": {"ios": "https://dc.lft.to/lastmile_qr_scan", "android": "https://dc.lft.to/lastmile_qr_scan"}, "is_reserved": 0}, {"lon": -76.9938595, "bike_id": "9607d0170fac63d15fdea467ae40eab7", "lat": 38.89374866666667, "fusion_lon": 0.0, "fusion_lat": 0.0, "type": "electric_scooter", "name": "9607d0170fac63d15fdea467ae40eab7", "is_disabled": 0, "rental_uris": {"ios": "https://dc.lft.to/lastmile_qr_scan", "android": "https://dc.lft.to/lastmile_qr_scan"}, "is_reserved": 0}, {"lon": -77.0387525, "bike_id": "b5b2d52e5a90607b37315abd70a1a4db", "lat": 38.91570166666666, "fusion_lon": 0.0, "fusion_lat": 0.0, "type": "electric_scooter", "name": "b5b2d52e5a90607b37315abd70a1a4db", "is_disabled": 0, "rental_uris": {"ios": "https://dc.lft.to/lastmile_qr_scan", "android": "https://dc.lft.to/lastmile_qr_scan"}, "is_reserved": 0}, {"lon": -77.00681616666667, "bike_id": "6b78212ae7bf3e46574be6fd9b08d9dd", "lat": 38.83490783333333, "fusion_lon": 0.0, "fusion_lat": 0.0, "type": "electric_scooter", "name": "6b78212ae7bf3e46574be6fd9b08d9dd", "is_disabled": 0, "rental_uris": {"ios": "https://dc.lft.to/lastmile_qr_scan", "android": "https://dc.lft.to/lastmile_qr_scan"}, "is_reserved": 0}, {"lon": -77.01768016666666, "bike_id": "75d759a82977c0380438543727daed81", "lat": 38.88740383333333, "fusion_lon": 0.0, "fusion_lat": 0.0, "type": "electric_scooter", "name": "75d759a82977c0380438543727daed81", "is_disabled": 0, "rental_uris": {"ios": "https://dc.lft.to/lastmile_qr_scan", "android": "https://dc.lft.to/lastmile_qr_scan"}, "is_reserved": 0}, {"lon": -76.94881433333333, "bike_id": "85b3bc4b8a2da3e715b68d1c62ad9b2b", "lat": 38.89430016666667, "fusion_lon": 0.0, "fusion_lat": 0.0, "type": "electric_scooter", "name": "85b3bc4b8a2da3e715b68d1c62ad9b2b", "is_disabled": 0, "rental_uris": {"ios": "https://dc.lft.to/lastmile_qr_scan", "android": "https://dc.lft.to/lastmile_qr_scan"}, "is_reserved": 0}, {"lon": -76.9962815, "bike_id": "4d2a1cd24a9aaee9b6418f0b31a9d05d", "lat": 38.8880435, "fusion_lon": 0.0, "fusion_lat": 0.0, "type": "electric_scooter", "name": "4d2a1cd24a9aaee9b6418f0b31a9d05d", "is_disabled": 0, "rental_uris": {"ios": "https://dc.lft.to/lastmile_qr_scan", "android": "https://dc.lft.to/lastmile_qr_scan"}, "is_reserved": 0}, {"lon": -77.01818733333333, "bike_id": "481bc53803003bd953d308d2ef24a49d", "lat": 38.901293333333335, "fusion_lon": 0.0, "fusion_lat": 0.0, "type": "electric_scooter", "name": "481bc53803003bd953d308d2ef24a49d", "is_disabled": 0, "rental_uris": {"ios": "https://dc.lft.to/lastmile_qr_scan", "android": "https://dc.lft.to/lastmile_qr_scan"}, "is_reserved": 0}, {"lon": -76.94123333333333, "bike_id": "ef3bc6d4c0c1f976116e3fed24270552", "lat": 38.908210833333335, "fusion_lon": 0.0, "fusion_lat": 0.0, "type": "electric_scooter", "name": "ef3bc6d4c0c1f976116e3fed24270552", "is_disabled": 0, "rental_uris": {"ios": "https://dc.lft.to/lastmile_qr_scan", "android": "https://dc.lft.to/lastmile_qr_scan"}, "is_reserved": 0}, {"lon": -77.02238233333334, "bike_id": "ced2b0fcc53c50cb6703f581fcdea6d0", "lat": 38.95536666666667, "fusion_lon": 0.0, "fusion_lat": 0.0, "type": "electric_scooter", "name": "ced2b0fcc53c50cb6703f581fcdea6d0", "is_disabled": 0, "rental_uris": {"ios": "https://dc.lft.to/lastmile_qr_scan", "android": "https://dc.lft.to/lastmile_qr_scan"}, "is_reserved": 0}, {"lon": -77.03661516666666, "bike_id": "cbd5d6feafe772c1c816e9cdabfb70f5", "lat": 38.93641433333333, "fusion_lon": 0.0, "fusion_lat": 0.0, "type": "electric_scooter", "name": "cbd5d6feafe772c1c816e9cdabfb70f5", "is_disabled": 0, "rental_uris": {"ios": "https://dc.lft.to/lastmile_qr_scan", "android": "https://dc.lft.to/lastmile_qr_scan"}, "is_reserved": 0}, {"lon": -77.0473145, "bike_id": "6b04fd9e1ca3c2371d6ab28672abc246", "lat": 38.9017335, "fusion_lon": 0.0, "fusion_lat": 0.0, "type": "electric_scooter", "name": "6b04fd9e1ca3c2371d6ab28672abc246", "is_disabled": 0, "rental_uris": {"ios": "https://dc.lft.to/lastmile_qr_scan", "android": "https://dc.lft.to/lastmile_qr_scan"}, "is_reserved": 0}, {"lon": -76.994554, "bike_id": "2a5c768eab679373e9ce83b2314c9bd3", "lat": 38.8622005, "fusion_lon": 0.0, "fusion_lat": 0.0, "type": "electric_scooter", "name": "2a5c768eab679373e9ce83b2314c9bd3", "is_disabled": 0, "rental_uris": {"ios": "https://dc.lft.to/lastmile_qr_scan", "android": "https://dc.lft.to/lastmile_qr_scan"}, "is_reserved": 0}, {"lon": -76.98465966666667, "bike_id": "64440b18f2bf31563f366504227e5328", "lat": 38.90395983333333, "fusion_lon": 0.0, "fusion_lat": 0.0, "type": "electric_scooter", "name": "64440b18f2bf31563f366504227e5328", "is_disabled": 0, "rental_uris": {"ios": "https://dc.lft.to/lastmile_qr_scan", "android": "https://dc.lft.to/lastmile_qr_scan"}, "is_reserved": 0}, {"lon": -76.94893816666666, "bike_id": "f41ce3f57e82365a23a0c5848d51cc0e", "lat": 38.895306833333336, "fusion_lon": 0.0, "fusion_lat": 0.0, "type": "electric_scooter", "name": "f41ce3f57e82365a23a0c5848d51cc0e", "is_disabled": 0, "rental_uris": {"ios": "https://dc.lft.to/lastmile_qr_scan", "android": "https://dc.lft.to/lastmile_qr_scan"}, "is_reserved": 0}, {"lon": -77.02471316666667, "bike_id": "9bb431bf4fd9efeb85d58fedd5b9dfb1", "lat": 38.92596666666667, "fusion_lon": 0.0, "fusion_lat": 0.0, "type": "electric_scooter", "name": "9bb431bf4fd9efeb85d58fedd5b9dfb1", "is_disabled": 0, "rental_uris": {"ios": "https://dc.lft.to/lastmile_qr_scan", "android": "https://dc.lft.to/lastmile_qr_scan"}, "is_reserved": 0}, {"lon": -77.02440533333333, "bike_id": "996ae51acebf2056c9e50617f76322b9", "lat": 38.93601616666667, "fusion_lon": 0.0, "fusion_lat": 0.0, "type": "electric_scooter", "name": "996ae51acebf2056c9e50617f76322b9", "is_disabled": 0, "rental_uris": {"ios": "https://dc.lft.to/lastmile_qr_scan", "android": "https://dc.lft.to/lastmile_qr_scan"}, "is_reserved": 0}, {"lon": -77.03899616666666, "bike_id": "822471f97e7a735208206f0396a4673d", "lat": 38.92344166666667, "fusion_lon": 0.0, "fusion_lat": 0.0, "type": "electric_scooter", "name": "822471f97e7a735208206f0396a4673d", "is_disabled": 0, "rental_uris": {"ios": "https://dc.lft.to/lastmile_qr_scan", "android": "https://dc.lft.to/lastmile_qr_scan"}, "is_reserved": 0}, {"lon": -77.02808983333334, "bike_id": "fa126ef185cb1c66d700086e911835c5", "lat": 38.9419215, "fusion_lon": 0.0, "fusion_lat": 0.0, "type": "electric_scooter", "name": "fa126ef185cb1c66d700086e911835c5", "is_disabled": 0, "rental_uris": {"ios": "https://dc.lft.to/lastmile_qr_scan", "android": "https://dc.lft.to/lastmile_qr_scan"}, "is_reserved": 0}, {"lon": -77.02816216666666, "bike_id": "e368eb7e3fbe821cca4ab836075271d2", "lat": 38.895348166666665, "fusion_lon": 0.0, "fusion_lat": 0.0, "type": "electric_scooter", "name": "e368eb7e3fbe821cca4ab836075271d2", "is_disabled": 0, "rental_uris": {"ios": "https://dc.lft.to/lastmile_qr_scan", "android": "https://dc.lft.to/lastmile_qr_scan"}, "is_reserved": 0}, {"lon": -77.0269785, "bike_id": "8680392e6637f3f43f595d1218ea9531", "lat": 38.897187, "fusion_lon": 0.0, "fusion_lat": 0.0, "type": "electric_scooter", "name": "8680392e6637f3f43f595d1218ea9531", "is_disabled": 0, "rental_uris": {"ios": "https://dc.lft.to/lastmile_qr_scan", "android": "https://dc.lft.to/lastmile_qr_scan"}, "is_reserved": 0}, {"lon": -77.035993, "bike_id": "bd4a3338fa83651e301b1bc6aed78e2b", "lat": 38.91780583333333, "fusion_lon": 0.0, "fusion_lat": 0.0, "type": "electric_scooter", "name": "bd4a3338fa83651e301b1bc6aed78e2b", "is_disabled": 0, "rental_uris": {"ios": "https://dc.lft.to/lastmile_qr_scan", "android": "https://dc.lft.to/lastmile_qr_scan"}, "is_reserved": 0}, {"lon": -76.97011816666667, "bike_id": "4d0d25a5c851de75085db5bf82a05e54", "lat": 38.8636875, "fusion_lon": 0.0, "fusion_lat": 0.0, "type": "electric_bike", "name": "4d0d25a5c851de75085db5bf82a05e54", "is_disabled": 0, "rental_uris": {"ios": "https://dc.lft.to/lastmile_qr_scan", "android": "https://dc.lft.to/lastmile_qr_scan"}, "is_reserved": 0}, {"lon": -77.02379383333333, "bike_id": "7b08a68741611f137cd752ad07b0fe4d", "lat": 38.907331166666665, "fusion_lon": 0.0, "fusion_lat": 0.0, "type": "electric_scooter", "name": "7b08a68741611f137cd752ad07b0fe4d", "is_disabled": 0, "rental_uris": {"ios": "https://dc.lft.to/lastmile_qr_scan", "android": "https://dc.lft.to/lastmile_qr_scan"}, "is_reserved": 0}, {"lon": -76.978482, "bike_id": "a53120d79f73f90326d5156b11a68f26", "lat": 38.86568283333333, "fusion_lon": 0.0, "fusion_lat": 0.0, "type": "electric_scooter", "name": "a53120d79f73f90326d5156b11a68f26", "is_disabled": 0, "rental_uris": {"ios": "https://dc.lft.to/lastmile_qr_scan", "android": "https://dc.lft.to/lastmile_qr_scan"}, "is_reserved": 0}, {"lon": -77.03198316666666, "bike_id": "9665dfbd9a73ebcca2eb7e02fbcd5a47", "lat": 38.89636133333333, "fusion_lon": 0.0, "fusion_lat": 0.0, "type": "electric_scooter", "name": "9665dfbd9a73ebcca2eb7e02fbcd5a47", "is_disabled": 0, "rental_uris": {"ios": "https://dc.lft.to/lastmile_qr_scan", "android": "https://dc.lft.to/lastmile_qr_scan"}, "is_reserved": 0}, {"lon": -77.03882516666667, "bike_id": "c4b80a2a140e2dc735e3a2654b4c0389", "lat": 38.920123833333335, "fusion_lon": 0.0, "fusion_lat": 0.0, "type": "electric_scooter", "name": "c4b80a2a140e2dc735e3a2654b4c0389", "is_disabled": 0, "rental_uris": {"ios": "https://dc.lft.to/lastmile_qr_scan", "android": "https://dc.lft.to/lastmile_qr_scan"}, "is_reserved": 0}, {"lon": -77.0271535, "bike_id": "55856f5cc271d82480986cdd3a4f9108", "lat": 38.927711333333335, "fusion_lon": 0.0, "fusion_lat": 0.0, "type": "electric_scooter", "name": "55856f5cc271d82480986cdd3a4f9108", "is_disabled": 0, "rental_uris": {"ios": "https://dc.lft.to/lastmile_qr_scan", "android": "https://dc.lft.to/lastmile_qr_scan"}, "is_reserved": 0}, {"lon": -77.03659083333334, "bike_id": "decce11ad8f33fa3e4fe5f8d757bed99", "lat": 38.91754233333333, "fusion_lon": 0.0, "fusion_lat": 0.0, "type": "electric_scooter", "name": "decce11ad8f33fa3e4fe5f8d757bed99", "is_disabled": 0, "rental_uris": {"ios": "https://dc.lft.to/lastmile_qr_scan", "android": "https://dc.lft.to/lastmile_qr_scan"}, "is_reserved": 0}, {"lon": -77.03583016666667, "bike_id": "7d604bde8bd80158e5a16935378c6f40", "lat": 38.9176795, "fusion_lon": 0.0, "fusion_lat": 0.0, "type": "electric_scooter", "name": "7d604bde8bd80158e5a16935378c6f40", "is_disabled": 0, "rental_uris": {"ios": "https://dc.lft.to/lastmile_qr_scan", "android": "https://dc.lft.to/lastmile_qr_scan"}, "is_reserved": 0}, {"lon": -76.92997083333333, "bike_id": "ed6048757d902308d8104ea181e01059", "lat": 38.90189633333333, "fusion_lon": 0.0, "fusion_lat": 0.0, "type": "electric_scooter", "name": "ed6048757d902308d8104ea181e01059", "is_disabled": 0, "rental_uris": {"ios": "https://dc.lft.to/lastmile_qr_scan", "android": "https://dc.lft.to/lastmile_qr_scan"}, "is_reserved": 0}, {"lon": -77.02307166666667, "bike_id": "5f7d070bf7fa0aaed7d2d7b24eb9ea00", "lat": 38.91682766666667, "fusion_lon": 0.0, "fusion_lat": 0.0, "type": "electric_scooter", "name": "5f7d070bf7fa0aaed7d2d7b24eb9ea00", "is_disabled": 0, "rental_uris": {"ios": "https://dc.lft.to/lastmile_qr_scan", "android": "https://dc.lft.to/lastmile_qr_scan"}, "is_reserved": 0}, {"lon": -77.043229, "bike_id": "51af7a18447aba3b50915f8f793b09c3", "lat": 38.907324, "fusion_lon": 0.0, "fusion_lat": 0.0, "type": "electric_scooter", "name": "51af7a18447aba3b50915f8f793b09c3", "is_disabled": 0, "rental_uris": {"ios": "https://dc.lft.to/lastmile_qr_scan", "android": "https://dc.lft.to/lastmile_qr_scan"}, "is_reserved": 0}, {"lon": -77.04027633333334, "bike_id": "95c9d4ba08338d430536d2a6f083d256", "lat": 38.91119316666666, "fusion_lon": 0.0, "fusion_lat": 0.0, "type": "electric_scooter", "name": "95c9d4ba08338d430536d2a6f083d256", "is_disabled": 0, "rental_uris": {"ios": "https://dc.lft.to/lastmile_qr_scan", "android": "https://dc.lft.to/lastmile_qr_scan"}, "is_reserved": 0}, {"lon": -77.10918833333334, "bike_id": "4534cf73feaac445aef49469e61567a9", "lat": 39.05202333333333, "fusion_lon": 0.0, "fusion_lat": 0.0, "type": "electric_bike", "name": "4534cf73feaac445aef49469e61567a9", "is_disabled": 0, "rental_uris": {"ios": "https://dc.lft.to/lastmile_qr_scan", "android": "https://dc.lft.to/lastmile_qr_scan"}, "is_reserved": 0}, {"lon": -77.01414, "bike_id": "c99bdf2f4f5548ae8c2b64189936f96c", "lat": 38.92858783333333, "fusion_lon": 0.0, "fusion_lat": 0.0, "type": "electric_scooter", "name": "c99bdf2f4f5548ae8c2b64189936f96c", "is_disabled": 0, "rental_uris": {"ios": "https://dc.lft.to/lastmile_qr_scan", "android": "https://dc.lft.to/lastmile_qr_scan"}, "is_reserved": 0}, {"lon": -77.0450995, "bike_id": "81aeb0f6e5d69d78a2d1c21f11f90a2f", "lat": 38.88603116666667, "fusion_lon": 0.0, "fusion_lat": 0.0, "type": "electric_scooter", "name": "81aeb0f6e5d69d78a2d1c21f11f90a2f", "is_disabled": 0, "rental_uris": {"ios": "https://dc.lft.to/lastmile_qr_scan", "android": "https://dc.lft.to/lastmile_qr_scan"}, "is_reserved": 0}, {"lon": -76.9837815, "bike_id": "5399694a3b816a7db1b5e0deefcea17c", "lat": 38.89607316666667, "fusion_lon": 0.0, "fusion_lat": 0.0, "type": "electric_scooter", "name": "5399694a3b816a7db1b5e0deefcea17c", "is_disabled": 0, "rental_uris": {"ios": "https://dc.lft.to/lastmile_qr_scan", "android": "https://dc.lft.to/lastmile_qr_scan"}, "is_reserved": 0}, {"lon": -77.04171866666667, "bike_id": "e196a5a3e0920ce55be3b40bca34d2f0", "lat": 38.905371333333335, "fusion_lon": 0.0, "fusion_lat": 0.0, "type": "electric_scooter", "name": "e196a5a3e0920ce55be3b40bca34d2f0", "is_disabled": 0, "rental_uris": {"ios": "https://dc.lft.to/lastmile_qr_scan", "android": "https://dc.lft.to/lastmile_qr_scan"}, "is_reserved": 0}, {"lon": -77.03760983333333, "bike_id": "2c01c7b81838d0e4d28bfc1841a92465", "lat": 38.92013216666667, "fusion_lon": 0.0, "fusion_lat": 0.0, "type": "electric_scooter", "name": "2c01c7b81838d0e4d28bfc1841a92465", "is_disabled": 0, "rental_uris": {"ios": "https://dc.lft.to/lastmile_qr_scan", "android": "https://dc.lft.to/lastmile_qr_scan"}, "is_reserved": 0}, {"lon": -77.02167933333334, "bike_id": "b2af1b3ff46ade2bfefd24df03e6fa55", "lat": 38.930007, "fusion_lon": 0.0, "fusion_lat": 0.0, "type": "electric_scooter", "name": "b2af1b3ff46ade2bfefd24df03e6fa55", "is_disabled": 0, "rental_uris": {"ios": "https://dc.lft.to/lastmile_qr_scan", "android": "https://dc.lft.to/lastmile_qr_scan"}, "is_reserved": 0}, {"lon": -77.0327, "bike_id": "080add80ace414b95e3aa7bacfb71e83", "lat": 38.932379833333336, "fusion_lon": 0.0, "fusion_lat": 0.0, "type": "electric_scooter", "name": "080add80ace414b95e3aa7bacfb71e83", "is_disabled": 0, "rental_uris": {"ios": "https://dc.lft.to/lastmile_qr_scan", "android": "https://dc.lft.to/lastmile_qr_scan"}, "is_reserved": 0}, {"lon": -77.04672216666667, "bike_id": "f1556ec0bebe7e89c4c7a2fb6e89fec6", "lat": 38.90729966666667, "fusion_lon": 0.0, "fusion_lat": 0.0, "type": "electric_scooter", "name": "f1556ec0bebe7e89c4c7a2fb6e89fec6", "is_disabled": 0, "rental_uris": {"ios": "https://dc.lft.to/lastmile_qr_scan", "android": "https://dc.lft.to/lastmile_qr_scan"}, "is_reserved": 0}, {"lon": -77.03581666666666, "bike_id": "f449fcb04844dc589c67de9cd51a2bb0", "lat": 38.91046816666667, "fusion_lon": 0.0, "fusion_lat": 0.0, "type": "electric_scooter", "name": "f449fcb04844dc589c67de9cd51a2bb0", "is_disabled": 0, "rental_uris": {"ios": "https://dc.lft.to/lastmile_qr_scan", "android": "https://dc.lft.to/lastmile_qr_scan"}, "is_reserved": 0}, {"lon": -77.044271, "bike_id": "e8e21a1b13a0100f975b0b2a1a57b38f", "lat": 38.911301333333334, "fusion_lon": 0.0, "fusion_lat": 0.0, "type": "electric_scooter", "name": "e8e21a1b13a0100f975b0b2a1a57b38f", "is_disabled": 0, "rental_uris": {"ios": "https://dc.lft.to/lastmile_qr_scan", "android": "https://dc.lft.to/lastmile_qr_scan"}, "is_reserved": 0}, {"lon": -77.03260983333334, "bike_id": "a55fa8b1806ad128503830236eff6c3f", "lat": 38.93772116666667, "fusion_lon": 0.0, "fusion_lat": 0.0, "type": "electric_scooter", "name": "a55fa8b1806ad128503830236eff6c3f", "is_disabled": 0, "rental_uris": {"ios": "https://dc.lft.to/lastmile_qr_scan", "android": "https://dc.lft.to/lastmile_qr_scan"}, "is_reserved": 0}, {"lon": -77.03183183333333, "bike_id": "0012e21b4458b3aac06879df05385152", "lat": 38.9174525, "fusion_lon": 0.0, "fusion_lat": 0.0, "type": "electric_scooter", "name": "0012e21b4458b3aac06879df05385152", "is_disabled": 0, "rental_uris": {"ios": "https://dc.lft.to/lastmile_qr_scan", "android": "https://dc.lft.to/lastmile_qr_scan"}, "is_reserved": 0}, {"lon": -77.033272, "bike_id": "2ea9792d8e3150a426db63a472a6a465", "lat": 38.947210166666665, "fusion_lon": 0.0, "fusion_lat": 0.0, "type": "electric_scooter", "name": "2ea9792d8e3150a426db63a472a6a465", "is_disabled": 0, "rental_uris": {"ios": "https://dc.lft.to/lastmile_qr_scan", "android": "https://dc.lft.to/lastmile_qr_scan"}, "is_reserved": 0}, {"lon": -77.0423185, "bike_id": "d881ce9cd00d395edbe835c1846508c9", "lat": 38.91332833333333, "fusion_lon": 0.0, "fusion_lat": 0.0, "type": "electric_scooter", "name": "d881ce9cd00d395edbe835c1846508c9", "is_disabled": 0, "rental_uris": {"ios": "https://dc.lft.to/lastmile_qr_scan", "android": "https://dc.lft.to/lastmile_qr_scan"}, "is_reserved": 0}, {"lon": -76.9928975, "bike_id": "48a8fe1116aaaa15cb45015b6262d904", "lat": 38.898902666666665, "fusion_lon": 0.0, "fusion_lat": 0.0, "type": "electric_scooter", "name": "48a8fe1116aaaa15cb45015b6262d904", "is_disabled": 0, "rental_uris": {"ios": "https://dc.lft.to/lastmile_qr_scan", "android": "https://dc.lft.to/lastmile_qr_scan"}, "is_reserved": 0}, {"lon": -77.03195166666667, "bike_id": "2d64917a4704c65d3c898f8c15dc498d", "lat": 38.927838, "fusion_lon": 0.0, "fusion_lat": 0.0, "type": "electric_scooter", "name": "2d64917a4704c65d3c898f8c15dc498d", "is_disabled": 0, "rental_uris": {"ios": "https://dc.lft.to/lastmile_qr_scan", "android": "https://dc.lft.to/lastmile_qr_scan"}, "is_reserved": 0}, {"lon": -77.035472, "bike_id": "3e1615e202e8853de3f63fcb38c0a70f", "lat": 38.925866166666665, "fusion_lon": 0.0, "fusion_lat": 0.0, "type": "electric_scooter", "name": "3e1615e202e8853de3f63fcb38c0a70f", "is_disabled": 0, "rental_uris": {"ios": "https://dc.lft.to/lastmile_qr_scan", "android": "https://dc.lft.to/lastmile_qr_scan"}, "is_reserved": 0}, {"lon": -77.027577, "bike_id": "aa287e6dc4f76e771c3cd44e042b9e9b", "lat": 38.933361833333336, "fusion_lon": 0.0, "fusion_lat": 0.0, "type": "electric_scooter", "name": "aa287e6dc4f76e771c3cd44e042b9e9b", "is_disabled": 0, "rental_uris": {"ios": "https://dc.lft.to/lastmile_qr_scan", "android": "https://dc.lft.to/lastmile_qr_scan"}, "is_reserved": 0}, {"lon": -76.98233783333333, "bike_id": "4ae7fdb748125025a1147ab94763d009", "lat": 38.91673516666667, "fusion_lon": 0.0, "fusion_lat": 0.0, "type": "electric_scooter", "name": "4ae7fdb748125025a1147ab94763d009", "is_disabled": 0, "rental_uris": {"ios": "https://dc.lft.to/lastmile_qr_scan", "android": "https://dc.lft.to/lastmile_qr_scan"}, "is_reserved": 0}, {"lon": -77.0224285, "bike_id": "ad1a59c01bda59f2f73f07ef5ebe39e5", "lat": 38.9619955, "fusion_lon": 0.0, "fusion_lat": 0.0, "type": "electric_scooter", "name": "ad1a59c01bda59f2f73f07ef5ebe39e5", "is_disabled": 0, "rental_uris": {"ios": "https://dc.lft.to/lastmile_qr_scan", "android": "https://dc.lft.to/lastmile_qr_scan"}, "is_reserved": 0}, {"lon": -77.029622, "bike_id": "61fadab95b0cb699bfef68fb598f7ff0", "lat": 38.906686666666666, "fusion_lon": 0.0, "fusion_lat": 0.0, "type": "electric_scooter", "name": "61fadab95b0cb699bfef68fb598f7ff0", "is_disabled": 0, "rental_uris": {"ios": "https://dc.lft.to/lastmile_qr_scan", "android": "https://dc.lft.to/lastmile_qr_scan"}, "is_reserved": 0}, {"lon": -77.02815116666666, "bike_id": "dc3831862fdf7ec1c0b231dd9a5fb47c", "lat": 38.8952835, "fusion_lon": 0.0, "fusion_lat": 0.0, "type": "electric_scooter", "name": "dc3831862fdf7ec1c0b231dd9a5fb47c", "is_disabled": 0, "rental_uris": {"ios": "https://dc.lft.to/lastmile_qr_scan", "android": "https://dc.lft.to/lastmile_qr_scan"}, "is_reserved": 0}, {"lon": -77.0386125, "bike_id": "dca5d01607a7b32ce3d8bcbe5e7699da", "lat": 38.903513333333336, "fusion_lon": 0.0, "fusion_lat": 0.0, "type": "electric_scooter", "name": "dca5d01607a7b32ce3d8bcbe5e7699da", "is_disabled": 0, "rental_uris": {"ios": "https://dc.lft.to/lastmile_qr_scan", "android": "https://dc.lft.to/lastmile_qr_scan"}, "is_reserved": 0}, {"lon": -76.9988675, "bike_id": "6275292474ca7f63ea155b1964aa445f", "lat": 38.90946983333333, "fusion_lon": 0.0, "fusion_lat": 0.0, "type": "electric_scooter", "name": "6275292474ca7f63ea155b1964aa445f", "is_disabled": 0, "rental_uris": {"ios": "https://dc.lft.to/lastmile_qr_scan", "android": "https://dc.lft.to/lastmile_qr_scan"}, "is_reserved": 0}, {"lon": -76.99229416666667, "bike_id": "0a9b0d801c287cf86e84610c10bcb20e", "lat": 38.92221133333334, "fusion_lon": 0.0, "fusion_lat": 0.0, "type": "electric_scooter", "name": "0a9b0d801c287cf86e84610c10bcb20e", "is_disabled": 0, "rental_uris": {"ios": "https://dc.lft.to/lastmile_qr_scan", "android": "https://dc.lft.to/lastmile_qr_scan"}, "is_reserved": 0}, {"lon": -77.048781, "bike_id": "45d987411ccbd7bf3438b726979f221c", "lat": 38.89235166666667, "fusion_lon": 0.0, "fusion_lat": 0.0, "type": "electric_scooter", "name": "45d987411ccbd7bf3438b726979f221c", "is_disabled": 0, "rental_uris": {"ios": "https://dc.lft.to/lastmile_qr_scan", "android": "https://dc.lft.to/lastmile_qr_scan"}, "is_reserved": 0}, {"lon": -77.04760216666666, "bike_id": "69bad483b78801f5c74464e6dfac45aa", "lat": 38.91772066666667, "fusion_lon": 0.0, "fusion_lat": 0.0, "type": "electric_scooter", "name": "69bad483b78801f5c74464e6dfac45aa", "is_disabled": 0, "rental_uris": {"ios": "https://dc.lft.to/lastmile_qr_scan", "android": "https://dc.lft.to/lastmile_qr_scan"}, "is_reserved": 0}, {"lon": -76.981057, "bike_id": "0bba5d910afa43c47c84a1397256a9ec", "lat": 38.8773225, "fusion_lon": 0.0, "fusion_lat": 0.0, "type": "electric_bike", "name": "0bba5d910afa43c47c84a1397256a9ec", "is_disabled": 0, "rental_uris": {"ios": "https://dc.lft.to/lastmile_qr_scan", "android": "https://dc.lft.to/lastmile_qr_scan"}, "is_reserved": 0}, {"lon": -77.02688966666666, "bike_id": "c3baa784a67336103fd7fd4d357d2ed3", "lat": 38.904027666666664, "fusion_lon": 0.0, "fusion_lat": 0.0, "type": "electric_scooter", "name": "c3baa784a67336103fd7fd4d357d2ed3", "is_disabled": 0, "rental_uris": {"ios": "https://dc.lft.to/lastmile_qr_scan", "android": "https://dc.lft.to/lastmile_qr_scan"}, "is_reserved": 0}, {"lon": -77.00956833333333, "bike_id": "2788081a13fa8e53af87a6d438cb4876", "lat": 38.92141216666667, "fusion_lon": 0.0, "fusion_lat": 0.0, "type": "electric_scooter", "name": "2788081a13fa8e53af87a6d438cb4876", "is_disabled": 0, "rental_uris": {"ios": "https://dc.lft.to/lastmile_qr_scan", "android": "https://dc.lft.to/lastmile_qr_scan"}, "is_reserved": 0}, {"lon": -76.99924033333333, "bike_id": "492b573a55e0a63dc55344f85cb6c702", "lat": 38.889798166666665, "fusion_lon": 0.0, "fusion_lat": 0.0, "type": "electric_scooter", "name": "492b573a55e0a63dc55344f85cb6c702", "is_disabled": 0, "rental_uris": {"ios": "https://dc.lft.to/lastmile_qr_scan", "android": "https://dc.lft.to/lastmile_qr_scan"}, "is_reserved": 0}, {"lon": -77.02725433333333, "bike_id": "4905827dc31bd22a4a74976d97fb460b", "lat": 38.897849666666666, "fusion_lon": 0.0, "fusion_lat": 0.0, "type": "electric_scooter", "name": "4905827dc31bd22a4a74976d97fb460b", "is_disabled": 0, "rental_uris": {"ios": "https://dc.lft.to/lastmile_qr_scan", "android": "https://dc.lft.to/lastmile_qr_scan"}, "is_reserved": 0}, {"lon": -77.0365575, "bike_id": "0321bfee77e6567db1c044c8f7cde2a7", "lat": 38.933246, "fusion_lon": 0.0, "fusion_lat": 0.0, "type": "electric_scooter", "name": "0321bfee77e6567db1c044c8f7cde2a7", "is_disabled": 0, "rental_uris": {"ios": "https://dc.lft.to/lastmile_qr_scan", "android": "https://dc.lft.to/lastmile_qr_scan"}, "is_reserved": 0}, {"lon": -77.03209916666667, "bike_id": "b6cfa7490f0bdfce47b973e281af7af6", "lat": 38.909797166666664, "fusion_lon": 0.0, "fusion_lat": 0.0, "type": "electric_scooter", "name": "b6cfa7490f0bdfce47b973e281af7af6", "is_disabled": 0, "rental_uris": {"ios": "https://dc.lft.to/lastmile_qr_scan", "android": "https://dc.lft.to/lastmile_qr_scan"}, "is_reserved": 0}, {"lon": -76.98246316666666, "bike_id": "04b391652008f830a1e2f6136d054633", "lat": 38.8645775, "fusion_lon": 0.0, "fusion_lat": 0.0, "type": "electric_scooter", "name": "04b391652008f830a1e2f6136d054633", "is_disabled": 0, "rental_uris": {"ios": "https://dc.lft.to/lastmile_qr_scan", "android": "https://dc.lft.to/lastmile_qr_scan"}, "is_reserved": 0}, {"lon": -77.03349216666666, "bike_id": "274d70de48be6886647a221beaa2be8f", "lat": 38.935168166666664, "fusion_lon": 0.0, "fusion_lat": 0.0, "type": "electric_scooter", "name": "274d70de48be6886647a221beaa2be8f", "is_disabled": 0, "rental_uris": {"ios": "https://dc.lft.to/lastmile_qr_scan", "android": "https://dc.lft.to/lastmile_qr_scan"}, "is_reserved": 0}, {"lon": -77.04694566666667, "bike_id": "df9ec9215fb22d1642ccc5624bc82524", "lat": 38.9191115, "fusion_lon": 0.0, "fusion_lat": 0.0, "type": "electric_scooter", "name": "df9ec9215fb22d1642ccc5624bc82524", "is_disabled": 0, "rental_uris": {"ios": "https://dc.lft.to/lastmile_qr_scan", "android": "https://dc.lft.to/lastmile_qr_scan"}, "is_reserved": 0}, {"lon": -77.03662316666667, "bike_id": "6c9c2f16c68a56a71bfe662aebc8451f", "lat": 38.933409833333336, "fusion_lon": 0.0, "fusion_lat": 0.0, "type": "electric_scooter", "name": "6c9c2f16c68a56a71bfe662aebc8451f", "is_disabled": 0, "rental_uris": {"ios": "https://dc.lft.to/lastmile_qr_scan", "android": "https://dc.lft.to/lastmile_qr_scan"}, "is_reserved": 0}, {"lon": -77.04705316666667, "bike_id": "a5d479c6b3c0bd47badda64e0e87b37d", "lat": 38.92065816666667, "fusion_lon": 0.0, "fusion_lat": 0.0, "type": "electric_scooter", "name": "a5d479c6b3c0bd47badda64e0e87b37d", "is_disabled": 0, "rental_uris": {"ios": "https://dc.lft.to/lastmile_qr_scan", "android": "https://dc.lft.to/lastmile_qr_scan"}, "is_reserved": 0}, {"lon": -76.94937516666667, "bike_id": "ae3fc394cf032713c150270e30918664", "lat": 38.903692166666666, "fusion_lon": 0.0, "fusion_lat": 0.0, "type": "electric_scooter", "name": "ae3fc394cf032713c150270e30918664", "is_disabled": 0, "rental_uris": {"ios": "https://dc.lft.to/lastmile_qr_scan", "android": "https://dc.lft.to/lastmile_qr_scan"}, "is_reserved": 0}, {"lon": -77.03275916666666, "bike_id": "7108d8b5bb8de766f2b30c8daf3e78dd", "lat": 38.932233833333335, "fusion_lon": 0.0, "fusion_lat": 0.0, "type": "electric_scooter", "name": "7108d8b5bb8de766f2b30c8daf3e78dd", "is_disabled": 0, "rental_uris": {"ios": "https://dc.lft.to/lastmile_qr_scan", "android": "https://dc.lft.to/lastmile_qr_scan"}, "is_reserved": 0}, {"lon": -76.9987555, "bike_id": "07797e663f18bdce2383305cb823f21b", "lat": 38.90017533333334, "fusion_lon": 0.0, "fusion_lat": 0.0, "type": "electric_scooter", "name": "07797e663f18bdce2383305cb823f21b", "is_disabled": 0, "rental_uris": {"ios": "https://dc.lft.to/lastmile_qr_scan", "android": "https://dc.lft.to/lastmile_qr_scan"}, "is_reserved": 0}, {"lon": -77.0019205, "bike_id": "817e37ceddaac8178e31446a0d2a433c", "lat": 38.894777500000004, "fusion_lon": 0.0, "fusion_lat": 0.0, "type": "electric_scooter", "name": "817e37ceddaac8178e31446a0d2a433c", "is_disabled": 0, "rental_uris": {"ios": "https://dc.lft.to/lastmile_qr_scan", "android": "https://dc.lft.to/lastmile_qr_scan"}, "is_reserved": 0}, {"lon": -77.01482916666667, "bike_id": "7c48682700334b1a08b5bc50b38f831f", "lat": 38.91928333333333, "fusion_lon": 0.0, "fusion_lat": 0.0, "type": "electric_scooter", "name": "7c48682700334b1a08b5bc50b38f831f", "is_disabled": 0, "rental_uris": {"ios": "https://dc.lft.to/lastmile_qr_scan", "android": "https://dc.lft.to/lastmile_qr_scan"}, "is_reserved": 0}, {"lon": -76.997878, "bike_id": "794e1acb6256915643c261b2ce99f08b", "lat": 38.89099816666667, "fusion_lon": 0.0, "fusion_lat": 0.0, "type": "electric_scooter", "name": "794e1acb6256915643c261b2ce99f08b", "is_disabled": 0, "rental_uris": {"ios": "https://dc.lft.to/lastmile_qr_scan", "android": "https://dc.lft.to/lastmile_qr_scan"}, "is_reserved": 0}, {"lon": -77.02484833333334, "bike_id": "708396bccca7b037d42d07eb34a7e52a", "lat": 38.901779833333336, "fusion_lon": 0.0, "fusion_lat": 0.0, "type": "electric_scooter", "name": "708396bccca7b037d42d07eb34a7e52a", "is_disabled": 0, "rental_uris": {"ios": "https://dc.lft.to/lastmile_qr_scan", "android": "https://dc.lft.to/lastmile_qr_scan"}, "is_reserved": 0}, {"lon": -77.01084216666666, "bike_id": "8af888ec5d9779014a377aa10548a5e3", "lat": 38.917063666666664, "fusion_lon": 0.0, "fusion_lat": 0.0, "type": "electric_scooter", "name": "8af888ec5d9779014a377aa10548a5e3", "is_disabled": 0, "rental_uris": {"ios": "https://dc.lft.to/lastmile_qr_scan", "android": "https://dc.lft.to/lastmile_qr_scan"}, "is_reserved": 0}, {"lon": -77.04443233333333, "bike_id": "232d0709fa6d663c995ce23697ecdfa9", "lat": 38.92177183333333, "fusion_lon": 0.0, "fusion_lat": 0.0, "type": "electric_scooter", "name": "232d0709fa6d663c995ce23697ecdfa9", "is_disabled": 0, "rental_uris": {"ios": "https://dc.lft.to/lastmile_qr_scan", "android": "https://dc.lft.to/lastmile_qr_scan"}, "is_reserved": 0}, {"lon": -77.03204333333333, "bike_id": "e80d045ef496016e9d14be0388fb51ce", "lat": 38.93968266666667, "fusion_lon": 0.0, "fusion_lat": 0.0, "type": "electric_scooter", "name": "e80d045ef496016e9d14be0388fb51ce", "is_disabled": 0, "rental_uris": {"ios": "https://dc.lft.to/lastmile_qr_scan", "android": "https://dc.lft.to/lastmile_qr_scan"}, "is_reserved": 0}, {"lon": -77.05610366666667, "bike_id": "06a5910eef933228f9a92804ef9c09ff", "lat": 38.9232455, "fusion_lon": 0.0, "fusion_lat": 0.0, "type": "electric_scooter", "name": "06a5910eef933228f9a92804ef9c09ff", "is_disabled": 0, "rental_uris": {"ios": "https://dc.lft.to/lastmile_qr_scan", "android": "https://dc.lft.to/lastmile_qr_scan"}, "is_reserved": 0}, {"lon": -77.03183983333334, "bike_id": "bf43d87d4a275161f9ba6914a43ddb37", "lat": 38.913527333333334, "fusion_lon": 0.0, "fusion_lat": 0.0, "type": "electric_scooter", "name": "bf43d87d4a275161f9ba6914a43ddb37", "is_disabled": 0, "rental_uris": {"ios": "https://dc.lft.to/lastmile_qr_scan", "android": "https://dc.lft.to/lastmile_qr_scan"}, "is_reserved": 0}, {"lon": -77.03357583333333, "bike_id": "51a696b9f75a4e1cdc8cb1f604726bd5", "lat": 38.8998335, "fusion_lon": 0.0, "fusion_lat": 0.0, "type": "electric_scooter", "name": "51a696b9f75a4e1cdc8cb1f604726bd5", "is_disabled": 0, "rental_uris": {"ios": "https://dc.lft.to/lastmile_qr_scan", "android": "https://dc.lft.to/lastmile_qr_scan"}, "is_reserved": 0}, {"lon": -77.03288916666666, "bike_id": "f03826e178f3ee7a22cc53f7bf90b604", "lat": 38.95652466666667, "fusion_lon": 0.0, "fusion_lat": 0.0, "type": "electric_scooter", "name": "f03826e178f3ee7a22cc53f7bf90b604", "is_disabled": 0, "rental_uris": {"ios": "https://dc.lft.to/lastmile_qr_scan", "android": "https://dc.lft.to/lastmile_qr_scan"}, "is_reserved": 0}, {"lon": -77.0005415, "bike_id": "5bf2c98716b0abe34590da879c9c416b", "lat": 38.87457916666666, "fusion_lon": 0.0, "fusion_lat": 0.0, "type": "electric_scooter", "name": "5bf2c98716b0abe34590da879c9c416b", "is_disabled": 0, "rental_uris": {"ios": "https://dc.lft.to/lastmile_qr_scan", "android": "https://dc.lft.to/lastmile_qr_scan"}, "is_reserved": 0}, {"lon": -77.023906, "bike_id": "f70f95c9f45d59c1f412f983b6cac457", "lat": 38.881343, "fusion_lon": 0.0, "fusion_lat": 0.0, "type": "electric_scooter", "name": "f70f95c9f45d59c1f412f983b6cac457", "is_disabled": 0, "rental_uris": {"ios": "https://dc.lft.to/lastmile_qr_scan", "android": "https://dc.lft.to/lastmile_qr_scan"}, "is_reserved": 0}, {"lon": -77.03030183333334, "bike_id": "8d24fb366d741892b5d576892c3b9bb8", "lat": 38.9310475, "fusion_lon": 0.0, "fusion_lat": 0.0, "type": "electric_scooter", "name": "8d24fb366d741892b5d576892c3b9bb8", "is_disabled": 0, "rental_uris": {"ios": "https://dc.lft.to/lastmile_qr_scan", "android": "https://dc.lft.to/lastmile_qr_scan"}, "is_reserved": 0}, {"lon": -77.04717083333334, "bike_id": "348a335fa0beacb070b11c0f5141ebea", "lat": 38.89955333333333, "fusion_lon": 0.0, "fusion_lat": 0.0, "type": "electric_scooter", "name": "348a335fa0beacb070b11c0f5141ebea", "is_disabled": 0, "rental_uris": {"ios": "https://dc.lft.to/lastmile_qr_scan", "android": "https://dc.lft.to/lastmile_qr_scan"}, "is_reserved": 0}, {"lon": -77.03176566666667, "bike_id": "7825f78199859ffe211c58318a7c929e", "lat": 38.89226016666667, "fusion_lon": 0.0, "fusion_lat": 0.0, "type": "electric_scooter", "name": "7825f78199859ffe211c58318a7c929e", "is_disabled": 0, "rental_uris": {"ios": "https://dc.lft.to/lastmile_qr_scan", "android": "https://dc.lft.to/lastmile_qr_scan"}, "is_reserved": 0}, {"lon": -77.05731466666667, "bike_id": "2aeef5fc45c6a4afb35abff5277e936b", "lat": 38.933652, "fusion_lon": 0.0, "fusion_lat": 0.0, "type": "electric_scooter", "name": "2aeef5fc45c6a4afb35abff5277e936b", "is_disabled": 0, "rental_uris": {"ios": "https://dc.lft.to/lastmile_qr_scan", "android": "https://dc.lft.to/lastmile_qr_scan"}, "is_reserved": 0}, {"lon": -77.04642966666667, "bike_id": "bfce5ce3a78d64a42e000174abafd564", "lat": 38.914325, "fusion_lon": 0.0, "fusion_lat": 0.0, "type": "electric_scooter", "name": "bfce5ce3a78d64a42e000174abafd564", "is_disabled": 0, "rental_uris": {"ios": "https://dc.lft.to/lastmile_qr_scan", "android": "https://dc.lft.to/lastmile_qr_scan"}, "is_reserved": 0}, {"lon": -77.04503533333333, "bike_id": "6e54e9d9e60422b13173c3b3a694509d", "lat": 38.91119316666666, "fusion_lon": 0.0, "fusion_lat": 0.0, "type": "electric_scooter", "name": "6e54e9d9e60422b13173c3b3a694509d", "is_disabled": 0, "rental_uris": {"ios": "https://dc.lft.to/lastmile_qr_scan", "android": "https://dc.lft.to/lastmile_qr_scan"}, "is_reserved": 0}, {"lon": -76.97331083333333, "bike_id": "26cbbd50afbdbaccb7fccf924d892fd4", "lat": 38.90485183333333, "fusion_lon": 0.0, "fusion_lat": 0.0, "type": "electric_bike", "name": "26cbbd50afbdbaccb7fccf924d892fd4", "is_disabled": 0, "rental_uris": {"ios": "https://dc.lft.to/lastmile_qr_scan", "android": "https://dc.lft.to/lastmile_qr_scan"}, "is_reserved": 0}, {"lon": -76.992726, "bike_id": "4ba4a38bfbf0800c38518ee9a732eaf6", "lat": 38.8961595, "fusion_lon": 0.0, "fusion_lat": 0.0, "type": "electric_scooter", "name": "4ba4a38bfbf0800c38518ee9a732eaf6", "is_disabled": 0, "rental_uris": {"ios": "https://dc.lft.to/lastmile_qr_scan", "android": "https://dc.lft.to/lastmile_qr_scan"}, "is_reserved": 0}, {"lon": -76.9790585, "bike_id": "18c0ab09ccd002a16d26df5d63c82337", "lat": 38.92463716666666, "fusion_lon": 0.0, "fusion_lat": 0.0, "type": "electric_bike", "name": "18c0ab09ccd002a16d26df5d63c82337", "is_disabled": 0, "rental_uris": {"ios": "https://dc.lft.to/lastmile_qr_scan", "android": "https://dc.lft.to/lastmile_qr_scan"}, "is_reserved": 0}, {"lon": -76.9979385, "bike_id": "cca428aefb009406c717c3b597b8830e", "lat": 38.95640566666667, "fusion_lon": 0.0, "fusion_lat": 0.0, "type": "electric_bike", "name": "cca428aefb009406c717c3b597b8830e", "is_disabled": 0, "rental_uris": {"ios": "https://dc.lft.to/lastmile_qr_scan", "android": "https://dc.lft.to/lastmile_qr_scan"}, "is_reserved": 0}, {"lon": -77.01797933333333, "bike_id": "4c72533acf0f92fa44944240977611ad", "lat": 38.90074216666667, "fusion_lon": 0.0, "fusion_lat": 0.0, "type": "electric_scooter", "name": "4c72533acf0f92fa44944240977611ad", "is_disabled": 0, "rental_uris": {"ios": "https://dc.lft.to/lastmile_qr_scan", "android": "https://dc.lft.to/lastmile_qr_scan"}, "is_reserved": 0}, {"lon": -77.032668, "bike_id": "4885e760d9858717a652ba05c2e508c4", "lat": 38.91997333333333, "fusion_lon": 0.0, "fusion_lat": 0.0, "type": "electric_scooter", "name": "4885e760d9858717a652ba05c2e508c4", "is_disabled": 0, "rental_uris": {"ios": "https://dc.lft.to/lastmile_qr_scan", "android": "https://dc.lft.to/lastmile_qr_scan"}, "is_reserved": 0}, {"lon": -77.038537, "bike_id": "119b8ded0c3c9a45bc5266892f5b312f", "lat": 38.916728666666664, "fusion_lon": 0.0, "fusion_lat": 0.0, "type": "electric_scooter", "name": "119b8ded0c3c9a45bc5266892f5b312f", "is_disabled": 0, "rental_uris": {"ios": "https://dc.lft.to/lastmile_qr_scan", "android": "https://dc.lft.to/lastmile_qr_scan"}, "is_reserved": 0}, {"lon": -77.059175, "bike_id": "7b7c5b73d2da1b0d04f74ab59149e0e2", "lat": 38.862467, "fusion_lon": 0.0, "fusion_lat": 0.0, "type": "electric_scooter", "name": "7b7c5b73d2da1b0d04f74ab59149e0e2", "is_disabled": 0, "rental_uris": {"ios": "https://dc.lft.to/lastmile_qr_scan", "android": "https://dc.lft.to/lastmile_qr_scan"}, "is_reserved": 0}, {"lon": -77.038336, "bike_id": "e15b209b93dc155251db0a87da244bd0", "lat": 38.90971783333333, "fusion_lon": 0.0, "fusion_lat": 0.0, "type": "electric_scooter", "name": "e15b209b93dc155251db0a87da244bd0", "is_disabled": 0, "rental_uris": {"ios": "https://dc.lft.to/lastmile_qr_scan", "android": "https://dc.lft.to/lastmile_qr_scan"}, "is_reserved": 0}, {"lon": -77.03518383333333, "bike_id": "a2c5e450eb00c2ec6dc8c3c292983263", "lat": 38.923382833333335, "fusion_lon": 0.0, "fusion_lat": 0.0, "type": "electric_scooter", "name": "a2c5e450eb00c2ec6dc8c3c292983263", "is_disabled": 0, "rental_uris": {"ios": "https://dc.lft.to/lastmile_qr_scan", "android": "https://dc.lft.to/lastmile_qr_scan"}, "is_reserved": 0}, {"lon": -77.03824116666667, "bike_id": "1c5110d0e67e270d0b0f4510fefdce6e", "lat": 38.9067395, "fusion_lon": 0.0, "fusion_lat": 0.0, "type": "electric_scooter", "name": "1c5110d0e67e270d0b0f4510fefdce6e", "is_disabled": 0, "rental_uris": {"ios": "https://dc.lft.to/lastmile_qr_scan", "android": "https://dc.lft.to/lastmile_qr_scan"}, "is_reserved": 0}, {"lon": -77.03189983333333, "bike_id": "5e4a02147d70c95ff4480f083d0881ce", "lat": 38.91922733333333, "fusion_lon": 0.0, "fusion_lat": 0.0, "type": "electric_scooter", "name": "5e4a02147d70c95ff4480f083d0881ce", "is_disabled": 0, "rental_uris": {"ios": "https://dc.lft.to/lastmile_qr_scan", "android": "https://dc.lft.to/lastmile_qr_scan"}, "is_reserved": 0},