{"data": {"bikes": [{"fusion_lat": 0.0, "lon": -77.0556995, "is_reserved": 0, "bike_id": "39a266c3c449ac7e8d260284c58a55a6", "fusion_lon": 0.0, "rental_uris": {"android": "https://dc.lft.to/lastmile_qr_scan", "ios": "https://dc.lft.to/lastmile_qr_scan"}, "name": "39a266c3c449ac7e8d260284c58a55a6", "type": "electric_scooter", "lat": 38.909296, "is_disabled": 0}, {"fusion_lat": 0.0, "lon": -77.0792985, "is_reserved": 0, "bike_id": "2b6f0e67bc703b7a503c75d2f6d63b9a", "fusion_lon": 0.0, "rental_uris": {"android": "https://dc.lft.to/lastmile_qr_scan", "ios": "https://dc.lft.to/lastmile_qr_scan"}, "name": "2b6f0e67bc703b7a503c75d2f6d63b9a", "type": "electric_scooter", "lat": 38.93105116666667, "is_disabled": 0}, {"fusion_lat": 0.0, "lon": -77.0228335, "is_reserved": 0, "bike_id": "5cb28e5bb08e128c93c07be2b3d94511", "fusion_lon": 0.0, "rental_uris": {"android": "https://dc.lft.to/lastmile_qr_scan", "ios": "https://dc.lft.to/lastmile_qr_scan"}, "name": "5cb28e5bb08e128c93c07be2b3d94511", "type": "electric_scooter", "lat": 38.878924166666664, "is_disabled": 0}, {"fusion_lat": 0.0, "lon": -76.98193016666667, "is_reserved": 0, "bike_id": "2e10af18dbaa4a19e2733ce83fb316c8", "fusion_lon": 0.0, "rental_uris": {"android": "https://dc.lft.to/lastmile_qr_scan", "ios": "https://dc.lft.to/lastmile_qr_scan"}, "name": "2e10af18dbaa4a19e2733ce83fb316c8", "type": "electric_scooter", "lat": 38.902825666666665, "is_disabled": 0}, {"fusion_lat": 0.0, "lon": -77.02994433333333, "is_reserved": 0, "bike_id": "0e90f371bdc6902952e888781d979118", "fusion_lon": 0.0, "rental_uris": {"android": "https://dc.lft.to/lastmile_qr_scan", "ios": "https://dc.lft.to/lastmile_qr_scan"}, "name": "0e90f371bdc6902952e888781d979118", "type": "electric_scooter", "lat": 38.92676816666667, "is_disabled": 0}, {"fusion_lat": 0.0, "lon": -77.0400005, "is_reserved": 0, "bike_id": "5307fee5d5228f5159df901233487cef", "fusion_lon": 0.0, "rental_uris": {"android": "https://dc.lft.to/lastmile_qr_scan", "ios": "https://dc.lft.to/lastmile_qr_scan"}, "name": "5307fee5d5228f5159df901233487cef", "type": "electric_scooter", "lat": 38.91414316666667, "is_disabled": 0}, {"fusion_lat": 0.0, "lon": -77.0231265, "is_reserved": 0, "bike_id": "565b7b444e159839018cccbeb48143d3", "fusion_lon": 0.0, "rental_uris": {"android": "https://dc.lft.to/lastmile_qr_scan", "ios": "https://dc.lft.to/lastmile_qr_scan"}, "name": "565b7b444e159839018cccbeb48143d3", "type": "electric_scooter", "lat": 38.9206745, "is_disabled": 0}, {"fusion_lat": 0.0, "lon": -77.03839483333333, "is_reserved": 0, "bike_id": "3d7010a11c399ec58c5a75f3a4421d66", "fusion_lon": 0.0, "rental_uris": {"android": "https://dc.lft.to/lastmile_qr_scan", "ios": "https://dc.lft.to/lastmile_qr_scan"}, "name": "3d7010a11c399ec58c5a75f3a4421d66", "type": "electric_scooter", "lat": 38.903769833333335, "is_disabled": 0}, {"fusion_lat": 0.0, "lon": -76.988098, "is_reserved": 0, "bike_id": "3dc2543f87e09460427c7ae6af6f0731", "fusion_lon": 0.0, "rental_uris": {"android": "https://dc.lft.to/lastmile_qr_scan", "ios": "https://dc.lft.to/lastmile_qr_scan"}, "name": "3dc2543f87e09460427c7ae6af6f0731", "type": "electric_scooter", "lat": 38.867312, "is_disabled": 0}, {"fusion_lat": 0.0, "lon": -77.0038005, "is_reserved": 0, "bike_id": "96b30f35e7233a352be6e2ec54a8d597", "fusion_lon": 0.0, "rental_uris": {"android": "https://dc.lft.to/lastmile_qr_scan", "ios": "https://dc.lft.to/lastmile_qr_scan"}, "name": "96b30f35e7233a352be6e2ec54a8d597", "type": "electric_bike", "lat": 38.836086333333334, "is_disabled": 0}, {"fusion_lat": 0.0, "lon": -77.00189866666666, "is_reserved": 0, "bike_id": "546eb8fc767747f3b5c4ce3fe5edc17e", "fusion_lon": 0.0, "rental_uris": {"android": "https://dc.lft.to/lastmile_qr_scan", "ios": "https://dc.lft.to/lastmile_qr_scan"}, "name": "546eb8fc767747f3b5c4ce3fe5edc17e", "type": "electric_scooter", "lat": 38.894492666666665, "is_disabled": 0}, {"fusion_lat": 0.0, "lon": -76.98303516666667, "is_reserved": 0, "bike_id": "75c20a1a2037f3fcfe004d754ca2367e", "fusion_lon": 0.0, "rental_uris": {"android": "https://dc.lft.to/lastmile_qr_scan", "ios": "https://dc.lft.to/lastmile_qr_scan"}, "name": "75c20a1a2037f3fcfe004d754ca2367e", "type": "electric_scooter", "lat": 38.90528, "is_disabled": 0}, {"fusion_lat": 0.0, "lon": -76.97669883333333, "is_reserved": 0, "bike_id": "bbda7548c8cef31293d2f24966e3f945", "fusion_lon": 0.0, "rental_uris": {"android": "https://dc.lft.to/lastmile_qr_scan", "ios": "https://dc.lft.to/lastmile_qr_scan"}, "name": "bbda7548c8cef31293d2f24966e3f945", "type": "electric_bike", "lat": 38.95247216666667, "is_disabled": 0}, {"fusion_lat": 0.0, "lon": -77.02483616666666, "is_reserved": 0, "bike_id": "34151e175c86fc52bd0cbf5ae4c2718a", "fusion_lon": 0.0, "rental_uris": {"android": "https://dc.lft.to/lastmile_qr_scan", "ios": "https://dc.lft.to/lastmile_qr_scan"}, "name": "34151e175c86fc52bd0cbf5ae4c2718a", "type": "electric_scooter", "lat": 38.92750516666667, "is_disabled": 0}, {"fusion_lat": 0.0, "lon": -77.04057483333334, "is_reserved": 0, "bike_id": "f9cf7499c81ed78dbcac5eccdd0d180b", "fusion_lon": 0.0, "rental_uris": {"android": "https://dc.lft.to/lastmile_qr_scan", "ios": "https://dc.lft.to/lastmile_qr_scan"}, "name": "f9cf7499c81ed78dbcac5eccdd0d180b", "type": "electric_scooter", "lat": 38.9187195, "is_disabled": 0}, {"fusion_lat": 0.0, "lon": -77.03865666666667, "is_reserved": 0, "bike_id": "bfcd202d127187008b27dc504f1813dd", "fusion_lon": 0.0, "rental_uris": {"android": "https://dc.lft.to/lastmile_qr_scan", "ios": "https://dc.lft.to/lastmile_qr_scan"}, "name": "bfcd202d127187008b27dc504f1813dd", "type": "electric_scooter", "lat": 38.906709666666664, "is_disabled": 0}, {"fusion_lat": 0.0, "lon": -77.03600016666667, "is_reserved": 0, "bike_id": "4ed46ead13c25df16675d64a402abb12", "fusion_lon": 0.0, "rental_uris": {"android": "https://dc.lft.to/lastmile_qr_scan", "ios": "https://dc.lft.to/lastmile_qr_scan"}, "name": "4ed46ead13c25df16675d64a402abb12", "type": "electric_scooter", "lat": 38.93939233333333, "is_disabled": 0}, {"fusion_lat": 0.0, "lon": -77.032615, "is_reserved": 0, "bike_id": "90d437521e05e8bae75bd61302260dfc", "fusion_lon": 0.0, "rental_uris": {"android": "https://dc.lft.to/lastmile_qr_scan", "ios": "https://dc.lft.to/lastmile_qr_scan"}, "name": "90d437521e05e8bae75bd61302260dfc", "type": "electric_scooter", "lat": 38.93251933333333, "is_disabled": 0}, {"fusion_lat": 0.0, "lon": -77.030335, "is_reserved": 0, "bike_id": "3864c3296d23b23df295838e09370bac", "fusion_lon": 0.0, "rental_uris": {"android": "https://dc.lft.to/lastmile_qr_scan", "ios": "https://dc.lft.to/lastmile_qr_scan"}, "name": "3864c3296d23b23df295838e09370bac", "type": "electric_scooter", "lat": 38.9322505, "is_disabled": 0}, {"fusion_lat": 0.0, "lon": -77.03083433333333, "is_reserved": 0, "bike_id": "5ddf07e4361a4de65a5576b88c78bee7", "fusion_lon": 0.0, "rental_uris": {"android": "https://dc.lft.to/lastmile_qr_scan", "ios": "https://dc.lft.to/lastmile_qr_scan"}, "name": "5ddf07e4361a4de65a5576b88c78bee7", "type": "electric_scooter", "lat": 38.92712916666667, "is_disabled": 0}, {"fusion_lat": 0.0, "lon": -77.02894866666666, "is_reserved": 0, "bike_id": "c0c3cad2e0624c9896dea9e2d50a9778", "fusion_lon": 0.0, "rental_uris": {"android": "https://dc.lft.to/lastmile_qr_scan", "ios": "https://dc.lft.to/lastmile_qr_scan"}, "name": "c0c3cad2e0624c9896dea9e2d50a9778", "type": "electric_scooter", "lat": 38.940443, "is_disabled": 0}, {"fusion_lat": 0.0, "lon": -77.0434245, "is_reserved": 0, "bike_id": "569fece893ffa898bb873220e08a4f09", "fusion_lon": 0.0, "rental_uris": {"android": "https://dc.lft.to/lastmile_qr_scan", "ios": "https://dc.lft.to/lastmile_qr_scan"}, "name": "569fece893ffa898bb873220e08a4f09", "type": "electric_scooter", "lat": 38.90771616666667, "is_disabled": 0}, {"fusion_lat": 0.0, "lon": -77.03503333333333, "is_reserved": 0, "bike_id": "1adf6a47e737c1f2f63862d26489f5fe", "fusion_lon": 0.0, "rental_uris": {"android": "https://dc.lft.to/lastmile_qr_scan", "ios": "https://dc.lft.to/lastmile_qr_scan"}, "name": "1adf6a47e737c1f2f63862d26489f5fe", "type": "electric_scooter", "lat": 38.91875616666667, "is_disabled": 0}, {"fusion_lat": 0.0, "lon": -77.02904233333334, "is_reserved": 0, "bike_id": "b8951b3da7995dd4ed52a4c67f115d94", "fusion_lon": 0.0, "rental_uris": {"android": "https://dc.lft.to/lastmile_qr_scan", "ios": "https://dc.lft.to/lastmile_qr_scan"}, "name": "b8951b3da7995dd4ed52a4c67f115d94", "type": "electric_scooter", "lat": 38.961353, "is_disabled": 0}, {"fusion_lat": 0.0, "lon": -77.05306666666667, "is_reserved": 0, "bike_id": "2900f9d2b0520dc1c4c39267ec201497", "fusion_lon": 0.0, "rental_uris": {"android": "https://dc.lft.to/lastmile_qr_scan", "ios": "https://dc.lft.to/lastmile_qr_scan"}, "name": "2900f9d2b0520dc1c4c39267ec201497", "type": "electric_scooter", "lat": 38.89854233333333, "is_disabled": 0}, {"fusion_lat": 0.0, "lon": -77.02908466666666, "is_reserved": 0, "bike_id": "d2ad42daa4790b855cfdb33efa3af121", "fusion_lon": 0.0, "rental_uris": {"android": "https://dc.lft.to/lastmile_qr_scan", "ios": "https://dc.lft.to/lastmile_qr_scan"}, "name": "d2ad42daa4790b855cfdb33efa3af121", "type": "electric_scooter", "lat": 38.903626833333334, "is_disabled": 0}, {"fusion_lat": 0.0, "lon": -77.01224433333333, "is_reserved": 0, "bike_id": "c3792eb73c923882b3f2222e37d4259b", "fusion_lon": 0.0, "rental_uris": {"android": "https://dc.lft.to/lastmile_qr_scan", "ios": "https://dc.lft.to/lastmile_qr_scan"}, "name": "c3792eb73c923882b3f2222e37d4259b", "type": "electric_scooter", "lat": 38.91522, "is_disabled": 0}, {"fusion_lat": 0.0, "lon": -77.02950683333333, "is_reserved": 0, "bike_id": "85ea79c20444243afee2e28eb2fcc2df", "fusion_lon": 0.0, "rental_uris": {"android": "https://dc.lft.to/lastmile_qr_scan", "ios": "https://dc.lft.to/lastmile_qr_scan"}, "name": "85ea79c20444243afee2e28eb2fcc2df", "type": "electric_scooter", "lat": 38.921737, "is_disabled": 0}, {"fusion_lat": 0.0, "lon": -76.985583, "is_reserved": 0, "bike_id": "ec9d6b66cf29ed0925c9428643eb8360", "fusion_lon": 0.0, "rental_uris": {"android": "https://dc.lft.to/lastmile_qr_scan", "ios": "https://dc.lft.to/lastmile_qr_scan"}, "name": "ec9d6b66cf29ed0925c9428643eb8360", "type": "electric_scooter", "lat": 38.9103405, "is_disabled": 0}, {"fusion_lat": 0.0, "lon": -77.03346633333334, "is_reserved": 0, "bike_id": "2f9a466804e6dc66d412fe3a450db537", "fusion_lon": 0.0, "rental_uris": {"android": "https://dc.lft.to/lastmile_qr_scan", "ios": "https://dc.lft.to/lastmile_qr_scan"}, "name": "2f9a466804e6dc66d412fe3a450db537", "type": "electric_scooter", "lat": 38.91724283333333, "is_disabled": 0}, {"fusion_lat": 0.0, "lon": -77.0075295, "is_reserved": 0, "bike_id": "467af1fbd4cb84374f355165772710fd", "fusion_lon": 0.0, "rental_uris": {"android": "https://dc.lft.to/lastmile_qr_scan", "ios": "https://dc.lft.to/lastmile_qr_scan"}, "name": "467af1fbd4cb84374f355165772710fd", "type": "electric_scooter", "lat": 38.92681183333333, "is_disabled": 0}, {"fusion_lat": 0.0, "lon": -76.97857933333333, "is_reserved": 0, "bike_id": "fbe3675702137b4d813c1af3258ad0e7", "fusion_lon": 0.0, "rental_uris": {"android": "https://dc.lft.to/lastmile_qr_scan", "ios": "https://dc.lft.to/lastmile_qr_scan"}, "name": "fbe3675702137b4d813c1af3258ad0e7", "type": "electric_scooter", "lat": 38.870707833333334, "is_disabled": 0}, {"fusion_lat": 0.0, "lon": -76.99907266666666, "is_reserved": 0, "bike_id": "7b6319982577146d9578979ffc237cb3", "fusion_lon": 0.0, "rental_uris": {"android": "https://dc.lft.to/lastmile_qr_scan", "ios": "https://dc.lft.to/lastmile_qr_scan"}, "name": "7b6319982577146d9578979ffc237cb3", "type": "electric_scooter", "lat": 38.92463866666667, "is_disabled": 0}, {"fusion_lat": 0.0, "lon": -76.96563966666666, "is_reserved": 0, "bike_id": "2817fd065e0a43bf6dc86ad5ad648e92", "fusion_lon": 0.0, "rental_uris": {"android": "https://dc.lft.to/lastmile_qr_scan", "ios": "https://dc.lft.to/lastmile_qr_scan"}, "name": "2817fd065e0a43bf6dc86ad5ad648e92", "type": "electric_bike", "lat": 38.873803833333334, "is_disabled": 0}, {"fusion_lat": 0.0, "lon": -77.02801716666667, "is_reserved": 0, "bike_id": "a9340112f17b45f7e52f9e52ca3ea9d5", "fusion_lon": 0.0, "rental_uris": {"android": "https://dc.lft.to/lastmile_qr_scan", "ios": "https://dc.lft.to/lastmile_qr_scan"}, "name": "a9340112f17b45f7e52f9e52ca3ea9d5", "type": "electric_scooter", "lat": 38.892307833333334, "is_disabled": 0}, {"fusion_lat": 0.0, "lon": -77.02209633333334, "is_reserved": 0, "bike_id": "8f68e545648ef060e90eaa27c5bd4b50", "fusion_lon": 0.0, "rental_uris": {"android": "https://dc.lft.to/lastmile_qr_scan", "ios": "https://dc.lft.to/lastmile_qr_scan"}, "name": "8f68e545648ef060e90eaa27c5bd4b50", "type": "electric_scooter", "lat": 38.92052616666667, "is_disabled": 0}, {"fusion_lat": 0.0, "lon": -77.02196083333334, "is_reserved": 0, "bike_id": "10c1808a5716c2330d8763f0afbdc9db", "fusion_lon": 0.0, "rental_uris": {"android": "https://dc.lft.to/lastmile_qr_scan", "ios": "https://dc.lft.to/lastmile_qr_scan"}, "name": "10c1808a5716c2330d8763f0afbdc9db", "type": "electric_scooter", "lat": 38.920633, "is_disabled": 0}, {"fusion_lat": 0.0, "lon": -77.04804833333333, "is_reserved": 0, "bike_id": "6cc4cb8be63a853c3eb12906b7e7dd0c", "fusion_lon": 0.0, "rental_uris": {"android": "https://dc.lft.to/lastmile_qr_scan", "ios": "https://dc.lft.to/lastmile_qr_scan"}, "name": "6cc4cb8be63a853c3eb12906b7e7dd0c", "type": "electric_scooter", "lat": 38.910428833333334, "is_disabled": 0}, {"fusion_lat": 0.0, "lon": -76.99804516666667, "is_reserved": 0, "bike_id": "c67306b1711e4360a33672d10a9de06b", "fusion_lon": 0.0, "rental_uris": {"android": "https://dc.lft.to/lastmile_qr_scan", "ios": "https://dc.lft.to/lastmile_qr_scan"}, "name": "c67306b1711e4360a33672d10a9de06b", "type": "electric_scooter", "lat": 38.88568466666667, "is_disabled": 0}, {"fusion_lat": 0.0, "lon": -77.00334783333334, "is_reserved": 0, "bike_id": "d09dfa14bef1a379318e57c2ca600bd9", "fusion_lon": 0.0, "rental_uris": {"android": "https://dc.lft.to/lastmile_qr_scan", "ios": "https://dc.lft.to/lastmile_qr_scan"}, "name": "d09dfa14bef1a379318e57c2ca600bd9", "type": "electric_scooter", "lat": 38.889890333333334, "is_disabled": 0}, {"fusion_lat": 0.0, "lon": -77.03261833333333, "is_reserved": 0, "bike_id": "4299366e95194fe52518242ff47bdc61", "fusion_lon": 0.0, "rental_uris": {"android": "https://dc.lft.to/lastmile_qr_scan", "ios": "https://dc.lft.to/lastmile_qr_scan"}, "name": "4299366e95194fe52518242ff47bdc61", "type": "electric_scooter", "lat": 38.902622666666666, "is_disabled": 0}, {"fusion_lat": 0.0, "lon": -76.99571533333334, "is_reserved": 0, "bike_id": "a38b153d72cbfb3aa53b43340d8ef7fe", "fusion_lon": 0.0, "rental_uris": {"android": "https://dc.lft.to/lastmile_qr_scan", "ios": "https://dc.lft.to/lastmile_qr_scan"}, "name": "a38b153d72cbfb3aa53b43340d8ef7fe", "type": "electric_scooter", "lat": 38.88423066666667, "is_disabled": 0}, {"fusion_lat": 0.0, "lon": -77.019912, "is_reserved": 0, "bike_id": "9de379dc71c3a3fc1d6705dfbe524be1", "fusion_lon": 0.0, "rental_uris": {"android": "https://dc.lft.to/lastmile_qr_scan", "ios": "https://dc.lft.to/lastmile_qr_scan"}, "name": "9de379dc71c3a3fc1d6705dfbe524be1", "type": "electric_scooter", "lat": 38.8956505, "is_disabled": 0}, {"fusion_lat": 0.0, "lon": -77.00604533333333, "is_reserved": 0, "bike_id": "c9d8510db99f6a1daecb483e1a5cfbf2", "fusion_lon": 0.0, "rental_uris": {"android": "https://dc.lft.to/lastmile_qr_scan", "ios": "https://dc.lft.to/lastmile_qr_scan"}, "name": "c9d8510db99f6a1daecb483e1a5cfbf2", "type": "electric_scooter", "lat": 38.87550983333333, "is_disabled": 0}, {"fusion_lat": 0.0, "lon": -77.00326266666667, "is_reserved": 0, "bike_id": "4bd4d725b0509f65e688908e1b76d654", "fusion_lon": 0.0, "rental_uris": {"android": "https://dc.lft.to/lastmile_qr_scan", "ios": "https://dc.lft.to/lastmile_qr_scan"}, "name": "4bd4d725b0509f65e688908e1b76d654", "type": "electric_scooter", "lat": 38.902623166666665, "is_disabled": 0}, {"fusion_lat": 0.0, "lon": -77.0205995, "is_reserved": 0, "bike_id": "cece873c32500e0a57bef4c614973bab", "fusion_lon": 0.0, "rental_uris": {"android": "https://dc.lft.to/lastmile_qr_scan", "ios": "https://dc.lft.to/lastmile_qr_scan"}, "name": "cece873c32500e0a57bef4c614973bab", "type": "electric_bike", "lat": 38.957609166666664, "is_disabled": 0}, {"fusion_lat": 0.0, "lon": -77.0760035, "is_reserved": 0, "bike_id": "f5d0b6dcb9e8d78b700788c9463f363f", "fusion_lon": 0.0, "rental_uris": {"android": "https://dc.lft.to/lastmile_qr_scan", "ios": "https://dc.lft.to/lastmile_qr_scan"}, "name": "f5d0b6dcb9e8d78b700788c9463f363f", "type": "electric_scooter", "lat": 38.92059616666667, "is_disabled": 0}, {"fusion_lat": 0.0, "lon": -77.01693966666667, "is_reserved": 0, "bike_id": "89d294f9eb373dc0b28a741237054916", "fusion_lon": 0.0, "rental_uris": {"android": "https://dc.lft.to/lastmile_qr_scan", "ios": "https://dc.lft.to/lastmile_qr_scan"}, "name": "89d294f9eb373dc0b28a741237054916", "type": "electric_scooter", "lat": 38.97500516666667, "is_disabled": 0}, {"fusion_lat": 0.0, "lon": -77.0003515, "is_reserved": 0, "bike_id": "619aa8ebfcb00d8c980106b8636705c9", "fusion_lon": 0.0, "rental_uris": {"android": "https://dc.lft.to/lastmile_qr_scan", "ios": "https://dc.lft.to/lastmile_qr_scan"}, "name": "619aa8ebfcb00d8c980106b8636705c9", "type": "electric_scooter", "lat": 38.908176, "is_disabled": 0}, {"fusion_lat": 0.0, "lon": -77.027436, "is_reserved": 0, "bike_id": "c448acba98d447067a270d931f65328d", "fusion_lon": 0.0, "rental_uris": {"android": "https://dc.lft.to/lastmile_qr_scan", "ios": "https://dc.lft.to/lastmile_qr_scan"}, "name": "c448acba98d447067a270d931f65328d", "type": "electric_scooter", "lat": 38.92386233333333, "is_disabled": 0}, {"fusion_lat": 0.0, "lon": -77.03902616666667, "is_reserved": 0, "bike_id": "a9d8545a53df15345a24deb316acdf96", "fusion_lon": 0.0, "rental_uris": {"android": "https://dc.lft.to/lastmile_qr_scan", "ios": "https://dc.lft.to/lastmile_qr_scan"}, "name": "a9d8545a53df15345a24deb316acdf96", "type": "electric_scooter", "lat": 38.914739, "is_disabled": 0}, {"fusion_lat": 0.0, "lon": -77.00927916666667, "is_reserved": 0, "bike_id": "a0277b5b5148f3e49c3b35f23f5ce1f7", "fusion_lon": 0.0, "rental_uris": {"android": "https://dc.lft.to/lastmile_qr_scan", "ios": "https://dc.lft.to/lastmile_qr_scan"}, "name": "a0277b5b5148f3e49c3b35f23f5ce1f7", "type": "electric_scooter", "lat": 38.896072333333336, "is_disabled": 0}, {"fusion_lat": 0.0, "lon": -76.98766683333334, "is_reserved": 0, "bike_id": "e09e148c917aa4c0482353b7dc581309", "fusion_lon": 0.0, "rental_uris": {"android": "https://dc.lft.to/lastmile_qr_scan", "ios": "https://dc.lft.to/lastmile_qr_scan"}, "name": "e09e148c917aa4c0482353b7dc581309", "type": "electric_scooter", "lat": 38.90029466666667, "is_disabled": 0}, {"fusion_lat": 0.0, "lon": -77.03132333333333, "is_reserved": 0, "bike_id": "b1c4da231988466492112545fc483e02", "fusion_lon": 0.0, "rental_uris": {"android": "https://dc.lft.to/lastmile_qr_scan", "ios": "https://dc.lft.to/lastmile_qr_scan"}, "name": "b1c4da231988466492112545fc483e02", "type": "electric_scooter", "lat": 38.9237865, "is_disabled": 0}, {"fusion_lat": 0.0, "lon": -76.99707166666667, "is_reserved": 0, "bike_id": "f248c5ccb13691c985676196ed16939b", "fusion_lon": 0.0, "rental_uris": {"android": "https://dc.lft.to/lastmile_qr_scan", "ios": "https://dc.lft.to/lastmile_qr_scan"}, "name": "f248c5ccb13691c985676196ed16939b", "type": "electric_scooter", "lat": 38.84434866666667, "is_disabled": 0}, {"fusion_lat": 0.0, "lon": -77.002193, "is_reserved": 0, "bike_id": "40bbdc894ede869e34e27afceb739559", "fusion_lon": 0.0, "rental_uris": {"android": "https://dc.lft.to/lastmile_qr_scan", "ios": "https://dc.lft.to/lastmile_qr_scan"}, "name": "40bbdc894ede869e34e27afceb739559", "type": "electric_scooter", "lat": 38.900462, "is_disabled": 0}, {"fusion_lat": 0.0, "lon": -77.04142916666666, "is_reserved": 0, "bike_id": "6a12946f2e7be3e393443a22c2d26536", "fusion_lon": 0.0, "rental_uris": {"android": "https://dc.lft.to/lastmile_qr_scan", "ios": "https://dc.lft.to/lastmile_qr_scan"}, "name": "6a12946f2e7be3e393443a22c2d26536", "type": "electric_scooter", "lat": 38.89223483333333, "is_disabled": 0}, {"fusion_lat": 0.0, "lon": -77.0284625, "is_reserved": 0, "bike_id": "76bdc05e704bd2221f993016bcf3fa5d", "fusion_lon": 0.0, "rental_uris": {"android": "https://dc.lft.to/lastmile_qr_scan", "ios": "https://dc.lft.to/lastmile_qr_scan"}, "name": "76bdc05e704bd2221f993016bcf3fa5d", "type": "electric_scooter", "lat": 38.88751533333333, "is_disabled": 0}, {"fusion_lat": 0.0, "lon": -77.20847766666667, "is_reserved": 0, "bike_id": "bbe6af0381ff6ca1ca2376bab34248f3", "fusion_lon": 0.0, "rental_uris": {"android": "https://dc.lft.to/lastmile_qr_scan", "ios": "https://dc.lft.to/lastmile_qr_scan"}, "name": "bbe6af0381ff6ca1ca2376bab34248f3", "type": "electric_bike", "lat": 38.92465466666667, "is_disabled": 0}, {"fusion_lat": 0.0, "lon": -77.00955833333333, "is_reserved": 0, "bike_id": "4f9ba41b8339ac8e3bd8684d9da62e45", "fusion_lon": 0.0, "rental_uris": {"android": "https://dc.lft.to/lastmile_qr_scan", "ios": "https://dc.lft.to/lastmile_qr_scan"}, "name": "4f9ba41b8339ac8e3bd8684d9da62e45", "type": "electric_scooter", "lat": 38.89755133333333, "is_disabled": 0}, {"fusion_lat": 0.0, "lon": -77.0664925, "is_reserved": 0, "bike_id": "d337ba04f192eef6719e07551bf9aa95", "fusion_lon": 0.0, "rental_uris": {"android": "https://dc.lft.to/lastmile_qr_scan", "ios": "https://dc.lft.to/lastmile_qr_scan"}, "name": "d337ba04f192eef6719e07551bf9aa95", "type": "electric_scooter", "lat": 38.9496285, "is_disabled": 0}, {"fusion_lat": 0.0, "lon": -76.93756766666667, "is_reserved": 0, "bike_id": "c3b27eef2b2f23bd659ded96c7c3a469", "fusion_lon": 0.0, "rental_uris": {"android": "https://dc.lft.to/lastmile_qr_scan", "ios": "https://dc.lft.to/lastmile_qr_scan"}, "name": "c3b27eef2b2f23bd659ded96c7c3a469", "type": "electric_scooter", "lat": 38.903744333333336, "is_disabled": 0}, {"fusion_lat": 0.0, "lon": -77.034261, "is_reserved": 0, "bike_id": "4ac3c88d7579ef75fefa90a598069a16", "fusion_lon": 0.0, "rental_uris": {"android": "https://dc.lft.to/lastmile_qr_scan", "ios": "https://dc.lft.to/lastmile_qr_scan"}, "name": "4ac3c88d7579ef75fefa90a598069a16", "type": "electric_scooter", "lat": 38.919432, "is_disabled": 0}, {"fusion_lat": 0.0, "lon": -77.03713883333333, "is_reserved": 0, "bike_id": "14c1428f1d38123edf2e0716452daf16", "fusion_lon": 0.0, "rental_uris": {"android": "https://dc.lft.to/lastmile_qr_scan", "ios": "https://dc.lft.to/lastmile_qr_scan"}, "name": "14c1428f1d38123edf2e0716452daf16", "type": "electric_scooter", "lat": 38.93567383333333, "is_disabled": 0}, {"fusion_lat": 0.0, "lon": -77.03634466666666, "is_reserved": 0, "bike_id": "f0c316fdafb99ff3fa9886706ed3ca6e", "fusion_lon": 0.0, "rental_uris": {"android": "https://dc.lft.to/lastmile_qr_scan", "ios": "https://dc.lft.to/lastmile_qr_scan"}, "name": "f0c316fdafb99ff3fa9886706ed3ca6e", "type": "electric_scooter", "lat": 38.93676716666667, "is_disabled": 0}, {"fusion_lat": 0.0, "lon": -76.99886616666667, "is_reserved": 0, "bike_id": "815fd53c9acf6e081dc7b95b87140226", "fusion_lon": 0.0, "rental_uris": {"android": "https://dc.lft.to/lastmile_qr_scan", "ios": "https://dc.lft.to/lastmile_qr_scan"}, "name": "815fd53c9acf6e081dc7b95b87140226", "type": "electric_scooter", "lat": 38.9205735, "is_disabled": 0}, {"fusion_lat": 0.0, "lon": -77.02274133333333, "is_reserved": 0, "bike_id": "ad0a8d5e2d439f125e458ab3ac702e77", "fusion_lon": 0.0, "rental_uris": {"android": "https://dc.lft.to/lastmile_qr_scan", "ios": "https://dc.lft.to/lastmile_qr_scan"}, "name": "ad0a8d5e2d439f125e458ab3ac702e77", "type": "electric_scooter", "lat": 38.912289333333334, "is_disabled": 0}, {"fusion_lat": 0.0, "lon": -77.056503, "is_reserved": 0, "bike_id": "25397c46ae2c98b11e48d20d7615cab0", "fusion_lon": 0.0, "rental_uris": {"android": "https://dc.lft.to/lastmile_qr_scan", "ios": "https://dc.lft.to/lastmile_qr_scan"}, "name": "25397c46ae2c98b11e48d20d7615cab0", "type": "electric_scooter", "lat": 38.907689833333336, "is_disabled": 0}, {"fusion_lat": 0.0, "lon": -76.970208, "is_reserved": 0, "bike_id": "97721018b135a51cdbf1fc6e3c2c7c63", "fusion_lon": 0.0, "rental_uris": {"android": "https://dc.lft.to/lastmile_qr_scan", "ios": "https://dc.lft.to/lastmile_qr_scan"}, "name": "97721018b135a51cdbf1fc6e3c2c7c63", "type": "electric_scooter", "lat": 38.92534883333333, "is_disabled": 0}, {"fusion_lat": 0.0, "lon": -76.98765966666667, "is_reserved": 0, "bike_id": "2fdb988783283c789780d699fcd7b345", "fusion_lon": 0.0, "rental_uris": {"android": "https://dc.lft.to/lastmile_qr_scan", "ios": "https://dc.lft.to/lastmile_qr_scan"}, "name": "2fdb988783283c789780d699fcd7b345", "type": "electric_scooter", "lat": 38.900287, "is_disabled": 0}, {"fusion_lat": 0.0, "lon": -77.01761333333333, "is_reserved": 0, "bike_id": "941e8da311fadae5f775f3297336d268", "fusion_lon": 0.0, "rental_uris": {"android": "https://dc.lft.to/lastmile_qr_scan", "ios": "https://dc.lft.to/lastmile_qr_scan"}, "name": "941e8da311fadae5f775f3297336d268", "type": "electric_scooter", "lat": 38.87692933333334, "is_disabled": 0}, {"fusion_lat": 0.0, "lon": -77.03463566666667, "is_reserved": 0, "bike_id": "f67e1f7d28555e3f0deceaf45aadf8d2", "fusion_lon": 0.0, "rental_uris": {"android": "https://dc.lft.to/lastmile_qr_scan", "ios": "https://dc.lft.to/lastmile_qr_scan"}, "name": "f67e1f7d28555e3f0deceaf45aadf8d2", "type": "electric_scooter", "lat": 38.908143, "is_disabled": 0}, {"fusion_lat": 0.0, "lon": -77.07430383333333, "is_reserved": 0, "bike_id": "292a8067fa50b42336dc4ad6666e4d3c", "fusion_lon": 0.0, "rental_uris": {"android": "https://dc.lft.to/lastmile_qr_scan", "ios": "https://dc.lft.to/lastmile_qr_scan"}, "name": "292a8067fa50b42336dc4ad6666e4d3c", "type": "electric_bike", "lat": 38.999463166666665, "is_disabled": 0}, {"fusion_lat": 0.0, "lon": -77.0005355, "is_reserved": 0, "bike_id": "adfd59475f521bd6684863e410199996", "fusion_lon": 0.0, "rental_uris": {"android": "https://dc.lft.to/lastmile_qr_scan", "ios": "https://dc.lft.to/lastmile_qr_scan"}, "name": "adfd59475f521bd6684863e410199996", "type": "electric_scooter", "lat": 38.898425, "is_disabled": 0}, {"fusion_lat": 0.0, "lon": -76.99327516666666, "is_reserved": 0, "bike_id": "53ebec148084ecf11bb767c778ebcb07", "fusion_lon": 0.0, "rental_uris": {"android": "https://dc.lft.to/lastmile_qr_scan", "ios": "https://dc.lft.to/lastmile_qr_scan"}, "name": "53ebec148084ecf11bb767c778ebcb07", "type": "electric_bike", "lat": 38.89368, "is_disabled": 0}, {"fusion_lat": 0.0, "lon": -77.03881583333333, "is_reserved": 0, "bike_id": "5571614c48127f565488b49357b95cee", "fusion_lon": 0.0, "rental_uris": {"android": "https://dc.lft.to/lastmile_qr_scan", "ios": "https://dc.lft.to/lastmile_qr_scan"}, "name": "5571614c48127f565488b49357b95cee", "type": "electric_scooter", "lat": 38.931279, "is_disabled": 0}, {"fusion_lat": 0.0, "lon": -76.98716383333333, "is_reserved": 0, "bike_id": "cfa2397bdb4b2f3e8d331ebf4536712a", "fusion_lon": 0.0, "rental_uris": {"android": "https://dc.lft.to/lastmile_qr_scan", "ios": "https://dc.lft.to/lastmile_qr_scan"}, "name": "cfa2397bdb4b2f3e8d331ebf4536712a", "type": "electric_scooter", "lat": 38.86628983333333, "is_disabled": 0}, {"fusion_lat": 0.0, "lon": -77.02437616666667, "is_reserved": 0, "bike_id": "459f138917a1ea3b99752eafb24dcfb5", "fusion_lon": 0.0, "rental_uris": {"android": "https://dc.lft.to/lastmile_qr_scan", "ios": "https://dc.lft.to/lastmile_qr_scan"}, "name": "459f138917a1ea3b99752eafb24dcfb5", "type": "electric_scooter", "lat": 38.9272705, "is_disabled": 0}, {"fusion_lat": 0.0, "lon": -77.03362833333334, "is_reserved": 0, "bike_id": "6f42f1150cef5e10725f2662b3f24faf", "fusion_lon": 0.0, "rental_uris": {"android": "https://dc.lft.to/lastmile_qr_scan", "ios": "https://dc.lft.to/lastmile_qr_scan"}, "name": "6f42f1150cef5e10725f2662b3f24faf", "type": "electric_scooter", "lat": 38.908278, "is_disabled": 0}, {"fusion_lat": 0.0, "lon": -77.04016516666667, "is_reserved": 0, "bike_id": "61ed6f11ee4ca24c3fe9a47205dd9b07", "fusion_lon": 0.0, "rental_uris": {"android": "https://dc.lft.to/lastmile_qr_scan", "ios": "https://dc.lft.to/lastmile_qr_scan"}, "name": "61ed6f11ee4ca24c3fe9a47205dd9b07", "type": "electric_scooter", "lat": 38.92243233333333, "is_disabled": 0}, {"fusion_lat": 0.0, "lon": -77.0108375, "is_reserved": 0, "bike_id": "6e14d82fdcc2b98b102dc70a1e010cc3", "fusion_lon": 0.0, "rental_uris": {"android": "https://dc.lft.to/lastmile_qr_scan", "ios": "https://dc.lft.to/lastmile_qr_scan"}, "name": "6e14d82fdcc2b98b102dc70a1e010cc3", "type": "electric_scooter", "lat": 38.907839, "is_disabled": 0}, {"fusion_lat": 0.0, "lon": -77.02796116666667, "is_reserved": 0, "bike_id": "5bd11ba351c265be5989ac44c53c472a", "fusion_lon": 0.0, "rental_uris": {"android": "https://dc.lft.to/lastmile_qr_scan", "ios": "https://dc.lft.to/lastmile_qr_scan"}, "name": "5bd11ba351c265be5989ac44c53c472a", "type": "electric_scooter", "lat": 38.93080833333333, "is_disabled": 0}, {"fusion_lat": 0.0, "lon": -77.019805, "is_reserved": 0, "bike_id": "d60896a6fa7ec802c655b80133b78bd7", "fusion_lon": 0.0, "rental_uris": {"android": "https://dc.lft.to/lastmile_qr_scan", "ios": "https://dc.lft.to/lastmile_qr_scan"}, "name": "d60896a6fa7ec802c655b80133b78bd7", "type": "electric_scooter", "lat": 38.914357, "is_disabled": 0}, {"fusion_lat": 0.0, "lon": -77.04071516666667, "is_reserved": 0, "bike_id": "54a39c9141163814967700f5999f482c", "fusion_lon": 0.0, "rental_uris": {"android": "https://dc.lft.to/lastmile_qr_scan", "ios": "https://dc.lft.to/lastmile_qr_scan"}, "name": "54a39c9141163814967700f5999f482c", "type": "electric_scooter", "lat": 38.917103833333336, "is_disabled": 0}, {"fusion_lat": 0.0, "lon": -77.027445, "is_reserved": 0, "bike_id": "ea72aec2da61dd854b423bbf9e567979", "fusion_lon": 0.0, "rental_uris": {"android": "https://dc.lft.to/lastmile_qr_scan", "ios": "https://dc.lft.to/lastmile_qr_scan"}, "name": "ea72aec2da61dd854b423bbf9e567979", "type": "electric_scooter", "lat": 38.924149166666666, "is_disabled": 0}, {"fusion_lat": 0.0, "lon": -77.03481483333333, "is_reserved": 0, "bike_id": "808f8ffc275024a1a7145a9eb901af0b", "fusion_lon": 0.0, "rental_uris": {"android": "https://dc.lft.to/lastmile_qr_scan", "ios": "https://dc.lft.to/lastmile_qr_scan"}, "name": "808f8ffc275024a1a7145a9eb901af0b", "type": "electric_scooter", "lat": 38.93275166666667, "is_disabled": 0}, {"fusion_lat": 0.0, "lon": -77.02492066666667, "is_reserved": 0, "bike_id": "0a669bee12e663e989b62dfcbd956ec8", "fusion_lon": 0.0, "rental_uris": {"android": "https://dc.lft.to/lastmile_qr_scan", "ios": "https://dc.lft.to/lastmile_qr_scan"}, "name": "0a669bee12e663e989b62dfcbd956ec8", "type": "electric_scooter", "lat": 38.93872, "is_disabled": 0}, {"fusion_lat": 0.0, "lon": -77.03054366666667, "is_reserved": 0, "bike_id": "44499de598b775ca1c8f1fc5ac1fc1ed", "fusion_lon": 0.0, "rental_uris": {"android": "https://dc.lft.to/lastmile_qr_scan", "ios": "https://dc.lft.to/lastmile_qr_scan"}, "name": "44499de598b775ca1c8f1fc5ac1fc1ed", "type": "electric_scooter", "lat": 38.9237705, "is_disabled": 0}, {"fusion_lat": 0.0, "lon": -77.020915, "is_reserved": 0, "bike_id": "d8d6a9f85ee8944710d33357393cc07b", "fusion_lon": 0.0, "rental_uris": {"android": "https://dc.lft.to/lastmile_qr_scan", "ios": "https://dc.lft.to/lastmile_qr_scan"}, "name": "d8d6a9f85ee8944710d33357393cc07b", "type": "electric_scooter", "lat": 38.914215, "is_disabled": 0}, {"fusion_lat": 0.0, "lon": -77.00732233333333, "is_reserved": 0, "bike_id": "6fb652078f6e821c5b401f9d581c085e", "fusion_lon": 0.0, "rental_uris": {"android": "https://dc.lft.to/lastmile_qr_scan", "ios": "https://dc.lft.to/lastmile_qr_scan"}, "name": "6fb652078f6e821c5b401f9d581c085e", "type": "electric_scooter", "lat": 38.9035005, "is_disabled": 0}, {"fusion_lat": 0.0, "lon": -77.019089, "is_reserved": 0, "bike_id": "8dfc86ac36b3523d014ef60418d63ccc", "fusion_lon": 0.0, "rental_uris": {"android": "https://dc.lft.to/lastmile_qr_scan", "ios": "https://dc.lft.to/lastmile_qr_scan"}, "name": "8dfc86ac36b3523d014ef60418d63ccc", "type": "electric_scooter", "lat": 38.94122633333333, "is_disabled": 0}, {"fusion_lat": 0.0, "lon": -77.02855416666667, "is_reserved": 0, "bike_id": "d7d0c868a2449bef922fc4d7efda9790", "fusion_lon": 0.0, "rental_uris": {"android": "https://dc.lft.to/lastmile_qr_scan", "ios": "https://dc.lft.to/lastmile_qr_scan"}, "name": "d7d0c868a2449bef922fc4d7efda9790", "type": "electric_scooter", "lat": 38.911667, "is_disabled": 0}, {"fusion_lat": 0.0, "lon": -77.01012733333333, "is_reserved": 0, "bike_id": "4de521e1f7c989ce5f0e0606ace3c5e0", "fusion_lon": 0.0, "rental_uris": {"android": "https://dc.lft.to/lastmile_qr_scan", "ios": "https://dc.lft.to/lastmile_qr_scan"}, "name": "4de521e1f7c989ce5f0e0606ace3c5e0", "type": "electric_bike", "lat": 38.87968466666667, "is_disabled": 0}, {"fusion_lat": 0.0, "lon": -77.05426583333333, "is_reserved": 0, "bike_id": "158817d2804506f12deeef01bf9ee530", "fusion_lon": 0.0, "rental_uris": {"android": "https://dc.lft.to/lastmile_qr_scan", "ios": "https://dc.lft.to/lastmile_qr_scan"}, "name": "158817d2804506f12deeef01bf9ee530", "type": "electric_scooter", "lat": 38.9234875, "is_disabled": 0}, {"fusion_lat": 0.0, "lon": -77.04248866666667, "is_reserved": 0, "bike_id": "df2b947a42ccf2c75a197bf59fce5f8b", "fusion_lon": 0.0, "rental_uris": {"android": "https://dc.lft.to/lastmile_qr_scan", "ios": "https://dc.lft.to/lastmile_qr_scan"}, "name": "df2b947a42ccf2c75a197bf59fce5f8b", "type": "electric_scooter", "lat": 38.906475666666665, "is_disabled": 0}, {"fusion_lat": 0.0, "lon": -77.02885083333334, "is_reserved": 0, "bike_id": "564ecdaae37461c8c102b3e610e0af31", "fusion_lon": 0.0, "rental_uris": {"android": "https://dc.lft.to/lastmile_qr_scan", "ios": "https://dc.lft.to/lastmile_qr_scan"}, "name": "564ecdaae37461c8c102b3e610e0af31", "type": "electric_scooter", "lat": 38.90324316666667, "is_disabled": 0}, {"fusion_lat": 0.0, "lon": -77.046685, "is_reserved": 0, "bike_id": "37f8fb34b2b3db9b046879872b228a1f", "fusion_lon": 0.0, "rental_uris": {"android": "https://dc.lft.to/lastmile_qr_scan", "ios": "https://dc.lft.to/lastmile_qr_scan"}, "name": "37f8fb34b2b3db9b046879872b228a1f", "type": "electric_scooter", "lat": 38.913456, "is_disabled": 0}, {"fusion_lat": 0.0, "lon": -77.02952233333333, "is_reserved": 0, "bike_id": "3d20dd9d9c3ff8e5488dee2002fd0ba7", "fusion_lon": 0.0, "rental_uris": {"android": "https://dc.lft.to/lastmile_qr_scan", "ios": "https://dc.lft.to/lastmile_qr_scan"}, "name": "3d20dd9d9c3ff8e5488dee2002fd0ba7", "type": "electric_scooter", "lat": 38.92857516666667, "is_disabled": 0}, {"fusion_lat": 0.0, "lon": -77.03939333333334, "is_reserved": 0, "bike_id": "2127c87312ec5a63daf9c85e94d6ea9c", "fusion_lon": 0.0, "rental_uris": {"android": "https://dc.lft.to/lastmile_qr_scan", "ios": "https://dc.lft.to/lastmile_qr_scan"}, "name": "2127c87312ec5a63daf9c85e94d6ea9c", "type": "electric_scooter", "lat": 38.91756683333333, "is_disabled": 0}, {"fusion_lat": 0.0, "lon": -77.0265835, "is_reserved": 0, "bike_id": "0cfeaaa10a95e9779ea8cd0bef9db45b", "fusion_lon": 0.0, "rental_uris": {"android": "https://dc.lft.to/lastmile_qr_scan", "ios": "https://dc.lft.to/lastmile_qr_scan"}, "name": "0cfeaaa10a95e9779ea8cd0bef9db45b", "type": "electric_scooter", "lat": 38.93100733333333, "is_disabled": 0}, {"fusion_lat": 0.0, "lon": -77.037783, "is_reserved": 0, "bike_id": "df1fb800434abd0c728ff5926d8ff48d", "fusion_lon": 0.0, "rental_uris": {"android": "https://dc.lft.to/lastmile_qr_scan", "ios": "https://dc.lft.to/lastmile_qr_scan"}, "name": "df1fb800434abd0c728ff5926d8ff48d", "type": "electric_scooter", "lat": 38.92211483333333, "is_disabled": 0}, {"fusion_lat": 0.0, "lon": -77.003988, "is_reserved": 0, "bike_id": "1402bbb3670c9374c3209eb5befc1913", "fusion_lon": 0.0, "rental_uris": {"android": "https://dc.lft.to/lastmile_qr_scan", "ios": "https://dc.lft.to/lastmile_qr_scan"}, "name": "1402bbb3670c9374c3209eb5befc1913", "type": "electric_bike", "lat": 38.985472666666666, "is_disabled": 0}, {"fusion_lat": 0.0, "lon": -76.96244016666667, "is_reserved": 0, "bike_id": "7730a69ac918e1cb1d2a25a7c57798a0", "fusion_lon": 0.0, "rental_uris": {"android": "https://dc.lft.to/lastmile_qr_scan", "ios": "https://dc.lft.to/lastmile_qr_scan"}, "name": "7730a69ac918e1cb1d2a25a7c57798a0", "type": "electric_scooter", "lat": 38.877659, "is_disabled": 0}, {"fusion_lat": 0.0, "lon": -77.07378766666666, "is_reserved": 0, "bike_id": "9300191109ac668c2b6eccb62cbf4bec", "fusion_lon": 0.0, "rental_uris": {"android": "https://dc.lft.to/lastmile_qr_scan", "ios": "https://dc.lft.to/lastmile_qr_scan"}, "name": "9300191109ac668c2b6eccb62cbf4bec", "type": "electric_bike", "lat": 38.961915833333336, "is_disabled": 0}, {"fusion_lat": 0.0, "lon": -77.038665, "is_reserved": 0, "bike_id": "845e11c1373fa7771b9ea71ae0e09eeb", "fusion_lon": 0.0, "rental_uris": {"android": "https://dc.lft.to/lastmile_qr_scan", "ios": "https://dc.lft.to/lastmile_qr_scan"}, "name": "845e11c1373fa7771b9ea71ae0e09eeb", "type": "electric_scooter", "lat": 38.9215345, "is_disabled": 0}, {"fusion_lat": 0.0, "lon": -77.01210533333334, "is_reserved": 0, "bike_id": "2438bad04692c7d1df1ed73bf50ec165", "fusion_lon": 0.0, "rental_uris": {"android": "https://dc.lft.to/lastmile_qr_scan", "ios": "https://dc.lft.to/lastmile_qr_scan"}, "name": "2438bad04692c7d1df1ed73bf50ec165", "type": "electric_scooter", "lat": 38.91841016666667, "is_disabled": 0}, {"fusion_lat": 0.0, "lon": -77.04013916666666, "is_reserved": 0, "bike_id": "d032da0a06d0121835a30ec85792fdf9", "fusion_lon": 0.0, "rental_uris": {"android": "https://dc.lft.to/lastmile_qr_scan", "ios": "https://dc.lft.to/lastmile_qr_scan"}, "name": "d032da0a06d0121835a30ec85792fdf9", "type": "electric_scooter", "lat": 38.9184455, "is_disabled": 0}, {"fusion_lat": 0.0, "lon": -76.99773266666666, "is_reserved": 0, "bike_id": "4fb4a246cf422831608d47c58a388883", "fusion_lon": 0.0, "rental_uris": {"android": "https://dc.lft.to/lastmile_qr_scan", "ios": "https://dc.lft.to/lastmile_qr_scan"}, "name": "4fb4a246cf422831608d47c58a388883", "type": "electric_scooter", "lat": 38.9001095, "is_disabled": 0}, {"fusion_lat": 0.0, "lon": -77.0454365, "is_reserved": 0, "bike_id": "f289b8fb9028fe3035f58cfef5978974", "fusion_lon": 0.0, "rental_uris": {"android": "https://dc.lft.to/lastmile_qr_scan", "ios": "https://dc.lft.to/lastmile_qr_scan"}, "name": "f289b8fb9028fe3035f58cfef5978974", "type": "electric_scooter", "lat": 38.934099, "is_disabled": 0}, {"fusion_lat": 0.0, "lon": -77.342994, "is_reserved": 0, "bike_id": "a634f76635f47c82144a54282d3ab0e4", "fusion_lon": 0.0, "rental_uris": {"android": "https://dc.lft.to/lastmile_qr_scan", "ios": "https://dc.lft.to/lastmile_qr_scan"}, "name": "a634f76635f47c82144a54282d3ab0e4", "type": "electric_bike", "lat": 38.946106, "is_disabled": 0}, {"fusion_lat": 0.0, "lon": -77.02394016666666, "is_reserved": 0, "bike_id": "5a65cc595fcc5207e82525adc7367cd6", "fusion_lon": 0.0, "rental_uris": {"android": "https://dc.lft.to/lastmile_qr_scan", "ios": "https://dc.lft.to/lastmile_qr_scan"}, "name": "5a65cc595fcc5207e82525adc7367cd6", "type": "electric_scooter", "lat": 38.9081965, "is_disabled": 0}, {"fusion_lat": 0.0, "lon": -77.03826016666666, "is_reserved": 0, "bike_id": "31a16f10934166e3af301682625d0fb6", "fusion_lon": 0.0, "rental_uris": {"android": "https://dc.lft.to/lastmile_qr_scan", "ios": "https://dc.lft.to/lastmile_qr_scan"}, "name": "31a16f10934166e3af301682625d0fb6", "type": "electric_scooter", "lat": 38.9313415, "is_disabled": 0}, {"fusion_lat": 0.0, "lon": -77.02225016666667, "is_reserved": 0, "bike_id": "698c7546f977fbfc06745e9922f32623", "fusion_lon": 0.0, "rental_uris": {"android": "https://dc.lft.to/lastmile_qr_scan", "ios": "https://dc.lft.to/lastmile_qr_scan"}, "name": "698c7546f977fbfc06745e9922f32623", "type": "electric_scooter", "lat": 38.93554016666667, "is_disabled": 0}, {"fusion_lat": 0.0, "lon": -77.02130216666667, "is_reserved": 0, "bike_id": "a42522659dfbdc256aeb512985c20bb6", "fusion_lon": 0.0, "rental_uris": {"android": "https://dc.lft.to/lastmile_qr_scan", "ios": "https://dc.lft.to/lastmile_qr_scan"}, "name": "a42522659dfbdc256aeb512985c20bb6", "type": "electric_scooter", "lat": 38.924150833333336, "is_disabled": 0}, {"fusion_lat": 0.0, "lon": -76.99578333333334, "is_reserved": 0, "bike_id": "92904b453cef8a6ed1833fc24355cd15", "fusion_lon": 0.0, "rental_uris": {"android": "https://dc.lft.to/lastmile_qr_scan", "ios": "https://dc.lft.to/lastmile_qr_scan"}, "name": "92904b453cef8a6ed1833fc24355cd15", "type": "electric_bike", "lat": 38.852947666666665, "is_disabled": 0}, {"fusion_lat": 0.0, "lon": -77.02474766666667, "is_reserved": 0, "bike_id": "a8b19437bb992183682dbc6b44e4bef3", "fusion_lon": 0.0, "rental_uris": {"android": "https://dc.lft.to/lastmile_qr_scan", "ios": "https://dc.lft.to/lastmile_qr_scan"}, "name": "a8b19437bb992183682dbc6b44e4bef3", "type": "electric_scooter", "lat": 38.933073666666665, "is_disabled": 0}, {"fusion_lat": 0.0, "lon": -77.0410415, "is_reserved": 0, "bike_id": "37532954ebf8b7e93d830cad120118c6", "fusion_lon": 0.0, "rental_uris": {"android": "https://dc.lft.to/lastmile_qr_scan", "ios": "https://dc.lft.to/lastmile_qr_scan"}, "name": "37532954ebf8b7e93d830cad120118c6", "type": "electric_scooter", "lat": 38.92803283333333, "is_disabled": 0}, {"fusion_lat": 0.0, "lon": -77.027108, "is_reserved": 0, "bike_id": "666127f3cf350f823cc2e4265a337f40", "fusion_lon": 0.0, "rental_uris": {"android": "https://dc.lft.to/lastmile_qr_scan", "ios": "https://dc.lft.to/lastmile_qr_scan"}, "name": "666127f3cf350f823cc2e4265a337f40", "type": "electric_scooter", "lat": 38.897405166666665, "is_disabled": 0}, {"fusion_lat": 0.0, "lon": -77.0241625, "is_reserved": 0, "bike_id": "be3e7f9ffba83f607029925c88ec7726", "fusion_lon": 0.0, "rental_uris": {"android": "https://dc.lft.to/lastmile_qr_scan", "ios": "https://dc.lft.to/lastmile_qr_scan"}, "name": "be3e7f9ffba83f607029925c88ec7726", "type": "electric_scooter", "lat": 38.892529833333334, "is_disabled": 0}, {"fusion_lat": 0.0, "lon": -77.03231166666667, "is_reserved": 0, "bike_id": "74b14dd90ffcf3435d03c47b3ebbed5f", "fusion_lon": 0.0, "rental_uris": {"android": "https://dc.lft.to/lastmile_qr_scan", "ios": "https://dc.lft.to/lastmile_qr_scan"}, "name": "74b14dd90ffcf3435d03c47b3ebbed5f", "type": "electric_scooter", "lat": 38.926361, "is_disabled": 0}, {"fusion_lat": 0.0, "lon": -77.03375216666667, "is_reserved": 0, "bike_id": "d830f674b9721dcc14d55f5db0c47800", "fusion_lon": 0.0, "rental_uris": {"android": "https://dc.lft.to/lastmile_qr_scan", "ios": "https://dc.lft.to/lastmile_qr_scan"}, "name": "d830f674b9721dcc14d55f5db0c47800", "type": "electric_scooter", "lat": 38.90834916666667, "is_disabled": 0}, {"fusion_lat": 0.0, "lon": -77.0091265, "is_reserved": 0, "bike_id": "14b8f3ecd98e764d38f574c466b13a92", "fusion_lon": 0.0, "rental_uris": {"android": "https://dc.lft.to/lastmile_qr_scan", "ios": "https://dc.lft.to/lastmile_qr_scan"}, "name": "14b8f3ecd98e764d38f574c466b13a92", "type": "electric_scooter", "lat": 38.8955935, "is_disabled": 0}, {"fusion_lat": 0.0, "lon": -77.01972466666666, "is_reserved": 0, "bike_id": "629e94a5ca8cb3edb0d79e2565dcaa5e", "fusion_lon": 0.0, "rental_uris": {"android": "https://dc.lft.to/lastmile_qr_scan", "ios": "https://dc.lft.to/lastmile_qr_scan"}, "name": "629e94a5ca8cb3edb0d79e2565dcaa5e", "type": "electric_scooter", "lat": 38.8833885, "is_disabled": 0}, {"fusion_lat": 0.0, "lon": -77.0461765, "is_reserved": 0, "bike_id": "7adb999f5f9a9e1ddb1b171961437d24", "fusion_lon": 0.0, "rental_uris": {"android": "https://dc.lft.to/lastmile_qr_scan", "ios": "https://dc.lft.to/lastmile_qr_scan"}, "name": "7adb999f5f9a9e1ddb1b171961437d24", "type": "electric_scooter", "lat": 38.915917666666665, "is_disabled": 0}, {"fusion_lat": 0.0, "lon": -77.05714116666667, "is_reserved": 0, "bike_id": "7fe53829716fe643e929db7dbd1653c8", "fusion_lon": 0.0, "rental_uris": {"android": "https://dc.lft.to/lastmile_qr_scan", "ios": "https://dc.lft.to/lastmile_qr_scan"}, "name": "7fe53829716fe643e929db7dbd1653c8", "type": "electric_scooter", "lat": 38.931292666666664, "is_disabled": 0}, {"fusion_lat": 0.0, "lon": -77.02769216666667, "is_reserved": 0, "bike_id": "b08e5ffbdddbb3599568e4b998b190f9", "fusion_lon": 0.0, "rental_uris": {"android": "https://dc.lft.to/lastmile_qr_scan", "ios": "https://dc.lft.to/lastmile_qr_scan"}, "name": "b08e5ffbdddbb3599568e4b998b190f9", "type": "electric_scooter", "lat": 38.95430183333333, "is_disabled": 0}, {"fusion_lat": 0.0, "lon": -77.01911, "is_reserved": 0, "bike_id": "e1db09238c89c1d12b974890975d7369", "fusion_lon": 0.0, "rental_uris": {"android": "https://dc.lft.to/lastmile_qr_scan", "ios": "https://dc.lft.to/lastmile_qr_scan"}, "name": "e1db09238c89c1d12b974890975d7369", "type": "electric_scooter", "lat": 38.9024955, "is_disabled": 0}, {"fusion_lat": 0.0, "lon": -77.0216905, "is_reserved": 0, "bike_id": "39470c63328deacb91eaee14802c03c6", "fusion_lon": 0.0, "rental_uris": {"android": "https://dc.lft.to/lastmile_qr_scan", "ios": "https://dc.lft.to/lastmile_qr_scan"}, "name": "39470c63328deacb91eaee14802c03c6", "type": "electric_scooter", "lat": 38.94292883333333, "is_disabled": 0}, {"fusion_lat": 0.0, "lon": -77.03437183333334, "is_reserved": 0, "bike_id": "9cf56363ea7fef4b94971355709a00e0", "fusion_lon": 0.0, "rental_uris": {"android": "https://dc.lft.to/lastmile_qr_scan", "ios": "https://dc.lft.to/lastmile_qr_scan"}, "name": "9cf56363ea7fef4b94971355709a00e0", "type": "electric_scooter", "lat": 38.91808666666667, "is_disabled": 0}, {"fusion_lat": 0.0, "lon": -77.02342883333333, "is_reserved": 0, "bike_id": "bd70d0021f7591d3851558964ea9db6d", "fusion_lon": 0.0, "rental_uris": {"android": "https://dc.lft.to/lastmile_qr_scan", "ios": "https://dc.lft.to/lastmile_qr_scan"}, "name": "bd70d0021f7591d3851558964ea9db6d", "type": "electric_scooter", "lat": 38.89974766666667, "is_disabled": 0}, {"fusion_lat": 0.0, "lon": -76.9660185, "is_reserved": 0, "bike_id": "78ba4e244b8b0a4893d59759074c2da3", "fusion_lon": 0.0, "rental_uris": {"android": "https://dc.lft.to/lastmile_qr_scan", "ios": "https://dc.lft.to/lastmile_qr_scan"}, "name": "78ba4e244b8b0a4893d59759074c2da3", "type": "electric_scooter", "lat": 38.871131166666665, "is_disabled": 0}, {"fusion_lat": 0.0, "lon": -77.03211066666667, "is_reserved": 0, "bike_id": "b2f04789e2b38461f2cacf3735724cb0", "fusion_lon": 0.0, "rental_uris": {"android": "https://dc.lft.to/lastmile_qr_scan", "ios": "https://dc.lft.to/lastmile_qr_scan"}, "name": "b2f04789e2b38461f2cacf3735724cb0", "type": "electric_bike", "lat": 38.9331635, "is_disabled": 0}, {"fusion_lat": 0.0, "lon": -77.0386945, "is_reserved": 0, "bike_id": "da162c0dfb2379f86edf1718ee866958", "fusion_lon": 0.0, "rental_uris": {"android": "https://dc.lft.to/lastmile_qr_scan", "ios": "https://dc.lft.to/lastmile_qr_scan"}, "name": "da162c0dfb2379f86edf1718ee866958", "type": "electric_scooter", "lat": 38.921504166666665, "is_disabled": 0}, {"fusion_lat": 0.0, "lon": -77.00619783333333, "is_reserved": 0, "bike_id": "a03ad95a6b72d97c06d4f15b31ecf145", "fusion_lon": 0.0, "rental_uris": {"android": "https://dc.lft.to/lastmile_qr_scan", "ios": "https://dc.lft.to/lastmile_qr_scan"}, "name": "a03ad95a6b72d97c06d4f15b31ecf145", "type": "electric_scooter", "lat": 38.871742833333336, "is_disabled": 0}, {"fusion_lat": 0.0, "lon": -77.07148816666667, "is_reserved": 0, "bike_id": "705f3ca61b74c82a0bdf2dd186744133", "fusion_lon": 0.0, "rental_uris": {"android": "https://dc.lft.to/lastmile_qr_scan", "ios": "https://dc.lft.to/lastmile_qr_scan"}, "name": "705f3ca61b74c82a0bdf2dd186744133", "type": "electric_scooter", "lat": 38.94565333333333, "is_disabled": 0}, {"fusion_lat": 0.0, "lon": -77.06672083333333, "is_reserved": 0, "bike_id": "c2fc958e3c6aa13cd69ad43eabfffc0e", "fusion_lon": 0.0, "rental_uris": {"android": "https://dc.lft.to/lastmile_qr_scan", "ios": "https://dc.lft.to/lastmile_qr_scan"}, "name": "c2fc958e3c6aa13cd69ad43eabfffc0e", "type": "electric_scooter", "lat": 38.94960016666667, "is_disabled": 0}, {"fusion_lat": 0.0, "lon": -77.05474133333334, "is_reserved": 0, "bike_id": "7bab1e8d142c769d549742100c0065a0", "fusion_lon": 0.0, "rental_uris": {"android": "https://dc.lft.to/lastmile_qr_scan", "ios": "https://dc.lft.to/lastmile_qr_scan"}, "name": "7bab1e8d142c769d549742100c0065a0", "type": "electric_scooter", "lat": 38.91063, "is_disabled": 0}, {"fusion_lat": 0.0, "lon": -77.026285, "is_reserved": 0, "bike_id": "8ed70e3e2682368615c8f2825e8c9466", "fusion_lon": 0.0, "rental_uris": {"android": "https://dc.lft.to/lastmile_qr_scan", "ios": "https://dc.lft.to/lastmile_qr_scan"}, "name": "8ed70e3e2682368615c8f2825e8c9466", "type": "electric_bike", "lat": 38.96225416666667, "is_disabled": 0}, {"fusion_lat": 0.0, "lon": -77.029509, "is_reserved": 0, "bike_id": "a5ac045b7d72197ac725de6671e87f3b", "fusion_lon": 0.0, "rental_uris": {"android": "https://dc.lft.to/lastmile_qr_scan", "ios": "https://dc.lft.to/lastmile_qr_scan"}, "name": "a5ac045b7d72197ac725de6671e87f3b", "type": "electric_scooter", "lat": 38.916886833333336, "is_disabled": 0}, {"fusion_lat": 0.0, "lon": -77.08034266666667, "is_reserved": 0, "bike_id": "bf40c4f11dec25dabddfec2cb6207f4f", "fusion_lon": 0.0, "rental_uris": {"android": "https://dc.lft.to/lastmile_qr_scan", "ios": "https://dc.lft.to/lastmile_qr_scan"}, "name": "bf40c4f11dec25dabddfec2cb6207f4f", "type": "electric_scooter", "lat": 38.92392616666667, "is_disabled": 0}, {"fusion_lat": 0.0, "lon": -77.04488083333334, "is_reserved": 0, "bike_id": "75eb25a68447efc21fba7533f16d1ea9", "fusion_lon": 0.0, "rental_uris": {"android": "https://dc.lft.to/lastmile_qr_scan", "ios": "https://dc.lft.to/lastmile_qr_scan"}, "name": "75eb25a68447efc21fba7533f16d1ea9", "type": "electric_scooter", "lat": 38.90513083333333, "is_disabled": 0}, {"fusion_lat": 0.0, "lon": -77.04228316666666, "is_reserved": 0, "bike_id": "ec20ec3d6ee58b82e2e33cf68ae0aa57", "fusion_lon": 0.0, "rental_uris": {"android": "https://dc.lft.to/lastmile_qr_scan", "ios": "https://dc.lft.to/lastmile_qr_scan"}, "name": "ec20ec3d6ee58b82e2e33cf68ae0aa57", "type": "electric_scooter", "lat": 38.92158516666667, "is_disabled": 0}, {"fusion_lat": 0.0, "lon": -77.02906483333334, "is_reserved": 0, "bike_id": "ba61a0897a8cb1c18c8cee84db161d9f", "fusion_lon": 0.0, "rental_uris": {"android": "https://dc.lft.to/lastmile_qr_scan", "ios": "https://dc.lft.to/lastmile_qr_scan"}, "name": "ba61a0897a8cb1c18c8cee84db161d9f", "type": "electric_scooter", "lat": 38.928162666666665, "is_disabled": 0}, {"fusion_lat": 0.0, "lon": -76.99880766666666, "is_reserved": 0, "bike_id": "cd97f5d48c3746c842df697a0ecd995c", "fusion_lon": 0.0, "rental_uris": {"android": "https://dc.lft.to/lastmile_qr_scan", "ios": "https://dc.lft.to/lastmile_qr_scan"}, "name": "cd97f5d48c3746c842df697a0ecd995c", "type": "electric_scooter", "lat": 38.901284833333335, "is_disabled": 0}, {"fusion_lat": 0.0, "lon": -77.03883633333334, "is_reserved": 0, "bike_id": "11e902e97e395e70f6d84f2f620defea", "fusion_lon": 0.0, "rental_uris": {"android": "https://dc.lft.to/lastmile_qr_scan", "ios": "https://dc.lft.to/lastmile_qr_scan"}, "name": "11e902e97e395e70f6d84f2f620defea", "type": "electric_scooter", "lat": 38.914742833333335, "is_disabled": 0}, {"fusion_lat": 0.0, "lon": -76.980189, "is_reserved": 0, "bike_id": "ec3443ba82bef0134659953c2802ea9c", "fusion_lon": 0.0, "rental_uris": {"android": "https://dc.lft.to/lastmile_qr_scan", "ios": "https://dc.lft.to/lastmile_qr_scan"}, "name": "ec3443ba82bef0134659953c2802ea9c", "type": "electric_scooter", "lat": 38.902901666666665, "is_disabled": 0}, {"fusion_lat": 0.0, "lon": -77.03259333333334, "is_reserved": 0, "bike_id": "744f93a779ebdf7c8d4aa4a48104949a", "fusion_lon": 0.0, "rental_uris": {"android": "https://dc.lft.to/lastmile_qr_scan", "ios": "https://dc.lft.to/lastmile_qr_scan"}, "name": "744f93a779ebdf7c8d4aa4a48104949a", "type": "electric_scooter", "lat": 38.93253216666667, "is_disabled": 0}, {"fusion_lat": 0.0, "lon": -77.0321755, "is_reserved": 0, "bike_id": "0d16a32e38e68b157934a2c3c263604b", "fusion_lon": 0.0, "rental_uris": {"android": "https://dc.lft.to/lastmile_qr_scan", "ios": "https://dc.lft.to/lastmile_qr_scan"}, "name": "0d16a32e38e68b157934a2c3c263604b", "type": "electric_bike", "lat": 38.908965, "is_disabled": 0}, {"fusion_lat": 0.0, "lon": -77.08596816666666, "is_reserved": 0, "bike_id": "5fbe07653560322b2129f970db79c4e0", "fusion_lon": 0.0, "rental_uris": {"android": "https://dc.lft.to/lastmile_qr_scan", "ios": "https://dc.lft.to/lastmile_qr_scan"}, "name": "5fbe07653560322b2129f970db79c4e0", "type": "electric_scooter", "lat": 38.908686833333334, "is_disabled": 0}, {"fusion_lat": 0.0, "lon": -77.07270783333334, "is_reserved": 0, "bike_id": "b878ff06fa607eac233b05b3ed982e26", "fusion_lon": 0.0, "rental_uris": {"android": "https://dc.lft.to/lastmile_qr_scan", "ios": "https://dc.lft.to/lastmile_qr_scan"}, "name": "b878ff06fa607eac233b05b3ed982e26", "type": "electric_scooter", "lat": 38.934842833333335, "is_disabled": 0}, {"fusion_lat": 0.0, "lon": -76.96467983333334, "is_reserved": 0, "bike_id": "2c2e2c8bb9f142324e97be6e79bd0949", "fusion_lon": 0.0, "rental_uris": {"android": "https://dc.lft.to/lastmile_qr_scan", "ios": "https://dc.lft.to/lastmile_qr_scan"}, "name": "2c2e2c8bb9f142324e97be6e79bd0949", "type": "electric_scooter", "lat": 38.934476833333335, "is_disabled": 0}, {"fusion_lat": 0.0, "lon": -76.98748816666667, "is_reserved": 0, "bike_id": "953dc2a68b4dd45839c5ea818d23824e", "fusion_lon": 0.0, "rental_uris": {"android": "https://dc.lft.to/lastmile_qr_scan", "ios": "https://dc.lft.to/lastmile_qr_scan"}, "name": "953dc2a68b4dd45839c5ea818d23824e", "type": "electric_scooter", "lat": 38.84487266666667, "is_disabled": 0}, {"fusion_lat": 0.0, "lon": -77.04186133333333, "is_reserved": 0, "bike_id": "6d406fe0835342cc4f328c9611bc8ecf", "fusion_lon": 0.0, "rental_uris": {"android": "https://dc.lft.to/lastmile_qr_scan", "ios": "https://dc.lft.to/lastmile_qr_scan"}, "name": "6d406fe0835342cc4f328c9611bc8ecf", "type": "electric_scooter", "lat": 38.91986383333333, "is_disabled": 0}, {"fusion_lat": 0.0, "lon": -77.03266283333333, "is_reserved": 0, "bike_id": "76fec357dc89d279bdc994398917d8de", "fusion_lon": 0.0, "rental_uris": {"android": "https://dc.lft.to/lastmile_qr_scan", "ios": "https://dc.lft.to/lastmile_qr_scan"}, "name": "76fec357dc89d279bdc994398917d8de", "type": "electric_scooter", "lat": 38.927413, "is_disabled": 0}, {"fusion_lat": 0.0, "lon": -76.98535766666667, "is_reserved": 0, "bike_id": "e9312ef49e46013e07dbd18ca53d28b3", "fusion_lon": 0.0, "rental_uris": {"android": "https://dc.lft.to/lastmile_qr_scan", "ios": "https://dc.lft.to/lastmile_qr_scan"}, "name": "e9312ef49e46013e07dbd18ca53d28b3", "type": "electric_scooter", "lat": 38.910226, "is_disabled": 0}, {"fusion_lat": 0.0, "lon": -77.0254295, "is_reserved": 0, "bike_id": "a9ffadccdeb06f80add05a0c44a5b793", "fusion_lon": 0.0, "rental_uris": {"android": "https://dc.lft.to/lastmile_qr_scan", "ios": "https://dc.lft.to/lastmile_qr_scan"}, "name": "a9ffadccdeb06f80add05a0c44a5b793", "type": "electric_scooter", "lat": 38.952595333333335, "is_disabled": 0}, {"fusion_lat": 0.0, "lon": -77.0268095, "is_reserved": 0, "bike_id": "9f97b50be8aea15412b99b40cd42fbff", "fusion_lon": 0.0, "rental_uris": {"android": "https://dc.lft.to/lastmile_qr_scan", "ios": "https://dc.lft.to/lastmile_qr_scan"}, "name": "9f97b50be8aea15412b99b40cd42fbff", "type": "electric_scooter", "lat": 38.92777483333333, "is_disabled": 0}, {"fusion_lat": 0.0, "lon": -77.02681733333333, "is_reserved": 0, "bike_id": "8e1bc05941ee4efe095c6e4c5b255fb8", "fusion_lon": 0.0, "rental_uris": {"android": "https://dc.lft.to/lastmile_qr_scan", "ios": "https://dc.lft.to/lastmile_qr_scan"}, "name": "8e1bc05941ee4efe095c6e4c5b255fb8", "type": "electric_scooter", "lat": 38.984889, "is_disabled": 0}, {"fusion_lat": 0.0, "lon": -77.0294865, "is_reserved": 0, "bike_id": "35d2beeade3ceda802770a946f6da35c", "fusion_lon": 0.0, "rental_uris": {"android": "https://dc.lft.to/lastmile_qr_scan", "ios": "https://dc.lft.to/lastmile_qr_scan"}, "name": "35d2beeade3ceda802770a946f6da35c", "type": "electric_scooter", "lat": 38.93248166666667, "is_disabled": 0}, {"fusion_lat": 0.0, "lon": -76.99185566666667, "is_reserved": 0, "bike_id": "201525513d1cac0d8de8fab8a80fd639", "fusion_lon": 0.0, "rental_uris": {"android": "https://dc.lft.to/lastmile_qr_scan", "ios": "https://dc.lft.to/lastmile_qr_scan"}, "name": "201525513d1cac0d8de8fab8a80fd639", "type": "electric_scooter", "lat": 38.90030616666667, "is_disabled": 0}, {"fusion_lat": 0.0, "lon": -77.03194866666666, "is_reserved": 0, "bike_id": "a1386b969b7a148fabed027649924576", "fusion_lon": 0.0, "rental_uris": {"android": "https://dc.lft.to/lastmile_qr_scan", "ios": "https://dc.lft.to/lastmile_qr_scan"}, "name": "a1386b969b7a148fabed027649924576", "type": "electric_scooter", "lat": 38.884134333333336, "is_disabled": 0}, {"fusion_lat": 0.0, "lon": -77.0377525, "is_reserved": 0, "bike_id": "618381098a649e6dbacf90710992b441", "fusion_lon": 0.0, "rental_uris": {"android": "https://dc.lft.to/lastmile_qr_scan", "ios": "https://dc.lft.to/lastmile_qr_scan"}, "name": "618381098a649e6dbacf90710992b441", "type": "electric_scooter", "lat": 38.9169775, "is_disabled": 0}, {"fusion_lat": 0.0, "lon": -76.99202666666666, "is_reserved": 0, "bike_id": "8b2728954809fd237368396b4313885c", "fusion_lon": 0.0, "rental_uris": {"android": "https://dc.lft.to/lastmile_qr_scan", "ios": "https://dc.lft.to/lastmile_qr_scan"}, "name": "8b2728954809fd237368396b4313885c", "type": "electric_scooter", "lat": 38.895249666666665, "is_disabled": 0}, {"fusion_lat": 0.0, "lon": -76.99694183333334, "is_reserved": 0, "bike_id": "eea31a5ee03c127c111bd190ba0b2990", "fusion_lon": 0.0, "rental_uris": {"android": "https://dc.lft.to/lastmile_qr_scan", "ios": "https://dc.lft.to/lastmile_qr_scan"}, "name": "eea31a5ee03c127c111bd190ba0b2990", "type": "electric_scooter", "lat": 38.908341, "is_disabled": 0}, {"fusion_lat": 0.0, "lon": -77.02388333333333, "is_reserved": 0, "bike_id": "23640370c56cbc8b63bbc68487adba17", "fusion_lon": 0.0, "rental_uris": {"android": "https://dc.lft.to/lastmile_qr_scan", "ios": "https://dc.lft.to/lastmile_qr_scan"}, "name": "23640370c56cbc8b63bbc68487adba17", "type": "electric_scooter", "lat": 38.91965316666667, "is_disabled": 0}, {"fusion_lat": 0.0, "lon": -77.02687916666666, "is_reserved": 0, "bike_id": "ba979b88e15e72873d1065a0ef759674", "fusion_lon": 0.0, "rental_uris": {"android": "https://dc.lft.to/lastmile_qr_scan", "ios": "https://dc.lft.to/lastmile_qr_scan"}, "name": "ba979b88e15e72873d1065a0ef759674", "type": "electric_scooter", "lat": 38.948929166666666, "is_disabled": 0}, {"fusion_lat": 0.0, "lon": -77.0353335, "is_reserved": 0, "bike_id": "ab86a15f24b75529da577847627fe1e7", "fusion_lon": 0.0, "rental_uris": {"android": "https://dc.lft.to/lastmile_qr_scan", "ios": "https://dc.lft.to/lastmile_qr_scan"}, "name": "ab86a15f24b75529da577847627fe1e7", "type": "electric_scooter", "lat": 38.91558233333333, "is_disabled": 0}, {"fusion_lat": 0.0, "lon": -77.01784883333333, "is_reserved": 0, "bike_id": "b5b2058943864e7c571627e1322f24e5", "fusion_lon": 0.0, "rental_uris": {"android": "https://dc.lft.to/lastmile_qr_scan", "ios": "https://dc.lft.to/lastmile_qr_scan"}, "name": "b5b2058943864e7c571627e1322f24e5", "type": "electric_scooter", "lat": 38.89315033333333, "is_disabled": 0}, {"fusion_lat": 0.0, "lon": -77.043519, "is_reserved": 0, "bike_id": "f36da2ed5dbdb804950c45b49d3445cf", "fusion_lon": 0.0, "rental_uris": {"android": "https://dc.lft.to/lastmile_qr_scan", "ios": "https://dc.lft.to/lastmile_qr_scan"}, "name": "f36da2ed5dbdb804950c45b49d3445cf", "type": "electric_scooter", "lat": 38.90308266666667, "is_disabled": 0}, {"fusion_lat": 0.0, "lon": -77.032575, "is_reserved": 0, "bike_id": "249ab33c4a3c097f6c76634b23e23d8c", "fusion_lon": 0.0, "rental_uris": {"android": "https://dc.lft.to/lastmile_qr_scan", "ios": "https://dc.lft.to/lastmile_qr_scan"}, "name": "249ab33c4a3c097f6c76634b23e23d8c", "type": "electric_scooter", "lat": 38.9325605, "is_disabled": 0}, {"fusion_lat": 0.0, "lon": -76.95019383333333, "is_reserved": 0, "bike_id": "a4538cc04fdaef8cf022b1f53246d3a1", "fusion_lon": 0.0, "rental_uris": {"android": "https://dc.lft.to/lastmile_qr_scan", "ios": "https://dc.lft.to/lastmile_qr_scan"}, "name": "a4538cc04fdaef8cf022b1f53246d3a1", "type": "electric_scooter", "lat": 38.8938865, "is_disabled": 0}, {"fusion_lat": 0.0, "lon": -77.02979583333334, "is_reserved": 0, "bike_id": "c1deb85e7d49f382a4874e8415791675", "fusion_lon": 0.0, "rental_uris": {"android": "https://dc.lft.to/lastmile_qr_scan", "ios": "https://dc.lft.to/lastmile_qr_scan"}, "name": "c1deb85e7d49f382a4874e8415791675", "type": "electric_scooter", "lat": 38.92954066666667, "is_disabled": 0}, {"fusion_lat": 0.0, "lon": -76.98547883333333, "is_reserved": 0, "bike_id": "77e01bedd0de2d3a9ed902644c612f13", "fusion_lon": 0.0, "rental_uris": {"android": "https://dc.lft.to/lastmile_qr_scan", "ios": "https://dc.lft.to/lastmile_qr_scan"}, "name": "77e01bedd0de2d3a9ed902644c612f13", "type": "electric_bike", "lat": 38.8819005, "is_disabled": 0}, {"fusion_lat": 0.0, "lon": -77.0060605, "is_reserved": 0, "bike_id": "95e4be6320bfa7482dd983abee25be56", "fusion_lon": 0.0, "rental_uris": {"android": "https://dc.lft.to/lastmile_qr_scan", "ios": "https://dc.lft.to/lastmile_qr_scan"}, "name": "95e4be6320bfa7482dd983abee25be56", "type": "electric_scooter", "lat": 38.90571516666667, "is_disabled": 0}, {"fusion_lat": 0.0, "lon": -77.01141533333333, "is_reserved": 0, "bike_id": "6a7ea7dd360e825d32f331a1a439066b", "fusion_lon": 0.0, "rental_uris": {"android": "https://dc.lft.to/lastmile_qr_scan", "ios": "https://dc.lft.to/lastmile_qr_scan"}, "name": "6a7ea7dd360e825d32f331a1a439066b", "type": "electric_scooter", "lat": 38.906452, "is_disabled": 0}, {"fusion_lat": 0.0, "lon": -77.02387466666667, "is_reserved": 0, "bike_id": "03b921c71aa1beca1f940ff2480ad050", "fusion_lon": 0.0, "rental_uris": {"android": "https://dc.lft.to/lastmile_qr_scan", "ios": "https://dc.lft.to/lastmile_qr_scan"}, "name": "03b921c71aa1beca1f940ff2480ad050", "type": "electric_scooter", "lat": 38.919983333333334, "is_disabled": 0}, {"fusion_lat": 0.0, "lon": -77.0456895, "is_reserved": 0, "bike_id": "1a219238bb2bfbf0639ddf6a923447d5", "fusion_lon": 0.0, "rental_uris": {"android": "https://dc.lft.to/lastmile_qr_scan", "ios": "https://dc.lft.to/lastmile_qr_scan"}, "name": "1a219238bb2bfbf0639ddf6a923447d5", "type": "electric_scooter", "lat": 38.897329166666665, "is_disabled": 0}, {"fusion_lat": 0.0, "lon": -77.11592216666666, "is_reserved": 0, "bike_id": "d2e8018d4a20043919aeb5fbd3c27272", "fusion_lon": 0.0, "rental_uris": {"android": "https://dc.lft.to/lastmile_qr_scan", "ios": "https://dc.lft.to/lastmile_qr_scan"}, "name": "d2e8018d4a20043919aeb5fbd3c27272", "type": "electric_bike", "lat": 39.074957833333336, "is_disabled": 0}, {"fusion_lat": 0.0, "lon": -77.02974516666667, "is_reserved": 0, "bike_id": "f9d439fa6ae20646ebbeba9c21bc08ff", "fusion_lon": 0.0, "rental_uris": {"android": "https://dc.lft.to/lastmile_qr_scan", "ios": "https://dc.lft.to/lastmile_qr_scan"}, "name": "f9d439fa6ae20646ebbeba9c21bc08ff", "type": "electric_bike", "lat": 38.92447216666667, "is_disabled": 0}, {"fusion_lat": 0.0, "lon": -77.03558883333334, "is_reserved": 0, "bike_id": "a8fef759d12950162a5a8bf0ab8aa22d", "fusion_lon": 0.0, "rental_uris": {"android": "https://dc.lft.to/lastmile_qr_scan", "ios": "https://dc.lft.to/lastmile_qr_scan"}, "name": "a8fef759d12950162a5a8bf0ab8aa22d", "type": "electric_scooter", "lat": 38.9286335, "is_disabled": 0}, {"fusion_lat": 0.0, "lon": -77.03515683333333, "is_reserved": 0, "bike_id": "e3e3839c6e07ea7830260b5e846b7689", "fusion_lon": 0.0, "rental_uris": {"android": "https://dc.lft.to/lastmile_qr_scan", "ios": "https://dc.lft.to/lastmile_qr_scan"}, "name": "e3e3839c6e07ea7830260b5e846b7689", "type": "electric_scooter", "lat": 38.922006333333336, "is_disabled": 0}, {"fusion_lat": 0.0, "lon": -77.01217533333333, "is_reserved": 0, "bike_id": "27e7468b1d1746c9c4db6953447bf677", "fusion_lon": 0.0, "rental_uris": {"android": "https://dc.lft.to/lastmile_qr_scan", "ios": "https://dc.lft.to/lastmile_qr_scan"}, "name": "27e7468b1d1746c9c4db6953447bf677", "type": "electric_scooter", "lat": 38.91759533333333, "is_disabled": 0}, {"fusion_lat": 0.0, "lon": -76.98110516666667, "is_reserved": 0, "bike_id": "b6efe37a88334c366a4835c5e43943f4", "fusion_lon": 0.0, "rental_uris": {"android": "https://dc.lft.to/lastmile_qr_scan", "ios": "https://dc.lft.to/lastmile_qr_scan"}, "name": "b6efe37a88334c366a4835c5e43943f4", "type": "electric_scooter", "lat": 38.90407833333333, "is_disabled": 0}, {"fusion_lat": 0.0, "lon": -76.99824483333333, "is_reserved": 0, "bike_id": "c9f3b3d9ed22c53d7e1054ed41df7961", "fusion_lon": 0.0, "rental_uris": {"android": "https://dc.lft.to/lastmile_qr_scan", "ios": "https://dc.lft.to/lastmile_qr_scan"}, "name": "c9f3b3d9ed22c53d7e1054ed41df7961", "type": "electric_scooter", "lat": 38.9086905, "is_disabled": 0}, {"fusion_lat": 0.0, "lon": -76.98362733333333, "is_reserved": 0, "bike_id": "acd8278d70b134f7f597d8a84003331f", "fusion_lon": 0.0, "rental_uris": {"android": "https://dc.lft.to/lastmile_qr_scan", "ios": "https://dc.lft.to/lastmile_qr_scan"}, "name": "acd8278d70b134f7f597d8a84003331f", "type": "electric_scooter", "lat": 38.91552016666667, "is_disabled": 0}, {"fusion_lat": 0.0, "lon": -77.005832, "is_reserved": 0, "bike_id": "9b433f42bfc6c25a9c8abe24a545eb00", "fusion_lon": 0.0, "rental_uris": {"android": "https://dc.lft.to/lastmile_qr_scan", "ios": "https://dc.lft.to/lastmile_qr_scan"}, "name": "9b433f42bfc6c25a9c8abe24a545eb00", "type": "electric_scooter", "lat": 38.9057975, "is_disabled": 0}, {"fusion_lat": 0.0, "lon": -77.03082183333333, "is_reserved": 0, "bike_id": "a3e69e6b591f99b9c2721cce2a201de4", "fusion_lon": 0.0, "rental_uris": {"android": "https://dc.lft.to/lastmile_qr_scan", "ios": "https://dc.lft.to/lastmile_qr_scan"}, "name": "a3e69e6b591f99b9c2721cce2a201de4", "type": "electric_scooter", "lat": 38.92249266666666, "is_disabled": 0}, {"fusion_lat": 0.0, "lon": -77.03192716666666, "is_reserved": 0, "bike_id": "322192ce40d4a4c3728d7a1a83ce0345", "fusion_lon": 0.0, "rental_uris": {"android": "https://dc.lft.to/lastmile_qr_scan", "ios": "https://dc.lft.to/lastmile_qr_scan"}, "name": "322192ce40d4a4c3728d7a1a83ce0345", "type": "electric_scooter", "lat": 38.91662866666667, "is_disabled": 0}, {"fusion_lat": 0.0, "lon": -77.02791783333333, "is_reserved": 0, "bike_id": "ed59eb6b14164dc8a2680a639828d773", "fusion_lon": 0.0, "rental_uris": {"android": "https://dc.lft.to/lastmile_qr_scan", "ios": "https://dc.lft.to/lastmile_qr_scan"}, "name": "ed59eb6b14164dc8a2680a639828d773", "type": "electric_scooter", "lat": 38.9540855, "is_disabled": 0}, {"fusion_lat": 0.0, "lon": -77.03930883333334, "is_reserved": 0, "bike_id": "3501b86655a4d5be0b4a1790094f06ee", "fusion_lon": 0.0, "rental_uris": {"android": "https://dc.lft.to/lastmile_qr_scan", "ios": "https://dc.lft.to/lastmile_qr_scan"}, "name": "3501b86655a4d5be0b4a1790094f06ee", "type": "electric_scooter", "lat": 38.924959333333334, "is_disabled": 0}, {"fusion_lat": 0.0, "lon": -76.981079, "is_reserved": 0, "bike_id": "87533f9e9d3d9c9e48da8a0ff4d952d4", "fusion_lon": 0.0, "rental_uris": {"android": "https://dc.lft.to/lastmile_qr_scan", "ios": "https://dc.lft.to/lastmile_qr_scan"}, "name": "87533f9e9d3d9c9e48da8a0ff4d952d4", "type": "electric_scooter", "lat": 38.9039445, "is_disabled": 0}, {"fusion_lat": 0.0, "lon": -77.046559, "is_reserved": 0, "bike_id": "4c2dac7fb5f21c6eab201147d79009e3", "fusion_lon": 0.0, "rental_uris": {"android": "https://dc.lft.to/lastmile_qr_scan", "ios": "https://dc.lft.to/lastmile_qr_scan"}, "name": "4c2dac7fb5f21c6eab201147d79009e3", "type": "electric_scooter", "lat": 38.9136755, "is_disabled": 0}, {"fusion_lat": 0.0, "lon": -76.98360683333334, "is_reserved": 0, "bike_id": "66539ab91f0a5a0db2c4821cf6ee1a94", "fusion_lon": 0.0, "rental_uris": {"android": "https://dc.lft.to/lastmile_qr_scan", "ios": "https://dc.lft.to/lastmile_qr_scan"}, "name": "66539ab91f0a5a0db2c4821cf6ee1a94", "type": "electric_scooter", "lat": 38.887462, "is_disabled": 0}, {"fusion_lat": 0.0, "lon": -76.99839383333334, "is_reserved": 0, "bike_id": "b970e4d90ac82c4297d8f927c83d8e76", "fusion_lon": 0.0, "rental_uris": {"android": "https://dc.lft.to/lastmile_qr_scan", "ios": "https://dc.lft.to/lastmile_qr_scan"}, "name": "b970e4d90ac82c4297d8f927c83d8e76", "type": "electric_scooter", "lat": 38.8908235, "is_disabled": 0}, {"fusion_lat": 0.0, "lon": -77.0434535, "is_reserved": 0, "bike_id": "494829af79303c77e3315011222e2f15", "fusion_lon": 0.0, "rental_uris": {"android": "https://dc.lft.to/lastmile_qr_scan", "ios": "https://dc.lft.to/lastmile_qr_scan"}, "name": "494829af79303c77e3315011222e2f15", "type": "electric_scooter", "lat": 38.9088165, "is_disabled": 0}, {"fusion_lat": 0.0, "lon": -77.02198533333333, "is_reserved": 0, "bike_id": "22b6c8098885f2dde96552300d5e46df", "fusion_lon": 0.0, "rental_uris": {"android": "https://dc.lft.to/lastmile_qr_scan", "ios": "https://dc.lft.to/lastmile_qr_scan"}, "name": "22b6c8098885f2dde96552300d5e46df", "type": "electric_scooter", "lat": 38.91135083333333, "is_disabled": 0}, {"fusion_lat": 0.0, "lon": -76.98273966666666, "is_reserved": 0, "bike_id": "e1f74a5eccc4278e80a8db4ac059e757", "fusion_lon": 0.0, "rental_uris": {"android": "https://dc.lft.to/lastmile_qr_scan", "ios": "https://dc.lft.to/lastmile_qr_scan"}, "name": "e1f74a5eccc4278e80a8db4ac059e757", "type": "electric_scooter", "lat": 38.885320166666666, "is_disabled": 0}, {"fusion_lat": 0.0, "lon": -76.9575765, "is_reserved": 0, "bike_id": "41cf0ca9e6f22ce7eb798bb43c792ae8", "fusion_lon": 0.0, "rental_uris": {"android": "https://dc.lft.to/lastmile_qr_scan", "ios": "https://dc.lft.to/lastmile_qr_scan"}, "name": "41cf0ca9e6f22ce7eb798bb43c792ae8", "type": "electric_scooter", "lat": 38.88431466666667, "is_disabled": 0}, {"fusion_lat": 0.0, "lon": -77.03450683333334, "is_reserved": 0, "bike_id": "78e3ce9877c7458cfc49a4174a134674", "fusion_lon": 0.0, "rental_uris": {"android": "https://dc.lft.to/lastmile_qr_scan", "ios": "https://dc.lft.to/lastmile_qr_scan"}, "name": "78e3ce9877c7458cfc49a4174a134674", "type": "electric_scooter", "lat": 38.910132, "is_disabled": 0}, {"fusion_lat": 0.0, "lon": -77.02451333333333, "is_reserved": 0, "bike_id": "18cf7f6f79153e26cb2ee82819706f21", "fusion_lon": 0.0, "rental_uris": {"android": "https://dc.lft.to/lastmile_qr_scan", "ios": "https://dc.lft.to/lastmile_qr_scan"}, "name": "18cf7f6f79153e26cb2ee82819706f21", "type": "electric_scooter", "lat": 38.92410916666667, "is_disabled": 0}, {"fusion_lat": 0.0, "lon": -77.03743166666666, "is_reserved": 0, "bike_id": "bbab218750652ff32a213d31f3b9cf7c", "fusion_lon": 0.0, "rental_uris": {"android": "https://dc.lft.to/lastmile_qr_scan", "ios": "https://dc.lft.to/lastmile_qr_scan"}, "name": "bbab218750652ff32a213d31f3b9cf7c", "type": "electric_scooter", "lat": 38.922095, "is_disabled": 0}, {"fusion_lat": 0.0, "lon": -77.027172, "is_reserved": 0, "bike_id": "0fa921514fb0ddda491ef942e4cce4ff", "fusion_lon": 0.0, "rental_uris": {"android": "https://dc.lft.to/lastmile_qr_scan", "ios": "https://dc.lft.to/lastmile_qr_scan"}, "name": "0fa921514fb0ddda491ef942e4cce4ff", "type": "electric_scooter", "lat": 38.895897, "is_disabled": 0}, {"fusion_lat": 0.0, "lon": -77.04143133333334, "is_reserved": 0, "bike_id": "ed2d1175631868a65c1e9e4b8aacbaf9", "fusion_lon": 0.0, "rental_uris": {"android": "https://dc.lft.to/lastmile_qr_scan", "ios": "https://dc.lft.to/lastmile_qr_scan"}, "name": "ed2d1175631868a65c1e9e4b8aacbaf9", "type": "electric_scooter", "lat": 38.8922505, "is_disabled": 0}, {"fusion_lat": 0.0, "lon": -76.99413616666666, "is_reserved": 0, "bike_id": "19ab5ca724bec4da03a732454d0e0ee3", "fusion_lon": 0.0, "rental_uris": {"android": "https://dc.lft.to/lastmile_qr_scan", "ios": "https://dc.lft.to/lastmile_qr_scan"}, "name": "19ab5ca724bec4da03a732454d0e0ee3", "type": "electric_scooter", "lat": 38.9210125, "is_disabled": 0}, {"fusion_lat": 0.0, "lon": -77.04456333333333, "is_reserved": 0, "bike_id": "d5d91734a582b8f2fdc5ca43cedf3f52", "fusion_lon": 0.0, "rental_uris": {"android": "https://dc.lft.to/lastmile_qr_scan", "ios": "https://dc.lft.to/lastmile_qr_scan"}, "name": "d5d91734a582b8f2fdc5ca43cedf3f52", "type": "electric_scooter", "lat": 38.90833516666667, "is_disabled": 0}, {"fusion_lat": 0.0, "lon": -77.02550766666667, "is_reserved": 0, "bike_id": "b895adea459b6091721ceca4c8eb1cd2", "fusion_lon": 0.0, "rental_uris": {"android": "https://dc.lft.to/lastmile_qr_scan", "ios": "https://dc.lft.to/lastmile_qr_scan"}, "name": "b895adea459b6091721ceca4c8eb1cd2", "type": "electric_scooter", "lat": 38.92473016666667, "is_disabled": 0}, {"fusion_lat": 0.0, "lon": -77.00970033333333, "is_reserved": 0, "bike_id": "3cd87b641e552badab7b68b770abcc84", "fusion_lon": 0.0, "rental_uris": {"android": "https://dc.lft.to/lastmile_qr_scan", "ios": "https://dc.lft.to/lastmile_qr_scan"}, "name": "3cd87b641e552badab7b68b770abcc84", "type": "electric_scooter", "lat": 38.907874, "is_disabled": 0}, {"fusion_lat": 0.0, "lon": -76.97532083333333, "is_reserved": 0, "bike_id": "eb47f143b4a51e8edb0b6c5236218257", "fusion_lon": 0.0, "rental_uris": {"android": "https://dc.lft.to/lastmile_qr_scan", "ios": "https://dc.lft.to/lastmile_qr_scan"}, "name": "eb47f143b4a51e8edb0b6c5236218257", "type": "electric_bike", "lat": 38.90331033333333, "is_disabled": 0}, {"fusion_lat": 0.0, "lon": -77.02230383333334, "is_reserved": 0, "bike_id": "c74a982e41d5ffd21f7eb7a5b24d02fd", "fusion_lon": 0.0, "rental_uris": {"android": "https://dc.lft.to/lastmile_qr_scan", "ios": "https://dc.lft.to/lastmile_qr_scan"}, "name": "c74a982e41d5ffd21f7eb7a5b24d02fd", "type": "electric_scooter", "lat": 38.8922295, "is_disabled": 0}, {"fusion_lat": 0.0, "lon": -76.945328, "is_reserved": 0, "bike_id": "ad47f547b1dcfe5dc4d6245c4972e25e", "fusion_lon": 0.0, "rental_uris": {"android": "https://dc.lft.to/lastmile_qr_scan", "ios": "https://dc.lft.to/lastmile_qr_scan"}, "name": "ad47f547b1dcfe5dc4d6245c4972e25e", "type": "electric_bike", "lat": 38.867619, "is_disabled": 0}, {"fusion_lat": 0.0, "lon": -77.00049883333334, "is_reserved": 0, "bike_id": "f9038dd5116cd22ed7f473389cd7400e", "fusion_lon": 0.0, "rental_uris": {"android": "https://dc.lft.to/lastmile_qr_scan", "ios": "https://dc.lft.to/lastmile_qr_scan"}, "name": "f9038dd5116cd22ed7f473389cd7400e", "type": "electric_scooter", "lat": 38.896314, "is_disabled": 0}, {"fusion_lat": 0.0, "lon": -76.93990216666667, "is_reserved": 0, "bike_id": "f14c7a36eea2c64ea6754169886a16a2", "fusion_lon": 0.0, "rental_uris": {"android": "https://dc.lft.to/lastmile_qr_scan", "ios": "https://dc.lft.to/lastmile_qr_scan"}, "name": "f14c7a36eea2c64ea6754169886a16a2", "type": "electric_scooter", "lat": 38.89981783333333, "is_disabled": 0}, {"fusion_lat": 0.0, "lon": -77.03841483333333, "is_reserved": 0, "bike_id": "9d16f0507ab40ec3ccef85ea8b620728", "fusion_lon": 0.0, "rental_uris": {"android": "https://dc.lft.to/lastmile_qr_scan", "ios": "https://dc.lft.to/lastmile_qr_scan"}, "name": "9d16f0507ab40ec3ccef85ea8b620728", "type": "electric_scooter", "lat": 38.9164475, "is_disabled": 0}, {"fusion_lat": 0.0, "lon": -77.036359, "is_reserved": 0, "bike_id": "20a4bd0499d9752fe5b969dd6882f6f9", "fusion_lon": 0.0, "rental_uris": {"android": "https://dc.lft.to/lastmile_qr_scan", "ios": "https://dc.lft.to/lastmile_qr_scan"}, "name": "20a4bd0499d9752fe5b969dd6882f6f9", "type": "electric_scooter", "lat": 38.93677783333333, "is_disabled": 0}, {"fusion_lat": 0.0, "lon": -77.03667066666667, "is_reserved": 0, "bike_id": "adc92f895c86238c6bba18441fdc6036", "fusion_lon": 0.0, "rental_uris": {"android": "https://dc.lft.to/lastmile_qr_scan", "ios": "https://dc.lft.to/lastmile_qr_scan"}, "name": "adc92f895c86238c6bba18441fdc6036", "type": "electric_scooter", "lat": 38.923219833333334, "is_disabled": 0}, {"fusion_lat": 0.0, "lon": -77.182863, "is_reserved": 0, "bike_id": "a35f8285a957230ee67e17761b41e281", "fusion_lon": 0.0, "rental_uris": {"android": "https://dc.lft.to/lastmile_qr_scan", "ios": "https://dc.lft.to/lastmile_qr_scan"}, "name": "a35f8285a957230ee67e17761b41e281", "type": "electric_bike", "lat": 38.89070666666667, "is_disabled": 0}, {"fusion_lat": 0.0, "lon": -77.000344, "is_reserved": 0, "bike_id": "871c0237c654857ffd89cb6661b89422", "fusion_lon": 0.0, "rental_uris": {"android": "https://dc.lft.to/lastmile_qr_scan", "ios": "https://dc.lft.to/lastmile_qr_scan"}, "name": "871c0237c654857ffd89cb6661b89422", "type": "electric_scooter", "lat": 38.897416666666665, "is_disabled": 0}, {"fusion_lat": 0.0, "lon": -77.03678733333334, "is_reserved": 0, "bike_id": "e5372c3cb72aaeb97020aa18c39d7424", "fusion_lon": 0.0, "rental_uris": {"android": "https://dc.lft.to/lastmile_qr_scan", "ios": "https://dc.lft.to/lastmile_qr_scan"}, "name": "e5372c3cb72aaeb97020aa18c39d7424", "type": "electric_scooter", "lat": 38.920398666666664, "is_disabled": 0}, {"fusion_lat": 0.0, "lon": -77.02387233333333, "is_reserved": 0, "bike_id": "4f7fd6af9d9e17c7ec8fcafa62aed787", "fusion_lon": 0.0, "rental_uris": {"android": "https://dc.lft.to/lastmile_qr_scan", "ios": "https://dc.lft.to/lastmile_qr_scan"}, "name": "4f7fd6af9d9e17c7ec8fcafa62aed787", "type": "electric_scooter", "lat": 38.8978185, "is_disabled": 0}, {"fusion_lat": 0.0, "lon": -76.986532, "is_reserved": 0, "bike_id": "a4817759011943055737d8210a5a5c52", "fusion_lon": 0.0, "rental_uris": {"android": "https://dc.lft.to/lastmile_qr_scan", "ios": "https://dc.lft.to/lastmile_qr_scan"}, "name": "a4817759011943055737d8210a5a5c52", "type": "electric_scooter", "lat": 38.86732716666667, "is_disabled": 0}, {"fusion_lat": 0.0, "lon": -76.9547105, "is_reserved": 0, "bike_id": "abba1e26abc0dd8a8ec9a0fe06a5b0cb", "fusion_lon": 0.0, "rental_uris": {"android": "https://dc.lft.to/lastmile_qr_scan", "ios": "https://dc.lft.to/lastmile_qr_scan"}, "name": "abba1e26abc0dd8a8ec9a0fe06a5b0cb", "type": "electric_scooter", "lat": 38.886429, "is_disabled": 0}, {"fusion_lat": 0.0, "lon": -77.009709, "is_reserved": 0, "bike_id": "0cf162c0edd5cb59d4bb29e66a0185b1", "fusion_lon": 0.0, "rental_uris": {"android": "https://dc.lft.to/lastmile_qr_scan", "ios": "https://dc.lft.to/lastmile_qr_scan"}, "name": "0cf162c0edd5cb59d4bb29e66a0185b1", "type": "electric_scooter", "lat": 38.907878833333335, "is_disabled": 0}, {"fusion_lat": 0.0, "lon": -76.981939, "is_reserved": 0, "bike_id": "76c021805039240e23d161e1264af01d", "fusion_lon": 0.0, "rental_uris": {"android": "https://dc.lft.to/lastmile_qr_scan", "ios": "https://dc.lft.to/lastmile_qr_scan"}, "name": "76c021805039240e23d161e1264af01d", "type": "electric_scooter", "lat": 38.90284066666667, "is_disabled": 0}, {"fusion_lat": 0.0, "lon": -77.027664, "is_reserved": 0, "bike_id": "e72b27e4f557f0e3a434dbb6a587261c", "fusion_lon": 0.0, "rental_uris": {"android": "https://dc.lft.to/lastmile_qr_scan", "ios": "https://dc.lft.to/lastmile_qr_scan"}, "name": "e72b27e4f557f0e3a434dbb6a587261c", "type": "electric_scooter", "lat": 38.95424833333333, "is_disabled": 0}, {"fusion_lat": 0.0, "lon": -77.0315885, "is_reserved": 0, "bike_id": "63549c66c52b8a5f176dbb7ed2c350e0", "fusion_lon": 0.0, "rental_uris": {"android": "https://dc.lft.to/lastmile_qr_scan", "ios": "https://dc.lft.to/lastmile_qr_scan"}, "name": "63549c66c52b8a5f176dbb7ed2c350e0", "type": "electric_scooter", "lat": 38.90612816666667, "is_disabled": 0}, {"fusion_lat": 0.0, "lon": -77.02289266666666, "is_reserved": 0, "bike_id": "f060c3d518305d5efc9f90b56dee2af8", "fusion_lon": 0.0, "rental_uris": {"android": "https://dc.lft.to/lastmile_qr_scan", "ios": "https://dc.lft.to/lastmile_qr_scan"}, "name": "f060c3d518305d5efc9f90b56dee2af8", "type": "electric_scooter", "lat": 38.93534066666667, "is_disabled": 0}, {"fusion_lat": 0.0, "lon": -77.05350383333334, "is_reserved": 0, "bike_id": "32b0dd6a1c486a8bb0fb6940ff0cfa53", "fusion_lon": 0.0, "rental_uris": {"android": "https://dc.lft.to/lastmile_qr_scan", "ios": "https://dc.lft.to/lastmile_qr_scan"}, "name": "32b0dd6a1c486a8bb0fb6940ff0cfa53", "type": "electric_scooter", "lat": 38.9234415, "is_disabled": 0}, {"fusion_lat": 0.0, "lon": -77.00004816666667, "is_reserved": 0, "bike_id": "483b75cf973b3f2af9a3bbd582dfb465", "fusion_lon": 0.0, "rental_uris": {"android": "https://dc.lft.to/lastmile_qr_scan", "ios": "https://dc.lft.to/lastmile_qr_scan"}, "name": "483b75cf973b3f2af9a3bbd582dfb465", "type": "electric_scooter", "lat": 38.90772966666667, "is_disabled": 0}, {"fusion_lat": 0.0, "lon": -77.0632955, "is_reserved": 0, "bike_id": "cf9c12870821dc2f37bb73cdc7102b29", "fusion_lon": 0.0, "rental_uris": {"android": "https://dc.lft.to/lastmile_qr_scan", "ios": "https://dc.lft.to/lastmile_qr_scan"}, "name": "cf9c12870821dc2f37bb73cdc7102b29", "type": "electric_scooter", "lat": 38.90769616666667, "is_disabled": 0}, {"fusion_lat": 0.0, "lon": -77.01166033333334, "is_reserved": 0, "bike_id": "c5878c597d9e19463dd8447a32accf8a", "fusion_lon": 0.0, "rental_uris": {"android": "https://dc.lft.to/lastmile_qr_scan", "ios": "https://dc.lft.to/lastmile_qr_scan"}, "name": "c5878c597d9e19463dd8447a32accf8a", "type": "electric_scooter", "lat": 38.90029666666667, "is_disabled": 0}, {"fusion_lat": 0.0, "lon": -76.98698533333334, "is_reserved": 0, "bike_id": "7688a819a92ae01287634ee0a67c995a", "fusion_lon": 0.0, "rental_uris": {"android": "https://dc.lft.to/lastmile_qr_scan", "ios": "https://dc.lft.to/lastmile_qr_scan"}, "name": "7688a819a92ae01287634ee0a67c995a", "type": "electric_scooter", "lat": 38.86260266666667, "is_disabled": 0}, {"fusion_lat": 0.0, "lon": -77.02871416666666, "is_reserved": 0, "bike_id": "1a15c29b12ae2ebcbd5d28f8337bca5e", "fusion_lon": 0.0, "rental_uris": {"android": "https://dc.lft.to/lastmile_qr_scan", "ios": "https://dc.lft.to/lastmile_qr_scan"}, "name": "1a15c29b12ae2ebcbd5d28f8337bca5e", "type": "electric_scooter", "lat": 38.950919666666664, "is_disabled": 0}, {"fusion_lat": 0.0, "lon": -77.06299483333333, "is_reserved": 0, "bike_id": "10fd6ed9e0b9b3e8e221e85afb598b87", "fusion_lon": 0.0, "rental_uris": {"android": "https://dc.lft.to/lastmile_qr_scan", "ios": "https://dc.lft.to/lastmile_qr_scan"}, "name": "10fd6ed9e0b9b3e8e221e85afb598b87", "type": "electric_scooter", "lat": 38.9039765, "is_disabled": 0}, {"fusion_lat": 0.0, "lon": -77.02170883333334, "is_reserved": 0, "bike_id": "2aee8261040ef9854e5a6b7b2abc2cd2", "fusion_lon": 0.0, "rental_uris": {"android": "https://dc.lft.to/lastmile_qr_scan", "ios": "https://dc.lft.to/lastmile_qr_scan"}, "name": "2aee8261040ef9854e5a6b7b2abc2cd2", "type": "electric_scooter", "lat": 38.897488833333334, "is_disabled": 0}, {"fusion_lat": 0.0, "lon": -77.02150333333333, "is_reserved": 0, "bike_id": "ee0893f63e208af610e183d33cb2ba02", "fusion_lon": 0.0, "rental_uris": {"android": "https://dc.lft.to/lastmile_qr_scan", "ios": "https://dc.lft.to/lastmile_qr_scan"}, "name": "ee0893f63e208af610e183d33cb2ba02", "type": "electric_scooter", "lat": 38.923225333333335, "is_disabled": 0}, {"fusion_lat": 0.0, "lon": -77.13240416666666, "is_reserved": 0, "bike_id": "bacb1e10a266618f6bc03f21d2ed1f57", "fusion_lon": 0.0, "rental_uris": {"android": "https://dc.lft.to/lastmile_qr_scan", "ios": "https://dc.lft.to/lastmile_qr_scan"}, "name": "bacb1e10a266618f6bc03f21d2ed1f57", "type": "electric_bike", "lat": 38.805735, "is_disabled": 0}, {"fusion_lat": 0.0, "lon": -77.03274216666667, "is_reserved": 0, "bike_id": "d97d8431102e8aea43f888da6142a993", "fusion_lon": 0.0, "rental_uris": {"android": "https://dc.lft.to/lastmile_qr_scan", "ios": "https://dc.lft.to/lastmile_qr_scan"}, "name": "d97d8431102e8aea43f888da6142a993", "type": "electric_scooter", "lat": 38.904499666666666, "is_disabled": 0}, {"fusion_lat": 0.0, "lon": -76.92737966666667, "is_reserved": 0, "bike_id": "c49ba12d9b0bb614d7bbaec14e8a67c7", "fusion_lon": 0.0, "rental_uris": {"android": "https://dc.lft.to/lastmile_qr_scan", "ios": "https://dc.lft.to/lastmile_qr_scan"}, "name": "c49ba12d9b0bb614d7bbaec14e8a67c7", "type": "electric_scooter", "lat": 38.88964716666667, "is_disabled": 0}, {"fusion_lat": 0.0, "lon": -77.01936383333333, "is_reserved": 0, "bike_id": "36d5be2c129c5269cdb4ea7d0f0c9da1", "fusion_lon": 0.0, "rental_uris": {"android": "https://dc.lft.to/lastmile_qr_scan", "ios": "https://dc.lft.to/lastmile_qr_scan"}, "name": "36d5be2c129c5269cdb4ea7d0f0c9da1", "type": "electric_scooter", "lat": 38.94697033333333, "is_disabled": 0}, {"fusion_lat": 0.0, "lon": -77.0425085, "is_reserved": 0, "bike_id": "a7228419d0b61412fab8d09a70b92356", "fusion_lon": 0.0, "rental_uris": {"android": "https://dc.lft.to/lastmile_qr_scan", "ios": "https://dc.lft.to/lastmile_qr_scan"}, "name": "a7228419d0b61412fab8d09a70b92356", "type": "electric_scooter", "lat": 38.925452166666666, "is_disabled": 0}, {"fusion_lat": 0.0, "lon": -76.99506683333334, "is_reserved": 0, "bike_id": "2ea4ba0993aeca4905e1f0cb88aaed93", "fusion_lon": 0.0, "rental_uris": {"android": "https://dc.lft.to/lastmile_qr_scan", "ios": "https://dc.lft.to/lastmile_qr_scan"}, "name": "2ea4ba0993aeca4905e1f0cb88aaed93", "type": "electric_scooter", "lat": 38.882801666666666, "is_disabled": 0}, {"fusion_lat": 0.0, "lon": -77.03866933333333, "is_reserved": 0, "bike_id": "fed7ba9ac3e03f6129afab42378afa97", "fusion_lon": 0.0, "rental_uris": {"android": "https://dc.lft.to/lastmile_qr_scan", "ios": "https://dc.lft.to/lastmile_qr_scan"}, "name": "fed7ba9ac3e03f6129afab42378afa97", "type": "electric_scooter", "lat": 38.9079385, "is_disabled": 0}, {"fusion_lat": 0.0, "lon": -77.05726683333333, "is_reserved": 0, "bike_id": "791cd59752fb378941ca39c02ec618bb", "fusion_lon": 0.0, "rental_uris": {"android": "https://dc.lft.to/lastmile_qr_scan", "ios": "https://dc.lft.to/lastmile_qr_scan"}, "name": "791cd59752fb378941ca39c02ec618bb", "type": "electric_scooter", "lat": 38.9336485, "is_disabled": 0}, {"fusion_lat": 0.0, "lon": -76.98285666666666, "is_reserved": 0, "bike_id": "abf835b06a187f1ddc05a076ecb97975", "fusion_lon": 0.0, "rental_uris": {"android": "https://dc.lft.to/lastmile_qr_scan", "ios": "https://dc.lft.to/lastmile_qr_scan"}, "name": "abf835b06a187f1ddc05a076ecb97975", "type": "electric_scooter", "lat": 38.90048916666667, "is_disabled": 0}, {"fusion_lat": 0.0, "lon": -76.93158716666667, "is_reserved": 0, "bike_id": "322129176ace65c98df4cdb2c64a5f2d", "fusion_lon": 0.0, "rental_uris": {"android": "https://dc.lft.to/lastmile_qr_scan", "ios": "https://dc.lft.to/lastmile_qr_scan"}, "name": "322129176ace65c98df4cdb2c64a5f2d", "type": "electric_scooter", "lat": 38.898777833333334, "is_disabled": 0}, {"fusion_lat": 0.0, "lon": -77.01748166666667, "is_reserved": 0, "bike_id": "2884cf2dc4ab2716667efacbdf04e25e", "fusion_lon": 0.0, "rental_uris": {"android": "https://dc.lft.to/lastmile_qr_scan", "ios": "https://dc.lft.to/lastmile_qr_scan"}, "name": "2884cf2dc4ab2716667efacbdf04e25e", "type": "electric_scooter", "lat": 38.9025965, "is_disabled": 0}, {"fusion_lat": 0.0, "lon": -77.03671683333333, "is_reserved": 0, "bike_id": "c0c907410aceb4633fb39a664430b070", "fusion_lon": 0.0, "rental_uris": {"android": "https://dc.lft.to/lastmile_qr_scan", "ios": "https://dc.lft.to/lastmile_qr_scan"}, "name": "c0c907410aceb4633fb39a664430b070", "type": "electric_scooter", "lat": 38.9068895, "is_disabled": 0}, {"fusion_lat": 0.0, "lon": -77.02095616666666, "is_reserved": 0, "bike_id": "4e03c78cdc245b5ed407baab532f51b0", "fusion_lon": 0.0, "rental_uris": {"android": "https://dc.lft.to/lastmile_qr_scan", "ios": "https://dc.lft.to/lastmile_qr_scan"}, "name": "4e03c78cdc245b5ed407baab532f51b0", "type": "electric_scooter", "lat": 38.88492733333333, "is_disabled": 0}, {"fusion_lat": 0.0, "lon": -77.03955883333333, "is_reserved": 0, "bike_id": "6fe037527fca8ba68a5e68570f63aad8", "fusion_lon": 0.0, "rental_uris": {"android": "https://dc.lft.to/lastmile_qr_scan", "ios": "https://dc.lft.to/lastmile_qr_scan"}, "name": "6fe037527fca8ba68a5e68570f63aad8", "type": "electric_scooter", "lat": 38.892455, "is_disabled": 0}, {"fusion_lat": 0.0, "lon": -77.07979666666667, "is_reserved": 0, "bike_id": "b4c5274b6062c9de4ada351a2ffb30ed", "fusion_lon": 0.0, "rental_uris": {"android": "https://dc.lft.to/lastmile_qr_scan", "ios": "https://dc.lft.to/lastmile_qr_scan"}, "name": "b4c5274b6062c9de4ada351a2ffb30ed", "type": "electric_scooter", "lat": 38.925858166666664, "is_disabled": 0}, {"fusion_lat": 0.0, "lon": -77.0363685, "is_reserved": 0, "bike_id": "ac5e05cb33299a3b4ba4fc7d374b6cfd", "fusion_lon": 0.0, "rental_uris": {"android": "https://dc.lft.to/lastmile_qr_scan", "ios": "https://dc.lft.to/lastmile_qr_scan"}, "name": "ac5e05cb33299a3b4ba4fc7d374b6cfd", "type": "electric_scooter", "lat": 38.922653333333336, "is_disabled": 0}, {"fusion_lat": 0.0, "lon": -77.02085283333334, "is_reserved": 0, "bike_id": "377659a8d147646d05202d9515eaaf7c", "fusion_lon": 0.0, "rental_uris": {"android": "https://dc.lft.to/lastmile_qr_scan", "ios": "https://dc.lft.to/lastmile_qr_scan"}, "name": "377659a8d147646d05202d9515eaaf7c", "type": "electric_scooter", "lat": 38.91125616666667, "is_disabled": 0}, {"fusion_lat": 0.0, "lon": -77.01947716666666, "is_reserved": 0, "bike_id": "eaf268b35450eb626d6b259ce6cafcdf", "fusion_lon": 0.0, "rental_uris": {"android": "https://dc.lft.to/lastmile_qr_scan", "ios": "https://dc.lft.to/lastmile_qr_scan"}, "name": "eaf268b35450eb626d6b259ce6cafcdf", "type": "electric_bike", "lat": 38.92423133333333, "is_disabled": 0}, {"fusion_lat": 0.0, "lon": -77.05152066666666, "is_reserved": 0, "bike_id": "6728114c863e78d0332df43f571ab164", "fusion_lon": 0.0, "rental_uris": {"android": "https://dc.lft.to/lastmile_qr_scan", "ios": "https://dc.lft.to/lastmile_qr_scan"}, "name": "6728114c863e78d0332df43f571ab164", "type": "electric_scooter", "lat": 38.89952233333333, "is_disabled": 0}, {"fusion_lat": 0.0, "lon": -77.035946, "is_reserved": 0, "bike_id": "61064715f2e31235c0f975abf63c8b70", "fusion_lon": 0.0, "rental_uris": {"android": "https://dc.lft.to/lastmile_qr_scan", "ios": "https://dc.lft.to/lastmile_qr_scan"}, "name": "61064715f2e31235c0f975abf63c8b70", "type": "electric_scooter", "lat": 38.91756733333333, "is_disabled": 0}, {"fusion_lat": 0.0, "lon": -77.04728383333334, "is_reserved": 0, "bike_id": "b1513f796e2367d71dc404a269f9bd88", "fusion_lon": 0.0, "rental_uris": {"android": "https://dc.lft.to/lastmile_qr_scan", "ios": "https://dc.lft.to/lastmile_qr_scan"}, "name": "b1513f796e2367d71dc404a269f9bd88", "type": "electric_scooter", "lat": 38.9126895, "is_disabled": 0}, {"fusion_lat": 0.0, "lon": -77.04813483333334, "is_reserved": 0, "bike_id": "b87ae6ea9da92f56def1a5da258fb0e4", "fusion_lon": 0.0, "rental_uris": {"android": "https://dc.lft.to/lastmile_qr_scan", "ios": "https://dc.lft.to/lastmile_qr_scan"}, "name": "b87ae6ea9da92f56def1a5da258fb0e4", "type": "electric_scooter", "lat": 38.920434, "is_disabled": 0}, {"fusion_lat": 0.0, "lon": -76.93734716666667, "is_reserved": 0, "bike_id": "4e9ba311a4846d55a1e155e3dbce2b38", "fusion_lon": 0.0, "rental_uris": {"android": "https://dc.lft.to/lastmile_qr_scan", "ios": "https://dc.lft.to/lastmile_qr_scan"}, "name": "4e9ba311a4846d55a1e155e3dbce2b38", "type": "electric_scooter", "lat": 38.89018733333333, "is_disabled": 0}, {"fusion_lat": 0.0, "lon": -77.00144866666666, "is_reserved": 0, "bike_id": "8a7269c5d8304a556521ced59cb456ce", "fusion_lon": 0.0, "rental_uris": {"android": "https://dc.lft.to/lastmile_qr_scan", "ios": "https://dc.lft.to/lastmile_qr_scan"}, "name": "8a7269c5d8304a556521ced59cb456ce", "type": "electric_scooter", "lat": 38.90735433333333, "is_disabled": 0}, {"fusion_lat": 0.0, "lon": -77.01830983333333, "is_reserved": 0, "bike_id": "e9d43504021b9137f589e33ef8a0a352", "fusion_lon": 0.0, "rental_uris": {"android": "https://dc.lft.to/lastmile_qr_scan", "ios": "https://dc.lft.to/lastmile_qr_scan"}, "name": "e9d43504021b9137f589e33ef8a0a352", "type": "electric_scooter", "lat": 38.901446166666666, "is_disabled": 0}, {"fusion_lat": 0.0, "lon": -76.99942433333334, "is_reserved": 0, "bike_id": "4cdbdd14e3cbf40267e01ec682f3a331", "fusion_lon": 0.0, "rental_uris": {"android": "https://dc.lft.to/lastmile_qr_scan", "ios": "https://dc.lft.to/lastmile_qr_scan"}, "name": "4cdbdd14e3cbf40267e01ec682f3a331", "type": "electric_scooter", "lat": 38.8964435, "is_disabled": 0}, {"fusion_lat": 0.0, "lon": -76.988803, "is_reserved": 0, "bike_id": "7c207d975f7778cc3f1daefaf5610504", "fusion_lon": 0.0, "rental_uris": {"android": "https://dc.lft.to/lastmile_qr_scan", "ios": "https://dc.lft.to/lastmile_qr_scan"}, "name": "7c207d975f7778cc3f1daefaf5610504", "type": "electric_scooter", "lat": 38.866557, "is_disabled": 0}, {"fusion_lat": 0.0, "lon": -77.04317583333334, "is_reserved": 0, "bike_id": "aafd84bd2f4ebeee0ef449c69ec638c5", "fusion_lon": 0.0, "rental_uris": {"android": "https://dc.lft.to/lastmile_qr_scan", "ios": "https://dc.lft.to/lastmile_qr_scan"}, "name": "aafd84bd2f4ebeee0ef449c69ec638c5", "type": "electric_scooter", "lat": 38.926613333333336, "is_disabled": 0}, {"fusion_lat": 0.0, "lon": -77.03225916666666, "is_reserved": 0, "bike_id": "e577c61b34e42cc0b6745a91ff3b360a", "fusion_lon": 0.0, "rental_uris": {"android": "https://dc.lft.to/lastmile_qr_scan", "ios": "https://dc.lft.to/lastmile_qr_scan"}, "name": "e577c61b34e42cc0b6745a91ff3b360a", "type": "electric_scooter", "lat": 38.892251, "is_disabled": 0}, {"fusion_lat": 0.0, "lon": -77.04249, "is_reserved": 0, "bike_id": "9742091e2b3288f3c0af1cf0fa554bf2", "fusion_lon": 0.0, "rental_uris": {"android": "https://dc.lft.to/lastmile_qr_scan", "ios": "https://dc.lft.to/lastmile_qr_scan"}, "name": "9742091e2b3288f3c0af1cf0fa554bf2", "type": "electric_scooter", "lat": 38.922362166666666, "is_disabled": 0}, {"fusion_lat": 0.0, "lon": -77.044617, "is_reserved": 0, "bike_id": "cd47959f3df61f76739fe6cf1b2ca8f1", "fusion_lon": 0.0, "rental_uris": {"android": "https://dc.lft.to/lastmile_qr_scan", "ios": "https://dc.lft.to/lastmile_qr_scan"}, "name": "cd47959f3df61f76739fe6cf1b2ca8f1", "type": "electric_scooter", "lat": 38.918724833333336, "is_disabled": 0}, {"fusion_lat": 0.0, "lon": -76.93267683333333, "is_reserved": 0, "bike_id": "728523a471e0ece8911d05725f4371a0", "fusion_lon": 0.0, "rental_uris": {"android": "https://dc.lft.to/lastmile_qr_scan", "ios": "https://dc.lft.to/lastmile_qr_scan"}, "name": "728523a471e0ece8911d05725f4371a0", "type": "electric_scooter", "lat": 38.898945833333336, "is_disabled": 0}, {"fusion_lat": 0.0, "lon": -77.042739, "is_reserved": 0, "bike_id": "b38db33fe70f6de237ea69da826608e2", "fusion_lon": 0.0, "rental_uris": {"android": "https://dc.lft.to/lastmile_qr_scan", "ios": "https://dc.lft.to/lastmile_qr_scan"}, "name": "b38db33fe70f6de237ea69da826608e2", "type": "electric_scooter", "lat": 38.91340533333333, "is_disabled": 0}, {"fusion_lat": 0.0, "lon": -77.02457133333333, "is_reserved": 0, "bike_id": "23963f575028b8284c55f621894050a1", "fusion_lon": 0.0, "rental_uris": {"android": "https://dc.lft.to/lastmile_qr_scan", "ios": "https://dc.lft.to/lastmile_qr_scan"}, "name": "23963f575028b8284c55f621894050a1", "type": "electric_scooter", "lat": 38.89739983333333, "is_disabled": 0}, {"fusion_lat": 0.0, "lon": -77.00613416666667, "is_reserved": 0, "bike_id": "e9e830b4ce9bf8d24c891576c11e3ed5", "fusion_lon": 0.0, "rental_uris": {"android": "https://dc.lft.to/lastmile_qr_scan", "ios": "https://dc.lft.to/lastmile_qr_scan"}, "name": "e9e830b4ce9bf8d24c891576c11e3ed5", "type": "electric_scooter", "lat": 38.90855466666667, "is_disabled": 0}, {"fusion_lat": 0.0, "lon": -77.03476316666666, "is_reserved": 0, "bike_id": "359ea86725d9061addf1c5d64b6a3677", "fusion_lon": 0.0, "rental_uris": {"android": "https://dc.lft.to/lastmile_qr_scan", "ios": "https://dc.lft.to/lastmile_qr_scan"}, "name": "359ea86725d9061addf1c5d64b6a3677", "type": "electric_scooter", "lat": 38.9254, "is_disabled": 0}, {"fusion_lat": 0.0, "lon": -77.016708, "is_reserved": 0, "bike_id": "12b52894e65730dba0d874bdcf143d77", "fusion_lon": 0.0, "rental_uris": {"android": "https://dc.lft.to/lastmile_qr_scan", "ios": "https://dc.lft.to/lastmile_qr_scan"}, "name": "12b52894e65730dba0d874bdcf143d77", "type": "electric_scooter", "lat": 38.8812615, "is_disabled": 0}, {"fusion_lat": 0.0, "lon": -77.03832783333333, "is_reserved": 0, "bike_id": "8dff11b007c74f62eef8d3b32f3e24c6", "fusion_lon": 0.0, "rental_uris": {"android": "https://dc.lft.to/lastmile_qr_scan", "ios": "https://dc.lft.to/lastmile_qr_scan"}, "name": "8dff11b007c74f62eef8d3b32f3e24c6", "type": "electric_scooter", "lat": 38.9111855, "is_disabled": 0}, {"fusion_lat": 0.0, "lon": -76.99903283333333, "is_reserved": 0, "bike_id": "ad124db273260cf338090559e6750baa", "fusion_lon": 0.0, "rental_uris": {"android": "https://dc.lft.to/lastmile_qr_scan", "ios": "https://dc.lft.to/lastmile_qr_scan"}, "name": "ad124db273260cf338090559e6750baa", "type": "electric_scooter", "lat": 38.948182833333334, "is_disabled": 0}, {"fusion_lat": 0.0, "lon": -77.1273465, "is_reserved": 0, "bike_id": "b0d6544b793aa784c76b2cca25f9c6ca", "fusion_lon": 0.0, "rental_uris": {"android": "https://dc.lft.to/lastmile_qr_scan", "ios": "https://dc.lft.to/lastmile_qr_scan"}, "name": "b0d6544b793aa784c76b2cca25f9c6ca", "type": "electric_bike", "lat": 38.89566583333333, "is_disabled": 0}, {"fusion_lat": 0.0, "lon": -76.999348, "is_reserved": 0, "bike_id": "ae98a0cff7a751121c269ca80e42f9c5", "fusion_lon": 0.0, "rental_uris": {"android": "https://dc.lft.to/lastmile_qr_scan", "ios": "https://dc.lft.to/lastmile_qr_scan"}, "name": "ae98a0cff7a751121c269ca80e42f9c5", "type": "electric_scooter", "lat": 38.84299716666666, "is_disabled": 0}, {"fusion_lat": 0.0, "lon": -77.01304183333333, "is_reserved": 0, "bike_id": "a499c0d43af7fea77b74269a265b3adf", "fusion_lon": 0.0, "rental_uris": {"android": "https://dc.lft.to/lastmile_qr_scan", "ios": "https://dc.lft.to/lastmile_qr_scan"}, "name": "a499c0d43af7fea77b74269a265b3adf", "type": "electric_scooter", "lat": 38.901978666666665, "is_disabled": 0}, {"fusion_lat": 0.0, "lon": -77.04136666666666, "is_reserved": 0, "bike_id": "cb43efb54640ae3a1b053de31d6c4118", "fusion_lon": 0.0, "rental_uris": {"android": "https://dc.lft.to/lastmile_qr_scan", "ios": "https://dc.lft.to/lastmile_qr_scan"}, "name": "cb43efb54640ae3a1b053de31d6c4118", "type": "electric_bike", "lat": 38.823170833333336, "is_disabled": 0}, {"fusion_lat": 0.0, "lon": -76.9307705, "is_reserved": 0, "bike_id": "daf0662ba7475a392603e63fbd63230e", "fusion_lon": 0.0, "rental_uris": {"android": "https://dc.lft.to/lastmile_qr_scan", "ios": "https://dc.lft.to/lastmile_qr_scan"}, "name": "daf0662ba7475a392603e63fbd63230e", "type": "electric_scooter", "lat": 38.901656333333335, "is_disabled": 0}, {"fusion_lat": 0.0, "lon": -77.036936, "is_reserved": 0, "bike_id": "b3199ba92dd12c8924b0db6e6ad176e6", "fusion_lon": 0.0, "rental_uris": {"android": "https://dc.lft.to/lastmile_qr_scan", "ios": "https://dc.lft.to/lastmile_qr_scan"}, "name": "b3199ba92dd12c8924b0db6e6ad176e6", "type": "electric_scooter", "lat": 38.92613333333333, "is_disabled": 0}, {"fusion_lat": 0.0, "lon": -77.02120633333334, "is_reserved": 0, "bike_id": "d3a8e0a351e8dae0060bfaf8e2e28cfa", "fusion_lon": 0.0, "rental_uris": {"android": "https://dc.lft.to/lastmile_qr_scan", "ios": "https://dc.lft.to/lastmile_qr_scan"}, "name": "d3a8e0a351e8dae0060bfaf8e2e28cfa", "type": "electric_scooter", "lat": 38.8962875, "is_disabled": 0}, {"fusion_lat": 0.0, "lon": -77.139253, "is_reserved": 0, "bike_id": "f454e819d0c0749ebcea62865035c78b", "fusion_lon": 0.0, "rental_uris": {"android": "https://dc.lft.to/lastmile_qr_scan", "ios": "https://dc.lft.to/lastmile_qr_scan"}, "name": "f454e819d0c0749ebcea62865035c78b", "type": "electric_bike", "lat": 38.87297616666667, "is_disabled": 0},