{"data": {"bikes": [{"bike_id": "e1a257695c1f47275fb14237618586c8", "is_reserved": 0, "fusion_lon": 0.0, "lat": 38.91835483333333, "is_disabled": 0, "name": "e1a257695c1f47275fb14237618586c8", "fusion_lat": 0.0, "rental_uris": {"ios": "https://dc.lft.to/lastmile_qr_scan", "android": "https://dc.lft.to/lastmile_qr_scan"}, "lon": -77.04016266666666, "type": "electric_scooter"}, {"bike_id": "c777bf063c8b53024f79df4792d2a49a", "is_reserved": 0, "fusion_lon": 0.0, "lat": 38.902880333333336, "is_disabled": 0, "name": "c777bf063c8b53024f79df4792d2a49a", "fusion_lat": 0.0, "rental_uris": {"ios": "https://dc.lft.to/lastmile_qr_scan", "android": "https://dc.lft.to/lastmile_qr_scan"}, "lon": -77.036563, "type": "electric_scooter"}, {"bike_id": "90116b05f9b92273f0ba39aad88e88cd", "is_reserved": 0, "fusion_lon": 0.0, "lat": 38.896830666666666, "is_disabled": 0, "name": "90116b05f9b92273f0ba39aad88e88cd", "fusion_lat": 0.0, "rental_uris": {"ios": "https://dc.lft.to/lastmile_qr_scan", "android": "https://dc.lft.to/lastmile_qr_scan"}, "lon": -76.99623616666666, "type": "electric_scooter"}, {"bike_id": "e632ca5417da9eb3401577eb905fd9ae", "is_reserved": 0, "fusion_lon": 0.0, "lat": 38.879267666666664, "is_disabled": 0, "name": "e632ca5417da9eb3401577eb905fd9ae", "fusion_lat": 0.0, "rental_uris": {"ios": "https://dc.lft.to/lastmile_qr_scan", "android": "https://dc.lft.to/lastmile_qr_scan"}, "lon": -77.02236183333333, "type": "electric_scooter"}, {"bike_id": "efb846b913a000abc3d039253e437a17", "is_reserved": 0, "fusion_lon": 0.0, "lat": 38.87092483333333, "is_disabled": 0, "name": "efb846b913a000abc3d039253e437a17", "fusion_lat": 0.0, "rental_uris": {"ios": "https://dc.lft.to/lastmile_qr_scan", "android": "https://dc.lft.to/lastmile_qr_scan"}, "lon": -77.011977, "type": "electric_bike"}, {"bike_id": "ace2a73b6b0b2d55a8edaaf270760a90", "is_reserved": 0, "fusion_lon": 0.0, "lat": 38.862117166666664, "is_disabled": 0, "name": "ace2a73b6b0b2d55a8edaaf270760a90", "fusion_lat": 0.0, "rental_uris": {"ios": "https://dc.lft.to/lastmile_qr_scan", "android": "https://dc.lft.to/lastmile_qr_scan"}, "lon": -76.99470116666667, "type": "electric_scooter"}, {"bike_id": "0c72bc12d7f0a6e7b296d28f7ad3c98f", "is_reserved": 0, "fusion_lon": 0.0, "lat": 38.89105383333333, "is_disabled": 0, "name": "0c72bc12d7f0a6e7b296d28f7ad3c98f", "fusion_lat": 0.0, "rental_uris": {"ios": "https://dc.lft.to/lastmile_qr_scan", "android": "https://dc.lft.to/lastmile_qr_scan"}, "lon": -76.9870375, "type": "electric_scooter"}, {"bike_id": "031ee0b1bf9e8a09605c432177ceca87", "is_reserved": 0, "fusion_lon": 0.0, "lat": 38.90984, "is_disabled": 0, "name": "031ee0b1bf9e8a09605c432177ceca87", "fusion_lat": 0.0, "rental_uris": {"ios": "https://dc.lft.to/lastmile_qr_scan", "android": "https://dc.lft.to/lastmile_qr_scan"}, "lon": -77.02393816666667, "type": "electric_scooter"}, {"bike_id": "ba331e13c359b9c6d24628ba292a6f50", "is_reserved": 0, "fusion_lon": 0.0, "lat": 38.91808416666667, "is_disabled": 0, "name": "ba331e13c359b9c6d24628ba292a6f50", "fusion_lat": 0.0, "rental_uris": {"ios": "https://dc.lft.to/lastmile_qr_scan", "android": "https://dc.lft.to/lastmile_qr_scan"}, "lon": -77.03563783333334, "type": "electric_scooter"}, {"bike_id": "9debd72d14f0519dbd5b9f70c1d50c82", "is_reserved": 0, "fusion_lon": 0.0, "lat": 38.88083866666667, "is_disabled": 0, "name": "9debd72d14f0519dbd5b9f70c1d50c82", "fusion_lat": 0.0, "rental_uris": {"ios": "https://dc.lft.to/lastmile_qr_scan", "android": "https://dc.lft.to/lastmile_qr_scan"}, "lon": -77.02582883333334, "type": "electric_scooter"}, {"bike_id": "18b6a1ce11b0eaba2da8cc83a03e1ba8", "is_reserved": 0, "fusion_lon": 0.0, "lat": 38.90033733333333, "is_disabled": 0, "name": "18b6a1ce11b0eaba2da8cc83a03e1ba8", "fusion_lat": 0.0, "rental_uris": {"ios": "https://dc.lft.to/lastmile_qr_scan", "android": "https://dc.lft.to/lastmile_qr_scan"}, "lon": -76.98760583333333, "type": "electric_scooter"}, {"bike_id": "3f613156ec169b27e7689714f3eb0a71", "is_reserved": 0, "fusion_lon": 0.0, "lat": 38.9094505, "is_disabled": 0, "name": "3f613156ec169b27e7689714f3eb0a71", "fusion_lat": 0.0, "rental_uris": {"ios": "https://dc.lft.to/lastmile_qr_scan", "android": "https://dc.lft.to/lastmile_qr_scan"}, "lon": -77.02179533333333, "type": "electric_scooter"}, {"bike_id": "76d3584d3834f988b2a8fa1bd0fa936f", "is_reserved": 0, "fusion_lon": 0.0, "lat": 38.90586966666667, "is_disabled": 0, "name": "76d3584d3834f988b2a8fa1bd0fa936f", "fusion_lat": 0.0, "rental_uris": {"ios": "https://dc.lft.to/lastmile_qr_scan", "android": "https://dc.lft.to/lastmile_qr_scan"}, "lon": -77.04096166666666, "type": "electric_scooter"}, {"bike_id": "554e78a2fffc181fce42e5e7f905e96d", "is_reserved": 0, "fusion_lon": 0.0, "lat": 38.886566, "is_disabled": 0, "name": "554e78a2fffc181fce42e5e7f905e96d", "fusion_lat": 0.0, "rental_uris": {"ios": "https://dc.lft.to/lastmile_qr_scan", "android": "https://dc.lft.to/lastmile_qr_scan"}, "lon": -77.16227016666667, "type": "electric_bike"}, {"bike_id": "faa04067c3b7413716e5a540c6110181", "is_reserved": 0, "fusion_lon": 0.0, "lat": 38.90136733333333, "is_disabled": 0, "name": "faa04067c3b7413716e5a540c6110181", "fusion_lat": 0.0, "rental_uris": {"ios": "https://dc.lft.to/lastmile_qr_scan", "android": "https://dc.lft.to/lastmile_qr_scan"}, "lon": -77.0431515, "type": "electric_scooter"}, {"bike_id": "db2c0df31c527eeb6fd39515f5ce4520", "is_reserved": 0, "fusion_lon": 0.0, "lat": 38.90553333333333, "is_disabled": 0, "name": "db2c0df31c527eeb6fd39515f5ce4520", "fusion_lat": 0.0, "rental_uris": {"ios": "https://dc.lft.to/lastmile_qr_scan", "android": "https://dc.lft.to/lastmile_qr_scan"}, "lon": -77.03615, "type": "electric_scooter"}, {"bike_id": "4105e5c0a61b073bf2bb2157dcb6df49", "is_reserved": 0, "fusion_lon": 0.0, "lat": 38.90795033333333, "is_disabled": 0, "name": "4105e5c0a61b073bf2bb2157dcb6df49", "fusion_lat": 0.0, "rental_uris": {"ios": "https://dc.lft.to/lastmile_qr_scan", "android": "https://dc.lft.to/lastmile_qr_scan"}, "lon": -77.048256, "type": "electric_scooter"}, {"bike_id": "82ec91716441c28608b2f222aee23b10", "is_reserved": 0, "fusion_lon": 0.0, "lat": 38.902192666666664, "is_disabled": 0, "name": "82ec91716441c28608b2f222aee23b10", "fusion_lat": 0.0, "rental_uris": {"ios": "https://dc.lft.to/lastmile_qr_scan", "android": "https://dc.lft.to/lastmile_qr_scan"}, "lon": -76.95049716666666, "type": "electric_bike"}, {"bike_id": "9aba0b2c0af15155efd723c9f86c5aea", "is_reserved": 0, "fusion_lon": 0.0, "lat": 38.899042, "is_disabled": 0, "name": "9aba0b2c0af15155efd723c9f86c5aea", "fusion_lat": 0.0, "rental_uris": {"ios": "https://dc.lft.to/lastmile_qr_scan", "android": "https://dc.lft.to/lastmile_qr_scan"}, "lon": -77.04034916666667, "type": "electric_scooter"}, {"bike_id": "173e543cf4471f9428a150154c55ea22", "is_reserved": 0, "fusion_lon": 0.0, "lat": 38.91677766666667, "is_disabled": 0, "name": "173e543cf4471f9428a150154c55ea22", "fusion_lat": 0.0, "rental_uris": {"ios": "https://dc.lft.to/lastmile_qr_scan", "android": "https://dc.lft.to/lastmile_qr_scan"}, "lon": -77.03688433333333, "type": "electric_scooter"}, {"bike_id": "925f08e5b14f7644c5246f785332738d", "is_reserved": 0, "fusion_lon": 0.0, "lat": 38.909117333333334, "is_disabled": 0, "name": "925f08e5b14f7644c5246f785332738d", "fusion_lat": 0.0, "rental_uris": {"ios": "https://dc.lft.to/lastmile_qr_scan", "android": "https://dc.lft.to/lastmile_qr_scan"}, "lon": -77.04397183333333, "type": "electric_scooter"}, {"bike_id": "2300c92d7288898566c35f18b7b8e40f", "is_reserved": 0, "fusion_lon": 0.0, "lat": 38.93498233333333, "is_disabled": 0, "name": "2300c92d7288898566c35f18b7b8e40f", "fusion_lat": 0.0, "rental_uris": {"ios": "https://dc.lft.to/lastmile_qr_scan", "android": "https://dc.lft.to/lastmile_qr_scan"}, "lon": -77.02722983333334, "type": "electric_scooter"}, {"bike_id": "fd1857a34f201e6ede6d4eda9689734c", "is_reserved": 0, "fusion_lon": 0.0, "lat": 38.946878833333336, "is_disabled": 0, "name": "fd1857a34f201e6ede6d4eda9689734c", "fusion_lat": 0.0, "rental_uris": {"ios": "https://dc.lft.to/lastmile_qr_scan", "android": "https://dc.lft.to/lastmile_qr_scan"}, "lon": -77.0205015, "type": "electric_bike"}, {"bike_id": "d16dd99da8616c70d31c6a65fbb1c9ed", "is_reserved": 0, "fusion_lon": 0.0, "lat": 38.9045545, "is_disabled": 0, "name": "d16dd99da8616c70d31c6a65fbb1c9ed", "fusion_lat": 0.0, "rental_uris": {"ios": "https://dc.lft.to/lastmile_qr_scan", "android": "https://dc.lft.to/lastmile_qr_scan"}, "lon": -77.02897916666667, "type": "electric_scooter"}, {"bike_id": "1dee32ee36574681aa21124b4ca41ec4", "is_reserved": 0, "fusion_lon": 0.0, "lat": 38.90369116666667, "is_disabled": 0, "name": "1dee32ee36574681aa21124b4ca41ec4", "fusion_lat": 0.0, "rental_uris": {"ios": "https://dc.lft.to/lastmile_qr_scan", "android": "https://dc.lft.to/lastmile_qr_scan"}, "lon": -77.017413, "type": "electric_scooter"}, {"bike_id": "fecb2eab036186faa74c9fe26081cd58", "is_reserved": 0, "fusion_lon": 0.0, "lat": 38.89622283333333, "is_disabled": 0, "name": "fecb2eab036186faa74c9fe26081cd58", "fusion_lat": 0.0, "rental_uris": {"ios": "https://dc.lft.to/lastmile_qr_scan", "android": "https://dc.lft.to/lastmile_qr_scan"}, "lon": -77.00049633333333, "type": "electric_bike"}, {"bike_id": "44e06a7b1d02687c476e5895c528dda4", "is_reserved": 0, "fusion_lon": 0.0, "lat": 38.8773425, "is_disabled": 0, "name": "44e06a7b1d02687c476e5895c528dda4", "fusion_lat": 0.0, "rental_uris": {"ios": "https://dc.lft.to/lastmile_qr_scan", "android": "https://dc.lft.to/lastmile_qr_scan"}, "lon": -76.972811, "type": "electric_scooter"}, {"bike_id": "5b073204a2c3255106e607b005c10e1e", "is_reserved": 0, "fusion_lon": 0.0, "lat": 38.932523833333335, "is_disabled": 0, "name": "5b073204a2c3255106e607b005c10e1e", "fusion_lat": 0.0, "rental_uris": {"ios": "https://dc.lft.to/lastmile_qr_scan", "android": "https://dc.lft.to/lastmile_qr_scan"}, "lon": -77.03278533333334, "type": "electric_scooter"}, {"bike_id": "21ec032f99903500a8280714e6a4be7b", "is_reserved": 0, "fusion_lon": 0.0, "lat": 38.9397415, "is_disabled": 0, "name": "21ec032f99903500a8280714e6a4be7b", "fusion_lat": 0.0, "rental_uris": {"ios": "https://dc.lft.to/lastmile_qr_scan", "android": "https://dc.lft.to/lastmile_qr_scan"}, "lon": -77.0358645, "type": "electric_scooter"}, {"bike_id": "a13f112e13e7f16a5528a132b617484e", "is_reserved": 0, "fusion_lon": 0.0, "lat": 38.86206766666667, "is_disabled": 0, "name": "a13f112e13e7f16a5528a132b617484e", "fusion_lat": 0.0, "rental_uris": {"ios": "https://dc.lft.to/lastmile_qr_scan", "android": "https://dc.lft.to/lastmile_qr_scan"}, "lon": -76.9946025, "type": "electric_scooter"}, {"bike_id": "290f71b3ce53df7aa2c5b6fc8067e4c5", "is_reserved": 0, "fusion_lon": 0.0, "lat": 38.91560033333333, "is_disabled": 0, "name": "290f71b3ce53df7aa2c5b6fc8067e4c5", "fusion_lat": 0.0, "rental_uris": {"ios": "https://dc.lft.to/lastmile_qr_scan", "android": "https://dc.lft.to/lastmile_qr_scan"}, "lon": -77.03865533333334, "type": "electric_scooter"}, {"bike_id": "fe633e8326a16f5dfd49a6e7eda294f3", "is_reserved": 0, "fusion_lon": 0.0, "lat": 38.894796166666666, "is_disabled": 0, "name": "fe633e8326a16f5dfd49a6e7eda294f3", "fusion_lat": 0.0, "rental_uris": {"ios": "https://dc.lft.to/lastmile_qr_scan", "android": "https://dc.lft.to/lastmile_qr_scan"}, "lon": -77.05003266666667, "type": "electric_scooter"}, {"bike_id": "8f65809b7c03c366d17901745eb12e91", "is_reserved": 0, "fusion_lon": 0.0, "lat": 38.9002515, "is_disabled": 0, "name": "8f65809b7c03c366d17901745eb12e91", "fusion_lat": 0.0, "rental_uris": {"ios": "https://dc.lft.to/lastmile_qr_scan", "android": "https://dc.lft.to/lastmile_qr_scan"}, "lon": -77.01154866666667, "type": "electric_scooter"}, {"bike_id": "f14a0f73f71667c491bedf6bf24c393e", "is_reserved": 0, "fusion_lon": 0.0, "lat": 38.88741316666667, "is_disabled": 0, "name": "f14a0f73f71667c491bedf6bf24c393e", "fusion_lat": 0.0, "rental_uris": {"ios": "https://dc.lft.to/lastmile_qr_scan", "android": "https://dc.lft.to/lastmile_qr_scan"}, "lon": -77.02261933333334, "type": "electric_bike"}, {"bike_id": "6eb1d0c7dd0c362a2545d5f75d0beb7f", "is_reserved": 0, "fusion_lon": 0.0, "lat": 39.088529666666666, "is_disabled": 0, "name": "6eb1d0c7dd0c362a2545d5f75d0beb7f", "fusion_lat": 0.0, "rental_uris": {"ios": "https://dc.lft.to/lastmile_qr_scan", "android": "https://dc.lft.to/lastmile_qr_scan"}, "lon": -77.178416, "type": "electric_bike"}, {"bike_id": "8c9550e782b79618b75f8e4b9070f086", "is_reserved": 0, "fusion_lon": 0.0, "lat": 38.9013245, "is_disabled": 0, "name": "8c9550e782b79618b75f8e4b9070f086", "fusion_lat": 0.0, "rental_uris": {"ios": "https://dc.lft.to/lastmile_qr_scan", "android": "https://dc.lft.to/lastmile_qr_scan"}, "lon": -77.04061916666667, "type": "electric_bike"}, {"bike_id": "f9853c2d206817f12004e02dc4b864c9", "is_reserved": 0, "fusion_lon": 0.0, "lat": 38.957464333333334, "is_disabled": 0, "name": "f9853c2d206817f12004e02dc4b864c9", "fusion_lat": 0.0, "rental_uris": {"ios": "https://dc.lft.to/lastmile_qr_scan", "android": "https://dc.lft.to/lastmile_qr_scan"}, "lon": -77.0241725, "type": "electric_scooter"}, {"bike_id": "1e189bf0c8f7432e8547aa21552c6d62", "is_reserved": 0, "fusion_lon": 0.0, "lat": 38.95651466666666, "is_disabled": 0, "name": "1e189bf0c8f7432e8547aa21552c6d62", "fusion_lat": 0.0, "rental_uris": {"ios": "https://dc.lft.to/lastmile_qr_scan", "android": "https://dc.lft.to/lastmile_qr_scan"}, "lon": -77.03286033333333, "type": "electric_scooter"}, {"bike_id": "9aad5ca4f7ad2b34e2ded7061f4bfaea", "is_reserved": 0, "fusion_lon": 0.0, "lat": 38.907134666666664, "is_disabled": 0, "name": "9aad5ca4f7ad2b34e2ded7061f4bfaea", "fusion_lat": 0.0, "rental_uris": {"ios": "https://dc.lft.to/lastmile_qr_scan", "android": "https://dc.lft.to/lastmile_qr_scan"}, "lon": -77.04360716666666, "type": "electric_scooter"}, {"bike_id": "c1dcd19b0f6c3848f9c5df2c5294826b", "is_reserved": 0, "fusion_lon": 0.0, "lat": 38.95337283333333, "is_disabled": 0, "name": "c1dcd19b0f6c3848f9c5df2c5294826b", "fusion_lat": 0.0, "rental_uris": {"ios": "https://dc.lft.to/lastmile_qr_scan", "android": "https://dc.lft.to/lastmile_qr_scan"}, "lon": -77.00960516666666, "type": "electric_bike"}, {"bike_id": "3790862fc33955f638f84bc40d70a7bb", "is_reserved": 0, "fusion_lon": 0.0, "lat": 38.865372, "is_disabled": 0, "name": "3790862fc33955f638f84bc40d70a7bb", "fusion_lat": 0.0, "rental_uris": {"ios": "https://dc.lft.to/lastmile_qr_scan", "android": "https://dc.lft.to/lastmile_qr_scan"}, "lon": -76.98705416666667, "type": "electric_scooter"}, {"bike_id": "aa33e96360bd3c44c27cec2ae5809fde", "is_reserved": 0, "fusion_lon": 0.0, "lat": 38.9112275, "is_disabled": 0, "name": "aa33e96360bd3c44c27cec2ae5809fde", "fusion_lat": 0.0, "rental_uris": {"ios": "https://dc.lft.to/lastmile_qr_scan", "android": "https://dc.lft.to/lastmile_qr_scan"}, "lon": -77.03833816666666, "type": "electric_scooter"}, {"bike_id": "f5e95daccfaeff40f9d72181861a300c", "is_reserved": 0, "fusion_lon": 0.0, "lat": 38.91557133333333, "is_disabled": 0, "name": "f5e95daccfaeff40f9d72181861a300c", "fusion_lat": 0.0, "rental_uris": {"ios": "https://dc.lft.to/lastmile_qr_scan", "android": "https://dc.lft.to/lastmile_qr_scan"}, "lon": -77.03865566666667, "type": "electric_scooter"}, {"bike_id": "d0a172c567d547689c3f6c474379e6ba", "is_reserved": 0, "fusion_lon": 0.0, "lat": 38.905143833333334, "is_disabled": 0, "name": "d0a172c567d547689c3f6c474379e6ba", "fusion_lat": 0.0, "rental_uris": {"ios": "https://dc.lft.to/lastmile_qr_scan", "android": "https://dc.lft.to/lastmile_qr_scan"}, "lon": -77.05160566666666, "type": "electric_scooter"}, {"bike_id": "8b33227ffb3bf06614f0a40c2552d570", "is_reserved": 0, "fusion_lon": 0.0, "lat": 38.92857033333333, "is_disabled": 0, "name": "8b33227ffb3bf06614f0a40c2552d570", "fusion_lat": 0.0, "rental_uris": {"ios": "https://dc.lft.to/lastmile_qr_scan", "android": "https://dc.lft.to/lastmile_qr_scan"}, "lon": -77.22223816666667, "type": "electric_bike"}, {"bike_id": "00df70551d1d1cc980a10e547b48a70a", "is_reserved": 0, "fusion_lon": 0.0, "lat": 38.93544583333333, "is_disabled": 0, "name": "00df70551d1d1cc980a10e547b48a70a", "fusion_lat": 0.0, "rental_uris": {"ios": "https://dc.lft.to/lastmile_qr_scan", "android": "https://dc.lft.to/lastmile_qr_scan"}, "lon": -77.03414683333334, "type": "electric_scooter"}, {"bike_id": "13cb5c3c0d80bd1b656c09c43230d4b6", "is_reserved": 0, "fusion_lon": 0.0, "lat": 38.9126845, "is_disabled": 0, "name": "13cb5c3c0d80bd1b656c09c43230d4b6", "fusion_lat": 0.0, "rental_uris": {"ios": "https://dc.lft.to/lastmile_qr_scan", "android": "https://dc.lft.to/lastmile_qr_scan"}, "lon": -77.02209533333334, "type": "electric_scooter"}, {"bike_id": "9212316e06e3673e6fc35c7d0748331e", "is_reserved": 0, "fusion_lon": 0.0, "lat": 38.923140333333336, "is_disabled": 0, "name": "9212316e06e3673e6fc35c7d0748331e", "fusion_lat": 0.0, "rental_uris": {"ios": "https://dc.lft.to/lastmile_qr_scan", "android": "https://dc.lft.to/lastmile_qr_scan"}, "lon": -77.03863433333333, "type": "electric_scooter"}, {"bike_id": "5c597f0c8709f743e58bc04feb555367", "is_reserved": 0, "fusion_lon": 0.0, "lat": 38.90561783333333, "is_disabled": 0, "name": "5c597f0c8709f743e58bc04feb555367", "fusion_lat": 0.0, "rental_uris": {"ios": "https://dc.lft.to/lastmile_qr_scan", "android": "https://dc.lft.to/lastmile_qr_scan"}, "lon": -77.036339, "type": "electric_scooter"}, {"bike_id": "d4152420388135ca65c7e9be95cf4cc6", "is_reserved": 0, "fusion_lon": 0.0, "lat": 38.926312333333335, "is_disabled": 0, "name": "d4152420388135ca65c7e9be95cf4cc6", "fusion_lat": 0.0, "rental_uris": {"ios": "https://dc.lft.to/lastmile_qr_scan", "android": "https://dc.lft.to/lastmile_qr_scan"}, "lon": -77.03507883333333, "type": "electric_scooter"}, {"bike_id": "ef80ffdfac9102f9f27fb9b1da2f8d21", "is_reserved": 0, "fusion_lon": 0.0, "lat": 38.957878666666666, "is_disabled": 0, "name": "ef80ffdfac9102f9f27fb9b1da2f8d21", "fusion_lat": 0.0, "rental_uris": {"ios": "https://dc.lft.to/lastmile_qr_scan", "android": "https://dc.lft.to/lastmile_qr_scan"}, "lon": -77.02748216666667, "type": "electric_bike"}, {"bike_id": "1f27bc7bbb65b3f6fcff113d9521ff28", "is_reserved": 0, "fusion_lon": 0.0, "lat": 38.89657566666666, "is_disabled": 0, "name": "1f27bc7bbb65b3f6fcff113d9521ff28", "fusion_lat": 0.0, "rental_uris": {"ios": "https://dc.lft.to/lastmile_qr_scan", "android": "https://dc.lft.to/lastmile_qr_scan"}, "lon": -77.0294085, "type": "electric_scooter"}, {"bike_id": "7a358022e935ee1aa24e36c899435f64", "is_reserved": 0, "fusion_lon": 0.0, "lat": 38.91973566666667, "is_disabled": 0, "name": "7a358022e935ee1aa24e36c899435f64", "fusion_lat": 0.0, "rental_uris": {"ios": "https://dc.lft.to/lastmile_qr_scan", "android": "https://dc.lft.to/lastmile_qr_scan"}, "lon": -77.00106583333333, "type": "electric_scooter"}, {"bike_id": "698de40b9780dfe8479c98d8d8460d4f", "is_reserved": 0, "fusion_lon": 0.0, "lat": 38.92339966666667, "is_disabled": 0, "name": "698de40b9780dfe8479c98d8d8460d4f", "fusion_lat": 0.0, "rental_uris": {"ios": "https://dc.lft.to/lastmile_qr_scan", "android": "https://dc.lft.to/lastmile_qr_scan"}, "lon": -77.01904166666667, "type": "electric_scooter"}, {"bike_id": "b4fa6eb3fe73c67924ad7195e1f2fde3", "is_reserved": 0, "fusion_lon": 0.0, "lat": 38.90580883333333, "is_disabled": 0, "name": "b4fa6eb3fe73c67924ad7195e1f2fde3", "fusion_lat": 0.0, "rental_uris": {"ios": "https://dc.lft.to/lastmile_qr_scan", "android": "https://dc.lft.to/lastmile_qr_scan"}, "lon": -77.0652215, "type": "electric_scooter"}, {"bike_id": "11a04d6d26ca0e732602450c01a19317", "is_reserved": 0, "fusion_lon": 0.0, "lat": 38.94152716666667, "is_disabled": 0, "name": "11a04d6d26ca0e732602450c01a19317", "fusion_lat": 0.0, "rental_uris": {"ios": "https://dc.lft.to/lastmile_qr_scan", "android": "https://dc.lft.to/lastmile_qr_scan"}, "lon": -77.0018985, "type": "electric_bike"}, {"bike_id": "57e99b0dd1120ae4da02374a99556854", "is_reserved": 0, "fusion_lon": 0.0, "lat": 38.920491166666665, "is_disabled": 0, "name": "57e99b0dd1120ae4da02374a99556854", "fusion_lat": 0.0, "rental_uris": {"ios": "https://dc.lft.to/lastmile_qr_scan", "android": "https://dc.lft.to/lastmile_qr_scan"}, "lon": -77.03392616666666, "type": "electric_scooter"}, {"bike_id": "0f1cd8f6f0b73303dd4a68acadcdef42", "is_reserved": 0, "fusion_lon": 0.0, "lat": 38.9232625, "is_disabled": 0, "name": "0f1cd8f6f0b73303dd4a68acadcdef42", "fusion_lat": 0.0, "rental_uris": {"ios": "https://dc.lft.to/lastmile_qr_scan", "android": "https://dc.lft.to/lastmile_qr_scan"}, "lon": -77.0438525, "type": "electric_scooter"}, {"bike_id": "8aa4d03d732c1ee90c55812c63d4dbdd", "is_reserved": 0, "fusion_lon": 0.0, "lat": 38.905061, "is_disabled": 0, "name": "8aa4d03d732c1ee90c55812c63d4dbdd", "fusion_lat": 0.0, "rental_uris": {"ios": "https://dc.lft.to/lastmile_qr_scan", "android": "https://dc.lft.to/lastmile_qr_scan"}, "lon": -77.06382233333333, "type": "electric_scooter"}, {"bike_id": "23584538fd23966dd5853dae1ab73746", "is_reserved": 0, "fusion_lon": 0.0, "lat": 38.920661833333334, "is_disabled": 0, "name": "23584538fd23966dd5853dae1ab73746", "fusion_lat": 0.0, "rental_uris": {"ios": "https://dc.lft.to/lastmile_qr_scan", "android": "https://dc.lft.to/lastmile_qr_scan"}, "lon": -76.97798433333334, "type": "electric_scooter"}, {"bike_id": "204b1988efdc016594136a7fa28e8f94", "is_reserved": 0, "fusion_lon": 0.0, "lat": 38.89628716666667, "is_disabled": 0, "name": "204b1988efdc016594136a7fa28e8f94", "fusion_lat": 0.0, "rental_uris": {"ios": "https://dc.lft.to/lastmile_qr_scan", "android": "https://dc.lft.to/lastmile_qr_scan"}, "lon": -77.03228466666667, "type": "electric_scooter"}, {"bike_id": "4d2eadda79fa4e25405b2371e00e3514", "is_reserved": 0, "fusion_lon": 0.0, "lat": 38.96821533333333, "is_disabled": 0, "name": "4d2eadda79fa4e25405b2371e00e3514", "fusion_lat": 0.0, "rental_uris": {"ios": "https://dc.lft.to/lastmile_qr_scan", "android": "https://dc.lft.to/lastmile_qr_scan"}, "lon": -77.01784766666667, "type": "electric_scooter"}, {"bike_id": "5fdb14a0454b210e6c87ae7c9e463d53", "is_reserved": 0, "fusion_lon": 0.0, "lat": 38.87975016666667, "is_disabled": 0, "name": "5fdb14a0454b210e6c87ae7c9e463d53", "fusion_lat": 0.0, "rental_uris": {"ios": "https://dc.lft.to/lastmile_qr_scan", "android": "https://dc.lft.to/lastmile_qr_scan"}, "lon": -77.02422516666667, "type": "electric_scooter"}, {"bike_id": "b8bd051a56d4c64d5059af507a82f428", "is_reserved": 0, "fusion_lon": 0.0, "lat": 38.92590216666667, "is_disabled": 0, "name": "b8bd051a56d4c64d5059af507a82f428", "fusion_lat": 0.0, "rental_uris": {"ios": "https://dc.lft.to/lastmile_qr_scan", "android": "https://dc.lft.to/lastmile_qr_scan"}, "lon": -77.05250116666667, "type": "electric_scooter"}, {"bike_id": "3e422fcf3b7d5c0e4292dad14b5b3f7f", "is_reserved": 0, "fusion_lon": 0.0, "lat": 38.90513933333333, "is_disabled": 0, "name": "3e422fcf3b7d5c0e4292dad14b5b3f7f", "fusion_lat": 0.0, "rental_uris": {"ios": "https://dc.lft.to/lastmile_qr_scan", "android": "https://dc.lft.to/lastmile_qr_scan"}, "lon": -77.04866033333333, "type": "electric_scooter"}, {"bike_id": "f841e935dba5a16f23d7212a39bd43ad", "is_reserved": 0, "fusion_lon": 0.0, "lat": 38.9045915, "is_disabled": 0, "name": "f841e935dba5a16f23d7212a39bd43ad", "fusion_lat": 0.0, "rental_uris": {"ios": "https://dc.lft.to/lastmile_qr_scan", "android": "https://dc.lft.to/lastmile_qr_scan"}, "lon": -76.99503733333333, "type": "electric_scooter"}, {"bike_id": "4a4c6cbc43e5c28edbc9936fac30e1e2", "is_reserved": 0, "fusion_lon": 0.0, "lat": 38.89607683333333, "is_disabled": 0, "name": "4a4c6cbc43e5c28edbc9936fac30e1e2", "fusion_lat": 0.0, "rental_uris": {"ios": "https://dc.lft.to/lastmile_qr_scan", "android": "https://dc.lft.to/lastmile_qr_scan"}, "lon": -77.0450245, "type": "electric_scooter"}, {"bike_id": "60f93952c43b5e2dd7bedd3d5eadaa18", "is_reserved": 0, "fusion_lon": 0.0, "lat": 38.92298016666667, "is_disabled": 0, "name": "60f93952c43b5e2dd7bedd3d5eadaa18", "fusion_lat": 0.0, "rental_uris": {"ios": "https://dc.lft.to/lastmile_qr_scan", "android": "https://dc.lft.to/lastmile_qr_scan"}, "lon": -77.04140383333333, "type": "electric_scooter"}, {"bike_id": "22cdec196ea1d7c49236afd2ca06e4a6", "is_reserved": 0, "fusion_lon": 0.0, "lat": 38.89302633333333, "is_disabled": 0, "name": "22cdec196ea1d7c49236afd2ca06e4a6", "fusion_lat": 0.0, "rental_uris": {"ios": "https://dc.lft.to/lastmile_qr_scan", "android": "https://dc.lft.to/lastmile_qr_scan"}, "lon": -77.01242216666667, "type": "electric_scooter"}, {"bike_id": "95f26baef2f4d1d8f862eca440beaac2", "is_reserved": 0, "fusion_lon": 0.0, "lat": 38.90286783333333, "is_disabled": 0, "name": "95f26baef2f4d1d8f862eca440beaac2", "fusion_lat": 0.0, "rental_uris": {"ios": "https://dc.lft.to/lastmile_qr_scan", "android": "https://dc.lft.to/lastmile_qr_scan"}, "lon": -77.03947516666666, "type": "electric_scooter"}, {"bike_id": "e2a34eeae13753eac193026b908a2e2e", "is_reserved": 0, "fusion_lon": 0.0, "lat": 38.86561916666667, "is_disabled": 0, "name": "e2a34eeae13753eac193026b908a2e2e", "fusion_lat": 0.0, "rental_uris": {"ios": "https://dc.lft.to/lastmile_qr_scan", "android": "https://dc.lft.to/lastmile_qr_scan"}, "lon": -76.98557783333334, "type": "electric_scooter"}, {"bike_id": "997f162cef149f1daccb473e5776aefd", "is_reserved": 0, "fusion_lon": 0.0, "lat": 38.944631333333334, "is_disabled": 0, "name": "997f162cef149f1daccb473e5776aefd", "fusion_lat": 0.0, "rental_uris": {"ios": "https://dc.lft.to/lastmile_qr_scan", "android": "https://dc.lft.to/lastmile_qr_scan"}, "lon": -77.006572, "type": "electric_scooter"}, {"bike_id": "79043ec6290f6fc90298ecfeee51b908", "is_reserved": 0, "fusion_lon": 0.0, "lat": 38.9006695, "is_disabled": 0, "name": "79043ec6290f6fc90298ecfeee51b908", "fusion_lat": 0.0, "rental_uris": {"ios": "https://dc.lft.to/lastmile_qr_scan", "android": "https://dc.lft.to/lastmile_qr_scan"}, "lon": -76.987112, "type": "electric_scooter"}, {"bike_id": "6ba931c3998bdc8b1471875d7b938c5d", "is_reserved": 0, "fusion_lon": 0.0, "lat": 38.907866166666665, "is_disabled": 0, "name": "6ba931c3998bdc8b1471875d7b938c5d", "fusion_lat": 0.0, "rental_uris": {"ios": "https://dc.lft.to/lastmile_qr_scan", "android": "https://dc.lft.to/lastmile_qr_scan"}, "lon": -77.036807, "type": "electric_scooter"}, {"bike_id": "f2d424ce069bcd970f09b3b479be727f", "is_reserved": 0, "fusion_lon": 0.0, "lat": 38.91443433333333, "is_disabled": 0, "name": "f2d424ce069bcd970f09b3b479be727f", "fusion_lat": 0.0, "rental_uris": {"ios": "https://dc.lft.to/lastmile_qr_scan", "android": "https://dc.lft.to/lastmile_qr_scan"}, "lon": -77.022139, "type": "electric_scooter"}, {"bike_id": "b5f1e9227519313a4d19ab7ef2d4c126", "is_reserved": 0, "fusion_lon": 0.0, "lat": 38.8938665, "is_disabled": 0, "name": "b5f1e9227519313a4d19ab7ef2d4c126", "fusion_lat": 0.0, "rental_uris": {"ios": "https://dc.lft.to/lastmile_qr_scan", "android": "https://dc.lft.to/lastmile_qr_scan"}, "lon": -77.00600916666667, "type": "electric_scooter"}, {"bike_id": "7ac1f4fcfeee077e2698783f40b3e0f9", "is_reserved": 0, "fusion_lon": 0.0, "lat": 38.9302025, "is_disabled": 0, "name": "7ac1f4fcfeee077e2698783f40b3e0f9", "fusion_lat": 0.0, "rental_uris": {"ios": "https://dc.lft.to/lastmile_qr_scan", "android": "https://dc.lft.to/lastmile_qr_scan"}, "lon": -77.02328733333333, "type": "electric_scooter"}, {"bike_id": "be03cb7058d5b0411a9c1dcfaea948bf", "is_reserved": 0, "fusion_lon": 0.0, "lat": 38.82266166666667, "is_disabled": 0, "name": "be03cb7058d5b0411a9c1dcfaea948bf", "fusion_lat": 0.0, "rental_uris": {"ios": "https://dc.lft.to/lastmile_qr_scan", "android": "https://dc.lft.to/lastmile_qr_scan"}, "lon": -77.058105, "type": "electric_bike"}, {"bike_id": "93e8801cb89ae95c25043f47eadc98bc", "is_reserved": 0, "fusion_lon": 0.0, "lat": 38.902640833333336, "is_disabled": 0, "name": "93e8801cb89ae95c25043f47eadc98bc", "fusion_lat": 0.0, "rental_uris": {"ios": "https://dc.lft.to/lastmile_qr_scan", "android": "https://dc.lft.to/lastmile_qr_scan"}, "lon": -77.01728283333334, "type": "electric_scooter"}, {"bike_id": "e203a1072aaa3c467fe4c19867265a67", "is_reserved": 0, "fusion_lon": 0.0, "lat": 38.87004016666667, "is_disabled": 0, "name": "e203a1072aaa3c467fe4c19867265a67", "fusion_lat": 0.0, "rental_uris": {"ios": "https://dc.lft.to/lastmile_qr_scan", "android": "https://dc.lft.to/lastmile_qr_scan"}, "lon": -77.012188, "type": "electric_scooter"}, {"bike_id": "e31b776fe62755a8ab4b9f1da4ed2523", "is_reserved": 0, "fusion_lon": 0.0, "lat": 38.86243116666667, "is_disabled": 0, "name": "e31b776fe62755a8ab4b9f1da4ed2523", "fusion_lat": 0.0, "rental_uris": {"ios": "https://dc.lft.to/lastmile_qr_scan", "android": "https://dc.lft.to/lastmile_qr_scan"}, "lon": -76.99495083333333, "type": "electric_scooter"}, {"bike_id": "cde37ba29398fdb565a4a31c455b0061", "is_reserved": 0, "fusion_lon": 0.0, "lat": 38.911817666666664, "is_disabled": 0, "name": "cde37ba29398fdb565a4a31c455b0061", "fusion_lat": 0.0, "rental_uris": {"ios": "https://dc.lft.to/lastmile_qr_scan", "android": "https://dc.lft.to/lastmile_qr_scan"}, "lon": -77.01143533333334, "type": "electric_bike"}, {"bike_id": "d94c00b2509c84db1f3c52fccb32fe2e", "is_reserved": 0, "fusion_lon": 0.0, "lat": 38.911081833333334, "is_disabled": 0, "name": "d94c00b2509c84db1f3c52fccb32fe2e", "fusion_lat": 0.0, "rental_uris": {"ios": "https://dc.lft.to/lastmile_qr_scan", "android": "https://dc.lft.to/lastmile_qr_scan"}, "lon": -77.03725316666667, "type": "electric_scooter"}, {"bike_id": "0360ec460c476847a78cb8103ac8599a", "is_reserved": 0, "fusion_lon": 0.0, "lat": 38.932338666666666, "is_disabled": 0, "name": "0360ec460c476847a78cb8103ac8599a", "fusion_lat": 0.0, "rental_uris": {"ios": "https://dc.lft.to/lastmile_qr_scan", "android": "https://dc.lft.to/lastmile_qr_scan"}, "lon": -77.03824716666666, "type": "electric_scooter"}, {"bike_id": "4a60b27257b53bc25ac25eaad913c09b", "is_reserved": 0, "fusion_lon": 0.0, "lat": 38.98504366666667, "is_disabled": 0, "name": "4a60b27257b53bc25ac25eaad913c09b", "fusion_lat": 0.0, "rental_uris": {"ios": "https://dc.lft.to/lastmile_qr_scan", "android": "https://dc.lft.to/lastmile_qr_scan"}, "lon": -76.98203633333333, "type": "electric_bike"}, {"bike_id": "b765501ca813fb2cfbc8aa5ba6723579", "is_reserved": 0, "fusion_lon": 0.0, "lat": 38.86986316666667, "is_disabled": 0, "name": "b765501ca813fb2cfbc8aa5ba6723579", "fusion_lat": 0.0, "rental_uris": {"ios": "https://dc.lft.to/lastmile_qr_scan", "android": "https://dc.lft.to/lastmile_qr_scan"}, "lon": -76.95988166666666, "type": "electric_bike"}, {"bike_id": "cc6db9941b71f1596df617583bd7f838", "is_reserved": 0, "fusion_lon": 0.0, "lat": 38.87878333333333, "is_disabled": 0, "name": "cc6db9941b71f1596df617583bd7f838", "fusion_lat": 0.0, "rental_uris": {"ios": "https://dc.lft.to/lastmile_qr_scan", "android": "https://dc.lft.to/lastmile_qr_scan"}, "lon": -77.00568166666666, "type": "electric_scooter"}, {"bike_id": "cfa32d4360ea1c1ae7726334c4f61080", "is_reserved": 0, "fusion_lon": 0.0, "lat": 38.98463816666667, "is_disabled": 0, "name": "cfa32d4360ea1c1ae7726334c4f61080", "fusion_lat": 0.0, "rental_uris": {"ios": "https://dc.lft.to/lastmile_qr_scan", "android": "https://dc.lft.to/lastmile_qr_scan"}, "lon": -76.95531883333334, "type": "electric_bike"}, {"bike_id": "34e674eaba28cb3ee3b3aee60245f6f6", "is_reserved": 0, "fusion_lon": 0.0, "lat": 38.916522666666665, "is_disabled": 0, "name": "34e674eaba28cb3ee3b3aee60245f6f6", "fusion_lat": 0.0, "rental_uris": {"ios": "https://dc.lft.to/lastmile_qr_scan", "android": "https://dc.lft.to/lastmile_qr_scan"}, "lon": -77.03650983333333, "type": "electric_scooter"}, {"bike_id": "f95cbe25487d26dfb1ae26c82be9612e", "is_reserved": 0, "fusion_lon": 0.0, "lat": 38.903744333333336, "is_disabled": 0, "name": "f95cbe25487d26dfb1ae26c82be9612e", "fusion_lat": 0.0, "rental_uris": {"ios": "https://dc.lft.to/lastmile_qr_scan", "android": "https://dc.lft.to/lastmile_qr_scan"}, "lon": -77.029315, "type": "electric_scooter"}, {"bike_id": "dc8070cf701ef688b9b34b93840e19e4", "is_reserved": 0, "fusion_lon": 0.0, "lat": 38.919749, "is_disabled": 0, "name": "dc8070cf701ef688b9b34b93840e19e4", "fusion_lat": 0.0, "rental_uris": {"ios": "https://dc.lft.to/lastmile_qr_scan", "android": "https://dc.lft.to/lastmile_qr_scan"}, "lon": -77.02394183333334, "type": "electric_scooter"}, {"bike_id": "6565c237eebadbaffa62dda986764d85", "is_reserved": 0, "fusion_lon": 0.0, "lat": 38.89224633333333, "is_disabled": 0, "name": "6565c237eebadbaffa62dda986764d85", "fusion_lat": 0.0, "rental_uris": {"ios": "https://dc.lft.to/lastmile_qr_scan", "android": "https://dc.lft.to/lastmile_qr_scan"}, "lon": -77.02582466666667, "type": "electric_scooter"}, {"bike_id": "42d34a935949a0e3928a65cf1e5d42a7", "is_reserved": 0, "fusion_lon": 0.0, "lat": 38.9028025, "is_disabled": 0, "name": "42d34a935949a0e3928a65cf1e5d42a7", "fusion_lat": 0.0, "rental_uris": {"ios": "https://dc.lft.to/lastmile_qr_scan", "android": "https://dc.lft.to/lastmile_qr_scan"}, "lon": -77.04055966666667, "type": "electric_scooter"}, {"bike_id": "7fdf3c61272bd7e41a69c8bafde39caa", "is_reserved": 0, "fusion_lon": 0.0, "lat": 38.8973365, "is_disabled": 0, "name": "7fdf3c61272bd7e41a69c8bafde39caa", "fusion_lat": 0.0, "rental_uris": {"ios": "https://dc.lft.to/lastmile_qr_scan", "android": "https://dc.lft.to/lastmile_qr_scan"}, "lon": -77.02707083333334, "type": "electric_scooter"}, {"bike_id": "9229c22e67fe71f26b068ad59e1a6f3e", "is_reserved": 0, "fusion_lon": 0.0, "lat": 38.939534, "is_disabled": 0, "name": "9229c22e67fe71f26b068ad59e1a6f3e", "fusion_lat": 0.0, "rental_uris": {"ios": "https://dc.lft.to/lastmile_qr_scan", "android": "https://dc.lft.to/lastmile_qr_scan"}, "lon": -77.0326735, "type": "electric_scooter"}, {"bike_id": "64695f82d7b062eeb00f09ad28e3ee62", "is_reserved": 0, "fusion_lon": 0.0, "lat": 38.927526666666665, "is_disabled": 0, "name": "64695f82d7b062eeb00f09ad28e3ee62", "fusion_lat": 0.0, "rental_uris": {"ios": "https://dc.lft.to/lastmile_qr_scan", "android": "https://dc.lft.to/lastmile_qr_scan"}, "lon": -77.05366916666667, "type": "electric_scooter"}, {"bike_id": "004bfed2d8203dd411cf92b1deb3caf5", "is_reserved": 0, "fusion_lon": 0.0, "lat": 38.90643166666667, "is_disabled": 0, "name": "004bfed2d8203dd411cf92b1deb3caf5", "fusion_lat": 0.0, "rental_uris": {"ios": "https://dc.lft.to/lastmile_qr_scan", "android": "https://dc.lft.to/lastmile_qr_scan"}, "lon": -77.02496833333333, "type": "electric_scooter"}, {"bike_id": "cca1978af094e42760f8ed03e3260a17", "is_reserved": 0, "fusion_lon": 0.0, "lat": 38.86598633333333, "is_disabled": 0, "name": "cca1978af094e42760f8ed03e3260a17", "fusion_lat": 0.0, "rental_uris": {"ios": "https://dc.lft.to/lastmile_qr_scan", "android": "https://dc.lft.to/lastmile_qr_scan"}, "lon": -76.93231183333333, "type": "electric_bike"}, {"bike_id": "c88e4e3821246eef7fb7dd48e786f988", "is_reserved": 0, "fusion_lon": 0.0, "lat": 38.885974, "is_disabled": 0, "name": "c88e4e3821246eef7fb7dd48e786f988", "fusion_lat": 0.0, "rental_uris": {"ios": "https://dc.lft.to/lastmile_qr_scan", "android": "https://dc.lft.to/lastmile_qr_scan"}, "lon": -76.95258983333333, "type": "electric_scooter"}, {"bike_id": "8fdb3faed0f6651caf520db0910cc675", "is_reserved": 0, "fusion_lon": 0.0, "lat": 38.852238, "is_disabled": 0, "name": "8fdb3faed0f6651caf520db0910cc675", "fusion_lat": 0.0, "rental_uris": {"ios": "https://dc.lft.to/lastmile_qr_scan", "android": "https://dc.lft.to/lastmile_qr_scan"}, "lon": -77.1295855, "type": "electric_bike"}, {"bike_id": "a0728cf952a0fb28e23ece66e2671359", "is_reserved": 0, "fusion_lon": 0.0, "lat": 38.9009225, "is_disabled": 0, "name": "a0728cf952a0fb28e23ece66e2671359", "fusion_lat": 0.0, "rental_uris": {"ios": "https://dc.lft.to/lastmile_qr_scan", "android": "https://dc.lft.to/lastmile_qr_scan"}, "lon": -77.00725866666667, "type": "electric_scooter"}, {"bike_id": "431d96612198b231b5a148a5b280cd62", "is_reserved": 0, "fusion_lon": 0.0, "lat": 38.90182766666667, "is_disabled": 0, "name": "431d96612198b231b5a148a5b280cd62", "fusion_lat": 0.0, "rental_uris": {"ios": "https://dc.lft.to/lastmile_qr_scan", "android": "https://dc.lft.to/lastmile_qr_scan"}, "lon": -77.04781133333333, "type": "electric_scooter"}, {"bike_id": "9ba26cf0d8bb08a52e02bc423c7b104d", "is_reserved": 0, "fusion_lon": 0.0, "lat": 38.90238883333333, "is_disabled": 0, "name": "9ba26cf0d8bb08a52e02bc423c7b104d", "fusion_lat": 0.0, "rental_uris": {"ios": "https://dc.lft.to/lastmile_qr_scan", "android": "https://dc.lft.to/lastmile_qr_scan"}, "lon": -77.0297305, "type": "electric_scooter"}, {"bike_id": "0901a17d3b961105fa491dada5f0a39f", "is_reserved": 0, "fusion_lon": 0.0, "lat": 38.92790733333333, "is_disabled": 0, "name": "0901a17d3b961105fa491dada5f0a39f", "fusion_lat": 0.0, "rental_uris": {"ios": "https://dc.lft.to/lastmile_qr_scan", "android": "https://dc.lft.to/lastmile_qr_scan"}, "lon": -77.03147033333333, "type": "electric_scooter"}, {"bike_id": "34120ccfd7e14dcc10c0d9eec5c4d404", "is_reserved": 0, "fusion_lon": 0.0, "lat": 38.905673, "is_disabled": 0, "name": "34120ccfd7e14dcc10c0d9eec5c4d404", "fusion_lat": 0.0, "rental_uris": {"ios": "https://dc.lft.to/lastmile_qr_scan", "android": "https://dc.lft.to/lastmile_qr_scan"}, "lon": -77.02981733333333, "type": "electric_scooter"}, {"bike_id": "2d1641da47db5dbd69de86229e9d7e88", "is_reserved": 0, "fusion_lon": 0.0, "lat": 38.93956766666667, "is_disabled": 0, "name": "2d1641da47db5dbd69de86229e9d7e88", "fusion_lat": 0.0, "rental_uris": {"ios": "https://dc.lft.to/lastmile_qr_scan", "android": "https://dc.lft.to/lastmile_qr_scan"}, "lon": -77.03268016666667, "type": "electric_scooter"}, {"bike_id": "a8fbe3107f7b223d65453351fd27ab0e", "is_reserved": 0, "fusion_lon": 0.0, "lat": 38.89223833333333, "is_disabled": 0, "name": "a8fbe3107f7b223d65453351fd27ab0e", "fusion_lat": 0.0, "rental_uris": {"ios": "https://dc.lft.to/lastmile_qr_scan", "android": "https://dc.lft.to/lastmile_qr_scan"}, "lon": -77.02840283333333, "type": "electric_scooter"}, {"bike_id": "5292a5358166cc593599bf43ac54e3f1", "is_reserved": 0, "fusion_lon": 0.0, "lat": 38.80696783333333, "is_disabled": 0, "name": "5292a5358166cc593599bf43ac54e3f1", "fusion_lat": 0.0, "rental_uris": {"ios": "https://dc.lft.to/lastmile_qr_scan", "android": "https://dc.lft.to/lastmile_qr_scan"}, "lon": -77.059685, "type": "electric_bike"}, {"bike_id": "18f2dbe37247244471095448ce33f9ec", "is_reserved": 0, "fusion_lon": 0.0, "lat": 38.895423, "is_disabled": 0, "name": "18f2dbe37247244471095448ce33f9ec", "fusion_lat": 0.0, "rental_uris": {"ios": "https://dc.lft.to/lastmile_qr_scan", "android": "https://dc.lft.to/lastmile_qr_scan"}, "lon": -77.048439, "type": "electric_scooter"}, {"bike_id": "76eb8fd8e0561689782c4e8c77f501ef", "is_reserved": 0, "fusion_lon": 0.0, "lat": 38.911096666666666, "is_disabled": 0, "name": "76eb8fd8e0561689782c4e8c77f501ef", "fusion_lat": 0.0, "rental_uris": {"ios": "https://dc.lft.to/lastmile_qr_scan", "android": "https://dc.lft.to/lastmile_qr_scan"}, "lon": -77.04834616666666, "type": "electric_scooter"}, {"bike_id": "d918b50f8158944654d39e3a7ac4b985", "is_reserved": 0, "fusion_lon": 0.0, "lat": 38.917011333333335, "is_disabled": 0, "name": "d918b50f8158944654d39e3a7ac4b985", "fusion_lat": 0.0, "rental_uris": {"ios": "https://dc.lft.to/lastmile_qr_scan", "android": "https://dc.lft.to/lastmile_qr_scan"}, "lon": -77.031275, "type": "electric_scooter"}, {"bike_id": "43135811028bd3f9dfd1c7297cd5fac5", "is_reserved": 0, "fusion_lon": 0.0, "lat": 38.90183066666667, "is_disabled": 0, "name": "43135811028bd3f9dfd1c7297cd5fac5", "fusion_lat": 0.0, "rental_uris": {"ios": "https://dc.lft.to/lastmile_qr_scan", "android": "https://dc.lft.to/lastmile_qr_scan"}, "lon": -77.02301716666666, "type": "electric_scooter"}, {"bike_id": "02ca1da9c197c241fe08180fc72834cf", "is_reserved": 0, "fusion_lon": 0.0, "lat": 38.90207916666667, "is_disabled": 0, "name": "02ca1da9c197c241fe08180fc72834cf", "fusion_lat": 0.0, "rental_uris": {"ios": "https://dc.lft.to/lastmile_qr_scan", "android": "https://dc.lft.to/lastmile_qr_scan"}, "lon": -77.02126066666666, "type": "electric_scooter"}, {"bike_id": "3b59d2c5e6fc1f258a659bd6f35f1819", "is_reserved": 0, "fusion_lon": 0.0, "lat": 38.90625566666667, "is_disabled": 0, "name": "3b59d2c5e6fc1f258a659bd6f35f1819", "fusion_lat": 0.0, "rental_uris": {"ios": "https://dc.lft.to/lastmile_qr_scan", "android": "https://dc.lft.to/lastmile_qr_scan"}, "lon": -77.02962716666667, "type": "electric_scooter"}, {"bike_id": "50899557ef42e8f040d4f5336d1f0d2d", "is_reserved": 0, "fusion_lon": 0.0, "lat": 38.8948265, "is_disabled": 0, "name": "50899557ef42e8f040d4f5336d1f0d2d", "fusion_lat": 0.0, "rental_uris": {"ios": "https://dc.lft.to/lastmile_qr_scan", "android": "https://dc.lft.to/lastmile_qr_scan"}, "lon": -76.94870416666667, "type": "electric_scooter"}, {"bike_id": "ea963b4d6fece4a66ace21087f52cabe", "is_reserved": 0, "fusion_lon": 0.0, "lat": 38.8886195, "is_disabled": 0, "name": "ea963b4d6fece4a66ace21087f52cabe", "fusion_lat": 0.0, "rental_uris": {"ios": "https://dc.lft.to/lastmile_qr_scan", "android": "https://dc.lft.to/lastmile_qr_scan"}, "lon": -76.994768, "type": "electric_bike"}, {"bike_id": "8ea487992359f976fd887d37bb8b56c1", "is_reserved": 0, "fusion_lon": 0.0, "lat": 38.90002366666667, "is_disabled": 0, "name": "8ea487992359f976fd887d37bb8b56c1", "fusion_lat": 0.0, "rental_uris": {"ios": "https://dc.lft.to/lastmile_qr_scan", "android": "https://dc.lft.to/lastmile_qr_scan"}, "lon": -77.05235166666667, "type": "electric_scooter"}, {"bike_id": "d2f0c7d91c519c46e79b07dc41637608", "is_reserved": 0, "fusion_lon": 0.0, "lat": 38.88732866666667, "is_disabled": 0, "name": "d2f0c7d91c519c46e79b07dc41637608", "fusion_lat": 0.0, "rental_uris": {"ios": "https://dc.lft.to/lastmile_qr_scan", "android": "https://dc.lft.to/lastmile_qr_scan"}, "lon": -77.015125, "type": "electric_scooter"}, {"bike_id": "fd62bbe0ba1f3dfe85c7fa587635b36b", "is_reserved": 0, "fusion_lon": 0.0, "lat": 38.8922125, "is_disabled": 0, "name": "fd62bbe0ba1f3dfe85c7fa587635b36b", "fusion_lat": 0.0, "rental_uris": {"ios": "https://dc.lft.to/lastmile_qr_scan", "android": "https://dc.lft.to/lastmile_qr_scan"}, "lon": -77.04370416666667, "type": "electric_scooter"}, {"bike_id": "8a8ac8562799e95ea4498b5b6607b493", "is_reserved": 0, "fusion_lon": 0.0, "lat": 38.90028916666667, "is_disabled": 0, "name": "8a8ac8562799e95ea4498b5b6607b493", "fusion_lat": 0.0, "rental_uris": {"ios": "https://dc.lft.to/lastmile_qr_scan", "android": "https://dc.lft.to/lastmile_qr_scan"}, "lon": -76.98757383333333, "type": "electric_scooter"}, {"bike_id": "97b6d260a76563d3c66223d6ea43fe19", "is_reserved": 0, "fusion_lon": 0.0, "lat": 38.8754695, "is_disabled": 0, "name": "97b6d260a76563d3c66223d6ea43fe19", "fusion_lat": 0.0, "rental_uris": {"ios": "https://dc.lft.to/lastmile_qr_scan", "android": "https://dc.lft.to/lastmile_qr_scan"}, "lon": -76.964895, "type": "electric_scooter"}, {"bike_id": "8993876b15133207dbde8da050615053", "is_reserved": 0, "fusion_lon": 0.0, "lat": 38.919265833333334, "is_disabled": 0, "name": "8993876b15133207dbde8da050615053", "fusion_lat": 0.0, "rental_uris": {"ios": "https://dc.lft.to/lastmile_qr_scan", "android": "https://dc.lft.to/lastmile_qr_scan"}, "lon": -77.03203316666666, "type": "electric_scooter"}, {"bike_id": "593b03d9749c104eb5484d94e0848ac5", "is_reserved": 0, "fusion_lon": 0.0, "lat": 38.91262833333333, "is_disabled": 0, "name": "593b03d9749c104eb5484d94e0848ac5", "fusion_lat": 0.0, "rental_uris": {"ios": "https://dc.lft.to/lastmile_qr_scan", "android": "https://dc.lft.to/lastmile_qr_scan"}, "lon": -77.003549, "type": "electric_scooter"}, {"bike_id": "8a1862bbd9f3c8d0eaa0f8fe880c91df", "is_reserved": 0, "fusion_lon": 0.0, "lat": 38.8995725, "is_disabled": 0, "name": "8a1862bbd9f3c8d0eaa0f8fe880c91df", "fusion_lat": 0.0, "rental_uris": {"ios": "https://dc.lft.to/lastmile_qr_scan", "android": "https://dc.lft.to/lastmile_qr_scan"}, "lon": -76.9754915, "type": "electric_scooter"}, {"bike_id": "bc0569e91a7258ae5c4ffdcfd808d917", "is_reserved": 0, "fusion_lon": 0.0, "lat": 38.8429395, "is_disabled": 0, "name": "bc0569e91a7258ae5c4ffdcfd808d917", "fusion_lat": 0.0, "rental_uris": {"ios": "https://dc.lft.to/lastmile_qr_scan", "android": "https://dc.lft.to/lastmile_qr_scan"}, "lon": -76.9994895, "type": "electric_scooter"}, {"bike_id": "e821d0884afc65fa675b8d431c7083cc", "is_reserved": 0, "fusion_lon": 0.0, "lat": 38.927527166666664, "is_disabled": 0, "name": "e821d0884afc65fa675b8d431c7083cc", "fusion_lat": 0.0, "rental_uris": {"ios": "https://dc.lft.to/lastmile_qr_scan", "android": "https://dc.lft.to/lastmile_qr_scan"}, "lon": -77.05369383333333, "type": "electric_scooter"}, {"bike_id": "c81c2876504b0da3734b0d254243f509", "is_reserved": 0, "fusion_lon": 0.0, "lat": 38.9027725, "is_disabled": 0, "name": "c81c2876504b0da3734b0d254243f509", "fusion_lat": 0.0, "rental_uris": {"ios": "https://dc.lft.to/lastmile_qr_scan", "android": "https://dc.lft.to/lastmile_qr_scan"}, "lon": -77.038354, "type": "electric_scooter"}, {"bike_id": "ef13b2d2a0009abdccea4da5354b94de", "is_reserved": 0, "fusion_lon": 0.0, "lat": 38.901173666666665, "is_disabled": 0, "name": "ef13b2d2a0009abdccea4da5354b94de", "fusion_lat": 0.0, "rental_uris": {"ios": "https://dc.lft.to/lastmile_qr_scan", "android": "https://dc.lft.to/lastmile_qr_scan"}, "lon": -77.04982433333333, "type": "electric_scooter"}, {"bike_id": "991b525047f3a2e572ee9fbb7830c4c3", "is_reserved": 0, "fusion_lon": 0.0, "lat": 38.902521666666665, "is_disabled": 0, "name": "991b525047f3a2e572ee9fbb7830c4c3", "fusion_lat": 0.0, "rental_uris": {"ios": "https://dc.lft.to/lastmile_qr_scan", "android": "https://dc.lft.to/lastmile_qr_scan"}, "lon": -77.03942483333333, "type": "electric_scooter"}, {"bike_id": "b9ddd8531f94c3defe6cc895a4cdddda", "is_reserved": 0, "fusion_lon": 0.0, "lat": 38.883883166666664, "is_disabled": 0, "name": "b9ddd8531f94c3defe6cc895a4cdddda", "fusion_lat": 0.0, "rental_uris": {"ios": "https://dc.lft.to/lastmile_qr_scan", "android": "https://dc.lft.to/lastmile_qr_scan"}, "lon": -77.01967, "type": "electric_scooter"}, {"bike_id": "35a38b69ae84ef0f34304d439f778696", "is_reserved": 0, "fusion_lon": 0.0, "lat": 38.92129083333333, "is_disabled": 0, "name": "35a38b69ae84ef0f34304d439f778696", "fusion_lat": 0.0, "rental_uris": {"ios": "https://dc.lft.to/lastmile_qr_scan", "android": "https://dc.lft.to/lastmile_qr_scan"}, "lon": -77.02199166666666, "type": "electric_scooter"}, {"bike_id": "706bbc1fee7b73ef1269729f71afe409", "is_reserved": 0, "fusion_lon": 0.0, "lat": 38.852427, "is_disabled": 0, "name": "706bbc1fee7b73ef1269729f71afe409", "fusion_lat": 0.0, "rental_uris": {"ios": "https://dc.lft.to/lastmile_qr_scan", "android": "https://dc.lft.to/lastmile_qr_scan"}, "lon": -77.11433816666667, "type": "electric_bike"}, {"bike_id": "0b76f682476787f4ba27dbb8c26c2b2b", "is_reserved": 0, "fusion_lon": 0.0, "lat": 38.906531, "is_disabled": 0, "name": "0b76f682476787f4ba27dbb8c26c2b2b", "fusion_lat": 0.0, "rental_uris": {"ios": "https://dc.lft.to/lastmile_qr_scan", "android": "https://dc.lft.to/lastmile_qr_scan"}, "lon": -77.00975783333334, "type": "electric_scooter"}, {"bike_id": "d3bdad66fe7ea003136ff6e17d1d3c84", "is_reserved": 0, "fusion_lon": 0.0, "lat": 38.97514666666667, "is_disabled": 0, "name": "d3bdad66fe7ea003136ff6e17d1d3c84", "fusion_lat": 0.0, "rental_uris": {"ios": "https://dc.lft.to/lastmile_qr_scan", "android": "https://dc.lft.to/lastmile_qr_scan"}, "lon": -77.01742766666666, "type": "electric_scooter"}, {"bike_id": "dbe4e5c402e7b99a8e7db1bbcee58081", "is_reserved": 0, "fusion_lon": 0.0, "lat": 38.89951583333333, "is_disabled": 0, "name": "dbe4e5c402e7b99a8e7db1bbcee58081", "fusion_lat": 0.0, "rental_uris": {"ios": "https://dc.lft.to/lastmile_qr_scan", "android": "https://dc.lft.to/lastmile_qr_scan"}, "lon": -77.02977433333334, "type": "electric_scooter"}, {"bike_id": "af3b6978043af85bb4f511400eeee1a2", "is_reserved": 0, "fusion_lon": 0.0, "lat": 38.886801166666665, "is_disabled": 0, "name": "af3b6978043af85bb4f511400eeee1a2", "fusion_lat": 0.0, "rental_uris": {"ios": "https://dc.lft.to/lastmile_qr_scan", "android": "https://dc.lft.to/lastmile_qr_scan"}, "lon": -77.0136655, "type": "electric_scooter"}, {"bike_id": "ef86be375b138d69febb81a8252d2159", "is_reserved": 0, "fusion_lon": 0.0, "lat": 38.912136, "is_disabled": 0, "name": "ef86be375b138d69febb81a8252d2159", "fusion_lat": 0.0, "rental_uris": {"ios": "https://dc.lft.to/lastmile_qr_scan", "android": "https://dc.lft.to/lastmile_qr_scan"}, "lon": -77.02953216666667, "type": "electric_scooter"}, {"bike_id": "afaca2d9651c2e47b32939108c509288", "is_reserved": 0, "fusion_lon": 0.0, "lat": 38.93515766666667, "is_disabled": 0, "name": "afaca2d9651c2e47b32939108c509288", "fusion_lat": 0.0, "rental_uris": {"ios": "https://dc.lft.to/lastmile_qr_scan", "android": "https://dc.lft.to/lastmile_qr_scan"}, "lon": -77.03298533333333, "type": "electric_scooter"}, {"bike_id": "aa232935e3663fec01cbb6b9b8ab5bbd", "is_reserved": 0, "fusion_lon": 0.0, "lat": 38.90274333333333, "is_disabled": 0, "name": "aa232935e3663fec01cbb6b9b8ab5bbd", "fusion_lat": 0.0, "rental_uris": {"ios": "https://dc.lft.to/lastmile_qr_scan", "android": "https://dc.lft.to/lastmile_qr_scan"}, "lon": -77.03450033333333, "type": "electric_scooter"}, {"bike_id": "62d7fc7e0cd33a44f53a86e0f52118b2", "is_reserved": 0, "fusion_lon": 0.0, "lat": 38.90515283333333, "is_disabled": 0, "name": "62d7fc7e0cd33a44f53a86e0f52118b2", "fusion_lat": 0.0, "rental_uris": {"ios": "https://dc.lft.to/lastmile_qr_scan", "android": "https://dc.lft.to/lastmile_qr_scan"}, "lon": -77.06380383333334, "type": "electric_scooter"}, {"bike_id": "dc62ee68b1dcf4afdfc6a086d62add0c", "is_reserved": 0, "fusion_lon": 0.0, "lat": 38.9103725, "is_disabled": 0, "name": "dc62ee68b1dcf4afdfc6a086d62add0c", "fusion_lat": 0.0, "rental_uris": {"ios": "https://dc.lft.to/lastmile_qr_scan", "android": "https://dc.lft.to/lastmile_qr_scan"}, "lon": -77.02203616666667, "type": "electric_scooter"}, {"bike_id": "78d766c0532371a506d64d406e2847ab", "is_reserved": 0, "fusion_lon": 0.0, "lat": 38.917156166666665, "is_disabled": 0, "name": "78d766c0532371a506d64d406e2847ab", "fusion_lat": 0.0, "rental_uris": {"ios": "https://dc.lft.to/lastmile_qr_scan", "android": "https://dc.lft.to/lastmile_qr_scan"}, "lon": -77.03233516666667, "type": "electric_scooter"}, {"bike_id": "2ec07af7a2c0ca1ad6c5679baef3a498", "is_reserved": 0, "fusion_lon": 0.0, "lat": 38.83858083333333, "is_disabled": 0, "name": "2ec07af7a2c0ca1ad6c5679baef3a498", "fusion_lat": 0.0, "rental_uris": {"ios": "https://dc.lft.to/lastmile_qr_scan", "android": "https://dc.lft.to/lastmile_qr_scan"}, "lon": -77.08858733333334, "type": "electric_bike"}, {"bike_id": "ebc62aa4e27fc7aaa4af11f211bbc69a", "is_reserved": 0, "fusion_lon": 0.0, "lat": 38.90466816666667, "is_disabled": 0, "name": "ebc62aa4e27fc7aaa4af11f211bbc69a", "fusion_lat": 0.0, "rental_uris": {"ios": "https://dc.lft.to/lastmile_qr_scan", "android": "https://dc.lft.to/lastmile_qr_scan"}, "lon": -77.00736633333334, "type": "electric_scooter"}, {"bike_id": "425fe30d1a2cb39cb81914e1f4c5e06f", "is_reserved": 0, "fusion_lon": 0.0, "lat": 38.90410933333333, "is_disabled": 0, "name": "425fe30d1a2cb39cb81914e1f4c5e06f", "fusion_lat": 0.0, "rental_uris": {"ios": "https://dc.lft.to/lastmile_qr_scan", "android": "https://dc.lft.to/lastmile_qr_scan"}, "lon": -77.02957583333334, "type": "electric_scooter"}, {"bike_id": "a3b6e326b023ce1e90088af8765acd12", "is_reserved": 0, "fusion_lon": 0.0, "lat": 38.92295383333333, "is_disabled": 0, "name": "a3b6e326b023ce1e90088af8765acd12", "fusion_lat": 0.0, "rental_uris": {"ios": "https://dc.lft.to/lastmile_qr_scan", "android": "https://dc.lft.to/lastmile_qr_scan"}, "lon": -77.04143516666667, "type": "electric_scooter"}, {"bike_id": "1f39eac6f14561eceb480d24725d2716", "is_reserved": 0, "fusion_lon": 0.0, "lat": 38.9732605, "is_disabled": 0, "name": "1f39eac6f14561eceb480d24725d2716", "fusion_lat": 0.0, "rental_uris": {"ios": "https://dc.lft.to/lastmile_qr_scan", "android": "https://dc.lft.to/lastmile_qr_scan"}, "lon": -77.02147716666667, "type": "electric_bike"}, {"bike_id": "6c2c8515b06d0579590f843ea420d62c", "is_reserved": 0, "fusion_lon": 0.0, "lat": 38.903189166666664, "is_disabled": 0, "name": "6c2c8515b06d0579590f843ea420d62c", "fusion_lat": 0.0, "rental_uris": {"ios": "https://dc.lft.to/lastmile_qr_scan", "android": "https://dc.lft.to/lastmile_qr_scan"}, "lon": -77.038281, "type": "electric_scooter"}, {"bike_id": "5e24fba61dd3be8572d8464404778e95", "is_reserved": 0, "fusion_lon": 0.0, "lat": 38.90017016666667, "is_disabled": 0, "name": "5e24fba61dd3be8572d8464404778e95", "fusion_lat": 0.0, "rental_uris": {"ios": "https://dc.lft.to/lastmile_qr_scan", "android": "https://dc.lft.to/lastmile_qr_scan"}, "lon": -76.99452433333333, "type": "electric_scooter"}, {"bike_id": "b4296c8bce3420283617fa3e9636762d", "is_reserved": 0, "fusion_lon": 0.0, "lat": 38.911082666666665, "is_disabled": 0, "name": "b4296c8bce3420283617fa3e9636762d", "fusion_lat": 0.0, "rental_uris": {"ios": "https://dc.lft.to/lastmile_qr_scan", "android": "https://dc.lft.to/lastmile_qr_scan"}, "lon": -77.00215466666667, "type": "electric_scooter"}, {"bike_id": "6f8e5c653479961c453de7d47042ac62", "is_reserved": 0, "fusion_lon": 0.0, "lat": 38.880385, "is_disabled": 0, "name": "6f8e5c653479961c453de7d47042ac62", "fusion_lat": 0.0, "rental_uris": {"ios": "https://dc.lft.to/lastmile_qr_scan", "android": "https://dc.lft.to/lastmile_qr_scan"}, "lon": -76.927232, "type": "electric_scooter"}, {"bike_id": "8d7697b5a7e86f306270564bf8a8a792", "is_reserved": 0, "fusion_lon": 0.0, "lat": 38.898212, "is_disabled": 0, "name": "8d7697b5a7e86f306270564bf8a8a792", "fusion_lat": 0.0, "rental_uris": {"ios": "https://dc.lft.to/lastmile_qr_scan", "android": "https://dc.lft.to/lastmile_qr_scan"}, "lon": -77.03334933333333, "type": "electric_scooter"}, {"bike_id": "eee4c467d017f23ee395a87071050864", "is_reserved": 0, "fusion_lon": 0.0, "lat": 38.905808666666665, "is_disabled": 0, "name": "eee4c467d017f23ee395a87071050864", "fusion_lat": 0.0, "rental_uris": {"ios": "https://dc.lft.to/lastmile_qr_scan", "android": "https://dc.lft.to/lastmile_qr_scan"}, "lon": -77.05152916666667, "type": "electric_scooter"}, {"bike_id": "6e7122cb2d0331137c08ebb4be5291e4", "is_reserved": 0, "fusion_lon": 0.0, "lat": 38.934304833333336, "is_disabled": 0, "name": "6e7122cb2d0331137c08ebb4be5291e4", "fusion_lat": 0.0, "rental_uris": {"ios": "https://dc.lft.to/lastmile_qr_scan", "android": "https://dc.lft.to/lastmile_qr_scan"}, "lon": -77.03406233333334, "type": "electric_scooter"}, {"bike_id": "f7a0adb9b0c112b20ad0774e346c7202", "is_reserved": 0, "fusion_lon": 0.0, "lat": 38.906794166666664, "is_disabled": 0, "name": "f7a0adb9b0c112b20ad0774e346c7202", "fusion_lat": 0.0, "rental_uris": {"ios": "https://dc.lft.to/lastmile_qr_scan", "android": "https://dc.lft.to/lastmile_qr_scan"}, "lon": -76.9781075, "type": "electric_scooter"}, {"bike_id": "301e513183b9235d5d98b5ad91e0c586", "is_reserved": 0, "fusion_lon": 0.0, "lat": 38.92442416666667, "is_disabled": 0, "name": "301e513183b9235d5d98b5ad91e0c586", "fusion_lat": 0.0, "rental_uris": {"ios": "https://dc.lft.to/lastmile_qr_scan", "android": "https://dc.lft.to/lastmile_qr_scan"}, "lon": -77.03405766666667, "type": "electric_scooter"}, {"bike_id": "985019270e6a571965b65376833f04b7", "is_reserved": 0, "fusion_lon": 0.0, "lat": 38.955561333333335, "is_disabled": 0, "name": "985019270e6a571965b65376833f04b7", "fusion_lat": 0.0, "rental_uris": {"ios": "https://dc.lft.to/lastmile_qr_scan", "android": "https://dc.lft.to/lastmile_qr_scan"}, "lon": -76.9353205, "type": "electric_bike"}, {"bike_id": "c434320c35ce7cab265ab0aba622cf05", "is_reserved": 0, "fusion_lon": 0.0, "lat": 38.924540666666665, "is_disabled": 0, "name": "c434320c35ce7cab265ab0aba622cf05", "fusion_lat": 0.0, "rental_uris": {"ios": "https://dc.lft.to/lastmile_qr_scan", "android": "https://dc.lft.to/lastmile_qr_scan"}, "lon": -77.20835016666666, "type": "electric_bike"}, {"bike_id": "5f465e1feca2f58944e01f0788ad0fd8", "is_reserved": 0, "fusion_lon": 0.0, "lat": 38.911106833333335, "is_disabled": 0, "name": "5f465e1feca2f58944e01f0788ad0fd8", "fusion_lat": 0.0, "rental_uris": {"ios": "https://dc.lft.to/lastmile_qr_scan", "android": "https://dc.lft.to/lastmile_qr_scan"}, "lon": -77.0492635, "type": "electric_scooter"}, {"bike_id": "03934d11ce7ad0a8cb5ad1c17ba1efe6", "is_reserved": 0, "fusion_lon": 0.0, "lat": 38.92551516666666, "is_disabled": 0, "name": "03934d11ce7ad0a8cb5ad1c17ba1efe6", "fusion_lat": 0.0, "rental_uris": {"ios": "https://dc.lft.to/lastmile_qr_scan", "android": "https://dc.lft.to/lastmile_qr_scan"}, "lon": -77.0013865, "type": "electric_bike"}, {"bike_id": "81396f76fe6e4d4805b528498b37a23d", "is_reserved": 0, "fusion_lon": 0.0, "lat": 38.910978166666666, "is_disabled": 0, "name": "81396f76fe6e4d4805b528498b37a23d", "fusion_lat": 0.0, "rental_uris": {"ios": "https://dc.lft.to/lastmile_qr_scan", "android": "https://dc.lft.to/lastmile_qr_scan"}, "lon": -77.04670783333333, "type": "electric_scooter"}, {"bike_id": "b2c9c97ffe81002f841cc03420f1963c", "is_reserved": 0, "fusion_lon": 0.0, "lat": 38.91703016666666, "is_disabled": 0, "name": "b2c9c97ffe81002f841cc03420f1963c", "fusion_lat": 0.0, "rental_uris": {"ios": "https://dc.lft.to/lastmile_qr_scan", "android": "https://dc.lft.to/lastmile_qr_scan"}, "lon": -77.02932366666667, "type": "electric_scooter"}, {"bike_id": "098f2aa9d65aef897832c42ec0d4578b", "is_reserved": 0, "fusion_lon": 0.0, "lat": 38.90836133333333, "is_disabled": 0, "name": "098f2aa9d65aef897832c42ec0d4578b", "fusion_lat": 0.0, "rental_uris": {"ios": "https://dc.lft.to/lastmile_qr_scan", "android": "https://dc.lft.to/lastmile_qr_scan"}, "lon": -76.996957, "type": "electric_scooter"}, {"bike_id": "a93ddaa08053fcbee0909feac9fbaed7", "is_reserved": 0, "fusion_lon": 0.0, "lat": 38.91266233333333, "is_disabled": 0, "name": "a93ddaa08053fcbee0909feac9fbaed7", "fusion_lat": 0.0, "rental_uris": {"ios": "https://dc.lft.to/lastmile_qr_scan", "android": "https://dc.lft.to/lastmile_qr_scan"}, "lon": -77.02210483333333, "type": "electric_scooter"}, {"bike_id": "ae7e5a1156c3089ded2f2d8fef36b89d", "is_reserved": 0, "fusion_lon": 0.0, "lat": 38.924505833333335, "is_disabled": 0, "name": "ae7e5a1156c3089ded2f2d8fef36b89d", "fusion_lat": 0.0, "rental_uris": {"ios": "https://dc.lft.to/lastmile_qr_scan", "android": "https://dc.lft.to/lastmile_qr_scan"}, "lon": -77.033581, "type": "electric_scooter"}, {"bike_id": "5230a78ab4039b7679f70ae1be3ffff4", "is_reserved": 0, "fusion_lon": 0.0, "lat": 38.89190766666667, "is_disabled": 0, "name": "5230a78ab4039b7679f70ae1be3ffff4", "fusion_lat": 0.0, "rental_uris": {"ios": "https://dc.lft.to/lastmile_qr_scan", "android": "https://dc.lft.to/lastmile_qr_scan"}, "lon": -77.12262, "type": "electric_bike"}, {"bike_id": "bdeaf51b9e1ebba8a5c977ea18624e16", "is_reserved": 0, "fusion_lon": 0.0, "lat": 38.9125575, "is_disabled": 0, "name": "bdeaf51b9e1ebba8a5c977ea18624e16", "fusion_lat": 0.0, "rental_uris": {"ios": "https://dc.lft.to/lastmile_qr_scan", "android": "https://dc.lft.to/lastmile_qr_scan"}, "lon": -77.04443816666667, "type": "electric_scooter"}, {"bike_id": "474097b7805bc293d6e9f91afa025e12", "is_reserved": 0, "fusion_lon": 0.0, "lat": 38.90362183333333, "is_disabled": 0, "name": "474097b7805bc293d6e9f91afa025e12", "fusion_lat": 0.0, "rental_uris": {"ios": "https://dc.lft.to/lastmile_qr_scan", "android": "https://dc.lft.to/lastmile_qr_scan"}, "lon": -77.0300985, "type": "electric_scooter"}, {"bike_id": "3d55c0ec498c20e75f84f46535fe8aad", "is_reserved": 0, "fusion_lon": 0.0, "lat": 38.909733833333334, "is_disabled": 0, "name": "3d55c0ec498c20e75f84f46535fe8aad", "fusion_lat": 0.0, "rental_uris": {"ios": "https://dc.lft.to/lastmile_qr_scan", "android": "https://dc.lft.to/lastmile_qr_scan"}, "lon": -77.03457483333334, "type": "electric_scooter"}, {"bike_id": "6187cb9beb45061fef2a3c0453b617a8", "is_reserved": 0, "fusion_lon": 0.0, "lat": 38.91558066666666, "is_disabled": 0, "name": "6187cb9beb45061fef2a3c0453b617a8", "fusion_lat": 0.0, "rental_uris": {"ios": "https://dc.lft.to/lastmile_qr_scan", "android": "https://dc.lft.to/lastmile_qr_scan"}, "lon": -77.03936816666666, "type": "electric_scooter"}, {"bike_id": "fbfc485b280f44b77d898e325a8ba52d", "is_reserved": 0, "fusion_lon": 0.0, "lat": 38.91634033333333, "is_disabled": 0, "name": "fbfc485b280f44b77d898e325a8ba52d", "fusion_lat": 0.0, "rental_uris": {"ios": "https://dc.lft.to/lastmile_qr_scan", "android": "https://dc.lft.to/lastmile_qr_scan"}, "lon": -77.03214666666666, "type": "electric_scooter"}, {"bike_id": "b4cbabd3e6780cd529e5b0560f15c50a", "is_reserved": 0, "fusion_lon": 0.0, "lat": 38.916744666666666, "is_disabled": 0, "name": "b4cbabd3e6780cd529e5b0560f15c50a", "fusion_lat": 0.0, "rental_uris": {"ios": "https://dc.lft.to/lastmile_qr_scan", "android": "https://dc.lft.to/lastmile_qr_scan"}, "lon": -77.00498383333333, "type": "electric_scooter"}, {"bike_id": "447a0e08e6bd757e8c08a496d952811e", "is_reserved": 0, "fusion_lon": 0.0, "lat": 38.93114283333333, "is_disabled": 0, "name": "447a0e08e6bd757e8c08a496d952811e", "fusion_lat": 0.0, "rental_uris": {"ios": "https://dc.lft.to/lastmile_qr_scan", "android": "https://dc.lft.to/lastmile_qr_scan"}, "lon": -77.03817733333334, "type": "electric_scooter"}, {"bike_id": "47d61a439894e6f0291bf96088de55c1", "is_reserved": 0, "fusion_lon": 0.0, "lat": 38.90528166666667, "is_disabled": 0, "name": "47d61a439894e6f0291bf96088de55c1", "fusion_lat": 0.0, "rental_uris": {"ios": "https://dc.lft.to/lastmile_qr_scan", "android": "https://dc.lft.to/lastmile_qr_scan"}, "lon": -77.067612, "type": "electric_scooter"}, {"bike_id": "4163aeff482a1c6a0835ef9d23995379", "is_reserved": 0, "fusion_lon": 0.0, "lat": 38.942886666666666, "is_disabled": 0, "name": "4163aeff482a1c6a0835ef9d23995379", "fusion_lat": 0.0, "rental_uris": {"ios": "https://dc.lft.to/lastmile_qr_scan", "android": "https://dc.lft.to/lastmile_qr_scan"}, "lon": -77.021749, "type": "electric_scooter"}, {"bike_id": "0e9485ab07e32892b623595cc498b62b", "is_reserved": 0, "fusion_lon": 0.0, "lat": 38.933943166666666, "is_disabled": 0, "name": "0e9485ab07e32892b623595cc498b62b", "fusion_lat": 0.0, "rental_uris": {"ios": "https://dc.lft.to/lastmile_qr_scan", "android": "https://dc.lft.to/lastmile_qr_scan"}, "lon": -77.03576633333333, "type": "electric_scooter"}, {"bike_id": "3e9520f542bc31dbbe5f8c435afe36ac", "is_reserved": 0, "fusion_lon": 0.0, "lat": 38.908571333333335, "is_disabled": 0, "name": "3e9520f542bc31dbbe5f8c435afe36ac", "fusion_lat": 0.0, "rental_uris": {"ios": "https://dc.lft.to/lastmile_qr_scan", "android": "https://dc.lft.to/lastmile_qr_scan"}, "lon": -77.02731516666667, "type": "electric_scooter"}, {"bike_id": "f3b5ed0979c32f98434ec9580831e53e", "is_reserved": 0, "fusion_lon": 0.0, "lat": 38.9091315, "is_disabled": 0, "name": "f3b5ed0979c32f98434ec9580831e53e", "fusion_lat": 0.0, "rental_uris": {"ios": "https://dc.lft.to/lastmile_qr_scan", "android": "https://dc.lft.to/lastmile_qr_scan"}, "lon": -77.009177, "type": "electric_scooter"}, {"bike_id": "18e3c434335a6fd46dd18ed4e294e7a7", "is_reserved": 0, "fusion_lon": 0.0, "lat": 38.933031666666665, "is_disabled": 0, "name": "18e3c434335a6fd46dd18ed4e294e7a7", "fusion_lat": 0.0, "rental_uris": {"ios": "https://dc.lft.to/lastmile_qr_scan", "android": "https://dc.lft.to/lastmile_qr_scan"}, "lon": -77.0284535, "type": "electric_scooter"}, {"bike_id": "50b648ed188f092d59f3613a6c88b9c5", "is_reserved": 0, "fusion_lon": 0.0, "lat": 38.93253833333333, "is_disabled": 0, "name": "50b648ed188f092d59f3613a6c88b9c5", "fusion_lat": 0.0, "rental_uris": {"ios": "https://dc.lft.to/lastmile_qr_scan", "android": "https://dc.lft.to/lastmile_qr_scan"}, "lon": -77.0328085, "type": "electric_scooter"}, {"bike_id": "51307308e5daabe858e80ceadafbfcf5", "is_reserved": 0, "fusion_lon": 0.0, "lat": 38.91191883333333, "is_disabled": 0, "name": "51307308e5daabe858e80ceadafbfcf5", "fusion_lat": 0.0, "rental_uris": {"ios": "https://dc.lft.to/lastmile_qr_scan", "android": "https://dc.lft.to/lastmile_qr_scan"}, "lon": -77.03260866666666, "type": "electric_scooter"}, {"bike_id": "48e0774338de407dc5d2830877c1ac74", "is_reserved": 0, "fusion_lon": 0.0, "lat": 38.89729966666667, "is_disabled": 0, "name": "48e0774338de407dc5d2830877c1ac74", "fusion_lat": 0.0, "rental_uris": {"ios": "https://dc.lft.to/lastmile_qr_scan", "android": "https://dc.lft.to/lastmile_qr_scan"}, "lon": -77.05475083333333, "type": "electric_scooter"}, {"bike_id": "8d737a394d7bef9ad16113f7be01e3df", "is_reserved": 0, "fusion_lon": 0.0, "lat": 38.90245783333334, "is_disabled": 0, "name": "8d737a394d7bef9ad16113f7be01e3df", "fusion_lat": 0.0, "rental_uris": {"ios": "https://dc.lft.to/lastmile_qr_scan", "android": "https://dc.lft.to/lastmile_qr_scan"}, "lon": -77.01634183333333, "type": "electric_scooter"}, {"bike_id": "a8175e5abc85914370e34400f919cad1", "is_reserved": 0, "fusion_lon": 0.0, "lat": 38.8922255, "is_disabled": 0, "name": "a8175e5abc85914370e34400f919cad1", "fusion_lat": 0.0, "rental_uris": {"ios": "https://dc.lft.to/lastmile_qr_scan", "android": "https://dc.lft.to/lastmile_qr_scan"}, "lon": -77.10777616666667, "type": "electric_bike"}, {"bike_id": "41e1505534daa4207ded0433da6eb6b9", "is_reserved": 0, "fusion_lon": 0.0, "lat": 38.899561166666665, "is_disabled": 0, "name": "41e1505534daa4207ded0433da6eb6b9", "fusion_lat": 0.0, "rental_uris": {"ios": "https://dc.lft.to/lastmile_qr_scan", "android": "https://dc.lft.to/lastmile_qr_scan"}, "lon": -77.05270333333333, "type": "electric_scooter"}, {"bike_id": "41d80093b028f79fc085c606307c5548", "is_reserved": 0, "fusion_lon": 0.0, "lat": 38.92269733333333, "is_disabled": 0, "name": "41d80093b028f79fc085c606307c5548", "fusion_lat": 0.0, "rental_uris": {"ios": "https://dc.lft.to/lastmile_qr_scan", "android": "https://dc.lft.to/lastmile_qr_scan"}, "lon": -77.018262, "type": "electric_scooter"}, {"bike_id": "e8ee893b085ded6aa6042fea9fd0d642", "is_reserved": 0, "fusion_lon": 0.0, "lat": 38.9012645, "is_disabled": 0, "name": "e8ee893b085ded6aa6042fea9fd0d642", "fusion_lat": 0.0, "rental_uris": {"ios": "https://dc.lft.to/lastmile_qr_scan", "android": "https://dc.lft.to/lastmile_qr_scan"}, "lon": -76.997083, "type": "electric_scooter"}, {"bike_id": "acceff0ef411459cd1815bae020636fd", "is_reserved": 0, "fusion_lon": 0.0, "lat": 38.90524666666666, "is_disabled": 0, "name": "acceff0ef411459cd1815bae020636fd", "fusion_lat": 0.0, "rental_uris": {"ios": "https://dc.lft.to/lastmile_qr_scan", "android": "https://dc.lft.to/lastmile_qr_scan"}, "lon": -77.065222, "type": "electric_scooter"}, {"bike_id": "5f6cd4b936259d4607391e15c3c30584", "is_reserved": 0, "fusion_lon": 0.0, "lat": 38.90694933333333, "is_disabled": 0, "name": "5f6cd4b936259d4607391e15c3c30584", "fusion_lat": 0.0, "rental_uris": {"ios": "https://dc.lft.to/lastmile_qr_scan", "android": "https://dc.lft.to/lastmile_qr_scan"}, "lon": -77.0058465, "type": "electric_scooter"}, {"bike_id": "25a4aef0b7a877004c3359bb3d382367", "is_reserved": 0, "fusion_lon": 0.0, "lat": 38.9038105, "is_disabled": 0, "name": "25a4aef0b7a877004c3359bb3d382367", "fusion_lat": 0.0, "rental_uris": {"ios": "https://dc.lft.to/lastmile_qr_scan", "android": "https://dc.lft.to/lastmile_qr_scan"}, "lon": -77.044843, "type": "electric_scooter"}, {"bike_id": "e7e2ede9cb4564fa7960a63cc8832cea", "is_reserved": 0, "fusion_lon": 0.0, "lat": 38.92701366666667, "is_disabled": 0, "name": "e7e2ede9cb4564fa7960a63cc8832cea", "fusion_lat": 0.0, "rental_uris": {"ios": "https://dc.lft.to/lastmile_qr_scan", "android": "https://dc.lft.to/lastmile_qr_scan"}, "lon": -77.040549, "type": "electric_scooter"}, {"bike_id": "724e7f07e8ea4e9b430b80d5f13e5bc4", "is_reserved": 0, "fusion_lon": 0.0, "lat": 38.918658, "is_disabled": 0, "name": "724e7f07e8ea4e9b430b80d5f13e5bc4", "fusion_lat": 0.0, "rental_uris": {"ios": "https://dc.lft.to/lastmile_qr_scan", "android": "https://dc.lft.to/lastmile_qr_scan"}, "lon": -77.044489, "type": "electric_scooter"}, {"bike_id": "c2cff397f8123cdf9352e4b202dc18ce", "is_reserved": 0, "fusion_lon": 0.0, "lat": 38.92756516666667, "is_disabled": 0, "name": "c2cff397f8123cdf9352e4b202dc18ce", "fusion_lat": 0.0, "rental_uris": {"ios": "https://dc.lft.to/lastmile_qr_scan", "android": "https://dc.lft.to/lastmile_qr_scan"}, "lon": -77.02422433333334, "type": "electric_scooter"}, {"bike_id": "8c57f924045321ccf2b55ac708c404d2", "is_reserved": 0, "fusion_lon": 0.0, "lat": 38.865211333333335, "is_disabled": 0, "name": "8c57f924045321ccf2b55ac708c404d2", "fusion_lat": 0.0, "rental_uris": {"ios": "https://dc.lft.to/lastmile_qr_scan", "android": "https://dc.lft.to/lastmile_qr_scan"}, "lon": -76.99030783333333, "type": "electric_scooter"}, {"bike_id": "961cf15184018e2b463d24c6de80fecd", "is_reserved": 0, "fusion_lon": 0.0, "lat": 38.94088133333333, "is_disabled": 0, "name": "961cf15184018e2b463d24c6de80fecd", "fusion_lat": 0.0, "rental_uris": {"ios": "https://dc.lft.to/lastmile_qr_scan", "android": "https://dc.lft.to/lastmile_qr_scan"}, "lon": -77.06192583333333, "type": "electric_scooter"}, {"bike_id": "c482ddcb313c69230b337c4c653b2c7b", "is_reserved": 0, "fusion_lon": 0.0, "lat": 38.92258483333333, "is_disabled": 0, "name": "c482ddcb313c69230b337c4c653b2c7b", "fusion_lat": 0.0, "rental_uris": {"ios": "https://dc.lft.to/lastmile_qr_scan", "android": "https://dc.lft.to/lastmile_qr_scan"}, "lon": -77.03641233333333, "type": "electric_scooter"}, {"bike_id": "846a50e25bdd4cf0982e387682ce224a", "is_reserved": 0, "fusion_lon": 0.0, "lat": 38.90641566666667, "is_disabled": 0, "name": "846a50e25bdd4cf0982e387682ce224a", "fusion_lat": 0.0, "rental_uris": {"ios": "https://dc.lft.to/lastmile_qr_scan", "android": "https://dc.lft.to/lastmile_qr_scan"}, "lon": -77.039714, "type": "electric_scooter"}, {"bike_id": "6d9872601bed88e037d32b9637e12942", "is_reserved": 0, "fusion_lon": 0.0, "lat": 38.895574, "is_disabled": 0, "name": "6d9872601bed88e037d32b9637e12942", "fusion_lat": 0.0, "rental_uris": {"ios": "https://dc.lft.to/lastmile_qr_scan", "android": "https://dc.lft.to/lastmile_qr_scan"}, "lon": -77.0217085, "type": "electric_scooter"}, {"bike_id": "babc5367e0268b5f25a360c2a292f162", "is_reserved": 0, "fusion_lon": 0.0, "lat": 38.89281166666667, "is_disabled": 0, "name": "babc5367e0268b5f25a360c2a292f162", "fusion_lat": 0.0, "rental_uris": {"ios": "https://dc.lft.to/lastmile_qr_scan", "android": "https://dc.lft.to/lastmile_qr_scan"}, "lon": -77.02596083333333, "type": "electric_scooter"}, {"bike_id": "ec774c6b8fd929e4b91c56d1fcb2c0ba", "is_reserved": 0, "fusion_lon": 0.0, "lat": 38.898496, "is_disabled": 0, "name": "ec774c6b8fd929e4b91c56d1fcb2c0ba", "fusion_lat": 0.0, "rental_uris": {"ios": "https://dc.lft.to/lastmile_qr_scan", "android": "https://dc.lft.to/lastmile_qr_scan"}, "lon": -76.98172383333333, "type": "electric_scooter"}, {"bike_id": "36992aa2e563430ef719f9fddba5ac2b", "is_reserved": 0, "fusion_lon": 0.0, "lat": 38.90215216666667, "is_disabled": 0, "name": "36992aa2e563430ef719f9fddba5ac2b", "fusion_lat": 0.0, "rental_uris": {"ios": "https://dc.lft.to/lastmile_qr_scan", "android": "https://dc.lft.to/lastmile_qr_scan"}, "lon": -77.02325516666667, "type": "electric_scooter"}, {"bike_id": "d34fe1c2eecfea9b5aa0a2df23b08346", "is_reserved": 0, "fusion_lon": 0.0, "lat": 38.9070495, "is_disabled": 0, "name": "d34fe1c2eecfea9b5aa0a2df23b08346", "fusion_lat": 0.0, "rental_uris": {"ios": "https://dc.lft.to/lastmile_qr_scan", "android": "https://dc.lft.to/lastmile_qr_scan"}, "lon": -76.9869405, "type": "electric_scooter"}, {"bike_id": "7cb4403bcc2da1ac685aef318532b843", "is_reserved": 0, "fusion_lon": 0.0, "lat": 38.908401, "is_disabled": 0, "name": "7cb4403bcc2da1ac685aef318532b843", "fusion_lat": 0.0, "rental_uris": {"ios": "https://dc.lft.to/lastmile_qr_scan", "android": "https://dc.lft.to/lastmile_qr_scan"}, "lon": -77.031915, "type": "electric_scooter"}, {"bike_id": "740c61234c05ca4ecc62dd22a4e0dfde", "is_reserved": 0, "fusion_lon": 0.0, "lat": 38.9057765, "is_disabled": 0, "name": "740c61234c05ca4ecc62dd22a4e0dfde", "fusion_lat": 0.0, "rental_uris": {"ios": "https://dc.lft.to/lastmile_qr_scan", "android": "https://dc.lft.to/lastmile_qr_scan"}, "lon": -77.04458433333333, "type": "electric_scooter"}, {"bike_id": "c9bcb84e4032339ff81500f7563c29fa", "is_reserved": 0, "fusion_lon": 0.0, "lat": 38.93281316666667, "is_disabled": 0, "name": "c9bcb84e4032339ff81500f7563c29fa", "fusion_lat": 0.0, "rental_uris": {"ios": "https://dc.lft.to/lastmile_qr_scan", "android": "https://dc.lft.to/lastmile_qr_scan"}, "lon": -77.0297045, "type": "electric_scooter"}, {"bike_id": "84c35ebe5d64441c46114cb18a2c8ed7", "is_reserved": 0, "fusion_lon": 0.0, "lat": 39.05630716666667, "is_disabled": 0, "name": "84c35ebe5d64441c46114cb18a2c8ed7", "fusion_lat": 0.0, "rental_uris": {"ios": "https://dc.lft.to/lastmile_qr_scan", "android": "https://dc.lft.to/lastmile_qr_scan"}, "lon": -77.1252785, "type": "electric_bike"}, {"bike_id": "67171a6dbcf8f15551484cfe317d1f9e", "is_reserved": 0, "fusion_lon": 0.0, "lat": 38.927069, "is_disabled": 0, "name": "67171a6dbcf8f15551484cfe317d1f9e", "fusion_lat": 0.0, "rental_uris": {"ios": "https://dc.lft.to/lastmile_qr_scan", "android": "https://dc.lft.to/lastmile_qr_scan"}, "lon": -77.02092666666667, "type": "electric_scooter"}, {"bike_id": "bb18b92f75aa1110bdb16d5ba2dd59fb", "is_reserved": 0, "fusion_lon": 0.0, "lat": 38.902683833333334, "is_disabled": 0, "name": "bb18b92f75aa1110bdb16d5ba2dd59fb", "fusion_lat": 0.0, "rental_uris": {"ios": "https://dc.lft.to/lastmile_qr_scan", "android": "https://dc.lft.to/lastmile_qr_scan"}, "lon": -77.00328033333334, "type": "electric_scooter"}, {"bike_id": "14a769b5949d0126dca6879c64078df7", "is_reserved": 0, "fusion_lon": 0.0, "lat": 38.917249, "is_disabled": 0, "name": "14a769b5949d0126dca6879c64078df7", "fusion_lat": 0.0, "rental_uris": {"ios": "https://dc.lft.to/lastmile_qr_scan", "android": "https://dc.lft.to/lastmile_qr_scan"}, "lon": -77.03657683333333, "type": "electric_scooter"}, {"bike_id": "e50ca92b4d16f9ba6206f8af4e120ae8", "is_reserved": 0, "fusion_lon": 0.0, "lat": 38.86830366666667, "is_disabled": 0, "name": "e50ca92b4d16f9ba6206f8af4e120ae8", "fusion_lat": 0.0, "rental_uris": {"ios": "https://dc.lft.to/lastmile_qr_scan", "android": "https://dc.lft.to/lastmile_qr_scan"}, "lon": -76.98606516666666, "type": "electric_scooter"}, {"bike_id": "f8577e3b46e80e541a073b09d9e849e2", "is_reserved": 0, "fusion_lon": 0.0, "lat": 38.885368, "is_disabled": 0, "name": "f8577e3b46e80e541a073b09d9e849e2", "fusion_lat": 0.0, "rental_uris": {"ios": "https://dc.lft.to/lastmile_qr_scan", "android": "https://dc.lft.to/lastmile_qr_scan"}, "lon": -77.0057275, "type": "electric_scooter"}, {"bike_id": "7c7e7255851f15f2e775d53bcaf3f8a4", "is_reserved": 0, "fusion_lon": 0.0, "lat": 38.8381045, "is_disabled": 0, "name": "7c7e7255851f15f2e775d53bcaf3f8a4", "fusion_lat": 0.0, "rental_uris": {"ios": "https://dc.lft.to/lastmile_qr_scan", "android": "https://dc.lft.to/lastmile_qr_scan"}, "lon": -77.0952465, "type": "electric_bike"}, {"bike_id": "d50aad2d2335c0ef063649357f061109", "is_reserved": 0, "fusion_lon": 0.0, "lat": 38.838292333333335, "is_disabled": 0, "name": "d50aad2d2335c0ef063649357f061109", "fusion_lat": 0.0, "rental_uris": {"ios": "https://dc.lft.to/lastmile_qr_scan", "android": "https://dc.lft.to/lastmile_qr_scan"}, "lon": -76.9967815, "type": "electric_bike"}, {"bike_id": "ccfea78d0b67865145542837775bf8cb", "is_reserved": 0, "fusion_lon": 0.0, "lat": 38.8652475, "is_disabled": 0, "name": "ccfea78d0b67865145542837775bf8cb", "fusion_lat": 0.0, "rental_uris": {"ios": "https://dc.lft.to/lastmile_qr_scan", "android": "https://dc.lft.to/lastmile_qr_scan"}, "lon": -76.99025516666667, "type": "electric_scooter"}, {"bike_id": "52be59bc4caeaf5660e5dc6361b1ffd0", "is_reserved": 0, "fusion_lon": 0.0, "lat": 38.9328885, "is_disabled": 0, "name": "52be59bc4caeaf5660e5dc6361b1ffd0", "fusion_lat": 0.0, "rental_uris": {"ios": "https://dc.lft.to/lastmile_qr_scan", "android": "https://dc.lft.to/lastmile_qr_scan"}, "lon": -77.03983333333333, "type": "electric_scooter"}, {"bike_id": "1013f1c5dce7be2fba4c8834c1c9658e", "is_reserved": 0, "fusion_lon": 0.0, "lat": 38.9287465, "is_disabled": 0, "name": "1013f1c5dce7be2fba4c8834c1c9658e", "fusion_lat": 0.0, "rental_uris": {"ios": "https://dc.lft.to/lastmile_qr_scan", "android": "https://dc.lft.to/lastmile_qr_scan"}, "lon": -77.01365683333333, "type": "electric_scooter"}, {"bike_id": "f0db62c593c948454814787766403f13", "is_reserved": 0, "fusion_lon": 0.0, "lat": 38.92763016666667, "is_disabled": 0, "name": "f0db62c593c948454814787766403f13", "fusion_lat": 0.0, "rental_uris": {"ios": "https://dc.lft.to/lastmile_qr_scan", "android": "https://dc.lft.to/lastmile_qr_scan"}, "lon": -77.07308083333334, "type": "electric_scooter"}, {"bike_id": "df3d1c76948982fa6dd98bada420f22d", "is_reserved": 0, "fusion_lon": 0.0, "lat": 38.89603066666667, "is_disabled": 0, "name": "df3d1c76948982fa6dd98bada420f22d", "fusion_lat": 0.0, "rental_uris": {"ios": "https://dc.lft.to/lastmile_qr_scan", "android": "https://dc.lft.to/lastmile_qr_scan"}, "lon": -77.0446115, "type": "electric_scooter"}, {"bike_id": "56282ba895315fb9989eb49f3583ec4a", "is_reserved": 0, "fusion_lon": 0.0, "lat": 38.8868665, "is_disabled": 0, "name": "56282ba895315fb9989eb49f3583ec4a", "fusion_lat": 0.0, "rental_uris": {"ios": "https://dc.lft.to/lastmile_qr_scan", "android": "https://dc.lft.to/lastmile_qr_scan"}, "lon": -76.9576215, "type": "electric_scooter"}, {"bike_id": "64233de3b42371be78a863df9a1cdf06", "is_reserved": 0, "fusion_lon": 0.0, "lat": 38.896242666666666, "is_disabled": 0, "name": "64233de3b42371be78a863df9a1cdf06", "fusion_lat": 0.0, "rental_uris": {"ios": "https://dc.lft.to/lastmile_qr_scan", "android": "https://dc.lft.to/lastmile_qr_scan"}, "lon": -77.022824, "type": "electric_scooter"}, {"bike_id": "427cf81a9f2aa67174f8f14ee50f3fac", "is_reserved": 0, "fusion_lon": 0.0, "lat": 38.87627966666667, "is_disabled": 0, "name": "427cf81a9f2aa67174f8f14ee50f3fac", "fusion_lat": 0.0, "rental_uris": {"ios": "https://dc.lft.to/lastmile_qr_scan", "android": "https://dc.lft.to/lastmile_qr_scan"}, "lon": -76.96526016666667, "type": "electric_scooter"}, {"bike_id": "117cbb1d0eb8796fbd42ca76376ad2be", "is_reserved": 0, "fusion_lon": 0.0, "lat": 38.8974175, "is_disabled": 0, "name": "117cbb1d0eb8796fbd42ca76376ad2be", "fusion_lat": 0.0, "rental_uris": {"ios": "https://dc.lft.to/lastmile_qr_scan", "android": "https://dc.lft.to/lastmile_qr_scan"}, "lon": -76.93843683333333, "type": "electric_scooter"}, {"bike_id": "f8c9e872cd0018712b62299145319e51", "is_reserved": 0, "fusion_lon": 0.0, "lat": 38.90494433333333, "is_disabled": 0, "name": "f8c9e872cd0018712b62299145319e51", "fusion_lat": 0.0, "rental_uris": {"ios": "https://dc.lft.to/lastmile_qr_scan", "android": "https://dc.lft.to/lastmile_qr_scan"}, "lon": -77.02820033333333, "type": "electric_scooter"}, {"bike_id": "8d79edd2f3b40a73bf66f97559b89773", "is_reserved": 0, "fusion_lon": 0.0, "lat": 38.895285, "is_disabled": 0, "name": "8d79edd2f3b40a73bf66f97559b89773", "fusion_lat": 0.0, "rental_uris": {"ios": "https://dc.lft.to/lastmile_qr_scan", "android": "https://dc.lft.to/lastmile_qr_scan"}, "lon": -77.00343466666666, "type": "electric_scooter"}, {"bike_id": "81356f0670669a7a25408b970835e0a2", "is_reserved": 0, "fusion_lon": 0.0, "lat": 38.862102166666666, "is_disabled": 0, "name": "81356f0670669a7a25408b970835e0a2", "fusion_lat": 0.0, "rental_uris": {"ios": "https://dc.lft.to/lastmile_qr_scan", "android": "https://dc.lft.to/lastmile_qr_scan"}, "lon": -76.9946855, "type": "electric_scooter"}, {"bike_id": "f60464e42928b6648c89cb9daafaa016", "is_reserved": 0, "fusion_lon": 0.0, "lat": 38.91808483333333, "is_disabled": 0, "name": "f60464e42928b6648c89cb9daafaa016", "fusion_lat": 0.0, "rental_uris": {"ios": "https://dc.lft.to/lastmile_qr_scan", "android": "https://dc.lft.to/lastmile_qr_scan"}, "lon": -77.03306733333334, "type": "electric_scooter"}, {"bike_id": "e328992b145c3eef7f31a69603609d5a", "is_reserved": 0, "fusion_lon": 0.0, "lat": 38.908119, "is_disabled": 0, "name": "e328992b145c3eef7f31a69603609d5a", "fusion_lat": 0.0, "rental_uris": {"ios": "https://dc.lft.to/lastmile_qr_scan", "android": "https://dc.lft.to/lastmile_qr_scan"}, "lon": -77.04202233333334, "type": "electric_scooter"}, {"bike_id": "6b39fc6bb2e112dbe692923d772e1b44", "is_reserved": 0, "fusion_lon": 0.0, "lat": 38.93663033333333, "is_disabled": 0, "name": "6b39fc6bb2e112dbe692923d772e1b44", "fusion_lat": 0.0, "rental_uris": {"ios": "https://dc.lft.to/lastmile_qr_scan", "android": "https://dc.lft.to/lastmile_qr_scan"}, "lon": -77.05932983333334, "type": "electric_scooter"}, {"bike_id": "827e06218fe2d67a65c14978feda2873", "is_reserved": 0, "fusion_lon": 0.0, "lat": 38.90279616666667, "is_disabled": 0, "name": "827e06218fe2d67a65c14978feda2873", "fusion_lat": 0.0, "rental_uris": {"ios": "https://dc.lft.to/lastmile_qr_scan", "android": "https://dc.lft.to/lastmile_qr_scan"}, "lon": -77.0337305, "type": "electric_scooter"}, {"bike_id": "aa4cc5fc5b6a54ee48630b1c5a196a3a", "is_reserved": 0, "fusion_lon": 0.0, "lat": 38.929251, "is_disabled": 0, "name": "aa4cc5fc5b6a54ee48630b1c5a196a3a", "fusion_lat": 0.0, "rental_uris": {"ios": "https://dc.lft.to/lastmile_qr_scan", "android": "https://dc.lft.to/lastmile_qr_scan"}, "lon": -77.020054, "type": "electric_scooter"}, {"bike_id": "55d03dfb866de1a0adf51c86c7a59902", "is_reserved": 0, "fusion_lon": 0.0, "lat": 38.89558133333333, "is_disabled": 0, "name": "55d03dfb866de1a0adf51c86c7a59902", "fusion_lat": 0.0, "rental_uris": {"ios": "https://dc.lft.to/lastmile_qr_scan", "android": "https://dc.lft.to/lastmile_qr_scan"}, "lon": -76.95026283333334, "type": "electric_scooter"}, {"bike_id": "01c3a7c9aabb102dd2f6d58868cc830f", "is_reserved": 0, "fusion_lon": 0.0, "lat": 38.92047916666667, "is_disabled": 0, "name": "01c3a7c9aabb102dd2f6d58868cc830f", "fusion_lat": 0.0, "rental_uris": {"ios": "https://dc.lft.to/lastmile_qr_scan", "android": "https://dc.lft.to/lastmile_qr_scan"}, "lon": -77.02434866666667, "type": "electric_scooter"}, {"bike_id": "f4e39d01fa9131a5584f38378880999f", "is_reserved": 0, "fusion_lon": 0.0, "lat": 38.939796666666666, "is_disabled": 0, "name": "f4e39d01fa9131a5584f38378880999f", "fusion_lat": 0.0, "rental_uris": {"ios": "https://dc.lft.to/lastmile_qr_scan", "android": "https://dc.lft.to/lastmile_qr_scan"}, "lon": -77.028874, "type": "electric_scooter"}, {"bike_id": "5a8a1b6db893fbc572bf0d7626795b6b", "is_reserved": 0, "fusion_lon": 0.0, "lat": 38.921761000000004, "is_disabled": 0, "name": "5a8a1b6db893fbc572bf0d7626795b6b", "fusion_lat": 0.0, "rental_uris": {"ios": "https://dc.lft.to/lastmile_qr_scan", "android": "https://dc.lft.to/lastmile_qr_scan"}, "lon": -77.02536616666667, "type": "electric_scooter"}, {"bike_id": "60911f48786b59ddf47c03237880676c", "is_reserved": 0, "fusion_lon": 0.0, "lat": 38.81310783333333, "is_disabled": 0, "name": "60911f48786b59ddf47c03237880676c", "fusion_lat": 0.0, "rental_uris": {"ios": "https://dc.lft.to/lastmile_qr_scan", "android": "https://dc.lft.to/lastmile_qr_scan"}, "lon": -77.05097233333333, "type": "electric_bike"}, {"bike_id": "ec0f5fedddd2486c168660a7406968cf", "is_reserved": 0, "fusion_lon": 0.0, "lat": 38.8798265, "is_disabled": 0, "name": "ec0f5fedddd2486c168660a7406968cf", "fusion_lat": 0.0, "rental_uris": {"ios": "https://dc.lft.to/lastmile_qr_scan", "android": "https://dc.lft.to/lastmile_qr_scan"}, "lon": -77.023981, "type": "electric_scooter"}, {"bike_id": "a268c70e0ab1bf4000a13a4124a80dab", "is_reserved": 0, "fusion_lon": 0.0, "lat": 38.913227166666665, "is_disabled": 0, "name": "a268c70e0ab1bf4000a13a4124a80dab", "fusion_lat": 0.0, "rental_uris": {"ios": "https://dc.lft.to/lastmile_qr_scan", "android": "https://dc.lft.to/lastmile_qr_scan"}, "lon": -77.03260266666666, "type": "electric_scooter"}, {"bike_id": "45799a8941a9829694231a6752f4e965", "is_reserved": 0, "fusion_lon": 0.0, "lat": 38.9170945, "is_disabled": 0, "name": "45799a8941a9829694231a6752f4e965", "fusion_lat": 0.0, "rental_uris": {"ios": "https://dc.lft.to/lastmile_qr_scan", "android": "https://dc.lft.to/lastmile_qr_scan"}, "lon": -77.0254885, "type": "electric_scooter"}, {"bike_id": "b0151cc52498ecaf3010a78d5005ab05", "is_reserved": 0, "fusion_lon": 0.0, "lat": 38.93085083333333, "is_disabled": 0, "name": "b0151cc52498ecaf3010a78d5005ab05", "fusion_lat": 0.0, "rental_uris": {"ios": "https://dc.lft.to/lastmile_qr_scan", "android": "https://dc.lft.to/lastmile_qr_scan"}, "lon": -77.02794166666666, "type": "electric_scooter"}, {"bike_id": "d970f82e846ed61d45b5c322fab96214", "is_reserved": 0, "fusion_lon": 0.0, "lat": 38.924027333333335, "is_disabled": 0, "name": "d970f82e846ed61d45b5c322fab96214", "fusion_lat": 0.0, "rental_uris": {"ios": "https://dc.lft.to/lastmile_qr_scan", "android": "https://dc.lft.to/lastmile_qr_scan"}, "lon": -77.0195055, "type": "electric_scooter"}, {"bike_id": "d12c7f3fce2e902d5ca314ed9ffa117e", "is_reserved": 0, "fusion_lon": 0.0, "lat": 38.930049333333336, "is_disabled": 0, "name": "d12c7f3fce2e902d5ca314ed9ffa117e", "fusion_lat": 0.0, "rental_uris": {"ios": "https://dc.lft.to/lastmile_qr_scan", "android": "https://dc.lft.to/lastmile_qr_scan"}, "lon": -77.0553955, "type": "electric_scooter"}, {"bike_id": "b236e36a5bdf1b073015d13a382d9fe1", "is_reserved": 0, "fusion_lon": 0.0, "lat": 38.88762883333333, "is_disabled": 0, "name": "b236e36a5bdf1b073015d13a382d9fe1", "fusion_lat": 0.0, "rental_uris": {"ios": "https://dc.lft.to/lastmile_qr_scan", "android": "https://dc.lft.to/lastmile_qr_scan"}, "lon": -77.03147833333334, "type": "electric_scooter"}, {"bike_id": "03451fb5d0aeaef48afe87d035dd6254", "is_reserved": 0, "fusion_lon": 0.0, "lat": 38.95642083333333, "is_disabled": 0, "name": "03451fb5d0aeaef48afe87d035dd6254", "fusion_lat": 0.0, "rental_uris": {"ios": "https://dc.lft.to/lastmile_qr_scan", "android": "https://dc.lft.to/lastmile_qr_scan"}, "lon": -76.99796183333333, "type": "electric_scooter"}, {"bike_id": "f7475187db7679f1eea82140b926f2dc", "is_reserved": 0, "fusion_lon": 0.0, "lat": 38.88495783333333, "is_disabled": 0, "name": "f7475187db7679f1eea82140b926f2dc", "fusion_lat": 0.0, "rental_uris": {"ios": "https://dc.lft.to/lastmile_qr_scan", "android": "https://dc.lft.to/lastmile_qr_scan"}, "lon": -77.00728833333334, "type": "electric_scooter"}, {"bike_id": "b45d046ee700764512e76456717c04e7", "is_reserved": 0, "fusion_lon": 0.0, "lat": 38.89344766666667, "is_disabled": 0, "name": "b45d046ee700764512e76456717c04e7", "fusion_lat": 0.0, "rental_uris": {"ios": "https://dc.lft.to/lastmile_qr_scan", "android": "https://dc.lft.to/lastmile_qr_scan"}, "lon": -77.02855083333333, "type": "electric_scooter"}, {"bike_id": "fab49e39088fa494e64e022998de23e1", "is_reserved": 0, "fusion_lon": 0.0, "lat": 38.909733, "is_disabled": 0, "name": "fab49e39088fa494e64e022998de23e1", "fusion_lat": 0.0, "rental_uris": {"ios": "https://dc.lft.to/lastmile_qr_scan", "android": "https://dc.lft.to/lastmile_qr_scan"}, "lon": -77.038653, "type": "electric_scooter"}, {"bike_id": "20d82adfbcb746e22503bbee301f4876", "is_reserved": 0, "fusion_lon": 0.0, "lat": 38.887452, "is_disabled": 0, "name": "20d82adfbcb746e22503bbee301f4876", "fusion_lat": 0.0, "rental_uris": {"ios": "https://dc.lft.to/lastmile_qr_scan", "android": "https://dc.lft.to/lastmile_qr_scan"}, "lon": -77.02023483333333, "type": "electric_scooter"}, {"bike_id": "3478a21348b9a7c13dc0c806f69473f4", "is_reserved": 0, "fusion_lon": 0.0, "lat": 38.937739, "is_disabled": 0, "name": "3478a21348b9a7c13dc0c806f69473f4", "fusion_lat": 0.0, "rental_uris": {"ios": "https://dc.lft.to/lastmile_qr_scan", "android": "https://dc.lft.to/lastmile_qr_scan"}, "lon": -77.0191105, "type": "electric_bike"}, {"bike_id": "0fe77aa8307ab8408c5f63100295d203", "is_reserved": 0, "fusion_lon": 0.0, "lat": 38.883419333333336, "is_disabled": 0, "name": "0fe77aa8307ab8408c5f63100295d203", "fusion_lat": 0.0, "rental_uris": {"ios": "https://dc.lft.to/lastmile_qr_scan", "android": "https://dc.lft.to/lastmile_qr_scan"}, "lon": -76.99346533333333, "type": "electric_scooter"}, {"bike_id": "4d754dde7cea29b038a33c617824368a", "is_reserved": 0, "fusion_lon": 0.0, "lat": 38.905159, "is_disabled": 0, "name": "4d754dde7cea29b038a33c617824368a", "fusion_lat": 0.0, "rental_uris": {"ios": "https://dc.lft.to/lastmile_qr_scan", "android": "https://dc.lft.to/lastmile_qr_scan"}, "lon": -77.06789366666666, "type": "electric_bike"}, {"bike_id": "7ee2f530989ef20f83d32f49b2b87e0d", "is_reserved": 0, "fusion_lon": 0.0, "lat": 38.91712116666667, "is_disabled": 0, "name": "7ee2f530989ef20f83d32f49b2b87e0d", "fusion_lat": 0.0, "rental_uris": {"ios": "https://dc.lft.to/lastmile_qr_scan", "android": "https://dc.lft.to/lastmile_qr_scan"}, "lon": -77.02905616666666, "type": "electric_scooter"}, {"bike_id": "dcaf027d8a792e52fe531204d0f03a5b", "is_reserved": 0, "fusion_lon": 0.0, "lat": 38.95651816666667, "is_disabled": 0, "name": "dcaf027d8a792e52fe531204d0f03a5b", "fusion_lat": 0.0, "rental_uris": {"ios": "https://dc.lft.to/lastmile_qr_scan", "android": "https://dc.lft.to/lastmile_qr_scan"}, "lon": -77.03286066666666, "type": "electric_scooter"}, {"bike_id": "e549690fc07ad3628a1c5b706a77d776", "is_reserved": 0, "fusion_lon": 0.0, "lat": 38.827873833333335, "is_disabled": 0, "name": "e549690fc07ad3628a1c5b706a77d776", "fusion_lat": 0.0, "rental_uris": {"ios": "https://dc.lft.to/lastmile_qr_scan", "android": "https://dc.lft.to/lastmile_qr_scan"}, "lon": -77.00917233333334, "type": "electric_bike"}, {"bike_id": "a6607524dfb7b1064f94fa42e3c29d68", "is_reserved": 0, "fusion_lon": 0.0, "lat": 39.003782666666666, "is_disabled": 0, "name": "a6607524dfb7b1064f94fa42e3c29d68", "fusion_lat": 0.0, "rental_uris": {"ios": "https://dc.lft.to/lastmile_qr_scan", "android": "https://dc.lft.to/lastmile_qr_scan"}, "lon": -77.01285566666667, "type": "electric_bike"}, {"bike_id": "749283990eb1550857f9c94c08dda5c0", "is_reserved": 0, "fusion_lon": 0.0, "lat": 38.88493583333333, "is_disabled": 0, "name": "749283990eb1550857f9c94c08dda5c0", "fusion_lat": 0.0, "rental_uris": {"ios": "https://dc.lft.to/lastmile_qr_scan", "android": "https://dc.lft.to/lastmile_qr_scan"}, "lon": -77.0071955, "type": "electric_scooter"}, {"bike_id": "fa4fbac5fa262db6481bfb0bc04fcd0d", "is_reserved": 0, "fusion_lon": 0.0, "lat": 38.90090683333333, "is_disabled": 0, "name": "fa4fbac5fa262db6481bfb0bc04fcd0d", "fusion_lat": 0.0, "rental_uris": {"ios": "https://dc.lft.to/lastmile_qr_scan", "android": "https://dc.lft.to/lastmile_qr_scan"}, "lon": -77.0477785, "type": "electric_scooter"}, {"bike_id": "6451d61d6ad9a7ae6e8c59bad27259e3", "is_reserved": 0, "fusion_lon": 0.0, "lat": 38.925839, "is_disabled": 0, "name": "6451d61d6ad9a7ae6e8c59bad27259e3", "fusion_lat": 0.0, "rental_uris": {"ios": "https://dc.lft.to/lastmile_qr_scan", "android": "https://dc.lft.to/lastmile_qr_scan"}, "lon": -77.00469533333333, "type": "electric_scooter"}, {"bike_id": "2fa87b1c533a958028017ba27fc53d86", "is_reserved": 0, "fusion_lon": 0.0, "lat": 38.9043535, "is_disabled": 0, "name": "2fa87b1c533a958028017ba27fc53d86", "fusion_lat": 0.0, "rental_uris": {"ios": "https://dc.lft.to/lastmile_qr_scan", "android": "https://dc.lft.to/lastmile_qr_scan"}, "lon": -77.048553, "type": "electric_scooter"}, {"bike_id": "12d4a2ca3553628dfbda9462dd7db9e3", "is_reserved": 0, "fusion_lon": 0.0, "lat": 38.89899616666667, "is_disabled": 0, "name": "12d4a2ca3553628dfbda9462dd7db9e3", "fusion_lat": 0.0, "rental_uris": {"ios": "https://dc.lft.to/lastmile_qr_scan", "android": "https://dc.lft.to/lastmile_qr_scan"}, "lon": -77.032698, "type": "electric_scooter"}, {"bike_id": "e1e0a45f53af80be442e5e55efe7e347", "is_reserved": 0, "fusion_lon": 0.0, "lat": 38.893444833333334, "is_disabled": 0, "name": "e1e0a45f53af80be442e5e55efe7e347", "fusion_lat": 0.0, "rental_uris": {"ios": "https://dc.lft.to/lastmile_qr_scan", "android": "https://dc.lft.to/lastmile_qr_scan"}, "lon": -76.98448316666666, "type": "electric_scooter"}, {"bike_id": "64ffc8b8badcc5e1e4848fdd63525934", "is_reserved": 0, "fusion_lon": 0.0, "lat": 38.885256166666665, "is_disabled": 0, "name": "64ffc8b8badcc5e1e4848fdd63525934", "fusion_lat": 0.0, "rental_uris": {"ios": "https://dc.lft.to/lastmile_qr_scan", "android": "https://dc.lft.to/lastmile_qr_scan"}, "lon": -77.01536233333333, "type": "electric_scooter"}, {"bike_id": "f1005b7d0a0a0ad7df44283114ec955e", "is_reserved": 0, "fusion_lon": 0.0, "lat": 38.890281333333334, "is_disabled": 0, "name": "f1005b7d0a0a0ad7df44283114ec955e", "fusion_lat": 0.0, "rental_uris": {"ios": "https://dc.lft.to/lastmile_qr_scan", "android": "https://dc.lft.to/lastmile_qr_scan"}, "lon": -76.93624716666666, "type": "electric_scooter"}, {"bike_id": "ac1e2573a7615a2795984e5f127248a8", "is_reserved": 0, "fusion_lon": 0.0, "lat": 38.9133225, "is_disabled": 0, "name": "ac1e2573a7615a2795984e5f127248a8", "fusion_lat": 0.0, "rental_uris": {"ios": "https://dc.lft.to/lastmile_qr_scan", "android": "https://dc.lft.to/lastmile_qr_scan"}, "lon": -77.04870733333334, "type": "electric_scooter"}, {"bike_id": "9fdf1156efde8a065b0ecab836095a3a", "is_reserved": 0, "fusion_lon": 0.0, "lat": 38.92623416666667, "is_disabled": 0, "name": "9fdf1156efde8a065b0ecab836095a3a", "fusion_lat": 0.0, "rental_uris": {"ios": "https://dc.lft.to/lastmile_qr_scan", "android": "https://dc.lft.to/lastmile_qr_scan"}, "lon": -77.0379505, "type": "electric_scooter"}, {"bike_id": "7b1768c97e56d626b2338196c3869456", "is_reserved": 0, "fusion_lon": 0.0, "lat": 38.935848666666665, "is_disabled": 0, "name": "7b1768c97e56d626b2338196c3869456", "fusion_lat": 0.0, "rental_uris": {"ios": "https://dc.lft.to/lastmile_qr_scan", "android": "https://dc.lft.to/lastmile_qr_scan"}, "lon": -77.02765483333333, "type": "electric_scooter"}, {"bike_id": "b21251cd0ab16445951f82a0d7cf764f", "is_reserved": 0, "fusion_lon": 0.0, "lat": 38.927355166666665, "is_disabled": 0, "name": "b21251cd0ab16445951f82a0d7cf764f", "fusion_lat": 0.0, "rental_uris": {"ios": "https://dc.lft.to/lastmile_qr_scan", "android": "https://dc.lft.to/lastmile_qr_scan"}, "lon": -77.0296065, "type": "electric_scooter"}, {"bike_id": "955d71bf2a6bee9a5cef331c7c19bdcd", "is_reserved": 0, "fusion_lon": 0.0, "lat": 38.8531025, "is_disabled": 0, "name": "955d71bf2a6bee9a5cef331c7c19bdcd", "fusion_lat": 0.0, "rental_uris": {"ios": "https://dc.lft.to/lastmile_qr_scan", "android": "https://dc.lft.to/lastmile_qr_scan"}, "lon": -76.98029083333333, "type": "electric_bike"}, {"bike_id": "ad74a480f8c06b08f20deeafe258464f", "is_reserved": 0, "fusion_lon": 0.0, "lat": 38.970860333333334, "is_disabled": 0, "name": "ad74a480f8c06b08f20deeafe258464f", "fusion_lat": 0.0, "rental_uris": {"ios": "https://dc.lft.to/lastmile_qr_scan", "android": "https://dc.lft.to/lastmile_qr_scan"}, "lon": -77.06969866666667, "type": "electric_bike"}, {"bike_id": "26a3e7180e6d7f0e2fb3a243b6b19a2a", "is_reserved": 0, "fusion_lon": 0.0, "lat": 38.9001355, "is_disabled": 0, "name": "26a3e7180e6d7f0e2fb3a243b6b19a2a", "fusion_lat": 0.0, "rental_uris": {"ios": "https://dc.lft.to/lastmile_qr_scan", "android": "https://dc.lft.to/lastmile_qr_scan"}, "lon": -76.99118066666666, "type": "electric_scooter"}, {"bike_id": "d9a2fcc7d0fce52c17d5308a96d10006", "is_reserved": 0, "fusion_lon": 0.0, "lat": 38.917192166666666, "is_disabled": 0, "name": "d9a2fcc7d0fce52c17d5308a96d10006", "fusion_lat": 0.0, "rental_uris": {"ios": "https://dc.lft.to/lastmile_qr_scan", "android": "https://dc.lft.to/lastmile_qr_scan"}, "lon": -77.03460233333334, "type": "electric_scooter"}, {"bike_id": "9c758bb2a7275d674b9217b5494f2f6e", "is_reserved": 0, "fusion_lon": 0.0, "lat": 38.876622833333336, "is_disabled": 0, "name": "9c758bb2a7275d674b9217b5494f2f6e", "fusion_lat": 0.0, "rental_uris": {"ios": "https://dc.lft.to/lastmile_qr_scan", "android": "https://dc.lft.to/lastmile_qr_scan"}, "lon": -77.0040035, "type": "electric_scooter"}, {"bike_id": "c7989bd2bb3decb80551a140860021cc", "is_reserved": 0, "fusion_lon": 0.0, "lat": 38.898467333333336, "is_disabled": 0, "name": "c7989bd2bb3decb80551a140860021cc", "fusion_lat": 0.0, "rental_uris": {"ios": "https://dc.lft.to/lastmile_qr_scan", "android": "https://dc.lft.to/lastmile_qr_scan"}, "lon": -76.94476033333333, "type": "electric_scooter"}, {"bike_id": "6858735cb2581c06b918015fb1cee2fe", "is_reserved": 0, "fusion_lon": 0.0, "lat": 39.094561, "is_disabled": 0, "name": "6858735cb2581c06b918015fb1cee2fe", "fusion_lat": 0.0, "rental_uris": {"ios": "https://dc.lft.to/lastmile_qr_scan", "android": "https://dc.lft.to/lastmile_qr_scan"}, "lon": -77.14996333333333, "type": "electric_bike"}, {"bike_id": "a6f7459f3ce49b206ae274d296ec2f02", "is_reserved": 0, "fusion_lon": 0.0, "lat": 38.90549633333333, "is_disabled": 0, "name": "a6f7459f3ce49b206ae274d296ec2f02", "fusion_lat": 0.0, "rental_uris": {"ios": "https://dc.lft.to/lastmile_qr_scan", "android": "https://dc.lft.to/lastmile_qr_scan"}, "lon": -77.02708166666666, "type": "electric_scooter"}, {"bike_id": "3282aedca05f3209cd0218380f520ca1", "is_reserved": 0, "fusion_lon": 0.0, "lat": 38.8278745, "is_disabled": 0, "name": "3282aedca05f3209cd0218380f520ca1", "fusion_lat": 0.0, "rental_uris": {"ios": "https://dc.lft.to/lastmile_qr_scan", "android": "https://dc.lft.to/lastmile_qr_scan"}, "lon": -77.00907583333333, "type": "electric_bike"}, {"bike_id": "0713f78bd8eea98aa7c7836fdc8518ee", "is_reserved": 0, "fusion_lon": 0.0, "lat": 38.8406245, "is_disabled": 0, "name": "0713f78bd8eea98aa7c7836fdc8518ee", "fusion_lat": 0.0, "rental_uris": {"ios": "https://dc.lft.to/lastmile_qr_scan", "android": "https://dc.lft.to/lastmile_qr_scan"}, "lon": -77.06402866666667, "type": "electric_bike"}, {"bike_id": "68e4ed1675b37a59fa2375ff621038de", "is_reserved": 0, "fusion_lon": 0.0, "lat": 38.86952933333333, "is_disabled": 0, "name": "68e4ed1675b37a59fa2375ff621038de", "fusion_lat": 0.0, "rental_uris": {"ios": "https://dc.lft.to/lastmile_qr_scan", "android": "https://dc.lft.to/lastmile_qr_scan"}, "lon": -76.96070333333333, "type": "electric_bike"}, {"bike_id": "90c6ea89d73d5dee1cbe0ab090049243", "is_reserved": 0, "fusion_lon": 0.0, "lat": 38.9000615, "is_disabled": 0, "name": "90c6ea89d73d5dee1cbe0ab090049243", "fusion_lat": 0.0, "rental_uris": {"ios": "https://dc.lft.to/lastmile_qr_scan", "android": "https://dc.lft.to/lastmile_qr_scan"}, "lon": -76.99790433333334, "type": "electric_scooter"}, {"bike_id": "5366d116c8e234834351759bad3d07e4", "is_reserved": 0, "fusion_lon": 0.0, "lat": 38.9215045, "is_disabled": 0, "name": "5366d116c8e234834351759bad3d07e4", "fusion_lat": 0.0, "rental_uris": {"ios": "https://dc.lft.to/lastmile_qr_scan", "android": "https://dc.lft.to/lastmile_qr_scan"}, "lon": -77.03530233333333, "type": "electric_scooter"}, {"bike_id": "ccdf6261282dffae1bf9d1cdd042b6ce", "is_reserved": 0, "fusion_lon": 0.0, "lat": 38.92725016666667, "is_disabled": 0, "name": "ccdf6261282dffae1bf9d1cdd042b6ce", "fusion_lat": 0.0, "rental_uris": {"ios": "https://dc.lft.to/lastmile_qr_scan", "android": "https://dc.lft.to/lastmile_qr_scan"}, "lon": -77.00565433333334, "type": "electric_scooter"}, {"bike_id": "fd2ed7cb3f2809c52a726a018ff6ccdc", "is_reserved": 0, "fusion_lon": 0.0, "lat": 38.88530183333334, "is_disabled": 0, "name": "fd2ed7cb3f2809c52a726a018ff6ccdc", "fusion_lat": 0.0, "rental_uris": {"ios": "https://dc.lft.to/lastmile_qr_scan", "android": "https://dc.lft.to/lastmile_qr_scan"}, "lon": -76.98156466666667, "type": "electric_scooter"}, {"bike_id": "2b0166b0940ce9ba15ff1f816d0c155c", "is_reserved": 0, "fusion_lon": 0.0, "lat": 38.9236765, "is_disabled": 0, "name": "2b0166b0940ce9ba15ff1f816d0c155c", "fusion_lat": 0.0, "rental_uris": {"ios": "https://dc.lft.to/lastmile_qr_scan", "android": "https://dc.lft.to/lastmile_qr_scan"}, "lon": -77.019122, "type": "electric_scooter"},