{"data": {"bikes": [{"rental_uris": {"ios": "https://dc.lft.to/lastmile_qr_scan", "android": "https://dc.lft.to/lastmile_qr_scan"}, "lon": -76.931132, "type": "electric_scooter", "fusion_lat": 0.0, "lat": 38.898370166666666, "name": "9e17f9a09cc354b12fe4832947f28a16", "fusion_lon": 0.0, "bike_id": "9e17f9a09cc354b12fe4832947f28a16", "is_disabled": 0, "is_reserved": 0}, {"rental_uris": {"ios": "https://dc.lft.to/lastmile_qr_scan", "android": "https://dc.lft.to/lastmile_qr_scan"}, "lon": -77.02681483333333, "type": "electric_scooter", "fusion_lat": 0.0, "lat": 38.89227916666667, "name": "496d97eccd1548ce6ac208d2ed04d205", "fusion_lon": 0.0, "bike_id": "496d97eccd1548ce6ac208d2ed04d205", "is_disabled": 0, "is_reserved": 0}, {"rental_uris": {"ios": "https://dc.lft.to/lastmile_qr_scan", "android": "https://dc.lft.to/lastmile_qr_scan"}, "lon": -76.9968, "type": "electric_scooter", "fusion_lat": 0.0, "lat": 38.9101885, "name": "38fdbac2885e93d0555740b98e7e2df5", "fusion_lon": 0.0, "bike_id": "38fdbac2885e93d0555740b98e7e2df5", "is_disabled": 0, "is_reserved": 0}, {"rental_uris": {"ios": "https://dc.lft.to/lastmile_qr_scan", "android": "https://dc.lft.to/lastmile_qr_scan"}, "lon": -77.03181583333334, "type": "electric_scooter", "fusion_lat": 0.0, "lat": 38.917950833333336, "name": "c92c22768b32ba23d0e6d82295154af4", "fusion_lon": 0.0, "bike_id": "c92c22768b32ba23d0e6d82295154af4", "is_disabled": 0, "is_reserved": 0}, {"rental_uris": {"ios": "https://dc.lft.to/lastmile_qr_scan", "android": "https://dc.lft.to/lastmile_qr_scan"}, "lon": -76.995623, "type": "electric_scooter", "fusion_lat": 0.0, "lat": 38.9287315, "name": "82b9e7aa8c193457a612e77c2087b304", "fusion_lon": 0.0, "bike_id": "82b9e7aa8c193457a612e77c2087b304", "is_disabled": 0, "is_reserved": 0}, {"rental_uris": {"ios": "https://dc.lft.to/lastmile_qr_scan", "android": "https://dc.lft.to/lastmile_qr_scan"}, "lon": -77.025874, "type": "electric_scooter", "fusion_lat": 0.0, "lat": 38.8925165, "name": "c3a89e19dcabfaac41bce790beefdbf0", "fusion_lon": 0.0, "bike_id": "c3a89e19dcabfaac41bce790beefdbf0", "is_disabled": 0, "is_reserved": 0}, {"rental_uris": {"ios": "https://dc.lft.to/lastmile_qr_scan", "android": "https://dc.lft.to/lastmile_qr_scan"}, "lon": -77.04174416666666, "type": "electric_scooter", "fusion_lat": 0.0, "lat": 38.919272166666666, "name": "830a482c2cffe0ae6d0a10ad0a72940f", "fusion_lon": 0.0, "bike_id": "830a482c2cffe0ae6d0a10ad0a72940f", "is_disabled": 0, "is_reserved": 0}, {"rental_uris": {"ios": "https://dc.lft.to/lastmile_qr_scan", "android": "https://dc.lft.to/lastmile_qr_scan"}, "lon": -77.034437, "type": "electric_scooter", "fusion_lat": 0.0, "lat": 38.90553416666667, "name": "c051cbc703b048c4dfac2e46d51c4202", "fusion_lon": 0.0, "bike_id": "c051cbc703b048c4dfac2e46d51c4202", "is_disabled": 0, "is_reserved": 0}, {"rental_uris": {"ios": "https://dc.lft.to/lastmile_qr_scan", "android": "https://dc.lft.to/lastmile_qr_scan"}, "lon": -76.93875933333334, "type": "electric_scooter", "fusion_lat": 0.0, "lat": 38.90090083333333, "name": "c4455d8e88f3484f6e9576ad531d6ca7", "fusion_lon": 0.0, "bike_id": "c4455d8e88f3484f6e9576ad531d6ca7", "is_disabled": 0, "is_reserved": 0}, {"rental_uris": {"ios": "https://dc.lft.to/lastmile_qr_scan", "android": "https://dc.lft.to/lastmile_qr_scan"}, "lon": -77.00619066666667, "type": "electric_scooter", "fusion_lat": 0.0, "lat": 38.90261866666667, "name": "6e6326d077a7759f8b23e90e65d6c344", "fusion_lon": 0.0, "bike_id": "6e6326d077a7759f8b23e90e65d6c344", "is_disabled": 0, "is_reserved": 0}, {"rental_uris": {"ios": "https://dc.lft.to/lastmile_qr_scan", "android": "https://dc.lft.to/lastmile_qr_scan"}, "lon": -76.93159466666667, "type": "electric_scooter", "fusion_lat": 0.0, "lat": 38.898815666666664, "name": "9649690395070c53640f914ac945387b", "fusion_lon": 0.0, "bike_id": "9649690395070c53640f914ac945387b", "is_disabled": 0, "is_reserved": 0}, {"rental_uris": {"ios": "https://dc.lft.to/lastmile_qr_scan", "android": "https://dc.lft.to/lastmile_qr_scan"}, "lon": -77.11218316666667, "type": "electric_bike", "fusion_lat": 0.0, "lat": 38.82879066666667, "name": "d1f63e5f79b1e27711f80af1826f484f", "fusion_lon": 0.0, "bike_id": "d1f63e5f79b1e27711f80af1826f484f", "is_disabled": 0, "is_reserved": 0}, {"rental_uris": {"ios": "https://dc.lft.to/lastmile_qr_scan", "android": "https://dc.lft.to/lastmile_qr_scan"}, "lon": -77.03206633333333, "type": "electric_scooter", "fusion_lat": 0.0, "lat": 38.91787516666667, "name": "82ac093731ac6f763659151bc2a8eea3", "fusion_lon": 0.0, "bike_id": "82ac093731ac6f763659151bc2a8eea3", "is_disabled": 0, "is_reserved": 0}, {"rental_uris": {"ios": "https://dc.lft.to/lastmile_qr_scan", "android": "https://dc.lft.to/lastmile_qr_scan"}, "lon": -76.9918035, "type": "electric_scooter", "fusion_lat": 0.0, "lat": 38.90460133333333, "name": "8872bcc942efdf9a2e1d2bf3f348ef26", "fusion_lon": 0.0, "bike_id": "8872bcc942efdf9a2e1d2bf3f348ef26", "is_disabled": 0, "is_reserved": 0}, {"rental_uris": {"ios": "https://dc.lft.to/lastmile_qr_scan", "android": "https://dc.lft.to/lastmile_qr_scan"}, "lon": -77.00372316666666, "type": "electric_scooter", "fusion_lat": 0.0, "lat": 38.87668433333333, "name": "72866bca11ec3b98b2640abfcd927050", "fusion_lon": 0.0, "bike_id": "72866bca11ec3b98b2640abfcd927050", "is_disabled": 0, "is_reserved": 0}, {"rental_uris": {"ios": "https://dc.lft.to/lastmile_qr_scan", "android": "https://dc.lft.to/lastmile_qr_scan"}, "lon": -77.02701366666666, "type": "electric_scooter", "fusion_lat": 0.0, "lat": 38.916307833333335, "name": "e55e0a3f2eb3c0f40b6d1778c3f0baa5", "fusion_lon": 0.0, "bike_id": "e55e0a3f2eb3c0f40b6d1778c3f0baa5", "is_disabled": 0, "is_reserved": 0}, {"rental_uris": {"ios": "https://dc.lft.to/lastmile_qr_scan", "android": "https://dc.lft.to/lastmile_qr_scan"}, "lon": -76.874981, "type": "electric_bike", "fusion_lat": 0.0, "lat": 38.990930166666665, "name": "8d1e9d5835ea65a5a4bf67da699d3427", "fusion_lon": 0.0, "bike_id": "8d1e9d5835ea65a5a4bf67da699d3427", "is_disabled": 0, "is_reserved": 0}, {"rental_uris": {"ios": "https://dc.lft.to/lastmile_qr_scan", "android": "https://dc.lft.to/lastmile_qr_scan"}, "lon": -77.04264083333334, "type": "electric_scooter", "fusion_lat": 0.0, "lat": 38.922464, "name": "5d3220f22d4480d59774c5d3e9ddca9b", "fusion_lon": 0.0, "bike_id": "5d3220f22d4480d59774c5d3e9ddca9b", "is_disabled": 0, "is_reserved": 0}, {"rental_uris": {"ios": "https://dc.lft.to/lastmile_qr_scan", "android": "https://dc.lft.to/lastmile_qr_scan"}, "lon": -77.02806316666667, "type": "electric_scooter", "fusion_lat": 0.0, "lat": 38.91021833333333, "name": "be93d2dca925106cf72475de1ec08c46", "fusion_lon": 0.0, "bike_id": "be93d2dca925106cf72475de1ec08c46", "is_disabled": 0, "is_reserved": 0}, {"rental_uris": {"ios": "https://dc.lft.to/lastmile_qr_scan", "android": "https://dc.lft.to/lastmile_qr_scan"}, "lon": -77.0853805, "type": "electric_bike", "fusion_lat": 0.0, "lat": 38.85624166666667, "name": "d4d980f192339330b53c4f9a09bd3410", "fusion_lon": 0.0, "bike_id": "d4d980f192339330b53c4f9a09bd3410", "is_disabled": 0, "is_reserved": 0}, {"rental_uris": {"ios": "https://dc.lft.to/lastmile_qr_scan", "android": "https://dc.lft.to/lastmile_qr_scan"}, "lon": -77.02176666666666, "type": "electric_scooter", "fusion_lat": 0.0, "lat": 38.916879, "name": "bb45bb235f20ba8dd8f01752e507b10d", "fusion_lon": 0.0, "bike_id": "bb45bb235f20ba8dd8f01752e507b10d", "is_disabled": 0, "is_reserved": 0}, {"rental_uris": {"ios": "https://dc.lft.to/lastmile_qr_scan", "android": "https://dc.lft.to/lastmile_qr_scan"}, "lon": -77.03351466666666, "type": "electric_scooter", "fusion_lat": 0.0, "lat": 38.8851005, "name": "0e45eab068ab2151d3575a91aa9ee94e", "fusion_lon": 0.0, "bike_id": "0e45eab068ab2151d3575a91aa9ee94e", "is_disabled": 0, "is_reserved": 0}, {"rental_uris": {"ios": "https://dc.lft.to/lastmile_qr_scan", "android": "https://dc.lft.to/lastmile_qr_scan"}, "lon": -77.03469466666667, "type": "electric_scooter", "fusion_lat": 0.0, "lat": 38.934437833333334, "name": "00cffce5fe2b59da7027c1bc8ab56619", "fusion_lon": 0.0, "bike_id": "00cffce5fe2b59da7027c1bc8ab56619", "is_disabled": 0, "is_reserved": 0}, {"rental_uris": {"ios": "https://dc.lft.to/lastmile_qr_scan", "android": "https://dc.lft.to/lastmile_qr_scan"}, "lon": -77.02625816666666, "type": "electric_bike", "fusion_lat": 0.0, "lat": 38.96223616666666, "name": "d10bb3bf6947e953bb4e499338eb3ae6", "fusion_lon": 0.0, "bike_id": "d10bb3bf6947e953bb4e499338eb3ae6", "is_disabled": 0, "is_reserved": 0}, {"rental_uris": {"ios": "https://dc.lft.to/lastmile_qr_scan", "android": "https://dc.lft.to/lastmile_qr_scan"}, "lon": -77.02190416666667, "type": "electric_scooter", "fusion_lat": 0.0, "lat": 38.915752499999996, "name": "93c2a2554c4f3db2fb01fe0fc2e417f9", "fusion_lon": 0.0, "bike_id": "93c2a2554c4f3db2fb01fe0fc2e417f9", "is_disabled": 0, "is_reserved": 0}, {"rental_uris": {"ios": "https://dc.lft.to/lastmile_qr_scan", "android": "https://dc.lft.to/lastmile_qr_scan"}, "lon": -77.04196316666666, "type": "electric_scooter", "fusion_lat": 0.0, "lat": 38.9074505, "name": "40b75bb6a29d5923566f5f3272022c17", "fusion_lon": 0.0, "bike_id": "40b75bb6a29d5923566f5f3272022c17", "is_disabled": 0, "is_reserved": 0}, {"rental_uris": {"ios": "https://dc.lft.to/lastmile_qr_scan", "android": "https://dc.lft.to/lastmile_qr_scan"}, "lon": -77.0150195, "type": "electric_scooter", "fusion_lat": 0.0, "lat": 38.91773666666667, "name": "bc5d20bc1bb9a33f79ea8d86e16afc6d", "fusion_lon": 0.0, "bike_id": "bc5d20bc1bb9a33f79ea8d86e16afc6d", "is_disabled": 0, "is_reserved": 0}, {"rental_uris": {"ios": "https://dc.lft.to/lastmile_qr_scan", "android": "https://dc.lft.to/lastmile_qr_scan"}, "lon": -77.041042, "type": "electric_scooter", "fusion_lat": 0.0, "lat": 38.91859066666667, "name": "7bd1878bf6fca830dc9991b39858f573", "fusion_lon": 0.0, "bike_id": "7bd1878bf6fca830dc9991b39858f573", "is_disabled": 0, "is_reserved": 0}, {"rental_uris": {"ios": "https://dc.lft.to/lastmile_qr_scan", "android": "https://dc.lft.to/lastmile_qr_scan"}, "lon": -77.007281, "type": "electric_scooter", "fusion_lat": 0.0, "lat": 38.8849445, "name": "1ee7948355d70b43a2d0102608057a4a", "fusion_lon": 0.0, "bike_id": "1ee7948355d70b43a2d0102608057a4a", "is_disabled": 0, "is_reserved": 0}, {"rental_uris": {"ios": "https://dc.lft.to/lastmile_qr_scan", "android": "https://dc.lft.to/lastmile_qr_scan"}, "lon": -77.03411716666666, "type": "electric_scooter", "fusion_lat": 0.0, "lat": 38.902624833333334, "name": "6bd679f49aa4e76517c5cc71cb2db4ac", "fusion_lon": 0.0, "bike_id": "6bd679f49aa4e76517c5cc71cb2db4ac", "is_disabled": 0, "is_reserved": 0}, {"rental_uris": {"ios": "https://dc.lft.to/lastmile_qr_scan", "android": "https://dc.lft.to/lastmile_qr_scan"}, "lon": -77.02813016666667, "type": "electric_scooter", "fusion_lat": 0.0, "lat": 38.91017166666666, "name": "435f29ad1b390d9299440f30a5d9908b", "fusion_lon": 0.0, "bike_id": "435f29ad1b390d9299440f30a5d9908b", "is_disabled": 0, "is_reserved": 0}, {"rental_uris": {"ios": "https://dc.lft.to/lastmile_qr_scan", "android": "https://dc.lft.to/lastmile_qr_scan"}, "lon": -77.03458216666667, "type": "electric_scooter", "fusion_lat": 0.0, "lat": 38.945781333333336, "name": "2c846901bfb2f1c2afc3a671fdca40e6", "fusion_lon": 0.0, "bike_id": "2c846901bfb2f1c2afc3a671fdca40e6", "is_disabled": 0, "is_reserved": 0}, {"rental_uris": {"ios": "https://dc.lft.to/lastmile_qr_scan", "android": "https://dc.lft.to/lastmile_qr_scan"}, "lon": -77.178516, "type": "electric_bike", "fusion_lat": 0.0, "lat": 39.089065, "name": "d33375f101ff6a14f4db7152932b43a4", "fusion_lon": 0.0, "bike_id": "d33375f101ff6a14f4db7152932b43a4", "is_disabled": 0, "is_reserved": 0}, {"rental_uris": {"ios": "https://dc.lft.to/lastmile_qr_scan", "android": "https://dc.lft.to/lastmile_qr_scan"}, "lon": -77.04422466666666, "type": "electric_scooter", "fusion_lat": 0.0, "lat": 38.89230366666666, "name": "ef87b1b2645497f759a9b48ef73556a3", "fusion_lon": 0.0, "bike_id": "ef87b1b2645497f759a9b48ef73556a3", "is_disabled": 0, "is_reserved": 0}, {"rental_uris": {"ios": "https://dc.lft.to/lastmile_qr_scan", "android": "https://dc.lft.to/lastmile_qr_scan"}, "lon": -77.031828, "type": "electric_scooter", "fusion_lat": 0.0, "lat": 38.91561866666667, "name": "1f89017e2ea4d1c1b8ba23e40221d392", "fusion_lon": 0.0, "bike_id": "1f89017e2ea4d1c1b8ba23e40221d392", "is_disabled": 0, "is_reserved": 0}, {"rental_uris": {"ios": "https://dc.lft.to/lastmile_qr_scan", "android": "https://dc.lft.to/lastmile_qr_scan"}, "lon": -77.03603416666667, "type": "electric_scooter", "fusion_lat": 0.0, "lat": 38.956207666666664, "name": "bd190e1ac8ead97ebe82ad1fdcdd0cb3", "fusion_lon": 0.0, "bike_id": "bd190e1ac8ead97ebe82ad1fdcdd0cb3", "is_disabled": 0, "is_reserved": 0}, {"rental_uris": {"ios": "https://dc.lft.to/lastmile_qr_scan", "android": "https://dc.lft.to/lastmile_qr_scan"}, "lon": -77.028938, "type": "electric_scooter", "fusion_lat": 0.0, "lat": 38.95844433333333, "name": "48b5c77490e0c41a4cb4b88f0713ef36", "fusion_lon": 0.0, "bike_id": "48b5c77490e0c41a4cb4b88f0713ef36", "is_disabled": 0, "is_reserved": 0}, {"rental_uris": {"ios": "https://dc.lft.to/lastmile_qr_scan", "android": "https://dc.lft.to/lastmile_qr_scan"}, "lon": -77.01512533333333, "type": "electric_scooter", "fusion_lat": 0.0, "lat": 38.91054966666667, "name": "48845cc49e441985be275fffd662bc6d", "fusion_lon": 0.0, "bike_id": "48845cc49e441985be275fffd662bc6d", "is_disabled": 0, "is_reserved": 0}, {"rental_uris": {"ios": "https://dc.lft.to/lastmile_qr_scan", "android": "https://dc.lft.to/lastmile_qr_scan"}, "lon": -77.03672316666666, "type": "electric_scooter", "fusion_lat": 0.0, "lat": 38.9069125, "name": "7c818ebc7c1f2c46e9628db069d91aae", "fusion_lon": 0.0, "bike_id": "7c818ebc7c1f2c46e9628db069d91aae", "is_disabled": 0, "is_reserved": 0}, {"rental_uris": {"ios": "https://dc.lft.to/lastmile_qr_scan", "android": "https://dc.lft.to/lastmile_qr_scan"}, "lon": -77.01206316666666, "type": "electric_scooter", "fusion_lat": 0.0, "lat": 38.919756166666666, "name": "1958f09a9baa6d74f963b3d2ce79e6b8", "fusion_lon": 0.0, "bike_id": "1958f09a9baa6d74f963b3d2ce79e6b8", "is_disabled": 0, "is_reserved": 0}, {"rental_uris": {"ios": "https://dc.lft.to/lastmile_qr_scan", "android": "https://dc.lft.to/lastmile_qr_scan"}, "lon": -76.98731166666667, "type": "electric_scooter", "fusion_lat": 0.0, "lat": 38.86704983333333, "name": "7f382f07d6d93a5b814837ac8bbfa265", "fusion_lon": 0.0, "bike_id": "7f382f07d6d93a5b814837ac8bbfa265", "is_disabled": 0, "is_reserved": 0}, {"rental_uris": {"ios": "https://dc.lft.to/lastmile_qr_scan", "android": "https://dc.lft.to/lastmile_qr_scan"}, "lon": -77.080809, "type": "electric_bike", "fusion_lat": 0.0, "lat": 38.9069655, "name": "6bdaf9cf927c92de10be156ec5b17ac2", "fusion_lon": 0.0, "bike_id": "6bdaf9cf927c92de10be156ec5b17ac2", "is_disabled": 0, "is_reserved": 0}, {"rental_uris": {"ios": "https://dc.lft.to/lastmile_qr_scan", "android": "https://dc.lft.to/lastmile_qr_scan"}, "lon": -77.02464133333334, "type": "electric_scooter", "fusion_lat": 0.0, "lat": 38.91911316666667, "name": "ed097ff8a2be1aa62bb5e87272dc0895", "fusion_lon": 0.0, "bike_id": "ed097ff8a2be1aa62bb5e87272dc0895", "is_disabled": 0, "is_reserved": 0}, {"rental_uris": {"ios": "https://dc.lft.to/lastmile_qr_scan", "android": "https://dc.lft.to/lastmile_qr_scan"}, "lon": -77.03966616666666, "type": "electric_scooter", "fusion_lat": 0.0, "lat": 38.90135133333333, "name": "85ed86b26092c3684b8634249c9f24a8", "fusion_lon": 0.0, "bike_id": "85ed86b26092c3684b8634249c9f24a8", "is_disabled": 0, "is_reserved": 0}, {"rental_uris": {"ios": "https://dc.lft.to/lastmile_qr_scan", "android": "https://dc.lft.to/lastmile_qr_scan"}, "lon": -77.0883005, "type": "electric_bike", "fusion_lat": 0.0, "lat": 38.9097915, "name": "ba8e98c6e77b0fb3d7c197d41acbad7c", "fusion_lon": 0.0, "bike_id": "ba8e98c6e77b0fb3d7c197d41acbad7c", "is_disabled": 0, "is_reserved": 0}, {"rental_uris": {"ios": "https://dc.lft.to/lastmile_qr_scan", "android": "https://dc.lft.to/lastmile_qr_scan"}, "lon": -76.94756333333333, "type": "electric_scooter", "fusion_lat": 0.0, "lat": 38.896783166666665, "name": "804e2fd1aaa3d47f7eaa47f93b85d1cf", "fusion_lon": 0.0, "bike_id": "804e2fd1aaa3d47f7eaa47f93b85d1cf", "is_disabled": 0, "is_reserved": 0}, {"rental_uris": {"ios": "https://dc.lft.to/lastmile_qr_scan", "android": "https://dc.lft.to/lastmile_qr_scan"}, "lon": -77.06040516666667, "type": "electric_scooter", "fusion_lat": 0.0, "lat": 38.9391655, "name": "81378e860b0c7ef3a3253d91752a3e05", "fusion_lon": 0.0, "bike_id": "81378e860b0c7ef3a3253d91752a3e05", "is_disabled": 0, "is_reserved": 0}, {"rental_uris": {"ios": "https://dc.lft.to/lastmile_qr_scan", "android": "https://dc.lft.to/lastmile_qr_scan"}, "lon": -77.05714083333334, "type": "electric_scooter", "fusion_lat": 0.0, "lat": 38.90490116666667, "name": "86111784565dec82f5fa3770c4fd74c3", "fusion_lon": 0.0, "bike_id": "86111784565dec82f5fa3770c4fd74c3", "is_disabled": 0, "is_reserved": 0}, {"rental_uris": {"ios": "https://dc.lft.to/lastmile_qr_scan", "android": "https://dc.lft.to/lastmile_qr_scan"}, "lon": -77.047903, "type": "electric_scooter", "fusion_lat": 0.0, "lat": 38.909802666666664, "name": "8f2097577707055fc59d880906801458", "fusion_lon": 0.0, "bike_id": "8f2097577707055fc59d880906801458", "is_disabled": 0, "is_reserved": 0}, {"rental_uris": {"ios": "https://dc.lft.to/lastmile_qr_scan", "android": "https://dc.lft.to/lastmile_qr_scan"}, "lon": -77.03387883333333, "type": "electric_scooter", "fusion_lat": 0.0, "lat": 38.88661316666666, "name": "cf79e0ff0d2dea0ac4ebb4a97419e108", "fusion_lon": 0.0, "bike_id": "cf79e0ff0d2dea0ac4ebb4a97419e108", "is_disabled": 0, "is_reserved": 0}, {"rental_uris": {"ios": "https://dc.lft.to/lastmile_qr_scan", "android": "https://dc.lft.to/lastmile_qr_scan"}, "lon": -77.03643866666667, "type": "electric_scooter", "fusion_lat": 0.0, "lat": 38.912469, "name": "fc14cbb1ef44d99272c83c9ecdcf59b0", "fusion_lon": 0.0, "bike_id": "fc14cbb1ef44d99272c83c9ecdcf59b0", "is_disabled": 0, "is_reserved": 0}, {"rental_uris": {"ios": "https://dc.lft.to/lastmile_qr_scan", "android": "https://dc.lft.to/lastmile_qr_scan"}, "lon": -77.01354633333334, "type": "electric_bike", "fusion_lat": 0.0, "lat": 38.91633316666667, "name": "4bbd0434b5b94c4dda5e7ee09095699f", "fusion_lon": 0.0, "bike_id": "4bbd0434b5b94c4dda5e7ee09095699f", "is_disabled": 0, "is_reserved": 0}, {"rental_uris": {"ios": "https://dc.lft.to/lastmile_qr_scan", "android": "https://dc.lft.to/lastmile_qr_scan"}, "lon": -77.02127483333334, "type": "electric_scooter", "fusion_lat": 0.0, "lat": 38.8949375, "name": "da7c1dcad32e30f066f8724d6d300dc0", "fusion_lon": 0.0, "bike_id": "da7c1dcad32e30f066f8724d6d300dc0", "is_disabled": 0, "is_reserved": 0}, {"rental_uris": {"ios": "https://dc.lft.to/lastmile_qr_scan", "android": "https://dc.lft.to/lastmile_qr_scan"}, "lon": -77.05353783333334, "type": "electric_scooter", "fusion_lat": 0.0, "lat": 38.928, "name": "b561e75d9aedc62cee8dcb8d384311bc", "fusion_lon": 0.0, "bike_id": "b561e75d9aedc62cee8dcb8d384311bc", "is_disabled": 0, "is_reserved": 0}, {"rental_uris": {"ios": "https://dc.lft.to/lastmile_qr_scan", "android": "https://dc.lft.to/lastmile_qr_scan"}, "lon": -77.12899316666666, "type": "electric_bike", "fusion_lat": 0.0, "lat": 38.8638085, "name": "8108e8b83f40e6b365b59e2b9482fa88", "fusion_lon": 0.0, "bike_id": "8108e8b83f40e6b365b59e2b9482fa88", "is_disabled": 0, "is_reserved": 0}, {"rental_uris": {"ios": "https://dc.lft.to/lastmile_qr_scan", "android": "https://dc.lft.to/lastmile_qr_scan"}, "lon": -77.05293016666667, "type": "electric_scooter", "fusion_lat": 0.0, "lat": 38.927968166666666, "name": "247de4c95c11e9beb30ba06c94a72cd0", "fusion_lon": 0.0, "bike_id": "247de4c95c11e9beb30ba06c94a72cd0", "is_disabled": 0, "is_reserved": 0}, {"rental_uris": {"ios": "https://dc.lft.to/lastmile_qr_scan", "android": "https://dc.lft.to/lastmile_qr_scan"}, "lon": -77.0037035, "type": "electric_scooter", "fusion_lat": 0.0, "lat": 38.87661383333333, "name": "74f21cfc248d4d8d86d1bb31cdaab22a", "fusion_lon": 0.0, "bike_id": "74f21cfc248d4d8d86d1bb31cdaab22a", "is_disabled": 0, "is_reserved": 0}, {"rental_uris": {"ios": "https://dc.lft.to/lastmile_qr_scan", "android": "https://dc.lft.to/lastmile_qr_scan"}, "lon": -77.0269565, "type": "electric_scooter", "fusion_lat": 0.0, "lat": 38.908744666666664, "name": "a0eb27bcb5b9863e9f23aa4834c21cf9", "fusion_lon": 0.0, "bike_id": "a0eb27bcb5b9863e9f23aa4834c21cf9", "is_disabled": 0, "is_reserved": 0}, {"rental_uris": {"ios": "https://dc.lft.to/lastmile_qr_scan", "android": "https://dc.lft.to/lastmile_qr_scan"}, "lon": -77.02007033333334, "type": "electric_scooter", "fusion_lat": 0.0, "lat": 38.90267133333333, "name": "52ddc15af77e12e974d4b67dce54be52", "fusion_lon": 0.0, "bike_id": "52ddc15af77e12e974d4b67dce54be52", "is_disabled": 0, "is_reserved": 0}, {"rental_uris": {"ios": "https://dc.lft.to/lastmile_qr_scan", "android": "https://dc.lft.to/lastmile_qr_scan"}, "lon": -77.06627466666667, "type": "electric_scooter", "fusion_lat": 0.0, "lat": 38.913758333333334, "name": "cb4f72d8572d0d8001c70090e2cc0869", "fusion_lon": 0.0, "bike_id": "cb4f72d8572d0d8001c70090e2cc0869", "is_disabled": 0, "is_reserved": 0}, {"rental_uris": {"ios": "https://dc.lft.to/lastmile_qr_scan", "android": "https://dc.lft.to/lastmile_qr_scan"}, "lon": -77.01824716666667, "type": "electric_scooter", "fusion_lat": 0.0, "lat": 38.87719283333333, "name": "33ba50d10ba606f34df304044f4e9a6d", "fusion_lon": 0.0, "bike_id": "33ba50d10ba606f34df304044f4e9a6d", "is_disabled": 0, "is_reserved": 0}, {"rental_uris": {"ios": "https://dc.lft.to/lastmile_qr_scan", "android": "https://dc.lft.to/lastmile_qr_scan"}, "lon": -76.98377966666666, "type": "electric_scooter", "fusion_lat": 0.0, "lat": 38.8603775, "name": "07778038ef49513c7bbd38dcc071895f", "fusion_lon": 0.0, "bike_id": "07778038ef49513c7bbd38dcc071895f", "is_disabled": 0, "is_reserved": 0}, {"rental_uris": {"ios": "https://dc.lft.to/lastmile_qr_scan", "android": "https://dc.lft.to/lastmile_qr_scan"}, "lon": -77.02603733333333, "type": "electric_scooter", "fusion_lat": 0.0, "lat": 38.97593783333333, "name": "ef0b3bb4eae0ee8bde0444d15f28a061", "fusion_lon": 0.0, "bike_id": "ef0b3bb4eae0ee8bde0444d15f28a061", "is_disabled": 0, "is_reserved": 0}, {"rental_uris": {"ios": "https://dc.lft.to/lastmile_qr_scan", "android": "https://dc.lft.to/lastmile_qr_scan"}, "lon": -77.02962983333333, "type": "electric_scooter", "fusion_lat": 0.0, "lat": 38.91177116666667, "name": "b0a7180c903b3550e89185767adc30e5", "fusion_lon": 0.0, "bike_id": "b0a7180c903b3550e89185767adc30e5", "is_disabled": 0, "is_reserved": 0}, {"rental_uris": {"ios": "https://dc.lft.to/lastmile_qr_scan", "android": "https://dc.lft.to/lastmile_qr_scan"}, "lon": -77.048851, "type": "electric_scooter", "fusion_lat": 0.0, "lat": 38.906056666666665, "name": "fb1afc1e197fa8752cf33f069eed016a", "fusion_lon": 0.0, "bike_id": "fb1afc1e197fa8752cf33f069eed016a", "is_disabled": 0, "is_reserved": 0}, {"rental_uris": {"ios": "https://dc.lft.to/lastmile_qr_scan", "android": "https://dc.lft.to/lastmile_qr_scan"}, "lon": -77.10892983333333, "type": "electric_bike", "fusion_lat": 0.0, "lat": 38.8304495, "name": "f2983f93de61e5ef3cce8b8918994dc2", "fusion_lon": 0.0, "bike_id": "f2983f93de61e5ef3cce8b8918994dc2", "is_disabled": 0, "is_reserved": 0}, {"rental_uris": {"ios": "https://dc.lft.to/lastmile_qr_scan", "android": "https://dc.lft.to/lastmile_qr_scan"}, "lon": -76.9733295, "type": "electric_scooter", "fusion_lat": 0.0, "lat": 38.90487666666667, "name": "3bda211c629d080a863d80f826de65d4", "fusion_lon": 0.0, "bike_id": "3bda211c629d080a863d80f826de65d4", "is_disabled": 0, "is_reserved": 0}, {"rental_uris": {"ios": "https://dc.lft.to/lastmile_qr_scan", "android": "https://dc.lft.to/lastmile_qr_scan"}, "lon": -77.01105583333333, "type": "electric_bike", "fusion_lat": 0.0, "lat": 38.96313283333333, "name": "442002219d2dd653c9e4ecef47255ddb", "fusion_lon": 0.0, "bike_id": "442002219d2dd653c9e4ecef47255ddb", "is_disabled": 0, "is_reserved": 0}, {"rental_uris": {"ios": "https://dc.lft.to/lastmile_qr_scan", "android": "https://dc.lft.to/lastmile_qr_scan"}, "lon": -77.03343783333334, "type": "electric_scooter", "fusion_lat": 0.0, "lat": 38.92879333333333, "name": "e9ae522542a32c53fedecffd27532793", "fusion_lon": 0.0, "bike_id": "e9ae522542a32c53fedecffd27532793", "is_disabled": 0, "is_reserved": 0}, {"rental_uris": {"ios": "https://dc.lft.to/lastmile_qr_scan", "android": "https://dc.lft.to/lastmile_qr_scan"}, "lon": -77.0013935, "type": "electric_scooter", "fusion_lat": 0.0, "lat": 38.9041345, "name": "8a2e1b99bdd389763e53b14e68d288e9", "fusion_lon": 0.0, "bike_id": "8a2e1b99bdd389763e53b14e68d288e9", "is_disabled": 0, "is_reserved": 0}, {"rental_uris": {"ios": "https://dc.lft.to/lastmile_qr_scan", "android": "https://dc.lft.to/lastmile_qr_scan"}, "lon": -77.0178735, "type": "electric_scooter", "fusion_lat": 0.0, "lat": 38.90409283333334, "name": "8ce2d057c1aa2ab073c8c72087373888", "fusion_lon": 0.0, "bike_id": "8ce2d057c1aa2ab073c8c72087373888", "is_disabled": 0, "is_reserved": 0}, {"rental_uris": {"ios": "https://dc.lft.to/lastmile_qr_scan", "android": "https://dc.lft.to/lastmile_qr_scan"}, "lon": -77.048546, "type": "electric_scooter", "fusion_lat": 0.0, "lat": 38.905363, "name": "c517a625e4f8304e893115a350abc186", "fusion_lon": 0.0, "bike_id": "c517a625e4f8304e893115a350abc186", "is_disabled": 0, "is_reserved": 0}, {"rental_uris": {"ios": "https://dc.lft.to/lastmile_qr_scan", "android": "https://dc.lft.to/lastmile_qr_scan"}, "lon": -76.99148533333333, "type": "electric_scooter", "fusion_lat": 0.0, "lat": 38.89350983333333, "name": "2c190a4326b7be1c014503ba9e4b1d47", "fusion_lon": 0.0, "bike_id": "2c190a4326b7be1c014503ba9e4b1d47", "is_disabled": 0, "is_reserved": 0}, {"rental_uris": {"ios": "https://dc.lft.to/lastmile_qr_scan", "android": "https://dc.lft.to/lastmile_qr_scan"}, "lon": -77.00749983333333, "type": "electric_scooter", "fusion_lat": 0.0, "lat": 38.90495466666667, "name": "c087c8b0ed8b25dc734699474d38e494", "fusion_lon": 0.0, "bike_id": "c087c8b0ed8b25dc734699474d38e494", "is_disabled": 0, "is_reserved": 0}, {"rental_uris": {"ios": "https://dc.lft.to/lastmile_qr_scan", "android": "https://dc.lft.to/lastmile_qr_scan"}, "lon": -77.04495866666667, "type": "electric_scooter", "fusion_lat": 0.0, "lat": 38.9195885, "name": "af3bab8133dfe4e000b0b17ce1cf3c35", "fusion_lon": 0.0, "bike_id": "af3bab8133dfe4e000b0b17ce1cf3c35", "is_disabled": 0, "is_reserved": 0}, {"rental_uris": {"ios": "https://dc.lft.to/lastmile_qr_scan", "android": "https://dc.lft.to/lastmile_qr_scan"}, "lon": -77.04174516666667, "type": "electric_scooter", "fusion_lat": 0.0, "lat": 38.903532166666665, "name": "e252fd3f9a83b723df0b360c1e643f17", "fusion_lon": 0.0, "bike_id": "e252fd3f9a83b723df0b360c1e643f17", "is_disabled": 0, "is_reserved": 0}, {"rental_uris": {"ios": "https://dc.lft.to/lastmile_qr_scan", "android": "https://dc.lft.to/lastmile_qr_scan"}, "lon": -76.98544366666667, "type": "electric_scooter", "fusion_lat": 0.0, "lat": 38.855851666666666, "name": "cbc6beff3984e088b473cf595dfac07c", "fusion_lon": 0.0, "bike_id": "cbc6beff3984e088b473cf595dfac07c", "is_disabled": 0, "is_reserved": 0}, {"rental_uris": {"ios": "https://dc.lft.to/lastmile_qr_scan", "android": "https://dc.lft.to/lastmile_qr_scan"}, "lon": -77.07905616666666, "type": "electric_scooter", "fusion_lat": 0.0, "lat": 38.94807683333333, "name": "fe19ddcb097159e6c5cea663c8af52aa", "fusion_lon": 0.0, "bike_id": "fe19ddcb097159e6c5cea663c8af52aa", "is_disabled": 0, "is_reserved": 0}, {"rental_uris": {"ios": "https://dc.lft.to/lastmile_qr_scan", "android": "https://dc.lft.to/lastmile_qr_scan"}, "lon": -77.01946816666667, "type": "electric_scooter", "fusion_lat": 0.0, "lat": 38.92418466666667, "name": "c4185674950382c321120aa91ed09c22", "fusion_lon": 0.0, "bike_id": "c4185674950382c321120aa91ed09c22", "is_disabled": 0, "is_reserved": 0}, {"rental_uris": {"ios": "https://dc.lft.to/lastmile_qr_scan", "android": "https://dc.lft.to/lastmile_qr_scan"}, "lon": -77.025855, "type": "electric_scooter", "fusion_lat": 0.0, "lat": 38.892447, "name": "693b90a940b0496585bdf3033e07bbe2", "fusion_lon": 0.0, "bike_id": "693b90a940b0496585bdf3033e07bbe2", "is_disabled": 0, "is_reserved": 0}, {"rental_uris": {"ios": "https://dc.lft.to/lastmile_qr_scan", "android": "https://dc.lft.to/lastmile_qr_scan"}, "lon": -77.00862383333333, "type": "electric_bike", "fusion_lat": 0.0, "lat": 38.8272875, "name": "145ff39ba57859df8b6bcb62952dd0b2", "fusion_lon": 0.0, "bike_id": "145ff39ba57859df8b6bcb62952dd0b2", "is_disabled": 0, "is_reserved": 0}, {"rental_uris": {"ios": "https://dc.lft.to/lastmile_qr_scan", "android": "https://dc.lft.to/lastmile_qr_scan"}, "lon": -77.0075605, "type": "electric_scooter", "fusion_lat": 0.0, "lat": 38.90734, "name": "e4831b5f6c14aa2683857ce69fd22d55", "fusion_lon": 0.0, "bike_id": "e4831b5f6c14aa2683857ce69fd22d55", "is_disabled": 0, "is_reserved": 0}, {"rental_uris": {"ios": "https://dc.lft.to/lastmile_qr_scan", "android": "https://dc.lft.to/lastmile_qr_scan"}, "lon": -77.04712866666667, "type": "electric_scooter", "fusion_lat": 0.0, "lat": 38.92241666666666, "name": "cabf978db082814d72ba438967b5c3da", "fusion_lon": 0.0, "bike_id": "cabf978db082814d72ba438967b5c3da", "is_disabled": 0, "is_reserved": 0}, {"rental_uris": {"ios": "https://dc.lft.to/lastmile_qr_scan", "android": "https://dc.lft.to/lastmile_qr_scan"}, "lon": -77.0037545, "type": "electric_scooter", "fusion_lat": 0.0, "lat": 38.87667966666667, "name": "689a61db635eae65dc78c71c24709583", "fusion_lon": 0.0, "bike_id": "689a61db635eae65dc78c71c24709583", "is_disabled": 0, "is_reserved": 0}, {"rental_uris": {"ios": "https://dc.lft.to/lastmile_qr_scan", "android": "https://dc.lft.to/lastmile_qr_scan"}, "lon": -77.031781, "type": "electric_scooter", "fusion_lat": 0.0, "lat": 38.901653333333336, "name": "e1bdf124dbc5b5ea8bb6e9605060d344", "fusion_lon": 0.0, "bike_id": "e1bdf124dbc5b5ea8bb6e9605060d344", "is_disabled": 0, "is_reserved": 0}, {"rental_uris": {"ios": "https://dc.lft.to/lastmile_qr_scan", "android": "https://dc.lft.to/lastmile_qr_scan"}, "lon": -77.04205016666667, "type": "electric_scooter", "fusion_lat": 0.0, "lat": 38.921093166666665, "name": "9cdae13c342525172c9cb130124d81ae", "fusion_lon": 0.0, "bike_id": "9cdae13c342525172c9cb130124d81ae", "is_disabled": 0, "is_reserved": 0}, {"rental_uris": {"ios": "https://dc.lft.to/lastmile_qr_scan", "android": "https://dc.lft.to/lastmile_qr_scan"}, "lon": -77.040068, "type": "electric_scooter", "fusion_lat": 0.0, "lat": 38.90995383333333, "name": "80a5d09b2ebc152a159a67a7db820722", "fusion_lon": 0.0, "bike_id": "80a5d09b2ebc152a159a67a7db820722", "is_disabled": 0, "is_reserved": 0}, {"rental_uris": {"ios": "https://dc.lft.to/lastmile_qr_scan", "android": "https://dc.lft.to/lastmile_qr_scan"}, "lon": -77.03470633333333, "type": "electric_scooter", "fusion_lat": 0.0, "lat": 38.9088435, "name": "7e0513106336e45073aea7db142a38e1", "fusion_lon": 0.0, "bike_id": "7e0513106336e45073aea7db142a38e1", "is_disabled": 0, "is_reserved": 0}, {"rental_uris": {"ios": "https://dc.lft.to/lastmile_qr_scan", "android": "https://dc.lft.to/lastmile_qr_scan"}, "lon": -77.02814533333333, "type": "electric_scooter", "fusion_lat": 0.0, "lat": 38.91022483333333, "name": "c92ae317264466a989c958d298856666", "fusion_lon": 0.0, "bike_id": "c92ae317264466a989c958d298856666", "is_disabled": 0, "is_reserved": 0}, {"rental_uris": {"ios": "https://dc.lft.to/lastmile_qr_scan", "android": "https://dc.lft.to/lastmile_qr_scan"}, "lon": -77.02605, "type": "electric_scooter", "fusion_lat": 0.0, "lat": 38.903581, "name": "ecadd89fb01a1e5aa4b45decfd76e393", "fusion_lon": 0.0, "bike_id": "ecadd89fb01a1e5aa4b45decfd76e393", "is_disabled": 0, "is_reserved": 0}, {"rental_uris": {"ios": "https://dc.lft.to/lastmile_qr_scan", "android": "https://dc.lft.to/lastmile_qr_scan"}, "lon": -77.02746966666666, "type": "electric_scooter", "fusion_lat": 0.0, "lat": 38.96629, "name": "5b53a8edfc09777c6ca99d88e29d8d48", "fusion_lon": 0.0, "bike_id": "5b53a8edfc09777c6ca99d88e29d8d48", "is_disabled": 0, "is_reserved": 0}, {"rental_uris": {"ios": "https://dc.lft.to/lastmile_qr_scan", "android": "https://dc.lft.to/lastmile_qr_scan"}, "lon": -76.98842166666667, "type": "electric_bike", "fusion_lat": 0.0, "lat": 38.84273616666667, "name": "9e8208a1181451a8ef231b9ea8fd4d25", "fusion_lon": 0.0, "bike_id": "9e8208a1181451a8ef231b9ea8fd4d25", "is_disabled": 0, "is_reserved": 0}, {"rental_uris": {"ios": "https://dc.lft.to/lastmile_qr_scan", "android": "https://dc.lft.to/lastmile_qr_scan"}, "lon": -76.98496166666666, "type": "electric_scooter", "fusion_lat": 0.0, "lat": 38.860483333333335, "name": "40ccd299ee0f941bed8b570f3d934181", "fusion_lon": 0.0, "bike_id": "40ccd299ee0f941bed8b570f3d934181", "is_disabled": 0, "is_reserved": 0}, {"rental_uris": {"ios": "https://dc.lft.to/lastmile_qr_scan", "android": "https://dc.lft.to/lastmile_qr_scan"}, "lon": -76.96880116666667, "type": "electric_bike", "fusion_lat": 0.0, "lat": 38.8460135, "name": "9408bd8537182774c38e99c074a8ab5b", "fusion_lon": 0.0, "bike_id": "9408bd8537182774c38e99c074a8ab5b", "is_disabled": 0, "is_reserved": 0}, {"rental_uris": {"ios": "https://dc.lft.to/lastmile_qr_scan", "android": "https://dc.lft.to/lastmile_qr_scan"}, "lon": -76.99514416666666, "type": "electric_scooter", "fusion_lat": 0.0, "lat": 38.844738166666666, "name": "b9c12b57504ae31b562b76b742d276de", "fusion_lon": 0.0, "bike_id": "b9c12b57504ae31b562b76b742d276de", "is_disabled": 0, "is_reserved": 0}, {"rental_uris": {"ios": "https://dc.lft.to/lastmile_qr_scan", "android": "https://dc.lft.to/lastmile_qr_scan"}, "lon": -77.03198166666667, "type": "electric_scooter", "fusion_lat": 0.0, "lat": 38.89352616666667, "name": "a64c5f45b5616b8cdeb9da8843450c90", "fusion_lon": 0.0, "bike_id": "a64c5f45b5616b8cdeb9da8843450c90", "is_disabled": 0, "is_reserved": 0}, {"rental_uris": {"ios": "https://dc.lft.to/lastmile_qr_scan", "android": "https://dc.lft.to/lastmile_qr_scan"}, "lon": -77.00732583333334, "type": "electric_scooter", "fusion_lat": 0.0, "lat": 38.8764605, "name": "263284dd79f95a7d97b760858147c8a8", "fusion_lon": 0.0, "bike_id": "263284dd79f95a7d97b760858147c8a8", "is_disabled": 0, "is_reserved": 0}, {"rental_uris": {"ios": "https://dc.lft.to/lastmile_qr_scan", "android": "https://dc.lft.to/lastmile_qr_scan"}, "lon": -77.02679683333334, "type": "electric_scooter", "fusion_lat": 0.0, "lat": 38.914175, "name": "dfe53a48acfe0d8d7e719f762b85ded6", "fusion_lon": 0.0, "bike_id": "dfe53a48acfe0d8d7e719f762b85ded6", "is_disabled": 0, "is_reserved": 0}, {"rental_uris": {"ios": "https://dc.lft.to/lastmile_qr_scan", "android": "https://dc.lft.to/lastmile_qr_scan"}, "lon": -76.9955555, "type": "electric_scooter", "fusion_lat": 0.0, "lat": 38.926636, "name": "4557a15cc834346fea5e9a758575a053", "fusion_lon": 0.0, "bike_id": "4557a15cc834346fea5e9a758575a053", "is_disabled": 0, "is_reserved": 0}, {"rental_uris": {"ios": "https://dc.lft.to/lastmile_qr_scan", "android": "https://dc.lft.to/lastmile_qr_scan"}, "lon": -76.97602616666667, "type": "electric_scooter", "fusion_lat": 0.0, "lat": 38.902119166666665, "name": "f96dd21d6f216070d452791e3f0e9436", "fusion_lon": 0.0, "bike_id": "f96dd21d6f216070d452791e3f0e9436", "is_disabled": 0, "is_reserved": 0}, {"rental_uris": {"ios": "https://dc.lft.to/lastmile_qr_scan", "android": "https://dc.lft.to/lastmile_qr_scan"}, "lon": -76.970154, "type": "electric_bike", "fusion_lat": 0.0, "lat": 38.8636725, "name": "eb0465a644043ab6b19744b231ddb96c", "fusion_lon": 0.0, "bike_id": "eb0465a644043ab6b19744b231ddb96c", "is_disabled": 0, "is_reserved": 0}, {"rental_uris": {"ios": "https://dc.lft.to/lastmile_qr_scan", "android": "https://dc.lft.to/lastmile_qr_scan"}, "lon": -77.04632333333333, "type": "electric_scooter", "fusion_lat": 0.0, "lat": 38.909691, "name": "6758c1c5b91e8e008a7233fd3e0dd36f", "fusion_lon": 0.0, "bike_id": "6758c1c5b91e8e008a7233fd3e0dd36f", "is_disabled": 0, "is_reserved": 0}, {"rental_uris": {"ios": "https://dc.lft.to/lastmile_qr_scan", "android": "https://dc.lft.to/lastmile_qr_scan"}, "lon": -77.02711033333334, "type": "electric_scooter", "fusion_lat": 0.0, "lat": 38.920691, "name": "b369bbf11a9742ebefab1d437191b2eb", "fusion_lon": 0.0, "bike_id": "b369bbf11a9742ebefab1d437191b2eb", "is_disabled": 0, "is_reserved": 0}, {"rental_uris": {"ios": "https://dc.lft.to/lastmile_qr_scan", "android": "https://dc.lft.to/lastmile_qr_scan"}, "lon": -76.999037, "type": "electric_scooter", "fusion_lat": 0.0, "lat": 38.90944966666667, "name": "135a3acc54428f3fbd219c4bfabdd13b", "fusion_lon": 0.0, "bike_id": "135a3acc54428f3fbd219c4bfabdd13b", "is_disabled": 0, "is_reserved": 0}, {"rental_uris": {"ios": "https://dc.lft.to/lastmile_qr_scan", "android": "https://dc.lft.to/lastmile_qr_scan"}, "lon": -76.97034866666667, "type": "electric_scooter", "fusion_lat": 0.0, "lat": 38.90313966666667, "name": "0a1a2fe08097d808a817b9e1fb232644", "fusion_lon": 0.0, "bike_id": "0a1a2fe08097d808a817b9e1fb232644", "is_disabled": 0, "is_reserved": 0}, {"rental_uris": {"ios": "https://dc.lft.to/lastmile_qr_scan", "android": "https://dc.lft.to/lastmile_qr_scan"}, "lon": -77.01189116666667, "type": "electric_scooter", "fusion_lat": 0.0, "lat": 38.90031333333334, "name": "ef930f3a4f2930abfb6d3ab7008c11cc", "fusion_lon": 0.0, "bike_id": "ef930f3a4f2930abfb6d3ab7008c11cc", "is_disabled": 0, "is_reserved": 0}, {"rental_uris": {"ios": "https://dc.lft.to/lastmile_qr_scan", "android": "https://dc.lft.to/lastmile_qr_scan"}, "lon": -77.0281995, "type": "electric_scooter", "fusion_lat": 0.0, "lat": 38.9094065, "name": "fd3d58cdd9e6a48b040e5e8e87ccd7f4", "fusion_lon": 0.0, "bike_id": "fd3d58cdd9e6a48b040e5e8e87ccd7f4", "is_disabled": 0, "is_reserved": 0}, {"rental_uris": {"ios": "https://dc.lft.to/lastmile_qr_scan", "android": "https://dc.lft.to/lastmile_qr_scan"}, "lon": -76.99605233333334, "type": "electric_scooter", "fusion_lat": 0.0, "lat": 38.90029366666667, "name": "be2c261b462425f7be1fb93fa9ac9573", "fusion_lon": 0.0, "bike_id": "be2c261b462425f7be1fb93fa9ac9573", "is_disabled": 0, "is_reserved": 0}, {"rental_uris": {"ios": "https://dc.lft.to/lastmile_qr_scan", "android": "https://dc.lft.to/lastmile_qr_scan"}, "lon": -76.98566533333333, "type": "electric_scooter", "fusion_lat": 0.0, "lat": 38.8989425, "name": "a92aae26dea53b8cec0b01460db91cb1", "fusion_lon": 0.0, "bike_id": "a92aae26dea53b8cec0b01460db91cb1", "is_disabled": 0, "is_reserved": 0}, {"rental_uris": {"ios": "https://dc.lft.to/lastmile_qr_scan", "android": "https://dc.lft.to/lastmile_qr_scan"}, "lon": -77.01815616666667, "type": "electric_scooter", "fusion_lat": 0.0, "lat": 38.91196216666667, "name": "67ae5ce8acf6ddc8b3a76265e9ed04ad", "fusion_lon": 0.0, "bike_id": "67ae5ce8acf6ddc8b3a76265e9ed04ad", "is_disabled": 0, "is_reserved": 0}, {"rental_uris": {"ios": "https://dc.lft.to/lastmile_qr_scan", "android": "https://dc.lft.to/lastmile_qr_scan"}, "lon": -77.046885, "type": "electric_scooter", "fusion_lat": 0.0, "lat": 38.89228, "name": "675bba6c496c93a075b652b7b2455a9f", "fusion_lon": 0.0, "bike_id": "675bba6c496c93a075b652b7b2455a9f", "is_disabled": 0, "is_reserved": 0}, {"rental_uris": {"ios": "https://dc.lft.to/lastmile_qr_scan", "android": "https://dc.lft.to/lastmile_qr_scan"}, "lon": -77.100265, "type": "electric_bike", "fusion_lat": 0.0, "lat": 38.990697833333336, "name": "4cb1399d21ba1c5e725a00df44c21b81", "fusion_lon": 0.0, "bike_id": "4cb1399d21ba1c5e725a00df44c21b81", "is_disabled": 0, "is_reserved": 0}, {"rental_uris": {"ios": "https://dc.lft.to/lastmile_qr_scan", "android": "https://dc.lft.to/lastmile_qr_scan"}, "lon": -77.06281466666667, "type": "electric_scooter", "fusion_lat": 0.0, "lat": 38.9069315, "name": "b754823bb8d88907f46160446bad3283", "fusion_lon": 0.0, "bike_id": "b754823bb8d88907f46160446bad3283", "is_disabled": 0, "is_reserved": 0}, {"rental_uris": {"ios": "https://dc.lft.to/lastmile_qr_scan", "android": "https://dc.lft.to/lastmile_qr_scan"}, "lon": -76.946543, "type": "electric_scooter", "fusion_lat": 0.0, "lat": 38.89829483333333, "name": "1de9437854a5c16cb6a37ace95068771", "fusion_lon": 0.0, "bike_id": "1de9437854a5c16cb6a37ace95068771", "is_disabled": 0, "is_reserved": 0}, {"rental_uris": {"ios": "https://dc.lft.to/lastmile_qr_scan", "android": "https://dc.lft.to/lastmile_qr_scan"}, "lon": -77.032187, "type": "electric_scooter", "fusion_lat": 0.0, "lat": 38.914060166666665, "name": "5c6f68f7716e9e9ec802cb58d34b2831", "fusion_lon": 0.0, "bike_id": "5c6f68f7716e9e9ec802cb58d34b2831", "is_disabled": 0, "is_reserved": 0}, {"rental_uris": {"ios": "https://dc.lft.to/lastmile_qr_scan", "android": "https://dc.lft.to/lastmile_qr_scan"}, "lon": -77.04148316666667, "type": "electric_scooter", "fusion_lat": 0.0, "lat": 38.91190616666667, "name": "776f9e3f067a3dfa487b25edc28c5725", "fusion_lon": 0.0, "bike_id": "776f9e3f067a3dfa487b25edc28c5725", "is_disabled": 0, "is_reserved": 0}, {"rental_uris": {"ios": "https://dc.lft.to/lastmile_qr_scan", "android": "https://dc.lft.to/lastmile_qr_scan"}, "lon": -77.02225566666667, "type": "electric_scooter", "fusion_lat": 0.0, "lat": 38.92752433333333, "name": "1fbd42ad1f1805253b91025de794a32a", "fusion_lon": 0.0, "bike_id": "1fbd42ad1f1805253b91025de794a32a", "is_disabled": 0, "is_reserved": 0}, {"rental_uris": {"ios": "https://dc.lft.to/lastmile_qr_scan", "android": "https://dc.lft.to/lastmile_qr_scan"}, "lon": -77.034299, "type": "electric_scooter", "fusion_lat": 0.0, "lat": 38.939801833333334, "name": "fd425a366fa90ae3e39590ce5d9259c7", "fusion_lon": 0.0, "bike_id": "fd425a366fa90ae3e39590ce5d9259c7", "is_disabled": 0, "is_reserved": 0}, {"rental_uris": {"ios": "https://dc.lft.to/lastmile_qr_scan", "android": "https://dc.lft.to/lastmile_qr_scan"}, "lon": -77.049027, "type": "electric_bike", "fusion_lat": 0.0, "lat": 38.874969166666666, "name": "67a086a9a5341d9700d709f91e5ab54c", "fusion_lon": 0.0, "bike_id": "67a086a9a5341d9700d709f91e5ab54c", "is_disabled": 0, "is_reserved": 0}, {"rental_uris": {"ios": "https://dc.lft.to/lastmile_qr_scan", "android": "https://dc.lft.to/lastmile_qr_scan"}, "lon": -77.00467983333333, "type": "electric_scooter", "fusion_lat": 0.0, "lat": 38.8774565, "name": "71e0b600e56026cc0b7a5fdd52176413", "fusion_lon": 0.0, "bike_id": "71e0b600e56026cc0b7a5fdd52176413", "is_disabled": 0, "is_reserved": 0}, {"rental_uris": {"ios": "https://dc.lft.to/lastmile_qr_scan", "android": "https://dc.lft.to/lastmile_qr_scan"}, "lon": -77.058462, "type": "electric_scooter", "fusion_lat": 0.0, "lat": 38.93433566666667, "name": "fd976e79d163db8270026e9344ea2a19", "fusion_lon": 0.0, "bike_id": "fd976e79d163db8270026e9344ea2a19", "is_disabled": 0, "is_reserved": 0}, {"rental_uris": {"ios": "https://dc.lft.to/lastmile_qr_scan", "android": "https://dc.lft.to/lastmile_qr_scan"}, "lon": -77.02402633333334, "type": "electric_scooter", "fusion_lat": 0.0, "lat": 38.91609116666667, "name": "6c53a60a509f0a271cea1160ce7690a0", "fusion_lon": 0.0, "bike_id": "6c53a60a509f0a271cea1160ce7690a0", "is_disabled": 0, "is_reserved": 0}, {"rental_uris": {"ios": "https://dc.lft.to/lastmile_qr_scan", "android": "https://dc.lft.to/lastmile_qr_scan"}, "lon": -77.03217516666666, "type": "electric_scooter", "fusion_lat": 0.0, "lat": 38.914072833333336, "name": "4186e5645c04c2225cc70c9874c301cb", "fusion_lon": 0.0, "bike_id": "4186e5645c04c2225cc70c9874c301cb", "is_disabled": 0, "is_reserved": 0}, {"rental_uris": {"ios": "https://dc.lft.to/lastmile_qr_scan", "android": "https://dc.lft.to/lastmile_qr_scan"}, "lon": -76.947125, "type": "electric_scooter", "fusion_lat": 0.0, "lat": 38.89735783333333, "name": "60f7e1c204936403d0a4f57c6a24d16f", "fusion_lon": 0.0, "bike_id": "60f7e1c204936403d0a4f57c6a24d16f", "is_disabled": 0, "is_reserved": 0}, {"rental_uris": {"ios": "https://dc.lft.to/lastmile_qr_scan", "android": "https://dc.lft.to/lastmile_qr_scan"}, "lon": -76.987141, "type": "electric_scooter", "fusion_lat": 0.0, "lat": 38.862645666666666, "name": "df5eb35d82cb00d59fc21cfc11b6fd3c", "fusion_lon": 0.0, "bike_id": "df5eb35d82cb00d59fc21cfc11b6fd3c", "is_disabled": 0, "is_reserved": 0}, {"rental_uris": {"ios": "https://dc.lft.to/lastmile_qr_scan", "android": "https://dc.lft.to/lastmile_qr_scan"}, "lon": -77.01413883333333, "type": "electric_scooter", "fusion_lat": 0.0, "lat": 38.928358333333335, "name": "c496b73009eefc100469550b022024ab", "fusion_lon": 0.0, "bike_id": "c496b73009eefc100469550b022024ab", "is_disabled": 0, "is_reserved": 0}, {"rental_uris": {"ios": "https://dc.lft.to/lastmile_qr_scan", "android": "https://dc.lft.to/lastmile_qr_scan"}, "lon": -77.0216155, "type": "electric_scooter", "fusion_lat": 0.0, "lat": 38.8991545, "name": "d87a3e956350003d25ca5dbb33399010", "fusion_lon": 0.0, "bike_id": "d87a3e956350003d25ca5dbb33399010", "is_disabled": 0, "is_reserved": 0}, {"rental_uris": {"ios": "https://dc.lft.to/lastmile_qr_scan", "android": "https://dc.lft.to/lastmile_qr_scan"}, "lon": -77.02020633333333, "type": "electric_scooter", "fusion_lat": 0.0, "lat": 38.94982566666667, "name": "c405910473681d383afc06e201f9e242", "fusion_lon": 0.0, "bike_id": "c405910473681d383afc06e201f9e242", "is_disabled": 0, "is_reserved": 0}, {"rental_uris": {"ios": "https://dc.lft.to/lastmile_qr_scan", "android": "https://dc.lft.to/lastmile_qr_scan"}, "lon": -77.02763383333334, "type": "electric_scooter", "fusion_lat": 0.0, "lat": 38.8948615, "name": "adb2e22cd71240ebd28b67a0e9cfb304", "fusion_lon": 0.0, "bike_id": "adb2e22cd71240ebd28b67a0e9cfb304", "is_disabled": 0, "is_reserved": 0}, {"rental_uris": {"ios": "https://dc.lft.to/lastmile_qr_scan", "android": "https://dc.lft.to/lastmile_qr_scan"}, "lon": -77.01183616666667, "type": "electric_scooter", "fusion_lat": 0.0, "lat": 38.91559133333333, "name": "e173069020a0b54a56280ba90e8bdd88", "fusion_lon": 0.0, "bike_id": "e173069020a0b54a56280ba90e8bdd88", "is_disabled": 0, "is_reserved": 0}, {"rental_uris": {"ios": "https://dc.lft.to/lastmile_qr_scan", "android": "https://dc.lft.to/lastmile_qr_scan"}, "lon": -77.03233233333333, "type": "electric_scooter", "fusion_lat": 0.0, "lat": 38.91713216666667, "name": "6e65917e426047204404cca854dbbdc9", "fusion_lon": 0.0, "bike_id": "6e65917e426047204404cca854dbbdc9", "is_disabled": 0, "is_reserved": 0}, {"rental_uris": {"ios": "https://dc.lft.to/lastmile_qr_scan", "android": "https://dc.lft.to/lastmile_qr_scan"}, "lon": -77.02054916666667, "type": "electric_scooter", "fusion_lat": 0.0, "lat": 38.915640833333335, "name": "366dba563d8ac95e75e0813ced565290", "fusion_lon": 0.0, "bike_id": "366dba563d8ac95e75e0813ced565290", "is_disabled": 0, "is_reserved": 0}, {"rental_uris": {"ios": "https://dc.lft.to/lastmile_qr_scan", "android": "https://dc.lft.to/lastmile_qr_scan"}, "lon": -77.04615266666667, "type": "electric_scooter", "fusion_lat": 0.0, "lat": 38.9223855, "name": "d381a631c0cdfa94f8082f45688b0bae", "fusion_lon": 0.0, "bike_id": "d381a631c0cdfa94f8082f45688b0bae", "is_disabled": 0, "is_reserved": 0}, {"rental_uris": {"ios": "https://dc.lft.to/lastmile_qr_scan", "android": "https://dc.lft.to/lastmile_qr_scan"}, "lon": -76.94627966666667, "type": "electric_bike", "fusion_lat": 0.0, "lat": 38.9462795, "name": "fd77acec03c428a16718b4630b1ce141", "fusion_lon": 0.0, "bike_id": "fd77acec03c428a16718b4630b1ce141", "is_disabled": 0, "is_reserved": 0}, {"rental_uris": {"ios": "https://dc.lft.to/lastmile_qr_scan", "android": "https://dc.lft.to/lastmile_qr_scan"}, "lon": -76.99136616666667, "type": "electric_scooter", "fusion_lat": 0.0, "lat": 38.88590533333333, "name": "4f860c4623c5672028264cbe8f017b33", "fusion_lon": 0.0, "bike_id": "4f860c4623c5672028264cbe8f017b33", "is_disabled": 0, "is_reserved": 0}, {"rental_uris": {"ios": "https://dc.lft.to/lastmile_qr_scan", "android": "https://dc.lft.to/lastmile_qr_scan"}, "lon": -77.02704, "type": "electric_scooter", "fusion_lat": 0.0, "lat": 38.909463, "name": "cc3a216eb57abebf79eff60ef9a2fe19", "fusion_lon": 0.0, "bike_id": "cc3a216eb57abebf79eff60ef9a2fe19", "is_disabled": 0, "is_reserved": 0}, {"rental_uris": {"ios": "https://dc.lft.to/lastmile_qr_scan", "android": "https://dc.lft.to/lastmile_qr_scan"}, "lon": -77.07168883333334, "type": "electric_scooter", "fusion_lat": 0.0, "lat": 38.907445, "name": "fc88eb2f09374754206da5b723fbe5c1", "fusion_lon": 0.0, "bike_id": "fc88eb2f09374754206da5b723fbe5c1", "is_disabled": 0, "is_reserved": 0}, {"rental_uris": {"ios": "https://dc.lft.to/lastmile_qr_scan", "android": "https://dc.lft.to/lastmile_qr_scan"}, "lon": -77.04050616666666, "type": "electric_scooter", "fusion_lat": 0.0, "lat": 38.90482216666667, "name": "ce11dfbaf1c9c10708aac20fac12b830", "fusion_lon": 0.0, "bike_id": "ce11dfbaf1c9c10708aac20fac12b830", "is_disabled": 0, "is_reserved": 0}, {"rental_uris": {"ios": "https://dc.lft.to/lastmile_qr_scan", "android": "https://dc.lft.to/lastmile_qr_scan"}, "lon": -76.98561766666667, "type": "electric_bike", "fusion_lat": 0.0, "lat": 38.86896616666667, "name": "87c2f825bab91bd6e74c59e23c083fdf", "fusion_lon": 0.0, "bike_id": "87c2f825bab91bd6e74c59e23c083fdf", "is_disabled": 0, "is_reserved": 0}, {"rental_uris": {"ios": "https://dc.lft.to/lastmile_qr_scan", "android": "https://dc.lft.to/lastmile_qr_scan"}, "lon": -77.042712, "type": "electric_scooter", "fusion_lat": 0.0, "lat": 38.9341965, "name": "c595497efb4b8cf91ea5e30d313c1145", "fusion_lon": 0.0, "bike_id": "c595497efb4b8cf91ea5e30d313c1145", "is_disabled": 0, "is_reserved": 0}, {"rental_uris": {"ios": "https://dc.lft.to/lastmile_qr_scan", "android": "https://dc.lft.to/lastmile_qr_scan"}, "lon": -77.02216383333334, "type": "electric_scooter", "fusion_lat": 0.0, "lat": 38.90783583333333, "name": "c9451a1aa24eeea5e84e09f7adf7d3ea", "fusion_lon": 0.0, "bike_id": "c9451a1aa24eeea5e84e09f7adf7d3ea", "is_disabled": 0, "is_reserved": 0}, {"rental_uris": {"ios": "https://dc.lft.to/lastmile_qr_scan", "android": "https://dc.lft.to/lastmile_qr_scan"}, "lon": -76.95516683333334, "type": "electric_scooter", "fusion_lat": 0.0, "lat": 38.890610833333334, "name": "38633a15fa6c803a9f59d4c9adf6bd57", "fusion_lon": 0.0, "bike_id": "38633a15fa6c803a9f59d4c9adf6bd57", "is_disabled": 0, "is_reserved": 0}, {"rental_uris": {"ios": "https://dc.lft.to/lastmile_qr_scan", "android": "https://dc.lft.to/lastmile_qr_scan"}, "lon": -77.0318565, "type": "electric_scooter", "fusion_lat": 0.0, "lat": 38.89396516666667, "name": "405672efc74d909503babafa77398183", "fusion_lon": 0.0, "bike_id": "405672efc74d909503babafa77398183", "is_disabled": 0, "is_reserved": 0}, {"rental_uris": {"ios": "https://dc.lft.to/lastmile_qr_scan", "android": "https://dc.lft.to/lastmile_qr_scan"}, "lon": -77.03429183333333, "type": "electric_scooter", "fusion_lat": 0.0, "lat": 38.9126215, "name": "5be5c0358ba9b588e3f1fe3eb44e4340", "fusion_lon": 0.0, "bike_id": "5be5c0358ba9b588e3f1fe3eb44e4340", "is_disabled": 0, "is_reserved": 0}, {"rental_uris": {"ios": "https://dc.lft.to/lastmile_qr_scan", "android": "https://dc.lft.to/lastmile_qr_scan"}, "lon": -77.04159916666667, "type": "electric_scooter", "fusion_lat": 0.0, "lat": 38.917968333333334, "name": "cfc4424be507837eebccdeef09768988", "fusion_lon": 0.0, "bike_id": "cfc4424be507837eebccdeef09768988", "is_disabled": 0, "is_reserved": 0}, {"rental_uris": {"ios": "https://dc.lft.to/lastmile_qr_scan", "android": "https://dc.lft.to/lastmile_qr_scan"}, "lon": -77.05172983333334, "type": "electric_scooter", "fusion_lat": 0.0, "lat": 38.905828166666666, "name": "ab524d0dbddee385f9aac578111f2c3c", "fusion_lon": 0.0, "bike_id": "ab524d0dbddee385f9aac578111f2c3c", "is_disabled": 0, "is_reserved": 0}, {"rental_uris": {"ios": "https://dc.lft.to/lastmile_qr_scan", "android": "https://dc.lft.to/lastmile_qr_scan"}, "lon": -76.9988405, "type": "electric_scooter", "fusion_lat": 0.0, "lat": 38.90758783333333, "name": "ccad1b2623d457537c84a47e0a804ace", "fusion_lon": 0.0, "bike_id": "ccad1b2623d457537c84a47e0a804ace", "is_disabled": 0, "is_reserved": 0}, {"rental_uris": {"ios": "https://dc.lft.to/lastmile_qr_scan", "android": "https://dc.lft.to/lastmile_qr_scan"}, "lon": -77.0219775, "type": "electric_scooter", "fusion_lat": 0.0, "lat": 38.916938, "name": "009124dc5fd65d9ac2261919a0079cbe", "fusion_lon": 0.0, "bike_id": "009124dc5fd65d9ac2261919a0079cbe", "is_disabled": 0, "is_reserved": 0}, {"rental_uris": {"ios": "https://dc.lft.to/lastmile_qr_scan", "android": "https://dc.lft.to/lastmile_qr_scan"}, "lon": -76.97203766666667, "type": "electric_scooter", "fusion_lat": 0.0, "lat": 38.85496883333333, "name": "f7abbe9cfdb0d38f37a37c00bcab2874", "fusion_lon": 0.0, "bike_id": "f7abbe9cfdb0d38f37a37c00bcab2874", "is_disabled": 0, "is_reserved": 0}, {"rental_uris": {"ios": "https://dc.lft.to/lastmile_qr_scan", "android": "https://dc.lft.to/lastmile_qr_scan"}, "lon": -77.0370305, "type": "electric_scooter", "fusion_lat": 0.0, "lat": 38.926381666666664, "name": "2494c8960f333d8bcfccfa043ebfd4dc", "fusion_lon": 0.0, "bike_id": "2494c8960f333d8bcfccfa043ebfd4dc", "is_disabled": 0, "is_reserved": 0}, {"rental_uris": {"ios": "https://dc.lft.to/lastmile_qr_scan", "android": "https://dc.lft.to/lastmile_qr_scan"}, "lon": -77.04483183333333, "type": "electric_scooter", "fusion_lat": 0.0, "lat": 38.903143666666665, "name": "e5e0ba2a579fe64e27ea3d146148493b", "fusion_lon": 0.0, "bike_id": "e5e0ba2a579fe64e27ea3d146148493b", "is_disabled": 0, "is_reserved": 0}, {"rental_uris": {"ios": "https://dc.lft.to/lastmile_qr_scan", "android": "https://dc.lft.to/lastmile_qr_scan"}, "lon": -77.027703, "type": "electric_scooter", "fusion_lat": 0.0, "lat": 38.892065833333334, "name": "c129d4ff8de6e653b0fdd17313b7c93d", "fusion_lon": 0.0, "bike_id": "c129d4ff8de6e653b0fdd17313b7c93d", "is_disabled": 0, "is_reserved": 0}, {"rental_uris": {"ios": "https://dc.lft.to/lastmile_qr_scan", "android": "https://dc.lft.to/lastmile_qr_scan"}, "lon": -77.04255233333333, "type": "electric_scooter", "fusion_lat": 0.0, "lat": 38.92067333333333, "name": "5481c8e8c41df444e54e6300631343b9", "fusion_lon": 0.0, "bike_id": "5481c8e8c41df444e54e6300631343b9", "is_disabled": 0, "is_reserved": 0}, {"rental_uris": {"ios": "https://dc.lft.to/lastmile_qr_scan", "android": "https://dc.lft.to/lastmile_qr_scan"}, "lon": -77.0448135, "type": "electric_scooter", "fusion_lat": 0.0, "lat": 38.913165, "name": "1723aedb1fe308981c2c88122713db90", "fusion_lon": 0.0, "bike_id": "1723aedb1fe308981c2c88122713db90", "is_disabled": 0, "is_reserved": 0}, {"rental_uris": {"ios": "https://dc.lft.to/lastmile_qr_scan", "android": "https://dc.lft.to/lastmile_qr_scan"}, "lon": -77.02832416666666, "type": "electric_scooter", "fusion_lat": 0.0, "lat": 38.924708833333334, "name": "8c4676902936b9bb6897bc54790587fd", "fusion_lon": 0.0, "bike_id": "8c4676902936b9bb6897bc54790587fd", "is_disabled": 0, "is_reserved": 0}, {"rental_uris": {"ios": "https://dc.lft.to/lastmile_qr_scan", "android": "https://dc.lft.to/lastmile_qr_scan"}, "lon": -76.98996633333333, "type": "electric_bike", "fusion_lat": 0.0, "lat": 38.86394833333333, "name": "92396a3c14bfbfe96f3b62b5a50e0df7", "fusion_lon": 0.0, "bike_id": "92396a3c14bfbfe96f3b62b5a50e0df7", "is_disabled": 0, "is_reserved": 0}, {"rental_uris": {"ios": "https://dc.lft.to/lastmile_qr_scan", "android": "https://dc.lft.to/lastmile_qr_scan"}, "lon": -77.02586516666666, "type": "electric_scooter", "fusion_lat": 0.0, "lat": 38.916518833333335, "name": "f8aaa3333241fbba0df25315351130e0", "fusion_lon": 0.0, "bike_id": "f8aaa3333241fbba0df25315351130e0", "is_disabled": 0, "is_reserved": 0}, {"rental_uris": {"ios": "https://dc.lft.to/lastmile_qr_scan", "android": "https://dc.lft.to/lastmile_qr_scan"}, "lon": -77.0107765, "type": "electric_bike", "fusion_lat": 0.0, "lat": 38.95657583333333, "name": "f617c5f2b5811af168a8348249e20381", "fusion_lon": 0.0, "bike_id": "f617c5f2b5811af168a8348249e20381", "is_disabled": 0, "is_reserved": 0}, {"rental_uris": {"ios": "https://dc.lft.to/lastmile_qr_scan", "android": "https://dc.lft.to/lastmile_qr_scan"}, "lon": -77.00588116666667, "type": "electric_scooter", "fusion_lat": 0.0, "lat": 38.9060095, "name": "2a88cdcbd31d301f36599f4bd4fc8a9d", "fusion_lon": 0.0, "bike_id": "2a88cdcbd31d301f36599f4bd4fc8a9d", "is_disabled": 0, "is_reserved": 0}, {"rental_uris": {"ios": "https://dc.lft.to/lastmile_qr_scan", "android": "https://dc.lft.to/lastmile_qr_scan"}, "lon": -76.99271483333334, "type": "electric_scooter", "fusion_lat": 0.0, "lat": 38.897710833333335, "name": "d12a6b384c4697b9fac4f6bf269fc2cf", "fusion_lon": 0.0, "bike_id": "d12a6b384c4697b9fac4f6bf269fc2cf", "is_disabled": 0, "is_reserved": 0}, {"rental_uris": {"ios": "https://dc.lft.to/lastmile_qr_scan", "android": "https://dc.lft.to/lastmile_qr_scan"}, "lon": -77.03445133333334, "type": "electric_scooter", "fusion_lat": 0.0, "lat": 38.9184615, "name": "bbdb5a081d215ed55a8972b99a066502", "fusion_lon": 0.0, "bike_id": "bbdb5a081d215ed55a8972b99a066502", "is_disabled": 0, "is_reserved": 0}, {"rental_uris": {"ios": "https://dc.lft.to/lastmile_qr_scan", "android": "https://dc.lft.to/lastmile_qr_scan"}, "lon": -77.01097883333334, "type": "electric_scooter", "fusion_lat": 0.0, "lat": 38.8947475, "name": "283b5a184d108904c49e7c0c242cfcbb", "fusion_lon": 0.0, "bike_id": "283b5a184d108904c49e7c0c242cfcbb", "is_disabled": 0, "is_reserved": 0}, {"rental_uris": {"ios": "https://dc.lft.to/lastmile_qr_scan", "android": "https://dc.lft.to/lastmile_qr_scan"}, "lon": -77.075695, "type": "electric_scooter", "fusion_lat": 0.0, "lat": 38.920965, "name": "5497c4663285c95f6af8b45ae7f13ba7", "fusion_lon": 0.0, "bike_id": "5497c4663285c95f6af8b45ae7f13ba7", "is_disabled": 0, "is_reserved": 0}, {"rental_uris": {"ios": "https://dc.lft.to/lastmile_qr_scan", "android": "https://dc.lft.to/lastmile_qr_scan"}, "lon": -76.98615916666667, "type": "electric_scooter", "fusion_lat": 0.0, "lat": 38.85467233333333, "name": "6986c209b3f460c9f5655ee293db1418", "fusion_lon": 0.0, "bike_id": "6986c209b3f460c9f5655ee293db1418", "is_disabled": 0, "is_reserved": 0}, {"rental_uris": {"ios": "https://dc.lft.to/lastmile_qr_scan", "android": "https://dc.lft.to/lastmile_qr_scan"}, "lon": -77.03000633333333, "type": "electric_scooter", "fusion_lat": 0.0, "lat": 38.93456783333333, "name": "32617ae6ba75c36b49b3f0c58e3632c8", "fusion_lon": 0.0, "bike_id": "32617ae6ba75c36b49b3f0c58e3632c8", "is_disabled": 0, "is_reserved": 0}, {"rental_uris": {"ios": "https://dc.lft.to/lastmile_qr_scan", "android": "https://dc.lft.to/lastmile_qr_scan"}, "lon": -77.01414766666667, "type": "electric_scooter", "fusion_lat": 0.0, "lat": 38.91702216666667, "name": "35bb61d83a655c6c4adbba0e150a6497", "fusion_lon": 0.0, "bike_id": "35bb61d83a655c6c4adbba0e150a6497", "is_disabled": 0, "is_reserved": 0}, {"rental_uris": {"ios": "https://dc.lft.to/lastmile_qr_scan", "android": "https://dc.lft.to/lastmile_qr_scan"}, "lon": -76.99983166666667, "type": "electric_scooter", "fusion_lat": 0.0, "lat": 38.90857066666667, "name": "0dfda332a1807f977b8ff61d54197238", "fusion_lon": 0.0, "bike_id": "0dfda332a1807f977b8ff61d54197238", "is_disabled": 0, "is_reserved": 0}, {"rental_uris": {"ios": "https://dc.lft.to/lastmile_qr_scan", "android": "https://dc.lft.to/lastmile_qr_scan"}, "lon": -77.026488, "type": "electric_scooter", "fusion_lat": 0.0, "lat": 38.938662666666666, "name": "9cca741fa4cdbf6fafbf066ec11c7223", "fusion_lon": 0.0, "bike_id": "9cca741fa4cdbf6fafbf066ec11c7223", "is_disabled": 0, "is_reserved": 0}, {"rental_uris": {"ios": "https://dc.lft.to/lastmile_qr_scan", "android": "https://dc.lft.to/lastmile_qr_scan"}, "lon": -76.99843, "type": "electric_bike", "fusion_lat": 0.0, "lat": 38.83923383333333, "name": "36e12cdbb84971b203c053c5f9269b10", "fusion_lon": 0.0, "bike_id": "36e12cdbb84971b203c053c5f9269b10", "is_disabled": 0, "is_reserved": 0}, {"rental_uris": {"ios": "https://dc.lft.to/lastmile_qr_scan", "android": "https://dc.lft.to/lastmile_qr_scan"}, "lon": -77.036328, "type": "electric_scooter", "fusion_lat": 0.0, "lat": 38.9130195, "name": "8b028195531f0fb770d3f4b3a3fafe6d", "fusion_lon": 0.0, "bike_id": "8b028195531f0fb770d3f4b3a3fafe6d", "is_disabled": 0, "is_reserved": 0}, {"rental_uris": {"ios": "https://dc.lft.to/lastmile_qr_scan", "android": "https://dc.lft.to/lastmile_qr_scan"}, "lon": -77.00422216666666, "type": "electric_scooter", "fusion_lat": 0.0, "lat": 38.875385, "name": "7a965dd5e461fa5936072b9a3e4bc4db", "fusion_lon": 0.0, "bike_id": "7a965dd5e461fa5936072b9a3e4bc4db", "is_disabled": 0, "is_reserved": 0}, {"rental_uris": {"ios": "https://dc.lft.to/lastmile_qr_scan", "android": "https://dc.lft.to/lastmile_qr_scan"}, "lon": -77.02566733333333, "type": "electric_scooter", "fusion_lat": 0.0, "lat": 38.88749516666667, "name": "0cb5d60a6f872585bea71007735d1b56", "fusion_lon": 0.0, "bike_id": "0cb5d60a6f872585bea71007735d1b56", "is_disabled": 0, "is_reserved": 0}, {"rental_uris": {"ios": "https://dc.lft.to/lastmile_qr_scan", "android": "https://dc.lft.to/lastmile_qr_scan"}, "lon": -77.0410485, "type": "electric_scooter", "fusion_lat": 0.0, "lat": 38.923673666666666, "name": "c211a6ba91dd3ea1e0788d89ece67808", "fusion_lon": 0.0, "bike_id": "c211a6ba91dd3ea1e0788d89ece67808", "is_disabled": 0, "is_reserved": 0}, {"rental_uris": {"ios": "https://dc.lft.to/lastmile_qr_scan", "android": "https://dc.lft.to/lastmile_qr_scan"}, "lon": -77.0107505, "type": "electric_bike", "fusion_lat": 0.0, "lat": 38.962644833333336, "name": "c77a5c90981cb5b6d7af7f3ff10c42ec", "fusion_lon": 0.0, "bike_id": "c77a5c90981cb5b6d7af7f3ff10c42ec", "is_disabled": 0, "is_reserved": 0}, {"rental_uris": {"ios": "https://dc.lft.to/lastmile_qr_scan", "android": "https://dc.lft.to/lastmile_qr_scan"}, "lon": -77.041445, "type": "electric_scooter", "fusion_lat": 0.0, "lat": 38.9179235, "name": "d84576b12b9ce566b112b18707ab9b49", "fusion_lon": 0.0, "bike_id": "d84576b12b9ce566b112b18707ab9b49", "is_disabled": 0, "is_reserved": 0}, {"rental_uris": {"ios": "https://dc.lft.to/lastmile_qr_scan", "android": "https://dc.lft.to/lastmile_qr_scan"}, "lon": -76.94971716666667, "type": "electric_scooter", "fusion_lat": 0.0, "lat": 38.89374433333333, "name": "04079aadf337bed8c906813cbb3bb54a", "fusion_lon": 0.0, "bike_id": "04079aadf337bed8c906813cbb3bb54a", "is_disabled": 0, "is_reserved": 0}, {"rental_uris": {"ios": "https://dc.lft.to/lastmile_qr_scan", "android": "https://dc.lft.to/lastmile_qr_scan"}, "lon": -76.93568883333333, "type": "electric_bike", "fusion_lat": 0.0, "lat": 38.885345, "name": "4a5823c80c74bb8ef74dfdbfa9d05721", "fusion_lon": 0.0, "bike_id": "4a5823c80c74bb8ef74dfdbfa9d05721", "is_disabled": 0, "is_reserved": 0}, {"rental_uris": {"ios": "https://dc.lft.to/lastmile_qr_scan", "android": "https://dc.lft.to/lastmile_qr_scan"}, "lon": -77.03747733333333, "type": "electric_scooter", "fusion_lat": 0.0, "lat": 38.91492933333333, "name": "e7f309ce3e33c6dd4635fc9aaf6c252f", "fusion_lon": 0.0, "bike_id": "e7f309ce3e33c6dd4635fc9aaf6c252f", "is_disabled": 0, "is_reserved": 0}, {"rental_uris": {"ios": "https://dc.lft.to/lastmile_qr_scan", "android": "https://dc.lft.to/lastmile_qr_scan"}, "lon": -76.98020483333333, "type": "electric_scooter", "fusion_lat": 0.0, "lat": 38.903839833333336, "name": "03c64153ed5fba905096b973cbf03357", "fusion_lon": 0.0, "bike_id": "03c64153ed5fba905096b973cbf03357", "is_disabled": 0, "is_reserved": 0}, {"rental_uris": {"ios": "https://dc.lft.to/lastmile_qr_scan", "android": "https://dc.lft.to/lastmile_qr_scan"}, "lon": -77.05506883333334, "type": "electric_scooter", "fusion_lat": 0.0, "lat": 38.899865166666665, "name": "12a06c1dc6d6a9cee3fd2e3f65bf9354", "fusion_lon": 0.0, "bike_id": "12a06c1dc6d6a9cee3fd2e3f65bf9354", "is_disabled": 0, "is_reserved": 0}, {"rental_uris": {"ios": "https://dc.lft.to/lastmile_qr_scan", "android": "https://dc.lft.to/lastmile_qr_scan"}, "lon": -76.95187983333334, "type": "electric_scooter", "fusion_lat": 0.0, "lat": 38.89137316666667, "name": "1ad3ea633b330d526c8703ed89b771d1", "fusion_lon": 0.0, "bike_id": "1ad3ea633b330d526c8703ed89b771d1", "is_disabled": 0, "is_reserved": 0}, {"rental_uris": {"ios": "https://dc.lft.to/lastmile_qr_scan", "android": "https://dc.lft.to/lastmile_qr_scan"}, "lon": -77.00920116666667, "type": "electric_scooter", "fusion_lat": 0.0, "lat": 38.90934416666666, "name": "faa16eb2ccd94d1b450b9bcf69079210", "fusion_lon": 0.0, "bike_id": "faa16eb2ccd94d1b450b9bcf69079210", "is_disabled": 0, "is_reserved": 0}, {"rental_uris": {"ios": "https://dc.lft.to/lastmile_qr_scan", "android": "https://dc.lft.to/lastmile_qr_scan"}, "lon": -77.01632866666667, "type": "electric_scooter", "fusion_lat": 0.0, "lat": 38.929372666666666, "name": "3ea471a9b1332e84e69370cd144a072d", "fusion_lon": 0.0, "bike_id": "3ea471a9b1332e84e69370cd144a072d", "is_disabled": 0, "is_reserved": 0}, {"rental_uris": {"ios": "https://dc.lft.to/lastmile_qr_scan", "android": "https://dc.lft.to/lastmile_qr_scan"}, "lon": -77.00876883333333, "type": "electric_scooter", "fusion_lat": 0.0, "lat": 38.90503183333333, "name": "3d8db8360f136dff43a0a1c8eb2c1482", "fusion_lon": 0.0, "bike_id": "3d8db8360f136dff43a0a1c8eb2c1482", "is_disabled": 0, "is_reserved": 0}, {"rental_uris": {"ios": "https://dc.lft.to/lastmile_qr_scan", "android": "https://dc.lft.to/lastmile_qr_scan"}, "lon": -77.0385015, "type": "electric_scooter", "fusion_lat": 0.0, "lat": 38.907541333333334, "name": "0f48e0656973ec8b064bd26f51779d35", "fusion_lon": 0.0, "bike_id": "0f48e0656973ec8b064bd26f51779d35", "is_disabled": 0, "is_reserved": 0}, {"rental_uris": {"ios": "https://dc.lft.to/lastmile_qr_scan", "android": "https://dc.lft.to/lastmile_qr_scan"}, "lon": -77.03268483333333, "type": "electric_scooter", "fusion_lat": 0.0, "lat": 38.916290000000004, "name": "745bf670b55da8eb6f9fcefa6b405f45", "fusion_lon": 0.0, "bike_id": "745bf670b55da8eb6f9fcefa6b405f45", "is_disabled": 0, "is_reserved": 0}, {"rental_uris": {"ios": "https://dc.lft.to/lastmile_qr_scan", "android": "https://dc.lft.to/lastmile_qr_scan"}, "lon": -77.04032116666667, "type": "electric_scooter", "fusion_lat": 0.0, "lat": 38.924352666666664, "name": "2893754510321b4e4bb2faf16f500e7e", "fusion_lon": 0.0, "bike_id": "2893754510321b4e4bb2faf16f500e7e", "is_disabled": 0, "is_reserved": 0}, {"rental_uris": {"ios": "https://dc.lft.to/lastmile_qr_scan", "android": "https://dc.lft.to/lastmile_qr_scan"}, "lon": -77.02930916666666, "type": "electric_scooter", "fusion_lat": 0.0, "lat": 38.93327333333333, "name": "eb4b30f6271af4f49ccb06822f8117cb", "fusion_lon": 0.0, "bike_id": "eb4b30f6271af4f49ccb06822f8117cb", "is_disabled": 0, "is_reserved": 0}, {"rental_uris": {"ios": "https://dc.lft.to/lastmile_qr_scan", "android": "https://dc.lft.to/lastmile_qr_scan"}, "lon": -77.10331266666667, "type": "electric_bike", "fusion_lat": 0.0, "lat": 38.965111666666665, "name": "57916a9467fabb755a4aa09ca819a116", "fusion_lon": 0.0, "bike_id": "57916a9467fabb755a4aa09ca819a116", "is_disabled": 0, "is_reserved": 0}, {"rental_uris": {"ios": "https://dc.lft.to/lastmile_qr_scan", "android": "https://dc.lft.to/lastmile_qr_scan"}, "lon": -76.94916766666667, "type": "electric_scooter", "fusion_lat": 0.0, "lat": 38.895668666666666, "name": "5981b06516125326b8bc93757d2b0376", "fusion_lon": 0.0, "bike_id": "5981b06516125326b8bc93757d2b0376", "is_disabled": 0, "is_reserved": 0}, {"rental_uris": {"ios": "https://dc.lft.to/lastmile_qr_scan", "android": "https://dc.lft.to/lastmile_qr_scan"}, "lon": -77.036612, "type": "electric_scooter", "fusion_lat": 0.0, "lat": 38.902845, "name": "ac8508e0e6aa21be7e68b39269010bd4", "fusion_lon": 0.0, "bike_id": "ac8508e0e6aa21be7e68b39269010bd4", "is_disabled": 0, "is_reserved": 0}, {"rental_uris": {"ios": "https://dc.lft.to/lastmile_qr_scan", "android": "https://dc.lft.to/lastmile_qr_scan"}, "lon": -77.032594, "type": "electric_scooter", "fusion_lat": 0.0, "lat": 38.92743466666667, "name": "f56980b82fa3bf605d23750089ac3d57", "fusion_lon": 0.0, "bike_id": "f56980b82fa3bf605d23750089ac3d57", "is_disabled": 0, "is_reserved": 0}, {"rental_uris": {"ios": "https://dc.lft.to/lastmile_qr_scan", "android": "https://dc.lft.to/lastmile_qr_scan"}, "lon": -76.9535995, "type": "electric_bike", "fusion_lat": 0.0, "lat": 38.93955066666667, "name": "8e0cb556b87fb626a67e36cb2201b310", "fusion_lon": 0.0, "bike_id": "8e0cb556b87fb626a67e36cb2201b310", "is_disabled": 0, "is_reserved": 0}, {"rental_uris": {"ios": "https://dc.lft.to/lastmile_qr_scan", "android": "https://dc.lft.to/lastmile_qr_scan"}, "lon": -77.02705716666667, "type": "electric_scooter", "fusion_lat": 0.0, "lat": 38.94998483333333, "name": "78af5033684517734ab228030caa75b3", "fusion_lon": 0.0, "bike_id": "78af5033684517734ab228030caa75b3", "is_disabled": 0, "is_reserved": 0}, {"rental_uris": {"ios": "https://dc.lft.to/lastmile_qr_scan", "android": "https://dc.lft.to/lastmile_qr_scan"}, "lon": -77.04303833333333, "type": "electric_bike", "fusion_lat": 0.0, "lat": 39.05450616666667, "name": "0902271339fed2c0174fe4cb207c227b", "fusion_lon": 0.0, "bike_id": "0902271339fed2c0174fe4cb207c227b", "is_disabled": 0, "is_reserved": 0}, {"rental_uris": {"ios": "https://dc.lft.to/lastmile_qr_scan", "android": "https://dc.lft.to/lastmile_qr_scan"}, "lon": -77.0018815, "type": "electric_scooter", "fusion_lat": 0.0, "lat": 38.90041333333333, "name": "5cf3dda8cb34a5914a387ff865f500af", "fusion_lon": 0.0, "bike_id": "5cf3dda8cb34a5914a387ff865f500af", "is_disabled": 0, "is_reserved": 0}, {"rental_uris": {"ios": "https://dc.lft.to/lastmile_qr_scan", "android": "https://dc.lft.to/lastmile_qr_scan"}, "lon": -77.178402, "type": "electric_bike", "fusion_lat": 0.0, "lat": 39.08857733333333, "name": "1c9476360761367d75da496089aa19f0", "fusion_lon": 0.0, "bike_id": "1c9476360761367d75da496089aa19f0", "is_disabled": 0, "is_reserved": 0}, {"rental_uris": {"ios": "https://dc.lft.to/lastmile_qr_scan", "android": "https://dc.lft.to/lastmile_qr_scan"}, "lon": -77.0376875, "type": "electric_scooter", "fusion_lat": 0.0, "lat": 38.9159515, "name": "71ad70c97ef69db04ca4ee2bb2c3131b", "fusion_lon": 0.0, "bike_id": "71ad70c97ef69db04ca4ee2bb2c3131b", "is_disabled": 0, "is_reserved": 0}, {"rental_uris": {"ios": "https://dc.lft.to/lastmile_qr_scan", "android": "https://dc.lft.to/lastmile_qr_scan"}, "lon": -76.98901366666666, "type": "electric_scooter", "fusion_lat": 0.0, "lat": 38.866991, "name": "20892cdef6141e8ef6cc605440523f5d", "fusion_lon": 0.0, "bike_id": "20892cdef6141e8ef6cc605440523f5d", "is_disabled": 0, "is_reserved": 0}, {"rental_uris": {"ios": "https://dc.lft.to/lastmile_qr_scan", "android": "https://dc.lft.to/lastmile_qr_scan"}, "lon": -77.04419516666667, "type": "electric_scooter", "fusion_lat": 0.0, "lat": 38.922341833333334, "name": "93f15e6228e651421acffb93c8f61cb9", "fusion_lon": 0.0, "bike_id": "93f15e6228e651421acffb93c8f61cb9", "is_disabled": 0, "is_reserved": 0}, {"rental_uris": {"ios": "https://dc.lft.to/lastmile_qr_scan", "android": "https://dc.lft.to/lastmile_qr_scan"}, "lon": -77.02331916666667, "type": "electric_scooter", "fusion_lat": 0.0, "lat": 38.9289565, "name": "69b482cc325d041b78f1785d9fc95395", "fusion_lon": 0.0, "bike_id": "69b482cc325d041b78f1785d9fc95395", "is_disabled": 0, "is_reserved": 0}, {"rental_uris": {"ios": "https://dc.lft.to/lastmile_qr_scan", "android": "https://dc.lft.to/lastmile_qr_scan"}, "lon": -77.03357333333334, "type": "electric_scooter", "fusion_lat": 0.0, "lat": 38.8851715, "name": "7e112e00d70de0a187c1c6a8f68f9f11", "fusion_lon": 0.0, "bike_id": "7e112e00d70de0a187c1c6a8f68f9f11", "is_disabled": 0, "is_reserved": 0}, {"rental_uris": {"ios": "https://dc.lft.to/lastmile_qr_scan", "android": "https://dc.lft.to/lastmile_qr_scan"}, "lon": -76.99271616666667, "type": "electric_scooter", "fusion_lat": 0.0, "lat": 38.89691583333333, "name": "0c76757c518ce5da70a117f143c29670", "fusion_lon": 0.0, "bike_id": "0c76757c518ce5da70a117f143c29670", "is_disabled": 0, "is_reserved": 0}, {"rental_uris": {"ios": "https://dc.lft.to/lastmile_qr_scan", "android": "https://dc.lft.to/lastmile_qr_scan"}, "lon": -77.0443425, "type": "electric_scooter", "fusion_lat": 0.0, "lat": 38.9054545, "name": "85d28c30f43967754bc9ce539abdf166", "fusion_lon": 0.0, "bike_id": "85d28c30f43967754bc9ce539abdf166", "is_disabled": 0, "is_reserved": 0}, {"rental_uris": {"ios": "https://dc.lft.to/lastmile_qr_scan", "android": "https://dc.lft.to/lastmile_qr_scan"}, "lon": -77.06524316666666, "type": "electric_scooter", "fusion_lat": 0.0, "lat": 38.911296666666665, "name": "dbcc01ec9c695c7076e3e92609d989c9", "fusion_lon": 0.0, "bike_id": "dbcc01ec9c695c7076e3e92609d989c9", "is_disabled": 0, "is_reserved": 0}, {"rental_uris": {"ios": "https://dc.lft.to/lastmile_qr_scan", "android": "https://dc.lft.to/lastmile_qr_scan"}, "lon": -76.99514233333333, "type": "electric_scooter", "fusion_lat": 0.0, "lat": 38.894902, "name": "b188b45eba39e97e891f47be0eecf3a7", "fusion_lon": 0.0, "bike_id": "b188b45eba39e97e891f47be0eecf3a7", "is_disabled": 0, "is_reserved": 0}, {"rental_uris": {"ios": "https://dc.lft.to/lastmile_qr_scan", "android": "https://dc.lft.to/lastmile_qr_scan"}, "lon": -77.0283425, "type": "electric_scooter", "fusion_lat": 0.0, "lat": 38.91254283333333, "name": "af22fd752facc6051d82c353a7f0a39b", "fusion_lon": 0.0, "bike_id": "af22fd752facc6051d82c353a7f0a39b", "is_disabled": 0, "is_reserved": 0}, {"rental_uris": {"ios": "https://dc.lft.to/lastmile_qr_scan", "android": "https://dc.lft.to/lastmile_qr_scan"}, "lon": -76.9484065, "type": "electric_scooter", "fusion_lat": 0.0, "lat": 38.894912833333336, "name": "6c33c176f66f9cb2a11763c83e7bbec2", "fusion_lon": 0.0, "bike_id": "6c33c176f66f9cb2a11763c83e7bbec2", "is_disabled": 0, "is_reserved": 0}, {"rental_uris": {"ios": "https://dc.lft.to/lastmile_qr_scan", "android": "https://dc.lft.to/lastmile_qr_scan"}, "lon": -77.0320605, "type": "electric_scooter", "fusion_lat": 0.0, "lat": 38.9116455, "name": "2732933e09fbbf621268018e45bae7e4", "fusion_lon": 0.0, "bike_id": "2732933e09fbbf621268018e45bae7e4", "is_disabled": 0, "is_reserved": 0}, {"rental_uris": {"ios": "https://dc.lft.to/lastmile_qr_scan", "android": "https://dc.lft.to/lastmile_qr_scan"}, "lon": -77.03706066666666, "type": "electric_bike", "fusion_lat": 0.0, "lat": 38.93567016666667, "name": "ec7d37bbb94050c96ee932ceb5b389e5", "fusion_lon": 0.0, "bike_id": "ec7d37bbb94050c96ee932ceb5b389e5", "is_disabled": 0, "is_reserved": 0}, {"rental_uris": {"ios": "https://dc.lft.to/lastmile_qr_scan", "android": "https://dc.lft.to/lastmile_qr_scan"}, "lon": -76.93175066666667, "type": "electric_scooter", "fusion_lat": 0.0, "lat": 38.89886116666667, "name": "dc5e59d88550eed8ef4ab4d76ce5826b", "fusion_lon": 0.0, "bike_id": "dc5e59d88550eed8ef4ab4d76ce5826b", "is_disabled": 0, "is_reserved": 0}, {"rental_uris": {"ios": "https://dc.lft.to/lastmile_qr_scan", "android": "https://dc.lft.to/lastmile_qr_scan"}, "lon": -77.10721983333333, "type": "electric_bike", "fusion_lat": 0.0, "lat": 38.8553375, "name": "fde31e4adc230f6672d489ecf2be2c01", "fusion_lon": 0.0, "bike_id": "fde31e4adc230f6672d489ecf2be2c01", "is_disabled": 0, "is_reserved": 0}, {"rental_uris": {"ios": "https://dc.lft.to/lastmile_qr_scan", "android": "https://dc.lft.to/lastmile_qr_scan"}, "lon": -76.94848766666667, "type": "electric_scooter", "fusion_lat": 0.0, "lat": 38.883084333333336, "name": "96dd8261519b83cf524f0cfefff37728", "fusion_lon": 0.0, "bike_id": "96dd8261519b83cf524f0cfefff37728", "is_disabled": 0, "is_reserved": 0}, {"rental_uris": {"ios": "https://dc.lft.to/lastmile_qr_scan", "android": "https://dc.lft.to/lastmile_qr_scan"}, "lon": -76.98436966666667, "type": "electric_scooter", "fusion_lat": 0.0, "lat": 38.914260666666664, "name": "105a2ef925086be04af1bd8b79c0c6f7", "fusion_lon": 0.0, "bike_id": "105a2ef925086be04af1bd8b79c0c6f7", "is_disabled": 0, "is_reserved": 0}, {"rental_uris": {"ios": "https://dc.lft.to/lastmile_qr_scan", "android": "https://dc.lft.to/lastmile_qr_scan"}, "lon": -77.04818066666667, "type": "electric_scooter", "fusion_lat": 0.0, "lat": 38.913343166666664, "name": "fa3103c908b3dc5e12c5e099007a82f7", "fusion_lon": 0.0, "bike_id": "fa3103c908b3dc5e12c5e099007a82f7", "is_disabled": 0, "is_reserved": 0}, {"rental_uris": {"ios": "https://dc.lft.to/lastmile_qr_scan", "android": "https://dc.lft.to/lastmile_qr_scan"}, "lon": -77.00037416666666, "type": "electric_bike", "fusion_lat": 0.0, "lat": 38.874418166666665, "name": "115394d718891c3fad7b5592c5cb0148", "fusion_lon": 0.0, "bike_id": "115394d718891c3fad7b5592c5cb0148", "is_disabled": 0, "is_reserved": 0}, {"rental_uris": {"ios": "https://dc.lft.to/lastmile_qr_scan", "android": "https://dc.lft.to/lastmile_qr_scan"}, "lon": -77.095625, "type": "electric_bike", "fusion_lat": 0.0, "lat": 38.91707566666667, "name": "9a18ecf61d8a59942f01bf7991206cc1", "fusion_lon": 0.0, "bike_id": "9a18ecf61d8a59942f01bf7991206cc1", "is_disabled": 0, "is_reserved": 0}, {"rental_uris": {"ios": "https://dc.lft.to/lastmile_qr_scan", "android": "https://dc.lft.to/lastmile_qr_scan"}, "lon": -77.04389216666667, "type": "electric_scooter", "fusion_lat": 0.0, "lat": 38.909083333333335, "name": "9d42c5718a4a17970b83ce2e3a5638b5", "fusion_lon": 0.0, "bike_id": "9d42c5718a4a17970b83ce2e3a5638b5", "is_disabled": 0, "is_reserved": 0}, {"rental_uris": {"ios": "https://dc.lft.to/lastmile_qr_scan", "android": "https://dc.lft.to/lastmile_qr_scan"}, "lon": -77.01322516666667, "type": "electric_scooter", "fusion_lat": 0.0, "lat": 38.89237083333333, "name": "ae827993531528f8a5bbf02aa161e8d5", "fusion_lon": 0.0, "bike_id": "ae827993531528f8a5bbf02aa161e8d5", "is_disabled": 0, "is_reserved": 0}, {"rental_uris": {"ios": "https://dc.lft.to/lastmile_qr_scan", "android": "https://dc.lft.to/lastmile_qr_scan"}, "lon": -76.90814083333333, "type": "electric_bike", "fusion_lat": 0.0, "lat": 38.99455483333333, "name": "1d956b883d18773d7b711ac70cacc5bf", "fusion_lon": 0.0, "bike_id": "1d956b883d18773d7b711ac70cacc5bf", "is_disabled": 0, "is_reserved": 0}, {"rental_uris": {"ios": "https://dc.lft.to/lastmile_qr_scan", "android": "https://dc.lft.to/lastmile_qr_scan"}, "lon": -77.025354, "type": "electric_scooter", "fusion_lat": 0.0, "lat": 38.9182935, "name": "32056b3df79f30f2ecdb125c3e22ca20", "fusion_lon": 0.0, "bike_id": "32056b3df79f30f2ecdb125c3e22ca20", "is_disabled": 0, "is_reserved": 0}, {"rental_uris": {"ios": "https://dc.lft.to/lastmile_qr_scan", "android": "https://dc.lft.to/lastmile_qr_scan"}, "lon": -77.02130033333333, "type": "electric_scooter", "fusion_lat": 0.0, "lat": 38.899873166666666, "name": "7bb011f55843faa368086048a7ff26ec", "fusion_lon": 0.0, "bike_id": "7bb011f55843faa368086048a7ff26ec", "is_disabled": 0, "is_reserved": 0}, {"rental_uris": {"ios": "https://dc.lft.to/lastmile_qr_scan", "android": "https://dc.lft.to/lastmile_qr_scan"}, "lon": -77.06529333333333, "type": "electric_scooter", "fusion_lat": 0.0, "lat": 38.93476883333334, "name": "0bdae42fab0507d1b539cbf3125a600d", "fusion_lon": 0.0, "bike_id": "0bdae42fab0507d1b539cbf3125a600d", "is_disabled": 0, "is_reserved": 0}, {"rental_uris": {"ios": "https://dc.lft.to/lastmile_qr_scan", "android": "https://dc.lft.to/lastmile_qr_scan"}, "lon": -77.04261366666667, "type": "electric_scooter", "fusion_lat": 0.0, "lat": 38.9028235, "name": "3538d747a330fc772c4913ea7b1825f3", "fusion_lon": 0.0, "bike_id": "3538d747a330fc772c4913ea7b1825f3", "is_disabled": 0, "is_reserved": 0}, {"rental_uris": {"ios": "https://dc.lft.to/lastmile_qr_scan", "android": "https://dc.lft.to/lastmile_qr_scan"}, "lon": -77.01083116666666, "type": "electric_scooter", "fusion_lat": 0.0, "lat": 38.894921, "name": "eda521bfe216aa25a7c9bc65a1e387c5", "fusion_lon": 0.0, "bike_id": "eda521bfe216aa25a7c9bc65a1e387c5", "is_disabled": 0, "is_reserved": 0}, {"rental_uris": {"ios": "https://dc.lft.to/lastmile_qr_scan", "android": "https://dc.lft.to/lastmile_qr_scan"}, "lon": -77.02710733333333, "type": "electric_scooter", "fusion_lat": 0.0, "lat": 38.9067865, "name": "89832799c730825612311dc97b4e14a3", "fusion_lon": 0.0, "bike_id": "89832799c730825612311dc97b4e14a3", "is_disabled": 0, "is_reserved": 0}, {"rental_uris": {"ios": "https://dc.lft.to/lastmile_qr_scan", "android": "https://dc.lft.to/lastmile_qr_scan"}, "lon": -77.10681383333333, "type": "electric_bike", "fusion_lat": 0.0, "lat": 38.93582716666667, "name": "a086ea030ecc35ce7edc7365a1999209", "fusion_lon": 0.0, "bike_id": "a086ea030ecc35ce7edc7365a1999209", "is_disabled": 0, "is_reserved": 0}, {"rental_uris": {"ios": "https://dc.lft.to/lastmile_qr_scan", "android": "https://dc.lft.to/lastmile_qr_scan"}, "lon": -77.04662816666666, "type": "electric_scooter", "fusion_lat": 0.0, "lat": 38.89341, "name": "88fbb512a2c2d87fbc8278311ec1a0ce", "fusion_lon": 0.0, "bike_id": "88fbb512a2c2d87fbc8278311ec1a0ce", "is_disabled": 0, "is_reserved": 0}, {"rental_uris": {"ios": "https://dc.lft.to/lastmile_qr_scan", "android": "https://dc.lft.to/lastmile_qr_scan"}, "lon": -76.99161966666667, "type": "electric_scooter", "fusion_lat": 0.0, "lat": 38.900434, "name": "ba3ea25c24e6a83cb21b745239f08bfb", "fusion_lon": 0.0, "bike_id": "ba3ea25c24e6a83cb21b745239f08bfb", "is_disabled": 0, "is_reserved": 0}, {"rental_uris": {"ios": "https://dc.lft.to/lastmile_qr_scan", "android": "https://dc.lft.to/lastmile_qr_scan"}, "lon": -77.04898933333334, "type": "electric_scooter", "fusion_lat": 0.0, "lat": 38.905558166666665, "name": "8933487a5feceb2ea484158b0c736968", "fusion_lon": 0.0, "bike_id": "8933487a5feceb2ea484158b0c736968", "is_disabled": 0, "is_reserved": 0}, {"rental_uris": {"ios": "https://dc.lft.to/lastmile_qr_scan", "android": "https://dc.lft.to/lastmile_qr_scan"}, "lon": -77.01836433333334, "type": "electric_bike", "fusion_lat": 0.0, "lat": 38.90870283333334, "name": "ad8f6ed6233606fc6728a9eea0974377", "fusion_lon": 0.0, "bike_id": "ad8f6ed6233606fc6728a9eea0974377", "is_disabled": 0, "is_reserved": 0}, {"rental_uris": {"ios": "https://dc.lft.to/lastmile_qr_scan", "android": "https://dc.lft.to/lastmile_qr_scan"}, "lon": -77.02216633333333, "type": "electric_scooter", "fusion_lat": 0.0, "lat": 38.90576033333333, "name": "ceb2af135debfdf45f4bff147c43b384", "fusion_lon": 0.0, "bike_id": "ceb2af135debfdf45f4bff147c43b384", "is_disabled": 0, "is_reserved": 0}, {"rental_uris": {"ios": "https://dc.lft.to/lastmile_qr_scan", "android": "https://dc.lft.to/lastmile_qr_scan"}, "lon": -76.93348466666667, "type": "electric_scooter", "fusion_lat": 0.0, "lat": 38.89909216666667, "name": "4a97d82d1cac2c99c5fff39c0ff972b6", "fusion_lon": 0.0, "bike_id": "4a97d82d1cac2c99c5fff39c0ff972b6", "is_disabled": 0, "is_reserved": 0}, {"rental_uris": {"ios": "https://dc.lft.to/lastmile_qr_scan", "android": "https://dc.lft.to/lastmile_qr_scan"}, "lon": -77.02562633333334, "type": "electric_scooter", "fusion_lat": 0.0, "lat": 38.894980333333336, "name": "64dd935de74f7c7ef8929308f5aeadbc", "fusion_lon": 0.0, "bike_id": "64dd935de74f7c7ef8929308f5aeadbc", "is_disabled": 0, "is_reserved": 0}, {"rental_uris": {"ios": "https://dc.lft.to/lastmile_qr_scan", "android": "https://dc.lft.to/lastmile_qr_scan"}, "lon": -77.04821266666667, "type": "electric_scooter", "fusion_lat": 0.0, "lat": 38.90514916666667, "name": "2c0c053224b8ca03350cfb6e6b2477e9", "fusion_lon": 0.0, "bike_id": "2c0c053224b8ca03350cfb6e6b2477e9", "is_disabled": 0, "is_reserved": 0}, {"rental_uris": {"ios": "https://dc.lft.to/lastmile_qr_scan", "android": "https://dc.lft.to/lastmile_qr_scan"}, "lon": -77.01359116666667, "type": "electric_scooter", "fusion_lat": 0.0, "lat": 38.95291683333333, "name": "0ecb0fb0a54dec16d91ffd9acfdfb2e3", "fusion_lon": 0.0, "bike_id": "0ecb0fb0a54dec16d91ffd9acfdfb2e3", "is_disabled": 0, "is_reserved": 0}, {"rental_uris": {"ios": "https://dc.lft.to/lastmile_qr_scan", "android": "https://dc.lft.to/lastmile_qr_scan"}, "lon": -77.012289, "type": "electric_scooter", "fusion_lat": 0.0, "lat": 38.86416083333334, "name": "2bfe85db93f4548ab504ae3daff085a4", "fusion_lon": 0.0, "bike_id": "2bfe85db93f4548ab504ae3daff085a4", "is_disabled": 0, "is_reserved": 0}, {"rental_uris": {"ios": "https://dc.lft.to/lastmile_qr_scan", "android": "https://dc.lft.to/lastmile_qr_scan"}, "lon": -77.04424233333333, "type": "electric_scooter", "fusion_lat": 0.0, "lat": 38.92611683333333, "name": "9a1b2de29d8838a675a7ef74e5fbca36", "fusion_lon": 0.0, "bike_id": "9a1b2de29d8838a675a7ef74e5fbca36", "is_disabled": 0, "is_reserved": 0}, {"rental_uris": {"ios": "https://dc.lft.to/lastmile_qr_scan", "android": "https://dc.lft.to/lastmile_qr_scan"}, "lon": -77.02424816666667, "type": "electric_scooter", "fusion_lat": 0.0, "lat": 38.89228283333333, "name": "4c28efc8a142f21db5f62220cb0c6eaf", "fusion_lon": 0.0, "bike_id": "4c28efc8a142f21db5f62220cb0c6eaf", "is_disabled": 0, "is_reserved": 0}, {"rental_uris": {"ios": "https://dc.lft.to/lastmile_qr_scan", "android": "https://dc.lft.to/lastmile_qr_scan"}, "lon": -77.05858083333334, "type": "electric_scooter", "fusion_lat": 0.0, "lat": 38.936073, "name": "bfb0406b10f63e0ce59d6a7803fc42c4", "fusion_lon": 0.0, "bike_id": "bfb0406b10f63e0ce59d6a7803fc42c4", "is_disabled": 0, "is_reserved": 0}, {"rental_uris": {"ios": "https://dc.lft.to/lastmile_qr_scan", "android": "https://dc.lft.to/lastmile_qr_scan"}, "lon": -76.98153533333333, "type": "electric_scooter", "fusion_lat": 0.0, "lat": 38.8964565, "name": "5de21b8cd115349812ebfb65c2679ff7", "fusion_lon": 0.0, "bike_id": "5de21b8cd115349812ebfb65c2679ff7", "is_disabled": 0, "is_reserved": 0}, {"rental_uris": {"ios": "https://dc.lft.to/lastmile_qr_scan", "android": "https://dc.lft.to/lastmile_qr_scan"}, "lon": -76.983474, "type": "electric_scooter", "fusion_lat": 0.0, "lat": 38.9153455, "name": "a669e72c735006f8ba1a58aca85cba85", "fusion_lon": 0.0, "bike_id": "a669e72c735006f8ba1a58aca85cba85", "is_disabled": 0, "is_reserved": 0}, {"rental_uris": {"ios": "https://dc.lft.to/lastmile_qr_scan", "android": "https://dc.lft.to/lastmile_qr_scan"}, "lon": -77.009574, "type": "electric_scooter", "fusion_lat": 0.0, "lat": 38.9073645, "name": "9cc10c50b22813a531f38946c5c5841e", "fusion_lon": 0.0, "bike_id": "9cc10c50b22813a531f38946c5c5841e", "is_disabled": 0, "is_reserved": 0}, {"rental_uris": {"ios": "https://dc.lft.to/lastmile_qr_scan", "android": "https://dc.lft.to/lastmile_qr_scan"}, "lon": -77.0020265, "type": "electric_scooter", "fusion_lat": 0.0, "lat": 38.903044666666666, "name": "c074ce9d22fea15c96ef8eae033af302", "fusion_lon": 0.0, "bike_id": "c074ce9d22fea15c96ef8eae033af302", "is_disabled": 0, "is_reserved": 0}, {"rental_uris": {"ios": "https://dc.lft.to/lastmile_qr_scan", "android": "https://dc.lft.to/lastmile_qr_scan"}, "lon": -77.03171816666666, "type": "electric_bike", "fusion_lat": 0.0, "lat": 38.9171785, "name": "b4e331a660a68c69e8efd1651cc65997", "fusion_lon": 0.0, "bike_id": "b4e331a660a68c69e8efd1651cc65997", "is_disabled": 0, "is_reserved": 0}, {"rental_uris": {"ios": "https://dc.lft.to/lastmile_qr_scan", "android": "https://dc.lft.to/lastmile_qr_scan"}, "lon": -77.002538, "type": "electric_bike", "fusion_lat": 0.0, "lat": 38.91179183333333, "name": "12891df4180a9b8aaac5fb2b78a2b551", "fusion_lon": 0.0, "bike_id": "12891df4180a9b8aaac5fb2b78a2b551", "is_disabled": 0, "is_reserved": 0}, {"rental_uris": {"ios": "https://dc.lft.to/lastmile_qr_scan", "android": "https://dc.lft.to/lastmile_qr_scan"}, "lon": -77.02314633333333, "type": "electric_scooter", "fusion_lat": 0.0, "lat": 38.887288166666664, "name": "cb682200492833d3182befdab9ecc0c8", "fusion_lon": 0.0, "bike_id": "cb682200492833d3182befdab9ecc0c8", "is_disabled": 0, "is_reserved": 0}, {"rental_uris": {"ios": "https://dc.lft.to/lastmile_qr_scan", "android": "https://dc.lft.to/lastmile_qr_scan"}, "lon": -77.00458483333334, "type": "electric_scooter", "fusion_lat": 0.0, "lat": 38.876923, "name": "035e60778b6c168fd500d4f208407001", "fusion_lon": 0.0, "bike_id": "035e60778b6c168fd500d4f208407001", "is_disabled": 0, "is_reserved": 0}, {"rental_uris": {"ios": "https://dc.lft.to/lastmile_qr_scan", "android": "https://dc.lft.to/lastmile_qr_scan"}, "lon": -76.97613383333334, "type": "electric_bike", "fusion_lat": 0.0, "lat": 38.9131105, "name": "83b1c9c2cd0bb64d4b69cd66d2f24f7a", "fusion_lon": 0.0, "bike_id": "83b1c9c2cd0bb64d4b69cd66d2f24f7a", "is_disabled": 0, "is_reserved": 0}, {"rental_uris": {"ios": "https://dc.lft.to/lastmile_qr_scan", "android": "https://dc.lft.to/lastmile_qr_scan"}, "lon": -77.0344245, "type": "electric_scooter", "fusion_lat": 0.0, "lat": 38.90949833333333, "name": "0b360616927e115cdbe83c843243c4b5", "fusion_lon": 0.0, "bike_id": "0b360616927e115cdbe83c843243c4b5", "is_disabled": 0, "is_reserved": 0}, {"rental_uris": {"ios": "https://dc.lft.to/lastmile_qr_scan", "android": "https://dc.lft.to/lastmile_qr_scan"}, "lon": -77.04390733333334, "type": "electric_scooter", "fusion_lat": 0.0, "lat": 38.9228165, "name": "009b8e019aa689b059a34eaaf01247aa", "fusion_lon": 0.0, "bike_id": "009b8e019aa689b059a34eaaf01247aa", "is_disabled": 0, "is_reserved": 0}, {"rental_uris": {"ios": "https://dc.lft.to/lastmile_qr_scan", "android": "https://dc.lft.to/lastmile_qr_scan"}, "lon": -77.0200295, "type": "electric_scooter", "fusion_lat": 0.0, "lat": 38.89246983333334, "name": "8b806171a8dd7a3da76c78c0791ec043", "fusion_lon": 0.0, "bike_id": "8b806171a8dd7a3da76c78c0791ec043", "is_disabled": 0, "is_reserved": 0}, {"rental_uris": {"ios": "https://dc.lft.to/lastmile_qr_scan", "android": "https://dc.lft.to/lastmile_qr_scan"}, "lon": -76.971892, "type": "electric_scooter", "fusion_lat": 0.0, "lat": 38.91264616666667, "name": "f2e2742774a0651af496a2d1a8bbbe80", "fusion_lon": 0.0, "bike_id": "f2e2742774a0651af496a2d1a8bbbe80", "is_disabled": 0, "is_reserved": 0}, {"rental_uris": {"ios": "https://dc.lft.to/lastmile_qr_scan", "android": "https://dc.lft.to/lastmile_qr_scan"}, "lon": -76.99033783333333, "type": "electric_scooter", "fusion_lat": 0.0, "lat": 38.85872666666667, "name": "ec11839859ff72eee8e4160daa323253", "fusion_lon": 0.0, "bike_id": "ec11839859ff72eee8e4160daa323253", "is_disabled": 0, "is_reserved": 0}, {"rental_uris": {"ios": "https://dc.lft.to/lastmile_qr_scan", "android": "https://dc.lft.to/lastmile_qr_scan"}, "lon": -77.01072916666666, "type": "electric_scooter", "fusion_lat": 0.0, "lat": 38.870998, "name": "e61b9a7e4e1d2cb3faf98e1c6bc00c79", "fusion_lon": 0.0, "bike_id": "e61b9a7e4e1d2cb3faf98e1c6bc00c79", "is_disabled": 0, "is_reserved": 0}, {"rental_uris": {"ios": "https://dc.lft.to/lastmile_qr_scan", "android": "https://dc.lft.to/lastmile_qr_scan"}, "lon": -77.06804783333334, "type": "electric_bike", "fusion_lat": 0.0, "lat": 38.9078575, "name": "476b7bd47e7a1b6bd8a2692e3b1d0117", "fusion_lon": 0.0, "bike_id": "476b7bd47e7a1b6bd8a2692e3b1d0117", "is_disabled": 0, "is_reserved": 0}, {"rental_uris": {"ios": "https://dc.lft.to/lastmile_qr_scan", "android": "https://dc.lft.to/lastmile_qr_scan"}, "lon": -77.015181, "type": "electric_scooter", "fusion_lat": 0.0, "lat": 38.91873066666667, "name": "ef90c773d84ababda911dc6784f181ca", "fusion_lon": 0.0, "bike_id": "ef90c773d84ababda911dc6784f181ca", "is_disabled": 0, "is_reserved": 0}, {"rental_uris": {"ios": "https://dc.lft.to/lastmile_qr_scan", "android": "https://dc.lft.to/lastmile_qr_scan"}, "lon": -77.018195, "type": "electric_scooter", "fusion_lat": 0.0, "lat": 38.908158, "name": "e4c3c979807bef4dfa4c134eaf0e4e12", "fusion_lon": 0.0, "bike_id": "e4c3c979807bef4dfa4c134eaf0e4e12", "is_disabled": 0, "is_reserved": 0}, {"rental_uris": {"ios": "https://dc.lft.to/lastmile_qr_scan", "android": "https://dc.lft.to/lastmile_qr_scan"}, "lon": -77.031871, "type": "electric_scooter", "fusion_lat": 0.0, "lat": 38.915736833333334, "name": "473e3e9fa12c1ae9b78e5e9a99aac1cf", "fusion_lon": 0.0, "bike_id": "473e3e9fa12c1ae9b78e5e9a99aac1cf", "is_disabled": 0, "is_reserved": 0}, {"rental_uris": {"ios": "https://dc.lft.to/lastmile_qr_scan", "android": "https://dc.lft.to/lastmile_qr_scan"}, "lon": -77.03487383333334, "type": "electric_scooter", "fusion_lat": 0.0, "lat": 38.917093666666666, "name": "a5f1ac3b6118cad36acb24ee2fa49176", "fusion_lon": 0.0, "bike_id": "a5f1ac3b6118cad36acb24ee2fa49176", "is_disabled": 0, "is_reserved": 0}, {"rental_uris": {"ios": "https://dc.lft.to/lastmile_qr_scan", "android": "https://dc.lft.to/lastmile_qr_scan"}, "lon": -77.00740116666667, "type": "electric_scooter", "fusion_lat": 0.0, "lat": 38.95523583333333, "name": "191dd6fff4cfa3e4740f4fa6a7668a56", "fusion_lon": 0.0, "bike_id": "191dd6fff4cfa3e4740f4fa6a7668a56", "is_disabled": 0, "is_reserved": 0}, {"rental_uris": {"ios": "https://dc.lft.to/lastmile_qr_scan", "android": "https://dc.lft.to/lastmile_qr_scan"}, "lon": -77.03256166666667, "type": "electric_scooter", "fusion_lat": 0.0, "lat": 38.93641233333334, "name": "874bf4ab08076f5aadc2bfc8912da27d", "fusion_lon": 0.0, "bike_id": "874bf4ab08076f5aadc2bfc8912da27d", "is_disabled": 0, "is_reserved": 0}, {"rental_uris": {"ios": "https://dc.lft.to/lastmile_qr_scan", "android": "https://dc.lft.to/lastmile_qr_scan"}, "lon": -77.03266316666667, "type": "electric_scooter", "fusion_lat": 0.0, "lat": 38.93235466666667, "name": "5cbd703edd17e14597d849199e059d4d", "fusion_lon": 0.0, "bike_id": "5cbd703edd17e14597d849199e059d4d", "is_disabled": 0, "is_reserved": 0}, {"rental_uris": {"ios": "https://dc.lft.to/lastmile_qr_scan", "android": "https://dc.lft.to/lastmile_qr_scan"}, "lon": -77.02353366666667, "type": "electric_scooter", "fusion_lat": 0.0, "lat": 38.92278116666667, "name": "de186b5f5ebe3013b5aa47dae149fe84", "fusion_lon": 0.0, "bike_id": "de186b5f5ebe3013b5aa47dae149fe84", "is_disabled": 0, "is_reserved": 0}, {"rental_uris": {"ios": "https://dc.lft.to/lastmile_qr_scan", "android": "https://dc.lft.to/lastmile_qr_scan"}, "lon": -77.03605366666666, "type": "electric_scooter", "fusion_lat": 0.0, "lat": 38.9027335, "name": "9a89bdc8d4a1abe74dad6d0acc0fe79b", "fusion_lon": 0.0, "bike_id": "9a89bdc8d4a1abe74dad6d0acc0fe79b", "is_disabled": 0, "is_reserved": 0}, {"rental_uris": {"ios": "https://dc.lft.to/lastmile_qr_scan", "android": "https://dc.lft.to/lastmile_qr_scan"}, "lon": -77.06786183333334, "type": "electric_scooter", "fusion_lat": 0.0, "lat": 38.95210616666667, "name": "ecd66ecba5dfb3addc8d6e76c20e2ff4", "fusion_lon": 0.0, "bike_id": "ecd66ecba5dfb3addc8d6e76c20e2ff4", "is_disabled": 0, "is_reserved": 0}, {"rental_uris": {"ios": "https://dc.lft.to/lastmile_qr_scan", "android": "https://dc.lft.to/lastmile_qr_scan"}, "lon": -77.00209066666666, "type": "electric_scooter", "fusion_lat": 0.0, "lat": 38.90222933333333, "name": "970df86b49ed66a0cf14f57e9d00dfba", "fusion_lon": 0.0, "bike_id": "970df86b49ed66a0cf14f57e9d00dfba", "is_disabled": 0, "is_reserved": 0}, {"rental_uris": {"ios": "https://dc.lft.to/lastmile_qr_scan", "android": "https://dc.lft.to/lastmile_qr_scan"}, "lon": -77.03201083333333, "type": "electric_scooter", "fusion_lat": 0.0, "lat": 38.91354716666667, "name": "bba8a9678567792ffd0104f2e1736fc6", "fusion_lon": 0.0, "bike_id": "bba8a9678567792ffd0104f2e1736fc6", "is_disabled": 0, "is_reserved": 0}, {"rental_uris": {"ios": "https://dc.lft.to/lastmile_qr_scan", "android": "https://dc.lft.to/lastmile_qr_scan"}, "lon": -77.03224033333333, "type": "electric_scooter", "fusion_lat": 0.0, "lat": 38.911961, "name": "d79926f4a50c99af06393074da8b7ed7", "fusion_lon": 0.0, "bike_id": "d79926f4a50c99af06393074da8b7ed7", "is_disabled": 0, "is_reserved": 0}, {"rental_uris": {"ios": "https://dc.lft.to/lastmile_qr_scan", "android": "https://dc.lft.to/lastmile_qr_scan"}, "lon": -77.042503, "type": "electric_scooter", "fusion_lat": 0.0, "lat": 38.9229805, "name": "dbbfc9c94718c0ece1781bd626ffe57b", "fusion_lon": 0.0, "bike_id": "dbbfc9c94718c0ece1781bd626ffe57b", "is_disabled": 0, "is_reserved": 0}, {"rental_uris": {"ios": "https://dc.lft.to/lastmile_qr_scan", "android": "https://dc.lft.to/lastmile_qr_scan"}, "lon": -77.01057616666667, "type": "electric_scooter", "fusion_lat": 0.0, "lat": 38.87933616666667, "name": "39e22341f9331354063187f5dd756676", "fusion_lon": 0.0, "bike_id": "39e22341f9331354063187f5dd756676", "is_disabled": 0, "is_reserved": 0}, {"rental_uris": {"ios": "https://dc.lft.to/lastmile_qr_scan", "android": "https://dc.lft.to/lastmile_qr_scan"}, "lon": -77.03564716666666, "type": "electric_scooter", "fusion_lat": 0.0, "lat": 38.9088005, "name": "8b13a85fbfd3602b898886a6cf2cf089", "fusion_lon": 0.0, "bike_id": "8b13a85fbfd3602b898886a6cf2cf089", "is_disabled": 0, "is_reserved": 0}, {"rental_uris": {"ios": "https://dc.lft.to/lastmile_qr_scan", "android": "https://dc.lft.to/lastmile_qr_scan"}, "lon": -77.025935, "type": "electric_scooter", "fusion_lat": 0.0, "lat": 38.896076, "name": "a33487e1700dec0419947edb880ea4e2", "fusion_lon": 0.0, "bike_id": "a33487e1700dec0419947edb880ea4e2", "is_disabled": 0, "is_reserved": 0}, {"rental_uris": {"ios": "https://dc.lft.to/lastmile_qr_scan", "android": "https://dc.lft.to/lastmile_qr_scan"}, "lon": -77.06758233333333, "type": "electric_scooter", "fusion_lat": 0.0, "lat": 38.91574116666666, "name": "9bc355b6ccaeae96091cfabf830d46b7", "fusion_lon": 0.0, "bike_id": "9bc355b6ccaeae96091cfabf830d46b7", "is_disabled": 0, "is_reserved": 0}, {"rental_uris": {"ios": "https://dc.lft.to/lastmile_qr_scan", "android": "https://dc.lft.to/lastmile_qr_scan"}, "lon": -77.0210345, "type": "electric_scooter", "fusion_lat": 0.0, "lat": 38.91312716666667, "name": "7a81f5fd82130aaf2174816d85d9353d", "fusion_lon": 0.0, "bike_id": "7a81f5fd82130aaf2174816d85d9353d", "is_disabled": 0, "is_reserved": 0}, {"rental_uris": {"ios": "https://dc.lft.to/lastmile_qr_scan", "android": "https://dc.lft.to/lastmile_qr_scan"}, "lon": -77.01112983333333, "type": "electric_scooter", "fusion_lat": 0.0, "lat": 38.907943833333334, "name": "361e58e60b43a243c2ef93184ed76ebd", "fusion_lon": 0.0, "bike_id": "361e58e60b43a243c2ef93184ed76ebd", "is_disabled": 0, "is_reserved": 0}, {"rental_uris": {"ios": "https://dc.lft.to/lastmile_qr_scan", "android": "https://dc.lft.to/lastmile_qr_scan"}, "lon": -76.93750833333333, "type": "electric_scooter", "fusion_lat": 0.0, "lat": 38.89048433333333, "name": "ef2e00d7e793b2ded3a0d0da11cc02cb", "fusion_lon": 0.0, "bike_id": "ef2e00d7e793b2ded3a0d0da11cc02cb", "is_disabled": 0, "is_reserved": 0}, {"rental_uris": {"ios": "https://dc.lft.to/lastmile_qr_scan", "android": "https://dc.lft.to/lastmile_qr_scan"}, "lon": -77.022764, "type": "electric_scooter", "fusion_lat": 0.0, "lat": 38.91673216666667, "name": "4c238f59b216267cb60ec0e29f13c025", "fusion_lon": 0.0, "bike_id": "4c238f59b216267cb60ec0e29f13c025", "is_disabled": 0, "is_reserved": 0}, {"rental_uris": {"ios": "https://dc.lft.to/lastmile_qr_scan", "android": "https://dc.lft.to/lastmile_qr_scan"}, "lon": -77.02995883333334, "type": "electric_scooter", "fusion_lat": 0.0, "lat": 38.91705783333333, "name": "d01c22648d12ec249aafcb3f2c350ff8", "fusion_lon": 0.0, "bike_id": "d01c22648d12ec249aafcb3f2c350ff8", "is_disabled": 0, "is_reserved": 0}, {"rental_uris": {"ios": "https://dc.lft.to/lastmile_qr_scan", "android": "https://dc.lft.to/lastmile_qr_scan"}, "lon": -77.02393133333334, "type": "electric_scooter", "fusion_lat": 0.0, "lat": 38.952979666666664, "name": "a5ab4460148bcbde1517dd1a37fe731c", "fusion_lon": 0.0, "bike_id": "a5ab4460148bcbde1517dd1a37fe731c", "is_disabled": 0, "is_reserved": 0}, {"rental_uris": {"ios": "https://dc.lft.to/lastmile_qr_scan", "android": "https://dc.lft.to/lastmile_qr_scan"}, "lon": -77.02649783333334, "type": "electric_scooter", "fusion_lat": 0.0, "lat": 38.938580333333334, "name": "bdecc6f734b380caf2007b055f8cc9ce", "fusion_lon": 0.0, "bike_id": "bdecc6f734b380caf2007b055f8cc9ce", "is_disabled": 0, "is_reserved": 0}, {"rental_uris": {"ios": "https://dc.lft.to/lastmile_qr_scan", "android": "https://dc.lft.to/lastmile_qr_scan"}, "lon": -77.01771083333334, "type": "electric_scooter", "fusion_lat": 0.0, "lat": 38.900363166666665, "name": "13a7ef03341e4e61716edb6eeb93f5c1", "fusion_lon": 0.0, "bike_id": "13a7ef03341e4e61716edb6eeb93f5c1", "is_disabled": 0, "is_reserved": 0}, {"rental_uris": {"ios": "https://dc.lft.to/lastmile_qr_scan", "android": "https://dc.lft.to/lastmile_qr_scan"},