{"data": {"bikes": [{"lon": -77.02706716666667, "is_disabled": 0, "lat": 38.917607, "fusion_lat": 0.0, "is_reserved": 0, "rental_uris": {"ios": "https://dc.lft.to/lastmile_qr_scan", "android": "https://dc.lft.to/lastmile_qr_scan"}, "fusion_lon": 0.0, "type": "electric_scooter", "bike_id": "4839346e44570b8488e108fb9bc0c48c", "name": "4839346e44570b8488e108fb9bc0c48c"}, {"lon": -77.05137766666667, "is_disabled": 0, "lat": 38.89815333333333, "fusion_lat": 0.0, "is_reserved": 0, "rental_uris": {"ios": "https://dc.lft.to/lastmile_qr_scan", "android": "https://dc.lft.to/lastmile_qr_scan"}, "fusion_lon": 0.0, "type": "electric_scooter", "bike_id": "e7406e5392e8c3776e24cede5bf5cf16", "name": "e7406e5392e8c3776e24cede5bf5cf16"}, {"lon": -77.02486933333333, "is_disabled": 0, "lat": 38.938827833333335, "fusion_lat": 0.0, "is_reserved": 0, "rental_uris": {"ios": "https://dc.lft.to/lastmile_qr_scan", "android": "https://dc.lft.to/lastmile_qr_scan"}, "fusion_lon": 0.0, "type": "electric_scooter", "bike_id": "8fa2370656dc1f0d20aec1c8b27363fc", "name": "8fa2370656dc1f0d20aec1c8b27363fc"}, {"lon": -77.03236933333334, "is_disabled": 0, "lat": 38.9112295, "fusion_lat": 0.0, "is_reserved": 0, "rental_uris": {"ios": "https://dc.lft.to/lastmile_qr_scan", "android": "https://dc.lft.to/lastmile_qr_scan"}, "fusion_lon": 0.0, "type": "electric_scooter", "bike_id": "9a35fff9f45a5fee838cef10b3d4db89", "name": "9a35fff9f45a5fee838cef10b3d4db89"}, {"lon": -77.02639283333333, "is_disabled": 0, "lat": 38.936528, "fusion_lat": 0.0, "is_reserved": 0, "rental_uris": {"ios": "https://dc.lft.to/lastmile_qr_scan", "android": "https://dc.lft.to/lastmile_qr_scan"}, "fusion_lon": 0.0, "type": "electric_scooter", "bike_id": "6b55ced7d2ed7c4a28361fb882421927", "name": "6b55ced7d2ed7c4a28361fb882421927"}, {"lon": -76.9979505, "is_disabled": 0, "lat": 38.95090183333333, "fusion_lat": 0.0, "is_reserved": 0, "rental_uris": {"ios": "https://dc.lft.to/lastmile_qr_scan", "android": "https://dc.lft.to/lastmile_qr_scan"}, "fusion_lon": 0.0, "type": "electric_bike", "bike_id": "61cfda787ce8b8f91cfe543b209137c4", "name": "61cfda787ce8b8f91cfe543b209137c4"}, {"lon": -77.054837, "is_disabled": 0, "lat": 38.80020016666667, "fusion_lat": 0.0, "is_reserved": 0, "rental_uris": {"ios": "https://dc.lft.to/lastmile_qr_scan", "android": "https://dc.lft.to/lastmile_qr_scan"}, "fusion_lon": 0.0, "type": "electric_bike", "bike_id": "6339ffedf39711b19d8189a974a6f940", "name": "6339ffedf39711b19d8189a974a6f940"}, {"lon": -77.0490475, "is_disabled": 0, "lat": 38.905360333333334, "fusion_lat": 0.0, "is_reserved": 0, "rental_uris": {"ios": "https://dc.lft.to/lastmile_qr_scan", "android": "https://dc.lft.to/lastmile_qr_scan"}, "fusion_lon": 0.0, "type": "electric_scooter", "bike_id": "103ca29373f19bbf09608e3851b6ab18", "name": "103ca29373f19bbf09608e3851b6ab18"}, {"lon": -77.02297433333334, "is_disabled": 0, "lat": 38.92689083333333, "fusion_lat": 0.0, "is_reserved": 0, "rental_uris": {"ios": "https://dc.lft.to/lastmile_qr_scan", "android": "https://dc.lft.to/lastmile_qr_scan"}, "fusion_lon": 0.0, "type": "electric_scooter", "bike_id": "2657998ba1b29217f45408eadc1f91a5", "name": "2657998ba1b29217f45408eadc1f91a5"}, {"lon": -76.957548, "is_disabled": 0, "lat": 38.88430533333333, "fusion_lat": 0.0, "is_reserved": 0, "rental_uris": {"ios": "https://dc.lft.to/lastmile_qr_scan", "android": "https://dc.lft.to/lastmile_qr_scan"}, "fusion_lon": 0.0, "type": "electric_scooter", "bike_id": "fdceb141563f7f865609d770d257b2d3", "name": "fdceb141563f7f865609d770d257b2d3"}, {"lon": -77.0865925, "is_disabled": 0, "lat": 38.86247616666667, "fusion_lat": 0.0, "is_reserved": 0, "rental_uris": {"ios": "https://dc.lft.to/lastmile_qr_scan", "android": "https://dc.lft.to/lastmile_qr_scan"}, "fusion_lon": 0.0, "type": "electric_bike", "bike_id": "14f8991db60400cd8da6d88ccd3d34d4", "name": "14f8991db60400cd8da6d88ccd3d34d4"}, {"lon": -77.02450433333334, "is_disabled": 0, "lat": 38.89988833333334, "fusion_lat": 0.0, "is_reserved": 0, "rental_uris": {"ios": "https://dc.lft.to/lastmile_qr_scan", "android": "https://dc.lft.to/lastmile_qr_scan"}, "fusion_lon": 0.0, "type": "electric_scooter", "bike_id": "9d2c08faaa2540d2b4b17dce7aa5e322", "name": "9d2c08faaa2540d2b4b17dce7aa5e322"}, {"lon": -77.07899666666667, "is_disabled": 0, "lat": 38.839354666666665, "fusion_lat": 0.0, "is_reserved": 0, "rental_uris": {"ios": "https://dc.lft.to/lastmile_qr_scan", "android": "https://dc.lft.to/lastmile_qr_scan"}, "fusion_lon": 0.0, "type": "electric_bike", "bike_id": "43bf47e1faca2df381cab1d5a115df94", "name": "43bf47e1faca2df381cab1d5a115df94"}, {"lon": -76.96689083333334, "is_disabled": 0, "lat": 38.938005, "fusion_lat": 0.0, "is_reserved": 0, "rental_uris": {"ios": "https://dc.lft.to/lastmile_qr_scan", "android": "https://dc.lft.to/lastmile_qr_scan"}, "fusion_lon": 0.0, "type": "electric_bike", "bike_id": "d1bdbff3b70304c769807df986dd8b73", "name": "d1bdbff3b70304c769807df986dd8b73"}, {"lon": -77.00340583333333, "is_disabled": 0, "lat": 38.89510766666667, "fusion_lat": 0.0, "is_reserved": 0, "rental_uris": {"ios": "https://dc.lft.to/lastmile_qr_scan", "android": "https://dc.lft.to/lastmile_qr_scan"}, "fusion_lon": 0.0, "type": "electric_scooter", "bike_id": "a9c240cea5c2f4242b2ed904cbece6f9", "name": "a9c240cea5c2f4242b2ed904cbece6f9"}, {"lon": -77.03056133333334, "is_disabled": 0, "lat": 38.923756, "fusion_lat": 0.0, "is_reserved": 0, "rental_uris": {"ios": "https://dc.lft.to/lastmile_qr_scan", "android": "https://dc.lft.to/lastmile_qr_scan"}, "fusion_lon": 0.0, "type": "electric_scooter", "bike_id": "2a28f39ddc4cf2a5d51217ce992daa0e", "name": "2a28f39ddc4cf2a5d51217ce992daa0e"}, {"lon": -77.03503883333333, "is_disabled": 0, "lat": 38.93461333333333, "fusion_lat": 0.0, "is_reserved": 0, "rental_uris": {"ios": "https://dc.lft.to/lastmile_qr_scan", "android": "https://dc.lft.to/lastmile_qr_scan"}, "fusion_lon": 0.0, "type": "electric_scooter", "bike_id": "b750fb98bf0544427d8d6b043ba1247e", "name": "b750fb98bf0544427d8d6b043ba1247e"}, {"lon": -77.00888083333334, "is_disabled": 0, "lat": 38.9251135, "fusion_lat": 0.0, "is_reserved": 0, "rental_uris": {"ios": "https://dc.lft.to/lastmile_qr_scan", "android": "https://dc.lft.to/lastmile_qr_scan"}, "fusion_lon": 0.0, "type": "electric_scooter", "bike_id": "5e8e8cfbd88cbb9159774bc71638e675", "name": "5e8e8cfbd88cbb9159774bc71638e675"}, {"lon": -77.03655233333333, "is_disabled": 0, "lat": 38.93602966666667, "fusion_lat": 0.0, "is_reserved": 0, "rental_uris": {"ios": "https://dc.lft.to/lastmile_qr_scan", "android": "https://dc.lft.to/lastmile_qr_scan"}, "fusion_lon": 0.0, "type": "electric_scooter", "bike_id": "03a848d98c91d2d80d3d0cc173fc25b6", "name": "03a848d98c91d2d80d3d0cc173fc25b6"}, {"lon": -77.00344966666667, "is_disabled": 0, "lat": 38.89462316666667, "fusion_lat": 0.0, "is_reserved": 0, "rental_uris": {"ios": "https://dc.lft.to/lastmile_qr_scan", "android": "https://dc.lft.to/lastmile_qr_scan"}, "fusion_lon": 0.0, "type": "electric_scooter", "bike_id": "db4f8b27adec5c5e72ff9ef905f24205", "name": "db4f8b27adec5c5e72ff9ef905f24205"}, {"lon": -77.04168566666667, "is_disabled": 0, "lat": 38.90040483333333, "fusion_lat": 0.0, "is_reserved": 0, "rental_uris": {"ios": "https://dc.lft.to/lastmile_qr_scan", "android": "https://dc.lft.to/lastmile_qr_scan"}, "fusion_lon": 0.0, "type": "electric_scooter", "bike_id": "6484b22edbb1c6645286b1b67036272d", "name": "6484b22edbb1c6645286b1b67036272d"}, {"lon": -76.99795283333333, "is_disabled": 0, "lat": 38.908714, "fusion_lat": 0.0, "is_reserved": 0, "rental_uris": {"ios": "https://dc.lft.to/lastmile_qr_scan", "android": "https://dc.lft.to/lastmile_qr_scan"}, "fusion_lon": 0.0, "type": "electric_scooter", "bike_id": "d6364fdfaca70b059394d269962148a7", "name": "d6364fdfaca70b059394d269962148a7"}, {"lon": -77.02690433333333, "is_disabled": 0, "lat": 38.897396, "fusion_lat": 0.0, "is_reserved": 0, "rental_uris": {"ios": "https://dc.lft.to/lastmile_qr_scan", "android": "https://dc.lft.to/lastmile_qr_scan"}, "fusion_lon": 0.0, "type": "electric_scooter", "bike_id": "f0900bd276fa6e17c2975659585637e2", "name": "f0900bd276fa6e17c2975659585637e2"}, {"lon": -76.985119, "is_disabled": 0, "lat": 38.9034665, "fusion_lat": 0.0, "is_reserved": 0, "rental_uris": {"ios": "https://dc.lft.to/lastmile_qr_scan", "android": "https://dc.lft.to/lastmile_qr_scan"}, "fusion_lon": 0.0, "type": "electric_scooter", "bike_id": "1a25a59a9036b0761effa096cca92969", "name": "1a25a59a9036b0761effa096cca92969"}, {"lon": -77.03319533333334, "is_disabled": 0, "lat": 38.92156816666667, "fusion_lat": 0.0, "is_reserved": 0, "rental_uris": {"ios": "https://dc.lft.to/lastmile_qr_scan", "android": "https://dc.lft.to/lastmile_qr_scan"}, "fusion_lon": 0.0, "type": "electric_scooter", "bike_id": "71135647365db947391c9d99f0978da6", "name": "71135647365db947391c9d99f0978da6"}, {"lon": -77.04290716666667, "is_disabled": 0, "lat": 38.915628, "fusion_lat": 0.0, "is_reserved": 0, "rental_uris": {"ios": "https://dc.lft.to/lastmile_qr_scan", "android": "https://dc.lft.to/lastmile_qr_scan"}, "fusion_lon": 0.0, "type": "electric_scooter", "bike_id": "064ec8c52274c3e845963600f3b5b60a", "name": "064ec8c52274c3e845963600f3b5b60a"}, {"lon": -77.0320385, "is_disabled": 0, "lat": 38.9201135, "fusion_lat": 0.0, "is_reserved": 0, "rental_uris": {"ios": "https://dc.lft.to/lastmile_qr_scan", "android": "https://dc.lft.to/lastmile_qr_scan"}, "fusion_lon": 0.0, "type": "electric_scooter", "bike_id": "8512ca1ffa82d749c3015949d4c59a1d", "name": "8512ca1ffa82d749c3015949d4c59a1d"}, {"lon": -77.0056665, "is_disabled": 0, "lat": 38.905541, "fusion_lat": 0.0, "is_reserved": 0, "rental_uris": {"ios": "https://dc.lft.to/lastmile_qr_scan", "android": "https://dc.lft.to/lastmile_qr_scan"}, "fusion_lon": 0.0, "type": "electric_scooter", "bike_id": "8860c8b4f5f43b2f167a01c0c5eaad34", "name": "8860c8b4f5f43b2f167a01c0c5eaad34"}, {"lon": -77.02275983333334, "is_disabled": 0, "lat": 38.914162166666664, "fusion_lat": 0.0, "is_reserved": 0, "rental_uris": {"ios": "https://dc.lft.to/lastmile_qr_scan", "android": "https://dc.lft.to/lastmile_qr_scan"}, "fusion_lon": 0.0, "type": "electric_scooter", "bike_id": "953290fc3a52cdb26ea5c78745ea3847", "name": "953290fc3a52cdb26ea5c78745ea3847"}, {"lon": -77.028382, "is_disabled": 0, "lat": 38.88741383333333, "fusion_lat": 0.0, "is_reserved": 0, "rental_uris": {"ios": "https://dc.lft.to/lastmile_qr_scan", "android": "https://dc.lft.to/lastmile_qr_scan"}, "fusion_lon": 0.0, "type": "electric_scooter", "bike_id": "bf65cfc3f3a747b481f3ad9bedcde9fd", "name": "bf65cfc3f3a747b481f3ad9bedcde9fd"}, {"lon": -77.03184466666667, "is_disabled": 0, "lat": 38.91352666666667, "fusion_lat": 0.0, "is_reserved": 0, "rental_uris": {"ios": "https://dc.lft.to/lastmile_qr_scan", "android": "https://dc.lft.to/lastmile_qr_scan"}, "fusion_lon": 0.0, "type": "electric_scooter", "bike_id": "455cd5a838f78d0a37abdbdf91942963", "name": "455cd5a838f78d0a37abdbdf91942963"}, {"lon": -77.031776, "is_disabled": 0, "lat": 38.919259, "fusion_lat": 0.0, "is_reserved": 0, "rental_uris": {"ios": "https://dc.lft.to/lastmile_qr_scan", "android": "https://dc.lft.to/lastmile_qr_scan"}, "fusion_lon": 0.0, "type": "electric_scooter", "bike_id": "e5f5c84eb94d72c97797ba66fe4e1f1a", "name": "e5f5c84eb94d72c97797ba66fe4e1f1a"}, {"lon": -77.03839233333333, "is_disabled": 0, "lat": 38.91160166666667, "fusion_lat": 0.0, "is_reserved": 0, "rental_uris": {"ios": "https://dc.lft.to/lastmile_qr_scan", "android": "https://dc.lft.to/lastmile_qr_scan"}, "fusion_lon": 0.0, "type": "electric_scooter", "bike_id": "f60380b3056f3ed2479688dff896ee78", "name": "f60380b3056f3ed2479688dff896ee78"}, {"lon": -77.05891, "is_disabled": 0, "lat": 38.936402333333334, "fusion_lat": 0.0, "is_reserved": 0, "rental_uris": {"ios": "https://dc.lft.to/lastmile_qr_scan", "android": "https://dc.lft.to/lastmile_qr_scan"}, "fusion_lon": 0.0, "type": "electric_scooter", "bike_id": "61f4ba299198f51da157a1f00182e16c", "name": "61f4ba299198f51da157a1f00182e16c"}, {"lon": -77.00131916666666, "is_disabled": 0, "lat": 38.83575316666666, "fusion_lat": 0.0, "is_reserved": 0, "rental_uris": {"ios": "https://dc.lft.to/lastmile_qr_scan", "android": "https://dc.lft.to/lastmile_qr_scan"}, "fusion_lon": 0.0, "type": "electric_scooter", "bike_id": "462ee28b95bdb8ed52c4bffb32f70d7a", "name": "462ee28b95bdb8ed52c4bffb32f70d7a"}, {"lon": -76.93870566666666, "is_disabled": 0, "lat": 38.956262833333334, "fusion_lat": 0.0, "is_reserved": 0, "rental_uris": {"ios": "https://dc.lft.to/lastmile_qr_scan", "android": "https://dc.lft.to/lastmile_qr_scan"}, "fusion_lon": 0.0, "type": "electric_bike", "bike_id": "3d5fc867fde7599cc6fb23a4ddde34ba", "name": "3d5fc867fde7599cc6fb23a4ddde34ba"}, {"lon": -76.987152, "is_disabled": 0, "lat": 38.867022166666665, "fusion_lat": 0.0, "is_reserved": 0, "rental_uris": {"ios": "https://dc.lft.to/lastmile_qr_scan", "android": "https://dc.lft.to/lastmile_qr_scan"}, "fusion_lon": 0.0, "type": "electric_scooter", "bike_id": "22bd03d60bf4392b7925e035a29389b0", "name": "22bd03d60bf4392b7925e035a29389b0"}, {"lon": -77.01149483333333, "is_disabled": 0, "lat": 38.911037, "fusion_lat": 0.0, "is_reserved": 0, "rental_uris": {"ios": "https://dc.lft.to/lastmile_qr_scan", "android": "https://dc.lft.to/lastmile_qr_scan"}, "fusion_lon": 0.0, "type": "electric_scooter", "bike_id": "cef420f14e83198eed95c79aef165cfa", "name": "cef420f14e83198eed95c79aef165cfa"}, {"lon": -77.0315145, "is_disabled": 0, "lat": 38.92788916666667, "fusion_lat": 0.0, "is_reserved": 0, "rental_uris": {"ios": "https://dc.lft.to/lastmile_qr_scan", "android": "https://dc.lft.to/lastmile_qr_scan"}, "fusion_lon": 0.0, "type": "electric_scooter", "bike_id": "b5326589e91de6e54c062ed621079728", "name": "b5326589e91de6e54c062ed621079728"}, {"lon": -77.041153, "is_disabled": 0, "lat": 38.90592866666667, "fusion_lat": 0.0, "is_reserved": 0, "rental_uris": {"ios": "https://dc.lft.to/lastmile_qr_scan", "android": "https://dc.lft.to/lastmile_qr_scan"}, "fusion_lon": 0.0, "type": "electric_scooter", "bike_id": "6948240d3dad792d4241d33e35fbeb77", "name": "6948240d3dad792d4241d33e35fbeb77"}, {"lon": -76.9542755, "is_disabled": 0, "lat": 38.885490833333336, "fusion_lat": 0.0, "is_reserved": 0, "rental_uris": {"ios": "https://dc.lft.to/lastmile_qr_scan", "android": "https://dc.lft.to/lastmile_qr_scan"}, "fusion_lon": 0.0, "type": "electric_bike", "bike_id": "322d755efb68c6ac9895fb62f15fb520", "name": "322d755efb68c6ac9895fb62f15fb520"}, {"lon": -77.045533, "is_disabled": 0, "lat": 38.914713166666665, "fusion_lat": 0.0, "is_reserved": 0, "rental_uris": {"ios": "https://dc.lft.to/lastmile_qr_scan", "android": "https://dc.lft.to/lastmile_qr_scan"}, "fusion_lon": 0.0, "type": "electric_scooter", "bike_id": "b486a9f3ca49c0bee30fb6817224a424", "name": "b486a9f3ca49c0bee30fb6817224a424"}, {"lon": -76.98074966666667, "is_disabled": 0, "lat": 38.90174566666666, "fusion_lat": 0.0, "is_reserved": 0, "rental_uris": {"ios": "https://dc.lft.to/lastmile_qr_scan", "android": "https://dc.lft.to/lastmile_qr_scan"}, "fusion_lon": 0.0, "type": "electric_scooter", "bike_id": "87b96557903ade961b4ee15cd5687544", "name": "87b96557903ade961b4ee15cd5687544"}, {"lon": -77.0003975, "is_disabled": 0, "lat": 38.907621, "fusion_lat": 0.0, "is_reserved": 0, "rental_uris": {"ios": "https://dc.lft.to/lastmile_qr_scan", "android": "https://dc.lft.to/lastmile_qr_scan"}, "fusion_lon": 0.0, "type": "electric_scooter", "bike_id": "0e815870957fe802d3d8dd91375554ea", "name": "0e815870957fe802d3d8dd91375554ea"}, {"lon": -77.03787283333334, "is_disabled": 0, "lat": 38.939675, "fusion_lat": 0.0, "is_reserved": 0, "rental_uris": {"ios": "https://dc.lft.to/lastmile_qr_scan", "android": "https://dc.lft.to/lastmile_qr_scan"}, "fusion_lon": 0.0, "type": "electric_bike", "bike_id": "51ca59635639cd26890ebb2136180d98", "name": "51ca59635639cd26890ebb2136180d98"}, {"lon": -76.97633166666667, "is_disabled": 0, "lat": 38.9057805, "fusion_lat": 0.0, "is_reserved": 0, "rental_uris": {"ios": "https://dc.lft.to/lastmile_qr_scan", "android": "https://dc.lft.to/lastmile_qr_scan"}, "fusion_lon": 0.0, "type": "electric_scooter", "bike_id": "d1d722d780bbd970a8e50188e49bc25a", "name": "d1d722d780bbd970a8e50188e49bc25a"}, {"lon": -77.032029, "is_disabled": 0, "lat": 38.909412, "fusion_lat": 0.0, "is_reserved": 0, "rental_uris": {"ios": "https://dc.lft.to/lastmile_qr_scan", "android": "https://dc.lft.to/lastmile_qr_scan"}, "fusion_lon": 0.0, "type": "electric_scooter", "bike_id": "3a09ea1b7342a09c0f11ae1388d4bcf3", "name": "3a09ea1b7342a09c0f11ae1388d4bcf3"}, {"lon": -77.01156966666667, "is_disabled": 0, "lat": 38.896265166666666, "fusion_lat": 0.0, "is_reserved": 0, "rental_uris": {"ios": "https://dc.lft.to/lastmile_qr_scan", "android": "https://dc.lft.to/lastmile_qr_scan"}, "fusion_lon": 0.0, "type": "electric_scooter", "bike_id": "33fa38f6cba1fd2f006edce1594046fc", "name": "33fa38f6cba1fd2f006edce1594046fc"}, {"lon": -77.04286616666667, "is_disabled": 0, "lat": 38.908276, "fusion_lat": 0.0, "is_reserved": 0, "rental_uris": {"ios": "https://dc.lft.to/lastmile_qr_scan", "android": "https://dc.lft.to/lastmile_qr_scan"}, "fusion_lon": 0.0, "type": "electric_scooter", "bike_id": "b9580fb1af663129f4dbe893f8ae67bc", "name": "b9580fb1af663129f4dbe893f8ae67bc"}, {"lon": -77.0184755, "is_disabled": 0, "lat": 38.909733833333334, "fusion_lat": 0.0, "is_reserved": 0, "rental_uris": {"ios": "https://dc.lft.to/lastmile_qr_scan", "android": "https://dc.lft.to/lastmile_qr_scan"}, "fusion_lon": 0.0, "type": "electric_scooter", "bike_id": "19cc8c80cfe021bc9daa8a7f9cf1401a", "name": "19cc8c80cfe021bc9daa8a7f9cf1401a"}, {"lon": -77.23257016666666, "is_disabled": 0, "lat": 38.87254566666667, "fusion_lat": 0.0, "is_reserved": 0, "rental_uris": {"ios": "https://dc.lft.to/lastmile_qr_scan", "android": "https://dc.lft.to/lastmile_qr_scan"}, "fusion_lon": 0.0, "type": "electric_bike", "bike_id": "d11c9e08965460da906c273f7e6c70ef", "name": "d11c9e08965460da906c273f7e6c70ef"}, {"lon": -77.2288985, "is_disabled": 0, "lat": 38.909586, "fusion_lat": 0.0, "is_reserved": 0, "rental_uris": {"ios": "https://dc.lft.to/lastmile_qr_scan", "android": "https://dc.lft.to/lastmile_qr_scan"}, "fusion_lon": 0.0, "type": "electric_bike", "bike_id": "e29e3353780ec9bcfe673fdc52fbcf7a", "name": "e29e3353780ec9bcfe673fdc52fbcf7a"}, {"lon": -76.988771, "is_disabled": 0, "lat": 38.86654433333333, "fusion_lat": 0.0, "is_reserved": 0, "rental_uris": {"ios": "https://dc.lft.to/lastmile_qr_scan", "android": "https://dc.lft.to/lastmile_qr_scan"}, "fusion_lon": 0.0, "type": "electric_scooter", "bike_id": "339ce7e564765731630d30474ece37b0", "name": "339ce7e564765731630d30474ece37b0"}, {"lon": -76.98182, "is_disabled": 0, "lat": 38.86967216666667, "fusion_lat": 0.0, "is_reserved": 0, "rental_uris": {"ios": "https://dc.lft.to/lastmile_qr_scan", "android": "https://dc.lft.to/lastmile_qr_scan"}, "fusion_lon": 0.0, "type": "electric_scooter", "bike_id": "14e2cbe431ba8ca5a11d44c528e17907", "name": "14e2cbe431ba8ca5a11d44c528e17907"}, {"lon": -77.07468666666666, "is_disabled": 0, "lat": 38.91912466666667, "fusion_lat": 0.0, "is_reserved": 0, "rental_uris": {"ios": "https://dc.lft.to/lastmile_qr_scan", "android": "https://dc.lft.to/lastmile_qr_scan"}, "fusion_lon": 0.0, "type": "electric_scooter", "bike_id": "deb17f45882cbde89d2388c9e9fe84d6", "name": "deb17f45882cbde89d2388c9e9fe84d6"}, {"lon": -76.97838116666667, "is_disabled": 0, "lat": 38.898532333333335, "fusion_lat": 0.0, "is_reserved": 0, "rental_uris": {"ios": "https://dc.lft.to/lastmile_qr_scan", "android": "https://dc.lft.to/lastmile_qr_scan"}, "fusion_lon": 0.0, "type": "electric_scooter", "bike_id": "7413d6a7550053959804577dcf18ffc0", "name": "7413d6a7550053959804577dcf18ffc0"}, {"lon": -77.04107466666666, "is_disabled": 0, "lat": 38.91041283333333, "fusion_lat": 0.0, "is_reserved": 0, "rental_uris": {"ios": "https://dc.lft.to/lastmile_qr_scan", "android": "https://dc.lft.to/lastmile_qr_scan"}, "fusion_lon": 0.0, "type": "electric_scooter", "bike_id": "4ce1a0402268e0175f6e8f385860293c", "name": "4ce1a0402268e0175f6e8f385860293c"}, {"lon": -77.03941066666667, "is_disabled": 0, "lat": 38.89859283333333, "fusion_lat": 0.0, "is_reserved": 0, "rental_uris": {"ios": "https://dc.lft.to/lastmile_qr_scan", "android": "https://dc.lft.to/lastmile_qr_scan"}, "fusion_lon": 0.0, "type": "electric_scooter", "bike_id": "3abdd156d4e4fc228db7bf1992bd1d97", "name": "3abdd156d4e4fc228db7bf1992bd1d97"}, {"lon": -77.0342255, "is_disabled": 0, "lat": 38.9286735, "fusion_lat": 0.0, "is_reserved": 0, "rental_uris": {"ios": "https://dc.lft.to/lastmile_qr_scan", "android": "https://dc.lft.to/lastmile_qr_scan"}, "fusion_lon": 0.0, "type": "electric_scooter", "bike_id": "3ed920946d0d47823d5366c46336c206", "name": "3ed920946d0d47823d5366c46336c206"}, {"lon": -77.0079395, "is_disabled": 0, "lat": 38.8793935, "fusion_lat": 0.0, "is_reserved": 0, "rental_uris": {"ios": "https://dc.lft.to/lastmile_qr_scan", "android": "https://dc.lft.to/lastmile_qr_scan"}, "fusion_lon": 0.0, "type": "electric_scooter", "bike_id": "d435bfd74172b4db28089ed5b3b089e0", "name": "d435bfd74172b4db28089ed5b3b089e0"}, {"lon": -77.0245145, "is_disabled": 0, "lat": 38.93853983333333, "fusion_lat": 0.0, "is_reserved": 0, "rental_uris": {"ios": "https://dc.lft.to/lastmile_qr_scan", "android": "https://dc.lft.to/lastmile_qr_scan"}, "fusion_lon": 0.0, "type": "electric_scooter", "bike_id": "6b1e91816e2807217f2374ddaccf9e7d", "name": "6b1e91816e2807217f2374ddaccf9e7d"}, {"lon": -77.03629016666666, "is_disabled": 0, "lat": 38.9178275, "fusion_lat": 0.0, "is_reserved": 0, "rental_uris": {"ios": "https://dc.lft.to/lastmile_qr_scan", "android": "https://dc.lft.to/lastmile_qr_scan"}, "fusion_lon": 0.0, "type": "electric_scooter", "bike_id": "dbfbdf5aadd819b22418102cb48b354b", "name": "dbfbdf5aadd819b22418102cb48b354b"}, {"lon": -77.02785333333334, "is_disabled": 0, "lat": 38.927730333333336, "fusion_lat": 0.0, "is_reserved": 0, "rental_uris": {"ios": "https://dc.lft.to/lastmile_qr_scan", "android": "https://dc.lft.to/lastmile_qr_scan"}, "fusion_lon": 0.0, "type": "electric_scooter", "bike_id": "ab36d4c85fe689da40dddf3cb19f2dfa", "name": "ab36d4c85fe689da40dddf3cb19f2dfa"}, {"lon": -77.0504215, "is_disabled": 0, "lat": 38.9233995, "fusion_lat": 0.0, "is_reserved": 0, "rental_uris": {"ios": "https://dc.lft.to/lastmile_qr_scan", "android": "https://dc.lft.to/lastmile_qr_scan"}, "fusion_lon": 0.0, "type": "electric_scooter", "bike_id": "dd7e7750a833fbf597405356e495a050", "name": "dd7e7750a833fbf597405356e495a050"}, {"lon": -77.02938283333333, "is_disabled": 0, "lat": 38.90139533333333, "fusion_lat": 0.0, "is_reserved": 0, "rental_uris": {"ios": "https://dc.lft.to/lastmile_qr_scan", "android": "https://dc.lft.to/lastmile_qr_scan"}, "fusion_lon": 0.0, "type": "electric_scooter", "bike_id": "18707b3bf7017406ddf4ad67eda18ebe", "name": "18707b3bf7017406ddf4ad67eda18ebe"}, {"lon": -76.94935916666667, "is_disabled": 0, "lat": 38.89360666666666, "fusion_lat": 0.0, "is_reserved": 0, "rental_uris": {"ios": "https://dc.lft.to/lastmile_qr_scan", "android": "https://dc.lft.to/lastmile_qr_scan"}, "fusion_lon": 0.0, "type": "electric_scooter", "bike_id": "3c6dd9e26302cc9a4a306f16e0d813da", "name": "3c6dd9e26302cc9a4a306f16e0d813da"}, {"lon": -76.997573, "is_disabled": 0, "lat": 38.87748633333333, "fusion_lat": 0.0, "is_reserved": 0, "rental_uris": {"ios": "https://dc.lft.to/lastmile_qr_scan", "android": "https://dc.lft.to/lastmile_qr_scan"}, "fusion_lon": 0.0, "type": "electric_scooter", "bike_id": "5721b994e86ba9099a32b057d6c74613", "name": "5721b994e86ba9099a32b057d6c74613"}, {"lon": -77.02276116666667, "is_disabled": 0, "lat": 38.878376333333335, "fusion_lat": 0.0, "is_reserved": 0, "rental_uris": {"ios": "https://dc.lft.to/lastmile_qr_scan", "android": "https://dc.lft.to/lastmile_qr_scan"}, "fusion_lon": 0.0, "type": "electric_scooter", "bike_id": "4b25a382649f2aac724ce1fb823c6dba", "name": "4b25a382649f2aac724ce1fb823c6dba"}, {"lon": -77.03259416666667, "is_disabled": 0, "lat": 38.939736333333336, "fusion_lat": 0.0, "is_reserved": 0, "rental_uris": {"ios": "https://dc.lft.to/lastmile_qr_scan", "android": "https://dc.lft.to/lastmile_qr_scan"}, "fusion_lon": 0.0, "type": "electric_scooter", "bike_id": "42e5d1891c9d40189249698e5fbdf870", "name": "42e5d1891c9d40189249698e5fbdf870"}, {"lon": -77.02472566666667, "is_disabled": 0, "lat": 38.9384785, "fusion_lat": 0.0, "is_reserved": 0, "rental_uris": {"ios": "https://dc.lft.to/lastmile_qr_scan", "android": "https://dc.lft.to/lastmile_qr_scan"}, "fusion_lon": 0.0, "type": "electric_scooter", "bike_id": "022fe93e3d89bb05d87bc7f2489db0d7", "name": "022fe93e3d89bb05d87bc7f2489db0d7"}, {"lon": -77.03031783333333, "is_disabled": 0, "lat": 38.922477666666666, "fusion_lat": 0.0, "is_reserved": 0, "rental_uris": {"ios": "https://dc.lft.to/lastmile_qr_scan", "android": "https://dc.lft.to/lastmile_qr_scan"}, "fusion_lon": 0.0, "type": "electric_scooter", "bike_id": "832339bd2c48fa46b6a83f6d36d3721a", "name": "832339bd2c48fa46b6a83f6d36d3721a"}, {"lon": -77.04167816666667, "is_disabled": 0, "lat": 38.911289, "fusion_lat": 0.0, "is_reserved": 0, "rental_uris": {"ios": "https://dc.lft.to/lastmile_qr_scan", "android": "https://dc.lft.to/lastmile_qr_scan"}, "fusion_lon": 0.0, "type": "electric_scooter", "bike_id": "744e3a0d7ea0a424697280ab94194f1d", "name": "744e3a0d7ea0a424697280ab94194f1d"}, {"lon": -76.99767583333333, "is_disabled": 0, "lat": 38.908989166666665, "fusion_lat": 0.0, "is_reserved": 0, "rental_uris": {"ios": "https://dc.lft.to/lastmile_qr_scan", "android": "https://dc.lft.to/lastmile_qr_scan"}, "fusion_lon": 0.0, "type": "electric_scooter", "bike_id": "d314074794e4953c6ebdb128dd2bb5f2", "name": "d314074794e4953c6ebdb128dd2bb5f2"}, {"lon": -77.02362783333334, "is_disabled": 0, "lat": 38.90002883333333, "fusion_lat": 0.0, "is_reserved": 0, "rental_uris": {"ios": "https://dc.lft.to/lastmile_qr_scan", "android": "https://dc.lft.to/lastmile_qr_scan"}, "fusion_lon": 0.0, "type": "electric_scooter", "bike_id": "c2bcbdab1d90112ff83790723e322d06", "name": "c2bcbdab1d90112ff83790723e322d06"}, {"lon": -77.03257383333333, "is_disabled": 0, "lat": 38.93969633333333, "fusion_lat": 0.0, "is_reserved": 0, "rental_uris": {"ios": "https://dc.lft.to/lastmile_qr_scan", "android": "https://dc.lft.to/lastmile_qr_scan"}, "fusion_lon": 0.0, "type": "electric_scooter", "bike_id": "e22e8bda43518fed5613c43be17ad730", "name": "e22e8bda43518fed5613c43be17ad730"}, {"lon": -77.00680966666667, "is_disabled": 0, "lat": 38.871737, "fusion_lat": 0.0, "is_reserved": 0, "rental_uris": {"ios": "https://dc.lft.to/lastmile_qr_scan", "android": "https://dc.lft.to/lastmile_qr_scan"}, "fusion_lon": 0.0, "type": "electric_scooter", "bike_id": "f28e82af5bb0e79aa9f7741170ecc505", "name": "f28e82af5bb0e79aa9f7741170ecc505"}, {"lon": -77.01777316666667, "is_disabled": 0, "lat": 38.915049333333336, "fusion_lat": 0.0, "is_reserved": 0, "rental_uris": {"ios": "https://dc.lft.to/lastmile_qr_scan", "android": "https://dc.lft.to/lastmile_qr_scan"}, "fusion_lon": 0.0, "type": "electric_scooter", "bike_id": "2438407044edb7167f46877bd94e5947", "name": "2438407044edb7167f46877bd94e5947"}, {"lon": -76.98356016666666, "is_disabled": 0, "lat": 38.91492783333333, "fusion_lat": 0.0, "is_reserved": 0, "rental_uris": {"ios": "https://dc.lft.to/lastmile_qr_scan", "android": "https://dc.lft.to/lastmile_qr_scan"}, "fusion_lon": 0.0, "type": "electric_scooter", "bike_id": "29a7ff983b17fca514f66a891aa4cd65", "name": "29a7ff983b17fca514f66a891aa4cd65"}, {"lon": -77.00347033333334, "is_disabled": 0, "lat": 38.90285316666667, "fusion_lat": 0.0, "is_reserved": 0, "rental_uris": {"ios": "https://dc.lft.to/lastmile_qr_scan", "android": "https://dc.lft.to/lastmile_qr_scan"}, "fusion_lon": 0.0, "type": "electric_scooter", "bike_id": "494f152a7982497a5417447324620c0a", "name": "494f152a7982497a5417447324620c0a"}, {"lon": -76.946346, "is_disabled": 0, "lat": 38.898335833333334, "fusion_lat": 0.0, "is_reserved": 0, "rental_uris": {"ios": "https://dc.lft.to/lastmile_qr_scan", "android": "https://dc.lft.to/lastmile_qr_scan"}, "fusion_lon": 0.0, "type": "electric_scooter", "bike_id": "1b8fe2acf6a2701ddef14e66fe273503", "name": "1b8fe2acf6a2701ddef14e66fe273503"}, {"lon": -76.995063, "is_disabled": 0, "lat": 38.82171616666667, "fusion_lat": 0.0, "is_reserved": 0, "rental_uris": {"ios": "https://dc.lft.to/lastmile_qr_scan", "android": "https://dc.lft.to/lastmile_qr_scan"}, "fusion_lon": 0.0, "type": "electric_bike", "bike_id": "ad1f545f17ea257ffaa358ccca1c25a0", "name": "ad1f545f17ea257ffaa358ccca1c25a0"}, {"lon": -77.0218635, "is_disabled": 0, "lat": 38.904165166666665, "fusion_lat": 0.0, "is_reserved": 0, "rental_uris": {"ios": "https://dc.lft.to/lastmile_qr_scan", "android": "https://dc.lft.to/lastmile_qr_scan"}, "fusion_lon": 0.0, "type": "electric_scooter", "bike_id": "fb184dbcb84102defd1a563d17b2ecff", "name": "fb184dbcb84102defd1a563d17b2ecff"}, {"lon": -77.10860483333333, "is_disabled": 0, "lat": 38.845994, "fusion_lat": 0.0, "is_reserved": 0, "rental_uris": {"ios": "https://dc.lft.to/lastmile_qr_scan", "android": "https://dc.lft.to/lastmile_qr_scan"}, "fusion_lon": 0.0, "type": "electric_bike", "bike_id": "a73059e3794eb5c51306cf3846c911f2", "name": "a73059e3794eb5c51306cf3846c911f2"}, {"lon": -76.99134133333334, "is_disabled": 0, "lat": 38.846374, "fusion_lat": 0.0, "is_reserved": 0, "rental_uris": {"ios": "https://dc.lft.to/lastmile_qr_scan", "android": "https://dc.lft.to/lastmile_qr_scan"}, "fusion_lon": 0.0, "type": "electric_scooter", "bike_id": "f5884e308e772b1569369e1fafd58a34", "name": "f5884e308e772b1569369e1fafd58a34"}, {"lon": -77.00052333333333, "is_disabled": 0, "lat": 38.9232725, "fusion_lat": 0.0, "is_reserved": 0, "rental_uris": {"ios": "https://dc.lft.to/lastmile_qr_scan", "android": "https://dc.lft.to/lastmile_qr_scan"}, "fusion_lon": 0.0, "type": "electric_scooter", "bike_id": "294339cda1e97c5f9315a243ab5ffae8", "name": "294339cda1e97c5f9315a243ab5ffae8"}, {"lon": -77.02121466666667, "is_disabled": 0, "lat": 38.914150166666666, "fusion_lat": 0.0, "is_reserved": 0, "rental_uris": {"ios": "https://dc.lft.to/lastmile_qr_scan", "android": "https://dc.lft.to/lastmile_qr_scan"}, "fusion_lon": 0.0, "type": "electric_scooter", "bike_id": "16605ac42d52a69b6d70e42a024314d6", "name": "16605ac42d52a69b6d70e42a024314d6"}, {"lon": -76.98710133333333, "is_disabled": 0, "lat": 38.867082833333335, "fusion_lat": 0.0, "is_reserved": 0, "rental_uris": {"ios": "https://dc.lft.to/lastmile_qr_scan", "android": "https://dc.lft.to/lastmile_qr_scan"}, "fusion_lon": 0.0, "type": "electric_scooter", "bike_id": "fa730fd60ff37aa5b452847aa5723555", "name": "fa730fd60ff37aa5b452847aa5723555"}, {"lon": -76.97029783333333, "is_disabled": 0, "lat": 38.873616166666665, "fusion_lat": 0.0, "is_reserved": 0, "rental_uris": {"ios": "https://dc.lft.to/lastmile_qr_scan", "android": "https://dc.lft.to/lastmile_qr_scan"}, "fusion_lon": 0.0, "type": "electric_scooter", "bike_id": "1cfea98e589e056b219349cb97c7b433", "name": "1cfea98e589e056b219349cb97c7b433"}, {"lon": -77.02305116666666, "is_disabled": 0, "lat": 38.8949445, "fusion_lat": 0.0, "is_reserved": 0, "rental_uris": {"ios": "https://dc.lft.to/lastmile_qr_scan", "android": "https://dc.lft.to/lastmile_qr_scan"}, "fusion_lon": 0.0, "type": "electric_scooter", "bike_id": "d5fc310ff18fc53ab1f3c7883e0c43e9", "name": "d5fc310ff18fc53ab1f3c7883e0c43e9"}, {"lon": -77.02065216666666, "is_disabled": 0, "lat": 38.933378166666664, "fusion_lat": 0.0, "is_reserved": 0, "rental_uris": {"ios": "https://dc.lft.to/lastmile_qr_scan", "android": "https://dc.lft.to/lastmile_qr_scan"}, "fusion_lon": 0.0, "type": "electric_scooter", "bike_id": "a879d56baab0aafe35f1aa3b6c4cc3ec", "name": "a879d56baab0aafe35f1aa3b6c4cc3ec"}, {"lon": -77.04155833333333, "is_disabled": 0, "lat": 38.90150216666667, "fusion_lat": 0.0, "is_reserved": 0, "rental_uris": {"ios": "https://dc.lft.to/lastmile_qr_scan", "android": "https://dc.lft.to/lastmile_qr_scan"}, "fusion_lon": 0.0, "type": "electric_scooter", "bike_id": "0d3e31e5ad7ea0935c671fe7c59dad47", "name": "0d3e31e5ad7ea0935c671fe7c59dad47"}, {"lon": -77.01534466666666, "is_disabled": 0, "lat": 38.887383166666666, "fusion_lat": 0.0, "is_reserved": 0, "rental_uris": {"ios": "https://dc.lft.to/lastmile_qr_scan", "android": "https://dc.lft.to/lastmile_qr_scan"}, "fusion_lon": 0.0, "type": "electric_scooter", "bike_id": "5984fada27238d7c8300d37c1ff1972a", "name": "5984fada27238d7c8300d37c1ff1972a"}, {"lon": -76.957855, "is_disabled": 0, "lat": 38.868718333333334, "fusion_lat": 0.0, "is_reserved": 0, "rental_uris": {"ios": "https://dc.lft.to/lastmile_qr_scan", "android": "https://dc.lft.to/lastmile_qr_scan"}, "fusion_lon": 0.0, "type": "electric_bike", "bike_id": "0817c0c10f9d1507ff960a40fd634953", "name": "0817c0c10f9d1507ff960a40fd634953"}, {"lon": -77.02408516666667, "is_disabled": 0, "lat": 38.91399633333333, "fusion_lat": 0.0, "is_reserved": 0, "rental_uris": {"ios": "https://dc.lft.to/lastmile_qr_scan", "android": "https://dc.lft.to/lastmile_qr_scan"}, "fusion_lon": 0.0, "type": "electric_scooter", "bike_id": "5a38dc1c8879d1213088f3af33d30b54", "name": "5a38dc1c8879d1213088f3af33d30b54"}, {"lon": -77.03494533333334, "is_disabled": 0, "lat": 38.923427333333336, "fusion_lat": 0.0, "is_reserved": 0, "rental_uris": {"ios": "https://dc.lft.to/lastmile_qr_scan", "android": "https://dc.lft.to/lastmile_qr_scan"}, "fusion_lon": 0.0, "type": "electric_scooter", "bike_id": "e0d6a95a191abfdd662a7e86e81feaa3", "name": "e0d6a95a191abfdd662a7e86e81feaa3"}, {"lon": -77.01972916666666, "is_disabled": 0, "lat": 38.93574616666667, "fusion_lat": 0.0, "is_reserved": 0, "rental_uris": {"ios": "https://dc.lft.to/lastmile_qr_scan", "android": "https://dc.lft.to/lastmile_qr_scan"}, "fusion_lon": 0.0, "type": "electric_scooter", "bike_id": "3c5d04cbfeb2b663fa78b4d0d31d8cd5", "name": "3c5d04cbfeb2b663fa78b4d0d31d8cd5"}, {"lon": -77.00489066666667, "is_disabled": 0, "lat": 38.8746625, "fusion_lat": 0.0, "is_reserved": 0, "rental_uris": {"ios": "https://dc.lft.to/lastmile_qr_scan", "android": "https://dc.lft.to/lastmile_qr_scan"}, "fusion_lon": 0.0, "type": "electric_scooter", "bike_id": "0c3df44882eabc32ed94cd3d1da5c04d", "name": "0c3df44882eabc32ed94cd3d1da5c04d"}, {"lon": -77.0806765, "is_disabled": 0, "lat": 39.052542, "fusion_lat": 0.0, "is_reserved": 0, "rental_uris": {"ios": "https://dc.lft.to/lastmile_qr_scan", "android": "https://dc.lft.to/lastmile_qr_scan"}, "fusion_lon": 0.0, "type": "electric_bike", "bike_id": "7aae54bbc437c26d93385ab9fa85a51e", "name": "7aae54bbc437c26d93385ab9fa85a51e"}, {"lon": -77.0448355, "is_disabled": 0, "lat": 38.91504783333333, "fusion_lat": 0.0, "is_reserved": 0, "rental_uris": {"ios": "https://dc.lft.to/lastmile_qr_scan", "android": "https://dc.lft.to/lastmile_qr_scan"}, "fusion_lon": 0.0, "type": "electric_scooter", "bike_id": "b2b59eb4dc4ae4698ba80dc6e788ca8b", "name": "b2b59eb4dc4ae4698ba80dc6e788ca8b"}, {"lon": -77.04952883333333, "is_disabled": 0, "lat": 38.89828033333333, "fusion_lat": 0.0, "is_reserved": 0, "rental_uris": {"ios": "https://dc.lft.to/lastmile_qr_scan", "android": "https://dc.lft.to/lastmile_qr_scan"}, "fusion_lon": 0.0, "type": "electric_scooter", "bike_id": "6f82b676c947682dbafaf16ecc2890cf", "name": "6f82b676c947682dbafaf16ecc2890cf"}, {"lon": -77.04944383333333, "is_disabled": 0, "lat": 38.918242666666664, "fusion_lat": 0.0, "is_reserved": 0, "rental_uris": {"ios": "https://dc.lft.to/lastmile_qr_scan", "android": "https://dc.lft.to/lastmile_qr_scan"}, "fusion_lon": 0.0, "type": "electric_scooter", "bike_id": "8cc97ee2cd8a41dd5dcc3acbbfb46603", "name": "8cc97ee2cd8a41dd5dcc3acbbfb46603"}, {"lon": -77.06272916666667, "is_disabled": 0, "lat": 38.905851, "fusion_lat": 0.0, "is_reserved": 0, "rental_uris": {"ios": "https://dc.lft.to/lastmile_qr_scan", "android": "https://dc.lft.to/lastmile_qr_scan"}, "fusion_lon": 0.0, "type": "electric_scooter", "bike_id": "3b3e5fb7adcea845e24bc3b8de248c79", "name": "3b3e5fb7adcea845e24bc3b8de248c79"}, {"lon": -77.0421435, "is_disabled": 0, "lat": 38.9038115, "fusion_lat": 0.0, "is_reserved": 0, "rental_uris": {"ios": "https://dc.lft.to/lastmile_qr_scan", "android": "https://dc.lft.to/lastmile_qr_scan"}, "fusion_lon": 0.0, "type": "electric_scooter", "bike_id": "b6bc9bb2b89157c059ff6f767ee8f28f", "name": "b6bc9bb2b89157c059ff6f767ee8f28f"}, {"lon": -77.0317055, "is_disabled": 0, "lat": 38.91819916666667, "fusion_lat": 0.0, "is_reserved": 0, "rental_uris": {"ios": "https://dc.lft.to/lastmile_qr_scan", "android": "https://dc.lft.to/lastmile_qr_scan"}, "fusion_lon": 0.0, "type": "electric_scooter", "bike_id": "874d76ed79fc7fcd258885980539226a", "name": "874d76ed79fc7fcd258885980539226a"}, {"lon": -77.04533966666666, "is_disabled": 0, "lat": 38.93461166666667, "fusion_lat": 0.0, "is_reserved": 0, "rental_uris": {"ios": "https://dc.lft.to/lastmile_qr_scan", "android": "https://dc.lft.to/lastmile_qr_scan"}, "fusion_lon": 0.0, "type": "electric_scooter", "bike_id": "8901b7f1bacd70817d9e71914ba1a3b5", "name": "8901b7f1bacd70817d9e71914ba1a3b5"}, {"lon": -76.98051166666667, "is_disabled": 0, "lat": 38.885302, "fusion_lat": 0.0, "is_reserved": 0, "rental_uris": {"ios": "https://dc.lft.to/lastmile_qr_scan", "android": "https://dc.lft.to/lastmile_qr_scan"}, "fusion_lon": 0.0, "type": "electric_scooter", "bike_id": "efc70098ff2f3cd03e06016bcb1acaea", "name": "efc70098ff2f3cd03e06016bcb1acaea"}, {"lon": -77.02238866666667, "is_disabled": 0, "lat": 38.920982333333335, "fusion_lat": 0.0, "is_reserved": 0, "rental_uris": {"ios": "https://dc.lft.to/lastmile_qr_scan", "android": "https://dc.lft.to/lastmile_qr_scan"}, "fusion_lon": 0.0, "type": "electric_scooter", "bike_id": "980a3ba60aee513929fd7a1cae9c984d", "name": "980a3ba60aee513929fd7a1cae9c984d"}, {"lon": -76.933687, "is_disabled": 0, "lat": 38.89918933333333, "fusion_lat": 0.0, "is_reserved": 0, "rental_uris": {"ios": "https://dc.lft.to/lastmile_qr_scan", "android": "https://dc.lft.to/lastmile_qr_scan"}, "fusion_lon": 0.0, "type": "electric_scooter", "bike_id": "3432eacbad93fb62ef2669e0b314859f", "name": "3432eacbad93fb62ef2669e0b314859f"}, {"lon": -77.02590783333333, "is_disabled": 0, "lat": 38.91565516666667, "fusion_lat": 0.0, "is_reserved": 0, "rental_uris": {"ios": "https://dc.lft.to/lastmile_qr_scan", "android": "https://dc.lft.to/lastmile_qr_scan"}, "fusion_lon": 0.0, "type": "electric_scooter", "bike_id": "cf6acf1e100085f8440d6c7c03336e03", "name": "cf6acf1e100085f8440d6c7c03336e03"}, {"lon": -77.03828066666667, "is_disabled": 0, "lat": 38.9197185, "fusion_lat": 0.0, "is_reserved": 0, "rental_uris": {"ios": "https://dc.lft.to/lastmile_qr_scan", "android": "https://dc.lft.to/lastmile_qr_scan"}, "fusion_lon": 0.0, "type": "electric_scooter", "bike_id": "12cb3fee48fbb629a01bd1fe8efdcc70", "name": "12cb3fee48fbb629a01bd1fe8efdcc70"}, {"lon": -76.98254233333333, "is_disabled": 0, "lat": 38.9533185, "fusion_lat": 0.0, "is_reserved": 0, "rental_uris": {"ios": "https://dc.lft.to/lastmile_qr_scan", "android": "https://dc.lft.to/lastmile_qr_scan"}, "fusion_lon": 0.0, "type": "electric_bike", "bike_id": "2a026fc9685ae98084536db856979768", "name": "2a026fc9685ae98084536db856979768"}, {"lon": -77.01813233333333, "is_disabled": 0, "lat": 38.90138483333333, "fusion_lat": 0.0, "is_reserved": 0, "rental_uris": {"ios": "https://dc.lft.to/lastmile_qr_scan", "android": "https://dc.lft.to/lastmile_qr_scan"}, "fusion_lon": 0.0, "type": "electric_scooter", "bike_id": "c62115b4cd7d717460ee51d02fb61f51", "name": "c62115b4cd7d717460ee51d02fb61f51"}, {"lon": -77.04209633333333, "is_disabled": 0, "lat": 38.92251233333333, "fusion_lat": 0.0, "is_reserved": 0, "rental_uris": {"ios": "https://dc.lft.to/lastmile_qr_scan", "android": "https://dc.lft.to/lastmile_qr_scan"}, "fusion_lon": 0.0, "type": "electric_scooter", "bike_id": "42e3daa5e5bc1414faa7801a175a5374", "name": "42e3daa5e5bc1414faa7801a175a5374"}, {"lon": -76.94634366666666, "is_disabled": 0, "lat": 38.8983295, "fusion_lat": 0.0, "is_reserved": 0, "rental_uris": {"ios": "https://dc.lft.to/lastmile_qr_scan", "android": "https://dc.lft.to/lastmile_qr_scan"}, "fusion_lon": 0.0, "type": "electric_scooter", "bike_id": "25faa056a2649db491f1ea47d755c75f", "name": "25faa056a2649db491f1ea47d755c75f"}, {"lon": -77.022274, "is_disabled": 0, "lat": 38.956867833333334, "fusion_lat": 0.0, "is_reserved": 0, "rental_uris": {"ios": "https://dc.lft.to/lastmile_qr_scan", "android": "https://dc.lft.to/lastmile_qr_scan"}, "fusion_lon": 0.0, "type": "electric_bike", "bike_id": "6dc38a19d497cecd30a41576074f7933", "name": "6dc38a19d497cecd30a41576074f7933"}, {"lon": -77.08858166666667, "is_disabled": 0, "lat": 38.916398666666666, "fusion_lat": 0.0, "is_reserved": 0, "rental_uris": {"ios": "https://dc.lft.to/lastmile_qr_scan", "android": "https://dc.lft.to/lastmile_qr_scan"}, "fusion_lon": 0.0, "type": "electric_scooter", "bike_id": "8044a9ba9f9e28e4a337c8ee58f9f0d8", "name": "8044a9ba9f9e28e4a337c8ee58f9f0d8"}, {"lon": -76.95950366666666, "is_disabled": 0, "lat": 38.86193816666667, "fusion_lat": 0.0, "is_reserved": 0, "rental_uris": {"ios": "https://dc.lft.to/lastmile_qr_scan", "android": "https://dc.lft.to/lastmile_qr_scan"}, "fusion_lon": 0.0, "type": "electric_scooter", "bike_id": "ac69929898113e34b447499b87ce2407", "name": "ac69929898113e34b447499b87ce2407"}, {"lon": -76.98145216666667, "is_disabled": 0, "lat": 38.89741516666667, "fusion_lat": 0.0, "is_reserved": 0, "rental_uris": {"ios": "https://dc.lft.to/lastmile_qr_scan", "android": "https://dc.lft.to/lastmile_qr_scan"}, "fusion_lon": 0.0, "type": "electric_scooter", "bike_id": "66f77ffa0aee52b85839adcd0504f0a6", "name": "66f77ffa0aee52b85839adcd0504f0a6"}, {"lon": -77.00404083333333, "is_disabled": 0, "lat": 38.921363166666666, "fusion_lat": 0.0, "is_reserved": 0, "rental_uris": {"ios": "https://dc.lft.to/lastmile_qr_scan", "android": "https://dc.lft.to/lastmile_qr_scan"}, "fusion_lon": 0.0, "type": "electric_scooter", "bike_id": "55a1119f500a7b65ff6e0f7cd844244e", "name": "55a1119f500a7b65ff6e0f7cd844244e"}, {"lon": -77.04458516666666, "is_disabled": 0, "lat": 38.915432833333334, "fusion_lat": 0.0, "is_reserved": 0, "rental_uris": {"ios": "https://dc.lft.to/lastmile_qr_scan", "android": "https://dc.lft.to/lastmile_qr_scan"}, "fusion_lon": 0.0, "type": "electric_scooter", "bike_id": "d14a231dc8be967e0f75eb7be39fed51", "name": "d14a231dc8be967e0f75eb7be39fed51"}, {"lon": -77.02216133333333, "is_disabled": 0, "lat": 38.89601783333333, "fusion_lat": 0.0, "is_reserved": 0, "rental_uris": {"ios": "https://dc.lft.to/lastmile_qr_scan", "android": "https://dc.lft.to/lastmile_qr_scan"}, "fusion_lon": 0.0, "type": "electric_scooter", "bike_id": "fbf9a9da1bf1c1017feee06dfd2f0ea4", "name": "fbf9a9da1bf1c1017feee06dfd2f0ea4"}, {"lon": -76.96505, "is_disabled": 0, "lat": 38.876491333333334, "fusion_lat": 0.0, "is_reserved": 0, "rental_uris": {"ios": "https://dc.lft.to/lastmile_qr_scan", "android": "https://dc.lft.to/lastmile_qr_scan"}, "fusion_lon": 0.0, "type": "electric_scooter", "bike_id": "6eb5d61220b4e6c146136505ee7a3831", "name": "6eb5d61220b4e6c146136505ee7a3831"}, {"lon": -77.021564, "is_disabled": 0, "lat": 38.92460116666667, "fusion_lat": 0.0, "is_reserved": 0, "rental_uris": {"ios": "https://dc.lft.to/lastmile_qr_scan", "android": "https://dc.lft.to/lastmile_qr_scan"}, "fusion_lon": 0.0, "type": "electric_scooter", "bike_id": "415d8b98812c22ef843d7847c8916cc3", "name": "415d8b98812c22ef843d7847c8916cc3"}, {"lon": -77.03396483333333, "is_disabled": 0, "lat": 38.9234875, "fusion_lat": 0.0, "is_reserved": 0, "rental_uris": {"ios": "https://dc.lft.to/lastmile_qr_scan", "android": "https://dc.lft.to/lastmile_qr_scan"}, "fusion_lon": 0.0, "type": "electric_scooter", "bike_id": "8a51bbdd237bdaa081153f130203419a", "name": "8a51bbdd237bdaa081153f130203419a"}, {"lon": -77.04018, "is_disabled": 0, "lat": 38.903165333333334, "fusion_lat": 0.0, "is_reserved": 0, "rental_uris": {"ios": "https://dc.lft.to/lastmile_qr_scan", "android": "https://dc.lft.to/lastmile_qr_scan"}, "fusion_lon": 0.0, "type": "electric_scooter", "bike_id": "1482e04ff4d0d7dd7c56fd43d3bc0494", "name": "1482e04ff4d0d7dd7c56fd43d3bc0494"}, {"lon": -77.01749166666667, "is_disabled": 0, "lat": 38.917159166666664, "fusion_lat": 0.0, "is_reserved": 0, "rental_uris": {"ios": "https://dc.lft.to/lastmile_qr_scan", "android": "https://dc.lft.to/lastmile_qr_scan"}, "fusion_lon": 0.0, "type": "electric_scooter", "bike_id": "030deabd0a5502a6405b2234786d4f9d", "name": "030deabd0a5502a6405b2234786d4f9d"}, {"lon": -77.022116, "is_disabled": 0, "lat": 38.910535833333334, "fusion_lat": 0.0, "is_reserved": 0, "rental_uris": {"ios": "https://dc.lft.to/lastmile_qr_scan", "android": "https://dc.lft.to/lastmile_qr_scan"}, "fusion_lon": 0.0, "type": "electric_scooter", "bike_id": "dc87683c565eb5962f7a340c776179d6", "name": "dc87683c565eb5962f7a340c776179d6"}, {"lon": -77.0185805, "is_disabled": 0, "lat": 38.949195833333334, "fusion_lat": 0.0, "is_reserved": 0, "rental_uris": {"ios": "https://dc.lft.to/lastmile_qr_scan", "android": "https://dc.lft.to/lastmile_qr_scan"}, "fusion_lon": 0.0, "type": "electric_scooter", "bike_id": "ba96cc05cc141579428009e8afbe6e51", "name": "ba96cc05cc141579428009e8afbe6e51"}, {"lon": -77.03956366666667, "is_disabled": 0, "lat": 38.902552666666665, "fusion_lat": 0.0, "is_reserved": 0, "rental_uris": {"ios": "https://dc.lft.to/lastmile_qr_scan", "android": "https://dc.lft.to/lastmile_qr_scan"}, "fusion_lon": 0.0, "type": "electric_scooter", "bike_id": "9395f673d36682a5903989a14b6b2e0a", "name": "9395f673d36682a5903989a14b6b2e0a"}, {"lon": -77.021791, "is_disabled": 0, "lat": 38.89297766666667, "fusion_lat": 0.0, "is_reserved": 0, "rental_uris": {"ios": "https://dc.lft.to/lastmile_qr_scan", "android": "https://dc.lft.to/lastmile_qr_scan"}, "fusion_lon": 0.0, "type": "electric_scooter", "bike_id": "602c50b84786d812ca3a79226a9a4334", "name": "602c50b84786d812ca3a79226a9a4334"}, {"lon": -77.02699583333333, "is_disabled": 0, "lat": 38.897246833333334, "fusion_lat": 0.0, "is_reserved": 0, "rental_uris": {"ios": "https://dc.lft.to/lastmile_qr_scan", "android": "https://dc.lft.to/lastmile_qr_scan"}, "fusion_lon": 0.0, "type": "electric_scooter", "bike_id": "df358632716c6e2caabbe953c1dc04ee", "name": "df358632716c6e2caabbe953c1dc04ee"}, {"lon": -77.02221666666667, "is_disabled": 0, "lat": 38.897281666666665, "fusion_lat": 0.0, "is_reserved": 0, "rental_uris": {"ios": "https://dc.lft.to/lastmile_qr_scan", "android": "https://dc.lft.to/lastmile_qr_scan"}, "fusion_lon": 0.0, "type": "electric_scooter", "bike_id": "06bd9b6e0d44b26e0bc86b8b8aeddde9", "name": "06bd9b6e0d44b26e0bc86b8b8aeddde9"}, {"lon": -77.01042633333333, "is_disabled": 0, "lat": 38.915536, "fusion_lat": 0.0, "is_reserved": 0, "rental_uris": {"ios": "https://dc.lft.to/lastmile_qr_scan", "android": "https://dc.lft.to/lastmile_qr_scan"}, "fusion_lon": 0.0, "type": "electric_scooter", "bike_id": "a428129ee49244afc56ac677868737d8", "name": "a428129ee49244afc56ac677868737d8"}, {"lon": -77.0212105, "is_disabled": 0, "lat": 38.91414133333333, "fusion_lat": 0.0, "is_reserved": 0, "rental_uris": {"ios": "https://dc.lft.to/lastmile_qr_scan", "android": "https://dc.lft.to/lastmile_qr_scan"}, "fusion_lon": 0.0, "type": "electric_scooter", "bike_id": "51efa65756c741b5e6fff287f1a702b9", "name": "51efa65756c741b5e6fff287f1a702b9"}, {"lon": -77.03277566666667, "is_disabled": 0, "lat": 38.92647433333333, "fusion_lat": 0.0, "is_reserved": 0, "rental_uris": {"ios": "https://dc.lft.to/lastmile_qr_scan", "android": "https://dc.lft.to/lastmile_qr_scan"}, "fusion_lon": 0.0, "type": "electric_scooter", "bike_id": "e77c133fb8043f169dcf06fbf62a1de2", "name": "e77c133fb8043f169dcf06fbf62a1de2"}, {"lon": -77.00573333333334, "is_disabled": 0, "lat": 38.90316883333333, "fusion_lat": 0.0, "is_reserved": 0, "rental_uris": {"ios": "https://dc.lft.to/lastmile_qr_scan", "android": "https://dc.lft.to/lastmile_qr_scan"}, "fusion_lon": 0.0, "type": "electric_scooter", "bike_id": "405272fc177b8e350d9b46200640cd89", "name": "405272fc177b8e350d9b46200640cd89"}, {"lon": -77.02177466666667, "is_disabled": 0, "lat": 38.906792833333334, "fusion_lat": 0.0, "is_reserved": 0, "rental_uris": {"ios": "https://dc.lft.to/lastmile_qr_scan", "android": "https://dc.lft.to/lastmile_qr_scan"}, "fusion_lon": 0.0, "type": "electric_scooter", "bike_id": "1f5fe24f6087ae4aeb02a769c4477acb", "name": "1f5fe24f6087ae4aeb02a769c4477acb"}, {"lon": -77.03125933333334, "is_disabled": 0, "lat": 38.930918166666665, "fusion_lat": 0.0, "is_reserved": 0, "rental_uris": {"ios": "https://dc.lft.to/lastmile_qr_scan", "android": "https://dc.lft.to/lastmile_qr_scan"}, "fusion_lon": 0.0, "type": "electric_scooter", "bike_id": "916786d48a94cc5cd7a0ae8cfd728a3b", "name": "916786d48a94cc5cd7a0ae8cfd728a3b"}, {"lon": -77.0445735, "is_disabled": 0, "lat": 38.91544366666667, "fusion_lat": 0.0, "is_reserved": 0, "rental_uris": {"ios": "https://dc.lft.to/lastmile_qr_scan", "android": "https://dc.lft.to/lastmile_qr_scan"}, "fusion_lon": 0.0, "type": "electric_scooter", "bike_id": "27740d90898d7eb30a86e5c1a3290b3e", "name": "27740d90898d7eb30a86e5c1a3290b3e"}, {"lon": -77.04333033333333, "is_disabled": 0, "lat": 38.8963905, "fusion_lat": 0.0, "is_reserved": 0, "rental_uris": {"ios": "https://dc.lft.to/lastmile_qr_scan", "android": "https://dc.lft.to/lastmile_qr_scan"}, "fusion_lon": 0.0, "type": "electric_scooter", "bike_id": "6a873b10cb2cfd31a99167fa382dad6e", "name": "6a873b10cb2cfd31a99167fa382dad6e"}, {"lon": -77.03967383333334, "is_disabled": 0, "lat": 38.89429366666667, "fusion_lat": 0.0, "is_reserved": 0, "rental_uris": {"ios": "https://dc.lft.to/lastmile_qr_scan", "android": "https://dc.lft.to/lastmile_qr_scan"}, "fusion_lon": 0.0, "type": "electric_scooter", "bike_id": "6c9c0356908f7cdde5f47069157d7215", "name": "6c9c0356908f7cdde5f47069157d7215"}, {"lon": -77.04134916666666, "is_disabled": 0, "lat": 38.92496, "fusion_lat": 0.0, "is_reserved": 0, "rental_uris": {"ios": "https://dc.lft.to/lastmile_qr_scan", "android": "https://dc.lft.to/lastmile_qr_scan"}, "fusion_lon": 0.0, "type": "electric_scooter", "bike_id": "669c628dacaeef28d2f806223b8035f4", "name": "669c628dacaeef28d2f806223b8035f4"}, {"lon": -77.04379133333333, "is_disabled": 0, "lat": 38.925618, "fusion_lat": 0.0, "is_reserved": 0, "rental_uris": {"ios": "https://dc.lft.to/lastmile_qr_scan", "android": "https://dc.lft.to/lastmile_qr_scan"}, "fusion_lon": 0.0, "type": "electric_scooter", "bike_id": "81d4b8174191c790abf171823109a844", "name": "81d4b8174191c790abf171823109a844"}, {"lon": -77.04306116666666, "is_disabled": 0, "lat": 38.90581383333333, "fusion_lat": 0.0, "is_reserved": 0, "rental_uris": {"ios": "https://dc.lft.to/lastmile_qr_scan", "android": "https://dc.lft.to/lastmile_qr_scan"}, "fusion_lon": 0.0, "type": "electric_scooter", "bike_id": "9fffbc561ac0e84c4458795dfc50111d", "name": "9fffbc561ac0e84c4458795dfc50111d"}, {"lon": -77.02301316666667, "is_disabled": 0, "lat": 38.89500066666667, "fusion_lat": 0.0, "is_reserved": 0, "rental_uris": {"ios": "https://dc.lft.to/lastmile_qr_scan", "android": "https://dc.lft.to/lastmile_qr_scan"}, "fusion_lon": 0.0, "type": "electric_scooter", "bike_id": "3748be7dc2993afe7f6aa06e5f7d9b45", "name": "3748be7dc2993afe7f6aa06e5f7d9b45"}, {"lon": -77.07353383333333, "is_disabled": 0, "lat": 38.9335555, "fusion_lat": 0.0, "is_reserved": 0, "rental_uris": {"ios": "https://dc.lft.to/lastmile_qr_scan", "android": "https://dc.lft.to/lastmile_qr_scan"}, "fusion_lon": 0.0, "type": "electric_scooter", "bike_id": "275273078b058af20c0bd9ce40cef3df", "name": "275273078b058af20c0bd9ce40cef3df"}, {"lon": -77.025012, "is_disabled": 0, "lat": 38.942699, "fusion_lat": 0.0, "is_reserved": 0, "rental_uris": {"ios": "https://dc.lft.to/lastmile_qr_scan", "android": "https://dc.lft.to/lastmile_qr_scan"}, "fusion_lon": 0.0, "type": "electric_scooter", "bike_id": "9e62553bc54b6d9d33ea787c76f7f847", "name": "9e62553bc54b6d9d33ea787c76f7f847"}, {"lon": -77.06203933333333, "is_disabled": 0, "lat": 38.93348016666667, "fusion_lat": 0.0, "is_reserved": 0, "rental_uris": {"ios": "https://dc.lft.to/lastmile_qr_scan", "android": "https://dc.lft.to/lastmile_qr_scan"}, "fusion_lon": 0.0, "type": "electric_scooter", "bike_id": "b472ad1f890d8c2969429679ec1fc485", "name": "b472ad1f890d8c2969429679ec1fc485"}, {"lon": -77.02399633333333, "is_disabled": 0, "lat": 38.91672783333333, "fusion_lat": 0.0, "is_reserved": 0, "rental_uris": {"ios": "https://dc.lft.to/lastmile_qr_scan", "android": "https://dc.lft.to/lastmile_qr_scan"}, "fusion_lon": 0.0, "type": "electric_scooter", "bike_id": "d95d0f6756d1d9f15b810775780ea595", "name": "d95d0f6756d1d9f15b810775780ea595"}, {"lon": -77.0446645, "is_disabled": 0, "lat": 38.92549016666667, "fusion_lat": 0.0, "is_reserved": 0, "rental_uris": {"ios": "https://dc.lft.to/lastmile_qr_scan", "android": "https://dc.lft.to/lastmile_qr_scan"}, "fusion_lon": 0.0, "type": "electric_scooter", "bike_id": "3265ef26abc50760215fe3358c5add07", "name": "3265ef26abc50760215fe3358c5add07"}, {"lon": -77.03500066666666, "is_disabled": 0, "lat": 38.93460983333333, "fusion_lat": 0.0, "is_reserved": 0, "rental_uris": {"ios": "https://dc.lft.to/lastmile_qr_scan", "android": "https://dc.lft.to/lastmile_qr_scan"}, "fusion_lon": 0.0, "type": "electric_scooter", "bike_id": "6266e1306cd9290c2c5baf4d6e411136", "name": "6266e1306cd9290c2c5baf4d6e411136"}, {"lon": -77.03867383333333, "is_disabled": 0, "lat": 38.921517333333334, "fusion_lat": 0.0, "is_reserved": 0, "rental_uris": {"ios": "https://dc.lft.to/lastmile_qr_scan", "android": "https://dc.lft.to/lastmile_qr_scan"}, "fusion_lon": 0.0, "type": "electric_scooter", "bike_id": "1318345e7339583e1bb4b1d261d3f99b", "name": "1318345e7339583e1bb4b1d261d3f99b"}, {"lon": -76.99306933333334, "is_disabled": 0, "lat": 38.857515166666666, "fusion_lat": 0.0, "is_reserved": 0, "rental_uris": {"ios": "https://dc.lft.to/lastmile_qr_scan", "android": "https://dc.lft.to/lastmile_qr_scan"}, "fusion_lon": 0.0, "type": "electric_scooter", "bike_id": "5d8e83b888a967276b649a0073e3501b", "name": "5d8e83b888a967276b649a0073e3501b"}, {"lon": -77.03177583333333, "is_disabled": 0, "lat": 38.91856083333333, "fusion_lat": 0.0, "is_reserved": 0, "rental_uris": {"ios": "https://dc.lft.to/lastmile_qr_scan", "android": "https://dc.lft.to/lastmile_qr_scan"}, "fusion_lon": 0.0, "type": "electric_scooter", "bike_id": "28fee3be52b0bdb44dc3925635a58d41", "name": "28fee3be52b0bdb44dc3925635a58d41"}, {"lon": -77.04767516666666, "is_disabled": 0, "lat": 38.905026, "fusion_lat": 0.0, "is_reserved": 0, "rental_uris": {"ios": "https://dc.lft.to/lastmile_qr_scan", "android": "https://dc.lft.to/lastmile_qr_scan"}, "fusion_lon": 0.0, "type": "electric_scooter", "bike_id": "7895f8a3dd3fe42f93217e63fb10bdc5", "name": "7895f8a3dd3fe42f93217e63fb10bdc5"}, {"lon": -76.987141, "is_disabled": 0, "lat": 38.86697916666667, "fusion_lat": 0.0, "is_reserved": 0, "rental_uris": {"ios": "https://dc.lft.to/lastmile_qr_scan", "android": "https://dc.lft.to/lastmile_qr_scan"}, "fusion_lon": 0.0, "type": "electric_scooter", "bike_id": "e7d0fdb41891037e0c600451a7c4c9a1", "name": "e7d0fdb41891037e0c600451a7c4c9a1"}, {"lon": -76.99856, "is_disabled": 0, "lat": 38.89624666666667, "fusion_lat": 0.0, "is_reserved": 0, "rental_uris": {"ios": "https://dc.lft.to/lastmile_qr_scan", "android": "https://dc.lft.to/lastmile_qr_scan"}, "fusion_lon": 0.0, "type": "electric_scooter", "bike_id": "6dddce36366604593c0046890607b350", "name": "6dddce36366604593c0046890607b350"}, {"lon": -77.0130145, "is_disabled": 0, "lat": 38.90192966666667, "fusion_lat": 0.0, "is_reserved": 0, "rental_uris": {"ios": "https://dc.lft.to/lastmile_qr_scan", "android": "https://dc.lft.to/lastmile_qr_scan"}, "fusion_lon": 0.0, "type": "electric_scooter", "bike_id": "bf0bd990d69bf86d496e46686d8fc01d", "name": "bf0bd990d69bf86d496e46686d8fc01d"}, {"lon": -77.033191, "is_disabled": 0, "lat": 38.9204405, "fusion_lat": 0.0, "is_reserved": 0, "rental_uris": {"ios": "https://dc.lft.to/lastmile_qr_scan", "android": "https://dc.lft.to/lastmile_qr_scan"}, "fusion_lon": 0.0, "type": "electric_bike", "bike_id": "4f9043fdb927715eb87109fca9f705d3", "name": "4f9043fdb927715eb87109fca9f705d3"}, {"lon": -76.994886, "is_disabled": 0, "lat": 38.929960333333334, "fusion_lat": 0.0, "is_reserved": 0, "rental_uris": {"ios": "https://dc.lft.to/lastmile_qr_scan", "android": "https://dc.lft.to/lastmile_qr_scan"}, "fusion_lon": 0.0, "type": "electric_scooter", "bike_id": "83c398b15cece4a7e6dde92331853979", "name": "83c398b15cece4a7e6dde92331853979"}, {"lon": -76.9842485, "is_disabled": 0, "lat": 38.92645516666666, "fusion_lat": 0.0, "is_reserved": 0, "rental_uris": {"ios": "https://dc.lft.to/lastmile_qr_scan", "android": "https://dc.lft.to/lastmile_qr_scan"}, "fusion_lon": 0.0, "type": "electric_bike", "bike_id": "ee397098cbc3ddaf9e779d26f0f88f96", "name": "ee397098cbc3ddaf9e779d26f0f88f96"}, {"lon": -77.03378416666666, "is_disabled": 0, "lat": 38.9205085, "fusion_lat": 0.0, "is_reserved": 0, "rental_uris": {"ios": "https://dc.lft.to/lastmile_qr_scan", "android": "https://dc.lft.to/lastmile_qr_scan"}, "fusion_lon": 0.0, "type": "electric_scooter", "bike_id": "4ae514b25b654b2922ec2e4c1d72d871", "name": "4ae514b25b654b2922ec2e4c1d72d871"}, {"lon": -77.02424716666667, "is_disabled": 0, "lat": 38.926550666666664, "fusion_lat": 0.0, "is_reserved": 0, "rental_uris": {"ios": "https://dc.lft.to/lastmile_qr_scan", "android": "https://dc.lft.to/lastmile_qr_scan"}, "fusion_lon": 0.0, "type": "electric_scooter", "bike_id": "30166c4fe66f41de2f4d81b9a4008113", "name": "30166c4fe66f41de2f4d81b9a4008113"}, {"lon": -77.02206783333334, "is_disabled": 0, "lat": 38.926906, "fusion_lat": 0.0, "is_reserved": 0, "rental_uris": {"ios": "https://dc.lft.to/lastmile_qr_scan", "android": "https://dc.lft.to/lastmile_qr_scan"}, "fusion_lon": 0.0, "type": "electric_scooter", "bike_id": "d6147e3531bf1fc276d456390a250927", "name": "d6147e3531bf1fc276d456390a250927"}, {"lon": -77.04353, "is_disabled": 0, "lat": 38.9147365, "fusion_lat": 0.0, "is_reserved": 0, "rental_uris": {"ios": "https://dc.lft.to/lastmile_qr_scan", "android": "https://dc.lft.to/lastmile_qr_scan"}, "fusion_lon": 0.0, "type": "electric_scooter", "bike_id": "9396b5063a831acf262bb32456f7efa7", "name": "9396b5063a831acf262bb32456f7efa7"}, {"lon": -77.225638, "is_disabled": 0, "lat": 38.92441983333333, "fusion_lat": 0.0, "is_reserved": 0, "rental_uris": {"ios": "https://dc.lft.to/lastmile_qr_scan", "android": "https://dc.lft.to/lastmile_qr_scan"}, "fusion_lon": 0.0, "type": "electric_bike", "bike_id": "a424eb8680ec9f6214e39e99cfa5df8d", "name": "a424eb8680ec9f6214e39e99cfa5df8d"}, {"lon": -77.02399566666666, "is_disabled": 0, "lat": 38.919168166666665, "fusion_lat": 0.0, "is_reserved": 0, "rental_uris": {"ios": "https://dc.lft.to/lastmile_qr_scan", "android": "https://dc.lft.to/lastmile_qr_scan"}, "fusion_lon": 0.0, "type": "electric_scooter", "bike_id": "0163c4b06b9a705025df63cce603021d", "name": "0163c4b06b9a705025df63cce603021d"}, {"lon": -77.0160325, "is_disabled": 0, "lat": 38.917572, "fusion_lat": 0.0, "is_reserved": 0, "rental_uris": {"ios": "https://dc.lft.to/lastmile_qr_scan", "android": "https://dc.lft.to/lastmile_qr_scan"}, "fusion_lon": 0.0, "type": "electric_bike", "bike_id": "0a6ef6710a29d39633474b933e7af4f4", "name": "0a6ef6710a29d39633474b933e7af4f4"}, {"lon": -76.95210233333333, "is_disabled": 0, "lat": 38.93672566666667, "fusion_lat": 0.0, "is_reserved": 0, "rental_uris": {"ios": "https://dc.lft.to/lastmile_qr_scan", "android": "https://dc.lft.to/lastmile_qr_scan"}, "fusion_lon": 0.0, "type": "electric_bike", "bike_id": "d70f4555f9a6edd53fcadf67456a1aca", "name": "d70f4555f9a6edd53fcadf67456a1aca"}, {"lon": -77.01205733333333, "is_disabled": 0, "lat": 38.87084883333333, "fusion_lat": 0.0, "is_reserved": 0, "rental_uris": {"ios": "https://dc.lft.to/lastmile_qr_scan", "android": "https://dc.lft.to/lastmile_qr_scan"}, "fusion_lon": 0.0, "type": "electric_bike", "bike_id": "00f30031e566e7f73c25e9fe7c2bfbee", "name": "00f30031e566e7f73c25e9fe7c2bfbee"}, {"lon": -77.01143766666667, "is_disabled": 0, "lat": 38.957614166666666, "fusion_lat": 0.0, "is_reserved": 0, "rental_uris": {"ios": "https://dc.lft.to/lastmile_qr_scan", "android": "https://dc.lft.to/lastmile_qr_scan"}, "fusion_lon": 0.0, "type": "electric_scooter", "bike_id": "d333c886bb2651847c07350185116327", "name": "d333c886bb2651847c07350185116327"}, {"lon": -77.03300683333333, "is_disabled": 0, "lat": 38.928489666666664, "fusion_lat": 0.0, "is_reserved": 0, "rental_uris": {"ios": "https://dc.lft.to/lastmile_qr_scan", "android": "https://dc.lft.to/lastmile_qr_scan"}, "fusion_lon": 0.0, "type": "electric_scooter", "bike_id": "bf0df268221ed58ec8bfbd7f4081b973", "name": "bf0df268221ed58ec8bfbd7f4081b973"}, {"lon": -76.97412266666667, "is_disabled": 0, "lat": 38.902057166666665, "fusion_lat": 0.0, "is_reserved": 0, "rental_uris": {"ios": "https://dc.lft.to/lastmile_qr_scan", "android": "https://dc.lft.to/lastmile_qr_scan"}, "fusion_lon": 0.0, "type": "electric_bike", "bike_id": "2e6f37d37f4363b4b0b6614a1ff2b241", "name": "2e6f37d37f4363b4b0b6614a1ff2b241"}, {"lon": -77.05432866666666, "is_disabled": 0, "lat": 38.92847033333334, "fusion_lat": 0.0, "is_reserved": 0, "rental_uris": {"ios": "https://dc.lft.to/lastmile_qr_scan", "android": "https://dc.lft.to/lastmile_qr_scan"}, "fusion_lon": 0.0, "type": "electric_scooter", "bike_id": "5e3132431873ed8ddab5465fa6ca84c2", "name": "5e3132431873ed8ddab5465fa6ca84c2"}, {"lon": -77.0321885, "is_disabled": 0, "lat": 38.91828566666667, "fusion_lat": 0.0, "is_reserved": 0, "rental_uris": {"ios": "https://dc.lft.to/lastmile_qr_scan", "android": "https://dc.lft.to/lastmile_qr_scan"}, "fusion_lon": 0.0, "type": "electric_scooter", "bike_id": "ee68eee8ecee9ad207cfdad531bd550a", "name": "ee68eee8ecee9ad207cfdad531bd550a"}, {"lon": -77.0688525, "is_disabled": 0, "lat": 38.905018, "fusion_lat": 0.0, "is_reserved": 0, "rental_uris": {"ios": "https://dc.lft.to/lastmile_qr_scan", "android": "https://dc.lft.to/lastmile_qr_scan"}, "fusion_lon": 0.0, "type": "electric_scooter", "bike_id": "4c903ba1dae118194a32a014187468c3", "name": "4c903ba1dae118194a32a014187468c3"}, {"lon": -77.0244805, "is_disabled": 0, "lat": 38.897267666666664, "fusion_lat": 0.0, "is_reserved": 0, "rental_uris": {"ios": "https://dc.lft.to/lastmile_qr_scan", "android": "https://dc.lft.to/lastmile_qr_scan"}, "fusion_lon": 0.0, "type": "electric_scooter", "bike_id": "75dc75c9ceabfe8f6573a4785ef8912a", "name": "75dc75c9ceabfe8f6573a4785ef8912a"}, {"lon": -77.03254416666667, "is_disabled": 0, "lat": 38.93967633333333, "fusion_lat": 0.0, "is_reserved": 0, "rental_uris": {"ios": "https://dc.lft.to/lastmile_qr_scan", "android": "https://dc.lft.to/lastmile_qr_scan"}, "fusion_lon": 0.0, "type": "electric_scooter", "bike_id": "686ed63db37c5ddb1e4935f84ed9dfe2", "name": "686ed63db37c5ddb1e4935f84ed9dfe2"}, {"lon": -77.04175583333334, "is_disabled": 0, "lat": 38.91193416666667, "fusion_lat": 0.0, "is_reserved": 0, "rental_uris": {"ios": "https://dc.lft.to/lastmile_qr_scan", "android": "https://dc.lft.to/lastmile_qr_scan"}, "fusion_lon": 0.0, "type": "electric_scooter", "bike_id": "e3665f0b8bc5ae2f0aef7f917fd5b4c6", "name": "e3665f0b8bc5ae2f0aef7f917fd5b4c6"}, {"lon": -77.0175055, "is_disabled": 0, "lat": 38.87763233333333, "fusion_lat": 0.0, "is_reserved": 0, "rental_uris": {"ios": "https://dc.lft.to/lastmile_qr_scan", "android": "https://dc.lft.to/lastmile_qr_scan"}, "fusion_lon": 0.0, "type": "electric_scooter", "bike_id": "5c8adde211cb1f016825df080d3f7a08", "name": "5c8adde211cb1f016825df080d3f7a08"}, {"lon": -77.023887, "is_disabled": 0, "lat": 38.931490833333335, "fusion_lat": 0.0, "is_reserved": 0, "rental_uris": {"ios": "https://dc.lft.to/lastmile_qr_scan", "android": "https://dc.lft.to/lastmile_qr_scan"}, "fusion_lon": 0.0, "type": "electric_scooter", "bike_id": "ea994eaf628a61fb15525bc086408d37", "name": "ea994eaf628a61fb15525bc086408d37"}, {"lon": -77.03842666666667, "is_disabled": 0, "lat": 38.915035833333334, "fusion_lat": 0.0, "is_reserved": 0, "rental_uris": {"ios": "https://dc.lft.to/lastmile_qr_scan", "android": "https://dc.lft.to/lastmile_qr_scan"}, "fusion_lon": 0.0, "type": "electric_scooter", "bike_id": "0b020517219ae6bd144f2dbdba1076d6", "name": "0b020517219ae6bd144f2dbdba1076d6"}, {"lon": -77.00921316666667, "is_disabled": 0, "lat": 38.910673, "fusion_lat": 0.0, "is_reserved": 0, "rental_uris": {"ios": "https://dc.lft.to/lastmile_qr_scan", "android": "https://dc.lft.to/lastmile_qr_scan"}, "fusion_lon": 0.0, "type": "electric_scooter", "bike_id": "20a37852b3c8bfbd05b61b8ba25aefef", "name": "20a37852b3c8bfbd05b61b8ba25aefef"}, {"lon": -77.05605783333333, "is_disabled": 0, "lat": 38.9369795, "fusion_lat": 0.0, "is_reserved": 0, "rental_uris": {"ios": "https://dc.lft.to/lastmile_qr_scan", "android": "https://dc.lft.to/lastmile_qr_scan"}, "fusion_lon": 0.0, "type": "electric_bike", "bike_id": "40eb0d710a0b923e29746b36395fa462", "name": "40eb0d710a0b923e29746b36395fa462"}, {"lon": -77.0231445, "is_disabled": 0, "lat": 38.8947005, "fusion_lat": 0.0, "is_reserved": 0, "rental_uris": {"ios": "https://dc.lft.to/lastmile_qr_scan", "android": "https://dc.lft.to/lastmile_qr_scan"}, "fusion_lon": 0.0, "type": "electric_bike", "bike_id": "71c27bcd961db7bdb4f619678e218f48", "name": "71c27bcd961db7bdb4f619678e218f48"}, {"lon": -77.07254933333333, "is_disabled": 0, "lat": 38.93308116666667, "fusion_lat": 0.0, "is_reserved": 0, "rental_uris": {"ios": "https://dc.lft.to/lastmile_qr_scan", "android": "https://dc.lft.to/lastmile_qr_scan"}, "fusion_lon": 0.0, "type": "electric_scooter", "bike_id": "213906ad466e71ff027b1c5ac720b54f", "name": "213906ad466e71ff027b1c5ac720b54f"}, {"lon": -77.04357816666666, "is_disabled": 0, "lat": 38.91779366666667, "fusion_lat": 0.0, "is_reserved": 0, "rental_uris": {"ios": "https://dc.lft.to/lastmile_qr_scan", "android": "https://dc.lft.to/lastmile_qr_scan"}, "fusion_lon": 0.0, "type": "electric_scooter", "bike_id": "ba6ca688b0df6057b51ca4563831c010", "name": "ba6ca688b0df6057b51ca4563831c010"}, {"lon": -76.98338983333333, "is_disabled": 0, "lat": 38.900875166666665, "fusion_lat": 0.0, "is_reserved": 0, "rental_uris": {"ios": "https://dc.lft.to/lastmile_qr_scan", "android": "https://dc.lft.to/lastmile_qr_scan"}, "fusion_lon": 0.0, "type": "electric_scooter", "bike_id": "88cbc3919fb0167631e8bd0ba57d4725", "name": "88cbc3919fb0167631e8bd0ba57d4725"}, {"lon": -77.01780233333334, "is_disabled": 0, "lat": 38.887143, "fusion_lat": 0.0, "is_reserved": 0, "rental_uris": {"ios": "https://dc.lft.to/lastmile_qr_scan", "android": "https://dc.lft.to/lastmile_qr_scan"}, "fusion_lon": 0.0, "type": "electric_scooter", "bike_id": "dc51d9a474af1feac48c57e3b9be7d47", "name": "dc51d9a474af1feac48c57e3b9be7d47"}, {"lon": -77.01201033333334, "is_disabled": 0, "lat": 38.91718766666666, "fusion_lat": 0.0, "is_reserved": 0, "rental_uris": {"ios": "https://dc.lft.to/lastmile_qr_scan", "android": "https://dc.lft.to/lastmile_qr_scan"}, "fusion_lon": 0.0, "type": "electric_scooter", "bike_id": "cc4e04c31d9f4c9d90df66fea0e869d6", "name": "cc4e04c31d9f4c9d90df66fea0e869d6"}, {"lon": -76.92131766666667, "is_disabled": 0, "lat": 39.01373066666667, "fusion_lat": 0.0, "is_reserved": 0, "rental_uris": {"ios": "https://dc.lft.to/lastmile_qr_scan", "android": "https://dc.lft.to/lastmile_qr_scan"}, "fusion_lon": 0.0, "type": "electric_bike", "bike_id": "4ae513cdfc3cb269300fd818ddfa279c", "name": "4ae513cdfc3cb269300fd818ddfa279c"}, {"lon": -77.01985066666667, "is_disabled": 0, "lat": 38.914214, "fusion_lat": 0.0, "is_reserved": 0, "rental_uris": {"ios": "https://dc.lft.to/lastmile_qr_scan", "android": "https://dc.lft.to/lastmile_qr_scan"}, "fusion_lon": 0.0, "type": "electric_scooter", "bike_id": "2e77f5203fb6e15f800a2781fe480ddb", "name": "2e77f5203fb6e15f800a2781fe480ddb"}, {"lon": -77.02173333333333, "is_disabled": 0, "lat": 38.91110916666667, "fusion_lat": 0.0, "is_reserved": 0, "rental_uris": {"ios": "https://dc.lft.to/lastmile_qr_scan", "android": "https://dc.lft.to/lastmile_qr_scan"}, "fusion_lon": 0.0, "type": "electric_scooter", "bike_id": "6a52fed8112000766e431c9a7e597363", "name": "6a52fed8112000766e431c9a7e597363"}, {"lon": -77.02379983333333, "is_disabled": 0, "lat": 38.92907983333333, "fusion_lat": 0.0, "is_reserved": 0, "rental_uris": {"ios": "https://dc.lft.to/lastmile_qr_scan", "android": "https://dc.lft.to/lastmile_qr_scan"}, "fusion_lon": 0.0, "type": "electric_bike", "bike_id": "e123298a0880a6a82541fc95c50baad5", "name": "e123298a0880a6a82541fc95c50baad5"}, {"lon": -77.02957266666667, "is_disabled": 0, "lat": 38.917756833333335, "fusion_lat": 0.0, "is_reserved": 0, "rental_uris": {"ios": "https://dc.lft.to/lastmile_qr_scan", "android": "https://dc.lft.to/lastmile_qr_scan"}, "fusion_lon": 0.0, "type": "electric_scooter", "bike_id": "9bc08549c156fec014fab05d7aa34fcc", "name": "9bc08549c156fec014fab05d7aa34fcc"}, {"lon": -77.03661966666667, "is_disabled": 0, "lat": 38.9226355, "fusion_lat": 0.0, "is_reserved": 0, "rental_uris": {"ios": "https://dc.lft.to/lastmile_qr_scan", "android": "https://dc.lft.to/lastmile_qr_scan"}, "fusion_lon": 0.0, "type": "electric_scooter", "bike_id": "fdfe2114d360cd88f15604caf5d7abac", "name": "fdfe2114d360cd88f15604caf5d7abac"}, {"lon": -77.03830933333333, "is_disabled": 0, "lat": 38.9127035, "fusion_lat": 0.0, "is_reserved": 0, "rental_uris": {"ios": "https://dc.lft.to/lastmile_qr_scan", "android": "https://dc.lft.to/lastmile_qr_scan"}, "fusion_lon": 0.0, "type": "electric_scooter", "bike_id": "473fb61345c09183269755e46e8ba792", "name": "473fb61345c09183269755e46e8ba792"}, {"lon": -77.01776116666667, "is_disabled": 0, "lat": 38.88711166666667, "fusion_lat": 0.0, "is_reserved": 0, "rental_uris": {"ios": "https://dc.lft.to/lastmile_qr_scan", "android": "https://dc.lft.to/lastmile_qr_scan"}, "fusion_lon": 0.0, "type": "electric_scooter", "bike_id": "5b7fdfec9d8c98ba2a5218d7a048ddb2", "name": "5b7fdfec9d8c98ba2a5218d7a048ddb2"}, {"lon": -77.00580666666667, "is_disabled": 0, "lat": 38.88543283333333, "fusion_lat": 0.0, "is_reserved": 0, "rental_uris": {"ios": "https://dc.lft.to/lastmile_qr_scan", "android": "https://dc.lft.to/lastmile_qr_scan"}, "fusion_lon": 0.0, "type": "electric_scooter", "bike_id": "c457752cbb839f495274a7c7f3df2376", "name": "c457752cbb839f495274a7c7f3df2376"}, {"lon": -77.03617, "is_disabled": 0, "lat": 38.9373865, "fusion_lat": 0.0, "is_reserved": 0, "rental_uris": {"ios": "https://dc.lft.to/lastmile_qr_scan", "android": "https://dc.lft.to/lastmile_qr_scan"}, "fusion_lon": 0.0, "type": "electric_scooter", "bike_id": "3f57c9c23d8eb81368420f4f17d73265", "name": "3f57c9c23d8eb81368420f4f17d73265"}, {"lon": -77.02120833333333, "is_disabled": 0, "lat": 38.914158666666665, "fusion_lat": 0.0, "is_reserved": 0, "rental_uris": {"ios": "https://dc.lft.to/lastmile_qr_scan", "android": "https://dc.lft.to/lastmile_qr_scan"}, "fusion_lon": 0.0, "type": "electric_scooter", "bike_id": "301789a151dde89102be9825ee64c53e", "name": "301789a151dde89102be9825ee64c53e"}, {"lon": -77.019492, "is_disabled": 0, "lat": 38.90465433333333, "fusion_lat": 0.0, "is_reserved": 0, "rental_uris": {"ios": "https://dc.lft.to/lastmile_qr_scan", "android": "https://dc.lft.to/lastmile_qr_scan"}, "fusion_lon": 0.0, "type": "electric_scooter", "bike_id": "f9539bd735f62ec95b47fd4298aa41c1", "name": "f9539bd735f62ec95b47fd4298aa41c1"}, {"lon": -76.9970915, "is_disabled": 0, "lat": 38.908190833333336, "fusion_lat": 0.0, "is_reserved": 0, "rental_uris": {"ios": "https://dc.lft.to/lastmile_qr_scan", "android": "https://dc.lft.to/lastmile_qr_scan"}, "fusion_lon": 0.0, "type": "electric_scooter", "bike_id": "8f409cda4a993b8cc5e33f4a78ec7c51", "name": "8f409cda4a993b8cc5e33f4a78ec7c51"}, {"lon": -77.04916983333334, "is_disabled": 0, "lat": 38.903073, "fusion_lat": 0.0, "is_reserved": 0, "rental_uris": {"ios": "https://dc.lft.to/lastmile_qr_scan", "android": "https://dc.lft.to/lastmile_qr_scan"}, "fusion_lon": 0.0, "type": "electric_scooter", "bike_id": "43ef7bacf0a45db3d25c67393b24b7cd", "name": "43ef7bacf0a45db3d25c67393b24b7cd"}, {"lon": -76.99026633333334, "is_disabled": 0, "lat": 38.928684833333335, "fusion_lat": 0.0, "is_reserved": 0, "rental_uris": {"ios": "https://dc.lft.to/lastmile_qr_scan", "android": "https://dc.lft.to/lastmile_qr_scan"}, "fusion_lon": 0.0, "type": "electric_scooter", "bike_id": "35e4eb656068be21fcde3d7cefd37723", "name": "35e4eb656068be21fcde3d7cefd37723"}, {"lon": -76.99698683333334, "is_disabled": 0, "lat": 38.93232733333333, "fusion_lat": 0.0, "is_reserved": 0, "rental_uris": {"ios": "https://dc.lft.to/lastmile_qr_scan", "android": "https://dc.lft.to/lastmile_qr_scan"}, "fusion_lon": 0.0, "type": "electric_scooter", "bike_id": "cdd7d1af3269102faf40fbfceabe1b1c", "name": "cdd7d1af3269102faf40fbfceabe1b1c"}, {"lon": -77.03184083333333, "is_disabled": 0, "lat": 38.917417666666665, "fusion_lat": 0.0, "is_reserved": 0, "rental_uris": {"ios": "https://dc.lft.to/lastmile_qr_scan", "android": "https://dc.lft.to/lastmile_qr_scan"}, "fusion_lon": 0.0, "type": "electric_scooter", "bike_id": "16b00b9bd8ada6a1d7420b28006f4ea3", "name": "16b00b9bd8ada6a1d7420b28006f4ea3"}, {"lon": -76.9301325, "is_disabled": 0, "lat": 38.88820783333333, "fusion_lat": 0.0, "is_reserved": 0, "rental_uris": {"ios": "https://dc.lft.to/lastmile_qr_scan", "android": "https://dc.lft.to/lastmile_qr_scan"}, "fusion_lon": 0.0, "type": "electric_scooter", "bike_id": "baa0e3a4a55b59b6e5a67764953c18d7", "name": "baa0e3a4a55b59b6e5a67764953c18d7"}, {"lon": -76.99923833333334, "is_disabled": 0, "lat": 39.039893666666664, "fusion_lat": 0.0, "is_reserved": 0, "rental_uris": {"ios": "https://dc.lft.to/lastmile_qr_scan", "android": "https://dc.lft.to/lastmile_qr_scan"}, "fusion_lon": 0.0, "type": "electric_bike", "bike_id": "2110061d587b11788e3b7f9f27d6e170", "name": "2110061d587b11788e3b7f9f27d6e170"}, {"lon": -77.04231616666667, "is_disabled": 0, "lat": 38.9205445, "fusion_lat": 0.0, "is_reserved": 0, "rental_uris": {"ios": "https://dc.lft.to/lastmile_qr_scan", "android": "https://dc.lft.to/lastmile_qr_scan"}, "fusion_lon": 0.0, "type": "electric_scooter", "bike_id": "c49c77f01f35d4b5dcc5682b0518dd28", "name": "c49c77f01f35d4b5dcc5682b0518dd28"}, {"lon": -77.03300733333333, "is_disabled": 0, "lat": 38.92349683333333, "fusion_lat": 0.0, "is_reserved": 0, "rental_uris": {"ios": "https://dc.lft.to/lastmile_qr_scan", "android": "https://dc.lft.to/lastmile_qr_scan"}, "fusion_lon": 0.0, "type": "electric_scooter", "bike_id": "e0bd46a8c532ec6c19ef87f1a42ea5a5", "name": "e0bd46a8c532ec6c19ef87f1a42ea5a5"}, {"lon": -77.03864983333334, "is_disabled": 0, "lat": 38.917111166666665, "fusion_lat": 0.0, "is_reserved": 0, "rental_uris": {"ios": "https://dc.lft.to/lastmile_qr_scan", "android": "https://dc.lft.to/lastmile_qr_scan"}, "fusion_lon": 0.0, "type": "electric_scooter", "bike_id": "3fe0c5913ccf0af2763b8d095b3f95cd", "name": "3fe0c5913ccf0af2763b8d095b3f95cd"}, {"lon": -77.0345255, "is_disabled": 0, "lat": 38.922193666666665, "fusion_lat": 0.0, "is_reserved": 0, "rental_uris": {"ios": "https://dc.lft.to/lastmile_qr_scan", "android": "https://dc.lft.to/lastmile_qr_scan"}, "fusion_lon": 0.0, "type": "electric_scooter", "bike_id": "c42307806f61da180d45f8c2b58464e9", "name": "c42307806f61da180d45f8c2b58464e9"}, {"lon": -77.025788, "is_disabled": 0, "lat": 38.9148625, "fusion_lat": 0.0, "is_reserved": 0, "rental_uris": {"ios": "https://dc.lft.to/lastmile_qr_scan", "android": "https://dc.lft.to/lastmile_qr_scan"}, "fusion_lon": 0.0, "type": "electric_scooter", "bike_id": "c95d437d9522612284d2c77dfa7f7025", "name": "c95d437d9522612284d2c77dfa7f7025"}, {"lon": -77.02614416666667, "is_disabled": 0, "lat": 38.91414533333333, "fusion_lat": 0.0, "is_reserved": 0, "rental_uris": {"ios": "https://dc.lft.to/lastmile_qr_scan", "android": "https://dc.lft.to/lastmile_qr_scan"}, "fusion_lon": 0.0, "type": "electric_scooter", "bike_id": "3a1523b7654389e5e76fb9c6df2d5b37", "name": "3a1523b7654389e5e76fb9c6df2d5b37"}, {"lon": -77.0139255, "is_disabled": 0, "lat": 38.91955133333333, "fusion_lat": 0.0, "is_reserved": 0, "rental_uris": {"ios": "https://dc.lft.to/lastmile_qr_scan", "android": "https://dc.lft.to/lastmile_qr_scan"}, "fusion_lon": 0.0, "type": "electric_scooter", "bike_id": "1c04b1cfe7d0ec399ac5d89d5f0a5cea", "name": "1c04b1cfe7d0ec399ac5d89d5f0a5cea"}, {"lon": -77.04834783333334, "is_disabled": 0, "lat": 38.898385166666664, "fusion_lat": 0.0, "is_reserved": 0, "rental_uris": {"ios": "https://dc.lft.to/lastmile_qr_scan", "android": "https://dc.lft.to/lastmile_qr_scan"}, "fusion_lon": 0.0, "type": "electric_scooter", "bike_id": "add9bb0a910084dbba97e6bb9dd02d68", "name": "add9bb0a910084dbba97e6bb9dd02d68"}, {"lon": -77.01908983333334, "is_disabled": 0, "lat": 38.937738, "fusion_lat": 0.0, "is_reserved": 0, "rental_uris": {"ios": "https://dc.lft.to/lastmile_qr_scan", "android": "https://dc.lft.to/lastmile_qr_scan"}, "fusion_lon": 0.0, "type": "electric_bike", "bike_id": "73cbac3b09e5d1500c14e8ef38e22d23", "name": "73cbac3b09e5d1500c14e8ef38e22d23"}, {"lon": -77.08091466666667, "is_disabled": 0, "lat": 38.950965833333335, "fusion_lat": 0.0, "is_reserved": 0, "rental_uris": {"ios": "https://dc.lft.to/lastmile_qr_scan", "android": "https://dc.lft.to/lastmile_qr_scan"}, "fusion_lon": 0.0, "type": "electric_bike", "bike_id": "694688bc3ba9d2e58407992406bc5776", "name": "694688bc3ba9d2e58407992406bc5776"}, {"lon": -76.98968533333333, "is_disabled": 0, "lat": 38.90338783333333, "fusion_lat": 0.0, "is_reserved": 0, "rental_uris": {"ios": "https://dc.lft.to/lastmile_qr_scan", "android": "https://dc.lft.to/lastmile_qr_scan"}, "fusion_lon": 0.0, "type": "electric_scooter", "bike_id": "5a9217f1a0446cadc5aed0e0af3f640e", "name": "5a9217f1a0446cadc5aed0e0af3f640e"}, {"lon": -77.02205666666667, "is_disabled": 0, "lat": 38.92989516666667, "fusion_lat": 0.0, "is_reserved": 0, "rental_uris": {"ios": "https://dc.lft.to/lastmile_qr_scan", "android": "https://dc.lft.to/lastmile_qr_scan"}, "fusion_lon": 0.0, "type": "electric_scooter", "bike_id": "9bb5f19463c69525b92714b25e903868", "name": "9bb5f19463c69525b92714b25e903868"}, {"lon": -76.95867783333334, "is_disabled": 0, "lat": 38.87559316666667, "fusion_lat": 0.0, "is_reserved": 0, "rental_uris": {"ios": "https://dc.lft.to/lastmile_qr_scan", "android": "https://dc.lft.to/lastmile_qr_scan"}, "fusion_lon": 0.0, "type": "electric_scooter", "bike_id": "0f4db0dea48e7f693c4b9e126ef28e0f", "name": "0f4db0dea48e7f693c4b9e126ef28e0f"}, {"lon": -77.02947366666666, "is_disabled": 0, "lat": 38.925713, "fusion_lat": 0.0, "is_reserved": 0, "rental_uris": {"ios": "https://dc.lft.to/lastmile_qr_scan", "android": "https://dc.lft.to/lastmile_qr_scan"}, "fusion_lon": 0.0, "type": "electric_scooter", "bike_id": "a9b5f07ea2d8a69fe06156a01b7d2c26", "name": "a9b5f07ea2d8a69fe06156a01b7d2c26"}, {"lon": -77.0230535, "is_disabled": 0, "lat": 38.91594383333333, "fusion_lat": 0.0, "is_reserved": 0, "rental_uris": {"ios": "https://dc.lft.to/lastmile_qr_scan", "android": "https://dc.lft.to/lastmile_qr_scan"}, "fusion_lon": 0.0, "type": "electric_scooter", "bike_id": "b73cccacce844a690dbe831f996fb125", "name": "b73cccacce844a690dbe831f996fb125"}, {"lon": -77.0220205, "is_disabled": 0, "lat": 38.91036, "fusion_lat": 0.0, "is_reserved": 0, "rental_uris": {"ios": "https://dc.lft.to/lastmile_qr_scan", "android": "https://dc.lft.to/lastmile_qr_scan"}, "fusion_lon": 0.0, "type": "electric_scooter", "bike_id": "ae9378316e02f935bf0a381aed6a9712", "name": "ae9378316e02f935bf0a381aed6a9712"}, {"lon": -76.98357383333334, "is_disabled": 0, "lat": 38.897205666666665, "fusion_lat": 0.0, "is_reserved": 0, "rental_uris": {"ios": "https://dc.lft.to/lastmile_qr_scan", "android": "https://dc.lft.to/lastmile_qr_scan"}, "fusion_lon": 0.0, "type": "electric_scooter", "bike_id": "4560fc95161afd948e3197f46d2c47f4", "name": "4560fc95161afd948e3197f46d2c47f4"}, {"lon": -77.06051133333334, "is_disabled": 0, "lat": 38.9391735, "fusion_lat": 0.0, "is_reserved": 0, "rental_uris": {"ios": "https://dc.lft.to/lastmile_qr_scan", "android": "https://dc.lft.to/lastmile_qr_scan"}, "fusion_lon": 0.0, "type": "electric_scooter", "bike_id": "6b2b4b45784c54e7da3fd063743c3118", "name": "6b2b4b45784c54e7da3fd063743c3118"}, {"lon": -77.0286315, "is_disabled": 0, "lat": 39.03702766666667, "fusion_lat": 0.0, "is_reserved": 0, "rental_uris": {"ios": "https://dc.lft.to/lastmile_qr_scan", "android": "https://dc.lft.to/lastmile_qr_scan"}, "fusion_lon": 0.0, "type": "electric_bike", "bike_id": "61ce0d83ec3593a8d6d76ac9d471e416", "name": "61ce0d83ec3593a8d6d76ac9d471e416"}, {"lon": -77.005067, "is_disabled": 0, "lat": 38.909191666666665, "fusion_lat": 0.0, "is_reserved": 0, "rental_uris": {"ios": "https://dc.lft.to/lastmile_qr_scan", "android": "https://dc.lft.to/lastmile_qr_scan"}, "fusion_lon": 0.0, "type": "electric_scooter", "bike_id": "ce89281eb94308c1b70cadda4b58983f", "name": "ce89281eb94308c1b70cadda4b58983f"}, {"lon": -77.0066575, "is_disabled": 0, "lat": 38.900055, "fusion_lat": 0.0, "is_reserved": 0, "rental_uris": {"ios": "https://dc.lft.to/lastmile_qr_scan", "android": "https://dc.lft.to/lastmile_qr_scan"}, "fusion_lon": 0.0, "type": "electric_scooter", "bike_id": "7d21ff1de9bc1c4cf9390d8716e6ce39", "name": "7d21ff1de9bc1c4cf9390d8716e6ce39"}, {"lon": -77.04249183333333, "is_disabled": 0, "lat": 38.90853833333333, "fusion_lat": 0.0, "is_reserved": 0, "rental_uris": {"ios": "https://dc.lft.to/lastmile_qr_scan", "android": "https://dc.lft.to/lastmile_qr_scan"}, "fusion_lon": 0.0, "type": "electric_scooter", "bike_id": "b90dec5e8473e5bbb6cfd83caa2cc70c", "name": "b90dec5e8473e5bbb6cfd83caa2cc70c"}, {"lon": -77.0287785, "is_disabled": 0, "lat": 38.9013755, "fusion_lat": 0.0, "is_reserved": 0, "rental_uris": {"ios": "https://dc.lft.to/lastmile_qr_scan", "android": "https://dc.lft.to/lastmile_qr_scan"}, "fusion_lon": 0.0, "type": "electric_scooter", "bike_id": "6182a3ea44c60ad1e3c3bacba186bbac", "name": "6182a3ea44c60ad1e3c3bacba186bbac"}, {"lon": -77.047676, "is_disabled": 0, "lat": 38.91759283333333, "fusion_lat": 0.0, "is_reserved": 0, "rental_uris": {"ios": "https://dc.lft.to/lastmile_qr_scan", "android": "https://dc.lft.to/lastmile_qr_scan"}, "fusion_lon": 0.0, "type": "electric_scooter", "bike_id": "c41cf38b24dce56baa7a19d610e250df", "name": "c41cf38b24dce56baa7a19d610e250df"}, {"lon": -76.98035866666666, "is_disabled": 0, "lat": 38.90789933333333, "fusion_lat": 0.0, "is_reserved": 0, "rental_uris": {"ios": "https://dc.lft.to/lastmile_qr_scan", "android": "https://dc.lft.to/lastmile_qr_scan"}, "fusion_lon": 0.0, "type": "electric_scooter", "bike_id": "660eb5a803700042bb015bcaa8f038ce", "name": "660eb5a803700042bb015bcaa8f038ce"}, {"lon": -77.032079, "is_disabled": 0, "lat": 38.8979985, "fusion_lat": 0.0, "is_reserved": 0, "rental_uris": {"ios": "https://dc.lft.to/lastmile_qr_scan", "android": "https://dc.lft.to/lastmile_qr_scan"}, "fusion_lon": 0.0, "type": "electric_scooter", "bike_id": "39fe2df82f1b06024e6061c8064629d4", "name": "39fe2df82f1b06024e6061c8064629d4"}, {"lon": -77.0245805, "is_disabled": 0, "lat": 38.948297833333335, "fusion_lat": 0.0, "is_reserved": 0, "rental_uris": {"ios": "https://dc.lft.to/lastmile_qr_scan", "android": "https://dc.lft.to/lastmile_qr_scan"}, "fusion_lon": 0.0, "type": "electric_scooter", "bike_id": "ac82c26e78f1599fec65884474f00a44", "name": "ac82c26e78f1599fec65884474f00a44"}, {"lon": -77.0148825, "is_disabled": 0, "lat": 38.89221, "fusion_lat": 0.0, "is_reserved": 0, "rental_uris": {"ios": "https://dc.lft.to/lastmile_qr_scan", "android": "https://dc.lft.to/lastmile_qr_scan"}, "fusion_lon": 0.0, "type": "electric_scooter", "bike_id": "fb10005b050f5cdda0d5f950d8026ebf", "name": "fb10005b050f5cdda0d5f950d8026ebf"}, {"lon": -77.05915816666666, "is_disabled": 0, "lat": 38.90144866666667, "fusion_lat": 0.0, "is_reserved": 0, "rental_uris": {"ios": "https://dc.lft.to/lastmile_qr_scan", "android": "https://dc.lft.to/lastmile_qr_scan"}, "fusion_lon": 0.0, "type": "electric_scooter", "bike_id": "b38ea431182afe1a5035215f7b308571", "name": "b38ea431182afe1a5035215f7b308571"}, {"lon": -76.98574966666666, "is_disabled": 0, "lat": 38.866823333333336, "fusion_lat": 0.0, "is_reserved": 0, "rental_uris": {"ios": "https://dc.lft.to/lastmile_qr_scan", "android": "https://dc.lft.to/lastmile_qr_scan"}, "fusion_lon": 0.0, "type": "electric_scooter", "bike_id": "c0917b29db11cfedbf98b30c23272b5c", "name": "c0917b29db11cfedbf98b30c23272b5c"}, {"lon": -77.02716666666667, "is_disabled": 0, "lat": 38.90717316666667, "fusion_lat": 0.0, "is_reserved": 0, "rental_uris": {"ios": "https://dc.lft.to/lastmile_qr_scan", "android": "https://dc.lft.to/lastmile_qr_scan"}, "fusion_lon": 0.0, "type": "electric_scooter", "bike_id": "5e05a0a46158624d3ab13e9ef27c1b28", "name": "5e05a0a46158624d3ab13e9ef27c1b28"}, {"lon": -77.003743, "is_disabled": 0, "lat": 38.906032833333335, "fusion_lat": 0.0, "is_reserved": 0, "rental_uris": {"ios": "https://dc.lft.to/lastmile_qr_scan", "android": "https://dc.lft.to/lastmile_qr_scan"}, "fusion_lon": 0.0, "type": "electric_scooter", "bike_id": "b5d1728da7a38eb5dda874228bdfe90e", "name": "b5d1728da7a38eb5dda874228bdfe90e"}, {"lon": -76.98718916666667, "is_disabled": 0, "lat": 38.866263000000004, "fusion_lat": 0.0, "is_reserved": 0, "rental_uris": {"ios": "https://dc.lft.to/lastmile_qr_scan", "android": "https://dc.lft.to/lastmile_qr_scan"}, "fusion_lon": 0.0, "type": "electric_scooter", "bike_id": "689f8ddef3b03919124b810594fa4636", "name": "689f8ddef3b03919124b810594fa4636"}, {"lon": -77.04846333333333, "is_disabled": 0, "lat": 38.916298, "fusion_lat": 0.0, "is_reserved": 0, "rental_uris": {"ios": "https://dc.lft.to/lastmile_qr_scan", "android": "https://dc.lft.to/lastmile_qr_scan"}, "fusion_lon": 0.0, "type": "electric_scooter", "bike_id": "31a2e62a7dbdc21e357157818f9fd52c", "name": "31a2e62a7dbdc21e357157818f9fd52c"}, {"lon": -77.0230165, "is_disabled": 0, "lat": 38.89697016666667, "fusion_lat": 0.0, "is_reserved": 0, "rental_uris": {"ios": "https://dc.lft.to/lastmile_qr_scan", "android": "https://dc.lft.to/lastmile_qr_scan"}, "fusion_lon": 0.0, "type": "electric_scooter", "bike_id": "6b0ced7c2c158bf6073d2082ac662b10", "name": "6b0ced7c2c158bf6073d2082ac662b10"}, {"lon": -76.942485, "is_disabled": 0, "lat": 38.89742833333333, "fusion_lat": 0.0, "is_reserved": 0, "rental_uris": {"ios": "https://dc.lft.to/lastmile_qr_scan", "android": "https://dc.lft.to/lastmile_qr_scan"}, "fusion_lon": 0.0, "type": "electric_bike", "bike_id": "1e43435d8f8494585aec09f0ab2a572e", "name": "1e43435d8f8494585aec09f0ab2a572e"}, {"lon": -77.0137175, "is_disabled": 0, "lat": 38.886442833333334, "fusion_lat": 0.0, "is_reserved": 0, "rental_uris": {"ios": "https://dc.lft.to/lastmile_qr_scan", "android": "https://dc.lft.to/lastmile_qr_scan"}, "fusion_lon": 0.0, "type": "electric_scooter", "bike_id": "ce9b2656337c29bdec8976ce4b42a656", "name": "ce9b2656337c29bdec8976ce4b42a656"}, {"lon": -76.981308, "is_disabled": 0, "lat": 38.87070816666667, "fusion_lat": 0.0, "is_reserved": 0, "rental_uris": {"ios": "https://dc.lft.to/lastmile_qr_scan", "android": "https://dc.lft.to/lastmile_qr_scan"}, "fusion_lon": 0.0, "type": "electric_scooter", "bike_id": "d38b2a6b84f8d35a94f37e4ff9c707fc", "name": "d38b2a6b84f8d35a94f37e4ff9c707fc"}, {"lon": -76.98926066666667, "is_disabled": 0, "lat": 38.85810433333333, "fusion_lat": 0.0, "is_reserved": 0, "rental_uris": {"ios": "https://dc.lft.to/lastmile_qr_scan", "android": "https://dc.lft.to/lastmile_qr_scan"}, "fusion_lon": 0.0, "type": "electric_scooter", "bike_id": "f4a74d841e6b95192c2b043595d0a1c1", "name": "f4a74d841e6b95192c2b043595d0a1c1"}, {"lon": -77.0136475, "is_disabled": 0, "lat": 38.929623, "fusion_lat": 0.0, "is_reserved": 0, "rental_uris": {"ios": "https://dc.lft.to/lastmile_qr_scan", "android": "https://dc.lft.to/lastmile_qr_scan"}, "fusion_lon": 0.0, "type": "electric_bike", "bike_id": "c28659f7a37fb2ec4ef3f79ad03f8449", "name": "c28659f7a37fb2ec4ef3f79ad03f8449"}, {"lon": -77.0022495, "is_disabled": 0, "lat": 38.925086666666665, "fusion_lat": 0.0, "is_reserved": 0, "rental_uris": {"ios": "https://dc.lft.to/lastmile_qr_scan", "android": "https://dc.lft.to/lastmile_qr_scan"}, "fusion_lon": 0.0, "type": "electric_scooter", "bike_id": "c2f8cf6d05886d710fdecb041ec28b94", "name": "c2f8cf6d05886d710fdecb041ec28b94"}, {"lon": -77.0206035, "is_disabled": 0, "lat": 38.92847316666667, "fusion_lat": 0.0, "is_reserved": 0, "rental_uris": {"ios": "https://dc.lft.to/lastmile_qr_scan", "android": "https://dc.lft.to/lastmile_qr_scan"}, "fusion_lon": 0.0, "type": "electric_bike", "bike_id": "9ea9601d7cde6d7485d4e8fc9ef49691", "name": "9ea9601d7cde6d7485d4e8fc9ef49691"}, {"lon": -76.92904466666667, "is_disabled": 0, "lat": 38.8985135, "fusion_lat": 0.0, "is_reserved": 0, "rental_uris": {"ios": "https://dc.lft.to/lastmile_qr_scan", "android": "https://dc.lft.to/lastmile_qr_scan"}, "fusion_lon": 0.0, "type": "electric_scooter", "bike_id": "5f08e96102ae31a7faf3825280c15899", "name": "5f08e96102ae31a7faf3825280c15899"}, {"lon": -77.049251, "is_disabled": 0, "lat": 38.91827166666667, "fusion_lat": 0.0, "is_reserved": 0, "rental_uris": {"ios": "https://dc.lft.to/lastmile_qr_scan", "android": "https://dc.lft.to/lastmile_qr_scan"}, "fusion_lon": 0.0, "type": "electric_scooter", "bike_id": "252290c5c770a442ead1f48cd9520c0c", "name": "252290c5c770a442ead1f48cd9520c0c"}, {"lon": -77.02812166666666, "is_disabled": 0, "lat": 38.91138766666667, "fusion_lat": 0.0, "is_reserved": 0, "rental_uris": {"ios": "https://dc.lft.to/lastmile_qr_scan", "android": "https://dc.lft.to/lastmile_qr_scan"}, "fusion_lon": 0.0, "type": "electric_scooter", "bike_id": "fd708018b8ff1943e7c824c9c4ae5ccd", "name": "fd708018b8ff1943e7c824c9c4ae5ccd"}, {"lon": -77.03870183333333, "is_disabled": 0, "lat": 38.921541833333336, "fusion_lat": 0.0, "is_reserved": 0, "rental_uris": {"ios": "https://dc.lft.to/lastmile_qr_scan", "android": "https://dc.lft.to/lastmile_qr_scan"}, "fusion_lon": 0.0, "type": "electric_scooter", "bike_id": "2b3b2ffd733738cafd96f23e8d43fd67", "name": "2b3b2ffd733738cafd96f23e8d43fd67"}, {"lon": -77.05265283333334, "is_disabled": 0, "lat": 38.92775683333333, "fusion_lat": 0.0, "is_reserved": 0, "rental_uris": {"ios": "https://dc.lft.to/lastmile_qr_scan", "android": "https://dc.lft.to/lastmile_qr_scan"}, "fusion_lon": 0.0, "type": "electric_scooter", "bike_id": "c0f7b7d4179908fa2ae8f331c24d6e85", "name": "c0f7b7d4179908fa2ae8f331c24d6e85"}, {"lon": -77.003559, "is_disabled": 0, "lat": 38.899277833333336, "fusion_lat": 0.0, "is_reserved": 0, "rental_uris": {"ios": "https://dc.lft.to/lastmile_qr_scan", "android": "https://dc.lft.to/lastmile_qr_scan"}, "fusion_lon": 0.0, "type": "electric_scooter", "bike_id": "a3f4f557785da47d64fb936fc35b0049", "name": "a3f4f557785da47d64fb936fc35b0049"}, {"lon": -77.03226233333334, "is_disabled": 0, "lat": 38.908695333333334, "fusion_lat": 0.0, "is_reserved": 0, "rental_uris": {"ios": "https://dc.lft.to/lastmile_qr_scan", "android": "https://dc.lft.to/lastmile_qr_scan"}, "fusion_lon": 0.0, "type": "electric_scooter", "bike_id": "1393998c9a6686a7f20175f628c69b80", "name": "1393998c9a6686a7f20175f628c69b80"}, {"lon": -77.01052116666666, "is_disabled": 0, "lat": 38.87765733333333, "fusion_lat": 0.0, "is_reserved": 0, "rental_uris": {"ios": "https://dc.lft.to/lastmile_qr_scan", "android": "https://dc.lft.to/lastmile_qr_scan"}, "fusion_lon": 0.0, "type": "electric_bike", "bike_id": "eb7e0c83ee05b119ecd0795bbec9d9f6", "name": "eb7e0c83ee05b119ecd0795bbec9d9f6"}, {"lon": -77.03869566666667, "is_disabled": 0, "lat": 38.92148133333333, "fusion_lat": 0.0, "is_reserved": 0, "rental_uris": {"ios": "https://dc.lft.to/lastmile_qr_scan", "android": "https://dc.lft.to/lastmile_qr_scan"}, "fusion_lon": 0.0, "type": "electric_scooter", "bike_id": "e397b9f072106a3c9fec7172c5b4a0b0", "name": "e397b9f072106a3c9fec7172c5b4a0b0"}, {"lon": -77.02972716666666, "is_disabled": 0, "lat": 38.91990233333333, "fusion_lat": 0.0, "is_reserved": 0, "rental_uris": {"ios": "https://dc.lft.to/lastmile_qr_scan", "android": "https://dc.lft.to/lastmile_qr_scan"}, "fusion_lon": 0.0, "type": "electric_scooter", "bike_id": "d0734b2cb52a20a22140f953ec520584", "name": "d0734b2cb52a20a22140f953ec520584"}, {"lon": -76.9896065, "is_disabled": 0, "lat": 38.85878866666667, "fusion_lat": 0.0, "is_reserved": 0, "rental_uris": {"ios": "https://dc.lft.to/lastmile_qr_scan", "android": "https://dc.lft.to/lastmile_qr_scan"}, "fusion_lon": 0.0, "type": "electric_scooter", "bike_id": "13cc6653be798291b7887df428dd2616", "name": "13cc6653be798291b7887df428dd2616"}, {"lon": -77.0310065, "is_disabled": 0, "lat": 38.883209666666666, "fusion_lat": 0.0, "is_reserved": 0, "rental_uris": {"ios": "https://dc.lft.to/lastmile_qr_scan", "android": "https://dc.lft.to/lastmile_qr_scan"}, "fusion_lon": 0.0, "type": "electric_scooter", "bike_id": "4ca2df5ee03f3b8ce805bd96051f88f3", "name": "4ca2df5ee03f3b8ce805bd96051f88f3"}, {"lon": -77.022681, "is_disabled": 0, "lat": 38.92446366666667, "fusion_lat": 0.0, "is_reserved": 0, "rental_uris": {"ios": "https://dc.lft.to/lastmile_qr_scan", "android": "https://dc.lft.to/lastmile_qr_scan"}, "fusion_lon": 0.0, "type": "electric_scooter", "bike_id": "bb24086a49790851e2f9024e1985a162", "name": "bb24086a49790851e2f9024e1985a162"}, {"lon": -77.04836133333333, "is_disabled": 0, "lat": 38.898377333333336, "fusion_lat": 0.0, "is_reserved": 0, "rental_uris": {"ios": "https://dc.lft.to/lastmile_qr_scan", "android": "https://dc.lft.to/lastmile_qr_scan"}, "fusion_lon": 0.0, "type": "electric_scooter", "bike_id": "226dda4fec549af62966e24748004753", "name": "226dda4fec549af62966e24748004753"}, {"lon": -76.98288266666667, "is_disabled": 0, "lat": 38.90046366666667, "fusion_lat": 0.0, "is_reserved": 0, "rental_uris": {"ios": "https://dc.lft.to/lastmile_qr_scan", "android": "https://dc.lft.to/lastmile_qr_scan"}, "fusion_lon": 0.0, "type": "electric_scooter", "bike_id": "b65db98766f0b1d09a11112219a11178", "name": "b65db98766f0b1d09a11112219a11178"}, {"lon": -77.04310666666667, "is_disabled": 0, "lat": 38.9318305, "fusion_lat": 0.0, "is_reserved": 0, "rental_uris": {"ios": "https://dc.lft.to/lastmile_qr_scan", "android": "https://dc.lft.to/lastmile_qr_scan"}, "fusion_lon": 0.0, "type": "electric_scooter", "bike_id": "033daee75214ab94323def97c6dff1b3", "name": "033daee75214ab94323def97c6dff1b3"}, {"lon": -77.035383, "is_disabled": 0, "lat": 38.91842316666666, "fusion_lat": 0.0, "is_reserved": 0, "rental_uris": {"ios": "https://dc.lft.to/lastmile_qr_scan", "android": "https://dc.lft.to/lastmile_qr_scan"}, "fusion_lon": 0.0, "type": "electric_scooter", "bike_id": "6a2e3032d13afe9114b9b2f8fe8f94bc", "name": "6a2e3032d13afe9114b9b2f8fe8f94bc"}, {"lon": -77.01221783333334, "is_disabled": 0, "lat": 38.9006935, "fusion_lat": 0.0, "is_reserved": 0, "rental_uris": {"ios": "https://dc.lft.to/lastmile_qr_scan", "android": "https://dc.lft.to/lastmile_qr_scan"}, "fusion_lon": 0.0, "type": "electric_scooter", "bike_id": "3c4f6f0b11959e930b2a20ad858f02c8", "name": "3c4f6f0b11959e930b2a20ad858f02c8"}, {"lon": -76.96059616666666, "is_disabled": 0, "lat": 38.88408783333333, "fusion_lat": 0.0, "is_reserved": 0, "rental_uris": {"ios": "https://dc.lft.to/lastmile_qr_scan", "android": "https://dc.lft.to/lastmile_qr_scan"}, "fusion_lon": 0.0, "type": "electric_bike", "bike_id": "18ffe6578e22f2ab0e952e6e0002ffca", "name": "18ffe6578e22f2ab0e952e6e0002ffca"}, {"lon": -77.00134833333334, "is_disabled": 0, "lat": 38.89269983333333, "fusion_lat": 0.0, "is_reserved": 0, "rental_uris": {"ios": "https://dc.lft.to/lastmile_qr_scan", "android": "https://dc.lft.to/lastmile_qr_scan"}, "fusion_lon": 0.0, "type": "electric_scooter", "bike_id": "1a3de3b63ba7429850f9e398b31ada05", "name": "1a3de3b63ba7429850f9e398b31ada05"}, {"lon": -77.02598483333334, "is_disabled": 0, "lat": 38.923836333333334, "fusion_lat": 0.0, "is_reserved": 0, "rental_uris": {"ios": "https://dc.lft.to/lastmile_qr_scan", "android": "https://dc.lft.to/lastmile_qr_scan"}, "fusion_lon": 0.0, "type": "electric_scooter", "bike_id": "f5e0ba422cea8d2acb2b21d3f569eef3", "name": "f5e0ba422cea8d2acb2b21d3f569eef3"}, {"lon": -77.038391, "is_disabled": 0, "lat": 38.91565133333334, "fusion_lat": 0.0, "is_reserved": 0, "rental_uris": {"ios": "https://dc.lft.to/lastmile_qr_scan", "android": "https://dc.lft.to/lastmile_qr_scan"}, "fusion_lon": 0.0, "type": "electric_scooter", "bike_id": "10538f590d20244111391e82b960a790", "name": "10538f590d20244111391e82b960a790"}, {"lon": -77.02387183333333, "is_disabled": 0, "lat": 38.9196045, "fusion_lat": 0.0, "is_reserved": 0, "rental_uris": {"ios": "https://dc.lft.to/lastmile_qr_scan", "android": "https://dc.lft.to/lastmile_qr_scan"}, "fusion_lon": 0.0, "type": "electric_scooter", "bike_id": "2c6f64234b04ca812da23154d0b36220", "name": "2c6f64234b04ca812da23154d0b36220"}, {"lon": -77.00660316666666, "is_disabled": 0, "lat": 38.9000015, "fusion_lat": 0.0, "is_reserved": 0, "rental_uris": {"ios": "https://dc.lft.to/lastmile_qr_scan", "android": "https://dc.lft.to/lastmile_qr_scan"}, "fusion_lon": 0.0, "type": "electric_scooter", "bike_id": "e6c53b5232ac2b4e2a52143a730fe09f", "name": "e6c53b5232ac2b4e2a52143a730fe09f"}, {"lon": -77.01107283333333, "is_disabled": 0, "lat": 38.9097055, "fusion_lat": 0.0, "is_reserved": 0, "rental_uris": {"ios": "https://dc.lft.to/lastmile_qr_scan", "android": "https://dc.lft.to/lastmile_qr_scan"}, "fusion_lon": 0.0, "type": "electric_scooter", "bike_id": "f39f6f90cd2bf17007c9296b731ddfa0", "name": "f39f6f90cd2bf17007c9296b731ddfa0"}, {"lon": -77.03778333333334, "is_disabled": 0, "lat": 38.924739333333335, "fusion_lat": 0.0, "is_reserved": 0, "rental_uris": {"ios": "https://dc.lft.to/lastmile_qr_scan", "android": "https://dc.lft.to/lastmile_qr_scan"}, "fusion_lon": 0.0, "type": "electric_scooter", "bike_id": "eabcd5b2efbf04a263c499598b936749", "name": "eabcd5b2efbf04a263c499598b936749"}, {"lon": -77.03715483333333, "is_disabled": 0, "lat": 38.92863966666667, "fusion_lat": 0.0, "is_reserved": 0, "rental_uris": {"ios": "https://dc.lft.to/lastmile_qr_scan", "android": "https://dc.lft.to/lastmile_qr_scan"}, "fusion_lon": 0.0, "type": "electric_scooter", "bike_id": "c5de1542d667e8dbd133f02324e07b3a", "name": "c5de1542d667e8dbd133f02324e07b3a"}, {"lon": -77.00249583333333, "is_disabled": 0, "lat": 38.87481566666666, "fusion_lat": 0.0, "is_reserved": 0, "rental_uris": {"ios": "https://dc.lft.to/lastmile_qr_scan", "android": "https://dc.lft.to/lastmile_qr_scan"}, "fusion_lon": 0.0, "type": "electric_scooter", "bike_id": "29dcb1d126ab2b274faf5c9588034f5e", "name": "29dcb1d126ab2b274faf5c9588034f5e"}, {"lon": -77.02478, "is_disabled": 0, "lat": 38.9187685, "fusion_lat": 0.0, "is_reserved": 0, "rental_uris": {"ios": "https://dc.lft.to/lastmile_qr_scan", "android": "https://dc.lft.to/lastmile_qr_scan"}, "fusion_lon": 0.0, "type": "electric_scooter", "bike_id": "124e8ba2c36fed46b0203b8dfc104f12", "name": "124e8ba2c36fed46b0203b8dfc104f12"}, {"lon": -77.05109716666666, "is_disabled": 0, "lat": 38.90059516666667, "fusion_lat": 0.0, "is_reserved": 0, "rental_uris": {"ios": "https://dc.lft.to/lastmile_qr_scan", "android": "https://dc.lft.to/lastmile_qr_scan"}, "fusion_lon": 0.0, "type": "electric_scooter", "bike_id": "01efe007d3c04a268d1c34f309b04ea5", "name": "01efe007d3c04a268d1c34f309b04ea5"}, {"lon": -77.00881466666667, "is_disabled": 0, "lat": 38.90107416666667, "fusion_lat": 0.0, "is_reserved": 0, "rental_uris": {"ios": "https://dc.lft.to/lastmile_qr_scan", "android": "https://dc.lft.to/lastmile_qr_scan"}, "fusion_lon": 0.0, "type": "electric_scooter", "bike_id": "3e6ae59e01c2ae253348ca7ce4066e51", "name": "3e6ae59e01c2ae253348ca7ce4066e51"},